{"last_updated":1743657061,"ttl":60,"version":"2.2","data":{"bikes":[{"bike_id":"6293244a-a5ac-4bd3-abcc-130806d24645","system_id":"levelo_inurba_marseille","lat":43.26196,"lon":5.37427,"is_reserved":false,"is_disabled":false,"rental_uris":{"android":"levelo://app?vid=6293244a-a5ac-4bd3-abcc-130806d24645","ios":"levelo://app?vid=6293244a-a5ac-4bd3-abcc-130806d24645"},"vehicle_type_id":"4","last_reported":1743657061,"current_range_meters":2800,"station_id":"ce4bhgp2rcd13ifvqfc0","pricing_plan_id":"cebpf4jnsgd1na2vs0mg"},{"bike_id":"90893ef6-46b3-42c2-8217-759eecb1a45a","system_id":"levelo_inurba_marseille","lat":43.30419,"lon":5.41282,"is_reserved":false,"is_disabled":false,"rental_uris":{"android":"levelo://app?vid=90893ef6-46b3-42c2-8217-759eecb1a45a","ios":"levelo://app?vid=90893ef6-46b3-42c2-8217-759eecb1a45a"},"vehicle_type_id":"4","last_reported":1743657061,"current_range_meters":2800,"station_id":"ce4bhop2rcd13ifvqh8g","pricing_plan_id":"cebpf4jnsgd1na2vs0mg"},{"bike_id":"f3cd4364-1d67-47a5-b548-5af17693b8f9","system_id":"levelo_inurba_marseille","lat":43.27979,"lon":5.38679,"is_reserved":false,"is_disabled":false,"rental_uris":{"android":"levelo://app?vid=f3cd4364-1d67-47a5-b548-5af17693b8f9","ios":"levelo://app?vid=f3cd4364-1d67-47a5-b548-5af17693b8f9"},"vehicle_type_id":"4","last_reported":1743657061,"current_range_meters":2800,"station_id":"","pricing_plan_id":"cebpf4jnsgd1na2vs0mg"},{"bike_id":"72a59223-7fbc-4af7-a727-ebdf00595f3e","system_id":"levelo_inurba_marseille","lat":43.241656,"lon":5.364012,"is_reserved":false,"is_disabled":false,"rental_uris":{"android":"levelo://app?vid=72a59223-7fbc-4af7-a727-ebdf00595f3e","ios":"levelo://app?vid=72a59223-7fbc-4af7-a727-ebdf00595f3e"},"vehicle_type_id":"4","last_reported":1743657061,"current_range_meters":3200,"station_id":"cpo36qri1sfpv3e86is0","pricing_plan_id":"cebpf4jnsgd1na2vs0mg"},{"bike_id":"66a6759f-f104-404f-ba35-7dd5d87e6d0b","system_id":"levelo_inurba_marseille","lat":43.301458,"lon":5.376796,"is_reserved":false,"is_disabled":false,"rental_uris":{"android":"levelo://app?vid=66a6759f-f104-404f-ba35-7dd5d87e6d0b","ios":"levelo://app?vid=66a6759f-f104-404f-ba35-7dd5d87e6d0b"},"vehicle_type_id":"4","last_reported":1743657061,"current_range_meters":3200,"station_id":"","pricing_plan_id":"cebpf4jnsgd1na2vs0mg"},{"bike_id":"f19d09c0-c570-4160-b74e-ebb29dd15cfa","system_id":"levelo_inurba_marseille","lat":43.3059,"lon":5.39353,"is_reserved":false,"is_disabled":false,"rental_uris":{"android":"levelo://app?vid=f19d09c0-c570-4160-b74e-ebb29dd15cfa","ios":"levelo://app?vid=f19d09c0-c570-4160-b74e-ebb29dd15cfa"},"vehicle_type_id":"4","last_reported":1743657061,"current_range_meters":3600,"station_id":"ce4bh0p2rcd13ifvqd80","pricing_plan_id":"cebpf4jnsgd1na2vs0mg"},{"bike_id":"073f5d1a-5a78-4a02-8067-3e88e81ab3a3","system_id":"levelo_inurba_marseille","lat":43.23142,"lon":5.43741,"is_reserved":false,"is_disabled":false,"rental_uris":{"android":"levelo://app?vid=073f5d1a-5a78-4a02-8067-3e88e81ab3a3","ios":"levelo://app?vid=073f5d1a-5a78-4a02-8067-3e88e81ab3a3"},"vehicle_type_id":"4","last_reported":1743657061,"current_range_meters":3600,"station_id":"ce4bhmp2rcd13ifvqgog","pricing_plan_id":"cebpf4jnsgd1na2vs0mg"},{"bike_id":"e47bc61d-df2d-41b3-b26b-dd94e6e5e301","system_id":"levelo_inurba_marseille","lat":43.262406,"lon":5.421295,"is_reserved":false,"is_disabled":false,"rental_uris":{"android":"levelo://app?vid=e47bc61d-df2d-41b3-b26b-dd94e6e5e301","ios":"levelo://app?vid=e47bc61d-df2d-41b3-b26b-dd94e6e5e301"},"vehicle_type_id":"4","last_reported":1743657061,"current_range_meters":3600,"station_id":"","pricing_plan_id":"cebpf4jnsgd1na2vs0mg"},{"bike_id":"e84bef4c-cced-4cd0-b180-0053717ac75e","system_id":"levelo_inurba_marseille","lat":43.287205,"lon":5.400011,"is_reserved":false,"is_disabled":true,"rental_uris":{"android":"levelo://app?vid=e84bef4c-cced-4cd0-b180-0053717ac75e","ios":"levelo://app?vid=e84bef4c-cced-4cd0-b180-0053717ac75e"},"vehicle_type_id":"4","last_reported":1743657061,"current_range_meters":3600,"station_id":"ce4bho92rcd13ifvqh3g","pricing_plan_id":"cebpf4jnsgd1na2vs0mg"},{"bike_id":"7bdf0d60-3026-4723-ac07-ebb25b9cf79f","system_id":"levelo_inurba_marseille","lat":43.28782,"lon":5.38688,"is_reserved":false,"is_disabled":false,"rental_uris":{"android":"levelo://app?vid=7bdf0d60-3026-4723-ac07-ebb25b9cf79f","ios":"levelo://app?vid=7bdf0d60-3026-4723-ac07-ebb25b9cf79f"},"vehicle_type_id":"4","last_reported":1743657061,"current_range_meters":3600,"station_id":"","pricing_plan_id":"cebpf4jnsgd1na2vs0mg"},{"bike_id":"8dd59c1b-0099-418f-9b93-35fc591d4892","system_id":"levelo_inurba_marseille","lat":43.29597,"lon":5.38699,"is_reserved":false,"is_disabled":false,"rental_uris":{"android":"levelo://app?vid=8dd59c1b-0099-418f-9b93-35fc591d4892","ios":"levelo://app?vid=8dd59c1b-0099-418f-9b93-35fc591d4892"},"vehicle_type_id":"4","last_reported":1743657061,"current_range_meters":4000,"station_id":"","pricing_plan_id":"cebpf4jnsgd1na2vs0mg"},{"bike_id":"fdd74cea-2420-4f5e-97f2-a48b67190c4e","system_id":"levelo_inurba_marseille","lat":43.337444,"lon":5.374475,"is_reserved":false,"is_disabled":false,"rental_uris":{"android":"levelo://app?vid=fdd74cea-2420-4f5e-97f2-a48b67190c4e","ios":"levelo://app?vid=fdd74cea-2420-4f5e-97f2-a48b67190c4e"},"vehicle_type_id":"4","last_reported":1743657061,"current_range_meters":4400,"station_id":"","pricing_plan_id":"cebpf4jnsgd1na2vs0mg"},{"bike_id":"4f1fb305-fdac-49af-98f8-e5ebaa4429a4","system_id":"levelo_inurba_marseille","lat":43.229334,"lon":5.353803,"is_reserved":false,"is_disabled":false,"rental_uris":{"android":"levelo://app?vid=4f1fb305-fdac-49af-98f8-e5ebaa4429a4","ios":"levelo://app?vid=4f1fb305-fdac-49af-98f8-e5ebaa4429a4"},"vehicle_type_id":"4","last_reported":1743657061,"current_range_meters":4400,"station_id":"cpo3532slgdg3j2ikp40","pricing_plan_id":"cebpf4jnsgd1na2vs0mg"},{"bike_id":"f06067fe-c409-49ce-b995-b28658dd37fb","system_id":"levelo_inurba_marseille","lat":43.28665,"lon":5.37386,"is_reserved":false,"is_disabled":true,"rental_uris":{"android":"levelo://app?vid=f06067fe-c409-49ce-b995-b28658dd37fb","ios":"levelo://app?vid=f06067fe-c409-49ce-b995-b28658dd37fb"},"vehicle_type_id":"4","last_reported":1743657061,"current_range_meters":4800,"station_id":"ce4bh3p2rcd13ifvqdq0","pricing_plan_id":"cebpf4jnsgd1na2vs0mg"},{"bike_id":"bb5f3859-0a76-41f0-b464-b3a2c78d4fe2","system_id":"levelo_inurba_marseille","lat":43.27943,"lon":5.41028,"is_reserved":false,"is_disabled":false,"rental_uris":{"android":"levelo://app?vid=bb5f3859-0a76-41f0-b464-b3a2c78d4fe2","ios":"levelo://app?vid=bb5f3859-0a76-41f0-b464-b3a2c78d4fe2"},"vehicle_type_id":"4","last_reported":1743657061,"current_range_meters":4800,"station_id":"ce4bhnp2rcd13ifvqh0g","pricing_plan_id":"cebpf4jnsgd1na2vs0mg"},{"bike_id":"48302313-0890-44fb-97d4-f7f3b5d44fd5","system_id":"levelo_inurba_marseille","lat":43.33109,"lon":5.39984,"is_reserved":false,"is_disabled":false,"rental_uris":{"android":"levelo://app?vid=48302313-0890-44fb-97d4-f7f3b5d44fd5","ios":"levelo://app?vid=48302313-0890-44fb-97d4-f7f3b5d44fd5"},"vehicle_type_id":"4","last_reported":1743657061,"current_range_meters":5600,"station_id":"","pricing_plan_id":"cebpf4jnsgd1na2vs0mg"},{"bike_id":"54cd2af6-bcec-4248-a5dc-b48416f47647","system_id":"levelo_inurba_marseille","lat":43.31075,"lon":5.3835,"is_reserved":false,"is_disabled":false,"rental_uris":{"android":"levelo://app?vid=54cd2af6-bcec-4248-a5dc-b48416f47647","ios":"levelo://app?vid=54cd2af6-bcec-4248-a5dc-b48416f47647"},"vehicle_type_id":"4","last_reported":1743657061,"current_range_meters":5600,"station_id":"ce4bgv92rcd13ifvqcr0","pricing_plan_id":"cebpf4jnsgd1na2vs0mg"},{"bike_id":"1f1218d9-ebac-4975-84ee-2ba3e4d4bcb4","system_id":"levelo_inurba_marseille","lat":43.30875,"lon":5.37773,"is_reserved":false,"is_disabled":false,"rental_uris":{"android":"levelo://app?vid=1f1218d9-ebac-4975-84ee-2ba3e4d4bcb4","ios":"levelo://app?vid=1f1218d9-ebac-4975-84ee-2ba3e4d4bcb4"},"vehicle_type_id":"4","last_reported":1743657061,"current_range_meters":5600,"station_id":"","pricing_plan_id":"cebpf4jnsgd1na2vs0mg"},{"bike_id":"e4daa68e-c153-4839-8fed-72a96b8154c5","system_id":"levelo_inurba_marseille","lat":43.24999,"lon":5.38929,"is_reserved":false,"is_disabled":false,"rental_uris":{"android":"levelo://app?vid=e4daa68e-c153-4839-8fed-72a96b8154c5","ios":"levelo://app?vid=e4daa68e-c153-4839-8fed-72a96b8154c5"},"vehicle_type_id":"4","last_reported":1743657061,"current_range_meters":6000,"station_id":"ce4bhgp2rcd13ifvqfd0","pricing_plan_id":"cebpf4jnsgd1na2vs0mg"},{"bike_id":"3e5329f3-c0cd-422c-afb1-2f46242590da","system_id":"levelo_inurba_marseille","lat":43.31903,"lon":5.37561,"is_reserved":false,"is_disabled":false,"rental_uris":{"android":"levelo://app?vid=3e5329f3-c0cd-422c-afb1-2f46242590da","ios":"levelo://app?vid=3e5329f3-c0cd-422c-afb1-2f46242590da"},"vehicle_type_id":"4","last_reported":1743657061,"current_range_meters":6000,"station_id":"","pricing_plan_id":"cebpf4jnsgd1na2vs0mg"},{"bike_id":"c7fed3df-9f92-4bd8-8a32-6e53e97269c2","system_id":"levelo_inurba_marseille","lat":43.30313,"lon":5.40477,"is_reserved":false,"is_disabled":false,"rental_uris":{"android":"levelo://app?vid=c7fed3df-9f92-4bd8-8a32-6e53e97269c2","ios":"levelo://app?vid=c7fed3df-9f92-4bd8-8a32-6e53e97269c2"},"vehicle_type_id":"4","last_reported":1743657061,"current_range_meters":6400,"station_id":"ce4bh012rcd13ifvqd10","pricing_plan_id":"cebpf4jnsgd1na2vs0mg"},{"bike_id":"be50f499-e747-40fa-9712-bd182fbc80f3","system_id":"levelo_inurba_marseille","lat":43.30794,"lon":5.38177,"is_reserved":false,"is_disabled":false,"rental_uris":{"android":"levelo://app?vid=be50f499-e747-40fa-9712-bd182fbc80f3","ios":"levelo://app?vid=be50f499-e747-40fa-9712-bd182fbc80f3"},"vehicle_type_id":"4","last_reported":1743657061,"current_range_meters":6400,"station_id":"ce4bgt12rcd13ifvqce0","pricing_plan_id":"cebpf4jnsgd1na2vs0mg"},{"bike_id":"e53f9db2-d75c-4594-8157-2926a2062b6f","system_id":"levelo_inurba_marseille","lat":43.284451,"lon":5.391935,"is_reserved":false,"is_disabled":true,"rental_uris":{"android":"levelo://app?vid=e53f9db2-d75c-4594-8157-2926a2062b6f","ios":"levelo://app?vid=e53f9db2-d75c-4594-8157-2926a2062b6f"},"vehicle_type_id":"4","last_reported":1743657061,"current_range_meters":6400,"station_id":"ce4bhoh2rcd13ifvqh5g","pricing_plan_id":"cebpf4jnsgd1na2vs0mg"},{"bike_id":"951bf505-d040-4448-9c96-153485f2e62d","system_id":"levelo_inurba_marseille","lat":43.2842,"lon":5.37532,"is_reserved":false,"is_disabled":false,"rental_uris":{"android":"levelo://app?vid=951bf505-d040-4448-9c96-153485f2e62d","ios":"levelo://app?vid=951bf505-d040-4448-9c96-153485f2e62d"},"vehicle_type_id":"4","last_reported":1743657061,"current_range_meters":6400,"station_id":"ce4bh412rcd13ifvqds0","pricing_plan_id":"cebpf4jnsgd1na2vs0mg"},{"bike_id":"4f1c00e5-a79d-4f0b-ab4e-3bd2b06e7d2e","system_id":"levelo_inurba_marseille","lat":43.23064,"lon":5.35521,"is_reserved":false,"is_disabled":false,"rental_uris":{"android":"levelo://app?vid=4f1c00e5-a79d-4f0b-ab4e-3bd2b06e7d2e","ios":"levelo://app?vid=4f1c00e5-a79d-4f0b-ab4e-3bd2b06e7d2e"},"vehicle_type_id":"4","last_reported":1743657061,"current_range_meters":6400,"station_id":"cpo3342slgdg3j2ifvpg","pricing_plan_id":"cebpf4jnsgd1na2vs0mg"},{"bike_id":"9aa2396c-cf44-4f57-b912-002230e52c07","system_id":"levelo_inurba_marseille","lat":43.27628,"lon":5.39583,"is_reserved":false,"is_disabled":false,"rental_uris":{"android":"levelo://app?vid=9aa2396c-cf44-4f57-b912-002230e52c07","ios":"levelo://app?vid=9aa2396c-cf44-4f57-b912-002230e52c07"},"vehicle_type_id":"4","last_reported":1743657061,"current_range_meters":6400,"station_id":"","pricing_plan_id":"cebpf4jnsgd1na2vs0mg"},{"bike_id":"f9673cab-6059-41ca-ac23-c7c79ef400b8","system_id":"levelo_inurba_marseille","lat":43.265691,"lon":5.390071,"is_reserved":false,"is_disabled":false,"rental_uris":{"android":"levelo://app?vid=f9673cab-6059-41ca-ac23-c7c79ef400b8","ios":"levelo://app?vid=f9673cab-6059-41ca-ac23-c7c79ef400b8"},"vehicle_type_id":"4","last_reported":1743657061,"current_range_meters":6800,"station_id":"ce4bhe12rcd13ifvqf30","pricing_plan_id":"cebpf4jnsgd1na2vs0mg"},{"bike_id":"a37ba079-4ccc-43bf-b918-b876a550e8db","system_id":"levelo_inurba_marseille","lat":43.255784,"lon":5.382365,"is_reserved":false,"is_disabled":false,"rental_uris":{"android":"levelo://app?vid=a37ba079-4ccc-43bf-b918-b876a550e8db","ios":"levelo://app?vid=a37ba079-4ccc-43bf-b918-b876a550e8db"},"vehicle_type_id":"4","last_reported":1743657061,"current_range_meters":6800,"station_id":"ce4bhih2rcd13ifvqfs0","pricing_plan_id":"cebpf4jnsgd1na2vs0mg"},{"bike_id":"f55695a6-b65f-4a30-99ab-94b2bfa63268","system_id":"levelo_inurba_marseille","lat":43.23202,"lon":5.35542,"is_reserved":false,"is_disabled":false,"rental_uris":{"android":"levelo://app?vid=f55695a6-b65f-4a30-99ab-94b2bfa63268","ios":"levelo://app?vid=f55695a6-b65f-4a30-99ab-94b2bfa63268"},"vehicle_type_id":"4","last_reported":1743657061,"current_range_meters":6800,"station_id":"ce4bhu92rcd13ifvqi70","pricing_plan_id":"cebpf4jnsgd1na2vs0mg"},{"bike_id":"d3345442-2654-4ddc-b869-fce22decea38","system_id":"levelo_inurba_marseille","lat":43.230557,"lon":5.354941,"is_reserved":false,"is_disabled":false,"rental_uris":{"android":"levelo://app?vid=d3345442-2654-4ddc-b869-fce22decea38","ios":"levelo://app?vid=d3345442-2654-4ddc-b869-fce22decea38"},"vehicle_type_id":"4","last_reported":1743657061,"current_range_meters":6800,"station_id":"cpo3342slgdg3j2ifvpg","pricing_plan_id":"cebpf4jnsgd1na2vs0mg"},{"bike_id":"d6c81a00-cf24-47bc-81aa-99e15d303460","system_id":"levelo_inurba_marseille","lat":43.27157,"lon":5.40999,"is_reserved":false,"is_disabled":false,"rental_uris":{"android":"levelo://app?vid=d6c81a00-cf24-47bc-81aa-99e15d303460","ios":"levelo://app?vid=d6c81a00-cf24-47bc-81aa-99e15d303460"},"vehicle_type_id":"4","last_reported":1743657061,"current_range_meters":6800,"station_id":"ce4bhl12rcd13ifvqgf0","pricing_plan_id":"cebpf4jnsgd1na2vs0mg"},{"bike_id":"1c7ea303-0f0b-477c-a6b0-56cc00a9de10","system_id":"levelo_inurba_marseille","lat":43.32318,"lon":5.38968,"is_reserved":false,"is_disabled":false,"rental_uris":{"android":"levelo://app?vid=1c7ea303-0f0b-477c-a6b0-56cc00a9de10","ios":"levelo://app?vid=1c7ea303-0f0b-477c-a6b0-56cc00a9de10"},"vehicle_type_id":"4","last_reported":1743657061,"current_range_meters":6800,"station_id":"ce4bhqp2rcd13ifvqhog","pricing_plan_id":"cebpf4jnsgd1na2vs0mg"},{"bike_id":"249d9c4c-d204-4c88-b810-3e2ec60384b0","system_id":"levelo_inurba_marseille","lat":43.30585,"lon":5.3931,"is_reserved":false,"is_disabled":false,"rental_uris":{"android":"levelo://app?vid=249d9c4c-d204-4c88-b810-3e2ec60384b0","ios":"levelo://app?vid=249d9c4c-d204-4c88-b810-3e2ec60384b0"},"vehicle_type_id":"4","last_reported":1743657061,"current_range_meters":7200,"station_id":"","pricing_plan_id":"cebpf4jnsgd1na2vs0mg"},{"bike_id":"b80ee275-2592-4659-b2e9-175feb839700","system_id":"levelo_inurba_marseille","lat":43.23205,"lon":5.3558,"is_reserved":false,"is_disabled":false,"rental_uris":{"android":"levelo://app?vid=b80ee275-2592-4659-b2e9-175feb839700","ios":"levelo://app?vid=b80ee275-2592-4659-b2e9-175feb839700"},"vehicle_type_id":"4","last_reported":1743657061,"current_range_meters":7200,"station_id":"ce4bhu92rcd13ifvqi70","pricing_plan_id":"cebpf4jnsgd1na2vs0mg"},{"bike_id":"d157a8ac-f1ea-480a-a1ee-9ac00962bb01","system_id":"levelo_inurba_marseille","lat":43.2954,"lon":5.42289,"is_reserved":false,"is_disabled":false,"rental_uris":{"android":"levelo://app?vid=d157a8ac-f1ea-480a-a1ee-9ac00962bb01","ios":"levelo://app?vid=d157a8ac-f1ea-480a-a1ee-9ac00962bb01"},"vehicle_type_id":"4","last_reported":1743657061,"current_range_meters":7200,"station_id":"ce4bhph2rcd13ifvqhdg","pricing_plan_id":"cebpf4jnsgd1na2vs0mg"},{"bike_id":"d95697ce-eb61-4237-997e-ce97956aff13","system_id":"levelo_inurba_marseille","lat":43.22931,"lon":5.35398,"is_reserved":false,"is_disabled":false,"rental_uris":{"android":"levelo://app?vid=d95697ce-eb61-4237-997e-ce97956aff13","ios":"levelo://app?vid=d95697ce-eb61-4237-997e-ce97956aff13"},"vehicle_type_id":"4","last_reported":1743657061,"current_range_meters":7200,"station_id":"cpo3532slgdg3j2ikp40","pricing_plan_id":"cebpf4jnsgd1na2vs0mg"},{"bike_id":"1bf4a72f-168a-4a92-980e-4bdc109c902f","system_id":"levelo_inurba_marseille","lat":43.281016,"lon":5.378338,"is_reserved":false,"is_disabled":false,"rental_uris":{"android":"levelo://app?vid=1bf4a72f-168a-4a92-980e-4bdc109c902f","ios":"levelo://app?vid=1bf4a72f-168a-4a92-980e-4bdc109c902f"},"vehicle_type_id":"4","last_reported":1743657061,"current_range_meters":7200,"station_id":"ce4bha12rcd13ifvqee0","pricing_plan_id":"cebpf4jnsgd1na2vs0mg"},{"bike_id":"8d5b971e-28a3-40d2-975a-686cbf6dfadd","system_id":"levelo_inurba_marseille","lat":43.29538,"lon":5.42288,"is_reserved":false,"is_disabled":false,"rental_uris":{"android":"levelo://app?vid=8d5b971e-28a3-40d2-975a-686cbf6dfadd","ios":"levelo://app?vid=8d5b971e-28a3-40d2-975a-686cbf6dfadd"},"vehicle_type_id":"4","last_reported":1743657061,"current_range_meters":7200,"station_id":"ce4bhph2rcd13ifvqhdg","pricing_plan_id":"cebpf4jnsgd1na2vs0mg"},{"bike_id":"df4dc028-b86f-46d9-89ef-79e0b7f35db5","system_id":"levelo_inurba_marseille","lat":43.27052,"lon":5.4026,"is_reserved":false,"is_disabled":false,"rental_uris":{"android":"levelo://app?vid=df4dc028-b86f-46d9-89ef-79e0b7f35db5","ios":"levelo://app?vid=df4dc028-b86f-46d9-89ef-79e0b7f35db5"},"vehicle_type_id":"4","last_reported":1743657061,"current_range_meters":7200,"station_id":"ce4bhk92rcd13ifvqgc0","pricing_plan_id":"cebpf4jnsgd1na2vs0mg"},{"bike_id":"270b1cda-2991-4f58-9004-8b028cb4ae2e","system_id":"levelo_inurba_marseille","lat":43.27896,"lon":5.38015,"is_reserved":false,"is_disabled":false,"rental_uris":{"android":"levelo://app?vid=270b1cda-2991-4f58-9004-8b028cb4ae2e","ios":"levelo://app?vid=270b1cda-2991-4f58-9004-8b028cb4ae2e"},"vehicle_type_id":"4","last_reported":1743657061,"current_range_meters":7200,"station_id":"ce4bhf92rcd13ifvqf50","pricing_plan_id":"cebpf4jnsgd1na2vs0mg"},{"bike_id":"d569352a-1078-43df-8ab1-6877d4e124ee","system_id":"levelo_inurba_marseille","lat":43.28076,"lon":5.39657,"is_reserved":false,"is_disabled":false,"rental_uris":{"android":"levelo://app?vid=d569352a-1078-43df-8ab1-6877d4e124ee","ios":"levelo://app?vid=d569352a-1078-43df-8ab1-6877d4e124ee"},"vehicle_type_id":"4","last_reported":1743657061,"current_range_meters":7200,"station_id":"ce4bho12rcd13ifvqh2g","pricing_plan_id":"cebpf4jnsgd1na2vs0mg"},{"bike_id":"2cf61775-cb21-4b86-a7af-7925ef8f8bd8","system_id":"levelo_inurba_marseille","lat":43.22918,"lon":5.35404,"is_reserved":false,"is_disabled":false,"rental_uris":{"android":"levelo://app?vid=2cf61775-cb21-4b86-a7af-7925ef8f8bd8","ios":"levelo://app?vid=2cf61775-cb21-4b86-a7af-7925ef8f8bd8"},"vehicle_type_id":"4","last_reported":1743657061,"current_range_meters":7200,"station_id":"cpo3532slgdg3j2ikp40","pricing_plan_id":"cebpf4jnsgd1na2vs0mg"},{"bike_id":"5ac338a9-5dc2-4b4f-afba-1814cc6e9c23","system_id":"levelo_inurba_marseille","lat":43.26226,"lon":5.40456,"is_reserved":false,"is_disabled":false,"rental_uris":{"android":"levelo://app?vid=5ac338a9-5dc2-4b4f-afba-1814cc6e9c23","ios":"levelo://app?vid=5ac338a9-5dc2-4b4f-afba-1814cc6e9c23"},"vehicle_type_id":"4","last_reported":1743657061,"current_range_meters":7200,"station_id":"ce4bhmh2rcd13ifvqgmg","pricing_plan_id":"cebpf4jnsgd1na2vs0mg"},{"bike_id":"4b44f39c-5bb2-424a-891d-855ab4adfcfa","system_id":"levelo_inurba_marseille","lat":43.30111,"lon":5.38817,"is_reserved":false,"is_disabled":true,"rental_uris":{"android":"levelo://app?vid=4b44f39c-5bb2-424a-891d-855ab4adfcfa","ios":"levelo://app?vid=4b44f39c-5bb2-424a-891d-855ab4adfcfa"},"vehicle_type_id":"4","last_reported":1743657061,"current_range_meters":7200,"station_id":"ce4bghh2rcd13ifvqb60","pricing_plan_id":"cebpf4jnsgd1na2vs0mg"},{"bike_id":"ad0701ee-14d6-40ee-9cc0-de39a686153f","system_id":"levelo_inurba_marseille","lat":43.287175,"lon":5.399835,"is_reserved":false,"is_disabled":false,"rental_uris":{"android":"levelo://app?vid=ad0701ee-14d6-40ee-9cc0-de39a686153f","ios":"levelo://app?vid=ad0701ee-14d6-40ee-9cc0-de39a686153f"},"vehicle_type_id":"4","last_reported":1743657061,"current_range_meters":7200,"station_id":"ce4bho92rcd13ifvqh3g","pricing_plan_id":"cebpf4jnsgd1na2vs0mg"},{"bike_id":"620ba5da-f370-42b9-a07c-a3aa9a4ecc81","system_id":"levelo_inurba_marseille","lat":43.28406,"lon":5.37531,"is_reserved":false,"is_disabled":false,"rental_uris":{"android":"levelo://app?vid=620ba5da-f370-42b9-a07c-a3aa9a4ecc81","ios":"levelo://app?vid=620ba5da-f370-42b9-a07c-a3aa9a4ecc81"},"vehicle_type_id":"4","last_reported":1743657061,"current_range_meters":7200,"station_id":"ce4bh412rcd13ifvqds0","pricing_plan_id":"cebpf4jnsgd1na2vs0mg"},{"bike_id":"e16d9e2f-ce63-4264-b273-5613a610aaee","system_id":"levelo_inurba_marseille","lat":43.28724,"lon":5.37939,"is_reserved":false,"is_disabled":false,"rental_uris":{"android":"levelo://app?vid=e16d9e2f-ce63-4264-b273-5613a610aaee","ios":"levelo://app?vid=e16d9e2f-ce63-4264-b273-5613a610aaee"},"vehicle_type_id":"4","last_reported":1743657061,"current_range_meters":8000,"station_id":"ce4bh9p2rcd13ifvqec0","pricing_plan_id":"cebpf4jnsgd1na2vs0mg"},{"bike_id":"988a4b2a-1fca-4561-9342-57ad8b6adb1c","system_id":"levelo_inurba_marseille","lat":43.22925,"lon":5.35383,"is_reserved":false,"is_disabled":false,"rental_uris":{"android":"levelo://app?vid=988a4b2a-1fca-4561-9342-57ad8b6adb1c","ios":"levelo://app?vid=988a4b2a-1fca-4561-9342-57ad8b6adb1c"},"vehicle_type_id":"4","last_reported":1743657061,"current_range_meters":8000,"station_id":"cpo3532slgdg3j2ikp40","pricing_plan_id":"cebpf4jnsgd1na2vs0mg"},{"bike_id":"f87e996c-206a-47d9-8697-84a2d463fdc3","system_id":"levelo_inurba_marseille","lat":43.231945,"lon":5.355575,"is_reserved":false,"is_disabled":false,"rental_uris":{"android":"levelo://app?vid=f87e996c-206a-47d9-8697-84a2d463fdc3","ios":"levelo://app?vid=f87e996c-206a-47d9-8697-84a2d463fdc3"},"vehicle_type_id":"4","last_reported":1743657061,"current_range_meters":8000,"station_id":"ce4bhu92rcd13ifvqi70","pricing_plan_id":"cebpf4jnsgd1na2vs0mg"},{"bike_id":"4e8e0366-ced4-4bd3-8559-c7b58fbb6e6e","system_id":"levelo_inurba_marseille","lat":43.30303,"lon":5.40449,"is_reserved":false,"is_disabled":false,"rental_uris":{"android":"levelo://app?vid=4e8e0366-ced4-4bd3-8559-c7b58fbb6e6e","ios":"levelo://app?vid=4e8e0366-ced4-4bd3-8559-c7b58fbb6e6e"},"vehicle_type_id":"4","last_reported":1743657061,"current_range_meters":8000,"station_id":"ce4bh012rcd13ifvqd10","pricing_plan_id":"cebpf4jnsgd1na2vs0mg"},{"bike_id":"920f6ca0-0606-4d4f-8258-619f9f19df50","system_id":"levelo_inurba_marseille","lat":43.28915,"lon":5.38405,"is_reserved":false,"is_disabled":true,"rental_uris":{"android":"levelo://app?vid=920f6ca0-0606-4d4f-8258-619f9f19df50","ios":"levelo://app?vid=920f6ca0-0606-4d4f-8258-619f9f19df50"},"vehicle_type_id":"4","last_reported":1743657061,"current_range_meters":8000,"station_id":"ce4bh612rcd13ifvqe6g","pricing_plan_id":"cebpf4jnsgd1na2vs0mg"},{"bike_id":"7ce6c135-23ac-4614-a7e7-fc6a647f2ce8","system_id":"levelo_inurba_marseille","lat":43.3093,"lon":5.40152,"is_reserved":false,"is_disabled":false,"rental_uris":{"android":"levelo://app?vid=7ce6c135-23ac-4614-a7e7-fc6a647f2ce8","ios":"levelo://app?vid=7ce6c135-23ac-4614-a7e7-fc6a647f2ce8"},"vehicle_type_id":"4","last_reported":1743657061,"current_range_meters":8000,"station_id":"ce4bgvp2rcd13ifvqct0","pricing_plan_id":"cebpf4jnsgd1na2vs0mg"},{"bike_id":"d4155068-a13c-4154-af0d-79fb0e0d2505","system_id":"levelo_inurba_marseille","lat":43.284618,"lon":5.358874,"is_reserved":false,"is_disabled":false,"rental_uris":{"android":"levelo://app?vid=d4155068-a13c-4154-af0d-79fb0e0d2505","ios":"levelo://app?vid=d4155068-a13c-4154-af0d-79fb0e0d2505"},"vehicle_type_id":"4","last_reported":1743657061,"current_range_meters":8000,"station_id":"ce4bhah2rcd13ifvqei0","pricing_plan_id":"cebpf4jnsgd1na2vs0mg"},{"bike_id":"25ca8d82-bcbb-49e7-a72d-c5ab0e3f3626","system_id":"levelo_inurba_marseille","lat":43.30247,"lon":5.40076,"is_reserved":false,"is_disabled":false,"rental_uris":{"android":"levelo://app?vid=25ca8d82-bcbb-49e7-a72d-c5ab0e3f3626","ios":"levelo://app?vid=25ca8d82-bcbb-49e7-a72d-c5ab0e3f3626"},"vehicle_type_id":"4","last_reported":1743657061,"current_range_meters":8000,"station_id":"ce4bgvh2rcd13ifvqcs0","pricing_plan_id":"cebpf4jnsgd1na2vs0mg"},{"bike_id":"1e56f8b0-0569-43fd-956b-7c3d45c8ba02","system_id":"levelo_inurba_marseille","lat":43.29326,"lon":5.41157,"is_reserved":false,"is_disabled":false,"rental_uris":{"android":"levelo://app?vid=1e56f8b0-0569-43fd-956b-7c3d45c8ba02","ios":"levelo://app?vid=1e56f8b0-0569-43fd-956b-7c3d45c8ba02"},"vehicle_type_id":"4","last_reported":1743657061,"current_range_meters":8000,"station_id":"","pricing_plan_id":"cebpf4jnsgd1na2vs0mg"},{"bike_id":"a112ce08-6f4e-41f2-873e-94895f2e1506","system_id":"levelo_inurba_marseille","lat":43.27645,"lon":5.38908,"is_reserved":false,"is_disabled":true,"rental_uris":{"android":"levelo://app?vid=a112ce08-6f4e-41f2-873e-94895f2e1506","ios":"levelo://app?vid=a112ce08-6f4e-41f2-873e-94895f2e1506"},"vehicle_type_id":"4","last_reported":1743657061,"current_range_meters":8000,"station_id":"ce4bhi12rcd13ifvqfo0","pricing_plan_id":"cebpf4jnsgd1na2vs0mg"},{"bike_id":"bedb9418-da38-4799-a541-d6651335dd1d","system_id":"levelo_inurba_marseille","lat":43.27163,"lon":5.41002,"is_reserved":false,"is_disabled":false,"rental_uris":{"android":"levelo://app?vid=bedb9418-da38-4799-a541-d6651335dd1d","ios":"levelo://app?vid=bedb9418-da38-4799-a541-d6651335dd1d"},"vehicle_type_id":"4","last_reported":1743657061,"current_range_meters":8000,"station_id":"ce4bhl12rcd13ifvqgf0","pricing_plan_id":"cebpf4jnsgd1na2vs0mg"},{"bike_id":"49428efe-bbd8-4963-9aaf-ed822fd5c61b","system_id":"levelo_inurba_marseille","lat":43.29203,"lon":5.44384,"is_reserved":false,"is_disabled":false,"rental_uris":{"android":"levelo://app?vid=49428efe-bbd8-4963-9aaf-ed822fd5c61b","ios":"levelo://app?vid=49428efe-bbd8-4963-9aaf-ed822fd5c61b"},"vehicle_type_id":"4","last_reported":1743657061,"current_range_meters":8000,"station_id":"","pricing_plan_id":"cebpf4jnsgd1na2vs0mg"},{"bike_id":"546380d0-0813-4737-817f-a21e056e8d2e","system_id":"levelo_inurba_marseille","lat":43.32346,"lon":5.36742,"is_reserved":false,"is_disabled":false,"rental_uris":{"android":"levelo://app?vid=546380d0-0813-4737-817f-a21e056e8d2e","ios":"levelo://app?vid=546380d0-0813-4737-817f-a21e056e8d2e"},"vehicle_type_id":"4","last_reported":1743657061,"current_range_meters":8000,"station_id":"ce4bhsh2rcd13ifvqi2g","pricing_plan_id":"cebpf4jnsgd1na2vs0mg"},{"bike_id":"f103e6d0-67b4-446b-a81f-9e09dc680270","system_id":"levelo_inurba_marseille","lat":43.28095,"lon":5.3786,"is_reserved":false,"is_disabled":false,"rental_uris":{"android":"levelo://app?vid=f103e6d0-67b4-446b-a81f-9e09dc680270","ios":"levelo://app?vid=f103e6d0-67b4-446b-a81f-9e09dc680270"},"vehicle_type_id":"4","last_reported":1743657061,"current_range_meters":8000,"station_id":"ce4bha12rcd13ifvqee0","pricing_plan_id":"cebpf4jnsgd1na2vs0mg"},{"bike_id":"2e1d0491-8046-4a1c-910c-6d230f4ca468","system_id":"levelo_inurba_marseille","lat":43.30653,"lon":5.37374,"is_reserved":false,"is_disabled":false,"rental_uris":{"android":"levelo://app?vid=2e1d0491-8046-4a1c-910c-6d230f4ca468","ios":"levelo://app?vid=2e1d0491-8046-4a1c-910c-6d230f4ca468"},"vehicle_type_id":"4","last_reported":1743657061,"current_range_meters":8000,"station_id":"","pricing_plan_id":"cebpf4jnsgd1na2vs0mg"},{"bike_id":"04556df8-715f-45d8-b288-9c8fd51282f9","system_id":"levelo_inurba_marseille","lat":43.23189,"lon":5.35568,"is_reserved":false,"is_disabled":false,"rental_uris":{"android":"levelo://app?vid=04556df8-715f-45d8-b288-9c8fd51282f9","ios":"levelo://app?vid=04556df8-715f-45d8-b288-9c8fd51282f9"},"vehicle_type_id":"4","last_reported":1743657061,"current_range_meters":8400,"station_id":"ce4bhu92rcd13ifvqi70","pricing_plan_id":"cebpf4jnsgd1na2vs0mg"},{"bike_id":"b52eafbb-0fdc-487b-b3ce-3a3f8cf7e638","system_id":"levelo_inurba_marseille","lat":43.33101,"lon":5.39255,"is_reserved":false,"is_disabled":false,"rental_uris":{"android":"levelo://app?vid=b52eafbb-0fdc-487b-b3ce-3a3f8cf7e638","ios":"levelo://app?vid=b52eafbb-0fdc-487b-b3ce-3a3f8cf7e638"},"vehicle_type_id":"4","last_reported":1743657061,"current_range_meters":8400,"station_id":"","pricing_plan_id":"cebpf4jnsgd1na2vs0mg"},{"bike_id":"1aff6b34-2de5-409e-acb1-12114a2a43e3","system_id":"levelo_inurba_marseille","lat":43.28145,"lon":5.42646,"is_reserved":false,"is_disabled":false,"rental_uris":{"android":"levelo://app?vid=1aff6b34-2de5-409e-acb1-12114a2a43e3","ios":"levelo://app?vid=1aff6b34-2de5-409e-acb1-12114a2a43e3"},"vehicle_type_id":"4","last_reported":1743657061,"current_range_meters":8400,"station_id":"ce4bhnh2rcd13ifvqgug","pricing_plan_id":"cebpf4jnsgd1na2vs0mg"},{"bike_id":"6e6a66e5-58ca-4db1-9695-b46ed5c28827","system_id":"levelo_inurba_marseille","lat":43.31809,"lon":5.36811,"is_reserved":false,"is_disabled":false,"rental_uris":{"android":"levelo://app?vid=6e6a66e5-58ca-4db1-9695-b46ed5c28827","ios":"levelo://app?vid=6e6a66e5-58ca-4db1-9695-b46ed5c28827"},"vehicle_type_id":"4","last_reported":1743657061,"current_range_meters":8400,"station_id":"","pricing_plan_id":"cebpf4jnsgd1na2vs0mg"},{"bike_id":"d97c6895-9a58-42bd-9edc-053f218b5b60","system_id":"levelo_inurba_marseille","lat":43.29493,"lon":5.36381,"is_reserved":false,"is_disabled":false,"rental_uris":{"android":"levelo://app?vid=d97c6895-9a58-42bd-9edc-053f218b5b60","ios":"levelo://app?vid=d97c6895-9a58-42bd-9edc-053f218b5b60"},"vehicle_type_id":"4","last_reported":1743657061,"current_range_meters":8400,"station_id":"","pricing_plan_id":"cebpf4jnsgd1na2vs0mg"},{"bike_id":"68907b43-53b6-4378-90a0-f0932ed718b2","system_id":"levelo_inurba_marseille","lat":43.29192,"lon":5.39328,"is_reserved":false,"is_disabled":false,"rental_uris":{"android":"levelo://app?vid=68907b43-53b6-4378-90a0-f0932ed718b2","ios":"levelo://app?vid=68907b43-53b6-4378-90a0-f0932ed718b2"},"vehicle_type_id":"4","last_reported":1743657061,"current_range_meters":8400,"station_id":"ce4bh192rcd13ifvqdd0","pricing_plan_id":"cebpf4jnsgd1na2vs0mg"},{"bike_id":"1cc56aae-45a2-4fff-b1a7-9e957e7043f2","system_id":"levelo_inurba_marseille","lat":43.287046,"lon":5.373996,"is_reserved":false,"is_disabled":false,"rental_uris":{"android":"levelo://app?vid=1cc56aae-45a2-4fff-b1a7-9e957e7043f2","ios":"levelo://app?vid=1cc56aae-45a2-4fff-b1a7-9e957e7043f2"},"vehicle_type_id":"4","last_reported":1743657061,"current_range_meters":8400,"station_id":"ce4bh3p2rcd13ifvqdq0","pricing_plan_id":"cebpf4jnsgd1na2vs0mg"},{"bike_id":"f60577a6-9dee-43c8-a616-d5d774fb30ea","system_id":"levelo_inurba_marseille","lat":43.30185,"lon":5.36623,"is_reserved":false,"is_disabled":false,"rental_uris":{"android":"levelo://app?vid=f60577a6-9dee-43c8-a616-d5d774fb30ea","ios":"levelo://app?vid=f60577a6-9dee-43c8-a616-d5d774fb30ea"},"vehicle_type_id":"4","last_reported":1743657061,"current_range_meters":8000,"station_id":"ce4bgrh2rcd13ifvqc8g","pricing_plan_id":"cebpf4jnsgd1na2vs0mg"},{"bike_id":"63bb044e-fd05-4a43-97e1-effab21e1a61","system_id":"levelo_inurba_marseille","lat":43.265585,"lon":5.372816,"is_reserved":false,"is_disabled":false,"rental_uris":{"android":"levelo://app?vid=63bb044e-fd05-4a43-97e1-effab21e1a61","ios":"levelo://app?vid=63bb044e-fd05-4a43-97e1-effab21e1a61"},"vehicle_type_id":"4","last_reported":1743657061,"current_range_meters":8400,"station_id":"ce4bhg12rcd13ifvqf70","pricing_plan_id":"cebpf4jnsgd1na2vs0mg"},{"bike_id":"8d2c5831-5cdd-4f87-8589-2d34f0df351b","system_id":"levelo_inurba_marseille","lat":43.33046,"lon":5.39063,"is_reserved":false,"is_disabled":false,"rental_uris":{"android":"levelo://app?vid=8d2c5831-5cdd-4f87-8589-2d34f0df351b","ios":"levelo://app?vid=8d2c5831-5cdd-4f87-8589-2d34f0df351b"},"vehicle_type_id":"4","last_reported":1743657061,"current_range_meters":8400,"station_id":"ce4bhr92rcd13ifvqhrg","pricing_plan_id":"cebpf4jnsgd1na2vs0mg"},{"bike_id":"1006235b-1c25-4d94-97c7-b9bd84d28baf","system_id":"levelo_inurba_marseille","lat":43.311775,"lon":5.382401,"is_reserved":false,"is_disabled":false,"rental_uris":{"android":"levelo://app?vid=1006235b-1c25-4d94-97c7-b9bd84d28baf","ios":"levelo://app?vid=1006235b-1c25-4d94-97c7-b9bd84d28baf"},"vehicle_type_id":"4","last_reported":1743657061,"current_range_meters":8800,"station_id":"","pricing_plan_id":"cebpf4jnsgd1na2vs0mg"},{"bike_id":"a4d6c0ce-d5fd-4ac9-98cc-4bef6acfd763","system_id":"levelo_inurba_marseille","lat":43.30875,"lon":5.39639,"is_reserved":false,"is_disabled":false,"rental_uris":{"android":"levelo://app?vid=a4d6c0ce-d5fd-4ac9-98cc-4bef6acfd763","ios":"levelo://app?vid=a4d6c0ce-d5fd-4ac9-98cc-4bef6acfd763"},"vehicle_type_id":"4","last_reported":1743657061,"current_range_meters":8800,"station_id":"ce4bh012rcd13ifvqcv0","pricing_plan_id":"cebpf4jnsgd1na2vs0mg"},{"bike_id":"32a978e0-d0c2-43d4-9b03-19a5c41c27de","system_id":"levelo_inurba_marseille","lat":43.31049,"lon":5.38366,"is_reserved":false,"is_disabled":true,"rental_uris":{"android":"levelo://app?vid=32a978e0-d0c2-43d4-9b03-19a5c41c27de","ios":"levelo://app?vid=32a978e0-d0c2-43d4-9b03-19a5c41c27de"},"vehicle_type_id":"4","last_reported":1743657061,"current_range_meters":8800,"station_id":"ce4bgv92rcd13ifvqcr0","pricing_plan_id":"cebpf4jnsgd1na2vs0mg"},{"bike_id":"c7bcfcce-85fd-402f-9f72-d5775fbcd6d4","system_id":"levelo_inurba_marseille","lat":43.28468,"lon":5.35892,"is_reserved":false,"is_disabled":false,"rental_uris":{"android":"levelo://app?vid=c7bcfcce-85fd-402f-9f72-d5775fbcd6d4","ios":"levelo://app?vid=c7bcfcce-85fd-402f-9f72-d5775fbcd6d4"},"vehicle_type_id":"4","last_reported":1743657061,"current_range_meters":8800,"station_id":"ce4bhah2rcd13ifvqei0","pricing_plan_id":"cebpf4jnsgd1na2vs0mg"},{"bike_id":"f8dc6029-025c-47cd-8921-5ce023e19c20","system_id":"levelo_inurba_marseille","lat":43.31995,"lon":5.38162,"is_reserved":false,"is_disabled":false,"rental_uris":{"android":"levelo://app?vid=f8dc6029-025c-47cd-8921-5ce023e19c20","ios":"levelo://app?vid=f8dc6029-025c-47cd-8921-5ce023e19c20"},"vehicle_type_id":"4","last_reported":1743657061,"current_range_meters":8800,"station_id":"ce4bhr12rcd13ifvqhpg","pricing_plan_id":"cebpf4jnsgd1na2vs0mg"},{"bike_id":"1e0865d9-6653-4477-985a-7476bc56acd7","system_id":"levelo_inurba_marseille","lat":43.30546,"lon":5.36552,"is_reserved":false,"is_disabled":false,"rental_uris":{"android":"levelo://app?vid=1e0865d9-6653-4477-985a-7476bc56acd7","ios":"levelo://app?vid=1e0865d9-6653-4477-985a-7476bc56acd7"},"vehicle_type_id":"4","last_reported":1743657061,"current_range_meters":8400,"station_id":"ce4bgs12rcd13ifvqcag","pricing_plan_id":"cebpf4jnsgd1na2vs0mg"},{"bike_id":"f4b3c781-c46b-42d3-9ff9-fac436734dd4","system_id":"levelo_inurba_marseille","lat":43.3088,"lon":5.39636,"is_reserved":false,"is_disabled":false,"rental_uris":{"android":"levelo://app?vid=f4b3c781-c46b-42d3-9ff9-fac436734dd4","ios":"levelo://app?vid=f4b3c781-c46b-42d3-9ff9-fac436734dd4"},"vehicle_type_id":"4","last_reported":1743657061,"current_range_meters":8800,"station_id":"ce4bh012rcd13ifvqcv0","pricing_plan_id":"cebpf4jnsgd1na2vs0mg"},{"bike_id":"b0b9043f-ee2a-42fd-b9e9-fdb51c34c8ca","system_id":"levelo_inurba_marseille","lat":43.30464,"lon":5.37914,"is_reserved":false,"is_disabled":false,"rental_uris":{"android":"levelo://app?vid=b0b9043f-ee2a-42fd-b9e9-fdb51c34c8ca","ios":"levelo://app?vid=b0b9043f-ee2a-42fd-b9e9-fdb51c34c8ca"},"vehicle_type_id":"4","last_reported":1743657061,"current_range_meters":8800,"station_id":"ce4bgup2rcd13ifvqcn0","pricing_plan_id":"cebpf4jnsgd1na2vs0mg"},{"bike_id":"75dae32f-059a-4b5b-a5e8-963c6eda2f66","system_id":"levelo_inurba_marseille","lat":43.27503,"lon":5.41015,"is_reserved":false,"is_disabled":false,"rental_uris":{"android":"levelo://app?vid=75dae32f-059a-4b5b-a5e8-963c6eda2f66","ios":"levelo://app?vid=75dae32f-059a-4b5b-a5e8-963c6eda2f66"},"vehicle_type_id":"4","last_reported":1743657061,"current_range_meters":8800,"station_id":"","pricing_plan_id":"cebpf4jnsgd1na2vs0mg"},{"bike_id":"a6f31028-4b08-498c-9084-c5356f8a169b","system_id":"levelo_inurba_marseille","lat":43.30145,"lon":5.38053,"is_reserved":false,"is_disabled":false,"rental_uris":{"android":"levelo://app?vid=a6f31028-4b08-498c-9084-c5356f8a169b","ios":"levelo://app?vid=a6f31028-4b08-498c-9084-c5356f8a169b"},"vehicle_type_id":"4","last_reported":1743657061,"current_range_meters":9200,"station_id":"ce4bgjp2rcd13ifvqbh0","pricing_plan_id":"cebpf4jnsgd1na2vs0mg"},{"bike_id":"7ba67d0a-4dd2-434e-9233-c217be617343","system_id":"levelo_inurba_marseille","lat":43.33832,"lon":5.3742,"is_reserved":false,"is_disabled":false,"rental_uris":{"android":"levelo://app?vid=7ba67d0a-4dd2-434e-9233-c217be617343","ios":"levelo://app?vid=7ba67d0a-4dd2-434e-9233-c217be617343"},"vehicle_type_id":"4","last_reported":1743657061,"current_range_meters":9200,"station_id":"","pricing_plan_id":"cebpf4jnsgd1na2vs0mg"},{"bike_id":"b5fa61b4-55c0-4d0f-b518-f0583e71aca3","system_id":"levelo_inurba_marseille","lat":43.22914,"lon":5.35413,"is_reserved":false,"is_disabled":false,"rental_uris":{"android":"levelo://app?vid=b5fa61b4-55c0-4d0f-b518-f0583e71aca3","ios":"levelo://app?vid=b5fa61b4-55c0-4d0f-b518-f0583e71aca3"},"vehicle_type_id":"4","last_reported":1743657061,"current_range_meters":9200,"station_id":"cpo3532slgdg3j2ikp40","pricing_plan_id":"cebpf4jnsgd1na2vs0mg"},{"bike_id":"7514852b-340a-4392-a4d2-9a84e0d03998","system_id":"levelo_inurba_marseille","lat":43.33283,"lon":5.39692,"is_reserved":false,"is_disabled":false,"rental_uris":{"android":"levelo://app?vid=7514852b-340a-4392-a4d2-9a84e0d03998","ios":"levelo://app?vid=7514852b-340a-4392-a4d2-9a84e0d03998"},"vehicle_type_id":"4","last_reported":1743657061,"current_range_meters":9200,"station_id":"","pricing_plan_id":"cebpf4jnsgd1na2vs0mg"},{"bike_id":"82be00d7-07cd-447f-a119-c8efb6be13a1","system_id":"levelo_inurba_marseille","lat":43.323645,"lon":5.38885,"is_reserved":false,"is_disabled":false,"rental_uris":{"android":"levelo://app?vid=82be00d7-07cd-447f-a119-c8efb6be13a1","ios":"levelo://app?vid=82be00d7-07cd-447f-a119-c8efb6be13a1"},"vehicle_type_id":"4","last_reported":1743657061,"current_range_meters":9200,"station_id":"ce4bhqp2rcd13ifvqhog","pricing_plan_id":"cebpf4jnsgd1na2vs0mg"},{"bike_id":"6fd3d18f-c3b5-4d07-8160-12fc5c26448c","system_id":"levelo_inurba_marseille","lat":43.32366,"lon":5.38894,"is_reserved":false,"is_disabled":false,"rental_uris":{"android":"levelo://app?vid=6fd3d18f-c3b5-4d07-8160-12fc5c26448c","ios":"levelo://app?vid=6fd3d18f-c3b5-4d07-8160-12fc5c26448c"},"vehicle_type_id":"4","last_reported":1743657061,"current_range_meters":9200,"station_id":"ce4bhqp2rcd13ifvqhog","pricing_plan_id":"cebpf4jnsgd1na2vs0mg"},{"bike_id":"b6c83da9-b3c4-4843-9a1d-36871e12515b","system_id":"levelo_inurba_marseille","lat":43.26111,"lon":5.41479,"is_reserved":false,"is_disabled":false,"rental_uris":{"android":"levelo://app?vid=b6c83da9-b3c4-4843-9a1d-36871e12515b","ios":"levelo://app?vid=b6c83da9-b3c4-4843-9a1d-36871e12515b"},"vehicle_type_id":"4","last_reported":1743657061,"current_range_meters":9200,"station_id":"","pricing_plan_id":"cebpf4jnsgd1na2vs0mg"},{"bike_id":"ea464bc9-6baf-477f-8592-2d7142958a22","system_id":"levelo_inurba_marseille","lat":43.26676,"lon":5.38281,"is_reserved":false,"is_disabled":true,"rental_uris":{"android":"levelo://app?vid=ea464bc9-6baf-477f-8592-2d7142958a22","ios":"levelo://app?vid=ea464bc9-6baf-477f-8592-2d7142958a22"},"vehicle_type_id":"4","last_reported":1743657061,"current_range_meters":9200,"station_id":"ce4bhg92rcd13ifvqf90","pricing_plan_id":"cebpf4jnsgd1na2vs0mg"},{"bike_id":"7f8a9668-212b-4215-8502-2b44c2f0d8a1","system_id":"levelo_inurba_marseille","lat":43.307999,"lon":5.381423,"is_reserved":false,"is_disabled":false,"rental_uris":{"android":"levelo://app?vid=7f8a9668-212b-4215-8502-2b44c2f0d8a1","ios":"levelo://app?vid=7f8a9668-212b-4215-8502-2b44c2f0d8a1"},"vehicle_type_id":"4","last_reported":1743657061,"current_range_meters":9200,"station_id":"ce4bgt12rcd13ifvqce0","pricing_plan_id":"cebpf4jnsgd1na2vs0mg"},{"bike_id":"e1b03b21-5eb0-483c-b4ac-ea8a29304382","system_id":"levelo_inurba_marseille","lat":43.230619,"lon":5.355052,"is_reserved":false,"is_disabled":false,"rental_uris":{"android":"levelo://app?vid=e1b03b21-5eb0-483c-b4ac-ea8a29304382","ios":"levelo://app?vid=e1b03b21-5eb0-483c-b4ac-ea8a29304382"},"vehicle_type_id":"4","last_reported":1743657061,"current_range_meters":9600,"station_id":"cpo3342slgdg3j2ifvpg","pricing_plan_id":"cebpf4jnsgd1na2vs0mg"},{"bike_id":"c2e6881a-04a3-4a38-9cc0-75cacf165e78","system_id":"levelo_inurba_marseille","lat":43.28832,"lon":5.364645,"is_reserved":false,"is_disabled":false,"rental_uris":{"android":"levelo://app?vid=c2e6881a-04a3-4a38-9cc0-75cacf165e78","ios":"levelo://app?vid=c2e6881a-04a3-4a38-9cc0-75cacf165e78"},"vehicle_type_id":"4","last_reported":1743657061,"current_range_meters":9600,"station_id":"","pricing_plan_id":"cebpf4jnsgd1na2vs0mg"},{"bike_id":"0cfd3fd2-d703-47ff-9dea-8f4a337d85bc","system_id":"levelo_inurba_marseille","lat":43.29018,"lon":5.35949,"is_reserved":false,"is_disabled":false,"rental_uris":{"android":"levelo://app?vid=0cfd3fd2-d703-47ff-9dea-8f4a337d85bc","ios":"levelo://app?vid=0cfd3fd2-d703-47ff-9dea-8f4a337d85bc"},"vehicle_type_id":"4","last_reported":1743657061,"current_range_meters":9600,"station_id":"","pricing_plan_id":"cebpf4jnsgd1na2vs0mg"},{"bike_id":"926561da-db54-48d9-b02a-5b2b2cebb62a","system_id":"levelo_inurba_marseille","lat":43.30296,"lon":5.39238,"is_reserved":false,"is_disabled":false,"rental_uris":{"android":"levelo://app?vid=926561da-db54-48d9-b02a-5b2b2cebb62a","ios":"levelo://app?vid=926561da-db54-48d9-b02a-5b2b2cebb62a"},"vehicle_type_id":"4","last_reported":1743657061,"current_range_meters":9600,"station_id":"ce4bgkh2rcd13ifvqbk0","pricing_plan_id":"cebpf4jnsgd1na2vs0mg"},{"bike_id":"7e518bd1-a3c5-4718-b257-c0d50b977d20","system_id":"levelo_inurba_marseille","lat":43.25858,"lon":5.39906,"is_reserved":false,"is_disabled":true,"rental_uris":{"android":"levelo://app?vid=7e518bd1-a3c5-4718-b257-c0d50b977d20","ios":"levelo://app?vid=7e518bd1-a3c5-4718-b257-c0d50b977d20"},"vehicle_type_id":"4","last_reported":1743657061,"current_range_meters":9600,"station_id":"ce4bhl92rcd13ifvqghg","pricing_plan_id":"cebpf4jnsgd1na2vs0mg"},{"bike_id":"cf1e53ae-b855-4ff1-83cf-4764ba2133f9","system_id":"levelo_inurba_marseille","lat":43.28855,"lon":5.35841,"is_reserved":false,"is_disabled":false,"rental_uris":{"android":"levelo://app?vid=cf1e53ae-b855-4ff1-83cf-4764ba2133f9","ios":"levelo://app?vid=cf1e53ae-b855-4ff1-83cf-4764ba2133f9"},"vehicle_type_id":"4","last_reported":1743657061,"current_range_meters":9600,"station_id":"ce4bhb12rcd13ifvqem0","pricing_plan_id":"cebpf4jnsgd1na2vs0mg"},{"bike_id":"01f051a7-2a53-4e7f-bc00-2e50a7934f35","system_id":"levelo_inurba_marseille","lat":43.27946,"lon":5.38711,"is_reserved":false,"is_disabled":false,"rental_uris":{"android":"levelo://app?vid=01f051a7-2a53-4e7f-bc00-2e50a7934f35","ios":"levelo://app?vid=01f051a7-2a53-4e7f-bc00-2e50a7934f35"},"vehicle_type_id":"4","last_reported":1743657061,"current_range_meters":9600,"station_id":"ce4bhg12rcd13ifvqf80","pricing_plan_id":"cebpf4jnsgd1na2vs0mg"},{"bike_id":"9e7c224b-9a67-4d10-89b5-39e81d5706d0","system_id":"levelo_inurba_marseille","lat":43.2845,"lon":5.35905,"is_reserved":false,"is_disabled":false,"rental_uris":{"android":"levelo://app?vid=9e7c224b-9a67-4d10-89b5-39e81d5706d0","ios":"levelo://app?vid=9e7c224b-9a67-4d10-89b5-39e81d5706d0"},"vehicle_type_id":"4","last_reported":1743657061,"current_range_meters":9600,"station_id":"ce4bhah2rcd13ifvqei0","pricing_plan_id":"cebpf4jnsgd1na2vs0mg"},{"bike_id":"fb2cc8bd-b22d-40b8-b6f2-355ed9038731","system_id":"levelo_inurba_marseille","lat":43.28394,"lon":5.3753,"is_reserved":false,"is_disabled":false,"rental_uris":{"android":"levelo://app?vid=fb2cc8bd-b22d-40b8-b6f2-355ed9038731","ios":"levelo://app?vid=fb2cc8bd-b22d-40b8-b6f2-355ed9038731"},"vehicle_type_id":"4","last_reported":1743657061,"current_range_meters":10000,"station_id":"ce4bh412rcd13ifvqds0","pricing_plan_id":"cebpf4jnsgd1na2vs0mg"},{"bike_id":"5fdf6bbd-574b-46fe-ad8c-7571318200a0","system_id":"levelo_inurba_marseille","lat":43.27893,"lon":5.38013,"is_reserved":false,"is_disabled":false,"rental_uris":{"android":"levelo://app?vid=5fdf6bbd-574b-46fe-ad8c-7571318200a0","ios":"levelo://app?vid=5fdf6bbd-574b-46fe-ad8c-7571318200a0"},"vehicle_type_id":"4","last_reported":1743657061,"current_range_meters":10000,"station_id":"ce4bhf92rcd13ifvqf50","pricing_plan_id":"cebpf4jnsgd1na2vs0mg"},{"bike_id":"cd83c8ac-ed09-4369-9279-b6f36f2bbd3c","system_id":"levelo_inurba_marseille","lat":43.30779,"lon":5.38276,"is_reserved":false,"is_disabled":false,"rental_uris":{"android":"levelo://app?vid=cd83c8ac-ed09-4369-9279-b6f36f2bbd3c","ios":"levelo://app?vid=cd83c8ac-ed09-4369-9279-b6f36f2bbd3c"},"vehicle_type_id":"4","last_reported":1743657061,"current_range_meters":10000,"station_id":"","pricing_plan_id":"cebpf4jnsgd1na2vs0mg"},{"bike_id":"09a8a7dc-25ab-48a6-ac8b-5ee88a884479","system_id":"levelo_inurba_marseille","lat":43.28646,"lon":5.38396,"is_reserved":false,"is_disabled":false,"rental_uris":{"android":"levelo://app?vid=09a8a7dc-25ab-48a6-ac8b-5ee88a884479","ios":"levelo://app?vid=09a8a7dc-25ab-48a6-ac8b-5ee88a884479"},"vehicle_type_id":"4","last_reported":1743657061,"current_range_meters":10000,"station_id":"","pricing_plan_id":"cebpf4jnsgd1na2vs0mg"},{"bike_id":"8cc6c2ed-3e77-4cd4-b528-4be3c22c789b","system_id":"levelo_inurba_marseille","lat":43.2893,"lon":5.36651,"is_reserved":false,"is_disabled":false,"rental_uris":{"android":"levelo://app?vid=8cc6c2ed-3e77-4cd4-b528-4be3c22c789b","ios":"levelo://app?vid=8cc6c2ed-3e77-4cd4-b528-4be3c22c789b"},"vehicle_type_id":"4","last_reported":1743657061,"current_range_meters":10000,"station_id":"ce4bhap2rcd13ifvqek0","pricing_plan_id":"cebpf4jnsgd1na2vs0mg"},{"bike_id":"7d49898d-4c6e-4131-9fdb-37de62f2c79c","system_id":"levelo_inurba_marseille","lat":43.28881,"lon":5.37161,"is_reserved":false,"is_disabled":false,"rental_uris":{"android":"levelo://app?vid=7d49898d-4c6e-4131-9fdb-37de62f2c79c","ios":"levelo://app?vid=7d49898d-4c6e-4131-9fdb-37de62f2c79c"},"vehicle_type_id":"4","last_reported":1743657061,"current_range_meters":10000,"station_id":"","pricing_plan_id":"cebpf4jnsgd1na2vs0mg"},{"bike_id":"a3d0414c-7601-4a4b-a431-71d0a9f4e44c","system_id":"levelo_inurba_marseille","lat":43.30368,"lon":5.42479,"is_reserved":false,"is_disabled":false,"rental_uris":{"android":"levelo://app?vid=a3d0414c-7601-4a4b-a431-71d0a9f4e44c","ios":"levelo://app?vid=a3d0414c-7601-4a4b-a431-71d0a9f4e44c"},"vehicle_type_id":"4","last_reported":1743657061,"current_range_meters":10800,"station_id":"ce4bhoh2rcd13ifvqh6g","pricing_plan_id":"cebpf4jnsgd1na2vs0mg"},{"bike_id":"e9b260c0-e2f7-4a0c-83f5-bfd4f16e7d61","system_id":"levelo_inurba_marseille","lat":43.24684,"lon":5.38145,"is_reserved":false,"is_disabled":false,"rental_uris":{"android":"levelo://app?vid=e9b260c0-e2f7-4a0c-83f5-bfd4f16e7d61","ios":"levelo://app?vid=e9b260c0-e2f7-4a0c-83f5-bfd4f16e7d61"},"vehicle_type_id":"4","last_reported":1743657061,"current_range_meters":10800,"station_id":"ce4bhih2rcd13ifvqfr0","pricing_plan_id":"cebpf4jnsgd1na2vs0mg"},{"bike_id":"915b231d-b6b1-4659-8de9-4fe427bcb2f8","system_id":"levelo_inurba_marseille","lat":43.29607,"lon":5.37726,"is_reserved":false,"is_disabled":false,"rental_uris":{"android":"levelo://app?vid=915b231d-b6b1-4659-8de9-4fe427bcb2f8","ios":"levelo://app?vid=915b231d-b6b1-4659-8de9-4fe427bcb2f8"},"vehicle_type_id":"4","last_reported":1743657061,"current_range_meters":10800,"station_id":"ce4bgi92rcd13ifvqb90","pricing_plan_id":"cebpf4jnsgd1na2vs0mg"},{"bike_id":"b3d0f9cc-83ec-41f4-b80d-81d692d3cb65","system_id":"levelo_inurba_marseille","lat":43.30639,"lon":5.40086,"is_reserved":false,"is_disabled":false,"rental_uris":{"android":"levelo://app?vid=b3d0f9cc-83ec-41f4-b80d-81d692d3cb65","ios":"levelo://app?vid=b3d0f9cc-83ec-41f4-b80d-81d692d3cb65"},"vehicle_type_id":"4","last_reported":1743657061,"current_range_meters":10800,"station_id":"ce4bh112rcd13ifvqda0","pricing_plan_id":"cebpf4jnsgd1na2vs0mg"},{"bike_id":"3f963879-f377-429e-ad0d-fb2891869682","system_id":"levelo_inurba_marseille","lat":43.28338,"lon":5.38107,"is_reserved":false,"is_disabled":false,"rental_uris":{"android":"levelo://app?vid=3f963879-f377-429e-ad0d-fb2891869682","ios":"levelo://app?vid=3f963879-f377-429e-ad0d-fb2891869682"},"vehicle_type_id":"4","last_reported":1743657061,"current_range_meters":10800,"station_id":"ce4bh412rcd13ifvqdr0","pricing_plan_id":"cebpf4jnsgd1na2vs0mg"},{"bike_id":"18ccc39b-f84e-406f-9709-ff265dbd4fd7","system_id":"levelo_inurba_marseille","lat":43.31069,"lon":5.38356,"is_reserved":false,"is_disabled":false,"rental_uris":{"android":"levelo://app?vid=18ccc39b-f84e-406f-9709-ff265dbd4fd7","ios":"levelo://app?vid=18ccc39b-f84e-406f-9709-ff265dbd4fd7"},"vehicle_type_id":"4","last_reported":1743657061,"current_range_meters":10800,"station_id":"ce4bgv92rcd13ifvqcr0","pricing_plan_id":"cebpf4jnsgd1na2vs0mg"},{"bike_id":"67f98ed3-63bd-4595-b49d-0192231ba0ca","system_id":"levelo_inurba_marseille","lat":43.28074,"lon":5.37878,"is_reserved":false,"is_disabled":false,"rental_uris":{"android":"levelo://app?vid=67f98ed3-63bd-4595-b49d-0192231ba0ca","ios":"levelo://app?vid=67f98ed3-63bd-4595-b49d-0192231ba0ca"},"vehicle_type_id":"4","last_reported":1743657061,"current_range_meters":10800,"station_id":"","pricing_plan_id":"cebpf4jnsgd1na2vs0mg"},{"bike_id":"94369adf-8dc4-46bb-8a3f-e706a01f86c3","system_id":"levelo_inurba_marseille","lat":43.30952,"lon":5.39051,"is_reserved":false,"is_disabled":false,"rental_uris":{"android":"levelo://app?vid=94369adf-8dc4-46bb-8a3f-e706a01f86c3","ios":"levelo://app?vid=94369adf-8dc4-46bb-8a3f-e706a01f86c3"},"vehicle_type_id":"4","last_reported":1743657061,"current_range_meters":10800,"station_id":"ce4bgup2rcd13ifvqco0","pricing_plan_id":"cebpf4jnsgd1na2vs0mg"},{"bike_id":"eca000f3-7adb-462c-b7ed-61fb5b2098fc","system_id":"levelo_inurba_marseille","lat":43.22938,"lon":5.353849,"is_reserved":false,"is_disabled":false,"rental_uris":{"android":"levelo://app?vid=eca000f3-7adb-462c-b7ed-61fb5b2098fc","ios":"levelo://app?vid=eca000f3-7adb-462c-b7ed-61fb5b2098fc"},"vehicle_type_id":"4","last_reported":1743657061,"current_range_meters":10800,"station_id":"cpo3532slgdg3j2ikp40","pricing_plan_id":"cebpf4jnsgd1na2vs0mg"},{"bike_id":"18a89d6d-51fc-4010-8511-8b5ce2c1795f","system_id":"levelo_inurba_marseille","lat":43.32369,"lon":5.3889,"is_reserved":false,"is_disabled":true,"rental_uris":{"android":"levelo://app?vid=18a89d6d-51fc-4010-8511-8b5ce2c1795f","ios":"levelo://app?vid=18a89d6d-51fc-4010-8511-8b5ce2c1795f"},"vehicle_type_id":"4","last_reported":1743657061,"current_range_meters":10800,"station_id":"ce4bhqp2rcd13ifvqhog","pricing_plan_id":"cebpf4jnsgd1na2vs0mg"},{"bike_id":"9f62f29e-b083-4314-9e82-a49e79ecd17d","system_id":"levelo_inurba_marseille","lat":43.22915,"lon":5.3539,"is_reserved":false,"is_disabled":false,"rental_uris":{"android":"levelo://app?vid=9f62f29e-b083-4314-9e82-a49e79ecd17d","ios":"levelo://app?vid=9f62f29e-b083-4314-9e82-a49e79ecd17d"},"vehicle_type_id":"4","last_reported":1743657061,"current_range_meters":10800,"station_id":"cpo3532slgdg3j2ikp40","pricing_plan_id":"cebpf4jnsgd1na2vs0mg"},{"bike_id":"b86b5b87-f029-48ac-aa00-3a50d7e2c1d2","system_id":"levelo_inurba_marseille","lat":43.32375,"lon":5.36727,"is_reserved":false,"is_disabled":true,"rental_uris":{"android":"levelo://app?vid=b86b5b87-f029-48ac-aa00-3a50d7e2c1d2","ios":"levelo://app?vid=b86b5b87-f029-48ac-aa00-3a50d7e2c1d2"},"vehicle_type_id":"4","last_reported":1743657061,"current_range_meters":11200,"station_id":"ce4bhsh2rcd13ifvqi2g","pricing_plan_id":"cebpf4jnsgd1na2vs0mg"},{"bike_id":"c342fc06-c0c7-40d3-8181-71c413355135","system_id":"levelo_inurba_marseille","lat":43.273722,"lon":5.362603,"is_reserved":false,"is_disabled":false,"rental_uris":{"android":"levelo://app?vid=c342fc06-c0c7-40d3-8181-71c413355135","ios":"levelo://app?vid=c342fc06-c0c7-40d3-8181-71c413355135"},"vehicle_type_id":"4","last_reported":1743657061,"current_range_meters":11200,"station_id":"ce4bhbh2rcd13ifvqeo0","pricing_plan_id":"cebpf4jnsgd1na2vs0mg"},{"bike_id":"dc8aea87-570e-48a9-ba81-61fce273bb0b","system_id":"levelo_inurba_marseille","lat":43.25871,"lon":5.39911,"is_reserved":false,"is_disabled":false,"rental_uris":{"android":"levelo://app?vid=dc8aea87-570e-48a9-ba81-61fce273bb0b","ios":"levelo://app?vid=dc8aea87-570e-48a9-ba81-61fce273bb0b"},"vehicle_type_id":"4","last_reported":1743657061,"current_range_meters":11600,"station_id":"ce4bhl92rcd13ifvqghg","pricing_plan_id":"cebpf4jnsgd1na2vs0mg"},{"bike_id":"65176d7e-a215-4479-a736-b11f75a62786","system_id":"levelo_inurba_marseille","lat":43.28451,"lon":5.359,"is_reserved":false,"is_disabled":false,"rental_uris":{"android":"levelo://app?vid=65176d7e-a215-4479-a736-b11f75a62786","ios":"levelo://app?vid=65176d7e-a215-4479-a736-b11f75a62786"},"vehicle_type_id":"4","last_reported":1743657061,"current_range_meters":11600,"station_id":"ce4bhah2rcd13ifvqei0","pricing_plan_id":"cebpf4jnsgd1na2vs0mg"},{"bike_id":"2635283e-ffd4-4c1f-b9e8-1b146ac4c8cc","system_id":"levelo_inurba_marseille","lat":43.30201,"lon":5.41923,"is_reserved":false,"is_disabled":false,"rental_uris":{"android":"levelo://app?vid=2635283e-ffd4-4c1f-b9e8-1b146ac4c8cc","ios":"levelo://app?vid=2635283e-ffd4-4c1f-b9e8-1b146ac4c8cc"},"vehicle_type_id":"4","last_reported":1743657061,"current_range_meters":11600,"station_id":"","pricing_plan_id":"cebpf4jnsgd1na2vs0mg"},{"bike_id":"22bcfedc-fd1a-42ef-b4ce-f8cb0c81bc99","system_id":"levelo_inurba_marseille","lat":43.3014,"lon":5.387782,"is_reserved":false,"is_disabled":true,"rental_uris":{"android":"levelo://app?vid=22bcfedc-fd1a-42ef-b4ce-f8cb0c81bc99","ios":"levelo://app?vid=22bcfedc-fd1a-42ef-b4ce-f8cb0c81bc99"},"vehicle_type_id":"4","last_reported":1743657061,"current_range_meters":11600,"station_id":"ce4bghh2rcd13ifvqb60","pricing_plan_id":"cebpf4jnsgd1na2vs0mg"},{"bike_id":"a8fc5e7b-59f1-425a-aa68-0e461a60dbc2","system_id":"levelo_inurba_marseille","lat":43.31064,"lon":5.38346,"is_reserved":false,"is_disabled":false,"rental_uris":{"android":"levelo://app?vid=a8fc5e7b-59f1-425a-aa68-0e461a60dbc2","ios":"levelo://app?vid=a8fc5e7b-59f1-425a-aa68-0e461a60dbc2"},"vehicle_type_id":"4","last_reported":1743657061,"current_range_meters":12000,"station_id":"ce4bgv92rcd13ifvqcr0","pricing_plan_id":"cebpf4jnsgd1na2vs0mg"},{"bike_id":"a014b36e-40fa-4c58-8432-84aa89c3694d","system_id":"levelo_inurba_marseille","lat":43.29201,"lon":5.39309,"is_reserved":false,"is_disabled":false,"rental_uris":{"android":"levelo://app?vid=a014b36e-40fa-4c58-8432-84aa89c3694d","ios":"levelo://app?vid=a014b36e-40fa-4c58-8432-84aa89c3694d"},"vehicle_type_id":"4","last_reported":1743657061,"current_range_meters":12000,"station_id":"ce4bh192rcd13ifvqdd0","pricing_plan_id":"cebpf4jnsgd1na2vs0mg"},{"bike_id":"2b7563bf-72ce-4546-bdfe-0681f54925e9","system_id":"levelo_inurba_marseille","lat":43.292551,"lon":5.384388,"is_reserved":false,"is_disabled":true,"rental_uris":{"android":"levelo://app?vid=2b7563bf-72ce-4546-bdfe-0681f54925e9","ios":"levelo://app?vid=2b7563bf-72ce-4546-bdfe-0681f54925e9"},"vehicle_type_id":"4","last_reported":1743657061,"current_range_meters":12000,"station_id":"ce4bh692rcd13ifvqea0","pricing_plan_id":"cebpf4jnsgd1na2vs0mg"},{"bike_id":"c2814ac1-bbda-4565-afe5-c29611abff83","system_id":"levelo_inurba_marseille","lat":43.27798,"lon":5.40744,"is_reserved":false,"is_disabled":false,"rental_uris":{"android":"levelo://app?vid=c2814ac1-bbda-4565-afe5-c29611abff83","ios":"levelo://app?vid=c2814ac1-bbda-4565-afe5-c29611abff83"},"vehicle_type_id":"4","last_reported":1743657061,"current_range_meters":12000,"station_id":"ce4bhnh2rcd13ifvqgtg","pricing_plan_id":"cebpf4jnsgd1na2vs0mg"},{"bike_id":"e6f02e74-383c-4bae-b8c4-037430863270","system_id":"levelo_inurba_marseille","lat":43.2305,"lon":5.35505,"is_reserved":false,"is_disabled":false,"rental_uris":{"android":"levelo://app?vid=e6f02e74-383c-4bae-b8c4-037430863270","ios":"levelo://app?vid=e6f02e74-383c-4bae-b8c4-037430863270"},"vehicle_type_id":"4","last_reported":1743657061,"current_range_meters":12000,"station_id":"cpo3342slgdg3j2ifvpg","pricing_plan_id":"cebpf4jnsgd1na2vs0mg"},{"bike_id":"70e5b39f-29e3-4ea9-aa83-5a60a8eec6f8","system_id":"levelo_inurba_marseille","lat":43.25054,"lon":5.417,"is_reserved":false,"is_disabled":false,"rental_uris":{"android":"levelo://app?vid=70e5b39f-29e3-4ea9-aa83-5a60a8eec6f8","ios":"levelo://app?vid=70e5b39f-29e3-4ea9-aa83-5a60a8eec6f8"},"vehicle_type_id":"4","last_reported":1743657061,"current_range_meters":12000,"station_id":"","pricing_plan_id":"cebpf4jnsgd1na2vs0mg"},{"bike_id":"43705df6-dad5-49b0-ba8b-f4f32b11172b","system_id":"levelo_inurba_marseille","lat":43.28735,"lon":5.37921,"is_reserved":false,"is_disabled":false,"rental_uris":{"android":"levelo://app?vid=43705df6-dad5-49b0-ba8b-f4f32b11172b","ios":"levelo://app?vid=43705df6-dad5-49b0-ba8b-f4f32b11172b"},"vehicle_type_id":"4","last_reported":1743657061,"current_range_meters":12000,"station_id":"ce4bh9p2rcd13ifvqec0","pricing_plan_id":"cebpf4jnsgd1na2vs0mg"},{"bike_id":"a648e5b1-1d57-4af3-a248-56f63e8381a9","system_id":"levelo_inurba_marseille","lat":43.30871,"lon":5.3964,"is_reserved":false,"is_disabled":false,"rental_uris":{"android":"levelo://app?vid=a648e5b1-1d57-4af3-a248-56f63e8381a9","ios":"levelo://app?vid=a648e5b1-1d57-4af3-a248-56f63e8381a9"},"vehicle_type_id":"4","last_reported":1743657061,"current_range_meters":12400,"station_id":"ce4bh012rcd13ifvqcv0","pricing_plan_id":"cebpf4jnsgd1na2vs0mg"},{"bike_id":"97c0eecc-8787-4395-b6d9-f622fd6dd4ee","system_id":"levelo_inurba_marseille","lat":43.26133,"lon":5.40908,"is_reserved":false,"is_disabled":true,"rental_uris":{"android":"levelo://app?vid=97c0eecc-8787-4395-b6d9-f622fd6dd4ee","ios":"levelo://app?vid=97c0eecc-8787-4395-b6d9-f622fd6dd4ee"},"vehicle_type_id":"4","last_reported":1743657061,"current_range_meters":12400,"station_id":"","pricing_plan_id":"cebpf4jnsgd1na2vs0mg"},{"bike_id":"48f77b87-1f93-47ae-89de-38c2bac58866","system_id":"levelo_inurba_marseille","lat":43.30592,"lon":5.37263,"is_reserved":false,"is_disabled":false,"rental_uris":{"android":"levelo://app?vid=48f77b87-1f93-47ae-89de-38c2bac58866","ios":"levelo://app?vid=48f77b87-1f93-47ae-89de-38c2bac58866"},"vehicle_type_id":"4","last_reported":1743657061,"current_range_meters":12400,"station_id":"ce4bgqh2rcd13ifvqc4g","pricing_plan_id":"cebpf4jnsgd1na2vs0mg"},{"bike_id":"e3a29d38-a611-4b12-87ef-2fb8a21c41d5","system_id":"levelo_inurba_marseille","lat":43.22879,"lon":5.35395,"is_reserved":false,"is_disabled":false,"rental_uris":{"android":"levelo://app?vid=e3a29d38-a611-4b12-87ef-2fb8a21c41d5","ios":"levelo://app?vid=e3a29d38-a611-4b12-87ef-2fb8a21c41d5"},"vehicle_type_id":"4","last_reported":1743657061,"current_range_meters":12400,"station_id":"cpo3532slgdg3j2ikp40","pricing_plan_id":"cebpf4jnsgd1na2vs0mg"},{"bike_id":"78ca934a-98c9-4dbc-b5b6-c2ca906050d2","system_id":"levelo_inurba_marseille","lat":43.29746,"lon":5.389387,"is_reserved":false,"is_disabled":false,"rental_uris":{"android":"levelo://app?vid=78ca934a-98c9-4dbc-b5b6-c2ca906050d2","ios":"levelo://app?vid=78ca934a-98c9-4dbc-b5b6-c2ca906050d2"},"vehicle_type_id":"4","last_reported":1743657061,"current_range_meters":12400,"station_id":"","pricing_plan_id":"cebpf4jnsgd1na2vs0mg"},{"bike_id":"bb745ff7-e372-47cd-8e7a-5658e3435a0c","system_id":"levelo_inurba_marseille","lat":43.30261,"lon":5.400794,"is_reserved":false,"is_disabled":false,"rental_uris":{"android":"levelo://app?vid=bb745ff7-e372-47cd-8e7a-5658e3435a0c","ios":"levelo://app?vid=bb745ff7-e372-47cd-8e7a-5658e3435a0c"},"vehicle_type_id":"4","last_reported":1743657061,"current_range_meters":12400,"station_id":"","pricing_plan_id":"cebpf4jnsgd1na2vs0mg"},{"bike_id":"c1c63035-c83b-4419-8cbf-133778d95125","system_id":"levelo_inurba_marseille","lat":43.297967,"lon":5.393493,"is_reserved":false,"is_disabled":true,"rental_uris":{"android":"levelo://app?vid=c1c63035-c83b-4419-8cbf-133778d95125","ios":"levelo://app?vid=c1c63035-c83b-4419-8cbf-133778d95125"},"vehicle_type_id":"4","last_reported":1743657061,"current_range_meters":12400,"station_id":"chh1huq6cuj3fo74tm60","pricing_plan_id":"cebpf4jnsgd1na2vs0mg"},{"bike_id":"b61a33fe-6372-4bd4-9589-3bc407f2f2e1","system_id":"levelo_inurba_marseille","lat":43.292975,"lon":5.374445,"is_reserved":false,"is_disabled":true,"rental_uris":{"android":"levelo://app?vid=b61a33fe-6372-4bd4-9589-3bc407f2f2e1","ios":"levelo://app?vid=b61a33fe-6372-4bd4-9589-3bc407f2f2e1"},"vehicle_type_id":"4","last_reported":1743657061,"current_range_meters":12400,"station_id":"ce4bgi12rcd13ifvqb70","pricing_plan_id":"cebpf4jnsgd1na2vs0mg"},{"bike_id":"95019719-c74f-41a1-a986-f0fc3550d793","system_id":"levelo_inurba_marseille","lat":43.24999,"lon":5.38941,"is_reserved":false,"is_disabled":false,"rental_uris":{"android":"levelo://app?vid=95019719-c74f-41a1-a986-f0fc3550d793","ios":"levelo://app?vid=95019719-c74f-41a1-a986-f0fc3550d793"},"vehicle_type_id":"4","last_reported":1743657061,"current_range_meters":12800,"station_id":"ce4bhgp2rcd13ifvqfd0","pricing_plan_id":"cebpf4jnsgd1na2vs0mg"},{"bike_id":"f8c62789-a6b7-4539-b99c-e6c73b69ae5e","system_id":"levelo_inurba_marseille","lat":43.303209,"lon":5.404411,"is_reserved":false,"is_disabled":true,"rental_uris":{"android":"levelo://app?vid=f8c62789-a6b7-4539-b99c-e6c73b69ae5e","ios":"levelo://app?vid=f8c62789-a6b7-4539-b99c-e6c73b69ae5e"},"vehicle_type_id":"4","last_reported":1743657061,"current_range_meters":12800,"station_id":"ce4bh012rcd13ifvqd10","pricing_plan_id":"cebpf4jnsgd1na2vs0mg"},{"bike_id":"02759f5c-bea4-4728-b180-347da1c9de69","system_id":"levelo_inurba_marseille","lat":43.24665,"lon":5.3817,"is_reserved":false,"is_disabled":false,"rental_uris":{"android":"levelo://app?vid=02759f5c-bea4-4728-b180-347da1c9de69","ios":"levelo://app?vid=02759f5c-bea4-4728-b180-347da1c9de69"},"vehicle_type_id":"4","last_reported":1743657061,"current_range_meters":12800,"station_id":"ce4bhih2rcd13ifvqfr0","pricing_plan_id":"cebpf4jnsgd1na2vs0mg"},{"bike_id":"efddeda7-6eb2-4c14-868d-fa0ce0b35ef3","system_id":"levelo_inurba_marseille","lat":43.31291,"lon":5.38259,"is_reserved":false,"is_disabled":false,"rental_uris":{"android":"levelo://app?vid=efddeda7-6eb2-4c14-868d-fa0ce0b35ef3","ios":"levelo://app?vid=efddeda7-6eb2-4c14-868d-fa0ce0b35ef3"},"vehicle_type_id":"4","last_reported":1743657061,"current_range_meters":12800,"station_id":"","pricing_plan_id":"cebpf4jnsgd1na2vs0mg"},{"bike_id":"9f155b00-2d09-42a5-95f2-889c2287feef","system_id":"levelo_inurba_marseille","lat":43.284595,"lon":5.358874,"is_reserved":false,"is_disabled":false,"rental_uris":{"android":"levelo://app?vid=9f155b00-2d09-42a5-95f2-889c2287feef","ios":"levelo://app?vid=9f155b00-2d09-42a5-95f2-889c2287feef"},"vehicle_type_id":"4","last_reported":1743657061,"current_range_meters":12800,"station_id":"ce4bhah2rcd13ifvqei0","pricing_plan_id":"cebpf4jnsgd1na2vs0mg"},{"bike_id":"97dc81a2-98fa-40da-abb7-3bd5a63f2f0b","system_id":"levelo_inurba_marseille","lat":43.31497,"lon":5.373,"is_reserved":false,"is_disabled":false,"rental_uris":{"android":"levelo://app?vid=97dc81a2-98fa-40da-abb7-3bd5a63f2f0b","ios":"levelo://app?vid=97dc81a2-98fa-40da-abb7-3bd5a63f2f0b"},"vehicle_type_id":"4","last_reported":1743657061,"current_range_meters":13600,"station_id":"ce4bgt12rcd13ifvqcd0","pricing_plan_id":"cebpf4jnsgd1na2vs0mg"},{"bike_id":"111c2e2a-a599-4d28-8e54-5f08a37d6437","system_id":"levelo_inurba_marseille","lat":43.2919,"lon":5.39334,"is_reserved":false,"is_disabled":false,"rental_uris":{"android":"levelo://app?vid=111c2e2a-a599-4d28-8e54-5f08a37d6437","ios":"levelo://app?vid=111c2e2a-a599-4d28-8e54-5f08a37d6437"},"vehicle_type_id":"4","last_reported":1743657061,"current_range_meters":13600,"station_id":"ce4bh192rcd13ifvqdd0","pricing_plan_id":"cebpf4jnsgd1na2vs0mg"},{"bike_id":"09f4b827-b8d6-46d5-a78e-7fb3c370d6f9","system_id":"levelo_inurba_marseille","lat":43.3079,"lon":5.37654,"is_reserved":false,"is_disabled":false,"rental_uris":{"android":"levelo://app?vid=09f4b827-b8d6-46d5-a78e-7fb3c370d6f9","ios":"levelo://app?vid=09f4b827-b8d6-46d5-a78e-7fb3c370d6f9"},"vehicle_type_id":"4","last_reported":1743657061,"current_range_meters":13600,"station_id":"ce4bgv92rcd13ifvqcq0","pricing_plan_id":"cebpf4jnsgd1na2vs0mg"},{"bike_id":"2be94212-600c-4c4f-ba3b-fe750ec2d558","system_id":"levelo_inurba_marseille","lat":43.281092,"lon":5.378446,"is_reserved":false,"is_disabled":false,"rental_uris":{"android":"levelo://app?vid=2be94212-600c-4c4f-ba3b-fe750ec2d558","ios":"levelo://app?vid=2be94212-600c-4c4f-ba3b-fe750ec2d558"},"vehicle_type_id":"4","last_reported":1743657061,"current_range_meters":13600,"station_id":"ce4bha12rcd13ifvqee0","pricing_plan_id":"cebpf4jnsgd1na2vs0mg"},{"bike_id":"1214767a-6782-4b28-a1f3-b8fdeae8b396","system_id":"levelo_inurba_marseille","lat":43.30951,"lon":5.39038,"is_reserved":false,"is_disabled":false,"rental_uris":{"android":"levelo://app?vid=1214767a-6782-4b28-a1f3-b8fdeae8b396","ios":"levelo://app?vid=1214767a-6782-4b28-a1f3-b8fdeae8b396"},"vehicle_type_id":"4","last_reported":1743657061,"current_range_meters":12800,"station_id":"ce4bgup2rcd13ifvqco0","pricing_plan_id":"cebpf4jnsgd1na2vs0mg"},{"bike_id":"bd3790b2-de01-409f-986d-d88a8a90008e","system_id":"levelo_inurba_marseille","lat":43.28444,"lon":5.35898,"is_reserved":false,"is_disabled":false,"rental_uris":{"android":"levelo://app?vid=bd3790b2-de01-409f-986d-d88a8a90008e","ios":"levelo://app?vid=bd3790b2-de01-409f-986d-d88a8a90008e"},"vehicle_type_id":"4","last_reported":1743657061,"current_range_meters":13600,"station_id":"ce4bhah2rcd13ifvqei0","pricing_plan_id":"cebpf4jnsgd1na2vs0mg"},{"bike_id":"1bd4c5e9-3479-4a34-bfb9-e556a3bbe8ed","system_id":"levelo_inurba_marseille","lat":43.23052,"lon":5.35521,"is_reserved":false,"is_disabled":false,"rental_uris":{"android":"levelo://app?vid=1bd4c5e9-3479-4a34-bfb9-e556a3bbe8ed","ios":"levelo://app?vid=1bd4c5e9-3479-4a34-bfb9-e556a3bbe8ed"},"vehicle_type_id":"4","last_reported":1743657061,"current_range_meters":13600,"station_id":"cpo3342slgdg3j2ifvpg","pricing_plan_id":"cebpf4jnsgd1na2vs0mg"},{"bike_id":"005283db-9aca-49eb-ae41-cbf0dc140b6c","system_id":"levelo_inurba_marseille","lat":43.30118,"lon":5.37298,"is_reserved":false,"is_disabled":false,"rental_uris":{"android":"levelo://app?vid=005283db-9aca-49eb-ae41-cbf0dc140b6c","ios":"levelo://app?vid=005283db-9aca-49eb-ae41-cbf0dc140b6c"},"vehicle_type_id":"4","last_reported":1743657061,"current_range_meters":14000,"station_id":"","pricing_plan_id":"cebpf4jnsgd1na2vs0mg"},{"bike_id":"c010083c-3d37-442b-bb01-af5ace56ca85","system_id":"levelo_inurba_marseille","lat":43.28846,"lon":5.35864,"is_reserved":false,"is_disabled":false,"rental_uris":{"android":"levelo://app?vid=c010083c-3d37-442b-bb01-af5ace56ca85","ios":"levelo://app?vid=c010083c-3d37-442b-bb01-af5ace56ca85"},"vehicle_type_id":"4","last_reported":1743657061,"current_range_meters":14000,"station_id":"ce4bhb12rcd13ifvqem0","pricing_plan_id":"cebpf4jnsgd1na2vs0mg"},{"bike_id":"3dbc3d46-7777-4ee1-abe2-41ae010c9497","system_id":"levelo_inurba_marseille","lat":43.2952,"lon":5.39043,"is_reserved":false,"is_disabled":true,"rental_uris":{"android":"levelo://app?vid=3dbc3d46-7777-4ee1-abe2-41ae010c9497","ios":"levelo://app?vid=3dbc3d46-7777-4ee1-abe2-41ae010c9497"},"vehicle_type_id":"4","last_reported":1743657061,"current_range_meters":14000,"station_id":"ce4bh3p2rcd13ifvqdp0","pricing_plan_id":"cebpf4jnsgd1na2vs0mg"},{"bike_id":"a3a8f124-31ae-4792-80af-baf411969bf8","system_id":"levelo_inurba_marseille","lat":43.284178,"lon":5.374977,"is_reserved":false,"is_disabled":false,"rental_uris":{"android":"levelo://app?vid=a3a8f124-31ae-4792-80af-baf411969bf8","ios":"levelo://app?vid=a3a8f124-31ae-4792-80af-baf411969bf8"},"vehicle_type_id":"4","last_reported":1743657061,"current_range_meters":14400,"station_id":"ce4bhbp2rcd13ifvqerg","pricing_plan_id":"cebpf4jnsgd1na2vs0mg"},{"bike_id":"9b108ae0-43b2-4bee-b55e-648783778c2f","system_id":"levelo_inurba_marseille","lat":43.30589,"lon":5.37246,"is_reserved":false,"is_disabled":false,"rental_uris":{"android":"levelo://app?vid=9b108ae0-43b2-4bee-b55e-648783778c2f","ios":"levelo://app?vid=9b108ae0-43b2-4bee-b55e-648783778c2f"},"vehicle_type_id":"4","last_reported":1743657061,"current_range_meters":14400,"station_id":"ce4bgqh2rcd13ifvqc4g","pricing_plan_id":"cebpf4jnsgd1na2vs0mg"},{"bike_id":"cbadd818-61ef-4ba0-9294-9bb1e96d777f","system_id":"levelo_inurba_marseille","lat":43.284121,"lon":5.375191,"is_reserved":false,"is_disabled":false,"rental_uris":{"android":"levelo://app?vid=cbadd818-61ef-4ba0-9294-9bb1e96d777f","ios":"levelo://app?vid=cbadd818-61ef-4ba0-9294-9bb1e96d777f"},"vehicle_type_id":"4","last_reported":1743657061,"current_range_meters":14400,"station_id":"ce4bh412rcd13ifvqds0","pricing_plan_id":"cebpf4jnsgd1na2vs0mg"},{"bike_id":"ac34fccd-2717-4101-8ba4-5acf05623170","system_id":"levelo_inurba_marseille","lat":43.32392,"lon":5.38789,"is_reserved":false,"is_disabled":false,"rental_uris":{"android":"levelo://app?vid=ac34fccd-2717-4101-8ba4-5acf05623170","ios":"levelo://app?vid=ac34fccd-2717-4101-8ba4-5acf05623170"},"vehicle_type_id":"4","last_reported":1743657061,"current_range_meters":14400,"station_id":"ce4bhqp2rcd13ifvqhog","pricing_plan_id":"cebpf4jnsgd1na2vs0mg"},{"bike_id":"8e2424bb-8c50-4583-b41b-a7e00143b6c2","system_id":"levelo_inurba_marseille","lat":43.240711,"lon":5.377547,"is_reserved":false,"is_disabled":false,"rental_uris":{"android":"levelo://app?vid=8e2424bb-8c50-4583-b41b-a7e00143b6c2","ios":"levelo://app?vid=8e2424bb-8c50-4583-b41b-a7e00143b6c2"},"vehicle_type_id":"4","last_reported":1743657061,"current_range_meters":14400,"station_id":"ce4bhnp2rcd13ifvqgvg","pricing_plan_id":"cebpf4jnsgd1na2vs0mg"},{"bike_id":"a095eb29-6920-4d45-980a-143c25be8e8c","system_id":"levelo_inurba_marseille","lat":43.28102,"lon":5.37833,"is_reserved":false,"is_disabled":false,"rental_uris":{"android":"levelo://app?vid=a095eb29-6920-4d45-980a-143c25be8e8c","ios":"levelo://app?vid=a095eb29-6920-4d45-980a-143c25be8e8c"},"vehicle_type_id":"4","last_reported":1743657061,"current_range_meters":14400,"station_id":"ce4bha12rcd13ifvqee0","pricing_plan_id":"cebpf4jnsgd1na2vs0mg"},{"bike_id":"abeb52ee-d6f8-49ca-bd7c-c8950c0cba3a","system_id":"levelo_inurba_marseille","lat":43.29907,"lon":5.38142,"is_reserved":false,"is_disabled":false,"rental_uris":{"android":"levelo://app?vid=abeb52ee-d6f8-49ca-bd7c-c8950c0cba3a","ios":"levelo://app?vid=abeb52ee-d6f8-49ca-bd7c-c8950c0cba3a"},"vehicle_type_id":"4","last_reported":1743657061,"current_range_meters":14400,"station_id":"ce4bgj12rcd13ifvqbc0","pricing_plan_id":"cebpf4jnsgd1na2vs0mg"},{"bike_id":"704d09f1-37d1-4c7c-b83b-d9079afff1ad","system_id":"levelo_inurba_marseille","lat":43.28651,"lon":5.36366,"is_reserved":false,"is_disabled":true,"rental_uris":{"android":"levelo://app?vid=704d09f1-37d1-4c7c-b83b-d9079afff1ad","ios":"levelo://app?vid=704d09f1-37d1-4c7c-b83b-d9079afff1ad"},"vehicle_type_id":"4","last_reported":1743657061,"current_range_meters":14400,"station_id":"ce4bhah2rcd13ifvqej0","pricing_plan_id":"cebpf4jnsgd1na2vs0mg"},{"bike_id":"766c13bb-fbfd-4f91-ab06-106078444f50","system_id":"levelo_inurba_marseille","lat":43.30923,"lon":5.40141,"is_reserved":false,"is_disabled":false,"rental_uris":{"android":"levelo://app?vid=766c13bb-fbfd-4f91-ab06-106078444f50","ios":"levelo://app?vid=766c13bb-fbfd-4f91-ab06-106078444f50"},"vehicle_type_id":"4","last_reported":1743657061,"current_range_meters":14400,"station_id":"ce4bgvp2rcd13ifvqct0","pricing_plan_id":"cebpf4jnsgd1na2vs0mg"},{"bike_id":"2c1b962c-5437-417f-a06d-d90e67a40b65","system_id":"levelo_inurba_marseille","lat":43.31279,"lon":5.40162,"is_reserved":false,"is_disabled":false,"rental_uris":{"android":"levelo://app?vid=2c1b962c-5437-417f-a06d-d90e67a40b65","ios":"levelo://app?vid=2c1b962c-5437-417f-a06d-d90e67a40b65"},"vehicle_type_id":"4","last_reported":1743657061,"current_range_meters":14400,"station_id":"ce4bh092rcd13ifvqd30","pricing_plan_id":"cebpf4jnsgd1na2vs0mg"},{"bike_id":"f88cdea8-f6f7-42dd-8067-42c3c697a2c7","system_id":"levelo_inurba_marseille","lat":43.28313,"lon":5.43082,"is_reserved":false,"is_disabled":false,"rental_uris":{"android":"levelo://app?vid=f88cdea8-f6f7-42dd-8067-42c3c697a2c7","ios":"levelo://app?vid=f88cdea8-f6f7-42dd-8067-42c3c697a2c7"},"vehicle_type_id":"4","last_reported":1743657061,"current_range_meters":14800,"station_id":"","pricing_plan_id":"cebpf4jnsgd1na2vs0mg"},{"bike_id":"22b8702c-0dfe-451a-841a-e968657038a3","system_id":"levelo_inurba_marseille","lat":43.32505,"lon":5.36588,"is_reserved":false,"is_disabled":false,"rental_uris":{"android":"levelo://app?vid=22b8702c-0dfe-451a-841a-e968657038a3","ios":"levelo://app?vid=22b8702c-0dfe-451a-841a-e968657038a3"},"vehicle_type_id":"4","last_reported":1743657061,"current_range_meters":14800,"station_id":"ce4bhs12rcd13ifvqhvg","pricing_plan_id":"cebpf4jnsgd1na2vs0mg"},{"bike_id":"6c8fb0d4-c76a-44f3-a281-9c8f7c6f0037","system_id":"levelo_inurba_marseille","lat":43.279393,"lon":5.410495,"is_reserved":false,"is_disabled":false,"rental_uris":{"android":"levelo://app?vid=6c8fb0d4-c76a-44f3-a281-9c8f7c6f0037","ios":"levelo://app?vid=6c8fb0d4-c76a-44f3-a281-9c8f7c6f0037"},"vehicle_type_id":"4","last_reported":1743657061,"current_range_meters":14800,"station_id":"ce4bhnp2rcd13ifvqh0g","pricing_plan_id":"cebpf4jnsgd1na2vs0mg"},{"bike_id":"841946bd-6940-4794-9af4-41cbe287891a","system_id":"levelo_inurba_marseille","lat":43.2735,"lon":5.36255,"is_reserved":false,"is_disabled":false,"rental_uris":{"android":"levelo://app?vid=841946bd-6940-4794-9af4-41cbe287891a","ios":"levelo://app?vid=841946bd-6940-4794-9af4-41cbe287891a"},"vehicle_type_id":"4","last_reported":1743657061,"current_range_meters":14800,"station_id":"ce4bhbh2rcd13ifvqeo0","pricing_plan_id":"cebpf4jnsgd1na2vs0mg"},{"bike_id":"c3299699-5b30-44df-83ef-c0a2b5ae4a69","system_id":"levelo_inurba_marseille","lat":43.292078,"lon":5.441602,"is_reserved":false,"is_disabled":false,"rental_uris":{"android":"levelo://app?vid=c3299699-5b30-44df-83ef-c0a2b5ae4a69","ios":"levelo://app?vid=c3299699-5b30-44df-83ef-c0a2b5ae4a69"},"vehicle_type_id":"4","last_reported":1743657061,"current_range_meters":14800,"station_id":"","pricing_plan_id":"cebpf4jnsgd1na2vs0mg"},{"bike_id":"63139285-137c-4e8d-8e95-6c2a275f8333","system_id":"levelo_inurba_marseille","lat":43.32092,"lon":5.36829,"is_reserved":false,"is_disabled":false,"rental_uris":{"android":"levelo://app?vid=63139285-137c-4e8d-8e95-6c2a275f8333","ios":"levelo://app?vid=63139285-137c-4e8d-8e95-6c2a275f8333"},"vehicle_type_id":"4","last_reported":1743657061,"current_range_meters":14800,"station_id":"ce4bhrh2rcd13ifvqhug","pricing_plan_id":"cebpf4jnsgd1na2vs0mg"},{"bike_id":"c89a2250-663c-4df1-b70a-e96153cd67e6","system_id":"levelo_inurba_marseille","lat":43.28824,"lon":5.35858,"is_reserved":false,"is_disabled":false,"rental_uris":{"android":"levelo://app?vid=c89a2250-663c-4df1-b70a-e96153cd67e6","ios":"levelo://app?vid=c89a2250-663c-4df1-b70a-e96153cd67e6"},"vehicle_type_id":"4","last_reported":1743657061,"current_range_meters":14800,"station_id":"ce4bhb12rcd13ifvqem0","pricing_plan_id":"cebpf4jnsgd1na2vs0mg"},{"bike_id":"fdca0975-7551-47f9-9a40-e9f492efe588","system_id":"levelo_inurba_marseille","lat":43.28078,"lon":5.39667,"is_reserved":false,"is_disabled":false,"rental_uris":{"android":"levelo://app?vid=fdca0975-7551-47f9-9a40-e9f492efe588","ios":"levelo://app?vid=fdca0975-7551-47f9-9a40-e9f492efe588"},"vehicle_type_id":"4","last_reported":1743657061,"current_range_meters":15200,"station_id":"ce4bho12rcd13ifvqh2g","pricing_plan_id":"cebpf4jnsgd1na2vs0mg"},{"bike_id":"c6fcb94f-552c-4722-b56c-29999e49848f","system_id":"levelo_inurba_marseille","lat":43.284857,"lon":5.384228,"is_reserved":false,"is_disabled":false,"rental_uris":{"android":"levelo://app?vid=c6fcb94f-552c-4722-b56c-29999e49848f","ios":"levelo://app?vid=c6fcb94f-552c-4722-b56c-29999e49848f"},"vehicle_type_id":"4","last_reported":1743657061,"current_range_meters":15200,"station_id":"ce4bh512rcd13ifvqe3g","pricing_plan_id":"cebpf4jnsgd1na2vs0mg"},{"bike_id":"fa02140a-9127-46ee-8347-8c6688d65940","system_id":"levelo_inurba_marseille","lat":43.30142,"lon":5.38082,"is_reserved":false,"is_disabled":false,"rental_uris":{"android":"levelo://app?vid=fa02140a-9127-46ee-8347-8c6688d65940","ios":"levelo://app?vid=fa02140a-9127-46ee-8347-8c6688d65940"},"vehicle_type_id":"4","last_reported":1743657061,"current_range_meters":15200,"station_id":"ce4bgjp2rcd13ifvqbh0","pricing_plan_id":"cebpf4jnsgd1na2vs0mg"},{"bike_id":"3715be15-8bf7-4e4e-9f23-8441fced00d1","system_id":"levelo_inurba_marseille","lat":43.30872,"lon":5.39681,"is_reserved":false,"is_disabled":false,"rental_uris":{"android":"levelo://app?vid=3715be15-8bf7-4e4e-9f23-8441fced00d1","ios":"levelo://app?vid=3715be15-8bf7-4e4e-9f23-8441fced00d1"},"vehicle_type_id":"4","last_reported":1743657061,"current_range_meters":15200,"station_id":"ce4bh012rcd13ifvqcv0","pricing_plan_id":"cebpf4jnsgd1na2vs0mg"},{"bike_id":"a3e484bb-8da7-4670-8e73-79dc43bc20da","system_id":"levelo_inurba_marseille","lat":43.28457,"lon":5.35889,"is_reserved":false,"is_disabled":false,"rental_uris":{"android":"levelo://app?vid=a3e484bb-8da7-4670-8e73-79dc43bc20da","ios":"levelo://app?vid=a3e484bb-8da7-4670-8e73-79dc43bc20da"},"vehicle_type_id":"4","last_reported":1743657061,"current_range_meters":15200,"station_id":"ce4bhah2rcd13ifvqei0","pricing_plan_id":"cebpf4jnsgd1na2vs0mg"},{"bike_id":"f1e5f20d-e5bb-4349-9a72-f7ab8a004414","system_id":"levelo_inurba_marseille","lat":43.3031,"lon":5.40451,"is_reserved":false,"is_disabled":true,"rental_uris":{"android":"levelo://app?vid=f1e5f20d-e5bb-4349-9a72-f7ab8a004414","ios":"levelo://app?vid=f1e5f20d-e5bb-4349-9a72-f7ab8a004414"},"vehicle_type_id":"4","last_reported":1743657061,"current_range_meters":15200,"station_id":"ce4bh012rcd13ifvqd10","pricing_plan_id":"cebpf4jnsgd1na2vs0mg"},{"bike_id":"4dc2e017-2338-4c8e-8c49-115d78626747","system_id":"levelo_inurba_marseille","lat":43.30748,"lon":5.424375,"is_reserved":false,"is_disabled":false,"rental_uris":{"android":"levelo://app?vid=4dc2e017-2338-4c8e-8c49-115d78626747","ios":"levelo://app?vid=4dc2e017-2338-4c8e-8c49-115d78626747"},"vehicle_type_id":"4","last_reported":1743657061,"current_range_meters":15200,"station_id":"st_cvj6ca6bvosntc0bfgr0","pricing_plan_id":"cebpf4jnsgd1na2vs0mg"},{"bike_id":"a862f149-fd7e-4307-acdc-55dc73d7ecfc","system_id":"levelo_inurba_marseille","lat":43.2408,"lon":5.377523,"is_reserved":false,"is_disabled":false,"rental_uris":{"android":"levelo://app?vid=a862f149-fd7e-4307-acdc-55dc73d7ecfc","ios":"levelo://app?vid=a862f149-fd7e-4307-acdc-55dc73d7ecfc"},"vehicle_type_id":"4","last_reported":1743657061,"current_range_meters":16000,"station_id":"ce4bhnp2rcd13ifvqgvg","pricing_plan_id":"cebpf4jnsgd1na2vs0mg"},{"bike_id":"4c5af6eb-9f3a-429a-a9a5-908f23088311","system_id":"levelo_inurba_marseille","lat":43.27357,"lon":5.36259,"is_reserved":false,"is_disabled":false,"rental_uris":{"android":"levelo://app?vid=4c5af6eb-9f3a-429a-a9a5-908f23088311","ios":"levelo://app?vid=4c5af6eb-9f3a-429a-a9a5-908f23088311"},"vehicle_type_id":"4","last_reported":1743657061,"current_range_meters":16000,"station_id":"ce4bhbh2rcd13ifvqeo0","pricing_plan_id":"cebpf4jnsgd1na2vs0mg"},{"bike_id":"93cbb798-f822-4f3d-aae2-19ec45d0ddc0","system_id":"levelo_inurba_marseille","lat":43.32281,"lon":5.38285,"is_reserved":false,"is_disabled":false,"rental_uris":{"android":"levelo://app?vid=93cbb798-f822-4f3d-aae2-19ec45d0ddc0","ios":"levelo://app?vid=93cbb798-f822-4f3d-aae2-19ec45d0ddc0"},"vehicle_type_id":"4","last_reported":1743657061,"current_range_meters":16000,"station_id":"ce4bhr12rcd13ifvqhqg","pricing_plan_id":"cebpf4jnsgd1na2vs0mg"},{"bike_id":"a6303451-5b45-435c-bf0e-748f94cc010d","system_id":"levelo_inurba_marseille","lat":43.23196,"lon":5.35554,"is_reserved":false,"is_disabled":false,"rental_uris":{"android":"levelo://app?vid=a6303451-5b45-435c-bf0e-748f94cc010d","ios":"levelo://app?vid=a6303451-5b45-435c-bf0e-748f94cc010d"},"vehicle_type_id":"4","last_reported":1743657061,"current_range_meters":16000,"station_id":"ce4bhu92rcd13ifvqi70","pricing_plan_id":"cebpf4jnsgd1na2vs0mg"},{"bike_id":"575cc4c9-8511-4037-9ea6-8c165089755d","system_id":"levelo_inurba_marseille","lat":43.2464,"lon":5.38897,"is_reserved":false,"is_disabled":false,"rental_uris":{"android":"levelo://app?vid=575cc4c9-8511-4037-9ea6-8c165089755d","ios":"levelo://app?vid=575cc4c9-8511-4037-9ea6-8c165089755d"},"vehicle_type_id":"4","last_reported":1743657061,"current_range_meters":16000,"station_id":"ce4bhg12rcd13ifvqf60","pricing_plan_id":"cebpf4jnsgd1na2vs0mg"},{"bike_id":"e9947125-e4b1-4977-bee9-fb031515997e","system_id":"levelo_inurba_marseille","lat":43.24535,"lon":5.39558,"is_reserved":false,"is_disabled":false,"rental_uris":{"android":"levelo://app?vid=e9947125-e4b1-4977-bee9-fb031515997e","ios":"levelo://app?vid=e9947125-e4b1-4977-bee9-fb031515997e"},"vehicle_type_id":"4","last_reported":1743657061,"current_range_meters":16000,"station_id":"ce4bhlp2rcd13ifvqgjg","pricing_plan_id":"cebpf4jnsgd1na2vs0mg"},{"bike_id":"d854661e-c7ae-45bc-8374-11d73b9ed9e3","system_id":"levelo_inurba_marseille","lat":43.24183,"lon":5.39727,"is_reserved":false,"is_disabled":false,"rental_uris":{"android":"levelo://app?vid=d854661e-c7ae-45bc-8374-11d73b9ed9e3","ios":"levelo://app?vid=d854661e-c7ae-45bc-8374-11d73b9ed9e3"},"vehicle_type_id":"4","last_reported":1743657061,"current_range_meters":16000,"station_id":"ce4bhn12rcd13ifvqgpg","pricing_plan_id":"cebpf4jnsgd1na2vs0mg"},{"bike_id":"a24c9f8e-385e-4174-be15-3b7ce293d1b7","system_id":"levelo_inurba_marseille","lat":43.30945,"lon":5.40139,"is_reserved":false,"is_disabled":true,"rental_uris":{"android":"levelo://app?vid=a24c9f8e-385e-4174-be15-3b7ce293d1b7","ios":"levelo://app?vid=a24c9f8e-385e-4174-be15-3b7ce293d1b7"},"vehicle_type_id":"4","last_reported":1743657061,"current_range_meters":16000,"station_id":"ce4bgvp2rcd13ifvqct0","pricing_plan_id":"cebpf4jnsgd1na2vs0mg"},{"bike_id":"598ef76e-b93d-4881-9429-bbb21089bc7f","system_id":"levelo_inurba_marseille","lat":43.31273,"lon":5.40173,"is_reserved":false,"is_disabled":false,"rental_uris":{"android":"levelo://app?vid=598ef76e-b93d-4881-9429-bbb21089bc7f","ios":"levelo://app?vid=598ef76e-b93d-4881-9429-bbb21089bc7f"},"vehicle_type_id":"4","last_reported":1743657061,"current_range_meters":16000,"station_id":"ce4bh092rcd13ifvqd30","pricing_plan_id":"cebpf4jnsgd1na2vs0mg"},{"bike_id":"a50ace2d-e999-4f31-812f-fa1237ed2e21","system_id":"levelo_inurba_marseille","lat":43.30905,"lon":5.4017,"is_reserved":false,"is_disabled":false,"rental_uris":{"android":"levelo://app?vid=a50ace2d-e999-4f31-812f-fa1237ed2e21","ios":"levelo://app?vid=a50ace2d-e999-4f31-812f-fa1237ed2e21"},"vehicle_type_id":"4","last_reported":1743657061,"current_range_meters":16000,"station_id":"ce4bgvp2rcd13ifvqct0","pricing_plan_id":"cebpf4jnsgd1na2vs0mg"},{"bike_id":"5f46717b-05d1-4f34-a220-8087932d755b","system_id":"levelo_inurba_marseille","lat":43.30101,"lon":5.36949,"is_reserved":false,"is_disabled":false,"rental_uris":{"android":"levelo://app?vid=5f46717b-05d1-4f34-a220-8087932d755b","ios":"levelo://app?vid=5f46717b-05d1-4f34-a220-8087932d755b"},"vehicle_type_id":"4","last_reported":1743657061,"current_range_meters":16000,"station_id":"","pricing_plan_id":"cebpf4jnsgd1na2vs0mg"},{"bike_id":"8962b6be-a354-48f2-a3a1-4804788aeb5e","system_id":"levelo_inurba_marseille","lat":43.28925,"lon":5.3663,"is_reserved":false,"is_disabled":false,"rental_uris":{"android":"levelo://app?vid=8962b6be-a354-48f2-a3a1-4804788aeb5e","ios":"levelo://app?vid=8962b6be-a354-48f2-a3a1-4804788aeb5e"},"vehicle_type_id":"4","last_reported":1743657061,"current_range_meters":16000,"station_id":"ce4bhap2rcd13ifvqek0","pricing_plan_id":"cebpf4jnsgd1na2vs0mg"},{"bike_id":"9ffee2a1-491e-486e-99a1-4a8c063d5c12","system_id":"levelo_inurba_marseille","lat":43.29281,"lon":5.4011,"is_reserved":false,"is_disabled":false,"rental_uris":{"android":"levelo://app?vid=9ffee2a1-491e-486e-99a1-4a8c063d5c12","ios":"levelo://app?vid=9ffee2a1-491e-486e-99a1-4a8c063d5c12"},"vehicle_type_id":"4","last_reported":1743657061,"current_range_meters":17200,"station_id":"ce4bh0h2rcd13ifvqd60","pricing_plan_id":"cebpf4jnsgd1na2vs0mg"},{"bike_id":"0da307f0-a737-4f3f-8786-4dd451d57e79","system_id":"levelo_inurba_marseille","lat":43.30864,"lon":5.3675,"is_reserved":false,"is_disabled":false,"rental_uris":{"android":"levelo://app?vid=0da307f0-a737-4f3f-8786-4dd451d57e79","ios":"levelo://app?vid=0da307f0-a737-4f3f-8786-4dd451d57e79"},"vehicle_type_id":"4","last_reported":1743657061,"current_range_meters":16400,"station_id":"","pricing_plan_id":"cebpf4jnsgd1na2vs0mg"},{"bike_id":"3b3c8f4c-69b9-4842-9094-27e12fd26d9a","system_id":"levelo_inurba_marseille","lat":43.284596,"lon":5.358864,"is_reserved":false,"is_disabled":false,"rental_uris":{"android":"levelo://app?vid=3b3c8f4c-69b9-4842-9094-27e12fd26d9a","ios":"levelo://app?vid=3b3c8f4c-69b9-4842-9094-27e12fd26d9a"},"vehicle_type_id":"4","last_reported":1743657061,"current_range_meters":16400,"station_id":"ce4bhah2rcd13ifvqei0","pricing_plan_id":"cebpf4jnsgd1na2vs0mg"},{"bike_id":"527f9a0b-df09-4b77-952d-95f97b46e052","system_id":"levelo_inurba_marseille","lat":43.2809,"lon":5.39649,"is_reserved":false,"is_disabled":false,"rental_uris":{"android":"levelo://app?vid=527f9a0b-df09-4b77-952d-95f97b46e052","ios":"levelo://app?vid=527f9a0b-df09-4b77-952d-95f97b46e052"},"vehicle_type_id":"4","last_reported":1743657061,"current_range_meters":16400,"station_id":"ce4bho12rcd13ifvqh2g","pricing_plan_id":"cebpf4jnsgd1na2vs0mg"},{"bike_id":"099ddcc8-7d43-4dc0-931b-9ccfb56dd6ba","system_id":"levelo_inurba_marseille","lat":43.27058,"lon":5.42281,"is_reserved":false,"is_disabled":false,"rental_uris":{"android":"levelo://app?vid=099ddcc8-7d43-4dc0-931b-9ccfb56dd6ba","ios":"levelo://app?vid=099ddcc8-7d43-4dc0-931b-9ccfb56dd6ba"},"vehicle_type_id":"4","last_reported":1743657061,"current_range_meters":16400,"station_id":"ce4bhk92rcd13ifvqgb0","pricing_plan_id":"cebpf4jnsgd1na2vs0mg"},{"bike_id":"c52761fb-1cd6-4c59-b94e-42d833b42944","system_id":"levelo_inurba_marseille","lat":43.29265,"lon":5.40923,"is_reserved":false,"is_disabled":false,"rental_uris":{"android":"levelo://app?vid=c52761fb-1cd6-4c59-b94e-42d833b42944","ios":"levelo://app?vid=c52761fb-1cd6-4c59-b94e-42d833b42944"},"vehicle_type_id":"4","last_reported":1743657061,"current_range_meters":16400,"station_id":"ce4bh192rcd13ifvqdc0","pricing_plan_id":"cebpf4jnsgd1na2vs0mg"},{"bike_id":"31582a22-11d1-437d-8c3a-380f94d1feec","system_id":"levelo_inurba_marseille","lat":43.31064,"lon":5.38357,"is_reserved":false,"is_disabled":false,"rental_uris":{"android":"levelo://app?vid=31582a22-11d1-437d-8c3a-380f94d1feec","ios":"levelo://app?vid=31582a22-11d1-437d-8c3a-380f94d1feec"},"vehicle_type_id":"4","last_reported":1743657061,"current_range_meters":16400,"station_id":"ce4bgv92rcd13ifvqcr0","pricing_plan_id":"cebpf4jnsgd1na2vs0mg"},{"bike_id":"78c70aa3-ce72-4c7c-ba07-7fa69a7239f0","system_id":"levelo_inurba_marseille","lat":43.31294,"lon":5.40169,"is_reserved":false,"is_disabled":false,"rental_uris":{"android":"levelo://app?vid=78c70aa3-ce72-4c7c-ba07-7fa69a7239f0","ios":"levelo://app?vid=78c70aa3-ce72-4c7c-ba07-7fa69a7239f0"},"vehicle_type_id":"4","last_reported":1743657061,"current_range_meters":16800,"station_id":"ce4bh092rcd13ifvqd30","pricing_plan_id":"cebpf4jnsgd1na2vs0mg"},{"bike_id":"911887f9-af40-484f-b1c7-4ba2097422cf","system_id":"levelo_inurba_marseille","lat":43.31812,"lon":5.36898,"is_reserved":false,"is_disabled":false,"rental_uris":{"android":"levelo://app?vid=911887f9-af40-484f-b1c7-4ba2097422cf","ios":"levelo://app?vid=911887f9-af40-484f-b1c7-4ba2097422cf"},"vehicle_type_id":"4","last_reported":1743657061,"current_range_meters":16800,"station_id":"","pricing_plan_id":"cebpf4jnsgd1na2vs0mg"},{"bike_id":"55947c8c-fc89-4c26-9449-d2084845954d","system_id":"levelo_inurba_marseille","lat":43.28442,"lon":5.35912,"is_reserved":false,"is_disabled":false,"rental_uris":{"android":"levelo://app?vid=55947c8c-fc89-4c26-9449-d2084845954d","ios":"levelo://app?vid=55947c8c-fc89-4c26-9449-d2084845954d"},"vehicle_type_id":"4","last_reported":1743657061,"current_range_meters":16800,"station_id":"ce4bhah2rcd13ifvqei0","pricing_plan_id":"cebpf4jnsgd1na2vs0mg"},{"bike_id":"9d7b4579-2f49-4625-9d98-42fe0dd225fc","system_id":"levelo_inurba_marseille","lat":43.30201,"lon":5.41926,"is_reserved":false,"is_disabled":false,"rental_uris":{"android":"levelo://app?vid=9d7b4579-2f49-4625-9d98-42fe0dd225fc","ios":"levelo://app?vid=9d7b4579-2f49-4625-9d98-42fe0dd225fc"},"vehicle_type_id":"4","last_reported":1743657061,"current_range_meters":16800,"station_id":"","pricing_plan_id":"cebpf4jnsgd1na2vs0mg"},{"bike_id":"5b6c66dc-4a6b-4568-8c7a-30c0209b1b0c","system_id":"levelo_inurba_marseille","lat":43.28565,"lon":5.39517,"is_reserved":false,"is_disabled":false,"rental_uris":{"android":"levelo://app?vid=5b6c66dc-4a6b-4568-8c7a-30c0209b1b0c","ios":"levelo://app?vid=5b6c66dc-4a6b-4568-8c7a-30c0209b1b0c"},"vehicle_type_id":"4","last_reported":1743657061,"current_range_meters":16800,"station_id":"ce4bh292rcd13ifvqdg0","pricing_plan_id":"cebpf4jnsgd1na2vs0mg"},{"bike_id":"f7933b9f-d69d-4478-8f0f-9719ff49ac5f","system_id":"levelo_inurba_marseille","lat":43.26248,"lon":5.421188,"is_reserved":false,"is_disabled":false,"rental_uris":{"android":"levelo://app?vid=f7933b9f-d69d-4478-8f0f-9719ff49ac5f","ios":"levelo://app?vid=f7933b9f-d69d-4478-8f0f-9719ff49ac5f"},"vehicle_type_id":"4","last_reported":1743657061,"current_range_meters":16800,"station_id":"","pricing_plan_id":"cebpf4jnsgd1na2vs0mg"},{"bike_id":"064ebfba-7497-4bbc-bebe-f7342c95c79d","system_id":"levelo_inurba_marseille","lat":43.281016,"lon":5.378474,"is_reserved":false,"is_disabled":false,"rental_uris":{"android":"levelo://app?vid=064ebfba-7497-4bbc-bebe-f7342c95c79d","ios":"levelo://app?vid=064ebfba-7497-4bbc-bebe-f7342c95c79d"},"vehicle_type_id":"4","last_reported":1743657061,"current_range_meters":16800,"station_id":"ce4bha12rcd13ifvqee0","pricing_plan_id":"cebpf4jnsgd1na2vs0mg"},{"bike_id":"65c86302-8ef0-46f4-ab6e-bac7149a2865","system_id":"levelo_inurba_marseille","lat":43.321107,"lon":5.367768,"is_reserved":false,"is_disabled":false,"rental_uris":{"android":"levelo://app?vid=65c86302-8ef0-46f4-ab6e-bac7149a2865","ios":"levelo://app?vid=65c86302-8ef0-46f4-ab6e-bac7149a2865"},"vehicle_type_id":"4","last_reported":1743657061,"current_range_meters":16800,"station_id":"ce4bhrh2rcd13ifvqhug","pricing_plan_id":"cebpf4jnsgd1na2vs0mg"},{"bike_id":"fb348b09-6abb-47a4-a266-91f2eeaee291","system_id":"levelo_inurba_marseille","lat":43.32109,"lon":5.36783,"is_reserved":false,"is_disabled":false,"rental_uris":{"android":"levelo://app?vid=fb348b09-6abb-47a4-a266-91f2eeaee291","ios":"levelo://app?vid=fb348b09-6abb-47a4-a266-91f2eeaee291"},"vehicle_type_id":"4","last_reported":1743657061,"current_range_meters":17200,"station_id":"ce4bhrh2rcd13ifvqhug","pricing_plan_id":"cebpf4jnsgd1na2vs0mg"},{"bike_id":"cb198fdb-74f9-4020-9daa-6b1a2fe26f80","system_id":"levelo_inurba_marseille","lat":43.30644,"lon":5.40083,"is_reserved":false,"is_disabled":false,"rental_uris":{"android":"levelo://app?vid=cb198fdb-74f9-4020-9daa-6b1a2fe26f80","ios":"levelo://app?vid=cb198fdb-74f9-4020-9daa-6b1a2fe26f80"},"vehicle_type_id":"4","last_reported":1743657061,"current_range_meters":17200,"station_id":"ce4bh112rcd13ifvqda0","pricing_plan_id":"cebpf4jnsgd1na2vs0mg"},{"bike_id":"11b4cfb3-f050-4609-bf5a-8f0b078f8eb2","system_id":"levelo_inurba_marseille","lat":43.295585,"lon":5.422889,"is_reserved":false,"is_disabled":false,"rental_uris":{"android":"levelo://app?vid=11b4cfb3-f050-4609-bf5a-8f0b078f8eb2","ios":"levelo://app?vid=11b4cfb3-f050-4609-bf5a-8f0b078f8eb2"},"vehicle_type_id":"4","last_reported":1743657061,"current_range_meters":17200,"station_id":"ce4bhph2rcd13ifvqhdg","pricing_plan_id":"cebpf4jnsgd1na2vs0mg"},{"bike_id":"b91ef664-fb19-4b37-b4f9-64a02888e8e9","system_id":"levelo_inurba_marseille","lat":43.23061,"lon":5.35521,"is_reserved":false,"is_disabled":false,"rental_uris":{"android":"levelo://app?vid=b91ef664-fb19-4b37-b4f9-64a02888e8e9","ios":"levelo://app?vid=b91ef664-fb19-4b37-b4f9-64a02888e8e9"},"vehicle_type_id":"4","last_reported":1743657061,"current_range_meters":17200,"station_id":"cpo3342slgdg3j2ifvpg","pricing_plan_id":"cebpf4jnsgd1na2vs0mg"},{"bike_id":"7bc35aa7-0894-4939-b0b1-3c33e432c446","system_id":"levelo_inurba_marseille","lat":43.32203,"lon":5.38759,"is_reserved":false,"is_disabled":false,"rental_uris":{"android":"levelo://app?vid=7bc35aa7-0894-4939-b0b1-3c33e432c446","ios":"levelo://app?vid=7bc35aa7-0894-4939-b0b1-3c33e432c446"},"vehicle_type_id":"4","last_reported":1743657061,"current_range_meters":17200,"station_id":"","pricing_plan_id":"cebpf4jnsgd1na2vs0mg"},{"bike_id":"cb33b614-709f-479e-abe0-16f157ef59c2","system_id":"levelo_inurba_marseille","lat":43.26959,"lon":5.40264,"is_reserved":false,"is_disabled":false,"rental_uris":{"android":"levelo://app?vid=cb33b614-709f-479e-abe0-16f157ef59c2","ios":"levelo://app?vid=cb33b614-709f-479e-abe0-16f157ef59c2"},"vehicle_type_id":"4","last_reported":1743657061,"current_range_meters":17200,"station_id":"cjm6bp8fraef2m0cb0m0","pricing_plan_id":"cebpf4jnsgd1na2vs0mg"},{"bike_id":"c0e36771-dbe7-477f-9122-f8476f7b7779","system_id":"levelo_inurba_marseille","lat":43.323619,"lon":5.367564,"is_reserved":false,"is_disabled":true,"rental_uris":{"android":"levelo://app?vid=c0e36771-dbe7-477f-9122-f8476f7b7779","ios":"levelo://app?vid=c0e36771-dbe7-477f-9122-f8476f7b7779"},"vehicle_type_id":"4","last_reported":1743657061,"current_range_meters":17200,"station_id":"ce4bhsh2rcd13ifvqi2g","pricing_plan_id":"cebpf4jnsgd1na2vs0mg"},{"bike_id":"f2ed867e-408b-4438-bf39-69b7b83fb995","system_id":"levelo_inurba_marseille","lat":43.28303,"lon":5.38092,"is_reserved":false,"is_disabled":true,"rental_uris":{"android":"levelo://app?vid=f2ed867e-408b-4438-bf39-69b7b83fb995","ios":"levelo://app?vid=f2ed867e-408b-4438-bf39-69b7b83fb995"},"vehicle_type_id":"4","last_reported":1743657061,"current_range_meters":17200,"station_id":"ce4bh412rcd13ifvqdr0","pricing_plan_id":"cebpf4jnsgd1na2vs0mg"},{"bike_id":"f5c18729-00d5-4dd2-b8d3-e33a3beb2aba","system_id":"levelo_inurba_marseille","lat":43.289396,"lon":5.366321,"is_reserved":false,"is_disabled":false,"rental_uris":{"android":"levelo://app?vid=f5c18729-00d5-4dd2-b8d3-e33a3beb2aba","ios":"levelo://app?vid=f5c18729-00d5-4dd2-b8d3-e33a3beb2aba"},"vehicle_type_id":"4","last_reported":1743657061,"current_range_meters":17200,"station_id":"ce4bhap2rcd13ifvqek0","pricing_plan_id":"cebpf4jnsgd1na2vs0mg"},{"bike_id":"e6b69cd2-f965-4a12-9e02-6f28a269f9f9","system_id":"levelo_inurba_marseille","lat":43.23048,"lon":5.35546,"is_reserved":false,"is_disabled":false,"rental_uris":{"android":"levelo://app?vid=e6b69cd2-f965-4a12-9e02-6f28a269f9f9","ios":"levelo://app?vid=e6b69cd2-f965-4a12-9e02-6f28a269f9f9"},"vehicle_type_id":"4","last_reported":1743657061,"current_range_meters":17600,"station_id":"cpo3342slgdg3j2ifvpg","pricing_plan_id":"cebpf4jnsgd1na2vs0mg"},{"bike_id":"415e78bb-9473-4ace-87dd-2f5d3cbda86c","system_id":"levelo_inurba_marseille","lat":43.287161,"lon":5.379389,"is_reserved":false,"is_disabled":false,"rental_uris":{"android":"levelo://app?vid=415e78bb-9473-4ace-87dd-2f5d3cbda86c","ios":"levelo://app?vid=415e78bb-9473-4ace-87dd-2f5d3cbda86c"},"vehicle_type_id":"4","last_reported":1743657061,"current_range_meters":17600,"station_id":"ce4bh9p2rcd13ifvqec0","pricing_plan_id":"cebpf4jnsgd1na2vs0mg"},{"bike_id":"00b01461-5e44-4811-bb4f-3832840457da","system_id":"levelo_inurba_marseille","lat":43.24174,"lon":5.36407,"is_reserved":false,"is_disabled":true,"rental_uris":{"android":"levelo://app?vid=00b01461-5e44-4811-bb4f-3832840457da","ios":"levelo://app?vid=00b01461-5e44-4811-bb4f-3832840457da"},"vehicle_type_id":"4","last_reported":1743657061,"current_range_meters":17600,"station_id":"cpo36qri1sfpv3e86is0","pricing_plan_id":"cebpf4jnsgd1na2vs0mg"},{"bike_id":"a243efa0-1d7e-44bc-b504-dc7525875e2b","system_id":"levelo_inurba_marseille","lat":43.284564,"lon":5.358768,"is_reserved":false,"is_disabled":false,"rental_uris":{"android":"levelo://app?vid=a243efa0-1d7e-44bc-b504-dc7525875e2b","ios":"levelo://app?vid=a243efa0-1d7e-44bc-b504-dc7525875e2b"},"vehicle_type_id":"4","last_reported":1743657061,"current_range_meters":17600,"station_id":"ce4bhah2rcd13ifvqei0","pricing_plan_id":"cebpf4jnsgd1na2vs0mg"},{"bike_id":"df8a1bae-dad0-4014-ba11-9263cbdbd8c9","system_id":"levelo_inurba_marseille","lat":43.240729,"lon":5.377555,"is_reserved":false,"is_disabled":false,"rental_uris":{"android":"levelo://app?vid=df8a1bae-dad0-4014-ba11-9263cbdbd8c9","ios":"levelo://app?vid=df8a1bae-dad0-4014-ba11-9263cbdbd8c9"},"vehicle_type_id":"4","last_reported":1743657061,"current_range_meters":17600,"station_id":"ce4bhnp2rcd13ifvqgvg","pricing_plan_id":"cebpf4jnsgd1na2vs0mg"},{"bike_id":"a541a524-204e-4f6d-8a08-15df90208937","system_id":"levelo_inurba_marseille","lat":43.28342,"lon":5.38117,"is_reserved":false,"is_disabled":false,"rental_uris":{"android":"levelo://app?vid=a541a524-204e-4f6d-8a08-15df90208937","ios":"levelo://app?vid=a541a524-204e-4f6d-8a08-15df90208937"},"vehicle_type_id":"4","last_reported":1743657061,"current_range_meters":17600,"station_id":"ce4bh412rcd13ifvqdr0","pricing_plan_id":"cebpf4jnsgd1na2vs0mg"},{"bike_id":"40c9c70d-6861-4cb6-b6b2-2486f1db20ec","system_id":"levelo_inurba_marseille","lat":43.27174,"lon":5.40997,"is_reserved":false,"is_disabled":false,"rental_uris":{"android":"levelo://app?vid=40c9c70d-6861-4cb6-b6b2-2486f1db20ec","ios":"levelo://app?vid=40c9c70d-6861-4cb6-b6b2-2486f1db20ec"},"vehicle_type_id":"4","last_reported":1743657061,"current_range_meters":17600,"station_id":"ce4bhl12rcd13ifvqgf0","pricing_plan_id":"cebpf4jnsgd1na2vs0mg"},{"bike_id":"4caff8e0-340c-490f-8a5a-b26f15704f76","system_id":"levelo_inurba_marseille","lat":43.28622,"lon":5.38432,"is_reserved":false,"is_disabled":false,"rental_uris":{"android":"levelo://app?vid=4caff8e0-340c-490f-8a5a-b26f15704f76","ios":"levelo://app?vid=4caff8e0-340c-490f-8a5a-b26f15704f76"},"vehicle_type_id":"4","last_reported":1743657061,"current_range_meters":18000,"station_id":"","pricing_plan_id":"cebpf4jnsgd1na2vs0mg"},{"bike_id":"fed3b23b-a829-4a49-ba67-2728283509f4","system_id":"levelo_inurba_marseille","lat":43.30639,"lon":5.40083,"is_reserved":false,"is_disabled":false,"rental_uris":{"android":"levelo://app?vid=fed3b23b-a829-4a49-ba67-2728283509f4","ios":"levelo://app?vid=fed3b23b-a829-4a49-ba67-2728283509f4"},"vehicle_type_id":"4","last_reported":1743657061,"current_range_meters":18000,"station_id":"ce4bh112rcd13ifvqda0","pricing_plan_id":"cebpf4jnsgd1na2vs0mg"},{"bike_id":"f5d7baaf-c3b6-4714-ade1-a7553acc3f6e","system_id":"levelo_inurba_marseille","lat":43.304795,"lon":5.417164,"is_reserved":false,"is_disabled":false,"rental_uris":{"android":"levelo://app?vid=f5d7baaf-c3b6-4714-ade1-a7553acc3f6e","ios":"levelo://app?vid=f5d7baaf-c3b6-4714-ade1-a7553acc3f6e"},"vehicle_type_id":"4","last_reported":1743657061,"current_range_meters":18000,"station_id":"","pricing_plan_id":"cebpf4jnsgd1na2vs0mg"},{"bike_id":"f364a8be-2cbe-449a-b6c2-9fff42042228","system_id":"levelo_inurba_marseille","lat":43.28692,"lon":5.37418,"is_reserved":false,"is_disabled":true,"rental_uris":{"android":"levelo://app?vid=f364a8be-2cbe-449a-b6c2-9fff42042228","ios":"levelo://app?vid=f364a8be-2cbe-449a-b6c2-9fff42042228"},