{"last_updated":1727636788,"ttl":60,"version":"2.2","data":{"bikes":[{"bike_id":"fc63f147-84a5-415c-bb98-25ba16874896","system_id":"levelo_inurba_marseille","lat":43.232,"lon":5.35549,"is_reserved":false,"is_disabled":false,"rental_uris":{"android":"levelo://app?vid=fc63f147-84a5-415c-bb98-25ba16874896","ios":"levelo://app?vid=fc63f147-84a5-415c-bb98-25ba16874896"},"vehicle_type_id":"4","last_reported":1727636789,"current_range_meters":38800,"station_id":"ce4bhu92rcd13ifvqi70","pricing_plan_id":"cebpf4jnsgd1na2vs0mg"},{"bike_id":"a78ef135-8636-4c7f-8ea0-04e46d0f96bc","system_id":"levelo_inurba_marseille","lat":43.27545,"lon":5.3843,"is_reserved":false,"is_disabled":false,"rental_uris":{"android":"levelo://app?vid=a78ef135-8636-4c7f-8ea0-04e46d0f96bc","ios":"levelo://app?vid=a78ef135-8636-4c7f-8ea0-04e46d0f96bc"},"vehicle_type_id":"4","last_reported":1727636789,"current_range_meters":30800,"station_id":"ce4bhh92rcd13ifvqfi0","pricing_plan_id":"cebpf4jnsgd1na2vs0mg"},{"bike_id":"f9659993-0e04-43ee-99a3-06596cee4626","system_id":"levelo_inurba_marseille","lat":43.2902,"lon":5.38624,"is_reserved":false,"is_disabled":false,"rental_uris":{"android":"levelo://app?vid=f9659993-0e04-43ee-99a3-06596cee4626","ios":"levelo://app?vid=f9659993-0e04-43ee-99a3-06596cee4626"},"vehicle_type_id":"4","last_reported":1727636789,"current_range_meters":18000,"station_id":"ce4bh4p2rcd13ifvqe0g","pricing_plan_id":"cebpf4jnsgd1na2vs0mg"},{"bike_id":"63db8262-f23d-461a-982e-5159a4761778","system_id":"levelo_inurba_marseille","lat":43.28469,"lon":5.3841,"is_reserved":false,"is_disabled":false,"rental_uris":{"android":"levelo://app?vid=63db8262-f23d-461a-982e-5159a4761778","ios":"levelo://app?vid=63db8262-f23d-461a-982e-5159a4761778"},"vehicle_type_id":"4","last_reported":1727636789,"current_range_meters":14000,"station_id":"ce4bh512rcd13ifvqe3g","pricing_plan_id":"cebpf4jnsgd1na2vs0mg"},{"bike_id":"facbaf4b-57a8-4e5d-8f3c-061808585084","system_id":"levelo_inurba_marseille","lat":43.27312,"lon":5.39073,"is_reserved":false,"is_disabled":false,"rental_uris":{"android":"levelo://app?vid=facbaf4b-57a8-4e5d-8f3c-061808585084","ios":"levelo://app?vid=facbaf4b-57a8-4e5d-8f3c-061808585084"},"vehicle_type_id":"4","last_reported":1727636789,"current_range_meters":25200,"station_id":"ce4bhgp2rcd13ifvqfe0","pricing_plan_id":"cebpf4jnsgd1na2vs0mg"},{"bike_id":"0ea9e4c4-cc08-41d9-862d-a80f7d54740c","system_id":"levelo_inurba_marseille","lat":43.3268,"lon":5.37494,"is_reserved":false,"is_disabled":false,"rental_uris":{"android":"levelo://app?vid=0ea9e4c4-cc08-41d9-862d-a80f7d54740c","ios":"levelo://app?vid=0ea9e4c4-cc08-41d9-862d-a80f7d54740c"},"vehicle_type_id":"4","last_reported":1727636789,"current_range_meters":36000,"station_id":"","pricing_plan_id":"cebpf4jnsgd1na2vs0mg"},{"bike_id":"431acd76-2fda-479a-af23-895917a7252a","system_id":"levelo_inurba_marseille","lat":43.32217,"lon":5.38717,"is_reserved":false,"is_disabled":false,"rental_uris":{"android":"levelo://app?vid=431acd76-2fda-479a-af23-895917a7252a","ios":"levelo://app?vid=431acd76-2fda-479a-af23-895917a7252a"},"vehicle_type_id":"4","last_reported":1727636789,"current_range_meters":22400,"station_id":"","pricing_plan_id":"cebpf4jnsgd1na2vs0mg"},{"bike_id":"d4c74265-2442-4454-aa29-65e3cce400cc","system_id":"levelo_inurba_marseille","lat":43.32307,"lon":5.385395,"is_reserved":false,"is_disabled":false,"rental_uris":{"android":"levelo://app?vid=d4c74265-2442-4454-aa29-65e3cce400cc","ios":"levelo://app?vid=d4c74265-2442-4454-aa29-65e3cce400cc"},"vehicle_type_id":"4","last_reported":1727636789,"current_range_meters":36800,"station_id":"","pricing_plan_id":"cebpf4jnsgd1na2vs0mg"},{"bike_id":"ba779c46-594d-49c9-bd59-1a9d937b00c1","system_id":"levelo_inurba_marseille","lat":43.29791,"lon":5.38089,"is_reserved":false,"is_disabled":false,"rental_uris":{"android":"levelo://app?vid=ba779c46-594d-49c9-bd59-1a9d937b00c1","ios":"levelo://app?vid=ba779c46-594d-49c9-bd59-1a9d937b00c1"},"vehicle_type_id":"4","last_reported":1727636789,"current_range_meters":39200,"station_id":"ce4bgip2rcd13ifvqbb0","pricing_plan_id":"cebpf4jnsgd1na2vs0mg"},{"bike_id":"9a47dcb1-61bb-411f-affb-55731480b4cc","system_id":"levelo_inurba_marseille","lat":43.23973,"lon":5.36611,"is_reserved":false,"is_disabled":false,"rental_uris":{"android":"levelo://app?vid=9a47dcb1-61bb-411f-affb-55731480b4cc","ios":"levelo://app?vid=9a47dcb1-61bb-411f-affb-55731480b4cc"},"vehicle_type_id":"4","last_reported":1727636789,"current_range_meters":36400,"station_id":"ce4bhi12rcd13ifvqfp0","pricing_plan_id":"cebpf4jnsgd1na2vs0mg"},{"bike_id":"eaad5887-be8f-44ad-901f-8e88f39a4594","system_id":"levelo_inurba_marseille","lat":43.27565,"lon":5.38423,"is_reserved":false,"is_disabled":false,"rental_uris":{"android":"levelo://app?vid=eaad5887-be8f-44ad-901f-8e88f39a4594","ios":"levelo://app?vid=eaad5887-be8f-44ad-901f-8e88f39a4594"},"vehicle_type_id":"4","last_reported":1727636789,"current_range_meters":38800,"station_id":"ce4bhh92rcd13ifvqfi0","pricing_plan_id":"cebpf4jnsgd1na2vs0mg"},{"bike_id":"bdd1a9da-0e7a-4096-84de-1c98959cb56a","system_id":"levelo_inurba_marseille","lat":43.29538,"lon":5.364914,"is_reserved":false,"is_disabled":false,"rental_uris":{"android":"levelo://app?vid=bdd1a9da-0e7a-4096-84de-1c98959cb56a","ios":"levelo://app?vid=bdd1a9da-0e7a-4096-84de-1c98959cb56a"},"vehicle_type_id":"4","last_reported":1727636789,"current_range_meters":17200,"station_id":"ce4bguh2rcd13ifvqckg","pricing_plan_id":"cebpf4jnsgd1na2vs0mg"},{"bike_id":"76e6ba9f-8f24-47d5-a6ef-9536a1d68289","system_id":"levelo_inurba_marseille","lat":43.28695,"lon":5.373927,"is_reserved":false,"is_disabled":false,"rental_uris":{"android":"levelo://app?vid=76e6ba9f-8f24-47d5-a6ef-9536a1d68289","ios":"levelo://app?vid=76e6ba9f-8f24-47d5-a6ef-9536a1d68289"},"vehicle_type_id":"4","last_reported":1727636789,"current_range_meters":38800,"station_id":"ce4bh3p2rcd13ifvqdq0","pricing_plan_id":"cebpf4jnsgd1na2vs0mg"},{"bike_id":"561802a2-a8ed-439e-b341-2ad039920034","system_id":"levelo_inurba_marseille","lat":43.29042,"lon":5.38667,"is_reserved":false,"is_disabled":false,"rental_uris":{"android":"levelo://app?vid=561802a2-a8ed-439e-b341-2ad039920034","ios":"levelo://app?vid=561802a2-a8ed-439e-b341-2ad039920034"},"vehicle_type_id":"4","last_reported":1727636789,"current_range_meters":27200,"station_id":"ce4bh4p2rcd13ifvqe0g","pricing_plan_id":"cebpf4jnsgd1na2vs0mg"},{"bike_id":"774fb271-ce7e-434d-a9d4-c38b1218490c","system_id":"levelo_inurba_marseille","lat":43.24654,"lon":5.38892,"is_reserved":false,"is_disabled":false,"rental_uris":{"android":"levelo://app?vid=774fb271-ce7e-434d-a9d4-c38b1218490c","ios":"levelo://app?vid=774fb271-ce7e-434d-a9d4-c38b1218490c"},"vehicle_type_id":"4","last_reported":1727636789,"current_range_meters":11600,"station_id":"ce4bhg12rcd13ifvqf60","pricing_plan_id":"cebpf4jnsgd1na2vs0mg"},{"bike_id":"f39e090e-f9d3-437c-a7bc-0d8c103126fa","system_id":"levelo_inurba_marseille","lat":43.28154,"lon":5.42642,"is_reserved":false,"is_disabled":false,"rental_uris":{"android":"levelo://app?vid=f39e090e-f9d3-437c-a7bc-0d8c103126fa","ios":"levelo://app?vid=f39e090e-f9d3-437c-a7bc-0d8c103126fa"},"vehicle_type_id":"4","last_reported":1727636789,"current_range_meters":32400,"station_id":"ce4bhnh2rcd13ifvqgug","pricing_plan_id":"cebpf4jnsgd1na2vs0mg"},{"bike_id":"1734931a-6878-4506-a457-f50fb09513e7","system_id":"levelo_inurba_marseille","lat":43.2835,"lon":5.3811,"is_reserved":false,"is_disabled":false,"rental_uris":{"android":"levelo://app?vid=1734931a-6878-4506-a457-f50fb09513e7","ios":"levelo://app?vid=1734931a-6878-4506-a457-f50fb09513e7"},"vehicle_type_id":"4","last_reported":1727636789,"current_range_meters":38800,"station_id":"ce4bh412rcd13ifvqdr0","pricing_plan_id":"cebpf4jnsgd1na2vs0mg"},{"bike_id":"0521cc37-3a0f-4bc8-964a-96f026706e98","system_id":"levelo_inurba_marseille","lat":43.28024,"lon":5.36085,"is_reserved":false,"is_disabled":false,"rental_uris":{"android":"levelo://app?vid=0521cc37-3a0f-4bc8-964a-96f026706e98","ios":"levelo://app?vid=0521cc37-3a0f-4bc8-964a-96f026706e98"},"vehicle_type_id":"4","last_reported":1727636789,"current_range_meters":23200,"station_id":"","pricing_plan_id":"cebpf4jnsgd1na2vs0mg"},{"bike_id":"b7e783cf-2e99-47af-aa70-59c0709d4797","system_id":"levelo_inurba_marseille","lat":43.31713,"lon":5.37751,"is_reserved":false,"is_disabled":false,"rental_uris":{"android":"levelo://app?vid=b7e783cf-2e99-47af-aa70-59c0709d4797","ios":"levelo://app?vid=b7e783cf-2e99-47af-aa70-59c0709d4797"},"vehicle_type_id":"4","last_reported":1727636789,"current_range_meters":26000,"station_id":"ce4bgth2rcd13ifvqch0","pricing_plan_id":"cebpf4jnsgd1na2vs0mg"},{"bike_id":"06192280-2874-44fd-addd-6354047ec529","system_id":"levelo_inurba_marseille","lat":43.29014,"lon":5.38131,"is_reserved":false,"is_disabled":false,"rental_uris":{"android":"levelo://app?vid=06192280-2874-44fd-addd-6354047ec529","ios":"levelo://app?vid=06192280-2874-44fd-addd-6354047ec529"},"vehicle_type_id":"4","last_reported":1727636789,"current_range_meters":30400,"station_id":"ce4bh4p2rcd13ifvqe1g","pricing_plan_id":"cebpf4jnsgd1na2vs0mg"},{"bike_id":"45273442-0258-4613-8edf-b25bf26f941c","system_id":"levelo_inurba_marseille","lat":43.29518,"lon":5.39043,"is_reserved":false,"is_disabled":false,"rental_uris":{"android":"levelo://app?vid=45273442-0258-4613-8edf-b25bf26f941c","ios":"levelo://app?vid=45273442-0258-4613-8edf-b25bf26f941c"},"vehicle_type_id":"4","last_reported":1727636789,"current_range_meters":3600,"station_id":"ce4bh3p2rcd13ifvqdp0","pricing_plan_id":"cebpf4jnsgd1na2vs0mg"},{"bike_id":"bdb18208-054b-41fa-bb82-896fdd87d6ce","system_id":"levelo_inurba_marseille","lat":43.28938,"lon":5.39629,"is_reserved":false,"is_disabled":false,"rental_uris":{"android":"levelo://app?vid=bdb18208-054b-41fa-bb82-896fdd87d6ce","ios":"levelo://app?vid=bdb18208-054b-41fa-bb82-896fdd87d6ce"},"vehicle_type_id":"4","last_reported":1727636789,"current_range_meters":8800,"station_id":"ce4bh0h2rcd13ifvqd60","pricing_plan_id":"cebpf4jnsgd1na2vs0mg"},{"bike_id":"1ce7c25b-6bd2-4b64-b4ae-543ea784fc5d","system_id":"levelo_inurba_marseille","lat":43.337444,"lon":5.374475,"is_reserved":false,"is_disabled":false,"rental_uris":{"android":"levelo://app?vid=1ce7c25b-6bd2-4b64-b4ae-543ea784fc5d","ios":"levelo://app?vid=1ce7c25b-6bd2-4b64-b4ae-543ea784fc5d"},"vehicle_type_id":"4","last_reported":1727636789,"current_range_meters":31200,"station_id":"","pricing_plan_id":"cebpf4jnsgd1na2vs0mg"},{"bike_id":"dda2bca1-17aa-4dee-93b7-7c752c09dbea","system_id":"levelo_inurba_marseille","lat":43.27182,"lon":5.40989,"is_reserved":false,"is_disabled":false,"rental_uris":{"android":"levelo://app?vid=dda2bca1-17aa-4dee-93b7-7c752c09dbea","ios":"levelo://app?vid=dda2bca1-17aa-4dee-93b7-7c752c09dbea"},"vehicle_type_id":"4","last_reported":1727636789,"current_range_meters":9200,"station_id":"ce4bhl12rcd13ifvqgf0","pricing_plan_id":"cebpf4jnsgd1na2vs0mg"},{"bike_id":"54960200-5719-494b-86be-4c596230a85b","system_id":"levelo_inurba_marseille","lat":43.28932,"lon":5.3664,"is_reserved":false,"is_disabled":false,"rental_uris":{"android":"levelo://app?vid=54960200-5719-494b-86be-4c596230a85b","ios":"levelo://app?vid=54960200-5719-494b-86be-4c596230a85b"},"vehicle_type_id":"4","last_reported":1727636789,"current_range_meters":38000,"station_id":"ce4bhap2rcd13ifvqek0","pricing_plan_id":"cebpf4jnsgd1na2vs0mg"},{"bike_id":"eeb4b54b-284a-4a51-af38-bfe005d55c3e","system_id":"levelo_inurba_marseille","lat":43.24816,"lon":5.37457,"is_reserved":false,"is_disabled":false,"rental_uris":{"android":"levelo://app?vid=eeb4b54b-284a-4a51-af38-bfe005d55c3e","ios":"levelo://app?vid=eeb4b54b-284a-4a51-af38-bfe005d55c3e"},"vehicle_type_id":"4","last_reported":1727636789,"current_range_meters":38400,"station_id":"ce4bhgh2rcd13ifvqfb0","pricing_plan_id":"cebpf4jnsgd1na2vs0mg"},{"bike_id":"f0ce4694-7c57-4478-be47-31410d84bb02","system_id":"levelo_inurba_marseille","lat":43.29574,"lon":5.38243,"is_reserved":false,"is_disabled":false,"rental_uris":{"android":"levelo://app?vid=f0ce4694-7c57-4478-be47-31410d84bb02","ios":"levelo://app?vid=f0ce4694-7c57-4478-be47-31410d84bb02"},"vehicle_type_id":"4","last_reported":1727636789,"current_range_meters":32000,"station_id":"ce4bh312rcd13ifvqdj0","pricing_plan_id":"cebpf4jnsgd1na2vs0mg"},{"bike_id":"0c6a3edd-0259-43fd-a8d1-3d4bb6023605","system_id":"levelo_inurba_marseille","lat":43.2439,"lon":5.37053,"is_reserved":false,"is_disabled":false,"rental_uris":{"android":"levelo://app?vid=0c6a3edd-0259-43fd-a8d1-3d4bb6023605","ios":"levelo://app?vid=0c6a3edd-0259-43fd-a8d1-3d4bb6023605"},"vehicle_type_id":"4","last_reported":1727636789,"current_range_meters":38800,"station_id":"ce4bhhh2rcd13ifvqfk0","pricing_plan_id":"cebpf4jnsgd1na2vs0mg"},{"bike_id":"2984e241-0d85-429f-b743-7e3cc710001b","system_id":"levelo_inurba_marseille","lat":43.2481,"lon":5.3746,"is_reserved":false,"is_disabled":false,"rental_uris":{"android":"levelo://app?vid=2984e241-0d85-429f-b743-7e3cc710001b","ios":"levelo://app?vid=2984e241-0d85-429f-b743-7e3cc710001b"},"vehicle_type_id":"4","last_reported":1727636789,"current_range_meters":22000,"station_id":"ce4bhgh2rcd13ifvqfb0","pricing_plan_id":"cebpf4jnsgd1na2vs0mg"},{"bike_id":"ce46a156-d0b3-42ea-a724-f29a983e40e7","system_id":"levelo_inurba_marseille","lat":43.28454,"lon":5.35888,"is_reserved":false,"is_disabled":false,"rental_uris":{"android":"levelo://app?vid=ce46a156-d0b3-42ea-a724-f29a983e40e7","ios":"levelo://app?vid=ce46a156-d0b3-42ea-a724-f29a983e40e7"},"vehicle_type_id":"4","last_reported":1727636789,"current_range_meters":10800,"station_id":"ce4bhah2rcd13ifvqei0","pricing_plan_id":"cebpf4jnsgd1na2vs0mg"},{"bike_id":"6a52f468-9bf5-46c2-819d-2c732c18128e","system_id":"levelo_inurba_marseille","lat":43.23961,"lon":5.36628,"is_reserved":false,"is_disabled":false,"rental_uris":{"android":"levelo://app?vid=6a52f468-9bf5-46c2-819d-2c732c18128e","ios":"levelo://app?vid=6a52f468-9bf5-46c2-819d-2c732c18128e"},"vehicle_type_id":"4","last_reported":1727636789,"current_range_meters":34000,"station_id":"ce4bhi12rcd13ifvqfp0","pricing_plan_id":"cebpf4jnsgd1na2vs0mg"},{"bike_id":"d2084bc9-c4ff-4f4a-9690-b66bb8b978c2","system_id":"levelo_inurba_marseille","lat":43.30116,"lon":5.37389,"is_reserved":false,"is_disabled":false,"rental_uris":{"android":"levelo://app?vid=d2084bc9-c4ff-4f4a-9690-b66bb8b978c2","ios":"levelo://app?vid=d2084bc9-c4ff-4f4a-9690-b66bb8b978c2"},"vehicle_type_id":"4","last_reported":1727636789,"current_range_meters":11200,"station_id":"ce4bgs92rcd13ifvqcc0","pricing_plan_id":"cebpf4jnsgd1na2vs0mg"},{"bike_id":"d9614a14-f95d-40a5-beaa-7cd0675a0b19","system_id":"levelo_inurba_marseille","lat":43.30643,"lon":5.40099,"is_reserved":false,"is_disabled":false,"rental_uris":{"android":"levelo://app?vid=d9614a14-f95d-40a5-beaa-7cd0675a0b19","ios":"levelo://app?vid=d9614a14-f95d-40a5-beaa-7cd0675a0b19"},"vehicle_type_id":"4","last_reported":1727636789,"current_range_meters":35600,"station_id":"ce4bh112rcd13ifvqda0","pricing_plan_id":"cebpf4jnsgd1na2vs0mg"},{"bike_id":"67f0c7e5-900b-4e1b-aef5-96f94492e27a","system_id":"levelo_inurba_marseille","lat":43.29037,"lon":5.35917,"is_reserved":false,"is_disabled":false,"rental_uris":{"android":"levelo://app?vid=67f0c7e5-900b-4e1b-aef5-96f94492e27a","ios":"levelo://app?vid=67f0c7e5-900b-4e1b-aef5-96f94492e27a"},"vehicle_type_id":"4","last_reported":1727636789,"current_range_meters":28000,"station_id":"ce4bha92rcd13ifvqeg0","pricing_plan_id":"cebpf4jnsgd1na2vs0mg"},{"bike_id":"9cab4b77-e73b-485b-9196-05681379298d","system_id":"levelo_inurba_marseille","lat":43.32317,"lon":5.38286,"is_reserved":false,"is_disabled":false,"rental_uris":{"android":"levelo://app?vid=9cab4b77-e73b-485b-9196-05681379298d","ios":"levelo://app?vid=9cab4b77-e73b-485b-9196-05681379298d"},"vehicle_type_id":"4","last_reported":1727636789,"current_range_meters":36800,"station_id":"ce4bhr12rcd13ifvqhqg","pricing_plan_id":"cebpf4jnsgd1na2vs0mg"},{"bike_id":"691cc2ed-9094-472f-8b35-466f1924ad13","system_id":"levelo_inurba_marseille","lat":43.3136,"lon":5.38484,"is_reserved":false,"is_disabled":false,"rental_uris":{"android":"levelo://app?vid=691cc2ed-9094-472f-8b35-466f1924ad13","ios":"levelo://app?vid=691cc2ed-9094-472f-8b35-466f1924ad13"},"vehicle_type_id":"4","last_reported":1727636789,"current_range_meters":24000,"station_id":"ce4bgt92rcd13ifvqcf0","pricing_plan_id":"cebpf4jnsgd1na2vs0mg"},{"bike_id":"60677971-2fdd-4218-a403-d4e5689aa41a","system_id":"levelo_inurba_marseille","lat":43.29528,"lon":5.39403,"is_reserved":false,"is_disabled":false,"rental_uris":{"android":"levelo://app?vid=60677971-2fdd-4218-a403-d4e5689aa41a","ios":"levelo://app?vid=60677971-2fdd-4218-a403-d4e5689aa41a"},"vehicle_type_id":"4","last_reported":1727636789,"current_range_meters":4800,"station_id":"ce4bh292rcd13ifvqdf0","pricing_plan_id":"cebpf4jnsgd1na2vs0mg"},{"bike_id":"5b4a633f-0b63-474b-abd4-9003a7b86eed","system_id":"levelo_inurba_marseille","lat":43.32345,"lon":5.40626,"is_reserved":false,"is_disabled":false,"rental_uris":{"android":"levelo://app?vid=5b4a633f-0b63-474b-abd4-9003a7b86eed","ios":"levelo://app?vid=5b4a633f-0b63-474b-abd4-9003a7b86eed"},"vehicle_type_id":"4","last_reported":1727636789,"current_range_meters":39200,"station_id":"ce4bhq92rcd13ifvqhjg","pricing_plan_id":"cebpf4jnsgd1na2vs0mg"},{"bike_id":"7a547e0a-a3f2-4df6-880a-0e1eda22abd1","system_id":"levelo_inurba_marseille","lat":43.28415,"lon":5.34989,"is_reserved":false,"is_disabled":false,"rental_uris":{"android":"levelo://app?vid=7a547e0a-a3f2-4df6-880a-0e1eda22abd1","ios":"levelo://app?vid=7a547e0a-a3f2-4df6-880a-0e1eda22abd1"},"vehicle_type_id":"4","last_reported":1727636789,"current_range_meters":38800,"station_id":"ce4bhbh2rcd13ifvqepg","pricing_plan_id":"cebpf4jnsgd1na2vs0mg"},{"bike_id":"6923d7e8-3e3a-4b7e-939a-485634a2c76b","system_id":"levelo_inurba_marseille","lat":43.2439,"lon":5.37067,"is_reserved":false,"is_disabled":false,"rental_uris":{"android":"levelo://app?vid=6923d7e8-3e3a-4b7e-939a-485634a2c76b","ios":"levelo://app?vid=6923d7e8-3e3a-4b7e-939a-485634a2c76b"},"vehicle_type_id":"4","last_reported":1727636789,"current_range_meters":14000,"station_id":"ce4bhhh2rcd13ifvqfk0","pricing_plan_id":"cebpf4jnsgd1na2vs0mg"},{"bike_id":"e150718b-3b11-4746-aaf5-ed9fe54bd243","system_id":"levelo_inurba_marseille","lat":43.24084,"lon":5.37755,"is_reserved":false,"is_disabled":false,"rental_uris":{"android":"levelo://app?vid=e150718b-3b11-4746-aaf5-ed9fe54bd243","ios":"levelo://app?vid=e150718b-3b11-4746-aaf5-ed9fe54bd243"},"vehicle_type_id":"4","last_reported":1727636789,"current_range_meters":16400,"station_id":"ce4bhnp2rcd13ifvqgvg","pricing_plan_id":"cebpf4jnsgd1na2vs0mg"},{"bike_id":"f474ab20-a0a0-4450-819f-ec22201b4ac6","system_id":"levelo_inurba_marseille","lat":43.26961,"lon":5.38641,"is_reserved":false,"is_disabled":false,"rental_uris":{"android":"levelo://app?vid=f474ab20-a0a0-4450-819f-ec22201b4ac6","ios":"levelo://app?vid=f474ab20-a0a0-4450-819f-ec22201b4ac6"},"vehicle_type_id":"4","last_reported":1727636789,"current_range_meters":38800,"station_id":"ce4bhh92rcd13ifvqfh0","pricing_plan_id":"cebpf4jnsgd1na2vs0mg"},{"bike_id":"883dbd06-c2fc-4488-9b5e-ef4f05339f9b","system_id":"levelo_inurba_marseille","lat":43.30212,"lon":5.36626,"is_reserved":false,"is_disabled":false,"rental_uris":{"android":"levelo://app?vid=883dbd06-c2fc-4488-9b5e-ef4f05339f9b","ios":"levelo://app?vid=883dbd06-c2fc-4488-9b5e-ef4f05339f9b"},"vehicle_type_id":"4","last_reported":1727636789,"current_range_meters":28400,"station_id":"ce4bgrh2rcd13ifvqc8g","pricing_plan_id":"cebpf4jnsgd1na2vs0mg"},{"bike_id":"6c8b138c-21e2-45bf-a989-ce45493ac988","system_id":"levelo_inurba_marseille","lat":43.232,"lon":5.3555,"is_reserved":false,"is_disabled":false,"rental_uris":{"android":"levelo://app?vid=6c8b138c-21e2-45bf-a989-ce45493ac988","ios":"levelo://app?vid=6c8b138c-21e2-45bf-a989-ce45493ac988"},"vehicle_type_id":"4","last_reported":1727636789,"current_range_meters":38800,"station_id":"ce4bhu92rcd13ifvqi70","pricing_plan_id":"cebpf4jnsgd1na2vs0mg"},{"bike_id":"61b80206-8211-4df0-b90b-eee6dba44a64","system_id":"levelo_inurba_marseille","lat":43.27549,"lon":5.38435,"is_reserved":false,"is_disabled":false,"rental_uris":{"android":"levelo://app?vid=61b80206-8211-4df0-b90b-eee6dba44a64","ios":"levelo://app?vid=61b80206-8211-4df0-b90b-eee6dba44a64"},"vehicle_type_id":"4","last_reported":1727636789,"current_range_meters":24000,"station_id":"ce4bhh92rcd13ifvqfi0","pricing_plan_id":"cebpf4jnsgd1na2vs0mg"},{"bike_id":"cf2a99f0-171d-46e2-b5f9-b8e518581e33","system_id":"levelo_inurba_marseille","lat":43.23955,"lon":5.3664,"is_reserved":false,"is_disabled":false,"rental_uris":{"android":"levelo://app?vid=cf2a99f0-171d-46e2-b5f9-b8e518581e33","ios":"levelo://app?vid=cf2a99f0-171d-46e2-b5f9-b8e518581e33"},"vehicle_type_id":"4","last_reported":1727636789,"current_range_meters":31200,"station_id":"ce4bhi12rcd13ifvqfp0","pricing_plan_id":"cebpf4jnsgd1na2vs0mg"},{"bike_id":"06b0b27b-bc9b-42ef-b165-9c5e2046e3e4","system_id":"levelo_inurba_marseille","lat":43.26802,"lon":5.40276,"is_reserved":false,"is_disabled":false,"rental_uris":{"android":"levelo://app?vid=06b0b27b-bc9b-42ef-b165-9c5e2046e3e4","ios":"levelo://app?vid=06b0b27b-bc9b-42ef-b165-9c5e2046e3e4"},"vehicle_type_id":"4","last_reported":1727636789,"current_range_meters":38800,"station_id":"ce501612rcd8frsf0b60","pricing_plan_id":"cebpf4jnsgd1na2vs0mg"},{"bike_id":"b73bf6e3-d202-4629-9032-0d1071323831","system_id":"levelo_inurba_marseille","lat":43.31714,"lon":5.37743,"is_reserved":false,"is_disabled":false,"rental_uris":{"android":"levelo://app?vid=b73bf6e3-d202-4629-9032-0d1071323831","ios":"levelo://app?vid=b73bf6e3-d202-4629-9032-0d1071323831"},"vehicle_type_id":"4","last_reported":1727636789,"current_range_meters":30000,"station_id":"ce4bgth2rcd13ifvqch0","pricing_plan_id":"cebpf4jnsgd1na2vs0mg"},{"bike_id":"bcb5ef74-cf8a-40af-9e9f-d416925dc622","system_id":"levelo_inurba_marseille","lat":43.29522,"lon":5.39044,"is_reserved":false,"is_disabled":false,"rental_uris":{"android":"levelo://app?vid=bcb5ef74-cf8a-40af-9e9f-d416925dc622","ios":"levelo://app?vid=bcb5ef74-cf8a-40af-9e9f-d416925dc622"},"vehicle_type_id":"4","last_reported":1727636789,"current_range_meters":26800,"station_id":"ce4bh3p2rcd13ifvqdp0","pricing_plan_id":"cebpf4jnsgd1na2vs0mg"},{"bike_id":"52f17877-110a-422d-89ae-fdeda162e6f3","system_id":"levelo_inurba_marseille","lat":43.23959,"lon":5.36631,"is_reserved":false,"is_disabled":false,"rental_uris":{"android":"levelo://app?vid=52f17877-110a-422d-89ae-fdeda162e6f3","ios":"levelo://app?vid=52f17877-110a-422d-89ae-fdeda162e6f3"},"vehicle_type_id":"4","last_reported":1727636789,"current_range_meters":6000,"station_id":"ce4bhi12rcd13ifvqfp0","pricing_plan_id":"cebpf4jnsgd1na2vs0mg"},{"bike_id":"928d95a9-709e-4902-9f92-0a9d11e85507","system_id":"levelo_inurba_marseille","lat":43.29417,"lon":5.38623,"is_reserved":false,"is_disabled":false,"rental_uris":{"android":"levelo://app?vid=928d95a9-709e-4902-9f92-0a9d11e85507","ios":"levelo://app?vid=928d95a9-709e-4902-9f92-0a9d11e85507"},"vehicle_type_id":"4","last_reported":1727636789,"current_range_meters":35600,"station_id":"ce4bh2h2rcd13ifvqdh0","pricing_plan_id":"cebpf4jnsgd1na2vs0mg"},{"bike_id":"e9c9a824-77dd-4a8d-b5f7-16a11637475b","system_id":"levelo_inurba_marseille","lat":43.32548,"lon":5.4144,"is_reserved":false,"is_disabled":false,"rental_uris":{"android":"levelo://app?vid=e9c9a824-77dd-4a8d-b5f7-16a11637475b","ios":"levelo://app?vid=e9c9a824-77dd-4a8d-b5f7-16a11637475b"},"vehicle_type_id":"4","last_reported":1727636789,"current_range_meters":39200,"station_id":"ce4bhq12rcd13ifvqhhg","pricing_plan_id":"cebpf4jnsgd1na2vs0mg"},{"bike_id":"f8b18255-c3e2-4e84-b3b5-d53a069d9e0c","system_id":"levelo_inurba_marseille","lat":43.23963,"lon":5.36633,"is_reserved":false,"is_disabled":false,"rental_uris":{"android":"levelo://app?vid=f8b18255-c3e2-4e84-b3b5-d53a069d9e0c","ios":"levelo://app?vid=f8b18255-c3e2-4e84-b3b5-d53a069d9e0c"},"vehicle_type_id":"4","last_reported":1727636789,"current_range_meters":4800,"station_id":"ce4bhi12rcd13ifvqfp0","pricing_plan_id":"cebpf4jnsgd1na2vs0mg"},{"bike_id":"7d5da584-4a91-4454-ab4e-10f2d098f64c","system_id":"levelo_inurba_marseille","lat":43.24803,"lon":5.37455,"is_reserved":false,"is_disabled":false,"rental_uris":{"android":"levelo://app?vid=7d5da584-4a91-4454-ab4e-10f2d098f64c","ios":"levelo://app?vid=7d5da584-4a91-4454-ab4e-10f2d098f64c"},"vehicle_type_id":"4","last_reported":1727636789,"current_range_meters":38800,"station_id":"ce4bhgh2rcd13ifvqfb0","pricing_plan_id":"cebpf4jnsgd1na2vs0mg"},{"bike_id":"124cc49e-bc3f-4ee2-96b6-78f4c29aba27","system_id":"levelo_inurba_marseille","lat":43.25001,"lon":5.3892,"is_reserved":false,"is_disabled":false,"rental_uris":{"android":"levelo://app?vid=124cc49e-bc3f-4ee2-96b6-78f4c29aba27","ios":"levelo://app?vid=124cc49e-bc3f-4ee2-96b6-78f4c29aba27"},"vehicle_type_id":"4","last_reported":1727636789,"current_range_meters":22000,"station_id":"ce4bhgp2rcd13ifvqfd0","pricing_plan_id":"cebpf4jnsgd1na2vs0mg"},{"bike_id":"fd14ba81-3f44-4ac1-b066-8941269a20c6","system_id":"levelo_inurba_marseille","lat":43.29226,"lon":5.42692,"is_reserved":false,"is_disabled":false,"rental_uris":{"android":"levelo://app?vid=fd14ba81-3f44-4ac1-b066-8941269a20c6","ios":"levelo://app?vid=fd14ba81-3f44-4ac1-b066-8941269a20c6"},"vehicle_type_id":"4","last_reported":1727636789,"current_range_meters":17600,"station_id":"ce4bhnh2rcd13ifvqgug","pricing_plan_id":"cebpf4jnsgd1na2vs0mg"},{"bike_id":"a02eb347-c352-48ed-95a1-c3eda2772b34","system_id":"levelo_inurba_marseille","lat":43.30795,"lon":5.37653,"is_reserved":false,"is_disabled":false,"rental_uris":{"android":"levelo://app?vid=a02eb347-c352-48ed-95a1-c3eda2772b34","ios":"levelo://app?vid=a02eb347-c352-48ed-95a1-c3eda2772b34"},"vehicle_type_id":"4","last_reported":1727636789,"current_range_meters":13600,"station_id":"ce4bgv92rcd13ifvqcq0","pricing_plan_id":"cebpf4jnsgd1na2vs0mg"},{"bike_id":"f8a61521-df5a-4c6b-ba30-9a18625134fc","system_id":"levelo_inurba_marseille","lat":43.26685,"lon":5.38262,"is_reserved":false,"is_disabled":false,"rental_uris":{"android":"levelo://app?vid=f8a61521-df5a-4c6b-ba30-9a18625134fc","ios":"levelo://app?vid=f8a61521-df5a-4c6b-ba30-9a18625134fc"},"vehicle_type_id":"4","last_reported":1727636789,"current_range_meters":40000,"station_id":"ce4bhg92rcd13ifvqf90","pricing_plan_id":"cebpf4jnsgd1na2vs0mg"},{"bike_id":"29510292-718a-4e56-a33d-0a887f17e705","system_id":"levelo_inurba_marseille","lat":43.28929,"lon":5.36634,"is_reserved":false,"is_disabled":false,"rental_uris":{"android":"levelo://app?vid=29510292-718a-4e56-a33d-0a887f17e705","ios":"levelo://app?vid=29510292-718a-4e56-a33d-0a887f17e705"},"vehicle_type_id":"4","last_reported":1727636789,"current_range_meters":8000,"station_id":"ce4bhap2rcd13ifvqek0","pricing_plan_id":"cebpf4jnsgd1na2vs0mg"},{"bike_id":"ded7c34d-2345-47c9-835d-dc3c344079ef","system_id":"levelo_inurba_marseille","lat":43.29546,"lon":5.42288,"is_reserved":false,"is_disabled":false,"rental_uris":{"android":"levelo://app?vid=ded7c34d-2345-47c9-835d-dc3c344079ef","ios":"levelo://app?vid=ded7c34d-2345-47c9-835d-dc3c344079ef"},"vehicle_type_id":"4","last_reported":1727636789,"current_range_meters":10800,"station_id":"ce4bhph2rcd13ifvqhdg","pricing_plan_id":"cebpf4jnsgd1na2vs0mg"},{"bike_id":"a19575a6-df26-4cef-9c23-66c2680d0499","system_id":"levelo_inurba_marseille","lat":43.29198,"lon":5.39325,"is_reserved":false,"is_disabled":false,"rental_uris":{"android":"levelo://app?vid=a19575a6-df26-4cef-9c23-66c2680d0499","ios":"levelo://app?vid=a19575a6-df26-4cef-9c23-66c2680d0499"},"vehicle_type_id":"4","last_reported":1727636789,"current_range_meters":35600,"station_id":"ce4bh192rcd13ifvqdd0","pricing_plan_id":"cebpf4jnsgd1na2vs0mg"},{"bike_id":"7783cbb7-0ab7-4f4c-9612-9e4f22942bc7","system_id":"levelo_inurba_marseille","lat":43.27054,"lon":5.40262,"is_reserved":false,"is_disabled":false,"rental_uris":{"android":"levelo://app?vid=7783cbb7-0ab7-4f4c-9612-9e4f22942bc7","ios":"levelo://app?vid=7783cbb7-0ab7-4f4c-9612-9e4f22942bc7"},"vehicle_type_id":"4","last_reported":1727636789,"current_range_meters":27600,"station_id":"ce4bhk92rcd13ifvqgc0","pricing_plan_id":"cebpf4jnsgd1na2vs0mg"},{"bike_id":"408d9401-5194-45b1-948e-a2c15040c41f","system_id":"levelo_inurba_marseille","lat":43.23198,"lon":5.35545,"is_reserved":false,"is_disabled":false,"rental_uris":{"android":"levelo://app?vid=408d9401-5194-45b1-948e-a2c15040c41f","ios":"levelo://app?vid=408d9401-5194-45b1-948e-a2c15040c41f"},"vehicle_type_id":"4","last_reported":1727636789,"current_range_meters":14800,"station_id":"ce4bhu92rcd13ifvqi70","pricing_plan_id":"cebpf4jnsgd1na2vs0mg"},{"bike_id":"94fdfe10-8c09-41e0-b800-38c859b3f321","system_id":"levelo_inurba_marseille","lat":43.32911,"lon":5.39066,"is_reserved":false,"is_disabled":false,"rental_uris":{"android":"levelo://app?vid=94fdfe10-8c09-41e0-b800-38c859b3f321","ios":"levelo://app?vid=94fdfe10-8c09-41e0-b800-38c859b3f321"},"vehicle_type_id":"4","last_reported":1727636789,"current_range_meters":36000,"station_id":"","pricing_plan_id":"cebpf4jnsgd1na2vs0mg"},{"bike_id":"4d77a95e-882f-40bf-b9b0-318925f283ac","system_id":"levelo_inurba_marseille","lat":43.31117,"lon":5.37773,"is_reserved":false,"is_disabled":false,"rental_uris":{"android":"levelo://app?vid=4d77a95e-882f-40bf-b9b0-318925f283ac","ios":"levelo://app?vid=4d77a95e-882f-40bf-b9b0-318925f283ac"},"vehicle_type_id":"4","last_reported":1727636789,"current_range_meters":38800,"station_id":"ce4bgt92rcd13ifvqcg0","pricing_plan_id":"cebpf4jnsgd1na2vs0mg"},{"bike_id":"bb60f65b-8b91-4d46-b73f-e18639cae70e","system_id":"levelo_inurba_marseille","lat":43.29096,"lon":5.38139,"is_reserved":false,"is_disabled":false,"rental_uris":{"android":"levelo://app?vid=bb60f65b-8b91-4d46-b73f-e18639cae70e","ios":"levelo://app?vid=bb60f65b-8b91-4d46-b73f-e18639cae70e"},"vehicle_type_id":"4","last_reported":1727636789,"current_range_meters":19600,"station_id":"ce4bh512rcd13ifvqe2g","pricing_plan_id":"cebpf4jnsgd1na2vs0mg"},{"bike_id":"d63c6ee9-2030-4674-9564-75e48a9d2445","system_id":"levelo_inurba_marseille","lat":43.30087,"lon":5.39094,"is_reserved":false,"is_disabled":false,"rental_uris":{"android":"levelo://app?vid=d63c6ee9-2030-4674-9564-75e48a9d2445","ios":"levelo://app?vid=d63c6ee9-2030-4674-9564-75e48a9d2445"},"vehicle_type_id":"4","last_reported":1727636789,"current_range_meters":38000,"station_id":"ce4bh192rcd13ifvqdb0","pricing_plan_id":"cebpf4jnsgd1na2vs0mg"},{"bike_id":"6e9c70bd-0094-44e3-996a-3709f83364da","system_id":"levelo_inurba_marseille","lat":43.32768,"lon":5.40357,"is_reserved":false,"is_disabled":false,"rental_uris":{"android":"levelo://app?vid=6e9c70bd-0094-44e3-996a-3709f83364da","ios":"levelo://app?vid=6e9c70bd-0094-44e3-996a-3709f83364da"},"vehicle_type_id":"4","last_reported":1727636789,"current_range_meters":2800,"station_id":"","pricing_plan_id":"cebpf4jnsgd1na2vs0mg"},{"bike_id":"40af7eb4-6cd7-462c-b9fb-34273e78aa71","system_id":"levelo_inurba_marseille","lat":43.24075,"lon":5.37759,"is_reserved":false,"is_disabled":false,"rental_uris":{"android":"levelo://app?vid=40af7eb4-6cd7-462c-b9fb-34273e78aa71","ios":"levelo://app?vid=40af7eb4-6cd7-462c-b9fb-34273e78aa71"},"vehicle_type_id":"4","last_reported":1727636789,"current_range_meters":9600,"station_id":"ce4bhnp2rcd13ifvqgvg","pricing_plan_id":"cebpf4jnsgd1na2vs0mg"},{"bike_id":"55b9e4b2-af8b-41a1-93e5-6004b819fac8","system_id":"levelo_inurba_marseille","lat":43.2845,"lon":5.35905,"is_reserved":false,"is_disabled":false,"rental_uris":{"android":"levelo://app?vid=55b9e4b2-af8b-41a1-93e5-6004b819fac8","ios":"levelo://app?vid=55b9e4b2-af8b-41a1-93e5-6004b819fac8"},"vehicle_type_id":"4","last_reported":1727636789,"current_range_meters":11200,"station_id":"ce4bhah2rcd13ifvqei0","pricing_plan_id":"cebpf4jnsgd1na2vs0mg"},{"bike_id":"a63d4449-4f5a-4f1c-9a3c-27c8d74bd2a3","system_id":"levelo_inurba_marseille","lat":43.24395,"lon":5.37063,"is_reserved":false,"is_disabled":false,"rental_uris":{"android":"levelo://app?vid=a63d4449-4f5a-4f1c-9a3c-27c8d74bd2a3","ios":"levelo://app?vid=a63d4449-4f5a-4f1c-9a3c-27c8d74bd2a3"},"vehicle_type_id":"4","last_reported":1727636789,"current_range_meters":9200,"station_id":"ce4bhhh2rcd13ifvqfk0","pricing_plan_id":"cebpf4jnsgd1na2vs0mg"},{"bike_id":"70fb5780-2bc4-48bd-b614-dd191e48884c","system_id":"levelo_inurba_marseille","lat":43.282688,"lon":5.350639,"is_reserved":false,"is_disabled":false,"rental_uris":{"android":"levelo://app?vid=70fb5780-2bc4-48bd-b614-dd191e48884c","ios":"levelo://app?vid=70fb5780-2bc4-48bd-b614-dd191e48884c"},"vehicle_type_id":"4","last_reported":1727636789,"current_range_meters":34800,"station_id":"ce4bhbp2rcd13ifvqerg","pricing_plan_id":"cebpf4jnsgd1na2vs0mg"},{"bike_id":"7eda30fe-d024-4258-b0e3-cac7d23be01b","system_id":"levelo_inurba_marseille","lat":43.24809,"lon":5.37456,"is_reserved":false,"is_disabled":false,"rental_uris":{"android":"levelo://app?vid=7eda30fe-d024-4258-b0e3-cac7d23be01b","ios":"levelo://app?vid=7eda30fe-d024-4258-b0e3-cac7d23be01b"},"vehicle_type_id":"4","last_reported":1727636789,"current_range_meters":22800,"station_id":"ce4bhgh2rcd13ifvqfb0","pricing_plan_id":"cebpf4jnsgd1na2vs0mg"},{"bike_id":"bc7dc6a9-589f-4649-9e06-6ce7434d3293","system_id":"levelo_inurba_marseille","lat":43.29044,"lon":5.36946,"is_reserved":false,"is_disabled":false,"rental_uris":{"android":"levelo://app?vid=bc7dc6a9-589f-4649-9e06-6ce7434d3293","ios":"levelo://app?vid=bc7dc6a9-589f-4649-9e06-6ce7434d3293"},"vehicle_type_id":"4","last_reported":1727636789,"current_range_meters":24800,"station_id":"ce4bhah2rcd13ifvqej0","pricing_plan_id":"cebpf4jnsgd1na2vs0mg"},{"bike_id":"a8092412-91ca-4717-af5d-041c519c2882","system_id":"levelo_inurba_marseille","lat":43.30533,"lon":5.38412,"is_reserved":false,"is_disabled":false,"rental_uris":{"android":"levelo://app?vid=a8092412-91ca-4717-af5d-041c519c2882","ios":"levelo://app?vid=a8092412-91ca-4717-af5d-041c519c2882"},"vehicle_type_id":"4","last_reported":1727636789,"current_range_meters":14000,"station_id":"ce4bgg92rcd13ifvqb30","pricing_plan_id":"cebpf4jnsgd1na2vs0mg"},{"bike_id":"079f7ff7-7e66-487d-b380-ea1f7ca550ae","system_id":"levelo_inurba_marseille","lat":43.30782,"lon":5.37653,"is_reserved":false,"is_disabled":false,"rental_uris":{"android":"levelo://app?vid=079f7ff7-7e66-487d-b380-ea1f7ca550ae","ios":"levelo://app?vid=079f7ff7-7e66-487d-b380-ea1f7ca550ae"},"vehicle_type_id":"4","last_reported":1727636789,"current_range_meters":9600,"station_id":"ce4bgv92rcd13ifvqcq0","pricing_plan_id":"cebpf4jnsgd1na2vs0mg"},{"bike_id":"7f32ded0-9573-443d-8a84-b1c78aa8b99a","system_id":"levelo_inurba_marseille","lat":43.30793,"lon":5.38155,"is_reserved":false,"is_disabled":false,"rental_uris":{"android":"levelo://app?vid=7f32ded0-9573-443d-8a84-b1c78aa8b99a","ios":"levelo://app?vid=7f32ded0-9573-443d-8a84-b1c78aa8b99a"},"vehicle_type_id":"4","last_reported":1727636789,"current_range_meters":35600,"station_id":"ce4bgt12rcd13ifvqce0","pricing_plan_id":"cebpf4jnsgd1na2vs0mg"},{"bike_id":"31846e81-3a87-468c-8781-a080b27e3357","system_id":"levelo_inurba_marseille","lat":43.24672,"lon":5.38169,"is_reserved":false,"is_disabled":false,"rental_uris":{"android":"levelo://app?vid=31846e81-3a87-468c-8781-a080b27e3357","ios":"levelo://app?vid=31846e81-3a87-468c-8781-a080b27e3357"},"vehicle_type_id":"4","last_reported":1727636789,"current_range_meters":25200,"station_id":"ce4bhih2rcd13ifvqfr0","pricing_plan_id":"cebpf4jnsgd1na2vs0mg"},{"bike_id":"aecd832d-7b73-4981-b6a7-525a57eb9353","system_id":"levelo_inurba_marseille","lat":43.26063,"lon":5.3938,"is_reserved":false,"is_disabled":false,"rental_uris":{"android":"levelo://app?vid=aecd832d-7b73-4981-b6a7-525a57eb9353","ios":"levelo://app?vid=aecd832d-7b73-4981-b6a7-525a57eb9353"},"vehicle_type_id":"4","last_reported":1727636789,"current_range_meters":17600,"station_id":"ce4bhh92rcd13ifvqfj0","pricing_plan_id":"cebpf4jnsgd1na2vs0mg"},{"bike_id":"ed84faff-17c5-48fb-8753-c2f883b40c1d","system_id":"levelo_inurba_marseille","lat":43.23961,"lon":5.36645,"is_reserved":false,"is_disabled":false,"rental_uris":{"android":"levelo://app?vid=ed84faff-17c5-48fb-8753-c2f883b40c1d","ios":"levelo://app?vid=ed84faff-17c5-48fb-8753-c2f883b40c1d"},"vehicle_type_id":"4","last_reported":1727636789,"current_range_meters":37600,"station_id":"ce4bhi12rcd13ifvqfp0","pricing_plan_id":"cebpf4jnsgd1na2vs0mg"},{"bike_id":"d4fe5377-449d-48cc-bad4-8eb653ca9b46","system_id":"levelo_inurba_marseille","lat":43.29281,"lon":5.40116,"is_reserved":false,"is_disabled":false,"rental_uris":{"android":"levelo://app?vid=d4fe5377-449d-48cc-bad4-8eb653ca9b46","ios":"levelo://app?vid=d4fe5377-449d-48cc-bad4-8eb653ca9b46"},"vehicle_type_id":"4","last_reported":1727636789,"current_range_meters":38400,"station_id":"ce4bh312rcd13ifvqdk0","pricing_plan_id":"cebpf4jnsgd1na2vs0mg"},{"bike_id":"d10e4c18-d8ff-4085-a7ba-ec9faaa34e61","system_id":"levelo_inurba_marseille","lat":43.26062,"lon":5.39397,"is_reserved":false,"is_disabled":false,"rental_uris":{"android":"levelo://app?vid=d10e4c18-d8ff-4085-a7ba-ec9faaa34e61","ios":"levelo://app?vid=d10e4c18-d8ff-4085-a7ba-ec9faaa34e61"},"vehicle_type_id":"4","last_reported":1727636789,"current_range_meters":20000,"station_id":"ce4bhh92rcd13ifvqfj0","pricing_plan_id":"cebpf4jnsgd1na2vs0mg"},{"bike_id":"9bb14935-f023-461f-8ada-432dfa96e2e1","system_id":"levelo_inurba_marseille","lat":43.28417,"lon":5.37511,"is_reserved":false,"is_disabled":false,"rental_uris":{"android":"levelo://app?vid=9bb14935-f023-461f-8ada-432dfa96e2e1","ios":"levelo://app?vid=9bb14935-f023-461f-8ada-432dfa96e2e1"},"vehicle_type_id":"4","last_reported":1727636789,"current_range_meters":35600,"station_id":"ce4bh412rcd13ifvqds0","pricing_plan_id":"cebpf4jnsgd1na2vs0mg"},{"bike_id":"cc7bb5ce-aed2-4646-82d5-5b2cd08d2350","system_id":"levelo_inurba_marseille","lat":43.29223,"lon":5.3605,"is_reserved":false,"is_disabled":false,"rental_uris":{"android":"levelo://app?vid=cc7bb5ce-aed2-4646-82d5-5b2cd08d2350","ios":"levelo://app?vid=cc7bb5ce-aed2-4646-82d5-5b2cd08d2350"},"vehicle_type_id":"4","last_reported":1727636789,"current_range_meters":38800,"station_id":"ce4bhbh2rcd13ifvqeqg","pricing_plan_id":"cebpf4jnsgd1na2vs0mg"},{"bike_id":"29f38da5-2fff-4949-a290-5d4e17fc7555","system_id":"levelo_inurba_marseille","lat":43.2468,"lon":5.38159,"is_reserved":false,"is_disabled":false,"rental_uris":{"android":"levelo://app?vid=29f38da5-2fff-4949-a290-5d4e17fc7555","ios":"levelo://app?vid=29f38da5-2fff-4949-a290-5d4e17fc7555"},"vehicle_type_id":"4","last_reported":1727636789,"current_range_meters":28000,"station_id":"ce4bhih2rcd13ifvqfr0","pricing_plan_id":"cebpf4jnsgd1na2vs0mg"},{"bike_id":"7497ada0-4e52-442c-9aa1-86afe522b93f","system_id":"levelo_inurba_marseille","lat":43.29904,"lon":5.43663,"is_reserved":false,"is_disabled":false,"rental_uris":{"android":"levelo://app?vid=7497ada0-4e52-442c-9aa1-86afe522b93f","ios":"levelo://app?vid=7497ada0-4e52-442c-9aa1-86afe522b93f"},"vehicle_type_id":"4","last_reported":1727636789,"current_range_meters":24400,"station_id":"ce4bhpp2rcd13ifvqhfg","pricing_plan_id":"cebpf4jnsgd1na2vs0mg"},{"bike_id":"8a2141b5-4ed1-48ef-bcb9-2550c31a6897","system_id":"levelo_inurba_marseille","lat":43.23954,"lon":5.36626,"is_reserved":false,"is_disabled":false,"rental_uris":{"android":"levelo://app?vid=8a2141b5-4ed1-48ef-bcb9-2550c31a6897","ios":"levelo://app?vid=8a2141b5-4ed1-48ef-bcb9-2550c31a6897"},"vehicle_type_id":"4","last_reported":1727636789,"current_range_meters":16800,"station_id":"ce4bhi12rcd13ifvqfp0","pricing_plan_id":"cebpf4jnsgd1na2vs0mg"},{"bike_id":"2c84a2ec-bc09-445b-bbd9-3596219b24cb","system_id":"levelo_inurba_marseille","lat":43.30273,"lon":5.37726,"is_reserved":false,"is_disabled":false,"rental_uris":{"android":"levelo://app?vid=2c84a2ec-bc09-445b-bbd9-3596219b24cb","ios":"levelo://app?vid=2c84a2ec-bc09-445b-bbd9-3596219b24cb"},"vehicle_type_id":"4","last_reported":1727636789,"current_range_meters":10000,"station_id":"ce4bguh2rcd13ifvqcj0","pricing_plan_id":"cebpf4jnsgd1na2vs0mg"},{"bike_id":"9212bc76-2381-4edc-ab4d-cbd867988e81","system_id":"levelo_inurba_marseille","lat":43.2791,"lon":5.39581,"is_reserved":false,"is_disabled":false,"rental_uris":{"android":"levelo://app?vid=9212bc76-2381-4edc-ab4d-cbd867988e81","ios":"levelo://app?vid=9212bc76-2381-4edc-ab4d-cbd867988e81"},"vehicle_type_id":"4","last_reported":1727636789,"current_range_meters":18000,"station_id":"ce4bhf92rcd13ifvqf40","pricing_plan_id":"cebpf4jnsgd1na2vs0mg"},{"bike_id":"8bfaec6b-a0a5-4994-83df-56b209bcc7eb","system_id":"levelo_inurba_marseille","lat":43.30134,"lon":5.39862,"is_reserved":false,"is_disabled":false,"rental_uris":{"android":"levelo://app?vid=8bfaec6b-a0a5-4994-83df-56b209bcc7eb","ios":"levelo://app?vid=8bfaec6b-a0a5-4994-83df-56b209bcc7eb"},"vehicle_type_id":"4","last_reported":1727636789,"current_range_meters":4800,"station_id":"ce4bh0h2rcd13ifvqd40","pricing_plan_id":"cebpf4jnsgd1na2vs0mg"},{"bike_id":"cb22e9b7-585c-4f42-9dd6-d94fa3677323","system_id":"levelo_inurba_marseille","lat":43.25823,"lon":5.39425,"is_reserved":false,"is_disabled":false,"rental_uris":{"android":"levelo://app?vid=cb22e9b7-585c-4f42-9dd6-d94fa3677323","ios":"levelo://app?vid=cb22e9b7-585c-4f42-9dd6-d94fa3677323"},"vehicle_type_id":"4","last_reported":1727636789,"current_range_meters":39200,"station_id":"ce4bhip2rcd13ifvqft0","pricing_plan_id":"cebpf4jnsgd1na2vs0mg"},{"bike_id":"299d41e1-feb0-4e58-86f8-c1a1dfed0325","system_id":"levelo_inurba_marseille","lat":43.26937,"lon":5.38919,"is_reserved":false,"is_disabled":false,"rental_uris":{"android":"levelo://app?vid=299d41e1-feb0-4e58-86f8-c1a1dfed0325","ios":"levelo://app?vid=299d41e1-feb0-4e58-86f8-c1a1dfed0325"},"vehicle_type_id":"4","last_reported":1727636789,"current_range_meters":25200,"station_id":"ce4bhhh2rcd13ifvqfl0","pricing_plan_id":"cebpf4jnsgd1na2vs0mg"},{"bike_id":"530ebee0-3821-4918-8f9b-3c2003125331","system_id":"levelo_inurba_marseille","lat":43.24083,"lon":5.37751,"is_reserved":false,"is_disabled":false,"rental_uris":{"android":"levelo://app?vid=530ebee0-3821-4918-8f9b-3c2003125331","ios":"levelo://app?vid=530ebee0-3821-4918-8f9b-3c2003125331"},"vehicle_type_id":"4","last_reported":1727636789,"current_range_meters":10800,"station_id":"ce4bhnp2rcd13ifvqgvg","pricing_plan_id":"cebpf4jnsgd1na2vs0mg"},{"bike_id":"37ddd804-d4cf-4209-b336-5cf6501b1ed0","system_id":"levelo_inurba_marseille","lat":43.3025,"lon":5.40059,"is_reserved":false,"is_disabled":false,"rental_uris":{"android":"levelo://app?vid=37ddd804-d4cf-4209-b336-5cf6501b1ed0","ios":"levelo://app?vid=37ddd804-d4cf-4209-b336-5cf6501b1ed0"},"vehicle_type_id":"4","last_reported":1727636789,"current_range_meters":31200,"station_id":"ce4bgvh2rcd13ifvqcs0","pricing_plan_id":"cebpf4jnsgd1na2vs0mg"},{"bike_id":"9f05bc58-98dc-4d91-89c9-625701f10a87","system_id":"levelo_inurba_marseille","lat":43.25107,"lon":5.40326,"is_reserved":false,"is_disabled":false,"rental_uris":{"android":"levelo://app?vid=9f05bc58-98dc-4d91-89c9-625701f10a87","ios":"levelo://app?vid=9f05bc58-98dc-4d91-89c9-625701f10a87"},"vehicle_type_id":"4","last_reported":1727636789,"current_range_meters":25200,"station_id":"ce4bhlh2rcd13ifvqgig","pricing_plan_id":"cebpf4jnsgd1na2vs0mg"},{"bike_id":"eac537ce-019e-4ce8-983d-28c9b1822aa4","system_id":"levelo_inurba_marseille","lat":43.30598,"lon":5.39351,"is_reserved":false,"is_disabled":false,"rental_uris":{"android":"levelo://app?vid=eac537ce-019e-4ce8-983d-28c9b1822aa4","ios":"levelo://app?vid=eac537ce-019e-4ce8-983d-28c9b1822aa4"},"vehicle_type_id":"4","last_reported":1727636789,"current_range_meters":24800,"station_id":"ce4bh0p2rcd13ifvqd80","pricing_plan_id":"cebpf4jnsgd1na2vs0mg"},{"bike_id":"3a375845-6d39-49ec-9892-cff921960def","system_id":"levelo_inurba_marseille","lat":43.29415,"lon":5.38627,"is_reserved":false,"is_disabled":false,"rental_uris":{"android":"levelo://app?vid=3a375845-6d39-49ec-9892-cff921960def","ios":"levelo://app?vid=3a375845-6d39-49ec-9892-cff921960def"},"vehicle_type_id":"4","last_reported":1727636789,"current_range_meters":22400,"station_id":"ce4bh2h2rcd13ifvqdh0","pricing_plan_id":"cebpf4jnsgd1na2vs0mg"},{"bike_id":"20dd5a49-0a1c-4127-aa39-fcd84d466a44","system_id":"levelo_inurba_marseille","lat":43.29888,"lon":5.39721,"is_reserved":false,"is_disabled":false,"rental_uris":{"android":"levelo://app?vid=20dd5a49-0a1c-4127-aa39-fcd84d466a44","ios":"levelo://app?vid=20dd5a49-0a1c-4127-aa39-fcd84d466a44"},"vehicle_type_id":"4","last_reported":1727636789,"current_range_meters":11600,"station_id":"ce4bh0h2rcd13ifvqd50","pricing_plan_id":"cebpf4jnsgd1na2vs0mg"},{"bike_id":"4bf17278-821c-44d9-9e1b-8440f028916f","system_id":"levelo_inurba_marseille","lat":43.2481,"lon":5.37457,"is_reserved":false,"is_disabled":false,"rental_uris":{"android":"levelo://app?vid=4bf17278-821c-44d9-9e1b-8440f028916f","ios":"levelo://app?vid=4bf17278-821c-44d9-9e1b-8440f028916f"},"vehicle_type_id":"4","last_reported":1727636789,"current_range_meters":10000,"station_id":"ce4bhgh2rcd13ifvqfb0","pricing_plan_id":"cebpf4jnsgd1na2vs0mg"},{"bike_id":"80052677-a184-47b6-b7ba-4401badcd8a9","system_id":"levelo_inurba_marseille","lat":43.32294,"lon":5.38261,"is_reserved":false,"is_disabled":false,"rental_uris":{"android":"levelo://app?vid=80052677-a184-47b6-b7ba-4401badcd8a9","ios":"levelo://app?vid=80052677-a184-47b6-b7ba-4401badcd8a9"},"vehicle_type_id":"4","last_reported":1727636789,"current_range_meters":36800,"station_id":"ce4bhr12rcd13ifvqhqg","pricing_plan_id":"cebpf4jnsgd1na2vs0mg"},{"bike_id":"40dd4e60-6624-4c0b-97de-f92af81b9861","system_id":"levelo_inurba_marseille","lat":43.29443,"lon":5.39738,"is_reserved":false,"is_disabled":false,"rental_uris":{"android":"levelo://app?vid=40dd4e60-6624-4c0b-97de-f92af81b9861","ios":"levelo://app?vid=40dd4e60-6624-4c0b-97de-f92af81b9861"},"vehicle_type_id":"4","last_reported":1727636789,"current_range_meters":38800,"station_id":"ce4bh3h2rcd13ifvqdo0","pricing_plan_id":"cebpf4jnsgd1na2vs0mg"},{"bike_id":"eecf9538-9573-43dd-b10a-8030505e7ff4","system_id":"levelo_inurba_marseille","lat":43.29517,"lon":5.39039,"is_reserved":false,"is_disabled":false,"rental_uris":{"android":"levelo://app?vid=eecf9538-9573-43dd-b10a-8030505e7ff4","ios":"levelo://app?vid=eecf9538-9573-43dd-b10a-8030505e7ff4"},"vehicle_type_id":"4","last_reported":1727636789,"current_range_meters":19200,"station_id":"ce4bh3p2rcd13ifvqdp0","pricing_plan_id":"cebpf4jnsgd1na2vs0mg"},{"bike_id":"69f78398-0452-4dcb-9b5c-ba835cf36045","system_id":"levelo_inurba_marseille","lat":43.2902,"lon":5.38127,"is_reserved":false,"is_disabled":false,"rental_uris":{"android":"levelo://app?vid=69f78398-0452-4dcb-9b5c-ba835cf36045","ios":"levelo://app?vid=69f78398-0452-4dcb-9b5c-ba835cf36045"},"vehicle_type_id":"4","last_reported":1727636789,"current_range_meters":4000,"station_id":"ce4bh4p2rcd13ifvqe1g","pricing_plan_id":"cebpf4jnsgd1na2vs0mg"},{"bike_id":"a974d009-942e-477b-b4db-19f84bd48313","system_id":"levelo_inurba_marseille","lat":43.32146,"lon":5.38653,"is_reserved":false,"is_disabled":false,"rental_uris":{"android":"levelo://app?vid=a974d009-942e-477b-b4db-19f84bd48313","ios":"levelo://app?vid=a974d009-942e-477b-b4db-19f84bd48313"},"vehicle_type_id":"4","last_reported":1727636789,"current_range_meters":38800,"station_id":"","pricing_plan_id":"cebpf4jnsgd1na2vs0mg"},{"bike_id":"6a66b30d-b7e8-4317-88c5-fb9f52bf2878","system_id":"levelo_inurba_marseille","lat":43.23962,"lon":5.36621,"is_reserved":false,"is_disabled":false,"rental_uris":{"android":"levelo://app?vid=6a66b30d-b7e8-4317-88c5-fb9f52bf2878","ios":"levelo://app?vid=6a66b30d-b7e8-4317-88c5-fb9f52bf2878"},"vehicle_type_id":"4","last_reported":1727636789,"current_range_meters":37600,"station_id":"ce4bhi12rcd13ifvqfp0","pricing_plan_id":"cebpf4jnsgd1na2vs0mg"},{"bike_id":"c63d1024-8393-4fd8-a2fd-6a53dfeab0fb","system_id":"levelo_inurba_marseille","lat":43.31122,"lon":5.37803,"is_reserved":false,"is_disabled":false,"rental_uris":{"android":"levelo://app?vid=c63d1024-8393-4fd8-a2fd-6a53dfeab0fb","ios":"levelo://app?vid=c63d1024-8393-4fd8-a2fd-6a53dfeab0fb"},"vehicle_type_id":"4","last_reported":1727636789,"current_range_meters":8000,"station_id":"ce4bgt92rcd13ifvqcg0","pricing_plan_id":"cebpf4jnsgd1na2vs0mg"},{"bike_id":"fc296bdb-59d5-4a3f-9c54-57132e572fbf","system_id":"levelo_inurba_marseille","lat":43.29011,"lon":5.38145,"is_reserved":false,"is_disabled":false,"rental_uris":{"android":"levelo://app?vid=fc296bdb-59d5-4a3f-9c54-57132e572fbf","ios":"levelo://app?vid=fc296bdb-59d5-4a3f-9c54-57132e572fbf"},"vehicle_type_id":"4","last_reported":1727636789,"current_range_meters":17200,"station_id":"ce4bh4p2rcd13ifvqe1g","pricing_plan_id":"cebpf4jnsgd1na2vs0mg"},{"bike_id":"3ae16357-9b43-46d1-bbc8-483fcc70804b","system_id":"levelo_inurba_marseille","lat":43.25724,"lon":5.41113,"is_reserved":false,"is_disabled":false,"rental_uris":{"android":"levelo://app?vid=3ae16357-9b43-46d1-bbc8-483fcc70804b","ios":"levelo://app?vid=3ae16357-9b43-46d1-bbc8-483fcc70804b"},"vehicle_type_id":"4","last_reported":1727636789,"current_range_meters":27600,"station_id":"ce4bhkp2rcd13ifvqgd0","pricing_plan_id":"cebpf4jnsgd1na2vs0mg"},{"bike_id":"0d114c4d-4cec-41cd-91d3-663359a10f9e","system_id":"levelo_inurba_marseille","lat":43.29521,"lon":5.39043,"is_reserved":false,"is_disabled":false,"rental_uris":{"android":"levelo://app?vid=0d114c4d-4cec-41cd-91d3-663359a10f9e","ios":"levelo://app?vid=0d114c4d-4cec-41cd-91d3-663359a10f9e"},"vehicle_type_id":"4","last_reported":1727636789,"current_range_meters":2800,"station_id":"ce4bh3p2rcd13ifvqdp0","pricing_plan_id":"cebpf4jnsgd1na2vs0mg"},{"bike_id":"e0976dae-bcb8-43e8-bba6-c9ef6415841f","system_id":"levelo_inurba_marseille","lat":43.28732,"lon":5.37946,"is_reserved":false,"is_disabled":false,"rental_uris":{"android":"levelo://app?vid=e0976dae-bcb8-43e8-bba6-c9ef6415841f","ios":"levelo://app?vid=e0976dae-bcb8-43e8-bba6-c9ef6415841f"},"vehicle_type_id":"4","last_reported":1727636789,"current_range_meters":18800,"station_id":"ce4bh9p2rcd13ifvqec0","pricing_plan_id":"cebpf4jnsgd1na2vs0mg"},{"bike_id":"0701cf2a-674c-4c9d-af1e-6650acbaaf74","system_id":"levelo_inurba_marseille","lat":43.28379,"lon":5.37302,"is_reserved":false,"is_disabled":false,"rental_uris":{"android":"levelo://app?vid=0701cf2a-674c-4c9d-af1e-6650acbaaf74","ios":"levelo://app?vid=0701cf2a-674c-4c9d-af1e-6650acbaaf74"},"vehicle_type_id":"4","last_reported":1727636789,"current_range_meters":8800,"station_id":"","pricing_plan_id":"cebpf4jnsgd1na2vs0mg"},{"bike_id":"57866737-7591-478b-ad92-203c0b0d559d","system_id":"levelo_inurba_marseille","lat":43.2931,"lon":5.37461,"is_reserved":false,"is_disabled":false,"rental_uris":{"android":"levelo://app?vid=57866737-7591-478b-ad92-203c0b0d559d","ios":"levelo://app?vid=57866737-7591-478b-ad92-203c0b0d559d"},"vehicle_type_id":"4","last_reported":1727636789,"current_range_meters":24000,"station_id":"ce4bgi12rcd13ifvqb70","pricing_plan_id":"cebpf4jnsgd1na2vs0mg"},{"bike_id":"cc63b6cf-350a-4de6-beba-770036656f92","system_id":"levelo_inurba_marseille","lat":43.26057,"lon":5.39402,"is_reserved":false,"is_disabled":false,"rental_uris":{"android":"levelo://app?vid=cc63b6cf-350a-4de6-beba-770036656f92","ios":"levelo://app?vid=cc63b6cf-350a-4de6-beba-770036656f92"},"vehicle_type_id":"4","last_reported":1727636789,"current_range_meters":14000,"station_id":"ce4bhh92rcd13ifvqfj0","pricing_plan_id":"cebpf4jnsgd1na2vs0mg"},{"bike_id":"33fc7546-cc29-407f-a4f1-e62f1812a9f9","system_id":"levelo_inurba_marseille","lat":43.28929,"lon":5.36641,"is_reserved":false,"is_disabled":false,"rental_uris":{"android":"levelo://app?vid=33fc7546-cc29-407f-a4f1-e62f1812a9f9","ios":"levelo://app?vid=33fc7546-cc29-407f-a4f1-e62f1812a9f9"},"vehicle_type_id":"4","last_reported":1727636789,"current_range_meters":32400,"station_id":"ce4bhap2rcd13ifvqek0","pricing_plan_id":"cebpf4jnsgd1na2vs0mg"},{"bike_id":"80a479a7-6b52-4502-9fa1-1e3c9c081d64","system_id":"levelo_inurba_marseille","lat":43.28477,"lon":5.38529,"is_reserved":false,"is_disabled":false,"rental_uris":{"android":"levelo://app?vid=80a479a7-6b52-4502-9fa1-1e3c9c081d64","ios":"levelo://app?vid=80a479a7-6b52-4502-9fa1-1e3c9c081d64"},"vehicle_type_id":"4","last_reported":1727636789,"current_range_meters":17600,"station_id":"ce4bh8p2rcd13ifvqeb0","pricing_plan_id":"cebpf4jnsgd1na2vs0mg"},{"bike_id":"7199a17f-8505-4d54-b9b6-2ec943c49cf2","system_id":"levelo_inurba_marseille","lat":43.33033,"lon":5.39383,"is_reserved":false,"is_disabled":false,"rental_uris":{"android":"levelo://app?vid=7199a17f-8505-4d54-b9b6-2ec943c49cf2","ios":"levelo://app?vid=7199a17f-8505-4d54-b9b6-2ec943c49cf2"},"vehicle_type_id":"4","last_reported":1727636789,"current_range_meters":38400,"station_id":"","pricing_plan_id":"cebpf4jnsgd1na2vs0mg"},{"bike_id":"4d706b30-b324-49e3-84d2-6545a9f5eedc","system_id":"levelo_inurba_marseille","lat":43.29052,"lon":5.39958,"is_reserved":false,"is_disabled":false,"rental_uris":{"android":"levelo://app?vid=4d706b30-b324-49e3-84d2-6545a9f5eedc","ios":"levelo://app?vid=4d706b30-b324-49e3-84d2-6545a9f5eedc"},"vehicle_type_id":"4","last_reported":1727636789,"current_range_meters":9600,"station_id":"ce4bh392rcd13ifvqdm0","pricing_plan_id":"cebpf4jnsgd1na2vs0mg"},{"bike_id":"15e5f0b3-9cdd-494d-9fea-2ed5649f92b6","system_id":"levelo_inurba_marseille","lat":43.30303,"lon":5.36897,"is_reserved":false,"is_disabled":false,"rental_uris":{"android":"levelo://app?vid=15e5f0b3-9cdd-494d-9fea-2ed5649f92b6","ios":"levelo://app?vid=15e5f0b3-9cdd-494d-9fea-2ed5649f92b6"},"vehicle_type_id":"4","last_reported":1727636789,"current_range_meters":18800,"station_id":"ce4bgqh2rcd13ifvqc5g","pricing_plan_id":"cebpf4jnsgd1na2vs0mg"},{"bike_id":"24942973-7c0b-4deb-b224-1f3f2512ab35","system_id":"levelo_inurba_marseille","lat":43.24665,"lon":5.38165,"is_reserved":false,"is_disabled":false,"rental_uris":{"android":"levelo://app?vid=24942973-7c0b-4deb-b224-1f3f2512ab35","ios":"levelo://app?vid=24942973-7c0b-4deb-b224-1f3f2512ab35"},"vehicle_type_id":"4","last_reported":1727636789,"current_range_meters":35200,"station_id":"ce4bhih2rcd13ifvqfr0","pricing_plan_id":"cebpf4jnsgd1na2vs0mg"},{"bike_id":"6cdca13d-24d1-4302-912a-54d18c748242","system_id":"levelo_inurba_marseille","lat":43.31083,"lon":5.40132,"is_reserved":false,"is_disabled":false,"rental_uris":{"android":"levelo://app?vid=6cdca13d-24d1-4302-912a-54d18c748242","ios":"levelo://app?vid=6cdca13d-24d1-4302-912a-54d18c748242"},"vehicle_type_id":"4","last_reported":1727636789,"current_range_meters":3600,"station_id":"","pricing_plan_id":"cebpf4jnsgd1na2vs0mg"},{"bike_id":"01166ee2-27dd-45bb-81f8-c74bf1968af2","system_id":"levelo_inurba_marseille","lat":43.29923,"lon":5.37472,"is_reserved":false,"is_disabled":false,"rental_uris":{"android":"levelo://app?vid=01166ee2-27dd-45bb-81f8-c74bf1968af2","ios":"levelo://app?vid=01166ee2-27dd-45bb-81f8-c74bf1968af2"},"vehicle_type_id":"4","last_reported":1727636789,"current_range_meters":36000,"station_id":"ce4bgjh2rcd13ifvqbg0","pricing_plan_id":"cebpf4jnsgd1na2vs0mg"},{"bike_id":"ec4cfb8d-40e9-4aee-9efa-446dfcece866","system_id":"levelo_inurba_marseille","lat":43.27996,"lon":5.40019,"is_reserved":false,"is_disabled":false,"rental_uris":{"android":"levelo://app?vid=ec4cfb8d-40e9-4aee-9efa-446dfcece866","ios":"levelo://app?vid=ec4cfb8d-40e9-4aee-9efa-446dfcece866"},"vehicle_type_id":"4","last_reported":1727636789,"current_range_meters":38800,"station_id":"ce4bho92rcd13ifvqh4g","pricing_plan_id":"cebpf4jnsgd1na2vs0mg"},{"bike_id":"40844c04-10a3-4b72-a8ef-7a099f37b384","system_id":"levelo_inurba_marseille","lat":43.27183,"lon":5.41,"is_reserved":false,"is_disabled":false,"rental_uris":{"android":"levelo://app?vid=40844c04-10a3-4b72-a8ef-7a099f37b384","ios":"levelo://app?vid=40844c04-10a3-4b72-a8ef-7a099f37b384"},"vehicle_type_id":"4","last_reported":1727636789,"current_range_meters":37600,"station_id":"ce4bhl12rcd13ifvqgf0","pricing_plan_id":"cebpf4jnsgd1na2vs0mg"},{"bike_id":"d37af953-d682-43ed-9078-8dbbc62ce49a","system_id":"levelo_inurba_marseille","lat":43.24667,"lon":5.38163,"is_reserved":false,"is_disabled":false,"rental_uris":{"android":"levelo://app?vid=d37af953-d682-43ed-9078-8dbbc62ce49a","ios":"levelo://app?vid=d37af953-d682-43ed-9078-8dbbc62ce49a"},"vehicle_type_id":"4","last_reported":1727636789,"current_range_meters":38800,"station_id":"ce4bhih2rcd13ifvqfr0","pricing_plan_id":"cebpf4jnsgd1na2vs0mg"},{"bike_id":"6bbdf29d-e1b4-4eef-8609-f78d6cd6358e","system_id":"levelo_inurba_marseille","lat":43.31715,"lon":5.37746,"is_reserved":false,"is_disabled":false,"rental_uris":{"android":"levelo://app?vid=6bbdf29d-e1b4-4eef-8609-f78d6cd6358e","ios":"levelo://app?vid=6bbdf29d-e1b4-4eef-8609-f78d6cd6358e"},"vehicle_type_id":"4","last_reported":1727636789,"current_range_meters":30400,"station_id":"ce4bgth2rcd13ifvqch0","pricing_plan_id":"cebpf4jnsgd1na2vs0mg"},{"bike_id":"e9f863d8-293d-48f9-9519-23e8b888a65d","system_id":"levelo_inurba_marseille","lat":43.2656,"lon":5.39012,"is_reserved":false,"is_disabled":false,"rental_uris":{"android":"levelo://app?vid=e9f863d8-293d-48f9-9519-23e8b888a65d","ios":"levelo://app?vid=e9f863d8-293d-48f9-9519-23e8b888a65d"},"vehicle_type_id":"4","last_reported":1727636789,"current_range_meters":3200,"station_id":"ce4bhe12rcd13ifvqf30","pricing_plan_id":"cebpf4jnsgd1na2vs0mg"},{"bike_id":"2ab05bf8-eca7-437d-b897-4c5c531ec1af","system_id":"levelo_inurba_marseille","lat":43.317,"lon":5.37729,"is_reserved":false,"is_disabled":false,"rental_uris":{"android":"levelo://app?vid=2ab05bf8-eca7-437d-b897-4c5c531ec1af","ios":"levelo://app?vid=2ab05bf8-eca7-437d-b897-4c5c531ec1af"},"vehicle_type_id":"4","last_reported":1727636789,"current_range_meters":8000,"station_id":"ce4bgth2rcd13ifvqch0","pricing_plan_id":"cebpf4jnsgd1na2vs0mg"},{"bike_id":"edf6f27a-1648-4578-bd79-f093bdbb30c9","system_id":"levelo_inurba_marseille","lat":43.305515,"lon":5.36549,"is_reserved":false,"is_disabled":false,"rental_uris":{"android":"levelo://app?vid=edf6f27a-1648-4578-bd79-f093bdbb30c9","ios":"levelo://app?vid=edf6f27a-1648-4578-bd79-f093bdbb30c9"},"vehicle_type_id":"4","last_reported":1727636789,"current_range_meters":19200,"station_id":"ce4bgs12rcd13ifvqcag","pricing_plan_id":"cebpf4jnsgd1na2vs0mg"},{"bike_id":"41ca4c63-8def-4c31-9103-fc1045ebe4a5","system_id":"levelo_inurba_marseille","lat":43.23196,"lon":5.35562,"is_reserved":false,"is_disabled":false,"rental_uris":{"android":"levelo://app?vid=41ca4c63-8def-4c31-9103-fc1045ebe4a5","ios":"levelo://app?vid=41ca4c63-8def-4c31-9103-fc1045ebe4a5"},"vehicle_type_id":"4","last_reported":1727636789,"current_range_meters":24000,"station_id":"ce4bhu92rcd13ifvqi70","pricing_plan_id":"cebpf4jnsgd1na2vs0mg"},{"bike_id":"16aef7bc-6e34-4da1-be38-669be00420e2","system_id":"levelo_inurba_marseille","lat":43.299,"lon":5.43685,"is_reserved":false,"is_disabled":false,"rental_uris":{"android":"levelo://app?vid=16aef7bc-6e34-4da1-be38-669be00420e2","ios":"levelo://app?vid=16aef7bc-6e34-4da1-be38-669be00420e2"},"vehicle_type_id":"4","last_reported":1727636789,"current_range_meters":27200,"station_id":"ce4bhpp2rcd13ifvqhfg","pricing_plan_id":"cebpf4jnsgd1na2vs0mg"},{"bike_id":"378689b6-9c53-4229-a326-52c498321317","system_id":"levelo_inurba_marseille","lat":43.2842,"lon":5.37528,"is_reserved":false,"is_disabled":false,"rental_uris":{"android":"levelo://app?vid=378689b6-9c53-4229-a326-52c498321317","ios":"levelo://app?vid=378689b6-9c53-4229-a326-52c498321317"},"vehicle_type_id":"4","last_reported":1727636789,"current_range_meters":38800,"station_id":"ce4bh412rcd13ifvqds0","pricing_plan_id":"cebpf4jnsgd1na2vs0mg"},{"bike_id":"f3eb5318-be75-4013-92e8-342d3c54666e","system_id":"levelo_inurba_marseille","lat":43.32541,"lon":5.41421,"is_reserved":false,"is_disabled":false,"rental_uris":{"android":"levelo://app?vid=f3eb5318-be75-4013-92e8-342d3c54666e","ios":"levelo://app?vid=f3eb5318-be75-4013-92e8-342d3c54666e"},"vehicle_type_id":"4","last_reported":1727636789,"current_range_meters":8800,"station_id":"ce4bhq12rcd13ifvqhhg","pricing_plan_id":"cebpf4jnsgd1na2vs0mg"},{"bike_id":"275b0a25-1a9f-498c-9202-be550b06c3de","system_id":"levelo_inurba_marseille","lat":43.3229,"lon":5.38281,"is_reserved":false,"is_disabled":false,"rental_uris":{"android":"levelo://app?vid=275b0a25-1a9f-498c-9202-be550b06c3de","ios":"levelo://app?vid=275b0a25-1a9f-498c-9202-be550b06c3de"},"vehicle_type_id":"4","last_reported":1727636789,"current_range_meters":39200,"station_id":"ce4bhr12rcd13ifvqhqg","pricing_plan_id":"cebpf4jnsgd1na2vs0mg"},{"bike_id":"660eb5b7-a3b6-4de4-8e7d-062dbdb675f8","system_id":"levelo_inurba_marseille","lat":43.25502,"lon":5.37648,"is_reserved":false,"is_disabled":false,"rental_uris":{"android":"levelo://app?vid=660eb5b7-a3b6-4de4-8e7d-062dbdb675f8","ios":"levelo://app?vid=660eb5b7-a3b6-4de4-8e7d-062dbdb675f8"},"vehicle_type_id":"4","last_reported":1727636789,"current_range_meters":38800,"station_id":"ce4bhh12rcd13ifvqff0","pricing_plan_id":"cebpf4jnsgd1na2vs0mg"},{"bike_id":"0c3f0369-7cdf-4cba-a0db-09435ab8c8da","system_id":"levelo_inurba_marseille","lat":43.23197,"lon":5.3999,"is_reserved":false,"is_disabled":false,"rental_uris":{"android":"levelo://app?vid=0c3f0369-7cdf-4cba-a0db-09435ab8c8da","ios":"levelo://app?vid=0c3f0369-7cdf-4cba-a0db-09435ab8c8da"},"vehicle_type_id":"4","last_reported":1727636789,"current_range_meters":24800,"station_id":"ce4bhn12rcd13ifvqgqg","pricing_plan_id":"cebpf4jnsgd1na2vs0mg"},{"bike_id":"9884cc31-b476-40cd-8167-3eb122f2d5db","system_id":"levelo_inurba_marseille","lat":43.28406,"lon":5.37518,"is_reserved":false,"is_disabled":false,"rental_uris":{"android":"levelo://app?vid=9884cc31-b476-40cd-8167-3eb122f2d5db","ios":"levelo://app?vid=9884cc31-b476-40cd-8167-3eb122f2d5db"},"vehicle_type_id":"4","last_reported":1727636789,"current_range_meters":22000,"station_id":"ce4bh412rcd13ifvqds0","pricing_plan_id":"cebpf4jnsgd1na2vs0mg"},{"bike_id":"23ef1aa6-2589-4a02-a24a-f5f3352e03cf","system_id":"levelo_inurba_marseille","lat":43.29267,"lon":5.40119,"is_reserved":false,"is_disabled":false,"rental_uris":{"android":"levelo://app?vid=23ef1aa6-2589-4a02-a24a-f5f3352e03cf","ios":"levelo://app?vid=23ef1aa6-2589-4a02-a24a-f5f3352e03cf"},"vehicle_type_id":"4","last_reported":1727636789,"current_range_meters":36800,"station_id":"ce4bh312rcd13ifvqdk0","pricing_plan_id":"cebpf4jnsgd1na2vs0mg"},{"bike_id":"d063fa1c-ed54-45c6-9ad8-2f3d3025b5c1","system_id":"levelo_inurba_marseille","lat":43.27423,"lon":5.39413,"is_reserved":false,"is_disabled":false,"rental_uris":{"android":"levelo://app?vid=d063fa1c-ed54-45c6-9ad8-2f3d3025b5c1","ios":"levelo://app?vid=d063fa1c-ed54-45c6-9ad8-2f3d3025b5c1"},"vehicle_type_id":"4","last_reported":1727636789,"current_range_meters":8000,"station_id":"ce4bhdp2rcd13ifvqf20","pricing_plan_id":"cebpf4jnsgd1na2vs0mg"},{"bike_id":"4db49256-52da-4b24-bc91-56eb058f00e1","system_id":"levelo_inurba_marseille","lat":43.25717,"lon":5.41113,"is_reserved":false,"is_disabled":false,"rental_uris":{"android":"levelo://app?vid=4db49256-52da-4b24-bc91-56eb058f00e1","ios":"levelo://app?vid=4db49256-52da-4b24-bc91-56eb058f00e1"},"vehicle_type_id":"4","last_reported":1727636789,"current_range_meters":40000,"station_id":"ce4bhkp2rcd13ifvqgd0","pricing_plan_id":"cebpf4jnsgd1na2vs0mg"},{"bike_id":"3810fbb0-38d0-4ba4-b943-06af12b03c84","system_id":"levelo_inurba_marseille","lat":43.294242,"lon":5.386187,"is_reserved":false,"is_disabled":false,"rental_uris":{"android":"levelo://app?vid=3810fbb0-38d0-4ba4-b943-06af12b03c84","ios":"levelo://app?vid=3810fbb0-38d0-4ba4-b943-06af12b03c84"},"vehicle_type_id":"4","last_reported":1727636789,"current_range_meters":24800,"station_id":"ce4bh2h2rcd13ifvqdh0","pricing_plan_id":"cebpf4jnsgd1na2vs0mg"},{"bike_id":"e7de440b-45ed-46a8-99b6-cf20a42fade8","system_id":"levelo_inurba_marseille","lat":43.32288,"lon":5.38276,"is_reserved":false,"is_disabled":false,"rental_uris":{"android":"levelo://app?vid=e7de440b-45ed-46a8-99b6-cf20a42fade8","ios":"levelo://app?vid=e7de440b-45ed-46a8-99b6-cf20a42fade8"},"vehicle_type_id":"4","last_reported":1727636789,"current_range_meters":33200,"station_id":"ce4bhr12rcd13ifvqhqg","pricing_plan_id":"cebpf4jnsgd1na2vs0mg"},{"bike_id":"e4361fa2-90d9-45ff-9d8a-e7b112f4e011","system_id":"levelo_inurba_marseille","lat":43.28513,"lon":5.39128,"is_reserved":false,"is_disabled":false,"rental_uris":{"android":"levelo://app?vid=e4361fa2-90d9-45ff-9d8a-e7b112f4e011","ios":"levelo://app?vid=e4361fa2-90d9-45ff-9d8a-e7b112f4e011"},"vehicle_type_id":"4","last_reported":1727636789,"current_range_meters":27200,"station_id":"ce4bh3p2rcd13ifvqdp0","pricing_plan_id":"cebpf4jnsgd1na2vs0mg"},{"bike_id":"c10d2155-2fb4-4185-b05a-828676026eaf","system_id":"levelo_inurba_marseille","lat":43.24813,"lon":5.37462,"is_reserved":false,"is_disabled":false,"rental_uris":{"android":"levelo://app?vid=c10d2155-2fb4-4185-b05a-828676026eaf","ios":"levelo://app?vid=c10d2155-2fb4-4185-b05a-828676026eaf"},"vehicle_type_id":"4","last_reported":1727636789,"current_range_meters":11600,"station_id":"ce4bhgh2rcd13ifvqfb0","pricing_plan_id":"cebpf4jnsgd1na2vs0mg"},{"bike_id":"a9f3d2fb-7274-4154-a979-cc44780bd97c","system_id":"levelo_inurba_marseille","lat":43.288574,"lon":5.358568,"is_reserved":false,"is_disabled":false,"rental_uris":{"android":"levelo://app?vid=a9f3d2fb-7274-4154-a979-cc44780bd97c","ios":"levelo://app?vid=a9f3d2fb-7274-4154-a979-cc44780bd97c"},"vehicle_type_id":"4","last_reported":1727636789,"current_range_meters":29600,"station_id":"ce4bhb12rcd13ifvqem0","pricing_plan_id":"cebpf4jnsgd1na2vs0mg"},{"bike_id":"73dcb1e9-26e8-40ac-927a-4fc985af5057","system_id":"levelo_inurba_marseille","lat":43.28692,"lon":5.37397,"is_reserved":false,"is_disabled":false,"rental_uris":{"android":"levelo://app?vid=73dcb1e9-26e8-40ac-927a-4fc985af5057","ios":"levelo://app?vid=73dcb1e9-26e8-40ac-927a-4fc985af5057"},"vehicle_type_id":"4","last_reported":1727636789,"current_range_meters":39200,"station_id":"ce4bh3p2rcd13ifvqdq0","pricing_plan_id":"cebpf4jnsgd1na2vs0mg"},{"bike_id":"dacb2420-fc59-4941-bcda-bc25c99e7f43","system_id":"levelo_inurba_marseille","lat":43.31756,"lon":5.39023,"is_reserved":false,"is_disabled":false,"rental_uris":{"android":"levelo://app?vid=dacb2420-fc59-4941-bcda-bc25c99e7f43","ios":"levelo://app?vid=dacb2420-fc59-4941-bcda-bc25c99e7f43"},"vehicle_type_id":"4","last_reported":1727636789,"current_range_meters":37600,"station_id":"ce4bhqp2rcd13ifvqhng","pricing_plan_id":"cebpf4jnsgd1na2vs0mg"},{"bike_id":"22979c6b-911a-4c54-bf90-6fc1e3fd5fdd","system_id":"levelo_inurba_marseille","lat":43.28618,"lon":5.35116,"is_reserved":false,"is_disabled":false,"rental_uris":{"android":"levelo://app?vid=22979c6b-911a-4c54-bf90-6fc1e3fd5fdd","ios":"levelo://app?vid=22979c6b-911a-4c54-bf90-6fc1e3fd5fdd"},"vehicle_type_id":"4","last_reported":1727636789,"current_range_meters":38800,"station_id":"ce4bhch2rcd13ifvqeug","pricing_plan_id":"cebpf4jnsgd1na2vs0mg"},{"bike_id":"6eff8d2d-61fa-4715-9388-b30a052d3e98","system_id":"levelo_inurba_marseille","lat":43.337444,"lon":5.374475,"is_reserved":false,"is_disabled":false,"rental_uris":{"android":"levelo://app?vid=6eff8d2d-61fa-4715-9388-b30a052d3e98","ios":"levelo://app?vid=6eff8d2d-61fa-4715-9388-b30a052d3e98"},"vehicle_type_id":"4","last_reported":1727636789,"current_range_meters":27200,"station_id":"","pricing_plan_id":"cebpf4jnsgd1na2vs0mg"},{"bike_id":"5561ba97-cc61-4a9c-bb93-36a893b9716f","system_id":"levelo_inurba_marseille","lat":43.28922,"lon":5.42431,"is_reserved":false,"is_disabled":false,"rental_uris":{"android":"levelo://app?vid=5561ba97-cc61-4a9c-bb93-36a893b9716f","ios":"levelo://app?vid=5561ba97-cc61-4a9c-bb93-36a893b9716f"},"vehicle_type_id":"4","last_reported":1727636789,"current_range_meters":32400,"station_id":"","pricing_plan_id":"cebpf4jnsgd1na2vs0mg"},{"bike_id":"70524e06-6152-4ea0-a184-eecadd87f150","system_id":"levelo_inurba_marseille","lat":43.30885,"lon":5.39648,"is_reserved":false,"is_disabled":false,"rental_uris":{"android":"levelo://app?vid=70524e06-6152-4ea0-a184-eecadd87f150","ios":"levelo://app?vid=70524e06-6152-4ea0-a184-eecadd87f150"},"vehicle_type_id":"4","last_reported":1727636789,"current_range_meters":6400,"station_id":"ce4bh012rcd13ifvqcv0","pricing_plan_id":"cebpf4jnsgd1na2vs0mg"},{"bike_id":"49103c36-092f-43a6-a665-96ac4218adb8","system_id":"levelo_inurba_marseille","lat":43.32295,"lon":5.38259,"is_reserved":false,"is_disabled":false,"rental_uris":{"android":"levelo://app?vid=49103c36-092f-43a6-a665-96ac4218adb8","ios":"levelo://app?vid=49103c36-092f-43a6-a665-96ac4218adb8"},"vehicle_type_id":"4","last_reported":1727636789,"current_range_meters":38800,"station_id":"ce4bhr12rcd13ifvqhqg","pricing_plan_id":"cebpf4jnsgd1na2vs0mg"},{"bike_id":"0379360f-0899-4a4c-83b7-29ed13d84adb","system_id":"levelo_inurba_marseille","lat":43.23961,"lon":5.36633,"is_reserved":false,"is_disabled":false,"rental_uris":{"android":"levelo://app?vid=0379360f-0899-4a4c-83b7-29ed13d84adb","ios":"levelo://app?vid=0379360f-0899-4a4c-83b7-29ed13d84adb"},"vehicle_type_id":"4","last_reported":1727636789,"current_range_meters":38800,"station_id":"ce4bhi12rcd13ifvqfp0","pricing_plan_id":"cebpf4jnsgd1na2vs0mg"},{"bike_id":"4b8ecbf4-7e50-45a7-b04a-2eefdb2000c9","system_id":"levelo_inurba_marseille","lat":43.305939,"lon":5.393502,"is_reserved":false,"is_disabled":false,"rental_uris":{"android":"levelo://app?vid=4b8ecbf4-7e50-45a7-b04a-2eefdb2000c9","ios":"levelo://app?vid=4b8ecbf4-7e50-45a7-b04a-2eefdb2000c9"},"vehicle_type_id":"4","last_reported":1727636789,"current_range_meters":21600,"station_id":"ce4bh0p2rcd13ifvqd80","pricing_plan_id":"cebpf4jnsgd1na2vs0mg"},{"bike_id":"6f0f9c32-de70-4574-9b89-cca29ab0554e","system_id":"levelo_inurba_marseille","lat":43.337444,"lon":5.374475,"is_reserved":false,"is_disabled":false,"rental_uris":{"android":"levelo://app?vid=6f0f9c32-de70-4574-9b89-cca29ab0554e","ios":"levelo://app?vid=6f0f9c32-de70-4574-9b89-cca29ab0554e"},"vehicle_type_id":"4","last_reported":1727636789,"current_range_meters":24800,"station_id":"","pricing_plan_id":"cebpf4jnsgd1na2vs0mg"},{"bike_id":"44ebb7f9-81e7-4737-8a9e-afd85c147f3d","system_id":"levelo_inurba_marseille","lat":43.31226,"lon":5.3685,"is_reserved":false,"is_disabled":false,"rental_uris":{"android":"levelo://app?vid=44ebb7f9-81e7-4737-8a9e-afd85c147f3d","ios":"levelo://app?vid=44ebb7f9-81e7-4737-8a9e-afd85c147f3d"},"vehicle_type_id":"4","last_reported":1727636789,"current_range_meters":36800,"station_id":"ce4bgl92rcd13ifvqbq0","pricing_plan_id":"cebpf4jnsgd1na2vs0mg"},{"bike_id":"b9897cf6-b27e-4987-8a36-ce737823aa7b","system_id":"levelo_inurba_marseille","lat":43.3231,"lon":5.38289,"is_reserved":false,"is_disabled":false,"rental_uris":{"android":"levelo://app?vid=b9897cf6-b27e-4987-8a36-ce737823aa7b","ios":"levelo://app?vid=b9897cf6-b27e-4987-8a36-ce737823aa7b"},"vehicle_type_id":"4","last_reported":1727636789,"current_range_meters":38800,"station_id":"ce4bhr12rcd13ifvqhqg","pricing_plan_id":"cebpf4jnsgd1na2vs0mg"},{"bike_id":"0687a646-be72-47a3-8907-22e0afb02a46","system_id":"levelo_inurba_marseille","lat":43.23954,"lon":5.36634,"is_reserved":false,"is_disabled":false,"rental_uris":{"android":"levelo://app?vid=0687a646-be72-47a3-8907-22e0afb02a46","ios":"levelo://app?vid=0687a646-be72-47a3-8907-22e0afb02a46"},"vehicle_type_id":"4","last_reported":1727636789,"current_range_meters":28800,"station_id":"ce4bhi12rcd13ifvqfp0","pricing_plan_id":"cebpf4jnsgd1na2vs0mg"},{"bike_id":"52a9d406-2254-4282-a912-ebc3a9c6e455","system_id":"levelo_inurba_marseille","lat":43.30415,"lon":5.41287,"is_reserved":false,"is_disabled":false,"rental_uris":{"android":"levelo://app?vid=52a9d406-2254-4282-a912-ebc3a9c6e455","ios":"levelo://app?vid=52a9d406-2254-4282-a912-ebc3a9c6e455"},"vehicle_type_id":"4","last_reported":1727636789,"current_range_meters":18000,"station_id":"ce4bhop2rcd13ifvqh8g","pricing_plan_id":"cebpf4jnsgd1na2vs0mg"},{"bike_id":"74d78987-f717-4f74-a7e6-330b8e66edf7","system_id":"levelo_inurba_marseille","lat":43.34145,"lon":5.40905,"is_reserved":false,"is_disabled":false,"rental_uris":{"android":"levelo://app?vid=74d78987-f717-4f74-a7e6-330b8e66edf7","ios":"levelo://app?vid=74d78987-f717-4f74-a7e6-330b8e66edf7"},"vehicle_type_id":"4","last_reported":1727636789,"current_range_meters":36400,"station_id":"ce4bhqh2rcd13ifvqhlg","pricing_plan_id":"cebpf4jnsgd1na2vs0mg"},{"bike_id":"1326d2b9-47d7-4e3d-827c-12c4a280f1b8","system_id":"levelo_inurba_marseille","lat":43.29028,"lon":5.38637,"is_reserved":false,"is_disabled":false,"rental_uris":{"android":"levelo://app?vid=1326d2b9-47d7-4e3d-827c-12c4a280f1b8","ios":"levelo://app?vid=1326d2b9-47d7-4e3d-827c-12c4a280f1b8"},"vehicle_type_id":"4","last_reported":1727636789,"current_range_meters":38000,"station_id":"ce4bh4p2rcd13ifvqe0g","pricing_plan_id":"cebpf4jnsgd1na2vs0mg"},{"bike_id":"5b162262-557a-446a-8842-2edc510245ac","system_id":"levelo_inurba_marseille","lat":43.29272,"lon":5.40117,"is_reserved":false,"is_disabled":false,"rental_uris":{"android":"levelo://app?vid=5b162262-557a-446a-8842-2edc510245ac","ios":"levelo://app?vid=5b162262-557a-446a-8842-2edc510245ac"},"vehicle_type_id":"4","last_reported":1727636789,"current_range_meters":6800,"station_id":"ce4bh312rcd13ifvqdk0","pricing_plan_id":"cebpf4jnsgd1na2vs0mg"},{"bike_id":"e57352c7-c0ed-4423-8753-8d6289d791a6","system_id":"levelo_inurba_marseille","lat":43.2964,"lon":5.425983,"is_reserved":false,"is_disabled":false,"rental_uris":{"android":"levelo://app?vid=e57352c7-c0ed-4423-8753-8d6289d791a6","ios":"levelo://app?vid=e57352c7-c0ed-4423-8753-8d6289d791a6"},"vehicle_type_id":"4","last_reported":1727636789,"current_range_meters":19200,"station_id":"ce4bhph2rcd13ifvqhdg","pricing_plan_id":"cebpf4jnsgd1na2vs0mg"},{"bike_id":"90c05d40-f5db-4a12-95b3-f8d41ae2e51b","system_id":"levelo_inurba_marseille","lat":43.32377,"lon":5.3892,"is_reserved":false,"is_disabled":false,"rental_uris":{"android":"levelo://app?vid=90c05d40-f5db-4a12-95b3-f8d41ae2e51b","ios":"levelo://app?vid=90c05d40-f5db-4a12-95b3-f8d41ae2e51b"},"vehicle_type_id":"4","last_reported":1727636789,"current_range_meters":28800,"station_id":"ce4bhqp2rcd13ifvqhog","pricing_plan_id":"cebpf4jnsgd1na2vs0mg"},{"bike_id":"8f7607a9-0bf3-42f4-9a77-94481acad5f0","system_id":"levelo_inurba_marseille","lat":43.29033,"lon":5.38644,"is_reserved":false,"is_disabled":false,"rental_uris":{"android":"levelo://app?vid=8f7607a9-0bf3-42f4-9a77-94481acad5f0","ios":"levelo://app?vid=8f7607a9-0bf3-42f4-9a77-94481acad5f0"},"vehicle_type_id":"4","last_reported":1727636789,"current_range_meters":7200,"station_id":"ce4bh4p2rcd13ifvqe0g","pricing_plan_id":"cebpf4jnsgd1na2vs0mg"},{"bike_id":"22586795-a821-4cf3-988c-9631934e4e1b","system_id":"levelo_inurba_marseille","lat":43.33602,"lon":5.41032,"is_reserved":false,"is_disabled":false,"rental_uris":{"android":"levelo://app?vid=22586795-a821-4cf3-988c-9631934e4e1b","ios":"levelo://app?vid=22586795-a821-4cf3-988c-9631934e4e1b"},"vehicle_type_id":"4","last_reported":1727636789,"current_range_meters":16000,"station_id":"ce4bhqh2rcd13ifvqhmg","pricing_plan_id":"cebpf4jnsgd1na2vs0mg"},{"bike_id":"b18fb3e3-4ebe-4164-ba10-8087d6fcc0f0","system_id":"levelo_inurba_marseille","lat":43.24809,"lon":5.37455,"is_reserved":false,"is_disabled":false,"rental_uris":{"android":"levelo://app?vid=b18fb3e3-4ebe-4164-ba10-8087d6fcc0f0","ios":"levelo://app?vid=b18fb3e3-4ebe-4164-ba10-8087d6fcc0f0"},"vehicle_type_id":"4","last_reported":1727636789,"current_range_meters":38800,"station_id":"ce4bhgh2rcd13ifvqfb0","pricing_plan_id":"cebpf4jnsgd1na2vs0mg"},{"bike_id":"f6b2b4bd-ef92-431e-a11b-3276c1727e48","system_id":"levelo_inurba_marseille","lat":43.28864,"lon":5.37878,"is_reserved":false,"is_disabled":false,"rental_uris":{"android":"levelo://app?vid=f6b2b4bd-ef92-431e-a11b-3276c1727e48","ios":"levelo://app?vid=f6b2b4bd-ef92-431e-a11b-3276c1727e48"},"vehicle_type_id":"4","last_reported":1727636789,"current_range_meters":8800,"station_id":"","pricing_plan_id":"cebpf4jnsgd1na2vs0mg"},{"bike_id":"cd4ff822-ce55-45a9-91c0-864ced1a19b4","system_id":"levelo_inurba_marseille","lat":43.30889,"lon":5.39634,"is_reserved":false,"is_disabled":false,"rental_uris":{"android":"levelo://app?vid=cd4ff822-ce55-45a9-91c0-864ced1a19b4","ios":"levelo://app?vid=cd4ff822-ce55-45a9-91c0-864ced1a19b4"},"vehicle_type_id":"4","last_reported":1727636789,"current_range_meters":38800,"station_id":"ce4bh012rcd13ifvqcv0","pricing_plan_id":"cebpf4jnsgd1na2vs0mg"},{"bike_id":"a035741b-1972-44b0-a53e-b35986eb4ced","system_id":"levelo_inurba_marseille","lat":43.29304,"lon":5.37184,"is_reserved":false,"is_disabled":false,"rental_uris":{"android":"levelo://app?vid=a035741b-1972-44b0-a53e-b35986eb4ced","ios":"levelo://app?vid=a035741b-1972-44b0-a53e-b35986eb4ced"},"vehicle_type_id":"4","last_reported":1727636789,"current_range_meters":36800,"station_id":"ce4bgh92rcd13ifvqb40","pricing_plan_id":"cebpf4jnsgd1na2vs0mg"},{"bike_id":"c93e0194-c411-4976-96a1-5cf226e0d990","system_id":"levelo_inurba_marseille","lat":43.25721,"lon":5.4111,"is_reserved":false,"is_disabled":false,"rental_uris":{"android":"levelo://app?vid=c93e0194-c411-4976-96a1-5cf226e0d990","ios":"levelo://app?vid=c93e0194-c411-4976-96a1-5cf226e0d990"},"vehicle_type_id":"4","last_reported":1727636789,"current_range_meters":33600,"station_id":"ce4bhkp2rcd13ifvqgd0","pricing_plan_id":"cebpf4jnsgd1na2vs0mg"},{"bike_id":"0fa8b223-8090-4672-8b04-b57125694314","system_id":"levelo_inurba_marseille","lat":43.28957,"lon":5.36836,"is_reserved":false,"is_disabled":false,"rental_uris":{"android":"levelo://app?vid=0fa8b223-8090-4672-8b04-b57125694314","ios":"levelo://app?vid=0fa8b223-8090-4672-8b04-b57125694314"},"vehicle_type_id":"4","last_reported":1727636789,"current_range_meters":33600,"station_id":"","pricing_plan_id":"cebpf4jnsgd1na2vs0mg"},{"bike_id":"ed7c4295-44c1-4d4f-8db2-1aba58ed20d3","system_id":"levelo_inurba_marseille","lat":43.29906,"lon":5.38153,"is_reserved":false,"is_disabled":false,"rental_uris":{"android":"levelo://app?vid=ed7c4295-44c1-4d4f-8db2-1aba58ed20d3","ios":"levelo://app?vid=ed7c4295-44c1-4d4f-8db2-1aba58ed20d3"},"vehicle_type_id":"4","last_reported":1727636789,"current_range_meters":39200,"station_id":"ce4bgj12rcd13ifvqbc0","pricing_plan_id":"cebpf4jnsgd1na2vs0mg"},{"bike_id":"e6d44b16-bbd2-4b49-b199-d310d8b4f73d","system_id":"levelo_inurba_marseille","lat":43.28665,"lon":5.36353,"is_reserved":false,"is_disabled":false,"rental_uris":{"android":"levelo://app?vid=e6d44b16-bbd2-4b49-b199-d310d8b4f73d","ios":"levelo://app?vid=e6d44b16-bbd2-4b49-b199-d310d8b4f73d"},"vehicle_type_id":"4","last_reported":1727636789,"current_range_meters":38800,"station_id":"ce4bhah2rcd13ifvqej0","pricing_plan_id":"cebpf4jnsgd1na2vs0mg"},{"bike_id":"de7cbc20-02b2-454e-9e57-1cc1a40bb95c","system_id":"levelo_inurba_marseille","lat":43.2841,"lon":5.37519,"is_reserved":false,"is_disabled":false,"rental_uris":{"android":"levelo://app?vid=de7cbc20-02b2-454e-9e57-1cc1a40bb95c","ios":"levelo://app?vid=de7cbc20-02b2-454e-9e57-1cc1a40bb95c"},"vehicle_type_id":"4","last_reported":1727636789,"current_range_meters":4800,"station_id":"ce4bh412rcd13ifvqds0","pricing_plan_id":"cebpf4jnsgd1na2vs0mg"},{"bike_id":"3da34934-a025-48a2-b701-e7e5491b8aef","system_id":"levelo_inurba_marseille","lat":43.24808,"lon":5.3745,"is_reserved":false,"is_disabled":false,"rental_uris":{"android":"levelo://app?vid=3da34934-a025-48a2-b701-e7e5491b8aef","ios":"levelo://app?vid=3da34934-a025-48a2-b701-e7e5491b8aef"},"vehicle_type_id":"4","last_reported":1727636789,"current_range_meters":38800,"station_id":"ce4bhgh2rcd13ifvqfb0","pricing_plan_id":"cebpf4jnsgd1na2vs0mg"},{"bike_id":"a6d06913-bbf6-4145-9399-57e4365a4406","system_id":"levelo_inurba_marseille","lat":43.2901,"lon":5.3815,"is_reserved":false,"is_disabled":false,"rental_uris":{"android":"levelo://app?vid=a6d06913-bbf6-4145-9399-57e4365a4406","ios":"levelo://app?vid=a6d06913-bbf6-4145-9399-57e4365a4406"},"vehicle_type_id":"4","last_reported":1727636789,"current_range_meters":26000,"station_id":"ce4bh4p2rcd13ifvqe1g","pricing_plan_id":"cebpf4jnsgd1na2vs0mg"},{"bike_id":"315d73b5-ba0f-4cf5-a823-cb383ec925ae","system_id":"levelo_inurba_marseille","lat":43.27179,"lon":5.40988,"is_reserved":false,"is_disabled":false,"rental_uris":{"android":"levelo://app?vid=315d73b5-ba0f-4cf5-a823-cb383ec925ae","ios":"levelo://app?vid=315d73b5-ba0f-4cf5-a823-cb383ec925ae"},"vehicle_type_id":"4","last_reported":1727636789,"current_range_meters":12000,"station_id":"ce4bhl12rcd13ifvqgf0","pricing_plan_id":"cebpf4jnsgd1na2vs0mg"},{"bike_id":"9d933d2a-f72c-492c-ae3d-eb238dac3442","system_id":"levelo_inurba_marseille","lat":43.317589,"lon":5.390251,"is_reserved":false,"is_disabled":false,"rental_uris":{"android":"levelo://app?vid=9d933d2a-f72c-492c-ae3d-eb238dac3442","ios":"levelo://app?vid=9d933d2a-f72c-492c-ae3d-eb238dac3442"},"vehicle_type_id":"4","last_reported":1727636789,"current_range_meters":12000,"station_id":"ce4bhqp2rcd13ifvqhng","pricing_plan_id":"cebpf4jnsgd1na2vs0mg"},{"bike_id":"63fb399b-8de4-4303-be59-c61b5e24a217","system_id":"levelo_inurba_marseille","lat":43.30533,"lon":5.38416,"is_reserved":false,"is_disabled":false,"rental_uris":{"android":"levelo://app?vid=63fb399b-8de4-4303-be59-c61b5e24a217","ios":"levelo://app?vid=63fb399b-8de4-4303-be59-c61b5e24a217"},"vehicle_type_id":"4","last_reported":1727636789,"current_range_meters":26800,"station_id":"ce4bgg92rcd13ifvqb30","pricing_plan_id":"cebpf4jnsgd1na2vs0mg"},{"bike_id":"ed215af7-6358-43a4-8d0b-9f62eed9ff7b","system_id":"levelo_inurba_marseille","lat":43.24811,"lon":5.37458,"is_reserved":false,"is_disabled":false,"rental_uris":{"android":"levelo://app?vid=ed215af7-6358-43a4-8d0b-9f62eed9ff7b","ios":"levelo://app?vid=ed215af7-6358-43a4-8d0b-9f62eed9ff7b"},"vehicle_type_id":"4","last_reported":1727636789,"current_range_meters":36000,"station_id":"ce4bhgh2rcd13ifvqfb0","pricing_plan_id":"cebpf4jnsgd1na2vs0mg"},{"bike_id":"6616aad7-8093-401a-8e7e-751ca8253a47","system_id":"levelo_inurba_marseille","lat":43.33017,"lon":5.39037,"is_reserved":false,"is_disabled":false,"rental_uris":{"android":"levelo://app?vid=6616aad7-8093-401a-8e7e-751ca8253a47","ios":"levelo://app?vid=6616aad7-8093-401a-8e7e-751ca8253a47"},"vehicle_type_id":"4","last_reported":1727636789,"current_range_meters":32400,"station_id":"ce4bhr92rcd13ifvqhrg","pricing_plan_id":"cebpf4jnsgd1na2vs0mg"},{"bike_id":"3fd17694-bd04-4c59-97a1-501d846fb7d7","system_id":"levelo_inurba_marseille","lat":43.29272,"lon":5.36852,"is_reserved":false,"is_disabled":false,"rental_uris":{"android":"levelo://app?vid=3fd17694-bd04-4c59-97a1-501d846fb7d7","ios":"levelo://app?vid=3fd17694-bd04-4c59-97a1-501d846fb7d7"},"vehicle_type_id":"4","last_reported":1727636789,"current_range_meters":38800,"station_id":"ce4bhbp2rcd13ifvqesg","pricing_plan_id":"cebpf4jnsgd1na2vs0mg"},{"bike_id":"e30ac80d-e215-44b7-a51e-e86998181408","system_id":"levelo_inurba_marseille","lat":43.31323,"lon":5.39699,"is_reserved":false,"is_disabled":false,"rental_uris":{"android":"levelo://app?vid=e30ac80d-e215-44b7-a51e-e86998181408","ios":"levelo://app?vid=e30ac80d-e215-44b7-a51e-e86998181408"},"vehicle_type_id":"4","last_reported":1727636789,"current_range_meters":3200,"station_id":"ce4bgvp2rcd13ifvqcu0","pricing_plan_id":"cebpf4jnsgd1na2vs0mg"},{"bike_id":"c53631f1-8756-43bf-abc5-bea38a962ec5","system_id":"levelo_inurba_marseille","lat":43.25087,"lon":5.39522,"is_reserved":false,"is_disabled":false,"rental_uris":{"android":"levelo://app?vid=c53631f1-8756-43bf-abc5-bea38a962ec5","ios":"levelo://app?vid=c53631f1-8756-43bf-abc5-bea38a962ec5"},"vehicle_type_id":"4","last_reported":1727636789,"current_range_meters":18800,"station_id":"ce4bhm12rcd13ifvqgkg","pricing_plan_id":"cebpf4jnsgd1na2vs0mg"},{"bike_id":"9fc7ba07-cac3-4423-ae28-b744dd77f056","system_id":"levelo_inurba_marseille","lat":43.24547,"lon":5.39526,"is_reserved":false,"is_disabled":false,"rental_uris":{"android":"levelo://app?vid=9fc7ba07-cac3-4423-ae28-b744dd77f056","ios":"levelo://app?vid=9fc7ba07-cac3-4423-ae28-b744dd77f056"},"vehicle_type_id":"4","last_reported":1727636789,"current_range_meters":6400,"station_id":"ce4bhlp2rcd13ifvqgjg","pricing_plan_id":"cebpf4jnsgd1na2vs0mg"},{"bike_id":"b6b63409-06c8-451c-a095-9f301c24e7e7","system_id":"levelo_inurba_marseille","lat":43.308814,"lon":5.396438,"is_reserved":false,"is_disabled":false,"rental_uris":{"android":"levelo://app?vid=b6b63409-06c8-451c-a095-9f301c24e7e7","ios":"levelo://app?vid=b6b63409-06c8-451c-a095-9f301c24e7e7"},"vehicle_type_id":"4","last_reported":1727636789,"current_range_meters":37600,"station_id":"ce4bh012rcd13ifvqcv0","pricing_plan_id":"cebpf4jnsgd1na2vs0mg"},{"bike_id":"ae420688-5730-4c04-90f7-fb439220597f","system_id":"levelo_inurba_marseille","lat":43.337444,"lon":5.374475,"is_reserved":false,"is_disabled":false,"rental_uris":{"android":"levelo://app?vid=ae420688-5730-4c04-90f7-fb439220597f","ios":"levelo://app?vid=ae420688-5730-4c04-90f7-fb439220597f"},"vehicle_type_id":"4","last_reported":1727636789,"current_range_meters":27600,"station_id":"","pricing_plan_id":"cebpf4jnsgd1na2vs0mg"},{"bike_id":"64c5a41d-9764-4555-8564-e0109a27d62f","system_id":"levelo_inurba_marseille","lat":43.32264,"lon":5.38282,"is_reserved":false,"is_disabled":false,"rental_uris":{"android":"levelo://app?vid=64c5a41d-9764-4555-8564-e0109a27d62f","ios":"levelo://app?vid=64c5a41d-9764-4555-8564-e0109a27d62f"},"vehicle_type_id":"4","last_reported":1727636789,"current_range_meters":9600,"station_id":"ce4bhr12rcd13ifvqhqg","pricing_plan_id":"cebpf4jnsgd1na2vs0mg"},{"bike_id":"a7590e44-4f6f-40a4-a3a4-00ede95c8c2e","system_id":"levelo_inurba_marseille","lat":43.29873,"lon":5.39697,"is_reserved":false,"is_disabled":false,"rental_uris":{"android":"levelo://app?vid=a7590e44-4f6f-40a4-a3a4-00ede95c8c2e","ios":"levelo://app?vid=a7590e44-4f6f-40a4-a3a4-00ede95c8c2e"},"vehicle_type_id":"4","last_reported":1727636789,"current_range_meters":38000,"station_id":"ce4bh0h2rcd13ifvqd50","pricing_plan_id":"cebpf4jnsgd1na2vs0mg"},{"bike_id":"1d120e83-3e47-438c-ad2e-ee0c593707f6","system_id":"levelo_inurba_marseille","lat":43.24674,"lon":5.38161,"is_reserved":false,"is_disabled":false,"rental_uris":{"android":"levelo://app?vid=1d120e83-3e47-438c-ad2e-ee0c593707f6","ios":"levelo://app?vid=1d120e83-3e47-438c-ad2e-ee0c593707f6"},"vehicle_type_id":"4","last_reported":1727636789,"current_range_meters":13600,"station_id":"ce4bhih2rcd13ifvqfr0","pricing_plan_id":"cebpf4jnsgd1na2vs0mg"},{"bike_id":"b3c986ac-289e-4b20-b19f-03de7495bd5d","system_id":"levelo_inurba_marseille","lat":43.29796,"lon":5.38086,"is_reserved":false,"is_disabled":false,"rental_uris":{"android":"levelo://app?vid=b3c986ac-289e-4b20-b19f-03de7495bd5d","ios":"levelo://app?vid=b3c986ac-289e-4b20-b19f-03de7495bd5d"},"vehicle_type_id":"4","last_reported":1727636789,"current_range_meters":38000,"station_id":"ce4bgip2rcd13ifvqbb0","pricing_plan_id":"cebpf4jnsgd1na2vs0mg"},{"bike_id":"1f1955f1-bed6-439b-b8cb-d07b1d9ef4bc","system_id":"levelo_inurba_marseille","lat":43.23961,"lon":5.36626,"is_reserved":false,"is_disabled":false,"rental_uris":{"android":"levelo://app?vid=1f1955f1-bed6-439b-b8cb-d07b1d9ef4bc","ios":"levelo://app?vid=1f1955f1-bed6-439b-b8cb-d07b1d9ef4bc"},"vehicle_type_id":"4","last_reported":1727636789,"current_range_meters":38400,"station_id":"ce4bhi12rcd13ifvqfp0","pricing_plan_id":"cebpf4jnsgd1na2vs0mg"},{"bike_id":"3bc744ab-1ad8-4c3e-842b-8c0babcb33c8","system_id":"levelo_inurba_marseille","lat":43.28926,"lon":5.38389,"is_reserved":false,"is_disabled":false,"rental_uris":{"android":"levelo://app?vid=3bc744ab-1ad8-4c3e-842b-8c0babcb33c8","ios":"levelo://app?vid=3bc744ab-1ad8-4c3e-842b-8c0babcb33c8"},"vehicle_type_id":"4","last_reported":1727636789,"current_range_meters":3200,"station_id":"ce4bh612rcd13ifvqe6g","pricing_plan_id":"cebpf4jnsgd1na2vs0mg"},{"bike_id":"882a800b-0399-4bfd-9416-a9f96a069fa5","system_id":"levelo_inurba_marseille","lat":43.31358,"lon":5.38491,"is_reserved":false,"is_disabled":false,"rental_uris":{"android":"levelo://app?vid=882a800b-0399-4bfd-9416-a9f96a069fa5","ios":"levelo://app?vid=882a800b-0399-4bfd-9416-a9f96a069fa5"},"vehicle_type_id":"4","last_reported":1727636789,"current_range_meters":17600,"station_id":"ce4bgt92rcd13ifvqcf0","pricing_plan_id":"cebpf4jnsgd1na2vs0mg"},{"bike_id":"c2c12e66-8dea-4643-a61e-63550c6fc093","system_id":"levelo_inurba_marseille","lat":43.24663,"lon":5.38158,"is_reserved":false,"is_disabled":false,"rental_uris":{"android":"levelo://app?vid=c2c12e66-8dea-4643-a61e-63550c6fc093","ios":"levelo://app?vid=c2c12e66-8dea-4643-a61e-63550c6fc093"},"vehicle_type_id":"4","last_reported":1727636789,"current_range_meters":22800,"station_id":"ce4bhih2rcd13ifvqfr0","pricing_plan_id":"cebpf4jnsgd1na2vs0mg"},{"bike_id":"9cb3412e-3587-47af-8a8a-114bb5acd038","system_id":"levelo_inurba_marseille","lat":43.29896,"lon":5.4366,"is_reserved":false,"is_disabled":false,"rental_uris":{"android":"levelo://app?vid=9cb3412e-3587-47af-8a8a-114bb5acd038","ios":"levelo://app?vid=9cb3412e-3587-47af-8a8a-114bb5acd038"},"vehicle_type_id":"4","last_reported":1727636789,"current_range_meters":38800,"station_id":"ce4bhpp2rcd13ifvqhfg","pricing_plan_id":"cebpf4jnsgd1na2vs0mg"},{"bike_id":"da6a3f31-e688-4aaa-9413-b554d1616bc7","system_id":"levelo_inurba_marseille","lat":43.29257,"lon":5.38448,"is_reserved":false,"is_disabled":false,"rental_uris":{"android":"levelo://app?vid=da6a3f31-e688-4aaa-9413-b554d1616bc7","ios":"levelo://app?vid=da6a3f31-e688-4aaa-9413-b554d1616bc7"},"vehicle_type_id":"4","last_reported":1727636789,"current_range_meters":6400,"station_id":"ce4bh692rcd13ifvqea0","pricing_plan_id":"cebpf4jnsgd1na2vs0mg"},{"bike_id":"f67786bf-1c1e-4ea8-b7a7-5e454e0aaeb7","system_id":"levelo_inurba_marseille","lat":43.290649,"lon":5.371758,"is_reserved":false,"is_disabled":false,"rental_uris":{"android":"levelo://app?vid=f67786bf-1c1e-4ea8-b7a7-5e454e0aaeb7","ios":"levelo://app?vid=f67786bf-1c1e-4ea8-b7a7-5e454e0aaeb7"},"vehicle_type_id":"4","last_reported":1727636789,"current_range_meters":18000,"station_id":"ce4bha92rcd13ifvqeg0","pricing_plan_id":"cebpf4jnsgd1na2vs0mg"},{"bike_id":"a6f3456f-f73f-4350-91cf-0ecbb08350d1","system_id":"levelo_inurba_marseille","lat":43.32456,"lon":5.38756,"is_reserved":false,"is_disabled":false,"rental_uris":{"android":"levelo://app?vid=a6f3456f-f73f-4350-91cf-0ecbb08350d1","ios":"levelo://app?vid=a6f3456f-f73f-4350-91cf-0ecbb08350d1"},"vehicle_type_id":"4","last_reported":1727636789,"current_range_meters":26800,"station_id":"","pricing_plan_id":"cebpf4jnsgd1na2vs0mg"},{"bike_id":"0957f477-ff8e-42cf-b1dc-f38b6085338c","system_id":"levelo_inurba_marseille","lat":43.29302,"lon":5.37172,"is_reserved":false,"is_disabled":false,"rental_uris":{"android":"levelo://app?vid=0957f477-ff8e-42cf-b1dc-f38b6085338c","ios":"levelo://app?vid=0957f477-ff8e-42cf-b1dc-f38b6085338c"},"vehicle_type_id":"4","last_reported":1727636789,"current_range_meters":8000,"station_id":"ce4bgh92rcd13ifvqb40","pricing_plan_id":"cebpf4jnsgd1na2vs0mg"},{"bike_id":"8b7453fa-c714-483e-8316-f4ee4bb13cab","system_id":"levelo_inurba_marseille","lat":43.31528,"lon":5.38033,"is_reserved":false,"is_disabled":false,"rental_uris":{"android":"levelo://app?vid=8b7453fa-c714-483e-8316-f4ee4bb13cab","ios":"levelo://app?vid=8b7453fa-c714-483e-8316-f4ee4bb13cab"},"vehicle_type_id":"4","last_reported":1727636789,"current_range_meters":38800,"station_id":"ce4bhsp2rcd13ifvqi50","pricing_plan_id":"cebpf4jnsgd1na2vs0mg"},{"bike_id":"721b0a3c-a79a-46e0-8cb8-6967a5484852","system_id":"levelo_inurba_marseille","lat":43.29864,"lon":5.38912,"is_reserved":false,"is_disabled":false,"rental_uris":{"android":"levelo://app?vid=721b0a3c-a79a-46e0-8cb8-6967a5484852","ios":"levelo://app?vid=721b0a3c-a79a-46e0-8cb8-6967a5484852"},"vehicle_type_id":"4","last_reported":1727636789,"current_range_meters":38800,"station_id":"ce4bh392rcd13ifvqdl0","pricing_plan_id":"cebpf4jnsgd1na2vs0mg"},{"bike_id":"eb8b760c-8978-40f0-a8de-49dacb88b858","system_id":"levelo_inurba_marseille","lat":43.313385,"lon":5.367347,"is_reserved":false,"is_disabled":false,"rental_uris":{"android":"levelo://app?vid=eb8b760c-8978-40f0-a8de-49dacb88b858","ios":"levelo://app?vid=eb8b760c-8978-40f0-a8de-49dacb88b858"},"vehicle_type_id":"4","last_reported":1727636789,"current_range_meters":17600,"station_id":"ce4bgr92rcd13ifvqc6g","pricing_plan_id":"cebpf4jnsgd1na2vs0mg"},{"bike_id":"b7f09c81-5ea1-47dd-9247-515cfa80735d","system_id":"levelo_inurba_marseille","lat":43.23961,"lon":5.36632,"is_reserved":false,"is_disabled":false,"rental_uris":{"android":"levelo://app?vid=b7f09c81-5ea1-47dd-9247-515cfa80735d","ios":"levelo://app?vid=b7f09c81-5ea1-47dd-9247-515cfa80735d"},"vehicle_type_id":"4","last_reported":1727636789,"current_range_meters":14800,"station_id":"ce4bhi12rcd13ifvqfp0","pricing_plan_id":"cebpf4jnsgd1na2vs0mg"},{"bike_id":"ed1cf620-9799-4734-92b5-45c244921e6c","system_id":"levelo_inurba_marseille","lat":43.29,"lon":5.35623,"is_reserved":false,"is_disabled":false,"rental_uris":{"android":"levelo://app?vid=ed1cf620-9799-4734-92b5-45c244921e6c","ios":"levelo://app?vid=ed1cf620-9799-4734-92b5-45c244921e6c"},"vehicle_type_id":"4","last_reported":1727636789,"current_range_meters":38800,"station_id":"ce4bhb92rcd13ifvqen0","pricing_plan_id":"cebpf4jnsgd1na2vs0mg"},{"bike_id":"51e287a5-b406-4bc2-885f-17e3718b5849","system_id":"levelo_inurba_marseille","lat":43.307213,"lon":5.386447,"is_reserved":false,"is_disabled":false,"rental_uris":{"android":"levelo://app?vid=51e287a5-b406-4bc2-885f-17e3718b5849","ios":"levelo://app?vid=51e287a5-b406-4bc2-885f-17e3718b5849"},"vehicle_type_id":"4","last_reported":1727636789,"current_range_meters":32400,"station_id":"","pricing_plan_id":"cebpf4jnsgd1na2vs0mg"},{"bike_id":"72644075-504b-485d-99e5-6a7047bb56ca","system_id":"levelo_inurba_marseille","lat":43.29342,"lon":5.42819,"is_reserved":false,"is_disabled":false,"rental_uris":{"android":"levelo://app?vid=72644075-504b-485d-99e5-6a7047bb56ca","ios":"levelo://app?vid=72644075-504b-485d-99e5-6a7047bb56ca"},"vehicle_type_id":"4","last_reported":1727636789,"current_range_meters":22800,"station_id":"","pricing_plan_id":"cebpf4jnsgd1na2vs0mg"},{"bike_id":"9875a1f0-e592-46f9-8699-96387cfa5ee3","system_id":"levelo_inurba_marseille","lat":43.25721,"lon":5.41114,"is_reserved":false,"is_disabled":false,"rental_uris":{"android":"levelo://app?vid=9875a1f0-e592-46f9-8699-96387cfa5ee3","ios":"levelo://app?vid=9875a1f0-e592-46f9-8699-96387cfa5ee3"},"vehicle_type_id":"4","last_reported":1727636789,"current_range_meters":16800,"station_id":"ce4bhkp2rcd13ifvqgd0","pricing_plan_id":"cebpf4jnsgd1na2vs0mg"},{"bike_id":"b0c31863-9489-4555-8c14-cc83b377024c","system_id":"levelo_inurba_marseille","lat":43.26039,"lon":5.38199,"is_reserved":false,"is_disabled":false,"rental_uris":{"android":"levelo://app?vid=b0c31863-9489-4555-8c14-cc83b377024c","ios":"levelo://app?vid=b0c31863-9489-4555-8c14-cc83b377024c"},"vehicle_type_id":"4","last_reported":1727636789,"current_range_meters":24000,"station_id":"","pricing_plan_id":"cebpf4jnsgd1na2vs0mg"},{"bike_id":"d8b01a35-b889-456f-a181-ef41954a0a16","system_id":"levelo_inurba_marseille","lat":43.29413,"lon":5.38629,"is_reserved":false,"is_disabled":false,"rental_uris":{"android":"levelo://app?vid=d8b01a35-b889-456f-a181-ef41954a0a16","ios":"levelo://app?vid=d8b01a35-b889-456f-a181-ef41954a0a16"},"vehicle_type_id":"4","last_reported":1727636789,"current_range_meters":18000,"station_id":"ce4bh2h2rcd13ifvqdh0","pricing_plan_id":"cebpf4jnsgd1na2vs0mg"},{"bike_id":"c5780541-b30d-4d72-9466-9846f9352508","system_id":"levelo_inurba_marseille","lat":43.24394,"lon":5.37066,"is_reserved":false,"is_disabled":false,"rental_uris":{"android":"levelo://app?vid=c5780541-b30d-4d72-9466-9846f9352508","ios":"levelo://app?vid=c5780541-b30d-4d72-9466-9846f9352508"},"vehicle_type_id":"4","last_reported":1727636789,"current_range_meters":28000,"station_id":"ce4bhhh2rcd13ifvqfk0","pricing_plan_id":"cebpf4jnsgd1na2vs0mg"},{"bike_id":"18b8f771-3fdb-4c43-b2cf-26d8ab27f2b3","system_id":"levelo_inurba_marseille","lat":43.24547,"lon":5.39525,"is_reserved":false,"is_disabled":false,"rental_uris":{"android":"levelo://app?vid=18b8f771-3fdb-4c43-b2cf-26d8ab27f2b3","ios":"levelo://app?vid=18b8f771-3fdb-4c43-b2cf-26d8ab27f2b3"},"vehicle_type_id":"4","last_reported":1727636789,"current_range_meters":20800,"station_id":"ce4bhlp2rcd13ifvqgjg","pricing_plan_id":"cebpf4jnsgd1na2vs0mg"},{"bike_id":"2d84231e-3da3-4d9c-a766-c51ba5131d95","system_id":"levelo_inurba_marseille","lat":43.26501,"lon":5.39532,"is_reserved":false,"is_disabled":false,"rental_uris":{"android":"levelo://app?vid=2d84231e-3da3-4d9c-a766-c51ba5131d95","ios":"levelo://app?vid=2d84231e-3da3-4d9c-a766-c51ba5131d95"},"vehicle_type_id":"4","last_reported":1727636789,"current_range_meters":20800,"station_id":"ce4bhi12rcd13ifvqfq0","pricing_plan_id":"cebpf4jnsgd1na2vs0mg"},{"bike_id":"bbf952ac-e334-4066-8586-c2a54f21154f","system_id":"levelo_inurba_marseille","lat":43.24494,"lon":5.37832,"is_reserved":false,"is_disabled":false,"rental_uris":{"android":"levelo://app?vid=bbf952ac-e334-4066-8586-c2a54f21154f","ios":"levelo://app?vid=bbf952ac-e334-4066-8586-c2a54f21154f"},"vehicle_type_id":"4","last_reported":1727636789,"current_range_meters":20000,"station_id":"","pricing_plan_id":"cebpf4jnsgd1na2vs0mg"},{"bike_id":"ada67ad8-4bee-431d-ad93-2b0e81932602","system_id":"levelo_inurba_marseille","lat":43.29266,"lon":5.3845,"is_reserved":false,"is_disabled":false,"rental_uris":{"android":"levelo://app?vid=ada67ad8-4bee-431d-ad93-2b0e81932602","ios":"levelo://app?vid=ada67ad8-4bee-431d-ad93-2b0e81932602"},"vehicle_type_id":"4","last_reported":1727636789,"current_range_meters":38000,"station_id":"ce4bh692rcd13ifvqea0","pricing_plan_id":"cebpf4jnsgd1na2vs0mg"},{"bike_id":"cc189bdb-be15-4ec1-9a90-3ed3ce93f053","system_id":"levelo_inurba_marseille","lat":43.34079,"lon":5.4205,"is_reserved":false,"is_disabled":false,"rental_uris":{"android":"levelo://app?vid=cc189bdb-be15-4ec1-9a90-3ed3ce93f053","ios":"levelo://app?vid=cc189bdb-be15-4ec1-9a90-3ed3ce93f053"},"vehicle_type_id":"4","last_reported":1727636789,"current_range_meters":27600,"station_id":"","pricing_plan_id":"cebpf4jnsgd1na2vs0mg"},{"bike_id":"77f90c2d-6498-474a-a213-dbf8321f0375","system_id":"levelo_inurba_marseille","lat":43.23195,"lon":5.35548,"is_reserved":false,"is_disabled":false,"rental_uris":{"android":"levelo://app?vid=77f90c2d-6498-474a-a213-dbf8321f0375","ios":"levelo://app?vid=77f90c2d-6498-474a-a213-dbf8321f0375"},"vehicle_type_id":"4","last_reported":1727636789,"current_range_meters":14000,"station_id":"ce4bhu92rcd13ifvqi70","pricing_plan_id":"cebpf4jnsgd1na2vs0mg"},{"bike_id":"f7bef62c-f9d4-4636-867c-34a1817a6f40","system_id":"levelo_inurba_marseille","lat":43.28468,"lon":5.38422,"is_reserved":false,"is_disabled":false,"rental_uris":{"android":"levelo://app?vid=f7bef62c-f9d4-4636-867c-34a1817a6f40","ios":"levelo://app?vid=f7bef62c-f9d4-4636-867c-34a1817a6f40"},"vehicle_type_id":"4","last_reported":1727636789,"current_range_meters":38800,"station_id":"ce4bh512rcd13ifvqe3g","pricing_plan_id":"cebpf4jnsgd1na2vs0mg"},{"bike_id":"8f36704c-f2ee-41b2-8e56-82cceae6c70a","system_id":"levelo_inurba_marseille","lat":43.29242,"lon":5.40894,"is_reserved":false,"is_disabled":false,"rental_uris":{"android":"levelo://app?vid=8f36704c-f2ee-41b2-8e56-82cceae6c70a","ios":"levelo://app?vid=8f36704c-f2ee-41b2-8e56-82cceae6c70a"},"vehicle_type_id":"4","last_reported":1727636789,"current_range_meters":7200,"station_id":"ce4bh192rcd13ifvqdc0","pricing_plan_id":"cebpf4jnsgd1na2vs0mg"},{"bike_id":"7f4ebdeb-9cd1-4138-8a75-7280c348b7e7","system_id":"levelo_inurba_marseille","lat":43.2866,"lon":5.36362,"is_reserved":false,"is_disabled":false,"rental_uris":{"android":"levelo://app?vid=7f4ebdeb-9cd1-4138-8a75-7280c348b7e7","ios":"levelo://app?vid=7f4ebdeb-9cd1-4138-8a75-7280c348b7e7"},