{"last_updated":1774374447,"ttl":60,"version":"2.2","data":{"bikes":[{"bike_id":"6a361988-483c-4fea-b668-fae45fefb959","system_id":"levelo_inurba_marseille","lat":43.32136,"lon":5.36816,"is_reserved":false,"is_disabled":false,"rental_uris":{"android":"levelo://app?vid=6a361988-483c-4fea-b668-fae45fefb959","ios":"levelo://app?vid=6a361988-483c-4fea-b668-fae45fefb959"},"vehicle_type_id":"4","last_reported":1774374448,"current_range_meters":2800,"station_id":"","pricing_plan_id":"cebpf4jnsgd1na2vs0mg"},{"bike_id":"8a067a40-2b29-4806-a830-bffb2dfb8e57","system_id":"levelo_inurba_marseille","lat":43.26588,"lon":5.37314,"is_reserved":false,"is_disabled":false,"rental_uris":{"android":"levelo://app?vid=8a067a40-2b29-4806-a830-bffb2dfb8e57","ios":"levelo://app?vid=8a067a40-2b29-4806-a830-bffb2dfb8e57"},"vehicle_type_id":"4","last_reported":1774374448,"current_range_meters":2800,"station_id":"ce4bhg12rcd13ifvqf70","pricing_plan_id":"cebpf4jnsgd1na2vs0mg"},{"bike_id":"95aaeccb-3e18-4e2e-8aba-611cc865f1cb","system_id":"levelo_inurba_marseille","lat":43.28419,"lon":5.34989,"is_reserved":false,"is_disabled":false,"rental_uris":{"android":"levelo://app?vid=95aaeccb-3e18-4e2e-8aba-611cc865f1cb","ios":"levelo://app?vid=95aaeccb-3e18-4e2e-8aba-611cc865f1cb"},"vehicle_type_id":"4","last_reported":1774374448,"current_range_meters":2800,"station_id":"ce4bhbh2rcd13ifvqepg","pricing_plan_id":"cebpf4jnsgd1na2vs0mg"},{"bike_id":"469325bd-0016-4fdc-9821-af6425289f9f","system_id":"levelo_inurba_marseille","lat":43.27373,"lon":5.36257,"is_reserved":false,"is_disabled":false,"rental_uris":{"android":"levelo://app?vid=469325bd-0016-4fdc-9821-af6425289f9f","ios":"levelo://app?vid=469325bd-0016-4fdc-9821-af6425289f9f"},"vehicle_type_id":"4","last_reported":1774374448,"current_range_meters":2800,"station_id":"ce4bhbh2rcd13ifvqeo0","pricing_plan_id":"cebpf4jnsgd1na2vs0mg"},{"bike_id":"4d88734a-162e-4307-92a3-61e5ee7aa63f","system_id":"levelo_inurba_marseille","lat":43.29205,"lon":5.42586,"is_reserved":false,"is_disabled":true,"rental_uris":{"android":"levelo://app?vid=4d88734a-162e-4307-92a3-61e5ee7aa63f","ios":"levelo://app?vid=4d88734a-162e-4307-92a3-61e5ee7aa63f"},"vehicle_type_id":"4","last_reported":1774374448,"current_range_meters":2800,"station_id":"","pricing_plan_id":"cebpf4jnsgd1na2vs0mg"},{"bike_id":"9f8c5aae-214b-4b16-b28e-49c211477f37","system_id":"levelo_inurba_marseille","lat":43.28538,"lon":5.44131,"is_reserved":false,"is_disabled":false,"rental_uris":{"android":"levelo://app?vid=9f8c5aae-214b-4b16-b28e-49c211477f37","ios":"levelo://app?vid=9f8c5aae-214b-4b16-b28e-49c211477f37"},"vehicle_type_id":"4","last_reported":1774374448,"current_range_meters":2800,"station_id":"st_d3j3df2ikq2c7380ej80","pricing_plan_id":"cebpf4jnsgd1na2vs0mg"},{"bike_id":"108b8757-9352-4205-b75c-b1c56c7f2b59","system_id":"levelo_inurba_marseille","lat":43.28662,"lon":5.36349,"is_reserved":false,"is_disabled":false,"rental_uris":{"android":"levelo://app?vid=108b8757-9352-4205-b75c-b1c56c7f2b59","ios":"levelo://app?vid=108b8757-9352-4205-b75c-b1c56c7f2b59"},"vehicle_type_id":"4","last_reported":1774374448,"current_range_meters":2800,"station_id":"ce4bhah2rcd13ifvqej0","pricing_plan_id":"cebpf4jnsgd1na2vs0mg"},{"bike_id":"df1e314a-0a26-49bc-afda-b11e7b69aab1","system_id":"levelo_inurba_marseille","lat":43.26054,"lon":5.39404,"is_reserved":false,"is_disabled":false,"rental_uris":{"android":"levelo://app?vid=df1e314a-0a26-49bc-afda-b11e7b69aab1","ios":"levelo://app?vid=df1e314a-0a26-49bc-afda-b11e7b69aab1"},"vehicle_type_id":"4","last_reported":1774374448,"current_range_meters":3200,"station_id":"ce4bhh92rcd13ifvqfj0","pricing_plan_id":"cebpf4jnsgd1na2vs0mg"},{"bike_id":"25951204-07a0-4719-a5f5-1a705c2432c7","system_id":"levelo_inurba_marseille","lat":43.28265,"lon":5.35066,"is_reserved":false,"is_disabled":false,"rental_uris":{"android":"levelo://app?vid=25951204-07a0-4719-a5f5-1a705c2432c7","ios":"levelo://app?vid=25951204-07a0-4719-a5f5-1a705c2432c7"},"vehicle_type_id":"4","last_reported":1774374448,"current_range_meters":3200,"station_id":"ce4bhbp2rcd13ifvqerg","pricing_plan_id":"cebpf4jnsgd1na2vs0mg"},{"bike_id":"c49e9578-571f-4887-a4b2-b47715463765","system_id":"levelo_inurba_marseille","lat":43.27364,"lon":5.36185,"is_reserved":false,"is_disabled":false,"rental_uris":{"android":"levelo://app?vid=c49e9578-571f-4887-a4b2-b47715463765","ios":"levelo://app?vid=c49e9578-571f-4887-a4b2-b47715463765"},"vehicle_type_id":"4","last_reported":1774374448,"current_range_meters":3200,"station_id":"","pricing_plan_id":"cebpf4jnsgd1na2vs0mg"},{"bike_id":"0985f954-92f9-461f-b427-f3b65a2b2aed","system_id":"levelo_inurba_marseille","lat":43.231847,"lon":5.399798,"is_reserved":false,"is_disabled":false,"rental_uris":{"android":"levelo://app?vid=0985f954-92f9-461f-b427-f3b65a2b2aed","ios":"levelo://app?vid=0985f954-92f9-461f-b427-f3b65a2b2aed"},"vehicle_type_id":"4","last_reported":1774374448,"current_range_meters":3200,"station_id":"ce4bhn12rcd13ifvqgqg","pricing_plan_id":"cebpf4jnsgd1na2vs0mg"},{"bike_id":"67a60bb8-f9d8-4dda-8509-6e87138f0df2","system_id":"levelo_inurba_marseille","lat":43.30242,"lon":5.40066,"is_reserved":false,"is_disabled":true,"rental_uris":{"android":"levelo://app?vid=67a60bb8-f9d8-4dda-8509-6e87138f0df2","ios":"levelo://app?vid=67a60bb8-f9d8-4dda-8509-6e87138f0df2"},"vehicle_type_id":"4","last_reported":1774374448,"current_range_meters":3200,"station_id":"ce4bgvh2rcd13ifvqcs0","pricing_plan_id":"cebpf4jnsgd1na2vs0mg"},{"bike_id":"b9a275c9-d51f-4f11-a776-e728aae18c62","system_id":"levelo_inurba_marseille","lat":43.25345,"lon":5.42147,"is_reserved":false,"is_disabled":false,"rental_uris":{"android":"levelo://app?vid=b9a275c9-d51f-4f11-a776-e728aae18c62","ios":"levelo://app?vid=b9a275c9-d51f-4f11-a776-e728aae18c62"},"vehicle_type_id":"4","last_reported":1774374448,"current_range_meters":3200,"station_id":"st_d2m65c5bi1j21697t3ng","pricing_plan_id":"cebpf4jnsgd1na2vs0mg"},{"bike_id":"1ee1ba5a-a82d-45bb-abfb-aee17c5434f2","system_id":"levelo_inurba_marseille","lat":43.25586,"lon":5.3823,"is_reserved":false,"is_disabled":false,"rental_uris":{"android":"levelo://app?vid=1ee1ba5a-a82d-45bb-abfb-aee17c5434f2","ios":"levelo://app?vid=1ee1ba5a-a82d-45bb-abfb-aee17c5434f2"},"vehicle_type_id":"4","last_reported":1774374448,"current_range_meters":3200,"station_id":"ce4bhih2rcd13ifvqfs0","pricing_plan_id":"cebpf4jnsgd1na2vs0mg"},{"bike_id":"ffaa6c31-4420-4764-96af-6063a29abc47","system_id":"levelo_inurba_marseille","lat":43.2721,"lon":5.39183,"is_reserved":false,"is_disabled":false,"rental_uris":{"android":"levelo://app?vid=ffaa6c31-4420-4764-96af-6063a29abc47","ios":"levelo://app?vid=ffaa6c31-4420-4764-96af-6063a29abc47"},"vehicle_type_id":"4","last_reported":1774374448,"current_range_meters":3200,"station_id":"ce4bhhp2rcd13ifvqfm0","pricing_plan_id":"cebpf4jnsgd1na2vs0mg"},{"bike_id":"fc01f500-c5b2-4e19-9790-5c9207f665dc","system_id":"levelo_inurba_marseille","lat":43.25354,"lon":5.42167,"is_reserved":false,"is_disabled":false,"rental_uris":{"android":"levelo://app?vid=fc01f500-c5b2-4e19-9790-5c9207f665dc","ios":"levelo://app?vid=fc01f500-c5b2-4e19-9790-5c9207f665dc"},"vehicle_type_id":"4","last_reported":1774374448,"current_range_meters":3200,"station_id":"st_d2m65c5bi1j21697t3ng","pricing_plan_id":"cebpf4jnsgd1na2vs0mg"},{"bike_id":"87cab354-e36c-4dc9-949d-1832434988fa","system_id":"levelo_inurba_marseille","lat":43.31323,"lon":5.38463,"is_reserved":false,"is_disabled":false,"rental_uris":{"android":"levelo://app?vid=87cab354-e36c-4dc9-949d-1832434988fa","ios":"levelo://app?vid=87cab354-e36c-4dc9-949d-1832434988fa"},"vehicle_type_id":"4","last_reported":1774374448,"current_range_meters":3200,"station_id":"ce4bgt92rcd13ifvqcf0","pricing_plan_id":"cebpf4jnsgd1na2vs0mg"},{"bike_id":"089e06e6-1298-47f1-b02b-d9167bad50df","system_id":"levelo_inurba_marseille","lat":43.28937,"lon":5.366407,"is_reserved":false,"is_disabled":false,"rental_uris":{"android":"levelo://app?vid=089e06e6-1298-47f1-b02b-d9167bad50df","ios":"levelo://app?vid=089e06e6-1298-47f1-b02b-d9167bad50df"},"vehicle_type_id":"4","last_reported":1774374448,"current_range_meters":3200,"station_id":"ce4bhap2rcd13ifvqek0","pricing_plan_id":"cebpf4jnsgd1na2vs0mg"},{"bike_id":"1b00f628-09d7-4302-8a2b-f8b9ab5c02b7","system_id":"levelo_inurba_marseille","lat":43.30598,"lon":5.39356,"is_reserved":false,"is_disabled":false,"rental_uris":{"android":"levelo://app?vid=1b00f628-09d7-4302-8a2b-f8b9ab5c02b7","ios":"levelo://app?vid=1b00f628-09d7-4302-8a2b-f8b9ab5c02b7"},"vehicle_type_id":"4","last_reported":1774374448,"current_range_meters":3200,"station_id":"ce4bh0p2rcd13ifvqd80","pricing_plan_id":"cebpf4jnsgd1na2vs0mg"},{"bike_id":"3971414c-8763-4ed9-84d3-abbd3eb6fffa","system_id":"levelo_inurba_marseille","lat":43.26566,"lon":5.39008,"is_reserved":false,"is_disabled":false,"rental_uris":{"android":"levelo://app?vid=3971414c-8763-4ed9-84d3-abbd3eb6fffa","ios":"levelo://app?vid=3971414c-8763-4ed9-84d3-abbd3eb6fffa"},"vehicle_type_id":"4","last_reported":1774374448,"current_range_meters":3200,"station_id":"ce4bhe12rcd13ifvqf30","pricing_plan_id":"cebpf4jnsgd1na2vs0mg"},{"bike_id":"696cce58-6146-49c4-a51a-8c8cbaa09dcb","system_id":"levelo_inurba_marseille","lat":43.29538,"lon":5.39032,"is_reserved":false,"is_disabled":false,"rental_uris":{"android":"levelo://app?vid=696cce58-6146-49c4-a51a-8c8cbaa09dcb","ios":"levelo://app?vid=696cce58-6146-49c4-a51a-8c8cbaa09dcb"},"vehicle_type_id":"4","last_reported":1774374448,"current_range_meters":3600,"station_id":"ce4bh3p2rcd13ifvqdp0","pricing_plan_id":"cebpf4jnsgd1na2vs0mg"},{"bike_id":"f38cc4b9-3e93-424c-9816-2176913a6272","system_id":"levelo_inurba_marseille","lat":43.297945,"lon":5.38079,"is_reserved":false,"is_disabled":false,"rental_uris":{"android":"levelo://app?vid=f38cc4b9-3e93-424c-9816-2176913a6272","ios":"levelo://app?vid=f38cc4b9-3e93-424c-9816-2176913a6272"},"vehicle_type_id":"4","last_reported":1774374448,"current_range_meters":3600,"station_id":"ce4bh9p2rcd13ifvqed0","pricing_plan_id":"cebpf4jnsgd1na2vs0mg"},{"bike_id":"f7fa1ad5-099f-49b7-ba3e-26442c9181b9","system_id":"levelo_inurba_marseille","lat":43.30539,"lon":5.36551,"is_reserved":false,"is_disabled":true,"rental_uris":{"android":"levelo://app?vid=f7fa1ad5-099f-49b7-ba3e-26442c9181b9","ios":"levelo://app?vid=f7fa1ad5-099f-49b7-ba3e-26442c9181b9"},"vehicle_type_id":"4","last_reported":1774374448,"current_range_meters":3600,"station_id":"ce4bgs12rcd13ifvqcag","pricing_plan_id":"cebpf4jnsgd1na2vs0mg"},{"bike_id":"bbb20be4-a4e3-4756-bf9e-de6efa0abbb9","system_id":"levelo_inurba_marseille","lat":43.29197,"lon":5.42549,"is_reserved":false,"is_disabled":false,"rental_uris":{"android":"levelo://app?vid=bbb20be4-a4e3-4756-bf9e-de6efa0abbb9","ios":"levelo://app?vid=bbb20be4-a4e3-4756-bf9e-de6efa0abbb9"},"vehicle_type_id":"4","last_reported":1774374448,"current_range_meters":3600,"station_id":"","pricing_plan_id":"cebpf4jnsgd1na2vs0mg"},{"bike_id":"f63893af-a35a-4eb9-813e-1f210ce464b3","system_id":"levelo_inurba_marseille","lat":43.25504,"lon":5.37647,"is_reserved":false,"is_disabled":false,"rental_uris":{"android":"levelo://app?vid=f63893af-a35a-4eb9-813e-1f210ce464b3","ios":"levelo://app?vid=f63893af-a35a-4eb9-813e-1f210ce464b3"},"vehicle_type_id":"4","last_reported":1774374448,"current_range_meters":3600,"station_id":"ce4bhh12rcd13ifvqff0","pricing_plan_id":"cebpf4jnsgd1na2vs0mg"},{"bike_id":"6327bc96-3689-4658-9232-1493331d326a","system_id":"levelo_inurba_marseille","lat":43.28567,"lon":5.39502,"is_reserved":false,"is_disabled":false,"rental_uris":{"android":"levelo://app?vid=6327bc96-3689-4658-9232-1493331d326a","ios":"levelo://app?vid=6327bc96-3689-4658-9232-1493331d326a"},"vehicle_type_id":"4","last_reported":1774374448,"current_range_meters":3600,"station_id":"ce4bh292rcd13ifvqdg0","pricing_plan_id":"cebpf4jnsgd1na2vs0mg"},{"bike_id":"c1ea415a-8949-4649-881c-eefa44f9fe7a","system_id":"levelo_inurba_marseille","lat":43.27816,"lon":5.40705,"is_reserved":false,"is_disabled":false,"rental_uris":{"android":"levelo://app?vid=c1ea415a-8949-4649-881c-eefa44f9fe7a","ios":"levelo://app?vid=c1ea415a-8949-4649-881c-eefa44f9fe7a"},"vehicle_type_id":"4","last_reported":1774374448,"current_range_meters":3600,"station_id":"ce4bhnh2rcd13ifvqgtg","pricing_plan_id":"cebpf4jnsgd1na2vs0mg"},{"bike_id":"30d92e45-092f-488a-a382-374e9f623563","system_id":"levelo_inurba_marseille","lat":43.22931,"lon":5.35377,"is_reserved":false,"is_disabled":false,"rental_uris":{"android":"levelo://app?vid=30d92e45-092f-488a-a382-374e9f623563","ios":"levelo://app?vid=30d92e45-092f-488a-a382-374e9f623563"},"vehicle_type_id":"4","last_reported":1774374448,"current_range_meters":3600,"station_id":"cpo3532slgdg3j2ikp40","pricing_plan_id":"cebpf4jnsgd1na2vs0mg"},{"bike_id":"d54fd65a-b53f-45cb-be71-8956162ea6e2","system_id":"levelo_inurba_marseille","lat":43.27375,"lon":5.36262,"is_reserved":false,"is_disabled":false,"rental_uris":{"android":"levelo://app?vid=d54fd65a-b53f-45cb-be71-8956162ea6e2","ios":"levelo://app?vid=d54fd65a-b53f-45cb-be71-8956162ea6e2"},"vehicle_type_id":"4","last_reported":1774374448,"current_range_meters":4000,"station_id":"ce4bhbh2rcd13ifvqeo0","pricing_plan_id":"cebpf4jnsgd1na2vs0mg"},{"bike_id":"d28d3448-6ad2-4f43-9de6-2909e1c9d766","system_id":"levelo_inurba_marseille","lat":43.28611,"lon":5.37063,"is_reserved":false,"is_disabled":false,"rental_uris":{"android":"levelo://app?vid=d28d3448-6ad2-4f43-9de6-2909e1c9d766","ios":"levelo://app?vid=d28d3448-6ad2-4f43-9de6-2909e1c9d766"},"vehicle_type_id":"4","last_reported":1774374448,"current_range_meters":4000,"station_id":"ce4bht12rcd13ifvqi60","pricing_plan_id":"cebpf4jnsgd1na2vs0mg"},{"bike_id":"bbcec521-b2cb-4752-a30b-3cc813f9ce07","system_id":"levelo_inurba_marseille","lat":43.28757,"lon":5.44826,"is_reserved":false,"is_disabled":false,"rental_uris":{"android":"levelo://app?vid=bbcec521-b2cb-4752-a30b-3cc813f9ce07","ios":"levelo://app?vid=bbcec521-b2cb-4752-a30b-3cc813f9ce07"},"vehicle_type_id":"4","last_reported":1774374448,"current_range_meters":4000,"station_id":"","pricing_plan_id":"cebpf4jnsgd1na2vs0mg"},{"bike_id":"40906df4-17dd-4d9f-ac1f-0880c5eb117e","system_id":"levelo_inurba_marseille","lat":43.32363,"lon":5.3675,"is_reserved":false,"is_disabled":false,"rental_uris":{"android":"levelo://app?vid=40906df4-17dd-4d9f-ac1f-0880c5eb117e","ios":"levelo://app?vid=40906df4-17dd-4d9f-ac1f-0880c5eb117e"},"vehicle_type_id":"4","last_reported":1774374448,"current_range_meters":4400,"station_id":"ce4bhsh2rcd13ifvqi2g","pricing_plan_id":"cebpf4jnsgd1na2vs0mg"},{"bike_id":"60d52b15-5c70-4533-a04f-87fb7048b55f","system_id":"levelo_inurba_marseille","lat":43.25501,"lon":5.3765,"is_reserved":false,"is_disabled":false,"rental_uris":{"android":"levelo://app?vid=60d52b15-5c70-4533-a04f-87fb7048b55f","ios":"levelo://app?vid=60d52b15-5c70-4533-a04f-87fb7048b55f"},"vehicle_type_id":"4","last_reported":1774374448,"current_range_meters":4400,"station_id":"ce4bhh12rcd13ifvqff0","pricing_plan_id":"cebpf4jnsgd1na2vs0mg"},{"bike_id":"e41c893a-4032-48f3-bf3a-8efcbfe1465c","system_id":"levelo_inurba_marseille","lat":43.25844,"lon":5.39443,"is_reserved":false,"is_disabled":true,"rental_uris":{"android":"levelo://app?vid=e41c893a-4032-48f3-bf3a-8efcbfe1465c","ios":"levelo://app?vid=e41c893a-4032-48f3-bf3a-8efcbfe1465c"},"vehicle_type_id":"4","last_reported":1774374448,"current_range_meters":4400,"station_id":"ce4bhip2rcd13ifvqft0","pricing_plan_id":"cebpf4jnsgd1na2vs0mg"},{"bike_id":"19a6325e-af45-41c2-bbca-14b8a136ed80","system_id":"levelo_inurba_marseille","lat":43.2586,"lon":5.39902,"is_reserved":false,"is_disabled":false,"rental_uris":{"android":"levelo://app?vid=19a6325e-af45-41c2-bbca-14b8a136ed80","ios":"levelo://app?vid=19a6325e-af45-41c2-bbca-14b8a136ed80"},"vehicle_type_id":"4","last_reported":1774374448,"current_range_meters":4400,"station_id":"ce4bhl92rcd13ifvqghg","pricing_plan_id":"cebpf4jnsgd1na2vs0mg"},{"bike_id":"95af4c9e-a5dd-4e09-b63a-5b344598613e","system_id":"levelo_inurba_marseille","lat":43.22943,"lon":5.35368,"is_reserved":false,"is_disabled":false,"rental_uris":{"android":"levelo://app?vid=95af4c9e-a5dd-4e09-b63a-5b344598613e","ios":"levelo://app?vid=95af4c9e-a5dd-4e09-b63a-5b344598613e"},"vehicle_type_id":"4","last_reported":1774374448,"current_range_meters":4400,"station_id":"cpo3532slgdg3j2ikp40","pricing_plan_id":"cebpf4jnsgd1na2vs0mg"},{"bike_id":"50bfd2a9-ebb3-4d6a-b412-9f78fb84df7e","system_id":"levelo_inurba_marseille","lat":43.27701,"lon":5.38934,"is_reserved":false,"is_disabled":false,"rental_uris":{"android":"levelo://app?vid=50bfd2a9-ebb3-4d6a-b412-9f78fb84df7e","ios":"levelo://app?vid=50bfd2a9-ebb3-4d6a-b412-9f78fb84df7e"},"vehicle_type_id":"4","last_reported":1774374448,"current_range_meters":4400,"station_id":"","pricing_plan_id":"cebpf4jnsgd1na2vs0mg"},{"bike_id":"1519cb30-4140-46f9-85e1-fff09cc83a5e","system_id":"levelo_inurba_marseille","lat":43.27373,"lon":5.36254,"is_reserved":false,"is_disabled":false,"rental_uris":{"android":"levelo://app?vid=1519cb30-4140-46f9-85e1-fff09cc83a5e","ios":"levelo://app?vid=1519cb30-4140-46f9-85e1-fff09cc83a5e"},"vehicle_type_id":"4","last_reported":1774374448,"current_range_meters":4400,"station_id":"ce4bhbh2rcd13ifvqeo0","pricing_plan_id":"cebpf4jnsgd1na2vs0mg"},{"bike_id":"69a34fac-fc80-43dc-bb66-91eee3bdfb90","system_id":"levelo_inurba_marseille","lat":43.28739,"lon":5.35437,"is_reserved":false,"is_disabled":false,"rental_uris":{"android":"levelo://app?vid=69a34fac-fc80-43dc-bb66-91eee3bdfb90","ios":"levelo://app?vid=69a34fac-fc80-43dc-bb66-91eee3bdfb90"},"vehicle_type_id":"4","last_reported":1774374448,"current_range_meters":4400,"station_id":"","pricing_plan_id":"cebpf4jnsgd1na2vs0mg"},{"bike_id":"ec16210a-77b7-4f46-bf16-9858cc83660a","system_id":"levelo_inurba_marseille","lat":43.30781,"lon":5.37647,"is_reserved":false,"is_disabled":false,"rental_uris":{"android":"levelo://app?vid=ec16210a-77b7-4f46-bf16-9858cc83660a","ios":"levelo://app?vid=ec16210a-77b7-4f46-bf16-9858cc83660a"},"vehicle_type_id":"4","last_reported":1774374448,"current_range_meters":4400,"station_id":"ce4bgv92rcd13ifvqcq0","pricing_plan_id":"cebpf4jnsgd1na2vs0mg"},{"bike_id":"e032ab58-6cd1-4dde-af1f-11967a9af0ed","system_id":"levelo_inurba_marseille","lat":43.24684,"lon":5.38178,"is_reserved":false,"is_disabled":false,"rental_uris":{"android":"levelo://app?vid=e032ab58-6cd1-4dde-af1f-11967a9af0ed","ios":"levelo://app?vid=e032ab58-6cd1-4dde-af1f-11967a9af0ed"},"vehicle_type_id":"4","last_reported":1774374448,"current_range_meters":4400,"station_id":"","pricing_plan_id":"cebpf4jnsgd1na2vs0mg"},{"bike_id":"d2260517-36eb-498b-95a6-a249410b03cf","system_id":"levelo_inurba_marseille","lat":43.26575,"lon":5.39803,"is_reserved":false,"is_disabled":false,"rental_uris":{"android":"levelo://app?vid=d2260517-36eb-498b-95a6-a249410b03cf","ios":"levelo://app?vid=d2260517-36eb-498b-95a6-a249410b03cf"},"vehicle_type_id":"4","last_reported":1774374448,"current_range_meters":4400,"station_id":"","pricing_plan_id":"cebpf4jnsgd1na2vs0mg"},{"bike_id":"e77af5c4-589b-4280-8655-80fc94cd36db","system_id":"levelo_inurba_marseille","lat":43.27376,"lon":5.36251,"is_reserved":false,"is_disabled":false,"rental_uris":{"android":"levelo://app?vid=e77af5c4-589b-4280-8655-80fc94cd36db","ios":"levelo://app?vid=e77af5c4-589b-4280-8655-80fc94cd36db"},"vehicle_type_id":"4","last_reported":1774374448,"current_range_meters":4400,"station_id":"ce4bhbh2rcd13ifvqeo0","pricing_plan_id":"cebpf4jnsgd1na2vs0mg"},{"bike_id":"3ddfb3ab-8dac-4fcd-8425-0c0ed1044766","system_id":"levelo_inurba_marseille","lat":43.23191,"lon":5.39997,"is_reserved":false,"is_disabled":false,"rental_uris":{"android":"levelo://app?vid=3ddfb3ab-8dac-4fcd-8425-0c0ed1044766","ios":"levelo://app?vid=3ddfb3ab-8dac-4fcd-8425-0c0ed1044766"},"vehicle_type_id":"4","last_reported":1774374448,"current_range_meters":4400,"station_id":"ce4bhn12rcd13ifvqgqg","pricing_plan_id":"cebpf4jnsgd1na2vs0mg"},{"bike_id":"a2fabdf4-bd61-4352-82b4-201f5349c59d","system_id":"levelo_inurba_marseille","lat":43.26559,"lon":5.39015,"is_reserved":false,"is_disabled":false,"rental_uris":{"android":"levelo://app?vid=a2fabdf4-bd61-4352-82b4-201f5349c59d","ios":"levelo://app?vid=a2fabdf4-bd61-4352-82b4-201f5349c59d"},"vehicle_type_id":"4","last_reported":1774374448,"current_range_meters":4800,"station_id":"ce4bhe12rcd13ifvqf30","pricing_plan_id":"cebpf4jnsgd1na2vs0mg"},{"bike_id":"0b3d75aa-7761-492a-9d31-66dd929480e5","system_id":"levelo_inurba_marseille","lat":43.28475,"lon":5.38403,"is_reserved":false,"is_disabled":false,"rental_uris":{"android":"levelo://app?vid=0b3d75aa-7761-492a-9d31-66dd929480e5","ios":"levelo://app?vid=0b3d75aa-7761-492a-9d31-66dd929480e5"},"vehicle_type_id":"4","last_reported":1774374448,"current_range_meters":4800,"station_id":"ce4bh512rcd13ifvqe3g","pricing_plan_id":"cebpf4jnsgd1na2vs0mg"},{"bike_id":"1d0f3067-7ca2-4fbd-8b40-b921c6748a4a","system_id":"levelo_inurba_marseille","lat":43.28484,"lon":5.48358,"is_reserved":false,"is_disabled":false,"rental_uris":{"android":"levelo://app?vid=1d0f3067-7ca2-4fbd-8b40-b921c6748a4a","ios":"levelo://app?vid=1d0f3067-7ca2-4fbd-8b40-b921c6748a4a"},"vehicle_type_id":"4","last_reported":1774374448,"current_range_meters":4800,"station_id":"","pricing_plan_id":"cebpf4jnsgd1na2vs0mg"},{"bike_id":"58da38a9-dad2-464f-a10a-fb486fca1caf","system_id":"levelo_inurba_marseille","lat":43.28211,"lon":5.40576,"is_reserved":false,"is_disabled":false,"rental_uris":{"android":"levelo://app?vid=58da38a9-dad2-464f-a10a-fb486fca1caf","ios":"levelo://app?vid=58da38a9-dad2-464f-a10a-fb486fca1caf"},"vehicle_type_id":"4","last_reported":1774374448,"current_range_meters":4800,"station_id":"","pricing_plan_id":"cebpf4jnsgd1na2vs0mg"},{"bike_id":"185d83a4-cef5-4c72-9f4f-f216f4870c2c","system_id":"levelo_inurba_marseille","lat":43.29307,"lon":5.37175,"is_reserved":false,"is_disabled":false,"rental_uris":{"android":"levelo://app?vid=185d83a4-cef5-4c72-9f4f-f216f4870c2c","ios":"levelo://app?vid=185d83a4-cef5-4c72-9f4f-f216f4870c2c"},"vehicle_type_id":"4","last_reported":1774374448,"current_range_meters":4800,"station_id":"ce4bgh92rcd13ifvqb40","pricing_plan_id":"cebpf4jnsgd1na2vs0mg"},{"bike_id":"6e7f97ec-4960-44ac-8a8c-505ca39edefe","system_id":"levelo_inurba_marseille","lat":43.28607,"lon":5.39908,"is_reserved":false,"is_disabled":false,"rental_uris":{"android":"levelo://app?vid=6e7f97ec-4960-44ac-8a8c-505ca39edefe","ios":"levelo://app?vid=6e7f97ec-4960-44ac-8a8c-505ca39edefe"},"vehicle_type_id":"4","last_reported":1774374448,"current_range_meters":4800,"station_id":"ce4bho92rcd13ifvqh3g","pricing_plan_id":"cebpf4jnsgd1na2vs0mg"},{"bike_id":"2c9b0b7e-61f0-4ab5-a484-f1e10de346e3","system_id":"levelo_inurba_marseille","lat":43.30205,"lon":5.39464,"is_reserved":false,"is_disabled":false,"rental_uris":{"android":"levelo://app?vid=2c9b0b7e-61f0-4ab5-a484-f1e10de346e3","ios":"levelo://app?vid=2c9b0b7e-61f0-4ab5-a484-f1e10de346e3"},"vehicle_type_id":"4","last_reported":1774374448,"current_range_meters":4800,"station_id":"ce4bh0p2rcd13ifvqd70","pricing_plan_id":"cebpf4jnsgd1na2vs0mg"},{"bike_id":"40d449aa-82c8-4872-912a-7811fa6e87e7","system_id":"levelo_inurba_marseille","lat":43.27372,"lon":5.36262,"is_reserved":false,"is_disabled":false,"rental_uris":{"android":"levelo://app?vid=40d449aa-82c8-4872-912a-7811fa6e87e7","ios":"levelo://app?vid=40d449aa-82c8-4872-912a-7811fa6e87e7"},"vehicle_type_id":"4","last_reported":1774374448,"current_range_meters":4800,"station_id":"ce4bhbh2rcd13ifvqeo0","pricing_plan_id":"cebpf4jnsgd1na2vs0mg"},{"bike_id":"7a4e7ff2-3294-4ff2-89ac-03e23f2d77c0","system_id":"levelo_inurba_marseille","lat":43.27607,"lon":5.36121,"is_reserved":false,"is_disabled":false,"rental_uris":{"android":"levelo://app?vid=7a4e7ff2-3294-4ff2-89ac-03e23f2d77c0","ios":"levelo://app?vid=7a4e7ff2-3294-4ff2-89ac-03e23f2d77c0"},"vehicle_type_id":"4","last_reported":1774374448,"current_range_meters":4800,"station_id":"ce4bgj92rcd13ifvqbe0","pricing_plan_id":"cebpf4jnsgd1na2vs0mg"},{"bike_id":"342f2b15-f86c-4df1-a15f-abd49a145dc3","system_id":"levelo_inurba_marseille","lat":43.29188,"lon":5.35803,"is_reserved":false,"is_disabled":false,"rental_uris":{"android":"levelo://app?vid=342f2b15-f86c-4df1-a15f-abd49a145dc3","ios":"levelo://app?vid=342f2b15-f86c-4df1-a15f-abd49a145dc3"},"vehicle_type_id":"4","last_reported":1774374448,"current_range_meters":4800,"station_id":"ce4bhb12rcd13ifvqel0","pricing_plan_id":"cebpf4jnsgd1na2vs0mg"},{"bike_id":"d89b1915-483d-4d09-b44a-47b8df915eef","system_id":"levelo_inurba_marseille","lat":43.23117,"lon":5.35484,"is_reserved":false,"is_disabled":false,"rental_uris":{"android":"levelo://app?vid=d89b1915-483d-4d09-b44a-47b8df915eef","ios":"levelo://app?vid=d89b1915-483d-4d09-b44a-47b8df915eef"},"vehicle_type_id":"4","last_reported":1774374448,"current_range_meters":4800,"station_id":"","pricing_plan_id":"cebpf4jnsgd1na2vs0mg"},{"bike_id":"e66677b2-bf18-4c7d-9a09-861fa02d7500","system_id":"levelo_inurba_marseille","lat":43.25571,"lon":5.38231,"is_reserved":false,"is_disabled":false,"rental_uris":{"android":"levelo://app?vid=e66677b2-bf18-4c7d-9a09-861fa02d7500","ios":"levelo://app?vid=e66677b2-bf18-4c7d-9a09-861fa02d7500"},"vehicle_type_id":"4","last_reported":1774374448,"current_range_meters":4800,"station_id":"ce4bhih2rcd13ifvqfs0","pricing_plan_id":"cebpf4jnsgd1na2vs0mg"},{"bike_id":"ed1f4c5f-2caa-43e7-b4e0-5dd19fc85a97","system_id":"levelo_inurba_marseille","lat":43.24652,"lon":5.38893,"is_reserved":false,"is_disabled":false,"rental_uris":{"android":"levelo://app?vid=ed1f4c5f-2caa-43e7-b4e0-5dd19fc85a97","ios":"levelo://app?vid=ed1f4c5f-2caa-43e7-b4e0-5dd19fc85a97"},"vehicle_type_id":"4","last_reported":1774374448,"current_range_meters":4800,"station_id":"ce4bhg12rcd13ifvqf60","pricing_plan_id":"cebpf4jnsgd1na2vs0mg"},{"bike_id":"6e6161fe-edfa-4833-a177-c1358d249809","system_id":"levelo_inurba_marseille","lat":43.31222,"lon":5.38716,"is_reserved":false,"is_disabled":true,"rental_uris":{"android":"levelo://app?vid=6e6161fe-edfa-4833-a177-c1358d249809","ios":"levelo://app?vid=6e6161fe-edfa-4833-a177-c1358d249809"},"vehicle_type_id":"4","last_reported":1774374448,"current_range_meters":5600,"station_id":"","pricing_plan_id":"cebpf4jnsgd1na2vs0mg"},{"bike_id":"aa929685-e4dd-4a31-a1c6-979463fa81a3","system_id":"levelo_inurba_marseille","lat":43.2849,"lon":5.48377,"is_reserved":false,"is_disabled":false,"rental_uris":{"android":"levelo://app?vid=aa929685-e4dd-4a31-a1c6-979463fa81a3","ios":"levelo://app?vid=aa929685-e4dd-4a31-a1c6-979463fa81a3"},"vehicle_type_id":"4","last_reported":1774374448,"current_range_meters":5600,"station_id":"st_d3svhcjqgbts73a3dn0g","pricing_plan_id":"cebpf4jnsgd1na2vs0mg"},{"bike_id":"4ce98637-072f-4197-bd69-11f207a88eab","system_id":"levelo_inurba_marseille","lat":43.28496,"lon":5.47279,"is_reserved":false,"is_disabled":false,"rental_uris":{"android":"levelo://app?vid=4ce98637-072f-4197-bd69-11f207a88eab","ios":"levelo://app?vid=4ce98637-072f-4197-bd69-11f207a88eab"},"vehicle_type_id":"4","last_reported":1774374448,"current_range_meters":5600,"station_id":"","pricing_plan_id":"cebpf4jnsgd1na2vs0mg"},{"bike_id":"62b4b24a-25c2-413c-a9e9-7d8f1f6621f7","system_id":"levelo_inurba_marseille","lat":43.24473,"lon":5.42531,"is_reserved":false,"is_disabled":false,"rental_uris":{"android":"levelo://app?vid=62b4b24a-25c2-413c-a9e9-7d8f1f6621f7","ios":"levelo://app?vid=62b4b24a-25c2-413c-a9e9-7d8f1f6621f7"},"vehicle_type_id":"4","last_reported":1774374448,"current_range_meters":5600,"station_id":"st_d4a3vfp97mjs738cd8kg","pricing_plan_id":"cebpf4jnsgd1na2vs0mg"},{"bike_id":"b2da6f3d-1e4f-4582-b96b-f070d7f08236","system_id":"levelo_inurba_marseille","lat":43.28776,"lon":5.35224,"is_reserved":false,"is_disabled":false,"rental_uris":{"android":"levelo://app?vid=b2da6f3d-1e4f-4582-b96b-f070d7f08236","ios":"levelo://app?vid=b2da6f3d-1e4f-4582-b96b-f070d7f08236"},"vehicle_type_id":"4","last_reported":1774374448,"current_range_meters":5600,"station_id":"","pricing_plan_id":"cebpf4jnsgd1na2vs0mg"},{"bike_id":"46aa2573-c8c4-4fba-942c-3544d686fb6d","system_id":"levelo_inurba_marseille","lat":43.30451,"lon":5.3889,"is_reserved":false,"is_disabled":false,"rental_uris":{"android":"levelo://app?vid=46aa2573-c8c4-4fba-942c-3544d686fb6d","ios":"levelo://app?vid=46aa2573-c8c4-4fba-942c-3544d686fb6d"},"vehicle_type_id":"4","last_reported":1774374448,"current_range_meters":5600,"station_id":"ce4bgk12rcd13ifvqbi0","pricing_plan_id":"cebpf4jnsgd1na2vs0mg"},{"bike_id":"c76b377e-0060-4be7-aebe-7351859ef346","system_id":"levelo_inurba_marseille","lat":43.24083,"lon":5.37743,"is_reserved":false,"is_disabled":false,"rental_uris":{"android":"levelo://app?vid=c76b377e-0060-4be7-aebe-7351859ef346","ios":"levelo://app?vid=c76b377e-0060-4be7-aebe-7351859ef346"},"vehicle_type_id":"4","last_reported":1774374448,"current_range_meters":5600,"station_id":"ce4bhnp2rcd13ifvqgvg","pricing_plan_id":"cebpf4jnsgd1na2vs0mg"},{"bike_id":"a4e83051-4245-4a7a-b125-d6c63109ccef","system_id":"levelo_inurba_marseille","lat":43.28468,"lon":5.35887,"is_reserved":false,"is_disabled":false,"rental_uris":{"android":"levelo://app?vid=a4e83051-4245-4a7a-b125-d6c63109ccef","ios":"levelo://app?vid=a4e83051-4245-4a7a-b125-d6c63109ccef"},"vehicle_type_id":"4","last_reported":1774374448,"current_range_meters":5600,"station_id":"ce4bhah2rcd13ifvqei0","pricing_plan_id":"cebpf4jnsgd1na2vs0mg"},{"bike_id":"2dde28ef-bd60-4e6e-936b-3da2f8f0ab64","system_id":"levelo_inurba_marseille","lat":43.28676,"lon":5.38665,"is_reserved":false,"is_disabled":false,"rental_uris":{"android":"levelo://app?vid=2dde28ef-bd60-4e6e-936b-3da2f8f0ab64","ios":"levelo://app?vid=2dde28ef-bd60-4e6e-936b-3da2f8f0ab64"},"vehicle_type_id":"4","last_reported":1774374448,"current_range_meters":5600,"station_id":"ce4bh492rcd13ifvqdug","pricing_plan_id":"cebpf4jnsgd1na2vs0mg"},{"bike_id":"ab65cb01-84f8-408a-af99-f3469b21342c","system_id":"levelo_inurba_marseille","lat":43.29532,"lon":5.3854,"is_reserved":false,"is_disabled":false,"rental_uris":{"android":"levelo://app?vid=ab65cb01-84f8-408a-af99-f3469b21342c","ios":"levelo://app?vid=ab65cb01-84f8-408a-af99-f3469b21342c"},"vehicle_type_id":"4","last_reported":1774374448,"current_range_meters":6000,"station_id":"ce4bgih2rcd13ifvqba0","pricing_plan_id":"cebpf4jnsgd1na2vs0mg"},{"bike_id":"7565457e-dd69-4cfd-8620-4952162d4a41","system_id":"levelo_inurba_marseille","lat":43.28585,"lon":5.39482,"is_reserved":false,"is_disabled":false,"rental_uris":{"android":"levelo://app?vid=7565457e-dd69-4cfd-8620-4952162d4a41","ios":"levelo://app?vid=7565457e-dd69-4cfd-8620-4952162d4a41"},"vehicle_type_id":"4","last_reported":1774374448,"current_range_meters":6000,"station_id":"ce4bh292rcd13ifvqdg0","pricing_plan_id":"cebpf4jnsgd1na2vs0mg"},{"bike_id":"f910acab-e234-4475-91c9-ec3fea6d1bf3","system_id":"levelo_inurba_marseille","lat":43.29918,"lon":5.43523,"is_reserved":false,"is_disabled":false,"rental_uris":{"android":"levelo://app?vid=f910acab-e234-4475-91c9-ec3fea6d1bf3","ios":"levelo://app?vid=f910acab-e234-4475-91c9-ec3fea6d1bf3"},"vehicle_type_id":"4","last_reported":1774374448,"current_range_meters":6000,"station_id":"ce4bhpp2rcd13ifvqhfg","pricing_plan_id":"cebpf4jnsgd1na2vs0mg"},{"bike_id":"253bfbd1-c3f6-4b72-a716-55890f3b4db7","system_id":"levelo_inurba_marseille","lat":43.28483,"lon":5.48401,"is_reserved":false,"is_disabled":false,"rental_uris":{"android":"levelo://app?vid=253bfbd1-c3f6-4b72-a716-55890f3b4db7","ios":"levelo://app?vid=253bfbd1-c3f6-4b72-a716-55890f3b4db7"},"vehicle_type_id":"4","last_reported":1774374448,"current_range_meters":6000,"station_id":"","pricing_plan_id":"cebpf4jnsgd1na2vs0mg"},{"bike_id":"e777dc2e-9308-43c6-a6be-09685ee35cc2","system_id":"levelo_inurba_marseille","lat":43.28519,"lon":5.44103,"is_reserved":false,"is_disabled":false,"rental_uris":{"android":"levelo://app?vid=e777dc2e-9308-43c6-a6be-09685ee35cc2","ios":"levelo://app?vid=e777dc2e-9308-43c6-a6be-09685ee35cc2"},"vehicle_type_id":"4","last_reported":1774374448,"current_range_meters":6000,"station_id":"st_d3j3df2ikq2c7380ej80","pricing_plan_id":"cebpf4jnsgd1na2vs0mg"},{"bike_id":"80edcf5d-76f7-4ac8-99bc-6edd05fd6fcc","system_id":"levelo_inurba_marseille","lat":43.26565,"lon":5.38995,"is_reserved":false,"is_disabled":false,"rental_uris":{"android":"levelo://app?vid=80edcf5d-76f7-4ac8-99bc-6edd05fd6fcc","ios":"levelo://app?vid=80edcf5d-76f7-4ac8-99bc-6edd05fd6fcc"},"vehicle_type_id":"4","last_reported":1774374448,"current_range_meters":6000,"station_id":"ce4bhe12rcd13ifvqf30","pricing_plan_id":"cebpf4jnsgd1na2vs0mg"},{"bike_id":"9be37a25-79de-43c2-b934-7db63853cf20","system_id":"levelo_inurba_marseille","lat":43.26556,"lon":5.37299,"is_reserved":false,"is_disabled":false,"rental_uris":{"android":"levelo://app?vid=9be37a25-79de-43c2-b934-7db63853cf20","ios":"levelo://app?vid=9be37a25-79de-43c2-b934-7db63853cf20"},"vehicle_type_id":"4","last_reported":1774374448,"current_range_meters":6000,"station_id":"ce4bhg12rcd13ifvqf70","pricing_plan_id":"cebpf4jnsgd1na2vs0mg"},{"bike_id":"0467a61b-3c6c-4519-8ae2-ab7b582ec154","system_id":"levelo_inurba_marseille","lat":43.24648,"lon":5.38912,"is_reserved":false,"is_disabled":false,"rental_uris":{"android":"levelo://app?vid=0467a61b-3c6c-4519-8ae2-ab7b582ec154","ios":"levelo://app?vid=0467a61b-3c6c-4519-8ae2-ab7b582ec154"},"vehicle_type_id":"4","last_reported":1774374448,"current_range_meters":6000,"station_id":"ce4bhg12rcd13ifvqf60","pricing_plan_id":"cebpf4jnsgd1na2vs0mg"},{"bike_id":"d754a161-551f-4193-b8cb-ebcca83b2ad4","system_id":"levelo_inurba_marseille","lat":43.24661,"lon":5.38892,"is_reserved":false,"is_disabled":false,"rental_uris":{"android":"levelo://app?vid=d754a161-551f-4193-b8cb-ebcca83b2ad4","ios":"levelo://app?vid=d754a161-551f-4193-b8cb-ebcca83b2ad4"},"vehicle_type_id":"4","last_reported":1774374448,"current_range_meters":6000,"station_id":"ce4bhg12rcd13ifvqf60","pricing_plan_id":"cebpf4jnsgd1na2vs0mg"},{"bike_id":"98aa1c8a-7d98-4320-b367-9e51480a2f7e","system_id":"levelo_inurba_marseille","lat":43.33541,"lon":5.37466,"is_reserved":false,"is_disabled":false,"rental_uris":{"android":"levelo://app?vid=98aa1c8a-7d98-4320-b367-9e51480a2f7e","ios":"levelo://app?vid=98aa1c8a-7d98-4320-b367-9e51480a2f7e"},"vehicle_type_id":"4","last_reported":1774374448,"current_range_meters":6000,"station_id":"st_d46tts09ee8s73dlu43g","pricing_plan_id":"cebpf4jnsgd1na2vs0mg"},{"bike_id":"d315d4d4-78e9-45de-8981-a7b0a1f81c91","system_id":"levelo_inurba_marseille","lat":43.27505,"lon":5.41613,"is_reserved":false,"is_disabled":false,"rental_uris":{"android":"levelo://app?vid=d315d4d4-78e9-45de-8981-a7b0a1f81c91","ios":"levelo://app?vid=d315d4d4-78e9-45de-8981-a7b0a1f81c91"},"vehicle_type_id":"4","last_reported":1774374448,"current_range_meters":6000,"station_id":"st_d6im8g6chgec73a5pndg","pricing_plan_id":"cebpf4jnsgd1na2vs0mg"},{"bike_id":"0e2f4137-e82a-401c-945f-6a1c7c098239","system_id":"levelo_inurba_marseille","lat":43.29618,"lon":5.37142,"is_reserved":false,"is_disabled":false,"rental_uris":{"android":"levelo://app?vid=0e2f4137-e82a-401c-945f-6a1c7c098239","ios":"levelo://app?vid=0e2f4137-e82a-401c-945f-6a1c7c098239"},"vehicle_type_id":"4","last_reported":1774374448,"current_range_meters":6400,"station_id":"ce4bgnh2rcd13ifvqc0g","pricing_plan_id":"cebpf4jnsgd1na2vs0mg"},{"bike_id":"d153865b-277c-49ad-92ee-2c9d0756119d","system_id":"levelo_inurba_marseille","lat":43.30638,"lon":5.40104,"is_reserved":false,"is_disabled":false,"rental_uris":{"android":"levelo://app?vid=d153865b-277c-49ad-92ee-2c9d0756119d","ios":"levelo://app?vid=d153865b-277c-49ad-92ee-2c9d0756119d"},"vehicle_type_id":"4","last_reported":1774374448,"current_range_meters":6400,"station_id":"ce4bh112rcd13ifvqda0","pricing_plan_id":"cebpf4jnsgd1na2vs0mg"},{"bike_id":"66bc15b2-13ed-4a49-bd14-8adabe091643","system_id":"levelo_inurba_marseille","lat":43.28691,"lon":5.37399,"is_reserved":false,"is_disabled":false,"rental_uris":{"android":"levelo://app?vid=66bc15b2-13ed-4a49-bd14-8adabe091643","ios":"levelo://app?vid=66bc15b2-13ed-4a49-bd14-8adabe091643"},"vehicle_type_id":"4","last_reported":1774374448,"current_range_meters":6400,"station_id":"ce4bh3p2rcd13ifvqdq0","pricing_plan_id":"cebpf4jnsgd1na2vs0mg"},{"bike_id":"b75036ac-d81d-4bfd-a9c8-a051a6ff39fe","system_id":"levelo_inurba_marseille","lat":43.28529,"lon":5.44126,"is_reserved":false,"is_disabled":false,"rental_uris":{"android":"levelo://app?vid=b75036ac-d81d-4bfd-a9c8-a051a6ff39fe","ios":"levelo://app?vid=b75036ac-d81d-4bfd-a9c8-a051a6ff39fe"},"vehicle_type_id":"4","last_reported":1774374448,"current_range_meters":6400,"station_id":"st_d3j3df2ikq2c7380ej80","pricing_plan_id":"cebpf4jnsgd1na2vs0mg"},{"bike_id":"77deb619-deef-42c1-ade2-8dca83a843fb","system_id":"levelo_inurba_marseille","lat":43.29193,"lon":5.44006,"is_reserved":false,"is_disabled":false,"rental_uris":{"android":"levelo://app?vid=77deb619-deef-42c1-ade2-8dca83a843fb","ios":"levelo://app?vid=77deb619-deef-42c1-ade2-8dca83a843fb"},"vehicle_type_id":"4","last_reported":1774374448,"current_range_meters":6400,"station_id":"","pricing_plan_id":"cebpf4jnsgd1na2vs0mg"},{"bike_id":"c3fb6ac0-526f-4836-98cf-d46bdb9ad792","system_id":"levelo_inurba_marseille","lat":43.31078,"lon":5.37162,"is_reserved":false,"is_disabled":false,"rental_uris":{"android":"levelo://app?vid=c3fb6ac0-526f-4836-98cf-d46bdb9ad792","ios":"levelo://app?vid=c3fb6ac0-526f-4836-98cf-d46bdb9ad792"},"vehicle_type_id":"4","last_reported":1774374448,"current_range_meters":6400,"station_id":"st_d4kl2rp97mjs73e7tdfg","pricing_plan_id":"cebpf4jnsgd1na2vs0mg"},{"bike_id":"ad90a540-33d9-4c5d-8885-869f37041cc4","system_id":"levelo_inurba_marseille","lat":43.29528,"lon":5.3853,"is_reserved":false,"is_disabled":false,"rental_uris":{"android":"levelo://app?vid=ad90a540-33d9-4c5d-8885-869f37041cc4","ios":"levelo://app?vid=ad90a540-33d9-4c5d-8885-869f37041cc4"},"vehicle_type_id":"4","last_reported":1774374448,"current_range_meters":6400,"station_id":"ce4bgih2rcd13ifvqba0","pricing_plan_id":"cebpf4jnsgd1na2vs0mg"},{"bike_id":"0b786319-6d9f-4d1c-890a-5150198e272a","system_id":"levelo_inurba_marseille","lat":43.28491,"lon":5.48366,"is_reserved":false,"is_disabled":false,"rental_uris":{"android":"levelo://app?vid=0b786319-6d9f-4d1c-890a-5150198e272a","ios":"levelo://app?vid=0b786319-6d9f-4d1c-890a-5150198e272a"},"vehicle_type_id":"4","last_reported":1774374448,"current_range_meters":6400,"station_id":"st_d3svhcjqgbts73a3dn0g","pricing_plan_id":"cebpf4jnsgd1na2vs0mg"},{"bike_id":"f35a9644-f102-427c-8b00-579a35988db3","system_id":"levelo_inurba_marseille","lat":43.21208,"lon":5.35083,"is_reserved":false,"is_disabled":false,"rental_uris":{"android":"levelo://app?vid=f35a9644-f102-427c-8b00-579a35988db3","ios":"levelo://app?vid=f35a9644-f102-427c-8b00-579a35988db3"},"vehicle_type_id":"4","last_reported":1774374448,"current_range_meters":6400,"station_id":"st_cvj6sg6p6f1abm77japg","pricing_plan_id":"cebpf4jnsgd1na2vs0mg"},{"bike_id":"f516cc9b-499e-4b5a-bb9c-2d2f8566fa3f","system_id":"levelo_inurba_marseille","lat":43.26941,"lon":5.40248,"is_reserved":false,"is_disabled":false,"rental_uris":{"android":"levelo://app?vid=f516cc9b-499e-4b5a-bb9c-2d2f8566fa3f","ios":"levelo://app?vid=f516cc9b-499e-4b5a-bb9c-2d2f8566fa3f"},"vehicle_type_id":"4","last_reported":1774374448,"current_range_meters":6400,"station_id":"cjm6bp8fraef2m0cb0m0","pricing_plan_id":"cebpf4jnsgd1na2vs0mg"},{"bike_id":"6b01ccce-722f-4e93-bb81-24eaa7b01904","system_id":"levelo_inurba_marseille","lat":43.28943,"lon":5.36652,"is_reserved":false,"is_disabled":false,"rental_uris":{"android":"levelo://app?vid=6b01ccce-722f-4e93-bb81-24eaa7b01904","ios":"levelo://app?vid=6b01ccce-722f-4e93-bb81-24eaa7b01904"},"vehicle_type_id":"4","last_reported":1774374448,"current_range_meters":6400,"station_id":"ce4bhap2rcd13ifvqek0","pricing_plan_id":"cebpf4jnsgd1na2vs0mg"},{"bike_id":"7e03e45c-d69c-4371-8267-aa26cde43729","system_id":"levelo_inurba_marseille","lat":43.25577,"lon":5.3824,"is_reserved":false,"is_disabled":true,"rental_uris":{"android":"levelo://app?vid=7e03e45c-d69c-4371-8267-aa26cde43729","ios":"levelo://app?vid=7e03e45c-d69c-4371-8267-aa26cde43729"},"vehicle_type_id":"4","last_reported":1774374448,"current_range_meters":6400,"station_id":"ce4bhih2rcd13ifvqfs0","pricing_plan_id":"cebpf4jnsgd1na2vs0mg"},{"bike_id":"1640993b-d278-49ed-aac8-4524836b0a26","system_id":"levelo_inurba_marseille","lat":43.28194,"lon":5.39039,"is_reserved":false,"is_disabled":true,"rental_uris":{"android":"levelo://app?vid=1640993b-d278-49ed-aac8-4524836b0a26","ios":"levelo://app?vid=1640993b-d278-49ed-aac8-4524836b0a26"},"vehicle_type_id":"4","last_reported":1774374448,"current_range_meters":6400,"station_id":"ce4bhn92rcd13ifvqgsg","pricing_plan_id":"cebpf4jnsgd1na2vs0mg"},{"bike_id":"e9b07658-a8f0-465c-b976-645cd41e5970","system_id":"levelo_inurba_marseille","lat":43.27179,"lon":5.4099,"is_reserved":false,"is_disabled":false,"rental_uris":{"android":"levelo://app?vid=e9b07658-a8f0-465c-b976-645cd41e5970","ios":"levelo://app?vid=e9b07658-a8f0-465c-b976-645cd41e5970"},"vehicle_type_id":"4","last_reported":1774374448,"current_range_meters":6400,"station_id":"ce4bhl12rcd13ifvqgf0","pricing_plan_id":"cebpf4jnsgd1na2vs0mg"},{"bike_id":"e94d83da-a52c-4009-83db-8b37093608a6","system_id":"levelo_inurba_marseille","lat":43.23188,"lon":5.39982,"is_reserved":false,"is_disabled":false,"rental_uris":{"android":"levelo://app?vid=e94d83da-a52c-4009-83db-8b37093608a6","ios":"levelo://app?vid=e94d83da-a52c-4009-83db-8b37093608a6"},"vehicle_type_id":"4","last_reported":1774374448,"current_range_meters":6400,"station_id":"ce4bhn12rcd13ifvqgqg","pricing_plan_id":"cebpf4jnsgd1na2vs0mg"},{"bike_id":"7e239537-6c6b-4563-a73b-680f69586595","system_id":"levelo_inurba_marseille","lat":43.29011,"lon":5.35639,"is_reserved":false,"is_disabled":true,"rental_uris":{"android":"levelo://app?vid=7e239537-6c6b-4563-a73b-680f69586595","ios":"levelo://app?vid=7e239537-6c6b-4563-a73b-680f69586595"},"vehicle_type_id":"4","last_reported":1774374448,"current_range_meters":6400,"station_id":"ce4bhb92rcd13ifvqen0","pricing_plan_id":"cebpf4jnsgd1na2vs0mg"},{"bike_id":"a9b0556e-e257-4c86-baec-32c674fd9499","system_id":"levelo_inurba_marseille","lat":43.30248,"lon":5.39372,"is_reserved":false,"is_disabled":true,"rental_uris":{"android":"levelo://app?vid=a9b0556e-e257-4c86-baec-32c674fd9499","ios":"levelo://app?vid=a9b0556e-e257-4c86-baec-32c674fd9499"},"vehicle_type_id":"4","last_reported":1774374448,"current_range_meters":6800,"station_id":"ce4bh0p2rcd13ifvqd70","pricing_plan_id":"cebpf4jnsgd1na2vs0mg"},{"bike_id":"7b6c8f1e-bc5a-4218-9383-b05da73318e0","system_id":"levelo_inurba_marseille","lat":43.32358,"lon":5.36736,"is_reserved":false,"is_disabled":false,"rental_uris":{"android":"levelo://app?vid=7b6c8f1e-bc5a-4218-9383-b05da73318e0","ios":"levelo://app?vid=7b6c8f1e-bc5a-4218-9383-b05da73318e0"},"vehicle_type_id":"4","last_reported":1774374448,"current_range_meters":6800,"station_id":"ce4bhsh2rcd13ifvqi2g","pricing_plan_id":"cebpf4jnsgd1na2vs0mg"},{"bike_id":"cb16aa89-0669-433b-a313-6796d1bfdb1c","system_id":"levelo_inurba_marseille","lat":43.31169,"lon":5.38718,"is_reserved":false,"is_disabled":false,"rental_uris":{"android":"levelo://app?vid=cb16aa89-0669-433b-a313-6796d1bfdb1c","ios":"levelo://app?vid=cb16aa89-0669-433b-a313-6796d1bfdb1c"},"vehicle_type_id":"4","last_reported":1774374448,"current_range_meters":6800,"station_id":"ce4bgv12rcd13ifvqcp0","pricing_plan_id":"cebpf4jnsgd1na2vs0mg"},{"bike_id":"f0cbcf02-23b5-43bf-8a23-b376050c2452","system_id":"levelo_inurba_marseille","lat":43.29518,"lon":5.39046,"is_reserved":false,"is_disabled":false,"rental_uris":{"android":"levelo://app?vid=f0cbcf02-23b5-43bf-8a23-b376050c2452","ios":"levelo://app?vid=f0cbcf02-23b5-43bf-8a23-b376050c2452"},"vehicle_type_id":"4","last_reported":1774374448,"current_range_meters":6800,"station_id":"ce4bh3p2rcd13ifvqdp0","pricing_plan_id":"cebpf4jnsgd1na2vs0mg"},{"bike_id":"ca8f4ee8-3286-4994-b168-0b88485a7a9c","system_id":"levelo_inurba_marseille","lat":43.292236,"lon":5.360517,"is_reserved":false,"is_disabled":false,"rental_uris":{"android":"levelo://app?vid=ca8f4ee8-3286-4994-b168-0b88485a7a9c","ios":"levelo://app?vid=ca8f4ee8-3286-4994-b168-0b88485a7a9c"},"vehicle_type_id":"4","last_reported":1774374448,"current_range_meters":6800,"station_id":"ce4bhbh2rcd13ifvqeqg","pricing_plan_id":"cebpf4jnsgd1na2vs0mg"},{"bike_id":"098144e5-733b-42c7-b084-7ac44619c48e","system_id":"levelo_inurba_marseille","lat":43.30557,"lon":5.36515,"is_reserved":false,"is_disabled":false,"rental_uris":{"android":"levelo://app?vid=098144e5-733b-42c7-b084-7ac44619c48e","ios":"levelo://app?vid=098144e5-733b-42c7-b084-7ac44619c48e"},"vehicle_type_id":"4","last_reported":1774374448,"current_range_meters":6800,"station_id":"ce4bgs12rcd13ifvqcag","pricing_plan_id":"cebpf4jnsgd1na2vs0mg"},{"bike_id":"5ff9dc00-a792-4bdf-9aad-51b76b22be00","system_id":"levelo_inurba_marseille","lat":43.23182,"lon":5.3999,"is_reserved":false,"is_disabled":false,"rental_uris":{"android":"levelo://app?vid=5ff9dc00-a792-4bdf-9aad-51b76b22be00","ios":"levelo://app?vid=5ff9dc00-a792-4bdf-9aad-51b76b22be00"},"vehicle_type_id":"4","last_reported":1774374448,"current_range_meters":6800,"station_id":"ce4bhn12rcd13ifvqgqg","pricing_plan_id":"cebpf4jnsgd1na2vs0mg"},{"bike_id":"c418f5ff-4aec-441b-8cc2-82c0a65f4998","system_id":"levelo_inurba_marseille","lat":43.25001,"lon":5.38931,"is_reserved":false,"is_disabled":false,"rental_uris":{"android":"levelo://app?vid=c418f5ff-4aec-441b-8cc2-82c0a65f4998","ios":"levelo://app?vid=c418f5ff-4aec-441b-8cc2-82c0a65f4998"},"vehicle_type_id":"4","last_reported":1774374448,"current_range_meters":6800,"station_id":"ce4bhgp2rcd13ifvqfd0","pricing_plan_id":"cebpf4jnsgd1na2vs0mg"},{"bike_id":"d082dac9-40a7-41ea-b118-fd284c5ed720","system_id":"levelo_inurba_marseille","lat":43.29605,"lon":5.38118,"is_reserved":false,"is_disabled":false,"rental_uris":{"android":"levelo://app?vid=d082dac9-40a7-41ea-b118-fd284c5ed720","ios":"levelo://app?vid=d082dac9-40a7-41ea-b118-fd284c5ed720"},"vehicle_type_id":"4","last_reported":1774374448,"current_range_meters":6800,"station_id":"ce4bgl12rcd13ifvqbo0","pricing_plan_id":"cebpf4jnsgd1na2vs0mg"},{"bike_id":"9b52b072-a139-4784-8f83-6d3df66f21cc","system_id":"levelo_inurba_marseille","lat":43.31356,"lon":5.38492,"is_reserved":false,"is_disabled":false,"rental_uris":{"android":"levelo://app?vid=9b52b072-a139-4784-8f83-6d3df66f21cc","ios":"levelo://app?vid=9b52b072-a139-4784-8f83-6d3df66f21cc"},"vehicle_type_id":"4","last_reported":1774374448,"current_range_meters":6800,"station_id":"ce4bgt92rcd13ifvqcf0","pricing_plan_id":"cebpf4jnsgd1na2vs0mg"},{"bike_id":"f32e25a5-46fe-4875-9b1a-6bd502750a50","system_id":"levelo_inurba_marseille","lat":43.25582,"lon":5.38234,"is_reserved":false,"is_disabled":false,"rental_uris":{"android":"levelo://app?vid=f32e25a5-46fe-4875-9b1a-6bd502750a50","ios":"levelo://app?vid=f32e25a5-46fe-4875-9b1a-6bd502750a50"},"vehicle_type_id":"4","last_reported":1774374448,"current_range_meters":6800,"station_id":"ce4bhih2rcd13ifvqfs0","pricing_plan_id":"cebpf4jnsgd1na2vs0mg"},{"bike_id":"cbb9ef95-d825-4d1c-b4a0-4b27eec53822","system_id":"levelo_inurba_marseille","lat":43.28667,"lon":5.36355,"is_reserved":false,"is_disabled":false,"rental_uris":{"android":"levelo://app?vid=cbb9ef95-d825-4d1c-b4a0-4b27eec53822","ios":"levelo://app?vid=cbb9ef95-d825-4d1c-b4a0-4b27eec53822"},"vehicle_type_id":"4","last_reported":1774374448,"current_range_meters":6800,"station_id":"ce4bhah2rcd13ifvqej0","pricing_plan_id":"cebpf4jnsgd1na2vs0mg"},{"bike_id":"f3dccb27-25f8-415f-8a8c-207408b72398","system_id":"levelo_inurba_marseille","lat":43.32068,"lon":5.36718,"is_reserved":false,"is_disabled":false,"rental_uris":{"android":"levelo://app?vid=f3dccb27-25f8-415f-8a8c-207408b72398","ios":"levelo://app?vid=f3dccb27-25f8-415f-8a8c-207408b72398"},"vehicle_type_id":"4","last_reported":1774374448,"current_range_meters":6800,"station_id":"ce4bhrh2rcd13ifvqhug","pricing_plan_id":"cebpf4jnsgd1na2vs0mg"},{"bike_id":"0ccbabb6-a464-48f1-ad43-a6f6d96115b9","system_id":"levelo_inurba_marseille","lat":43.28339,"lon":5.38118,"is_reserved":false,"is_disabled":false,"rental_uris":{"android":"levelo://app?vid=0ccbabb6-a464-48f1-ad43-a6f6d96115b9","ios":"levelo://app?vid=0ccbabb6-a464-48f1-ad43-a6f6d96115b9"},"vehicle_type_id":"4","last_reported":1774374448,"current_range_meters":6800,"station_id":"ce4bh412rcd13ifvqdr0","pricing_plan_id":"cebpf4jnsgd1na2vs0mg"},{"bike_id":"28d35c70-d62d-45c3-a859-4e3c672e3818","system_id":"levelo_inurba_marseille","lat":43.26196,"lon":5.37441,"is_reserved":false,"is_disabled":false,"rental_uris":{"android":"levelo://app?vid=28d35c70-d62d-45c3-a859-4e3c672e3818","ios":"levelo://app?vid=28d35c70-d62d-45c3-a859-4e3c672e3818"},"vehicle_type_id":"4","last_reported":1774374448,"current_range_meters":6800,"station_id":"ce4bhgp2rcd13ifvqfc0","pricing_plan_id":"cebpf4jnsgd1na2vs0mg"},{"bike_id":"ab6b58d3-5471-4aa1-b17a-6af290ef9697","system_id":"levelo_inurba_marseille","lat":43.29638,"lon":5.40011,"is_reserved":false,"is_disabled":false,"rental_uris":{"android":"levelo://app?vid=ab6b58d3-5471-4aa1-b17a-6af290ef9697","ios":"levelo://app?vid=ab6b58d3-5471-4aa1-b17a-6af290ef9697"},"vehicle_type_id":"4","last_reported":1774374448,"current_range_meters":6800,"station_id":"","pricing_plan_id":"cebpf4jnsgd1na2vs0mg"},{"bike_id":"0465d55f-2116-40c3-80c6-c770644a749b","system_id":"levelo_inurba_marseille","lat":43.2925,"lon":5.3844,"is_reserved":false,"is_disabled":false,"rental_uris":{"android":"levelo://app?vid=0465d55f-2116-40c3-80c6-c770644a749b","ios":"levelo://app?vid=0465d55f-2116-40c3-80c6-c770644a749b"},"vehicle_type_id":"4","last_reported":1774374448,"current_range_meters":6800,"station_id":"ce4bh692rcd13ifvqea0","pricing_plan_id":"cebpf4jnsgd1na2vs0mg"},{"bike_id":"4e194663-a722-4923-8c4d-e619ecd0c3b3","system_id":"levelo_inurba_marseille","lat":43.2953,"lon":5.38547,"is_reserved":false,"is_disabled":false,"rental_uris":{"android":"levelo://app?vid=4e194663-a722-4923-8c4d-e619ecd0c3b3","ios":"levelo://app?vid=4e194663-a722-4923-8c4d-e619ecd0c3b3"},"vehicle_type_id":"4","last_reported":1774374448,"current_range_meters":6800,"station_id":"ce4bgih2rcd13ifvqba0","pricing_plan_id":"cebpf4jnsgd1na2vs0mg"},{"bike_id":"17ecb8f1-df4c-49b8-9174-4fdee094aaf6","system_id":"levelo_inurba_marseille","lat":43.26544,"lon":5.37308,"is_reserved":false,"is_disabled":false,"rental_uris":{"android":"levelo://app?vid=17ecb8f1-df4c-49b8-9174-4fdee094aaf6","ios":"levelo://app?vid=17ecb8f1-df4c-49b8-9174-4fdee094aaf6"},"vehicle_type_id":"4","last_reported":1774374448,"current_range_meters":6800,"station_id":"ce4bhg12rcd13ifvqf70","pricing_plan_id":"cebpf4jnsgd1na2vs0mg"},{"bike_id":"763571bb-b88d-45db-9a18-7962f9620cad","system_id":"levelo_inurba_marseille","lat":43.23196,"lon":5.35557,"is_reserved":false,"is_disabled":false,"rental_uris":{"android":"levelo://app?vid=763571bb-b88d-45db-9a18-7962f9620cad","ios":"levelo://app?vid=763571bb-b88d-45db-9a18-7962f9620cad"},"vehicle_type_id":"4","last_reported":1774374448,"current_range_meters":7200,"station_id":"ce4bhu92rcd13ifvqi70","pricing_plan_id":"cebpf4jnsgd1na2vs0mg"},{"bike_id":"21212254-e5a0-4af6-a45f-ed4c631ca773","system_id":"levelo_inurba_marseille","lat":43.25541,"lon":5.37651,"is_reserved":false,"is_disabled":false,"rental_uris":{"android":"levelo://app?vid=21212254-e5a0-4af6-a45f-ed4c631ca773","ios":"levelo://app?vid=21212254-e5a0-4af6-a45f-ed4c631ca773"},"vehicle_type_id":"4","last_reported":1774374448,"current_range_meters":7200,"station_id":"","pricing_plan_id":"cebpf4jnsgd1na2vs0mg"},{"bike_id":"a14d2edd-85c5-4116-8db5-355e3fb2ddbe","system_id":"levelo_inurba_marseille","lat":43.33565,"lon":5.37446,"is_reserved":false,"is_disabled":false,"rental_uris":{"android":"levelo://app?vid=a14d2edd-85c5-4116-8db5-355e3fb2ddbe","ios":"levelo://app?vid=a14d2edd-85c5-4116-8db5-355e3fb2ddbe"},"vehicle_type_id":"4","last_reported":1774374448,"current_range_meters":7200,"station_id":"st_d46tts09ee8s73dlu43g","pricing_plan_id":"cebpf4jnsgd1na2vs0mg"},{"bike_id":"5c941c2b-f0fa-4f64-af96-831f9028136a","system_id":"levelo_inurba_marseille","lat":43.32229,"lon":5.3711,"is_reserved":false,"is_disabled":false,"rental_uris":{"android":"levelo://app?vid=5c941c2b-f0fa-4f64-af96-831f9028136a","ios":"levelo://app?vid=5c941c2b-f0fa-4f64-af96-831f9028136a"},"vehicle_type_id":"4","last_reported":1774374448,"current_range_meters":7200,"station_id":"","pricing_plan_id":"cebpf4jnsgd1na2vs0mg"},{"bike_id":"8e331d09-f777-47e4-a327-164db2e188a9","system_id":"levelo_inurba_marseille","lat":43.26566,"lon":5.4033,"is_reserved":false,"is_disabled":true,"rental_uris":{"android":"levelo://app?vid=8e331d09-f777-47e4-a327-164db2e188a9","ios":"levelo://app?vid=8e331d09-f777-47e4-a327-164db2e188a9"},"vehicle_type_id":"4","last_reported":1774374448,"current_range_meters":7200,"station_id":"ce4bhmp2rcd13ifvqgng","pricing_plan_id":"cebpf4jnsgd1na2vs0mg"},{"bike_id":"fe332a28-7761-474f-ad2d-b84cd0257740","system_id":"levelo_inurba_marseille","lat":43.23783,"lon":5.36644,"is_reserved":false,"is_disabled":false,"rental_uris":{"android":"levelo://app?vid=fe332a28-7761-474f-ad2d-b84cd0257740","ios":"levelo://app?vid=fe332a28-7761-474f-ad2d-b84cd0257740"},"vehicle_type_id":"4","last_reported":1774374448,"current_range_meters":7200,"station_id":"st_d3nk18o9ro0c73en2l3g","pricing_plan_id":"cebpf4jnsgd1na2vs0mg"},{"bike_id":"6997aa5e-4ea2-4fd0-b339-aa59c6f7482e","system_id":"levelo_inurba_marseille","lat":43.26027,"lon":5.3755,"is_reserved":false,"is_disabled":false,"rental_uris":{"android":"levelo://app?vid=6997aa5e-4ea2-4fd0-b339-aa59c6f7482e","ios":"levelo://app?vid=6997aa5e-4ea2-4fd0-b339-aa59c6f7482e"},"vehicle_type_id":"4","last_reported":1774374448,"current_range_meters":7200,"station_id":"ce4bhgh2rcd13ifvqfa0","pricing_plan_id":"cebpf4jnsgd1na2vs0mg"},{"bike_id":"066cfe81-714d-4a28-ba8d-e13baf5bbb1b","system_id":"levelo_inurba_marseille","lat":43.27266,"lon":5.41147,"is_reserved":false,"is_disabled":false,"rental_uris":{"android":"levelo://app?vid=066cfe81-714d-4a28-ba8d-e13baf5bbb1b","ios":"levelo://app?vid=066cfe81-714d-4a28-ba8d-e13baf5bbb1b"},"vehicle_type_id":"4","last_reported":1774374448,"current_range_meters":7200,"station_id":"","pricing_plan_id":"cebpf4jnsgd1na2vs0mg"},{"bike_id":"985cdc9a-5fe6-49b7-8e7a-900257dfdabd","system_id":"levelo_inurba_marseille","lat":43.29899,"lon":5.37474,"is_reserved":false,"is_disabled":false,"rental_uris":{"android":"levelo://app?vid=985cdc9a-5fe6-49b7-8e7a-900257dfdabd","ios":"levelo://app?vid=985cdc9a-5fe6-49b7-8e7a-900257dfdabd"},"vehicle_type_id":"4","last_reported":1774374448,"current_range_meters":7200,"station_id":"ce4bgjh2rcd13ifvqbg0","pricing_plan_id":"cebpf4jnsgd1na2vs0mg"},{"bike_id":"a9ec82e5-093a-4542-9f2f-44e506af087d","system_id":"levelo_inurba_marseille","lat":43.28421,"lon":5.34998,"is_reserved":false,"is_disabled":false,"rental_uris":{"android":"levelo://app?vid=a9ec82e5-093a-4542-9f2f-44e506af087d","ios":"levelo://app?vid=a9ec82e5-093a-4542-9f2f-44e506af087d"},"vehicle_type_id":"4","last_reported":1774374448,"current_range_meters":7200,"station_id":"ce4bhbh2rcd13ifvqepg","pricing_plan_id":"cebpf4jnsgd1na2vs0mg"},{"bike_id":"36899bd7-79d6-4090-8aaa-3a04b7d17bec","system_id":"levelo_inurba_marseille","lat":43.28265,"lon":5.35063,"is_reserved":false,"is_disabled":false,"rental_uris":{"android":"levelo://app?vid=36899bd7-79d6-4090-8aaa-3a04b7d17bec","ios":"levelo://app?vid=36899bd7-79d6-4090-8aaa-3a04b7d17bec"},"vehicle_type_id":"4","last_reported":1774374448,"current_range_meters":7200,"station_id":"ce4bhbp2rcd13ifvqerg","pricing_plan_id":"cebpf4jnsgd1na2vs0mg"},{"bike_id":"540b1576-15c0-464f-804b-0ea3dee1c76e","system_id":"levelo_inurba_marseille","lat":43.28416,"lon":5.34953,"is_reserved":false,"is_disabled":false,"rental_uris":{"android":"levelo://app?vid=540b1576-15c0-464f-804b-0ea3dee1c76e","ios":"levelo://app?vid=540b1576-15c0-464f-804b-0ea3dee1c76e"},"vehicle_type_id":"4","last_reported":1774374448,"current_range_meters":7200,"station_id":"ce4bhbh2rcd13ifvqepg","pricing_plan_id":"cebpf4jnsgd1na2vs0mg"},{"bike_id":"b9075bd2-6a16-46f9-b243-40ae44fbbfa7","system_id":"levelo_inurba_marseille","lat":43.29891,"lon":5.39746,"is_reserved":false,"is_disabled":false,"rental_uris":{"android":"levelo://app?vid=b9075bd2-6a16-46f9-b243-40ae44fbbfa7","ios":"levelo://app?vid=b9075bd2-6a16-46f9-b243-40ae44fbbfa7"},"vehicle_type_id":"4","last_reported":1774374448,"current_range_meters":7200,"station_id":"ce4bh0h2rcd13ifvqd50","pricing_plan_id":"cebpf4jnsgd1na2vs0mg"},{"bike_id":"0d489b01-590f-434e-9649-624f92bba9bb","system_id":"levelo_inurba_marseille","lat":43.23201,"lon":5.35541,"is_reserved":false,"is_disabled":false,"rental_uris":{"android":"levelo://app?vid=0d489b01-590f-434e-9649-624f92bba9bb","ios":"levelo://app?vid=0d489b01-590f-434e-9649-624f92bba9bb"},"vehicle_type_id":"4","last_reported":1774374448,"current_range_meters":7200,"station_id":"ce4bhu92rcd13ifvqi70","pricing_plan_id":"cebpf4jnsgd1na2vs0mg"},{"bike_id":"a717302d-0820-4279-9370-c8178a14faee","system_id":"levelo_inurba_marseille","lat":43.28337,"lon":5.38088,"is_reserved":false,"is_disabled":false,"rental_uris":{"android":"levelo://app?vid=a717302d-0820-4279-9370-c8178a14faee","ios":"levelo://app?vid=a717302d-0820-4279-9370-c8178a14faee"},"vehicle_type_id":"4","last_reported":1774374448,"current_range_meters":7200,"station_id":"ce4bh412rcd13ifvqdr0","pricing_plan_id":"cebpf4jnsgd1na2vs0mg"},{"bike_id":"e6349eb3-2730-461c-ae14-f386689052fa","system_id":"levelo_inurba_marseille","lat":43.31624,"lon":5.37805,"is_reserved":false,"is_disabled":true,"rental_uris":{"android":"levelo://app?vid=e6349eb3-2730-461c-ae14-f386689052fa","ios":"levelo://app?vid=e6349eb3-2730-461c-ae14-f386689052fa"},"vehicle_type_id":"4","last_reported":1774374448,"current_range_meters":7200,"station_id":"","pricing_plan_id":"cebpf4jnsgd1na2vs0mg"},{"bike_id":"6711ca2b-9a4e-46b1-892e-1007cc2a656e","system_id":"levelo_inurba_marseille","lat":43.28565,"lon":5.44125,"is_reserved":false,"is_disabled":false,"rental_uris":{"android":"levelo://app?vid=6711ca2b-9a4e-46b1-892e-1007cc2a656e","ios":"levelo://app?vid=6711ca2b-9a4e-46b1-892e-1007cc2a656e"},"vehicle_type_id":"4","last_reported":1774374448,"current_range_meters":7200,"station_id":"st_d3j3df2ikq2c7380ej80","pricing_plan_id":"cebpf4jnsgd1na2vs0mg"},{"bike_id":"e0d3df09-9b57-40a2-9fc8-b934476fccd8","system_id":"levelo_inurba_marseille","lat":43.28413,"lon":5.34984,"is_reserved":false,"is_disabled":false,"rental_uris":{"android":"levelo://app?vid=e0d3df09-9b57-40a2-9fc8-b934476fccd8","ios":"levelo://app?vid=e0d3df09-9b57-40a2-9fc8-b934476fccd8"},"vehicle_type_id":"4","last_reported":1774374448,"current_range_meters":7200,"station_id":"ce4bhbh2rcd13ifvqepg","pricing_plan_id":"cebpf4jnsgd1na2vs0mg"},{"bike_id":"b1ceaa1d-f7d5-4f1b-b74b-3e9a13f9efeb","system_id":"levelo_inurba_marseille","lat":43.23966,"lon":5.36637,"is_reserved":false,"is_disabled":false,"rental_uris":{"android":"levelo://app?vid=b1ceaa1d-f7d5-4f1b-b74b-3e9a13f9efeb","ios":"levelo://app?vid=b1ceaa1d-f7d5-4f1b-b74b-3e9a13f9efeb"},"vehicle_type_id":"4","last_reported":1774374448,"current_range_meters":7200,"station_id":"ce4bhi12rcd13ifvqfp0","pricing_plan_id":"cebpf4jnsgd1na2vs0mg"},{"bike_id":"e3f886a8-5ab4-45f3-9b3b-ccb5c60cb84a","system_id":"levelo_inurba_marseille","lat":43.25584,"lon":5.38237,"is_reserved":false,"is_disabled":false,"rental_uris":{"android":"levelo://app?vid=e3f886a8-5ab4-45f3-9b3b-ccb5c60cb84a","ios":"levelo://app?vid=e3f886a8-5ab4-45f3-9b3b-ccb5c60cb84a"},"vehicle_type_id":"4","last_reported":1774374448,"current_range_meters":7200,"station_id":"ce4bhih2rcd13ifvqfs0","pricing_plan_id":"cebpf4jnsgd1na2vs0mg"},{"bike_id":"5fe8da29-375e-4a49-b22e-c06b1f8d8860","system_id":"levelo_inurba_marseille","lat":43.29563,"lon":5.3753,"is_reserved":false,"is_disabled":false,"rental_uris":{"android":"levelo://app?vid=5fe8da29-375e-4a49-b22e-c06b1f8d8860","ios":"levelo://app?vid=5fe8da29-375e-4a49-b22e-c06b1f8d8860"},"vehicle_type_id":"4","last_reported":1774374448,"current_range_meters":8000,"station_id":"ce4bgh92rcd13ifvqb50","pricing_plan_id":"cebpf4jnsgd1na2vs0mg"},{"bike_id":"78fc1369-9994-49e5-9df8-de2b6da915d8","system_id":"levelo_inurba_marseille","lat":43.30267,"lon":5.37717,"is_reserved":false,"is_disabled":false,"rental_uris":{"android":"levelo://app?vid=78fc1369-9994-49e5-9df8-de2b6da915d8","ios":"levelo://app?vid=78fc1369-9994-49e5-9df8-de2b6da915d8"},"vehicle_type_id":"4","last_reported":1774374448,"current_range_meters":8000,"station_id":"ce4bguh2rcd13ifvqcj0","pricing_plan_id":"cebpf4jnsgd1na2vs0mg"},{"bike_id":"f7e664bc-8cfe-465d-9dbe-128ca982aa9c","system_id":"levelo_inurba_marseille","lat":43.25034,"lon":5.38909,"is_reserved":false,"is_disabled":false,"rental_uris":{"android":"levelo://app?vid=f7e664bc-8cfe-465d-9dbe-128ca982aa9c","ios":"levelo://app?vid=f7e664bc-8cfe-465d-9dbe-128ca982aa9c"},"vehicle_type_id":"4","last_reported":1774374448,"current_range_meters":8000,"station_id":"ce4bhgp2rcd13ifvqfd0","pricing_plan_id":"cebpf4jnsgd1na2vs0mg"},{"bike_id":"61eb5016-dae8-439e-8782-0c2634ca375a","system_id":"levelo_inurba_marseille","lat":43.29008,"lon":5.35611,"is_reserved":false,"is_disabled":false,"rental_uris":{"android":"levelo://app?vid=61eb5016-dae8-439e-8782-0c2634ca375a","ios":"levelo://app?vid=61eb5016-dae8-439e-8782-0c2634ca375a"},"vehicle_type_id":"4","last_reported":1774374448,"current_range_meters":8000,"station_id":"ce4bhb92rcd13ifvqen0","pricing_plan_id":"cebpf4jnsgd1na2vs0mg"},{"bike_id":"445a363e-6635-4c6f-9d9b-6ed1d223c4e8","system_id":"levelo_inurba_marseille","lat":43.29558,"lon":5.43897,"is_reserved":false,"is_disabled":false,"rental_uris":{"android":"levelo://app?vid=445a363e-6635-4c6f-9d9b-6ed1d223c4e8","ios":"levelo://app?vid=445a363e-6635-4c6f-9d9b-6ed1d223c4e8"},"vehicle_type_id":"4","last_reported":1774374448,"current_range_meters":8000,"station_id":"","pricing_plan_id":"cebpf4jnsgd1na2vs0mg"},{"bike_id":"fadd83d2-5a56-4dab-abd3-4fc024887366","system_id":"levelo_inurba_marseille","lat":43.28483,"lon":5.48406,"is_reserved":false,"is_disabled":false,"rental_uris":{"android":"levelo://app?vid=fadd83d2-5a56-4dab-abd3-4fc024887366","ios":"levelo://app?vid=fadd83d2-5a56-4dab-abd3-4fc024887366"},"vehicle_type_id":"4","last_reported":1774374448,"current_range_meters":8000,"station_id":"","pricing_plan_id":"cebpf4jnsgd1na2vs0mg"},{"bike_id":"79691795-a283-44bc-acfe-48a15455b05e","system_id":"levelo_inurba_marseille","lat":43.25818,"lon":5.3944,"is_reserved":false,"is_disabled":false,"rental_uris":{"android":"levelo://app?vid=79691795-a283-44bc-acfe-48a15455b05e","ios":"levelo://app?vid=79691795-a283-44bc-acfe-48a15455b05e"},"vehicle_type_id":"4","last_reported":1774374448,"current_range_meters":8000,"station_id":"ce4bhip2rcd13ifvqft0","pricing_plan_id":"cebpf4jnsgd1na2vs0mg"},{"bike_id":"e51f3b8f-2277-4636-88c7-d4fed1c89dba","system_id":"levelo_inurba_marseille","lat":43.29875,"lon":5.40925,"is_reserved":false,"is_disabled":false,"rental_uris":{"android":"levelo://app?vid=e51f3b8f-2277-4636-88c7-d4fed1c89dba","ios":"levelo://app?vid=e51f3b8f-2277-4636-88c7-d4fed1c89dba"},"vehicle_type_id":"4","last_reported":1774374448,"current_range_meters":8000,"station_id":"","pricing_plan_id":"cebpf4jnsgd1na2vs0mg"},{"bike_id":"1a751648-291f-4319-a34f-249a761c3662","system_id":"levelo_inurba_marseille","lat":43.33608,"lon":5.36339,"is_reserved":false,"is_disabled":false,"rental_uris":{"android":"levelo://app?vid=1a751648-291f-4319-a34f-249a761c3662","ios":"levelo://app?vid=1a751648-291f-4319-a34f-249a761c3662"},"vehicle_type_id":"4","last_reported":1774374448,"current_range_meters":8000,"station_id":"","pricing_plan_id":"cebpf4jnsgd1na2vs0mg"},{"bike_id":"02bcd699-9b16-42fe-9bba-07fbd031bd5a","system_id":"levelo_inurba_marseille","lat":43.30442,"lon":5.38894,"is_reserved":false,"is_disabled":false,"rental_uris":{"android":"levelo://app?vid=02bcd699-9b16-42fe-9bba-07fbd031bd5a","ios":"levelo://app?vid=02bcd699-9b16-42fe-9bba-07fbd031bd5a"},"vehicle_type_id":"4","last_reported":1774374448,"current_range_meters":8000,"station_id":"ce4bgk12rcd13ifvqbi0","pricing_plan_id":"cebpf4jnsgd1na2vs0mg"},{"bike_id":"379b3d1e-f20d-4b36-96a1-55e073ae0f87","system_id":"levelo_inurba_marseille","lat":43.27072,"lon":5.38315,"is_reserved":false,"is_disabled":false,"rental_uris":{"android":"levelo://app?vid=379b3d1e-f20d-4b36-96a1-55e073ae0f87","ios":"levelo://app?vid=379b3d1e-f20d-4b36-96a1-55e073ae0f87"},"vehicle_type_id":"4","last_reported":1774374448,"current_range_meters":8000,"station_id":"st_d3n2fo6cfp8s73cte1j0","pricing_plan_id":"cebpf4jnsgd1na2vs0mg"},{"bike_id":"dcc6cdfc-c902-442c-a3be-6740390c8471","system_id":"levelo_inurba_marseille","lat":43.24386,"lon":5.37065,"is_reserved":false,"is_disabled":false,"rental_uris":{"android":"levelo://app?vid=dcc6cdfc-c902-442c-a3be-6740390c8471","ios":"levelo://app?vid=dcc6cdfc-c902-442c-a3be-6740390c8471"},"vehicle_type_id":"4","last_reported":1774374448,"current_range_meters":8000,"station_id":"ce4bhhh2rcd13ifvqfk0","pricing_plan_id":"cebpf4jnsgd1na2vs0mg"},{"bike_id":"cfa6403f-03db-443b-ade7-1cc71ef47955","system_id":"levelo_inurba_marseille","lat":43.28953,"lon":5.36649,"is_reserved":false,"is_disabled":false,"rental_uris":{"android":"levelo://app?vid=cfa6403f-03db-443b-ade7-1cc71ef47955","ios":"levelo://app?vid=cfa6403f-03db-443b-ade7-1cc71ef47955"},"vehicle_type_id":"4","last_reported":1774374448,"current_range_meters":8000,"station_id":"ce4bhap2rcd13ifvqek0","pricing_plan_id":"cebpf4jnsgd1na2vs0mg"},{"bike_id":"7c59c074-6646-4968-803b-ea035a59d3f4","system_id":"levelo_inurba_marseille","lat":43.23794,"lon":5.36634,"is_reserved":false,"is_disabled":false,"rental_uris":{"android":"levelo://app?vid=7c59c074-6646-4968-803b-ea035a59d3f4","ios":"levelo://app?vid=7c59c074-6646-4968-803b-ea035a59d3f4"},"vehicle_type_id":"4","last_reported":1774374448,"current_range_meters":8000,"station_id":"st_d3nk18o9ro0c73en2l3g","pricing_plan_id":"cebpf4jnsgd1na2vs0mg"},{"bike_id":"5796245a-1099-4458-8637-14b819bf9420","system_id":"levelo_inurba_marseille","lat":43.27371,"lon":5.36267,"is_reserved":false,"is_disabled":false,"rental_uris":{"android":"levelo://app?vid=5796245a-1099-4458-8637-14b819bf9420","ios":"levelo://app?vid=5796245a-1099-4458-8637-14b819bf9420"},"vehicle_type_id":"4","last_reported":1774374448,"current_range_meters":8000,"station_id":"ce4bhbh2rcd13ifvqeo0","pricing_plan_id":"cebpf4jnsgd1na2vs0mg"},{"bike_id":"16d8b67c-fbe4-4667-96d7-8e8dbdfd3a49","system_id":"levelo_inurba_marseille","lat":43.31707,"lon":5.37739,"is_reserved":false,"is_disabled":false,"rental_uris":{"android":"levelo://app?vid=16d8b67c-fbe4-4667-96d7-8e8dbdfd3a49","ios":"levelo://app?vid=16d8b67c-fbe4-4667-96d7-8e8dbdfd3a49"},"vehicle_type_id":"4","last_reported":1774374448,"current_range_meters":8000,"station_id":"ce4bgth2rcd13ifvqch0","pricing_plan_id":"cebpf4jnsgd1na2vs0mg"},{"bike_id":"56b83346-f11e-4eb9-bf37-cb62efef6f09","system_id":"levelo_inurba_marseille","lat":43.294975,"lon":5.390427,"is_reserved":false,"is_disabled":false,"rental_uris":{"android":"levelo://app?vid=56b83346-f11e-4eb9-bf37-cb62efef6f09","ios":"levelo://app?vid=56b83346-f11e-4eb9-bf37-cb62efef6f09"},"vehicle_type_id":"4","last_reported":1774374448,"current_range_meters":8000,"station_id":"ce4bh3p2rcd13ifvqdp0","pricing_plan_id":"cebpf4jnsgd1na2vs0mg"},{"bike_id":"cbe143e8-3e8d-46c8-8239-3389a4661d28","system_id":"levelo_inurba_marseille","lat":43.30277,"lon":5.36919,"is_reserved":false,"is_disabled":false,"rental_uris":{"android":"levelo://app?vid=cbe143e8-3e8d-46c8-8239-3389a4661d28","ios":"levelo://app?vid=cbe143e8-3e8d-46c8-8239-3389a4661d28"},"vehicle_type_id":"4","last_reported":1774374448,"current_range_meters":8000,"station_id":"ce4bgqh2rcd13ifvqc5g","pricing_plan_id":"cebpf4jnsgd1na2vs0mg"},{"bike_id":"725efeea-dc84-4167-8828-8c8124c53f4f","system_id":"levelo_inurba_marseille","lat":43.30464,"lon":5.38892,"is_reserved":false,"is_disabled":false,"rental_uris":{"android":"levelo://app?vid=725efeea-dc84-4167-8828-8c8124c53f4f","ios":"levelo://app?vid=725efeea-dc84-4167-8828-8c8124c53f4f"},"vehicle_type_id":"4","last_reported":1774374448,"current_range_meters":8000,"station_id":"ce4bgk12rcd13ifvqbi0","pricing_plan_id":"cebpf4jnsgd1na2vs0mg"},{"bike_id":"c1e92c70-aede-452c-8e8c-6914c0324e0c","system_id":"levelo_inurba_marseille","lat":43.29058,"lon":5.35926,"is_reserved":false,"is_disabled":true,"rental_uris":{"android":"levelo://app?vid=c1e92c70-aede-452c-8e8c-6914c0324e0c","ios":"levelo://app?vid=c1e92c70-aede-452c-8e8c-6914c0324e0c"},"vehicle_type_id":"4","last_reported":1774374448,"current_range_meters":8000,"station_id":"ce4bha92rcd13ifvqeg0","pricing_plan_id":"cebpf4jnsgd1na2vs0mg"},{"bike_id":"5208ee98-7e4f-445b-9dbc-5d8fbec80d74","system_id":"levelo_inurba_marseille","lat":43.23405,"lon":5.41247,"is_reserved":false,"is_disabled":false,"rental_uris":{"android":"levelo://app?vid=5208ee98-7e4f-445b-9dbc-5d8fbec80d74","ios":"levelo://app?vid=5208ee98-7e4f-445b-9dbc-5d8fbec80d74"},"vehicle_type_id":"4","last_reported":1774374448,"current_range_meters":8000,"station_id":"","pricing_plan_id":"cebpf4jnsgd1na2vs0mg"},{"bike_id":"08ff4d9c-a1c2-49e2-9bf8-2b8fe2cb7a1a","system_id":"levelo_inurba_marseille","lat":43.29024,"lon":5.35955,"is_reserved":false,"is_disabled":false,"rental_uris":{"android":"levelo://app?vid=08ff4d9c-a1c2-49e2-9bf8-2b8fe2cb7a1a","ios":"levelo://app?vid=08ff4d9c-a1c2-49e2-9bf8-2b8fe2cb7a1a"},"vehicle_type_id":"4","last_reported":1774374448,"current_range_meters":8000,"station_id":"","pricing_plan_id":"cebpf4jnsgd1na2vs0mg"},{"bike_id":"49c022d7-14d8-4573-960d-668bad17e897","system_id":"levelo_inurba_marseille","lat":43.24813,"lon":5.37463,"is_reserved":false,"is_disabled":false,"rental_uris":{"android":"levelo://app?vid=49c022d7-14d8-4573-960d-668bad17e897","ios":"levelo://app?vid=49c022d7-14d8-4573-960d-668bad17e897"},"vehicle_type_id":"4","last_reported":1774374448,"current_range_meters":8000,"station_id":"ce4bhgh2rcd13ifvqfb0","pricing_plan_id":"cebpf4jnsgd1na2vs0mg"},{"bike_id":"202a7e57-88d6-496e-bc00-019d78e2d63d","system_id":"levelo_inurba_marseille","lat":43.26962,"lon":5.40243,"is_reserved":false,"is_disabled":false,"rental_uris":{"android":"levelo://app?vid=202a7e57-88d6-496e-bc00-019d78e2d63d","ios":"levelo://app?vid=202a7e57-88d6-496e-bc00-019d78e2d63d"},"vehicle_type_id":"4","last_reported":1774374448,"current_range_meters":8000,"station_id":"cjm6bp8fraef2m0cb0m0","pricing_plan_id":"cebpf4jnsgd1na2vs0mg"},{"bike_id":"e5645e51-629c-4ec1-86c5-3dd811ec5b41","system_id":"levelo_inurba_marseille","lat":43.28719,"lon":5.37418,"is_reserved":false,"is_disabled":false,"rental_uris":{"android":"levelo://app?vid=e5645e51-629c-4ec1-86c5-3dd811ec5b41","ios":"levelo://app?vid=e5645e51-629c-4ec1-86c5-3dd811ec5b41"},"vehicle_type_id":"4","last_reported":1774374448,"current_range_meters":8000,"station_id":"ce4bh3p2rcd13ifvqdq0","pricing_plan_id":"cebpf4jnsgd1na2vs0mg"},{"bike_id":"2159f981-c6a8-4439-bb67-1723675b05d9","system_id":"levelo_inurba_marseille","lat":43.2903,"lon":5.3867,"is_reserved":false,"is_disabled":false,"rental_uris":{"android":"levelo://app?vid=2159f981-c6a8-4439-bb67-1723675b05d9","ios":"levelo://app?vid=2159f981-c6a8-4439-bb67-1723675b05d9"},"vehicle_type_id":"4","last_reported":1774374448,"current_range_meters":8400,"station_id":"ce4bh4p2rcd13ifvqe0g","pricing_plan_id":"cebpf4jnsgd1na2vs0mg"},{"bike_id":"ce03bef8-efd2-4f33-8399-68e62f1c1ea8","system_id":"levelo_inurba_marseille","lat":43.25509,"lon":5.3765,"is_reserved":false,"is_disabled":false,"rental_uris":{"android":"levelo://app?vid=ce03bef8-efd2-4f33-8399-68e62f1c1ea8","ios":"levelo://app?vid=ce03bef8-efd2-4f33-8399-68e62f1c1ea8"},"vehicle_type_id":"4","last_reported":1774374448,"current_range_meters":8400,"station_id":"ce4bhh12rcd13ifvqff0","pricing_plan_id":"cebpf4jnsgd1na2vs0mg"},{"bike_id":"59300e11-592c-4a99-80f0-3aabd898e88d","system_id":"levelo_inurba_marseille","lat":43.28611,"lon":5.3511,"is_reserved":false,"is_disabled":false,"rental_uris":{"android":"levelo://app?vid=59300e11-592c-4a99-80f0-3aabd898e88d","ios":"levelo://app?vid=59300e11-592c-4a99-80f0-3aabd898e88d"},"vehicle_type_id":"4","last_reported":1774374448,"current_range_meters":8400,"station_id":"ce4bhch2rcd13ifvqeug","pricing_plan_id":"cebpf4jnsgd1na2vs0mg"},{"bike_id":"22a24422-8367-44e3-afc2-fd1672c2c7f5","system_id":"levelo_inurba_marseille","lat":43.28487,"lon":5.48366,"is_reserved":false,"is_disabled":false,"rental_uris":{"android":"levelo://app?vid=22a24422-8367-44e3-afc2-fd1672c2c7f5","ios":"levelo://app?vid=22a24422-8367-44e3-afc2-fd1672c2c7f5"},"vehicle_type_id":"4","last_reported":1774374448,"current_range_meters":8400,"station_id":"","pricing_plan_id":"cebpf4jnsgd1na2vs0mg"},{"bike_id":"275c8b80-8045-424b-9bd9-7e646e316c8e","system_id":"levelo_inurba_marseille","lat":43.27388,"lon":5.3622,"is_reserved":false,"is_disabled":false,"rental_uris":{"android":"levelo://app?vid=275c8b80-8045-424b-9bd9-7e646e316c8e","ios":"levelo://app?vid=275c8b80-8045-424b-9bd9-7e646e316c8e"},"vehicle_type_id":"4","last_reported":1774374448,"current_range_meters":8400,"station_id":"","pricing_plan_id":"cebpf4jnsgd1na2vs0mg"},{"bike_id":"8e490564-79a4-4127-a564-c92be2ea6bf1","system_id":"levelo_inurba_marseille","lat":43.29527,"lon":5.39416,"is_reserved":false,"is_disabled":false,"rental_uris":{"android":"levelo://app?vid=8e490564-79a4-4127-a564-c92be2ea6bf1","ios":"levelo://app?vid=8e490564-79a4-4127-a564-c92be2ea6bf1"},"vehicle_type_id":"4","last_reported":1774374448,"current_range_meters":8400,"station_id":"ce4bh292rcd13ifvqdf0","pricing_plan_id":"cebpf4jnsgd1na2vs0mg"},{"bike_id":"dbc75e58-e9d2-42fa-bce5-c23fd2101cf3","system_id":"levelo_inurba_marseille","lat":43.29905,"lon":5.4369,"is_reserved":false,"is_disabled":false,"rental_uris":{"android":"levelo://app?vid=dbc75e58-e9d2-42fa-bce5-c23fd2101cf3","ios":"levelo://app?vid=dbc75e58-e9d2-42fa-bce5-c23fd2101cf3"},"vehicle_type_id":"4","last_reported":1774374448,"current_range_meters":8400,"station_id":"ce4bhpp2rcd13ifvqhfg","pricing_plan_id":"cebpf4jnsgd1na2vs0mg"},{"bike_id":"8124a762-8257-4431-b4f5-5123ddea8884","system_id":"levelo_inurba_marseille","lat":43.24801,"lon":5.37438,"is_reserved":false,"is_disabled":false,"rental_uris":{"android":"levelo://app?vid=8124a762-8257-4431-b4f5-5123ddea8884","ios":"levelo://app?vid=8124a762-8257-4431-b4f5-5123ddea8884"},"vehicle_type_id":"4","last_reported":1774374448,"current_range_meters":8400,"station_id":"ce4bhgh2rcd13ifvqfb0","pricing_plan_id":"cebpf4jnsgd1na2vs0mg"},{"bike_id":"9e6209c2-8d1d-42b3-b60a-1dbb8e1406fe","system_id":"levelo_inurba_marseille","lat":43.33157,"lon":5.37695,"is_reserved":false,"is_disabled":false,"rental_uris":{"android":"levelo://app?vid=9e6209c2-8d1d-42b3-b60a-1dbb8e1406fe","ios":"levelo://app?vid=9e6209c2-8d1d-42b3-b60a-1dbb8e1406fe"},"vehicle_type_id":"4","last_reported":1774374448,"current_range_meters":8400,"station_id":"st_d46cu089ee8s73dldbu0","pricing_plan_id":"cebpf4jnsgd1na2vs0mg"},{"bike_id":"e85f8e7c-5b40-49d8-800c-63a20e27e177","system_id":"levelo_inurba_marseille","lat":43.25186,"lon":5.37469,"is_reserved":false,"is_disabled":false,"rental_uris":{"android":"levelo://app?vid=e85f8e7c-5b40-49d8-800c-63a20e27e177","ios":"levelo://app?vid=e85f8e7c-5b40-49d8-800c-63a20e27e177"},"vehicle_type_id":"4","last_reported":1774374448,"current_range_meters":8400,"station_id":"","pricing_plan_id":"cebpf4jnsgd1na2vs0mg"},{"bike_id":"49ce49ca-1b6e-4c55-b71c-9f6cd84960c9","system_id":"levelo_inurba_marseille","lat":43.27385,"lon":5.36248,"is_reserved":false,"is_disabled":false,"rental_uris":{"android":"levelo://app?vid=49ce49ca-1b6e-4c55-b71c-9f6cd84960c9","ios":"levelo://app?vid=49ce49ca-1b6e-4c55-b71c-9f6cd84960c9"},"vehicle_type_id":"4","last_reported":1774374448,"current_range_meters":8400,"station_id":"ce4bhbh2rcd13ifvqeo0","pricing_plan_id":"cebpf4jnsgd1na2vs0mg"},{"bike_id":"8edde19f-14bb-4a9f-b9ee-19b95f05ec2f","system_id":"levelo_inurba_marseille","lat":43.33564,"lon":5.37513,"is_reserved":false,"is_disabled":false,"rental_uris":{"android":"levelo://app?vid=8edde19f-14bb-4a9f-b9ee-19b95f05ec2f","ios":"levelo://app?vid=8edde19f-14bb-4a9f-b9ee-19b95f05ec2f"},"vehicle_type_id":"4","last_reported":1774374448,"current_range_meters":8400,"station_id":"st_d46tts09ee8s73dlu43g","pricing_plan_id":"cebpf4jnsgd1na2vs0mg"},{"bike_id":"8d8566de-f03a-4e5e-aa8c-ad2e3c17ab03","system_id":"levelo_inurba_marseille","lat":43.31522,"lon":5.3732,"is_reserved":false,"is_disabled":false,"rental_uris":{"android":"levelo://app?vid=8d8566de-f03a-4e5e-aa8c-ad2e3c17ab03","ios":"levelo://app?vid=8d8566de-f03a-4e5e-aa8c-ad2e3c17ab03"},"vehicle_type_id":"4","last_reported":1774374448,"current_range_meters":8400,"station_id":"ce4bgt12rcd13ifvqcd0","pricing_plan_id":"cebpf4jnsgd1na2vs0mg"},{"bike_id":"9270ea2d-a25c-4b31-8b43-f09d8c1aac90","system_id":"levelo_inurba_marseille","lat":43.28934,"lon":5.36385,"is_reserved":false,"is_disabled":false,"rental_uris":{"android":"levelo://app?vid=9270ea2d-a25c-4b31-8b43-f09d8c1aac90","ios":"levelo://app?vid=9270ea2d-a25c-4b31-8b43-f09d8c1aac90"},"vehicle_type_id":"4","last_reported":1774374448,"current_range_meters":8400,"station_id":"ce4bhc92rcd13ifvqetg","pricing_plan_id":"cebpf4jnsgd1na2vs0mg"},{"bike_id":"e8aa49f4-29aa-4bd1-9e45-1c91e6ff3b58","system_id":"levelo_inurba_marseille","lat":43.29878,"lon":5.39746,"is_reserved":false,"is_disabled":false,"rental_uris":{"android":"levelo://app?vid=e8aa49f4-29aa-4bd1-9e45-1c91e6ff3b58","ios":"levelo://app?vid=e8aa49f4-29aa-4bd1-9e45-1c91e6ff3b58"},"vehicle_type_id":"4","last_reported":1774374448,"current_range_meters":8400,"station_id":"ce4bh0h2rcd13ifvqd50","pricing_plan_id":"cebpf4jnsgd1na2vs0mg"},{"bike_id":"6d9c5e6b-108e-4949-b695-787a358a2f73","system_id":"levelo_inurba_marseille","lat":43.30652,"lon":5.40097,"is_reserved":false,"is_disabled":false,"rental_uris":{"android":"levelo://app?vid=6d9c5e6b-108e-4949-b695-787a358a2f73","ios":"levelo://app?vid=6d9c5e6b-108e-4949-b695-787a358a2f73"},"vehicle_type_id":"4","last_reported":1774374448,"current_range_meters":8400,"station_id":"ce4bh112rcd13ifvqda0","pricing_plan_id":"cebpf4jnsgd1na2vs0mg"},{"bike_id":"61734b4a-3d16-4c36-b0cd-c38fb2dbfc67","system_id":"levelo_inurba_marseille","lat":43.30123,"lon":5.43126,"is_reserved":false,"is_disabled":false,"rental_uris":{"android":"levelo://app?vid=61734b4a-3d16-4c36-b0cd-c38fb2dbfc67","ios":"levelo://app?vid=61734b4a-3d16-4c36-b0cd-c38fb2dbfc67"},"vehicle_type_id":"4","last_reported":1774374448,"current_range_meters":8400,"station_id":"st_d3js3co5814s73ftftug","pricing_plan_id":"cebpf4jnsgd1na2vs0mg"},{"bike_id":"715aaeb5-0d16-47e0-ba84-f56328a24f5b","system_id":"levelo_inurba_marseille","lat":43.29905,"lon":5.43722,"is_reserved":false,"is_disabled":false,"rental_uris":{"android":"levelo://app?vid=715aaeb5-0d16-47e0-ba84-f56328a24f5b","ios":"levelo://app?vid=715aaeb5-0d16-47e0-ba84-f56328a24f5b"},"vehicle_type_id":"4","last_reported":1774374448,"current_range_meters":8800,"station_id":"","pricing_plan_id":"cebpf4jnsgd1na2vs0mg"},{"bike_id":"5dccdb74-acf4-4e3d-9229-d6ec1da2f503","system_id":"levelo_inurba_marseille","lat":43.28942,"lon":5.3799,"is_reserved":false,"is_disabled":false,"rental_uris":{"android":"levelo://app?vid=5dccdb74-acf4-4e3d-9229-d6ec1da2f503","ios":"levelo://app?vid=5dccdb74-acf4-4e3d-9229-d6ec1da2f503"},"vehicle_type_id":"4","last_reported":1774374448,"current_range_meters":8800,"station_id":"","pricing_plan_id":"cebpf4jnsgd1na2vs0mg"},{"bike_id":"992d461f-8839-4086-b27a-9edc1d38b03d","system_id":"levelo_inurba_marseille","lat":43.33549,"lon":5.37462,"is_reserved":false,"is_disabled":false,"rental_uris":{"android":"levelo://app?vid=992d461f-8839-4086-b27a-9edc1d38b03d","ios":"levelo://app?vid=992d461f-8839-4086-b27a-9edc1d38b03d"},"vehicle_type_id":"4","last_reported":1774374448,"current_range_meters":8800,"station_id":"st_d46tts09ee8s73dlu43g","pricing_plan_id":"cebpf4jnsgd1na2vs0mg"},{"bike_id":"478949dd-808e-48c2-b584-b29de6003528","system_id":"levelo_inurba_marseille","lat":43.29342,"lon":5.37146,"is_reserved":false,"is_disabled":false,"rental_uris":{"android":"levelo://app?vid=478949dd-808e-48c2-b584-b29de6003528","ios":"levelo://app?vid=478949dd-808e-48c2-b584-b29de6003528"},"vehicle_type_id":"4","last_reported":1774374448,"current_range_meters":8800,"station_id":"ce4bgh92rcd13ifvqb40","pricing_plan_id":"cebpf4jnsgd1na2vs0mg"},{"bike_id":"da6972b3-b161-480b-8ef0-1ff556fc7299","system_id":"levelo_inurba_marseille","lat":43.23791,"lon":5.36637,"is_reserved":false,"is_disabled":false,"rental_uris":{"android":"levelo://app?vid=da6972b3-b161-480b-8ef0-1ff556fc7299","ios":"levelo://app?vid=da6972b3-b161-480b-8ef0-1ff556fc7299"},"vehicle_type_id":"4","last_reported":1774374448,"current_range_meters":8800,"station_id":"st_d3nk18o9ro0c73en2l3g","pricing_plan_id":"cebpf4jnsgd1na2vs0mg"},{"bike_id":"5cbe01e8-b395-4927-aee5-70510e2b85a4","system_id":"levelo_inurba_marseille","lat":43.2656,"lon":5.37297,"is_reserved":false,"is_disabled":false,"rental_uris":{"android":"levelo://app?vid=5cbe01e8-b395-4927-aee5-70510e2b85a4","ios":"levelo://app?vid=5cbe01e8-b395-4927-aee5-70510e2b85a4"},"vehicle_type_id":"4","last_reported":1774374448,"current_range_meters":8800,"station_id":"ce4bhg12rcd13ifvqf70","pricing_plan_id":"cebpf4jnsgd1na2vs0mg"},{"bike_id":"bffcc370-475b-4b4a-aab0-afa739f65c93","system_id":"levelo_inurba_marseille","lat":43.28719,"lon":5.37943,"is_reserved":false,"is_disabled":false,"rental_uris":{"android":"levelo://app?vid=bffcc370-475b-4b4a-aab0-afa739f65c93","ios":"levelo://app?vid=bffcc370-475b-4b4a-aab0-afa739f65c93"},"vehicle_type_id":"4","last_reported":1774374448,"current_range_meters":8800,"station_id":"ce4bh9p2rcd13ifvqec0","pricing_plan_id":"cebpf4jnsgd1na2vs0mg"},{"bike_id":"7d591b1e-9784-49d3-a4b7-accaf10b6402","system_id":"levelo_inurba_marseille","lat":43.23186,"lon":5.39994,"is_reserved":false,"is_disabled":false,"rental_uris":{"android":"levelo://app?vid=7d591b1e-9784-49d3-a4b7-accaf10b6402","ios":"levelo://app?vid=7d591b1e-9784-49d3-a4b7-accaf10b6402"},"vehicle_type_id":"4","last_reported":1774374448,"current_range_meters":8800,"station_id":"ce4bhn12rcd13ifvqgqg","pricing_plan_id":"cebpf4jnsgd1na2vs0mg"},{"bike_id":"62c0eda8-c666-40c1-b62d-71242266f316","system_id":"levelo_inurba_marseille","lat":43.28463,"lon":5.39106,"is_reserved":false,"is_disabled":true,"rental_uris":{"android":"levelo://app?vid=62c0eda8-c666-40c1-b62d-71242266f316","ios":"levelo://app?vid=62c0eda8-c666-40c1-b62d-71242266f316"},"vehicle_type_id":"4","last_reported":1774374448,"current_range_meters":8800,"station_id":"","pricing_plan_id":"cebpf4jnsgd1na2vs0mg"},{"bike_id":"1378eb30-6b36-43ed-91f3-e1ada00225ef","system_id":"levelo_inurba_marseille","lat":43.29226,"lon":5.36067,"is_reserved":false,"is_disabled":false,"rental_uris":{"android":"levelo://app?vid=1378eb30-6b36-43ed-91f3-e1ada00225ef","ios":"levelo://app?vid=1378eb30-6b36-43ed-91f3-e1ada00225ef"},"vehicle_type_id":"4","last_reported":1774374448,"current_range_meters":8800,"station_id":"ce4bhbh2rcd13ifvqeqg","pricing_plan_id":"cebpf4jnsgd1na2vs0mg"},{"bike_id":"6a209565-16db-4aba-85c7-7097837dcc24","system_id":"levelo_inurba_marseille","lat":43.24161,"lon":5.36408,"is_reserved":false,"is_disabled":false,"rental_uris":{"android":"levelo://app?vid=6a209565-16db-4aba-85c7-7097837dcc24","ios":"levelo://app?vid=6a209565-16db-4aba-85c7-7097837dcc24"},"vehicle_type_id":"4","last_reported":1774374448,"current_range_meters":8800,"station_id":"cpo36qri1sfpv3e86is0","pricing_plan_id":"cebpf4jnsgd1na2vs0mg"},{"bike_id":"fde7c990-ea71-4125-9b7f-4cda0f7e1677","system_id":"levelo_inurba_marseille","lat":43.23795,"lon":5.36651,"is_reserved":false,"is_disabled":false,"rental_uris":{"android":"levelo://app?vid=fde7c990-ea71-4125-9b7f-4cda0f7e1677","ios":"levelo://app?vid=fde7c990-ea71-4125-9b7f-4cda0f7e1677"},"vehicle_type_id":"4","last_reported":1774374448,"current_range_meters":8800,"station_id":"st_d3nk18o9ro0c73en2l3g","pricing_plan_id":"cebpf4jnsgd1na2vs0mg"},{"bike_id":"bdeaa3e7-b343-48a2-a15c-fcc065d0f396","system_id":"levelo_inurba_marseille","lat":43.27382,"lon":5.36265,"is_reserved":false,"is_disabled":false,"rental_uris":{"android":"levelo://app?vid=bdeaa3e7-b343-48a2-a15c-fcc065d0f396","ios":"levelo://app?vid=bdeaa3e7-b343-48a2-a15c-fcc065d0f396"},"vehicle_type_id":"4","last_reported":1774374448,"current_range_meters":8800,"station_id":"ce4bhbh2rcd13ifvqeo0","pricing_plan_id":"cebpf4jnsgd1na2vs0mg"},{"bike_id":"1ec674ce-a4a6-40c5-b3d5-2641109d2146","system_id":"levelo_inurba_marseille","lat":43.27379,"lon":5.36258,"is_reserved":false,"is_disabled":false,"rental_uris":{"android":"levelo://app?vid=1ec674ce-a4a6-40c5-b3d5-2641109d2146","ios":"levelo://app?vid=1ec674ce-a4a6-40c5-b3d5-2641109d2146"},"vehicle_type_id":"4","last_reported":1774374448,"current_range_meters":8800,"station_id":"ce4bhbh2rcd13ifvqeo0","pricing_plan_id":"cebpf4jnsgd1na2vs0mg"},{"bike_id":"16d1d857-8c7e-478a-a494-6a2303077e55","system_id":"levelo_inurba_marseille","lat":43.3153,"lon":5.38032,"is_reserved":false,"is_disabled":false,"rental_uris":{"android":"levelo://app?vid=16d1d857-8c7e-478a-a494-6a2303077e55","ios":"levelo://app?vid=16d1d857-8c7e-478a-a494-6a2303077e55"},"vehicle_type_id":"4","last_reported":1774374448,"current_range_meters":8800,"station_id":"ce4bhsp2rcd13ifvqi50","pricing_plan_id":"cebpf4jnsgd1na2vs0mg"},{"bike_id":"3524b5fa-87e0-47ae-8242-2301db386b2e","system_id":"levelo_inurba_marseille","lat":43.286119,"lon":5.351028,"is_reserved":false,"is_disabled":false,"rental_uris":{"android":"levelo://app?vid=3524b5fa-87e0-47ae-8242-2301db386b2e","ios":"levelo://app?vid=3524b5fa-87e0-47ae-8242-2301db386b2e"},"vehicle_type_id":"4","last_reported":1774374448,"current_range_meters":8800,"station_id":"ce4bhch2rcd13ifvqeug","pricing_plan_id":"cebpf4jnsgd1na2vs0mg"},{"bike_id":"cfe5d9e2-0c1c-4727-8978-5076712ffa98","system_id":"levelo_inurba_marseille","lat":43.286746,"lon":5.386967,"is_reserved":false,"is_disabled":false,"rental_uris":{"android":"levelo://app?vid=cfe5d9e2-0c1c-4727-8978-5076712ffa98","ios":"levelo://app?vid=cfe5d9e2-0c1c-4727-8978-5076712ffa98"},"vehicle_type_id":"4","last_reported":1774374448,"current_range_meters":8800,"station_id":"ce4bh492rcd13ifvqdug","pricing_plan_id":"cebpf4jnsgd1na2vs0mg"},{"bike_id":"13033bfe-5abc-4d9f-a4f4-8c0fb74314dc","system_id":"levelo_inurba_marseille","lat":43.31364,"lon":5.38488,"is_reserved":false,"is_disabled":false,"rental_uris":{"android":"levelo://app?vid=13033bfe-5abc-4d9f-a4f4-8c0fb74314dc","ios":"levelo://app?vid=13033bfe-5abc-4d9f-a4f4-8c0fb74314dc"},"vehicle_type_id":"4","last_reported":1774374448,"current_range_meters":8800,"station_id":"ce4bgt92rcd13ifvqcf0","pricing_plan_id":"cebpf4jnsgd1na2vs0mg"},{"bike_id":"ad3f3d88-4463-474b-802d-6cff79eea73f","system_id":"levelo_inurba_marseille","lat":43.24652,"lon":5.38946,"is_reserved":false,"is_disabled":false,"rental_uris":{"android":"levelo://app?vid=ad3f3d88-4463-474b-802d-6cff79eea73f","ios":"levelo://app?vid=ad3f3d88-4463-474b-802d-6cff79eea73f"},"vehicle_type_id":"4","last_reported":1774374448,"current_range_meters":8800,"station_id":"ce4bhg12rcd13ifvqf60","pricing_plan_id":"cebpf4jnsgd1na2vs0mg"},{"bike_id":"18c22cf9-9438-4c97-8b6d-a3ff05b16a56","system_id":"levelo_inurba_marseille","lat":43.29548,"lon":5.40645,"is_reserved":false,"is_disabled":false,"rental_uris":{"android":"levelo://app?vid=18c22cf9-9438-4c97-8b6d-a3ff05b16a56","ios":"levelo://app?vid=18c22cf9-9438-4c97-8b6d-a3ff05b16a56"},"vehicle_type_id":"4","last_reported":1774374448,"current_range_meters":8800,"station_id":"","pricing_plan_id":"cebpf4jnsgd1na2vs0mg"},{"bike_id":"52820d68-8346-44cf-8466-114f9b44a58a","system_id":"levelo_inurba_marseille","lat":43.29799,"lon":5.38091,"is_reserved":false,"is_disabled":false,"rental_uris":{"android":"levelo://app?vid=52820d68-8346-44cf-8466-114f9b44a58a","ios":"levelo://app?vid=52820d68-8346-44cf-8466-114f9b44a58a"},"vehicle_type_id":"4","last_reported":1774374448,"current_range_meters":8800,"station_id":"ce4bgip2rcd13ifvqbb0","pricing_plan_id":"cebpf4jnsgd1na2vs0mg"},{"bike_id":"40c1952e-61d1-45df-89d8-aeaa53843678","system_id":"levelo_inurba_marseille","lat":43.3109,"lon":5.37187,"is_reserved":false,"is_disabled":false,"rental_uris":{"android":"levelo://app?vid=40c1952e-61d1-45df-89d8-aeaa53843678","ios":"levelo://app?vid=40c1952e-61d1-45df-89d8-aeaa53843678"},"vehicle_type_id":"4","last_reported":1774374448,"current_range_meters":8800,"station_id":"st_d4kl2rp97mjs73e7tdfg","pricing_plan_id":"cebpf4jnsgd1na2vs0mg"},{"bike_id":"3c68b8c9-7b48-4a5e-96da-c48a047e8ef3","system_id":"levelo_inurba_marseille","lat":43.32479,"lon":5.3658,"is_reserved":false,"is_disabled":false,"rental_uris":{"android":"levelo://app?vid=3c68b8c9-7b48-4a5e-96da-c48a047e8ef3","ios":"levelo://app?vid=3c68b8c9-7b48-4a5e-96da-c48a047e8ef3"},"vehicle_type_id":"4","last_reported":1774374448,"current_range_meters":9200,"station_id":"ce4bhs12rcd13ifvqhvg","pricing_plan_id":"cebpf4jnsgd1na2vs0mg"},{"bike_id":"13f9f031-67ea-407a-a66e-c4b749576cd4","system_id":"levelo_inurba_marseille","lat":43.23959,"lon":5.36641,"is_reserved":false,"is_disabled":false,"rental_uris":{"android":"levelo://app?vid=13f9f031-67ea-407a-a66e-c4b749576cd4","ios":"levelo://app?vid=13f9f031-67ea-407a-a66e-c4b749576cd4"},"vehicle_type_id":"4","last_reported":1774374448,"current_range_meters":9200,"station_id":"ce4bhi12rcd13ifvqfp0","pricing_plan_id":"cebpf4jnsgd1na2vs0mg"},{"bike_id":"4afef56e-ee3d-4a68-9c6e-6fb1341cc15d","system_id":"levelo_inurba_marseille","lat":43.2254,"lon":5.34829,"is_reserved":false,"is_disabled":false,"rental_uris":{"android":"levelo://app?vid=4afef56e-ee3d-4a68-9c6e-6fb1341cc15d","ios":"levelo://app?vid=4afef56e-ee3d-4a68-9c6e-6fb1341cc15d"},"vehicle_type_id":"4","last_reported":1774374448,"current_range_meters":9200,"station_id":"","pricing_plan_id":"cebpf4jnsgd1na2vs0mg"},{"bike_id":"29f49a32-ba08-40ef-839e-89650b416d04","system_id":"levelo_inurba_marseille","lat":43.31079,"lon":5.3789,"is_reserved":false,"is_disabled":false,"rental_uris":{"android":"levelo://app?vid=29f49a32-ba08-40ef-839e-89650b416d04","ios":"levelo://app?vid=29f49a32-ba08-40ef-839e-89650b416d04"},"vehicle_type_id":"4","last_reported":1774374448,"current_range_meters":9200,"station_id":"","pricing_plan_id":"cebpf4jnsgd1na2vs0mg"},{"bike_id":"526f2898-bc02-4198-9596-2aa2b29dfa51","system_id":"levelo_inurba_marseille","lat":43.23198,"lon":5.39978,"is_reserved":false,"is_disabled":false,"rental_uris":{"android":"levelo://app?vid=526f2898-bc02-4198-9596-2aa2b29dfa51","ios":"levelo://app?vid=526f2898-bc02-4198-9596-2aa2b29dfa51"},"vehicle_type_id":"4","last_reported":1774374448,"current_range_meters":9200,"station_id":"ce4bhn12rcd13ifvqgqg","pricing_plan_id":"cebpf4jnsgd1na2vs0mg"},{"bike_id":"73dd20e2-41a1-44b8-bb86-2908d327106b","system_id":"levelo_inurba_marseille","lat":43.28264,"lon":5.35063,"is_reserved":false,"is_disabled":false,"rental_uris":{"android":"levelo://app?vid=73dd20e2-41a1-44b8-bb86-2908d327106b","ios":"levelo://app?vid=73dd20e2-41a1-44b8-bb86-2908d327106b"},"vehicle_type_id":"4","last_reported":1774374448,"current_range_meters":9200,"station_id":"ce4bhbp2rcd13ifvqerg","pricing_plan_id":"cebpf4jnsgd1na2vs0mg"},{"bike_id":"168ccf17-3133-4472-85a2-824035dc8266","system_id":"levelo_inurba_marseille","lat":43.22954,"lon":5.35383,"is_reserved":false,"is_disabled":false,"rental_uris":{"android":"levelo://app?vid=168ccf17-3133-4472-85a2-824035dc8266","ios":"levelo://app?vid=168ccf17-3133-4472-85a2-824035dc8266"},"vehicle_type_id":"4","last_reported":1774374448,"current_range_meters":9200,"station_id":"cpo3532slgdg3j2ikp40","pricing_plan_id":"cebpf4jnsgd1na2vs0mg"},{"bike_id":"d1cfccfe-2874-4d7e-89bc-5c74a40945d2","system_id":"levelo_inurba_marseille","lat":43.3136,"lon":5.3849,"is_reserved":false,"is_disabled":false,"rental_uris":{"android":"levelo://app?vid=d1cfccfe-2874-4d7e-89bc-5c74a40945d2","ios":"levelo://app?vid=d1cfccfe-2874-4d7e-89bc-5c74a40945d2"},"vehicle_type_id":"4","last_reported":1774374448,"current_range_meters":9200,"station_id":"ce4bgt92rcd13ifvqcf0","pricing_plan_id":"cebpf4jnsgd1na2vs0mg"},{"bike_id":"520c6a35-2d7a-46f7-a3c3-305bc04b6ae8","system_id":"levelo_inurba_marseille","lat":43.28912,"lon":5.39639,"is_reserved":false,"is_disabled":false,"rental_uris":{"android":"levelo://app?vid=520c6a35-2d7a-46f7-a3c3-305bc04b6ae8","ios":"levelo://app?vid=520c6a35-2d7a-46f7-a3c3-305bc04b6ae8"},"vehicle_type_id":"4","last_reported":1774374448,"current_range_meters":9200,"station_id":"ce4bh3h2rcd13ifvqdn0","pricing_plan_id":"cebpf4jnsgd1na2vs0mg"},{"bike_id":"adaf8e00-ca2c-49b5-9b35-6749da32aa87","system_id":"levelo_inurba_marseille","lat":43.33592,"lon":5.37486,"is_reserved":false,"is_disabled":false,"rental_uris":{"android":"levelo://app?vid=adaf8e00-ca2c-49b5-9b35-6749da32aa87","ios":"levelo://app?vid=adaf8e00-ca2c-49b5-9b35-6749da32aa87"},"vehicle_type_id":"4","last_reported":1774374448,"current_range_meters":9200,"station_id":"st_d46tts09ee8s73dlu43g","pricing_plan_id":"cebpf4jnsgd1na2vs0mg"},{"bike_id":"489b1f47-9bf9-4f10-90f5-3b4dff230700","system_id":"levelo_inurba_marseille","lat":43.23788,"lon":5.36634,"is_reserved":false,"is_disabled":false,"rental_uris":{"android":"levelo://app?vid=489b1f47-9bf9-4f10-90f5-3b4dff230700","ios":"levelo://app?vid=489b1f47-9bf9-4f10-90f5-3b4dff230700"},"vehicle_type_id":"4","last_reported":1774374448,"current_range_meters":9200,"station_id":"st_d3nk18o9ro0c73en2l3g","pricing_plan_id":"cebpf4jnsgd1na2vs0mg"},{"bike_id":"fd6c9a0e-af14-4324-a2d4-370f93f058b9","system_id":"levelo_inurba_marseille","lat":43.29534,"lon":5.38543,"is_reserved":false,"is_disabled":false,"rental_uris":{"android":"levelo://app?vid=fd6c9a0e-af14-4324-a2d4-370f93f058b9","ios":"levelo://app?vid=fd6c9a0e-af14-4324-a2d4-370f93f058b9"},"vehicle_type_id":"4","last_reported":1774374448,"current_range_meters":9200,"station_id":"ce4bgih2rcd13ifvqba0","pricing_plan_id":"cebpf4jnsgd1na2vs0mg"},{"bike_id":"d6f586b1-8720-4f1f-9c52-e587917acdde","system_id":"levelo_inurba_marseille","lat":43.29262,"lon":5.38443,"is_reserved":false,"is_disabled":false,"rental_uris":{"android":"levelo://app?vid=d6f586b1-8720-4f1f-9c52-e587917acdde","ios":"levelo://app?vid=d6f586b1-8720-4f1f-9c52-e587917acdde"},"vehicle_type_id":"4","last_reported":1774374448,"current_range_meters":9200,"station_id":"ce4bh692rcd13ifvqea0","pricing_plan_id":"cebpf4jnsgd1na2vs0mg"},{"bike_id":"2f430c62-15bb-430c-969c-56b5339d66a3","system_id":"levelo_inurba_marseille","lat":43.28492,"lon":5.44193,"is_reserved":false,"is_disabled":false,"rental_uris":{"android":"levelo://app?vid=2f430c62-15bb-430c-969c-56b5339d66a3","ios":"levelo://app?vid=2f430c62-15bb-430c-969c-56b5339d66a3"},"vehicle_type_id":"4","last_reported":1774374448,"current_range_meters":9200,"station_id":"","pricing_plan_id":"cebpf4jnsgd1na2vs0mg"},{"bike_id":"85ac4edc-586c-4c12-9a3c-b31df2705f50","system_id":"levelo_inurba_marseille","lat":43.31538,"lon":5.38038,"is_reserved":false,"is_disabled":false,"rental_uris":{"android":"levelo://app?vid=85ac4edc-586c-4c12-9a3c-b31df2705f50","ios":"levelo://app?vid=85ac4edc-586c-4c12-9a3c-b31df2705f50"},"vehicle_type_id":"4","last_reported":1774374448,"current_range_meters":9200,"station_id":"ce4bhsp2rcd13ifvqi50","pricing_plan_id":"cebpf4jnsgd1na2vs0mg"},{"bike_id":"b9d157e4-adb0-4d64-b93d-349f42c39fcf","system_id":"levelo_inurba_marseille","lat":43.31895,"lon":5.36823,"is_reserved":false,"is_disabled":false,"rental_uris":{"android":"levelo://app?vid=b9d157e4-adb0-4d64-b93d-349f42c39fcf","ios":"levelo://app?vid=b9d157e4-adb0-4d64-b93d-349f42c39fcf"},"vehicle_type_id":"4","last_reported":1774374448,"current_range_meters":9200,"station_id":"st_d6o2h0d0559c73evc1b0","pricing_plan_id":"cebpf4jnsgd1na2vs0mg"},{"bike_id":"bfd71d8b-60ea-45f0-a953-a0cd8227fdee","system_id":"levelo_inurba_marseille","lat":43.28229,"lon":5.39063,"is_reserved":false,"is_disabled":false,"rental_uris":{"android":"levelo://app?vid=bfd71d8b-60ea-45f0-a953-a0cd8227fdee","ios":"levelo://app?vid=bfd71d8b-60ea-45f0-a953-a0cd8227fdee"},"vehicle_type_id":"4","last_reported":1774374448,"current_range_meters":9600,"station_id":"ce4bhn92rcd13ifvqgsg","pricing_plan_id":"cebpf4jnsgd1na2vs0mg"},{"bike_id":"a42d69ec-9635-477a-a61d-5301e4f014fe","system_id":"levelo_inurba_marseille","lat":43.30545,"lon":5.36781,"is_reserved":false,"is_disabled":false,"rental_uris":{"android":"levelo://app?vid=a42d69ec-9635-477a-a61d-5301e4f014fe","ios":"levelo://app?vid=a42d69ec-9635-477a-a61d-5301e4f014fe"},"vehicle_type_id":"4","last_reported":1774374448,"current_range_meters":9600,"station_id":"ce4bgrp2rcd13ifvqc9g","pricing_plan_id":"cebpf4jnsgd1na2vs0mg"},{"bike_id":"fdd8bf84-b2fe-4508-9572-06ea662fa5ac","system_id":"levelo_inurba_marseille","lat":43.28489,"lon":5.48381,"is_reserved":false,"is_disabled":false,"rental_uris":{"android":"levelo://app?vid=fdd8bf84-b2fe-4508-9572-06ea662fa5ac","ios":"levelo://app?vid=fdd8bf84-b2fe-4508-9572-06ea662fa5ac"},"vehicle_type_id":"4","last_reported":1774374448,"current_range_meters":9600,"station_id":"","pricing_plan_id":"cebpf4jnsgd1na2vs0mg"},{"bike_id":"726a37ea-559a-4a88-9bdf-b6cedb89372f","system_id":"levelo_inurba_marseille","lat":43.24163,"lon":5.36406,"is_reserved":false,"is_disabled":false,"rental_uris":{"android":"levelo://app?vid=726a37ea-559a-4a88-9bdf-b6cedb89372f","ios":"levelo://app?vid=726a37ea-559a-4a88-9bdf-b6cedb89372f"},"vehicle_type_id":"4","last_reported":1774374448,"current_range_meters":9600,"station_id":"cpo36qri1sfpv3e86is0","pricing_plan_id":"cebpf4jnsgd1na2vs0mg"},{"bike_id":"246601ae-30ef-47a5-821b-f74cce4f8059","system_id":"levelo_inurba_marseille","lat":43.28935,"lon":5.36621,"is_reserved":false,"is_disabled":false,"rental_uris":{"android":"levelo://app?vid=246601ae-30ef-47a5-821b-f74cce4f8059","ios":"levelo://app?vid=246601ae-30ef-47a5-821b-f74cce4f8059"},"vehicle_type_id":"4","last_reported":1774374448,"current_range_meters":9600,"station_id":"ce4bhap2rcd13ifvqek0","pricing_plan_id":"cebpf4jnsgd1na2vs0mg"},{"bike_id":"3af2714f-f53f-4440-a1b4-eaffa242263b","system_id":"levelo_inurba_marseille","lat":43.3171,"lon":5.3777,"is_reserved":false,"is_disabled":false,"rental_uris":{"android":"levelo://app?vid=3af2714f-f53f-4440-a1b4-eaffa242263b","ios":"levelo://app?vid=3af2714f-f53f-4440-a1b4-eaffa242263b"},"vehicle_type_id":"4","last_reported":1774374448,"current_range_meters":9600,"station_id":"ce4bgth2rcd13ifvqch0","pricing_plan_id":"cebpf4jnsgd1na2vs0mg"},{"bike_id":"866b1c87-edf5-40a8-8ca0-c6aceda22bb3","system_id":"levelo_inurba_marseille","lat":43.27925,"lon":5.39571,"is_reserved":false,"is_disabled":true,"rental_uris":{"android":"levelo://app?vid=866b1c87-edf5-40a8-8ca0-c6aceda22bb3","ios":"levelo://app?vid=866b1c87-edf5-40a8-8ca0-c6aceda22bb3"},"vehicle_type_id":"4","last_reported":1774374448,"current_range_meters":9600,"station_id":"ce4bhf92rcd13ifvqf40","pricing_plan_id":"cebpf4jnsgd1na2vs0mg"},{"bike_id":"ac2165cf-9a56-4880-8e90-98b5595f6e46","system_id":"levelo_inurba_marseille","lat":43.29268,"lon":5.38447,"is_reserved":false,"is_disabled":false,"rental_uris":{"android":"levelo://app?vid=ac2165cf-9a56-4880-8e90-98b5595f6e46","ios":"levelo://app?vid=ac2165cf-9a56-4880-8e90-98b5595f6e46"},"vehicle_type_id":"4","last_reported":1774374448,"current_range_meters":9600,"station_id":"ce4bh692rcd13ifvqea0","pricing_plan_id":"cebpf4jnsgd1na2vs0mg"},{"bike_id":"b96279e9-6671-4a1e-9681-1cda4c09461f","system_id":"levelo_inurba_marseille","lat":43.25576,"lon":5.38235,"is_reserved":false,"is_disabled":false,"rental_uris":{"android":"levelo://app?vid=b96279e9-6671-4a1e-9681-1cda4c09461f","ios":"levelo://app?vid=b96279e9-6671-4a1e-9681-1cda4c09461f"},