{"last_updated":1731053518,"ttl":60,"version":"2.2","data":{"bikes":[{"bike_id":"45ac8669-829e-46bd-a59e-8fc03fc6934f","system_id":"levelo_inurba_marseille","lat":43.30148,"lon":5.38063,"is_reserved":false,"is_disabled":false,"rental_uris":{"android":"levelo://app?vid=45ac8669-829e-46bd-a59e-8fc03fc6934f","ios":"levelo://app?vid=45ac8669-829e-46bd-a59e-8fc03fc6934f"},"vehicle_type_id":"4","last_reported":1731053518,"current_range_meters":31200,"station_id":"ce4bgjp2rcd13ifvqbh0","pricing_plan_id":"cebpf4jnsgd1na2vs0mg"},{"bike_id":"1a240cd8-3283-4391-8369-a111a0fe6dd9","system_id":"levelo_inurba_marseille","lat":43.2951,"lon":5.3751,"is_reserved":false,"is_disabled":false,"rental_uris":{"android":"levelo://app?vid=1a240cd8-3283-4391-8369-a111a0fe6dd9","ios":"levelo://app?vid=1a240cd8-3283-4391-8369-a111a0fe6dd9"},"vehicle_type_id":"4","last_reported":1731053518,"current_range_meters":25600,"station_id":"ce4bgkp2rcd13ifvqbmg","pricing_plan_id":"cebpf4jnsgd1na2vs0mg"},{"bike_id":"7ead2d8a-2f4e-457e-840c-033876c1c6be","system_id":"levelo_inurba_marseille","lat":43.30274,"lon":5.37697,"is_reserved":false,"is_disabled":false,"rental_uris":{"android":"levelo://app?vid=7ead2d8a-2f4e-457e-840c-033876c1c6be","ios":"levelo://app?vid=7ead2d8a-2f4e-457e-840c-033876c1c6be"},"vehicle_type_id":"4","last_reported":1731053518,"current_range_meters":38800,"station_id":"ce4bguh2rcd13ifvqcj0","pricing_plan_id":"cebpf4jnsgd1na2vs0mg"},{"bike_id":"232ebf69-ccbe-46e6-a58b-622523485df1","system_id":"levelo_inurba_marseille","lat":43.30929,"lon":5.40149,"is_reserved":false,"is_disabled":false,"rental_uris":{"android":"levelo://app?vid=232ebf69-ccbe-46e6-a58b-622523485df1","ios":"levelo://app?vid=232ebf69-ccbe-46e6-a58b-622523485df1"},"vehicle_type_id":"4","last_reported":1731053518,"current_range_meters":27600,"station_id":"ce4bgvp2rcd13ifvqct0","pricing_plan_id":"cebpf4jnsgd1na2vs0mg"},{"bike_id":"e5e7465d-1f89-4768-b017-15428809116f","system_id":"levelo_inurba_marseille","lat":43.26678,"lon":5.38268,"is_reserved":false,"is_disabled":false,"rental_uris":{"android":"levelo://app?vid=e5e7465d-1f89-4768-b017-15428809116f","ios":"levelo://app?vid=e5e7465d-1f89-4768-b017-15428809116f"},"vehicle_type_id":"4","last_reported":1731053518,"current_range_meters":29600,"station_id":"ce4bhg92rcd13ifvqf90","pricing_plan_id":"cebpf4jnsgd1na2vs0mg"},{"bike_id":"2b783626-d1c8-4f0c-8266-9671985242ef","system_id":"levelo_inurba_marseille","lat":43.2815,"lon":5.42641,"is_reserved":false,"is_disabled":false,"rental_uris":{"android":"levelo://app?vid=2b783626-d1c8-4f0c-8266-9671985242ef","ios":"levelo://app?vid=2b783626-d1c8-4f0c-8266-9671985242ef"},"vehicle_type_id":"4","last_reported":1731053518,"current_range_meters":36000,"station_id":"ce4bhnh2rcd13ifvqgug","pricing_plan_id":"cebpf4jnsgd1na2vs0mg"},{"bike_id":"7f774ae5-6cb7-4c53-91e0-4e9519e7a5f3","system_id":"levelo_inurba_marseille","lat":43.31726,"lon":5.42386,"is_reserved":false,"is_disabled":false,"rental_uris":{"android":"levelo://app?vid=7f774ae5-6cb7-4c53-91e0-4e9519e7a5f3","ios":"levelo://app?vid=7f774ae5-6cb7-4c53-91e0-4e9519e7a5f3"},"vehicle_type_id":"4","last_reported":1731053518,"current_range_meters":32000,"station_id":"ce4bhp92rcd13ifvqhbg","pricing_plan_id":"cebpf4jnsgd1na2vs0mg"},{"bike_id":"6541c83f-290c-44b3-a472-aa915c826997","system_id":"levelo_inurba_marseille","lat":43.28351,"lon":5.38115,"is_reserved":false,"is_disabled":false,"rental_uris":{"android":"levelo://app?vid=6541c83f-290c-44b3-a472-aa915c826997","ios":"levelo://app?vid=6541c83f-290c-44b3-a472-aa915c826997"},"vehicle_type_id":"4","last_reported":1731053518,"current_range_meters":38400,"station_id":"ce4bh412rcd13ifvqdr0","pricing_plan_id":"cebpf4jnsgd1na2vs0mg"},{"bike_id":"164775f3-1313-48d3-8ee7-48c06b620b35","system_id":"levelo_inurba_marseille","lat":43.313607,"lon":5.384874,"is_reserved":false,"is_disabled":false,"rental_uris":{"android":"levelo://app?vid=164775f3-1313-48d3-8ee7-48c06b620b35","ios":"levelo://app?vid=164775f3-1313-48d3-8ee7-48c06b620b35"},"vehicle_type_id":"4","last_reported":1731053518,"current_range_meters":25200,"station_id":"ce4bgt92rcd13ifvqcf0","pricing_plan_id":"cebpf4jnsgd1na2vs0mg"},{"bike_id":"0299bca0-5fc6-4dd4-970e-91611f65d287","system_id":"levelo_inurba_marseille","lat":43.24097,"lon":5.37771,"is_reserved":false,"is_disabled":false,"rental_uris":{"android":"levelo://app?vid=0299bca0-5fc6-4dd4-970e-91611f65d287","ios":"levelo://app?vid=0299bca0-5fc6-4dd4-970e-91611f65d287"},"vehicle_type_id":"4","last_reported":1731053518,"current_range_meters":22000,"station_id":"ce4bhnp2rcd13ifvqgvg","pricing_plan_id":"cebpf4jnsgd1na2vs0mg"},{"bike_id":"54f4ea3f-ebbb-4547-b43e-2281dfc86bff","system_id":"levelo_inurba_marseille","lat":43.29686,"lon":5.37303,"is_reserved":false,"is_disabled":false,"rental_uris":{"android":"levelo://app?vid=54f4ea3f-ebbb-4547-b43e-2281dfc86bff","ios":"levelo://app?vid=54f4ea3f-ebbb-4547-b43e-2281dfc86bff"},"vehicle_type_id":"4","last_reported":1731053518,"current_range_meters":38800,"station_id":"ce4bgk12rcd13ifvqbj0","pricing_plan_id":"cebpf4jnsgd1na2vs0mg"},{"bike_id":"41dc0cdc-e2a3-4364-9502-e92dd8e24227","system_id":"levelo_inurba_marseille","lat":43.31326,"lon":5.36717,"is_reserved":false,"is_disabled":false,"rental_uris":{"android":"levelo://app?vid=41dc0cdc-e2a3-4364-9502-e92dd8e24227","ios":"levelo://app?vid=41dc0cdc-e2a3-4364-9502-e92dd8e24227"},"vehicle_type_id":"4","last_reported":1731053518,"current_range_meters":15200,"station_id":"ce4bgr92rcd13ifvqc6g","pricing_plan_id":"cebpf4jnsgd1na2vs0mg"},{"bike_id":"68e1c8c7-d076-487e-8424-d186576e3c3c","system_id":"levelo_inurba_marseille","lat":43.29586,"lon":5.38607,"is_reserved":false,"is_disabled":false,"rental_uris":{"android":"levelo://app?vid=68e1c8c7-d076-487e-8424-d186576e3c3c","ios":"levelo://app?vid=68e1c8c7-d076-487e-8424-d186576e3c3c"},"vehicle_type_id":"4","last_reported":1731053518,"current_range_meters":16000,"station_id":"","pricing_plan_id":"cebpf4jnsgd1na2vs0mg"},{"bike_id":"79799fe3-f814-4dfa-8373-38b4ce99c1ce","system_id":"levelo_inurba_marseille","lat":43.29722,"lon":5.37694,"is_reserved":false,"is_disabled":false,"rental_uris":{"android":"levelo://app?vid=79799fe3-f814-4dfa-8373-38b4ce99c1ce","ios":"levelo://app?vid=79799fe3-f814-4dfa-8373-38b4ce99c1ce"},"vehicle_type_id":"4","last_reported":1731053518,"current_range_meters":39200,"station_id":"ce4bgkh2rcd13ifvqbl0","pricing_plan_id":"cebpf4jnsgd1na2vs0mg"},{"bike_id":"504e5d62-7828-485f-b5c5-e0859c494a6c","system_id":"levelo_inurba_marseille","lat":43.32473,"lon":5.36579,"is_reserved":false,"is_disabled":false,"rental_uris":{"android":"levelo://app?vid=504e5d62-7828-485f-b5c5-e0859c494a6c","ios":"levelo://app?vid=504e5d62-7828-485f-b5c5-e0859c494a6c"},"vehicle_type_id":"4","last_reported":1731053518,"current_range_meters":37600,"station_id":"ce4bhs12rcd13ifvqhvg","pricing_plan_id":"cebpf4jnsgd1na2vs0mg"},{"bike_id":"28c8cd0f-56be-4d87-b407-bac33fd81785","system_id":"levelo_inurba_marseille","lat":43.33027,"lon":5.39043,"is_reserved":false,"is_disabled":false,"rental_uris":{"android":"levelo://app?vid=28c8cd0f-56be-4d87-b407-bac33fd81785","ios":"levelo://app?vid=28c8cd0f-56be-4d87-b407-bac33fd81785"},"vehicle_type_id":"4","last_reported":1731053518,"current_range_meters":38800,"station_id":"ce4bhr92rcd13ifvqhrg","pricing_plan_id":"cebpf4jnsgd1na2vs0mg"},{"bike_id":"0a6519eb-c9af-4f14-8f6c-3a55d5d60ed7","system_id":"levelo_inurba_marseille","lat":43.28941,"lon":5.36401,"is_reserved":false,"is_disabled":false,"rental_uris":{"android":"levelo://app?vid=0a6519eb-c9af-4f14-8f6c-3a55d5d60ed7","ios":"levelo://app?vid=0a6519eb-c9af-4f14-8f6c-3a55d5d60ed7"},"vehicle_type_id":"4","last_reported":1731053518,"current_range_meters":30400,"station_id":"ce4bhc92rcd13ifvqetg","pricing_plan_id":"cebpf4jnsgd1na2vs0mg"},{"bike_id":"e382a5f5-b97c-4326-befe-74fa542b41c7","system_id":"levelo_inurba_marseille","lat":43.23144,"lon":5.43715,"is_reserved":false,"is_disabled":false,"rental_uris":{"android":"levelo://app?vid=e382a5f5-b97c-4326-befe-74fa542b41c7","ios":"levelo://app?vid=e382a5f5-b97c-4326-befe-74fa542b41c7"},"vehicle_type_id":"4","last_reported":1731053518,"current_range_meters":28400,"station_id":"ce4bhmp2rcd13ifvqgog","pricing_plan_id":"cebpf4jnsgd1na2vs0mg"},{"bike_id":"a08c735d-a2ad-4fec-b005-ca5bb0562260","system_id":"levelo_inurba_marseille","lat":43.31492,"lon":5.37306,"is_reserved":false,"is_disabled":false,"rental_uris":{"android":"levelo://app?vid=a08c735d-a2ad-4fec-b005-ca5bb0562260","ios":"levelo://app?vid=a08c735d-a2ad-4fec-b005-ca5bb0562260"},"vehicle_type_id":"4","last_reported":1731053518,"current_range_meters":39200,"station_id":"ce4bgt12rcd13ifvqcd0","pricing_plan_id":"cebpf4jnsgd1na2vs0mg"},{"bike_id":"fd12b793-66ca-4f7d-ad00-0679e21d5de7","system_id":"levelo_inurba_marseille","lat":43.3054,"lon":5.36536,"is_reserved":false,"is_disabled":false,"rental_uris":{"android":"levelo://app?vid=fd12b793-66ca-4f7d-ad00-0679e21d5de7","ios":"levelo://app?vid=fd12b793-66ca-4f7d-ad00-0679e21d5de7"},"vehicle_type_id":"4","last_reported":1731053518,"current_range_meters":31200,"station_id":"ce4bgs12rcd13ifvqcag","pricing_plan_id":"cebpf4jnsgd1na2vs0mg"},{"bike_id":"e0550634-c99d-4fba-a1dc-9c9a77a31fb0","system_id":"levelo_inurba_marseille","lat":43.30552,"lon":5.36696,"is_reserved":false,"is_disabled":false,"rental_uris":{"android":"levelo://app?vid=e0550634-c99d-4fba-a1dc-9c9a77a31fb0","ios":"levelo://app?vid=e0550634-c99d-4fba-a1dc-9c9a77a31fb0"},"vehicle_type_id":"4","last_reported":1731053518,"current_range_meters":30400,"station_id":"ce4bgrp2rcd13ifvqc9g","pricing_plan_id":"cebpf4jnsgd1na2vs0mg"},{"bike_id":"a773c60d-75b1-400f-b744-7c7bc21c76a0","system_id":"levelo_inurba_marseille","lat":43.31087,"lon":5.42439,"is_reserved":false,"is_disabled":false,"rental_uris":{"android":"levelo://app?vid=a773c60d-75b1-400f-b744-7c7bc21c76a0","ios":"levelo://app?vid=a773c60d-75b1-400f-b744-7c7bc21c76a0"},"vehicle_type_id":"4","last_reported":1731053518,"current_range_meters":37600,"station_id":"ce4bhp92rcd13ifvqhag","pricing_plan_id":"cebpf4jnsgd1na2vs0mg"},{"bike_id":"bcf5dad1-721a-4f4e-82b2-15a9cc44926f","system_id":"levelo_inurba_marseille","lat":43.33776,"lon":5.37438,"is_reserved":false,"is_disabled":false,"rental_uris":{"android":"levelo://app?vid=bcf5dad1-721a-4f4e-82b2-15a9cc44926f","ios":"levelo://app?vid=bcf5dad1-721a-4f4e-82b2-15a9cc44926f"},"vehicle_type_id":"4","last_reported":1731053518,"current_range_meters":32400,"station_id":"","pricing_plan_id":"cebpf4jnsgd1na2vs0mg"},{"bike_id":"30871413-5e9d-42ff-be6f-adccddd3fae4","system_id":"levelo_inurba_marseille","lat":43.33605,"lon":5.41029,"is_reserved":false,"is_disabled":false,"rental_uris":{"android":"levelo://app?vid=30871413-5e9d-42ff-be6f-adccddd3fae4","ios":"levelo://app?vid=30871413-5e9d-42ff-be6f-adccddd3fae4"},"vehicle_type_id":"4","last_reported":1731053518,"current_range_meters":28800,"station_id":"ce4bhqh2rcd13ifvqhmg","pricing_plan_id":"cebpf4jnsgd1na2vs0mg"},{"bike_id":"11b40ac3-086f-467f-8b48-aaff9dcc50ab","system_id":"levelo_inurba_marseille","lat":43.296021,"lon":5.381059,"is_reserved":false,"is_disabled":false,"rental_uris":{"android":"levelo://app?vid=11b40ac3-086f-467f-8b48-aaff9dcc50ab","ios":"levelo://app?vid=11b40ac3-086f-467f-8b48-aaff9dcc50ab"},"vehicle_type_id":"4","last_reported":1731053518,"current_range_meters":19600,"station_id":"ce4bgl12rcd13ifvqbo0","pricing_plan_id":"cebpf4jnsgd1na2vs0mg"},{"bike_id":"4525546b-3417-4249-8f7d-ad73da8809c5","system_id":"levelo_inurba_marseille","lat":43.33605,"lon":5.41037,"is_reserved":false,"is_disabled":false,"rental_uris":{"android":"levelo://app?vid=4525546b-3417-4249-8f7d-ad73da8809c5","ios":"levelo://app?vid=4525546b-3417-4249-8f7d-ad73da8809c5"},"vehicle_type_id":"4","last_reported":1731053518,"current_range_meters":6800,"station_id":"ce4bhqh2rcd13ifvqhmg","pricing_plan_id":"cebpf4jnsgd1na2vs0mg"},{"bike_id":"2fe0360e-e7e5-476d-87e5-00cbfae7b7e5","system_id":"levelo_inurba_marseille","lat":43.30151,"lon":5.38082,"is_reserved":false,"is_disabled":false,"rental_uris":{"android":"levelo://app?vid=2fe0360e-e7e5-476d-87e5-00cbfae7b7e5","ios":"levelo://app?vid=2fe0360e-e7e5-476d-87e5-00cbfae7b7e5"},"vehicle_type_id":"4","last_reported":1731053518,"current_range_meters":35600,"station_id":"ce4bgjp2rcd13ifvqbh0","pricing_plan_id":"cebpf4jnsgd1na2vs0mg"},{"bike_id":"6622a163-3b9f-4330-86ce-54423cf94cdf","system_id":"levelo_inurba_marseille","lat":43.28099,"lon":5.37836,"is_reserved":false,"is_disabled":false,"rental_uris":{"android":"levelo://app?vid=6622a163-3b9f-4330-86ce-54423cf94cdf","ios":"levelo://app?vid=6622a163-3b9f-4330-86ce-54423cf94cdf"},"vehicle_type_id":"4","last_reported":1731053518,"current_range_meters":39200,"station_id":"ce4bha12rcd13ifvqee0","pricing_plan_id":"cebpf4jnsgd1na2vs0mg"},{"bike_id":"6fb32bb1-acec-47e9-a78c-5f0271edfd7f","system_id":"levelo_inurba_marseille","lat":43.26177,"lon":5.37501,"is_reserved":false,"is_disabled":false,"rental_uris":{"android":"levelo://app?vid=6fb32bb1-acec-47e9-a78c-5f0271edfd7f","ios":"levelo://app?vid=6fb32bb1-acec-47e9-a78c-5f0271edfd7f"},"vehicle_type_id":"4","last_reported":1731053518,"current_range_meters":23200,"station_id":"ce4bhgp2rcd13ifvqfc0","pricing_plan_id":"cebpf4jnsgd1na2vs0mg"},{"bike_id":"3d32f789-a044-47cc-8444-b1887a88a83f","system_id":"levelo_inurba_marseille","lat":43.30548,"lon":5.3671,"is_reserved":false,"is_disabled":false,"rental_uris":{"android":"levelo://app?vid=3d32f789-a044-47cc-8444-b1887a88a83f","ios":"levelo://app?vid=3d32f789-a044-47cc-8444-b1887a88a83f"},"vehicle_type_id":"4","last_reported":1731053518,"current_range_meters":38800,"station_id":"ce4bgrp2rcd13ifvqc9g","pricing_plan_id":"cebpf4jnsgd1na2vs0mg"},{"bike_id":"e507d365-9255-4b2a-90fc-6978326419e9","system_id":"levelo_inurba_marseille","lat":43.29548,"lon":5.42292,"is_reserved":false,"is_disabled":false,"rental_uris":{"android":"levelo://app?vid=e507d365-9255-4b2a-90fc-6978326419e9","ios":"levelo://app?vid=e507d365-9255-4b2a-90fc-6978326419e9"},"vehicle_type_id":"4","last_reported":1731053518,"current_range_meters":3600,"station_id":"ce4bhph2rcd13ifvqhdg","pricing_plan_id":"cebpf4jnsgd1na2vs0mg"},{"bike_id":"ea3e44e4-5607-432c-a36c-1dd1c2026358","system_id":"levelo_inurba_marseille","lat":43.323678,"lon":5.38895,"is_reserved":false,"is_disabled":false,"rental_uris":{"android":"levelo://app?vid=ea3e44e4-5607-432c-a36c-1dd1c2026358","ios":"levelo://app?vid=ea3e44e4-5607-432c-a36c-1dd1c2026358"},"vehicle_type_id":"4","last_reported":1731053518,"current_range_meters":36400,"station_id":"ce4bhqp2rcd13ifvqhog","pricing_plan_id":"cebpf4jnsgd1na2vs0mg"},{"bike_id":"80506601-0716-4a5c-9a46-690aa763831c","system_id":"levelo_inurba_marseille","lat":43.29562,"lon":5.37528,"is_reserved":false,"is_disabled":false,"rental_uris":{"android":"levelo://app?vid=80506601-0716-4a5c-9a46-690aa763831c","ios":"levelo://app?vid=80506601-0716-4a5c-9a46-690aa763831c"},"vehicle_type_id":"4","last_reported":1731053518,"current_range_meters":30800,"station_id":"ce4bgh92rcd13ifvqb50","pricing_plan_id":"cebpf4jnsgd1na2vs0mg"},{"bike_id":"b1d16fbb-506b-4bfb-b0fe-a5316ea1ba0b","system_id":"levelo_inurba_marseille","lat":43.30943,"lon":5.39038,"is_reserved":false,"is_disabled":false,"rental_uris":{"android":"levelo://app?vid=b1d16fbb-506b-4bfb-b0fe-a5316ea1ba0b","ios":"levelo://app?vid=b1d16fbb-506b-4bfb-b0fe-a5316ea1ba0b"},"vehicle_type_id":"4","last_reported":1731053518,"current_range_meters":21600,"station_id":"ce4bgup2rcd13ifvqco0","pricing_plan_id":"cebpf4jnsgd1na2vs0mg"},{"bike_id":"62f1692e-9105-4c23-b692-f8e07e84b5b7","system_id":"levelo_inurba_marseille","lat":43.24184,"lon":5.3972,"is_reserved":false,"is_disabled":false,"rental_uris":{"android":"levelo://app?vid=62f1692e-9105-4c23-b692-f8e07e84b5b7","ios":"levelo://app?vid=62f1692e-9105-4c23-b692-f8e07e84b5b7"},"vehicle_type_id":"4","last_reported":1731053518,"current_range_meters":19600,"station_id":"ce4bhn12rcd13ifvqgpg","pricing_plan_id":"cebpf4jnsgd1na2vs0mg"},{"bike_id":"49900465-52dd-424c-b9df-70d26b98afe5","system_id":"levelo_inurba_marseille","lat":43.304629,"lon":5.379009,"is_reserved":false,"is_disabled":false,"rental_uris":{"android":"levelo://app?vid=49900465-52dd-424c-b9df-70d26b98afe5","ios":"levelo://app?vid=49900465-52dd-424c-b9df-70d26b98afe5"},"vehicle_type_id":"4","last_reported":1731053518,"current_range_meters":39200,"station_id":"ce4bgup2rcd13ifvqcn0","pricing_plan_id":"cebpf4jnsgd1na2vs0mg"},{"bike_id":"1ed8831a-a3da-44b2-8f67-fa4791d6ae74","system_id":"levelo_inurba_marseille","lat":43.28983,"lon":5.42575,"is_reserved":false,"is_disabled":false,"rental_uris":{"android":"levelo://app?vid=1ed8831a-a3da-44b2-8f67-fa4791d6ae74","ios":"levelo://app?vid=1ed8831a-a3da-44b2-8f67-fa4791d6ae74"},"vehicle_type_id":"4","last_reported":1731053518,"current_range_meters":35600,"station_id":"","pricing_plan_id":"cebpf4jnsgd1na2vs0mg"},{"bike_id":"a4b40dc7-8a83-45a9-a731-eb2f03350b7f","system_id":"levelo_inurba_marseille","lat":43.336093,"lon":5.41028,"is_reserved":false,"is_disabled":false,"rental_uris":{"android":"levelo://app?vid=a4b40dc7-8a83-45a9-a731-eb2f03350b7f","ios":"levelo://app?vid=a4b40dc7-8a83-45a9-a731-eb2f03350b7f"},"vehicle_type_id":"4","last_reported":1731053518,"current_range_meters":32400,"station_id":"ce4bhqh2rcd13ifvqhmg","pricing_plan_id":"cebpf4jnsgd1na2vs0mg"},{"bike_id":"70089653-9799-4b1a-bc46-f45efe46b8cd","system_id":"levelo_inurba_marseille","lat":43.27493,"lon":5.42451,"is_reserved":false,"is_disabled":false,"rental_uris":{"android":"levelo://app?vid=70089653-9799-4b1a-bc46-f45efe46b8cd","ios":"levelo://app?vid=70089653-9799-4b1a-bc46-f45efe46b8cd"},"vehicle_type_id":"4","last_reported":1731053518,"current_range_meters":14400,"station_id":"ce4bhn92rcd13ifvqgrg","pricing_plan_id":"cebpf4jnsgd1na2vs0mg"},{"bike_id":"f4ef053d-e709-4411-bdd9-de1d0f41e46f","system_id":"levelo_inurba_marseille","lat":43.2293,"lon":5.35374,"is_reserved":false,"is_disabled":false,"rental_uris":{"android":"levelo://app?vid=f4ef053d-e709-4411-bdd9-de1d0f41e46f","ios":"levelo://app?vid=f4ef053d-e709-4411-bdd9-de1d0f41e46f"},"vehicle_type_id":"4","last_reported":1731053518,"current_range_meters":27600,"station_id":"cpo3532slgdg3j2ikp40","pricing_plan_id":"cebpf4jnsgd1na2vs0mg"},{"bike_id":"d687e015-99fb-4499-b619-2a60a64ef554","system_id":"levelo_inurba_marseille","lat":43.33747,"lon":5.3745,"is_reserved":false,"is_disabled":false,"rental_uris":{"android":"levelo://app?vid=d687e015-99fb-4499-b619-2a60a64ef554","ios":"levelo://app?vid=d687e015-99fb-4499-b619-2a60a64ef554"},"vehicle_type_id":"4","last_reported":1731053518,"current_range_meters":36000,"station_id":"","pricing_plan_id":"cebpf4jnsgd1na2vs0mg"},{"bike_id":"c13a97d0-0530-41f0-a94a-cc0540876f4c","system_id":"levelo_inurba_marseille","lat":43.2901,"lon":5.3998,"is_reserved":false,"is_disabled":false,"rental_uris":{"android":"levelo://app?vid=c13a97d0-0530-41f0-a94a-cc0540876f4c","ios":"levelo://app?vid=c13a97d0-0530-41f0-a94a-cc0540876f4c"},"vehicle_type_id":"4","last_reported":1731053518,"current_range_meters":33200,"station_id":"ce4bh392rcd13ifvqdm0","pricing_plan_id":"cebpf4jnsgd1na2vs0mg"},{"bike_id":"8838674c-71ef-4915-9d5e-517d54e399ba","system_id":"levelo_inurba_marseille","lat":43.31708,"lon":5.37756,"is_reserved":false,"is_disabled":false,"rental_uris":{"android":"levelo://app?vid=8838674c-71ef-4915-9d5e-517d54e399ba","ios":"levelo://app?vid=8838674c-71ef-4915-9d5e-517d54e399ba"},"vehicle_type_id":"4","last_reported":1731053518,"current_range_meters":8400,"station_id":"ce4bgth2rcd13ifvqch0","pricing_plan_id":"cebpf4jnsgd1na2vs0mg"},{"bike_id":"eecc9cd5-31c3-4540-af72-7c121029aba2","system_id":"levelo_inurba_marseille","lat":43.33785,"lon":5.37427,"is_reserved":false,"is_disabled":false,"rental_uris":{"android":"levelo://app?vid=eecc9cd5-31c3-4540-af72-7c121029aba2","ios":"levelo://app?vid=eecc9cd5-31c3-4540-af72-7c121029aba2"},"vehicle_type_id":"4","last_reported":1731053518,"current_range_meters":36400,"station_id":"","pricing_plan_id":"cebpf4jnsgd1na2vs0mg"},{"bike_id":"d46fc949-017c-4337-a007-b5f9f19a0bfa","system_id":"levelo_inurba_marseille","lat":43.337444,"lon":5.374475,"is_reserved":false,"is_disabled":false,"rental_uris":{"android":"levelo://app?vid=d46fc949-017c-4337-a007-b5f9f19a0bfa","ios":"levelo://app?vid=d46fc949-017c-4337-a007-b5f9f19a0bfa"},"vehicle_type_id":"4","last_reported":1731053518,"current_range_meters":30800,"station_id":"","pricing_plan_id":"cebpf4jnsgd1na2vs0mg"},{"bike_id":"ada387a6-93ee-442a-8bd7-698b9ef92823","system_id":"levelo_inurba_marseille","lat":43.30466,"lon":5.37901,"is_reserved":false,"is_disabled":false,"rental_uris":{"android":"levelo://app?vid=ada387a6-93ee-442a-8bd7-698b9ef92823","ios":"levelo://app?vid=ada387a6-93ee-442a-8bd7-698b9ef92823"},"vehicle_type_id":"4","last_reported":1731053518,"current_range_meters":36800,"station_id":"ce4bgup2rcd13ifvqcn0","pricing_plan_id":"cebpf4jnsgd1na2vs0mg"},{"bike_id":"82610bb1-5a44-44ba-a529-78e527b6ef90","system_id":"levelo_inurba_marseille","lat":43.29282,"lon":5.40128,"is_reserved":false,"is_disabled":false,"rental_uris":{"android":"levelo://app?vid=82610bb1-5a44-44ba-a529-78e527b6ef90","ios":"levelo://app?vid=82610bb1-5a44-44ba-a529-78e527b6ef90"},"vehicle_type_id":"4","last_reported":1731053518,"current_range_meters":7200,"station_id":"ce4bh312rcd13ifvqdk0","pricing_plan_id":"cebpf4jnsgd1na2vs0mg"},{"bike_id":"75a5d8ac-cf0b-46c5-b1c0-a4fb7875ad51","system_id":"levelo_inurba_marseille","lat":43.24064,"lon":5.37767,"is_reserved":false,"is_disabled":false,"rental_uris":{"android":"levelo://app?vid=75a5d8ac-cf0b-46c5-b1c0-a4fb7875ad51","ios":"levelo://app?vid=75a5d8ac-cf0b-46c5-b1c0-a4fb7875ad51"},"vehicle_type_id":"4","last_reported":1731053518,"current_range_meters":21600,"station_id":"ce4bhnp2rcd13ifvqgvg","pricing_plan_id":"cebpf4jnsgd1na2vs0mg"},{"bike_id":"c533ea1d-c26f-4734-81e2-260661d398de","system_id":"levelo_inurba_marseille","lat":43.29273,"lon":5.40133,"is_reserved":false,"is_disabled":false,"rental_uris":{"android":"levelo://app?vid=c533ea1d-c26f-4734-81e2-260661d398de","ios":"levelo://app?vid=c533ea1d-c26f-4734-81e2-260661d398de"},"vehicle_type_id":"4","last_reported":1731053518,"current_range_meters":37600,"station_id":"ce4bh312rcd13ifvqdk0","pricing_plan_id":"cebpf4jnsgd1na2vs0mg"},{"bike_id":"f57ef509-c8e3-488a-9a06-f0af43d7da91","system_id":"levelo_inurba_marseille","lat":43.30538,"lon":5.36709,"is_reserved":false,"is_disabled":false,"rental_uris":{"android":"levelo://app?vid=f57ef509-c8e3-488a-9a06-f0af43d7da91","ios":"levelo://app?vid=f57ef509-c8e3-488a-9a06-f0af43d7da91"},"vehicle_type_id":"4","last_reported":1731053518,"current_range_meters":9200,"station_id":"ce4bgrp2rcd13ifvqc9g","pricing_plan_id":"cebpf4jnsgd1na2vs0mg"},{"bike_id":"d13445ed-7862-4377-983d-efb7c9218250","system_id":"levelo_inurba_marseille","lat":43.29282,"lon":5.36845,"is_reserved":false,"is_disabled":false,"rental_uris":{"android":"levelo://app?vid=d13445ed-7862-4377-983d-efb7c9218250","ios":"levelo://app?vid=d13445ed-7862-4377-983d-efb7c9218250"},"vehicle_type_id":"4","last_reported":1731053518,"current_range_meters":18000,"station_id":"ce4bhbp2rcd13ifvqesg","pricing_plan_id":"cebpf4jnsgd1na2vs0mg"},{"bike_id":"b8fdd341-0697-41ca-82c9-e4253415f4e6","system_id":"levelo_inurba_marseille","lat":43.27486,"lon":5.42454,"is_reserved":false,"is_disabled":false,"rental_uris":{"android":"levelo://app?vid=b8fdd341-0697-41ca-82c9-e4253415f4e6","ios":"levelo://app?vid=b8fdd341-0697-41ca-82c9-e4253415f4e6"},"vehicle_type_id":"4","last_reported":1731053518,"current_range_meters":38000,"station_id":"ce4bhn92rcd13ifvqgrg","pricing_plan_id":"cebpf4jnsgd1na2vs0mg"},{"bike_id":"9b96d1a7-1bb0-4837-8ce5-5f6325109a7b","system_id":"levelo_inurba_marseille","lat":43.23177,"lon":5.39994,"is_reserved":false,"is_disabled":false,"rental_uris":{"android":"levelo://app?vid=9b96d1a7-1bb0-4837-8ce5-5f6325109a7b","ios":"levelo://app?vid=9b96d1a7-1bb0-4837-8ce5-5f6325109a7b"},"vehicle_type_id":"4","last_reported":1731053518,"current_range_meters":8000,"station_id":"ce4bhn12rcd13ifvqgqg","pricing_plan_id":"cebpf4jnsgd1na2vs0mg"},{"bike_id":"7148e5a3-e345-4df8-9602-6c428d6f2779","system_id":"levelo_inurba_marseille","lat":43.2667,"lon":5.40289,"is_reserved":false,"is_disabled":false,"rental_uris":{"android":"levelo://app?vid=7148e5a3-e345-4df8-9602-6c428d6f2779","ios":"levelo://app?vid=7148e5a3-e345-4df8-9602-6c428d6f2779"},"vehicle_type_id":"4","last_reported":1731053518,"current_range_meters":12400,"station_id":"","pricing_plan_id":"cebpf4jnsgd1na2vs0mg"},{"bike_id":"dbf0c74c-dbc0-4cc7-b18b-21073c3ea907","system_id":"levelo_inurba_marseille","lat":43.2787,"lon":5.38047,"is_reserved":false,"is_disabled":false,"rental_uris":{"android":"levelo://app?vid=dbf0c74c-dbc0-4cc7-b18b-21073c3ea907","ios":"levelo://app?vid=dbf0c74c-dbc0-4cc7-b18b-21073c3ea907"},"vehicle_type_id":"4","last_reported":1731053518,"current_range_meters":38000,"station_id":"","pricing_plan_id":"cebpf4jnsgd1na2vs0mg"},{"bike_id":"00c92537-804a-4755-8599-ca08912bb00d","system_id":"levelo_inurba_marseille","lat":43.308055,"lon":5.381576,"is_reserved":false,"is_disabled":false,"rental_uris":{"android":"levelo://app?vid=00c92537-804a-4755-8599-ca08912bb00d","ios":"levelo://app?vid=00c92537-804a-4755-8599-ca08912bb00d"},"vehicle_type_id":"4","last_reported":1731053518,"current_range_meters":35600,"station_id":"ce4bgt12rcd13ifvqce0","pricing_plan_id":"cebpf4jnsgd1na2vs0mg"},{"bike_id":"fb9825f5-01fd-4452-8c95-da50b7d738bf","system_id":"levelo_inurba_marseille","lat":43.29278,"lon":5.40111,"is_reserved":false,"is_disabled":false,"rental_uris":{"android":"levelo://app?vid=fb9825f5-01fd-4452-8c95-da50b7d738bf","ios":"levelo://app?vid=fb9825f5-01fd-4452-8c95-da50b7d738bf"},"vehicle_type_id":"4","last_reported":1731053518,"current_range_meters":36400,"station_id":"ce4bh312rcd13ifvqdk0","pricing_plan_id":"cebpf4jnsgd1na2vs0mg"},{"bike_id":"ffa6a709-cf7b-41fd-acb6-77573eab6973","system_id":"levelo_inurba_marseille","lat":43.32475,"lon":5.36562,"is_reserved":false,"is_disabled":false,"rental_uris":{"android":"levelo://app?vid=ffa6a709-cf7b-41fd-acb6-77573eab6973","ios":"levelo://app?vid=ffa6a709-cf7b-41fd-acb6-77573eab6973"},"vehicle_type_id":"4","last_reported":1731053518,"current_range_meters":15200,"station_id":"ce4bhs12rcd13ifvqhvg","pricing_plan_id":"cebpf4jnsgd1na2vs0mg"},{"bike_id":"2e7b580b-e5d4-455d-87cf-4d6119b86d88","system_id":"levelo_inurba_marseille","lat":43.25087,"lon":5.39521,"is_reserved":false,"is_disabled":false,"rental_uris":{"android":"levelo://app?vid=2e7b580b-e5d4-455d-87cf-4d6119b86d88","ios":"levelo://app?vid=2e7b580b-e5d4-455d-87cf-4d6119b86d88"},"vehicle_type_id":"4","last_reported":1731053518,"current_range_meters":27200,"station_id":"ce4bhm12rcd13ifvqgkg","pricing_plan_id":"cebpf4jnsgd1na2vs0mg"},{"bike_id":"3823a6e8-bd84-4cc7-bab2-f3381c2706f2","system_id":"levelo_inurba_marseille","lat":43.27487,"lon":5.42455,"is_reserved":false,"is_disabled":false,"rental_uris":{"android":"levelo://app?vid=3823a6e8-bd84-4cc7-bab2-f3381c2706f2","ios":"levelo://app?vid=3823a6e8-bd84-4cc7-bab2-f3381c2706f2"},"vehicle_type_id":"4","last_reported":1731053518,"current_range_meters":28400,"station_id":"ce4bhn92rcd13ifvqgrg","pricing_plan_id":"cebpf4jnsgd1na2vs0mg"},{"bike_id":"a8c379e9-4777-4dda-b09f-f9983c01cdce","system_id":"levelo_inurba_marseille","lat":43.30534,"lon":5.3671,"is_reserved":false,"is_disabled":false,"rental_uris":{"android":"levelo://app?vid=a8c379e9-4777-4dda-b09f-f9983c01cdce","ios":"levelo://app?vid=a8c379e9-4777-4dda-b09f-f9983c01cdce"},"vehicle_type_id":"4","last_reported":1731053518,"current_range_meters":20800,"station_id":"ce4bgrp2rcd13ifvqc9g","pricing_plan_id":"cebpf4jnsgd1na2vs0mg"},{"bike_id":"f44434af-bd89-4f19-9421-159f85e7e9da","system_id":"levelo_inurba_marseille","lat":43.28482,"lon":5.38408,"is_reserved":false,"is_disabled":false,"rental_uris":{"android":"levelo://app?vid=f44434af-bd89-4f19-9421-159f85e7e9da","ios":"levelo://app?vid=f44434af-bd89-4f19-9421-159f85e7e9da"},"vehicle_type_id":"4","last_reported":1731053518,"current_range_meters":9600,"station_id":"ce4bh512rcd13ifvqe3g","pricing_plan_id":"cebpf4jnsgd1na2vs0mg"},{"bike_id":"e574d28e-b684-420d-90be-c66b9ac79572","system_id":"levelo_inurba_marseille","lat":43.24074,"lon":5.37762,"is_reserved":false,"is_disabled":false,"rental_uris":{"android":"levelo://app?vid=e574d28e-b684-420d-90be-c66b9ac79572","ios":"levelo://app?vid=e574d28e-b684-420d-90be-c66b9ac79572"},"vehicle_type_id":"4","last_reported":1731053518,"current_range_meters":11600,"station_id":"ce4bhnp2rcd13ifvqgvg","pricing_plan_id":"cebpf4jnsgd1na2vs0mg"},{"bike_id":"e9f2d14d-35f3-4dcf-a568-44bef1f0f8cd","system_id":"levelo_inurba_marseille","lat":43.29173,"lon":5.37158,"is_reserved":false,"is_disabled":false,"rental_uris":{"android":"levelo://app?vid=e9f2d14d-35f3-4dcf-a568-44bef1f0f8cd","ios":"levelo://app?vid=e9f2d14d-35f3-4dcf-a568-44bef1f0f8cd"},"vehicle_type_id":"4","last_reported":1731053518,"current_range_meters":38000,"station_id":"ce4bha92rcd13ifvqeh0","pricing_plan_id":"cebpf4jnsgd1na2vs0mg"},{"bike_id":"b2237bbf-7bcf-4c64-bcc3-ed9e1d67efe7","system_id":"levelo_inurba_marseille","lat":43.34149,"lon":5.40898,"is_reserved":false,"is_disabled":false,"rental_uris":{"android":"levelo://app?vid=b2237bbf-7bcf-4c64-bcc3-ed9e1d67efe7","ios":"levelo://app?vid=b2237bbf-7bcf-4c64-bcc3-ed9e1d67efe7"},"vehicle_type_id":"4","last_reported":1731053518,"current_range_meters":11600,"station_id":"ce4bhqh2rcd13ifvqhlg","pricing_plan_id":"cebpf4jnsgd1na2vs0mg"},{"bike_id":"f25d5891-124e-470f-931d-7253b06fea97","system_id":"levelo_inurba_marseille","lat":43.30465,"lon":5.37912,"is_reserved":false,"is_disabled":false,"rental_uris":{"android":"levelo://app?vid=f25d5891-124e-470f-931d-7253b06fea97","ios":"levelo://app?vid=f25d5891-124e-470f-931d-7253b06fea97"},"vehicle_type_id":"4","last_reported":1731053518,"current_range_meters":31200,"station_id":"ce4bgup2rcd13ifvqcn0","pricing_plan_id":"cebpf4jnsgd1na2vs0mg"},{"bike_id":"d0e22860-508f-4871-b2d0-ad7488b9c454","system_id":"levelo_inurba_marseille","lat":43.309448,"lon":5.390409,"is_reserved":false,"is_disabled":false,"rental_uris":{"android":"levelo://app?vid=d0e22860-508f-4871-b2d0-ad7488b9c454","ios":"levelo://app?vid=d0e22860-508f-4871-b2d0-ad7488b9c454"},"vehicle_type_id":"4","last_reported":1731053518,"current_range_meters":27600,"station_id":"ce4bgup2rcd13ifvqco0","pricing_plan_id":"cebpf4jnsgd1na2vs0mg"},{"bike_id":"ad84989d-1ea2-4fb5-8745-b677bb5c0368","system_id":"levelo_inurba_marseille","lat":43.29277,"lon":5.40113,"is_reserved":false,"is_disabled":false,"rental_uris":{"android":"levelo://app?vid=ad84989d-1ea2-4fb5-8745-b677bb5c0368","ios":"levelo://app?vid=ad84989d-1ea2-4fb5-8745-b677bb5c0368"},"vehicle_type_id":"4","last_reported":1731053518,"current_range_meters":25600,"station_id":"ce4bh312rcd13ifvqdk0","pricing_plan_id":"cebpf4jnsgd1na2vs0mg"},{"bike_id":"d03fd2b3-469b-414c-86d1-f03f43dea65f","system_id":"levelo_inurba_marseille","lat":43.32365,"lon":5.38881,"is_reserved":false,"is_disabled":false,"rental_uris":{"android":"levelo://app?vid=d03fd2b3-469b-414c-86d1-f03f43dea65f","ios":"levelo://app?vid=d03fd2b3-469b-414c-86d1-f03f43dea65f"},"vehicle_type_id":"4","last_reported":1731053518,"current_range_meters":4400,"station_id":"ce4bhqp2rcd13ifvqhog","pricing_plan_id":"cebpf4jnsgd1na2vs0mg"},{"bike_id":"6001eb10-c676-485c-9f38-0e89ef1160f4","system_id":"levelo_inurba_marseille","lat":43.30913,"lon":5.36848,"is_reserved":false,"is_disabled":false,"rental_uris":{"android":"levelo://app?vid=6001eb10-c676-485c-9f38-0e89ef1160f4","ios":"levelo://app?vid=6001eb10-c676-485c-9f38-0e89ef1160f4"},"vehicle_type_id":"4","last_reported":1731053518,"current_range_meters":36400,"station_id":"ce4bgn92rcd13ifvqbvg","pricing_plan_id":"cebpf4jnsgd1na2vs0mg"},{"bike_id":"1f986931-33a6-407d-9691-981e5af33791","system_id":"levelo_inurba_marseille","lat":43.25933,"lon":5.40893,"is_reserved":false,"is_disabled":false,"rental_uris":{"android":"levelo://app?vid=1f986931-33a6-407d-9691-981e5af33791","ios":"levelo://app?vid=1f986931-33a6-407d-9691-981e5af33791"},"vehicle_type_id":"4","last_reported":1731053518,"current_range_meters":8800,"station_id":"ce4bhm92rcd13ifvqglg","pricing_plan_id":"cebpf4jnsgd1na2vs0mg"},{"bike_id":"820c2f71-6f95-41fb-bf27-3117987d2dca","system_id":"levelo_inurba_marseille","lat":43.2835,"lon":5.38112,"is_reserved":false,"is_disabled":false,"rental_uris":{"android":"levelo://app?vid=820c2f71-6f95-41fb-bf27-3117987d2dca","ios":"levelo://app?vid=820c2f71-6f95-41fb-bf27-3117987d2dca"},"vehicle_type_id":"4","last_reported":1731053518,"current_range_meters":14400,"station_id":"ce4bh412rcd13ifvqdr0","pricing_plan_id":"cebpf4jnsgd1na2vs0mg"},{"bike_id":"91467fd7-7280-4988-b47e-736b2926b157","system_id":"levelo_inurba_marseille","lat":43.2418,"lon":5.39728,"is_reserved":false,"is_disabled":false,"rental_uris":{"android":"levelo://app?vid=91467fd7-7280-4988-b47e-736b2926b157","ios":"levelo://app?vid=91467fd7-7280-4988-b47e-736b2926b157"},"vehicle_type_id":"4","last_reported":1731053518,"current_range_meters":16800,"station_id":"ce4bhn12rcd13ifvqgpg","pricing_plan_id":"cebpf4jnsgd1na2vs0mg"},{"bike_id":"8cf3bf6d-2068-4aac-b65e-8a3d3e5d47af","system_id":"levelo_inurba_marseille","lat":43.30154,"lon":5.38075,"is_reserved":false,"is_disabled":false,"rental_uris":{"android":"levelo://app?vid=8cf3bf6d-2068-4aac-b65e-8a3d3e5d47af","ios":"levelo://app?vid=8cf3bf6d-2068-4aac-b65e-8a3d3e5d47af"},"vehicle_type_id":"4","last_reported":1731053518,"current_range_meters":26000,"station_id":"ce4bgjp2rcd13ifvqbh0","pricing_plan_id":"cebpf4jnsgd1na2vs0mg"},{"bike_id":"c68419ae-5304-473c-904a-721cc7490645","system_id":"levelo_inurba_marseille","lat":43.24076,"lon":5.37754,"is_reserved":false,"is_disabled":false,"rental_uris":{"android":"levelo://app?vid=c68419ae-5304-473c-904a-721cc7490645","ios":"levelo://app?vid=c68419ae-5304-473c-904a-721cc7490645"},"vehicle_type_id":"4","last_reported":1731053518,"current_range_meters":27600,"station_id":"ce4bhnp2rcd13ifvqgvg","pricing_plan_id":"cebpf4jnsgd1na2vs0mg"},{"bike_id":"5dae8da9-34fd-43f0-886d-9017bc04ac44","system_id":"levelo_inurba_marseille","lat":43.28341,"lon":5.38109,"is_reserved":false,"is_disabled":false,"rental_uris":{"android":"levelo://app?vid=5dae8da9-34fd-43f0-886d-9017bc04ac44","ios":"levelo://app?vid=5dae8da9-34fd-43f0-886d-9017bc04ac44"},"vehicle_type_id":"4","last_reported":1731053518,"current_range_meters":28400,"station_id":"ce4bh412rcd13ifvqdr0","pricing_plan_id":"cebpf4jnsgd1na2vs0mg"},{"bike_id":"5641435e-5ee6-4d06-9ff9-7d6b73cd6a54","system_id":"levelo_inurba_marseille","lat":43.29618,"lon":5.37165,"is_reserved":false,"is_disabled":false,"rental_uris":{"android":"levelo://app?vid=5641435e-5ee6-4d06-9ff9-7d6b73cd6a54","ios":"levelo://app?vid=5641435e-5ee6-4d06-9ff9-7d6b73cd6a54"},"vehicle_type_id":"4","last_reported":1731053518,"current_range_meters":17600,"station_id":"ce4bgnh2rcd13ifvqc0g","pricing_plan_id":"cebpf4jnsgd1na2vs0mg"},{"bike_id":"548f1609-a23f-4c94-9059-28bdd7e2b851","system_id":"levelo_inurba_marseille","lat":43.32543,"lon":5.41436,"is_reserved":false,"is_disabled":false,"rental_uris":{"android":"levelo://app?vid=548f1609-a23f-4c94-9059-28bdd7e2b851","ios":"levelo://app?vid=548f1609-a23f-4c94-9059-28bdd7e2b851"},"vehicle_type_id":"4","last_reported":1731053518,"current_range_meters":39200,"station_id":"ce4bhq12rcd13ifvqhhg","pricing_plan_id":"cebpf4jnsgd1na2vs0mg"},{"bike_id":"7e33c538-5d40-4d7b-a006-4aeb442b1787","system_id":"levelo_inurba_marseille","lat":43.30283,"lon":5.37698,"is_reserved":false,"is_disabled":false,"rental_uris":{"android":"levelo://app?vid=7e33c538-5d40-4d7b-a006-4aeb442b1787","ios":"levelo://app?vid=7e33c538-5d40-4d7b-a006-4aeb442b1787"},"vehicle_type_id":"4","last_reported":1731053518,"current_range_meters":16000,"station_id":"ce4bguh2rcd13ifvqcj0","pricing_plan_id":"cebpf4jnsgd1na2vs0mg"},{"bike_id":"de0fc64f-7cd2-46fd-ae35-74aa6d0e9e58","system_id":"levelo_inurba_marseille","lat":43.26681,"lon":5.38267,"is_reserved":false,"is_disabled":false,"rental_uris":{"android":"levelo://app?vid=de0fc64f-7cd2-46fd-ae35-74aa6d0e9e58","ios":"levelo://app?vid=de0fc64f-7cd2-46fd-ae35-74aa6d0e9e58"},"vehicle_type_id":"4","last_reported":1731053518,"current_range_meters":30000,"station_id":"ce4bhg92rcd13ifvqf90","pricing_plan_id":"cebpf4jnsgd1na2vs0mg"},{"bike_id":"d0e49a69-e855-4bce-8af2-d751307e7ceb","system_id":"levelo_inurba_marseille","lat":43.33725,"lon":5.39181,"is_reserved":false,"is_disabled":false,"rental_uris":{"android":"levelo://app?vid=d0e49a69-e855-4bce-8af2-d751307e7ceb","ios":"levelo://app?vid=d0e49a69-e855-4bce-8af2-d751307e7ceb"},"vehicle_type_id":"4","last_reported":1731053518,"current_range_meters":17200,"station_id":"ce4bhr92rcd13ifvqhsg","pricing_plan_id":"cebpf4jnsgd1na2vs0mg"},{"bike_id":"065cc511-f6c2-41de-9ebc-8db637bb7c30","system_id":"levelo_inurba_marseille","lat":43.30144,"lon":5.37413,"is_reserved":false,"is_disabled":false,"rental_uris":{"android":"levelo://app?vid=065cc511-f6c2-41de-9ebc-8db637bb7c30","ios":"levelo://app?vid=065cc511-f6c2-41de-9ebc-8db637bb7c30"},"vehicle_type_id":"4","last_reported":1731053518,"current_range_meters":18800,"station_id":"ce4bgs92rcd13ifvqcc0","pricing_plan_id":"cebpf4jnsgd1na2vs0mg"},{"bike_id":"21ffac4b-d674-45df-a35d-369fa1b8067f","system_id":"levelo_inurba_marseille","lat":43.25937,"lon":5.40908,"is_reserved":false,"is_disabled":false,"rental_uris":{"android":"levelo://app?vid=21ffac4b-d674-45df-a35d-369fa1b8067f","ios":"levelo://app?vid=21ffac4b-d674-45df-a35d-369fa1b8067f"},"vehicle_type_id":"4","last_reported":1731053518,"current_range_meters":16000,"station_id":"ce4bhm92rcd13ifvqglg","pricing_plan_id":"cebpf4jnsgd1na2vs0mg"},{"bike_id":"e3710a37-02b6-48b0-9c2b-b4cd2183166a","system_id":"levelo_inurba_marseille","lat":43.30461,"lon":5.37896,"is_reserved":false,"is_disabled":false,"rental_uris":{"android":"levelo://app?vid=e3710a37-02b6-48b0-9c2b-b4cd2183166a","ios":"levelo://app?vid=e3710a37-02b6-48b0-9c2b-b4cd2183166a"},"vehicle_type_id":"4","last_reported":1731053518,"current_range_meters":39200,"station_id":"ce4bgup2rcd13ifvqcn0","pricing_plan_id":"cebpf4jnsgd1na2vs0mg"},{"bike_id":"781005c8-e92d-4538-ad39-54fa82b03703","system_id":"levelo_inurba_marseille","lat":43.30287,"lon":5.3769,"is_reserved":false,"is_disabled":false,"rental_uris":{"android":"levelo://app?vid=781005c8-e92d-4538-ad39-54fa82b03703","ios":"levelo://app?vid=781005c8-e92d-4538-ad39-54fa82b03703"},"vehicle_type_id":"4","last_reported":1731053518,"current_range_meters":38800,"station_id":"ce4bguh2rcd13ifvqcj0","pricing_plan_id":"cebpf4jnsgd1na2vs0mg"},{"bike_id":"2fe77fe1-22de-4287-b409-02ccb832da80","system_id":"levelo_inurba_marseille","lat":43.29917,"lon":5.37472,"is_reserved":false,"is_disabled":false,"rental_uris":{"android":"levelo://app?vid=2fe77fe1-22de-4287-b409-02ccb832da80","ios":"levelo://app?vid=2fe77fe1-22de-4287-b409-02ccb832da80"},"vehicle_type_id":"4","last_reported":1731053518,"current_range_meters":39200,"station_id":"ce4bgjh2rcd13ifvqbg0","pricing_plan_id":"cebpf4jnsgd1na2vs0mg"},{"bike_id":"4d15416b-0c4f-454d-8d2b-90eb59749104","system_id":"levelo_inurba_marseille","lat":43.30546,"lon":5.36556,"is_reserved":false,"is_disabled":false,"rental_uris":{"android":"levelo://app?vid=4d15416b-0c4f-454d-8d2b-90eb59749104","ios":"levelo://app?vid=4d15416b-0c4f-454d-8d2b-90eb59749104"},"vehicle_type_id":"4","last_reported":1731053518,"current_range_meters":36800,"station_id":"ce4bgs12rcd13ifvqcag","pricing_plan_id":"cebpf4jnsgd1na2vs0mg"},{"bike_id":"cf54c119-a3f1-4128-a016-b7f9aa4c9639","system_id":"levelo_inurba_marseille","lat":43.330292,"lon":5.413238,"is_reserved":false,"is_disabled":false,"rental_uris":{"android":"levelo://app?vid=cf54c119-a3f1-4128-a016-b7f9aa4c9639","ios":"levelo://app?vid=cf54c119-a3f1-4128-a016-b7f9aa4c9639"},"vehicle_type_id":"4","last_reported":1731053518,"current_range_meters":25200,"station_id":"ce4bhqh2rcd13ifvqhlg","pricing_plan_id":"cebpf4jnsgd1na2vs0mg"},{"bike_id":"29824cde-4cdc-4355-9b22-a5922a403deb","system_id":"levelo_inurba_marseille","lat":43.337444,"lon":5.374475,"is_reserved":false,"is_disabled":false,"rental_uris":{"android":"levelo://app?vid=29824cde-4cdc-4355-9b22-a5922a403deb","ios":"levelo://app?vid=29824cde-4cdc-4355-9b22-a5922a403deb"},"vehicle_type_id":"4","last_reported":1731053518,"current_range_meters":38800,"station_id":"","pricing_plan_id":"cebpf4jnsgd1na2vs0mg"},{"bike_id":"80d5c89e-745d-46d6-9ab9-4f5ea40b6def","system_id":"levelo_inurba_marseille","lat":43.27181,"lon":5.41001,"is_reserved":false,"is_disabled":false,"rental_uris":{"android":"levelo://app?vid=80d5c89e-745d-46d6-9ab9-4f5ea40b6def","ios":"levelo://app?vid=80d5c89e-745d-46d6-9ab9-4f5ea40b6def"},"vehicle_type_id":"4","last_reported":1731053518,"current_range_meters":10800,"station_id":"ce4bhl12rcd13ifvqgf0","pricing_plan_id":"cebpf4jnsgd1na2vs0mg"},{"bike_id":"eccb9bf1-4a0c-4df5-8229-bf46f21c4329","system_id":"levelo_inurba_marseille","lat":43.31717,"lon":5.42407,"is_reserved":false,"is_disabled":false,"rental_uris":{"android":"levelo://app?vid=eccb9bf1-4a0c-4df5-8229-bf46f21c4329","ios":"levelo://app?vid=eccb9bf1-4a0c-4df5-8229-bf46f21c4329"},"vehicle_type_id":"4","last_reported":1731053518,"current_range_meters":38400,"station_id":"ce4bhp92rcd13ifvqhbg","pricing_plan_id":"cebpf4jnsgd1na2vs0mg"},{"bike_id":"ef288286-229d-4b9a-a189-8d61840dcffb","system_id":"levelo_inurba_marseille","lat":43.23192,"lon":5.3554,"is_reserved":false,"is_disabled":false,"rental_uris":{"android":"levelo://app?vid=ef288286-229d-4b9a-a189-8d61840dcffb","ios":"levelo://app?vid=ef288286-229d-4b9a-a189-8d61840dcffb"},"vehicle_type_id":"4","last_reported":1731053518,"current_range_meters":6800,"station_id":"ce4bhu92rcd13ifvqi70","pricing_plan_id":"cebpf4jnsgd1na2vs0mg"},{"bike_id":"8719b22d-44ad-4b76-b4a4-4b10ee83c29d","system_id":"levelo_inurba_marseille","lat":43.26197,"lon":5.37932,"is_reserved":false,"is_disabled":false,"rental_uris":{"android":"levelo://app?vid=8719b22d-44ad-4b76-b4a4-4b10ee83c29d","ios":"levelo://app?vid=8719b22d-44ad-4b76-b4a4-4b10ee83c29d"},"vehicle_type_id":"4","last_reported":1731053518,"current_range_meters":24000,"station_id":"ce4bhjp2rcd13ifvqg90","pricing_plan_id":"cebpf4jnsgd1na2vs0mg"},{"bike_id":"9044ed43-de46-4645-b2ad-5e136647239a","system_id":"levelo_inurba_marseille","lat":43.337444,"lon":5.374475,"is_reserved":false,"is_disabled":false,"rental_uris":{"android":"levelo://app?vid=9044ed43-de46-4645-b2ad-5e136647239a","ios":"levelo://app?vid=9044ed43-de46-4645-b2ad-5e136647239a"},"vehicle_type_id":"4","last_reported":1731053518,"current_range_meters":33600,"station_id":"","pricing_plan_id":"cebpf4jnsgd1na2vs0mg"},{"bike_id":"a7ed7f15-e2de-437f-8b0e-e37c1cd1c87d","system_id":"levelo_inurba_marseille","lat":43.3054,"lon":5.36713,"is_reserved":false,"is_disabled":false,"rental_uris":{"android":"levelo://app?vid=a7ed7f15-e2de-437f-8b0e-e37c1cd1c87d","ios":"levelo://app?vid=a7ed7f15-e2de-437f-8b0e-e37c1cd1c87d"},"vehicle_type_id":"4","last_reported":1731053518,"current_range_meters":36400,"station_id":"ce4bgrp2rcd13ifvqc9g","pricing_plan_id":"cebpf4jnsgd1na2vs0mg"},{"bike_id":"8d94f27b-ae0d-491a-83aa-3e23cd6e67d3","system_id":"levelo_inurba_marseille","lat":43.30461,"lon":5.37902,"is_reserved":false,"is_disabled":false,"rental_uris":{"android":"levelo://app?vid=8d94f27b-ae0d-491a-83aa-3e23cd6e67d3","ios":"levelo://app?vid=8d94f27b-ae0d-491a-83aa-3e23cd6e67d3"},"vehicle_type_id":"4","last_reported":1731053518,"current_range_meters":37600,"station_id":"ce4bgup2rcd13ifvqcn0","pricing_plan_id":"cebpf4jnsgd1na2vs0mg"},{"bike_id":"615d96c1-2bf3-40d0-aba2-352337c6b5e6","system_id":"levelo_inurba_marseille","lat":43.29973,"lon":5.38487,"is_reserved":false,"is_disabled":false,"rental_uris":{"android":"levelo://app?vid=615d96c1-2bf3-40d0-aba2-352337c6b5e6","ios":"levelo://app?vid=615d96c1-2bf3-40d0-aba2-352337c6b5e6"},"vehicle_type_id":"4","last_reported":1731053518,"current_range_meters":34800,"station_id":"ce4bgj92rcd13ifvqbd0","pricing_plan_id":"cebpf4jnsgd1na2vs0mg"},{"bike_id":"546c522c-d858-4cc2-9ba9-af678b98d67a","system_id":"levelo_inurba_marseille","lat":43.24076,"lon":5.37754,"is_reserved":false,"is_disabled":false,"rental_uris":{"android":"levelo://app?vid=546c522c-d858-4cc2-9ba9-af678b98d67a","ios":"levelo://app?vid=546c522c-d858-4cc2-9ba9-af678b98d67a"},"vehicle_type_id":"4","last_reported":1731053518,"current_range_meters":38000,"station_id":"ce4bhnp2rcd13ifvqgvg","pricing_plan_id":"cebpf4jnsgd1na2vs0mg"},{"bike_id":"795d93dc-58cd-47d3-954f-fe5d9510e8f0","system_id":"levelo_inurba_marseille","lat":43.24588,"lon":5.417594,"is_reserved":false,"is_disabled":false,"rental_uris":{"android":"levelo://app?vid=795d93dc-58cd-47d3-954f-fe5d9510e8f0","ios":"levelo://app?vid=795d93dc-58cd-47d3-954f-fe5d9510e8f0"},"vehicle_type_id":"4","last_reported":1731053518,"current_range_meters":22800,"station_id":"ce4bhmp2rcd13ifvqgog","pricing_plan_id":"cebpf4jnsgd1na2vs0mg"},{"bike_id":"2ed20592-10b5-4502-8241-b2edb736b0bf","system_id":"levelo_inurba_marseille","lat":43.30884,"lon":5.39654,"is_reserved":false,"is_disabled":false,"rental_uris":{"android":"levelo://app?vid=2ed20592-10b5-4502-8241-b2edb736b0bf","ios":"levelo://app?vid=2ed20592-10b5-4502-8241-b2edb736b0bf"},"vehicle_type_id":"4","last_reported":1731053518,"current_range_meters":32400,"station_id":"ce4bh012rcd13ifvqcv0","pricing_plan_id":"cebpf4jnsgd1na2vs0mg"},{"bike_id":"43ef446d-8adc-44a9-a73d-78a211be3855","system_id":"levelo_inurba_marseille","lat":43.29963,"lon":5.4132,"is_reserved":false,"is_disabled":false,"rental_uris":{"android":"levelo://app?vid=43ef446d-8adc-44a9-a73d-78a211be3855","ios":"levelo://app?vid=43ef446d-8adc-44a9-a73d-78a211be3855"},"vehicle_type_id":"4","last_reported":1731053518,"current_range_meters":39200,"station_id":"ce4bhp12rcd13ifvqh9g","pricing_plan_id":"cebpf4jnsgd1na2vs0mg"},{"bike_id":"38811fac-02b2-48ed-9274-f641d4834f0c","system_id":"levelo_inurba_marseille","lat":43.29187,"lon":5.39311,"is_reserved":false,"is_disabled":false,"rental_uris":{"android":"levelo://app?vid=38811fac-02b2-48ed-9274-f641d4834f0c","ios":"levelo://app?vid=38811fac-02b2-48ed-9274-f641d4834f0c"},"vehicle_type_id":"4","last_reported":1731053518,"current_range_meters":37600,"station_id":"ce4bh192rcd13ifvqdd0","pricing_plan_id":"cebpf4jnsgd1na2vs0mg"},{"bike_id":"685fe060-7fdd-468e-9bb1-7223229bcbbb","system_id":"levelo_inurba_marseille","lat":43.31359,"lon":5.38488,"is_reserved":false,"is_disabled":false,"rental_uris":{"android":"levelo://app?vid=685fe060-7fdd-468e-9bb1-7223229bcbbb","ios":"levelo://app?vid=685fe060-7fdd-468e-9bb1-7223229bcbbb"},"vehicle_type_id":"4","last_reported":1731053518,"current_range_meters":8800,"station_id":"ce4bgt92rcd13ifvqcf0","pricing_plan_id":"cebpf4jnsgd1na2vs0mg"},{"bike_id":"b5623527-e762-4513-abe3-1e0402e750b6","system_id":"levelo_inurba_marseille","lat":43.30253,"lon":5.4007,"is_reserved":false,"is_disabled":false,"rental_uris":{"android":"levelo://app?vid=b5623527-e762-4513-abe3-1e0402e750b6","ios":"levelo://app?vid=b5623527-e762-4513-abe3-1e0402e750b6"},"vehicle_type_id":"4","last_reported":1731053518,"current_range_meters":38400,"station_id":"ce4bgvh2rcd13ifvqcs0","pricing_plan_id":"cebpf4jnsgd1na2vs0mg"},{"bike_id":"4eecdf01-2312-4036-b477-5b5650016af3","system_id":"levelo_inurba_marseille","lat":43.283449,"lon":5.381017,"is_reserved":false,"is_disabled":false,"rental_uris":{"android":"levelo://app?vid=4eecdf01-2312-4036-b477-5b5650016af3","ios":"levelo://app?vid=4eecdf01-2312-4036-b477-5b5650016af3"},"vehicle_type_id":"4","last_reported":1731053518,"current_range_meters":37600,"station_id":"ce4bh412rcd13ifvqdr0","pricing_plan_id":"cebpf4jnsgd1na2vs0mg"},{"bike_id":"1260319e-875a-495e-866b-01a112f4bbd0","system_id":"levelo_inurba_marseille","lat":43.2957,"lon":5.3751,"is_reserved":false,"is_disabled":false,"rental_uris":{"android":"levelo://app?vid=1260319e-875a-495e-866b-01a112f4bbd0","ios":"levelo://app?vid=1260319e-875a-495e-866b-01a112f4bbd0"},"vehicle_type_id":"4","last_reported":1731053518,"current_range_meters":37600,"station_id":"ce4bgh92rcd13ifvqb50","pricing_plan_id":"cebpf4jnsgd1na2vs0mg"},{"bike_id":"3bd80771-f0cc-449c-9cc8-4e6bf7a0b1d7","system_id":"levelo_inurba_marseille","lat":43.2594,"lon":5.40898,"is_reserved":false,"is_disabled":false,"rental_uris":{"android":"levelo://app?vid=3bd80771-f0cc-449c-9cc8-4e6bf7a0b1d7","ios":"levelo://app?vid=3bd80771-f0cc-449c-9cc8-4e6bf7a0b1d7"},"vehicle_type_id":"4","last_reported":1731053518,"current_range_meters":31200,"station_id":"ce4bhm92rcd13ifvqglg","pricing_plan_id":"cebpf4jnsgd1na2vs0mg"},{"bike_id":"e7cd005d-d362-4c36-a955-3c59f122a64d","system_id":"levelo_inurba_marseille","lat":43.28154,"lon":5.4264,"is_reserved":false,"is_disabled":false,"rental_uris":{"android":"levelo://app?vid=e7cd005d-d362-4c36-a955-3c59f122a64d","ios":"levelo://app?vid=e7cd005d-d362-4c36-a955-3c59f122a64d"},"vehicle_type_id":"4","last_reported":1731053518,"current_range_meters":26000,"station_id":"ce4bhnh2rcd13ifvqgug","pricing_plan_id":"cebpf4jnsgd1na2vs0mg"},{"bike_id":"2c671168-ca3a-4a45-90a9-1a434a5b0ab4","system_id":"levelo_inurba_marseille","lat":43.26785,"lon":5.39414,"is_reserved":false,"is_disabled":false,"rental_uris":{"android":"levelo://app?vid=2c671168-ca3a-4a45-90a9-1a434a5b0ab4","ios":"levelo://app?vid=2c671168-ca3a-4a45-90a9-1a434a5b0ab4"},"vehicle_type_id":"4","last_reported":1731053518,"current_range_meters":8000,"station_id":"ce4bhh12rcd13ifvqfg0","pricing_plan_id":"cebpf4jnsgd1na2vs0mg"},{"bike_id":"efd54433-a1a2-4583-9211-1f3087c5d409","system_id":"levelo_inurba_marseille","lat":43.25718,"lon":5.41108,"is_reserved":false,"is_disabled":false,"rental_uris":{"android":"levelo://app?vid=efd54433-a1a2-4583-9211-1f3087c5d409","ios":"levelo://app?vid=efd54433-a1a2-4583-9211-1f3087c5d409"},"vehicle_type_id":"4","last_reported":1731053518,"current_range_meters":22000,"station_id":"ce4bhkp2rcd13ifvqgd0","pricing_plan_id":"cebpf4jnsgd1na2vs0mg"},{"bike_id":"dcadc843-2231-4f9b-ab03-bdc6276cc926","system_id":"levelo_inurba_marseille","lat":43.25079,"lon":5.3952,"is_reserved":false,"is_disabled":false,"rental_uris":{"android":"levelo://app?vid=dcadc843-2231-4f9b-ab03-bdc6276cc926","ios":"levelo://app?vid=dcadc843-2231-4f9b-ab03-bdc6276cc926"},"vehicle_type_id":"4","last_reported":1731053518,"current_range_meters":38800,"station_id":"ce4bhm12rcd13ifvqgkg","pricing_plan_id":"cebpf4jnsgd1na2vs0mg"},{"bike_id":"71655dbe-ce6c-47d2-97d5-cb062ba24e62","system_id":"levelo_inurba_marseille","lat":43.26065,"lon":5.39399,"is_reserved":false,"is_disabled":false,"rental_uris":{"android":"levelo://app?vid=71655dbe-ce6c-47d2-97d5-cb062ba24e62","ios":"levelo://app?vid=71655dbe-ce6c-47d2-97d5-cb062ba24e62"},"vehicle_type_id":"4","last_reported":1731053518,"current_range_meters":40000,"station_id":"ce4bhh92rcd13ifvqfj0","pricing_plan_id":"cebpf4jnsgd1na2vs0mg"},{"bike_id":"d9f62232-bf1d-4648-a44d-0d8f902be5a7","system_id":"levelo_inurba_marseille","lat":43.271,"lon":5.40022,"is_reserved":false,"is_disabled":false,"rental_uris":{"android":"levelo://app?vid=d9f62232-bf1d-4648-a44d-0d8f902be5a7","ios":"levelo://app?vid=d9f62232-bf1d-4648-a44d-0d8f902be5a7"},"vehicle_type_id":"4","last_reported":1731053518,"current_range_meters":5600,"station_id":"","pricing_plan_id":"cebpf4jnsgd1na2vs0mg"},{"bike_id":"c7022000-40bb-4946-aca4-3a5058fa7b80","system_id":"levelo_inurba_marseille","lat":43.24063,"lon":5.37721,"is_reserved":false,"is_disabled":false,"rental_uris":{"android":"levelo://app?vid=c7022000-40bb-4946-aca4-3a5058fa7b80","ios":"levelo://app?vid=c7022000-40bb-4946-aca4-3a5058fa7b80"},"vehicle_type_id":"4","last_reported":1731053518,"current_range_meters":9600,"station_id":"ce4bhnp2rcd13ifvqgvg","pricing_plan_id":"cebpf4jnsgd1na2vs0mg"},{"bike_id":"eefd0687-4492-41ad-9368-b877bab02ae1","system_id":"levelo_inurba_marseille","lat":43.31231,"lon":5.36867,"is_reserved":false,"is_disabled":false,"rental_uris":{"android":"levelo://app?vid=eefd0687-4492-41ad-9368-b877bab02ae1","ios":"levelo://app?vid=eefd0687-4492-41ad-9368-b877bab02ae1"},"vehicle_type_id":"4","last_reported":1731053518,"current_range_meters":22800,"station_id":"ce4bgl92rcd13ifvqbq0","pricing_plan_id":"cebpf4jnsgd1na2vs0mg"},{"bike_id":"17d5d883-6f3c-4529-821c-c387fc8379cb","system_id":"levelo_inurba_marseille","lat":43.28099,"lon":5.37833,"is_reserved":false,"is_disabled":false,"rental_uris":{"android":"levelo://app?vid=17d5d883-6f3c-4529-821c-c387fc8379cb","ios":"levelo://app?vid=17d5d883-6f3c-4529-821c-c387fc8379cb"},"vehicle_type_id":"4","last_reported":1731053518,"current_range_meters":29600,"station_id":"ce4bha12rcd13ifvqee0","pricing_plan_id":"cebpf4jnsgd1na2vs0mg"},{"bike_id":"4d59d358-815a-446a-a452-fae3197fee50","system_id":"levelo_inurba_marseille","lat":43.30944,"lon":5.39034,"is_reserved":false,"is_disabled":false,"rental_uris":{"android":"levelo://app?vid=4d59d358-815a-446a-a452-fae3197fee50","ios":"levelo://app?vid=4d59d358-815a-446a-a452-fae3197fee50"},"vehicle_type_id":"4","last_reported":1731053518,"current_range_meters":11600,"station_id":"ce4bgup2rcd13ifvqco0","pricing_plan_id":"cebpf4jnsgd1na2vs0mg"},{"bike_id":"954edc53-6ad5-4959-8ef7-cfb53e49b006","system_id":"levelo_inurba_marseille","lat":43.30458,"lon":5.37904,"is_reserved":false,"is_disabled":false,"rental_uris":{"android":"levelo://app?vid=954edc53-6ad5-4959-8ef7-cfb53e49b006","ios":"levelo://app?vid=954edc53-6ad5-4959-8ef7-cfb53e49b006"},"vehicle_type_id":"4","last_reported":1731053518,"current_range_meters":28000,"station_id":"ce4bgup2rcd13ifvqcn0","pricing_plan_id":"cebpf4jnsgd1na2vs0mg"},{"bike_id":"c70f3a51-3c77-47f4-afdc-c467e625745f","system_id":"levelo_inurba_marseille","lat":43.281047,"lon":5.382207,"is_reserved":false,"is_disabled":false,"rental_uris":{"android":"levelo://app?vid=c70f3a51-3c77-47f4-afdc-c467e625745f","ios":"levelo://app?vid=c70f3a51-3c77-47f4-afdc-c467e625745f"},"vehicle_type_id":"4","last_reported":1731053518,"current_range_meters":24400,"station_id":"","pricing_plan_id":"cebpf4jnsgd1na2vs0mg"},{"bike_id":"62c6c25d-fa62-481d-920c-11de550cf759","system_id":"levelo_inurba_marseille","lat":43.33752,"lon":5.37448,"is_reserved":false,"is_disabled":false,"rental_uris":{"android":"levelo://app?vid=62c6c25d-fa62-481d-920c-11de550cf759","ios":"levelo://app?vid=62c6c25d-fa62-481d-920c-11de550cf759"},"vehicle_type_id":"4","last_reported":1731053518,"current_range_meters":23200,"station_id":"","pricing_plan_id":"cebpf4jnsgd1na2vs0mg"},{"bike_id":"d6fdae69-642e-4d84-a8fd-edeb75ed0ef4","system_id":"levelo_inurba_marseille","lat":43.22926,"lon":5.35381,"is_reserved":false,"is_disabled":false,"rental_uris":{"android":"levelo://app?vid=d6fdae69-642e-4d84-a8fd-edeb75ed0ef4","ios":"levelo://app?vid=d6fdae69-642e-4d84-a8fd-edeb75ed0ef4"},"vehicle_type_id":"4","last_reported":1731053518,"current_range_meters":24400,"station_id":"cpo3532slgdg3j2ikp40","pricing_plan_id":"cebpf4jnsgd1na2vs0mg"},{"bike_id":"bdc2614c-f690-4a70-b4fe-4ce04e111f7f","system_id":"levelo_inurba_marseille","lat":43.31349,"lon":5.36711,"is_reserved":false,"is_disabled":false,"rental_uris":{"android":"levelo://app?vid=bdc2614c-f690-4a70-b4fe-4ce04e111f7f","ios":"levelo://app?vid=bdc2614c-f690-4a70-b4fe-4ce04e111f7f"},"vehicle_type_id":"4","last_reported":1731053518,"current_range_meters":39200,"station_id":"ce4bgr92rcd13ifvqc6g","pricing_plan_id":"cebpf4jnsgd1na2vs0mg"},{"bike_id":"f3933fe6-7050-4ceb-a431-290d7378c77f","system_id":"levelo_inurba_marseille","lat":43.31494,"lon":5.37306,"is_reserved":false,"is_disabled":false,"rental_uris":{"android":"levelo://app?vid=f3933fe6-7050-4ceb-a431-290d7378c77f","ios":"levelo://app?vid=f3933fe6-7050-4ceb-a431-290d7378c77f"},"vehicle_type_id":"4","last_reported":1731053518,"current_range_meters":36000,"station_id":"ce4bgt12rcd13ifvqcd0","pricing_plan_id":"cebpf4jnsgd1na2vs0mg"},{"bike_id":"86d64521-d332-4842-b4fb-5fa4820d8c81","system_id":"levelo_inurba_marseille","lat":43.337444,"lon":5.374475,"is_reserved":false,"is_disabled":false,"rental_uris":{"android":"levelo://app?vid=86d64521-d332-4842-b4fb-5fa4820d8c81","ios":"levelo://app?vid=86d64521-d332-4842-b4fb-5fa4820d8c81"},"vehicle_type_id":"4","last_reported":1731053518,"current_range_meters":38400,"station_id":"","pricing_plan_id":"cebpf4jnsgd1na2vs0mg"},{"bike_id":"643bca0a-b64b-4b32-85c7-4a59591334b7","system_id":"levelo_inurba_marseille","lat":43.28152,"lon":5.42649,"is_reserved":false,"is_disabled":false,"rental_uris":{"android":"levelo://app?vid=643bca0a-b64b-4b32-85c7-4a59591334b7","ios":"levelo://app?vid=643bca0a-b64b-4b32-85c7-4a59591334b7"},"vehicle_type_id":"4","last_reported":1731053518,"current_range_meters":17600,"station_id":"ce4bhnh2rcd13ifvqgug","pricing_plan_id":"cebpf4jnsgd1na2vs0mg"},{"bike_id":"ac07265b-8155-4018-bbe6-6c07874f71a5","system_id":"levelo_inurba_marseille","lat":43.30953,"lon":5.39041,"is_reserved":false,"is_disabled":false,"rental_uris":{"android":"levelo://app?vid=ac07265b-8155-4018-bbe6-6c07874f71a5","ios":"levelo://app?vid=ac07265b-8155-4018-bbe6-6c07874f71a5"},"vehicle_type_id":"4","last_reported":1731053518,"current_range_meters":24000,"station_id":"ce4bgup2rcd13ifvqco0","pricing_plan_id":"cebpf4jnsgd1na2vs0mg"},{"bike_id":"80f88f91-d648-453a-88b2-cfa7d57ba25b","system_id":"levelo_inurba_marseille","lat":43.23181,"lon":5.39991,"is_reserved":false,"is_disabled":false,"rental_uris":{"android":"levelo://app?vid=80f88f91-d648-453a-88b2-cfa7d57ba25b","ios":"levelo://app?vid=80f88f91-d648-453a-88b2-cfa7d57ba25b"},"vehicle_type_id":"4","last_reported":1731053518,"current_range_meters":24800,"station_id":"ce4bhn12rcd13ifvqgqg","pricing_plan_id":"cebpf4jnsgd1na2vs0mg"},{"bike_id":"c6f22d06-497b-4108-ad70-6108ec373b3c","system_id":"levelo_inurba_marseille","lat":43.292725,"lon":5.379459,"is_reserved":false,"is_disabled":false,"rental_uris":{"android":"levelo://app?vid=c6f22d06-497b-4108-ad70-6108ec373b3c","ios":"levelo://app?vid=c6f22d06-497b-4108-ad70-6108ec373b3c"},"vehicle_type_id":"4","last_reported":1731053518,"current_range_meters":36000,"station_id":"ce4bhoh2rcd13ifvqh5g","pricing_plan_id":"cebpf4jnsgd1na2vs0mg"},{"bike_id":"5f81654e-8028-4504-9e8a-17d2df2e56d3","system_id":"levelo_inurba_marseille","lat":43.24077,"lon":5.37756,"is_reserved":false,"is_disabled":false,"rental_uris":{"android":"levelo://app?vid=5f81654e-8028-4504-9e8a-17d2df2e56d3","ios":"levelo://app?vid=5f81654e-8028-4504-9e8a-17d2df2e56d3"},"vehicle_type_id":"4","last_reported":1731053518,"current_range_meters":19200,"station_id":"ce4bhnp2rcd13ifvqgvg","pricing_plan_id":"cebpf4jnsgd1na2vs0mg"},{"bike_id":"16241619-68a5-47ef-8ec1-a191e36146be","system_id":"levelo_inurba_marseille","lat":43.3046,"lon":5.37899,"is_reserved":false,"is_disabled":false,"rental_uris":{"android":"levelo://app?vid=16241619-68a5-47ef-8ec1-a191e36146be","ios":"levelo://app?vid=16241619-68a5-47ef-8ec1-a191e36146be"},"vehicle_type_id":"4","last_reported":1731053518,"current_range_meters":39200,"station_id":"ce4bgup2rcd13ifvqcn0","pricing_plan_id":"cebpf4jnsgd1na2vs0mg"},{"bike_id":"dcfeb495-eba8-43c2-a39d-e684f7df95ac","system_id":"levelo_inurba_marseille","lat":43.30475,"lon":5.37898,"is_reserved":false,"is_disabled":false,"rental_uris":{"android":"levelo://app?vid=dcfeb495-eba8-43c2-a39d-e684f7df95ac","ios":"levelo://app?vid=dcfeb495-eba8-43c2-a39d-e684f7df95ac"},"vehicle_type_id":"4","last_reported":1731053518,"current_range_meters":24000,"station_id":"ce4bgup2rcd13ifvqcn0","pricing_plan_id":"cebpf4jnsgd1na2vs0mg"},{"bike_id":"59a46125-32ca-4dc4-bc89-b76236c046bf","system_id":"levelo_inurba_marseille","lat":43.2857,"lon":5.39492,"is_reserved":false,"is_disabled":false,"rental_uris":{"android":"levelo://app?vid=59a46125-32ca-4dc4-bc89-b76236c046bf","ios":"levelo://app?vid=59a46125-32ca-4dc4-bc89-b76236c046bf"},"vehicle_type_id":"4","last_reported":1731053518,"current_range_meters":38800,"station_id":"ce4bh292rcd13ifvqdg0","pricing_plan_id":"cebpf4jnsgd1na2vs0mg"},{"bike_id":"297278e5-15d6-494f-bedc-e1bc1c8cf2d6","system_id":"levelo_inurba_marseille","lat":43.32537,"lon":5.41439,"is_reserved":false,"is_disabled":false,"rental_uris":{"android":"levelo://app?vid=297278e5-15d6-494f-bedc-e1bc1c8cf2d6","ios":"levelo://app?vid=297278e5-15d6-494f-bedc-e1bc1c8cf2d6"},"vehicle_type_id":"4","last_reported":1731053518,"current_range_meters":33200,"station_id":"ce4bhq12rcd13ifvqhhg","pricing_plan_id":"cebpf4jnsgd1na2vs0mg"},{"bike_id":"d1db2d04-cb63-407c-927b-8fe0de62c815","system_id":"levelo_inurba_marseille","lat":43.30535,"lon":5.36718,"is_reserved":false,"is_disabled":false,"rental_uris":{"android":"levelo://app?vid=d1db2d04-cb63-407c-927b-8fe0de62c815","ios":"levelo://app?vid=d1db2d04-cb63-407c-927b-8fe0de62c815"},"vehicle_type_id":"4","last_reported":1731053518,"current_range_meters":38400,"station_id":"ce4bgrp2rcd13ifvqc9g","pricing_plan_id":"cebpf4jnsgd1na2vs0mg"},{"bike_id":"f2fcd576-71b9-4460-89e1-54c6a9a71f54","system_id":"levelo_inurba_marseille","lat":43.32537,"lon":5.41438,"is_reserved":false,"is_disabled":false,"rental_uris":{"android":"levelo://app?vid=f2fcd576-71b9-4460-89e1-54c6a9a71f54","ios":"levelo://app?vid=f2fcd576-71b9-4460-89e1-54c6a9a71f54"},"vehicle_type_id":"4","last_reported":1731053518,"current_range_meters":7200,"station_id":"ce4bhq12rcd13ifvqhhg","pricing_plan_id":"cebpf4jnsgd1na2vs0mg"},{"bike_id":"d4ff8307-aca5-4f08-acf7-2561e4affd6a","system_id":"levelo_inurba_marseille","lat":43.30804,"lon":5.38171,"is_reserved":false,"is_disabled":false,"rental_uris":{"android":"levelo://app?vid=d4ff8307-aca5-4f08-acf7-2561e4affd6a","ios":"levelo://app?vid=d4ff8307-aca5-4f08-acf7-2561e4affd6a"},"vehicle_type_id":"4","last_reported":1731053518,"current_range_meters":9600,"station_id":"ce4bgt12rcd13ifvqce0","pricing_plan_id":"cebpf4jnsgd1na2vs0mg"},{"bike_id":"b2f51551-b8bc-4eff-bb86-7a000bad778e","system_id":"levelo_inurba_marseille","lat":43.25939,"lon":5.40899,"is_reserved":false,"is_disabled":false,"rental_uris":{"android":"levelo://app?vid=b2f51551-b8bc-4eff-bb86-7a000bad778e","ios":"levelo://app?vid=b2f51551-b8bc-4eff-bb86-7a000bad778e"},"vehicle_type_id":"4","last_reported":1731053518,"current_range_meters":32800,"station_id":"ce4bhm92rcd13ifvqglg","pricing_plan_id":"cebpf4jnsgd1na2vs0mg"},{"bike_id":"04f4465e-6553-4690-b385-4c8d4c1b1526","system_id":"levelo_inurba_marseille","lat":43.27212,"lon":5.39178,"is_reserved":false,"is_disabled":false,"rental_uris":{"android":"levelo://app?vid=04f4465e-6553-4690-b385-4c8d4c1b1526","ios":"levelo://app?vid=04f4465e-6553-4690-b385-4c8d4c1b1526"},"vehicle_type_id":"4","last_reported":1731053518,"current_range_meters":30000,"station_id":"ce4bhhp2rcd13ifvqfm0","pricing_plan_id":"cebpf4jnsgd1na2vs0mg"},{"bike_id":"12630b9d-f0ed-46fb-bfff-e48f21100201","system_id":"levelo_inurba_marseille","lat":43.33021,"lon":5.39027,"is_reserved":false,"is_disabled":false,"rental_uris":{"android":"levelo://app?vid=12630b9d-f0ed-46fb-bfff-e48f21100201","ios":"levelo://app?vid=12630b9d-f0ed-46fb-bfff-e48f21100201"},"vehicle_type_id":"4","last_reported":1731053518,"current_range_meters":38800,"station_id":"ce4bhr92rcd13ifvqhrg","pricing_plan_id":"cebpf4jnsgd1na2vs0mg"},{"bike_id":"d269ed79-363c-4650-a131-5c80cfb4586c","system_id":"levelo_inurba_marseille","lat":43.23188,"lon":5.3555,"is_reserved":false,"is_disabled":false,"rental_uris":{"android":"levelo://app?vid=d269ed79-363c-4650-a131-5c80cfb4586c","ios":"levelo://app?vid=d269ed79-363c-4650-a131-5c80cfb4586c"},"vehicle_type_id":"4","last_reported":1731053518,"current_range_meters":27200,"station_id":"ce4bhu92rcd13ifvqi70","pricing_plan_id":"cebpf4jnsgd1na2vs0mg"},{"bike_id":"1fc60948-1d60-4cbb-b6e7-35e5856d8024","system_id":"levelo_inurba_marseille","lat":43.299194,"lon":5.374162,"is_reserved":false,"is_disabled":false,"rental_uris":{"android":"levelo://app?vid=1fc60948-1d60-4cbb-b6e7-35e5856d8024","ios":"levelo://app?vid=1fc60948-1d60-4cbb-b6e7-35e5856d8024"},"vehicle_type_id":"4","last_reported":1731053518,"current_range_meters":36800,"station_id":"ce4bgs92rcd13ifvqcc0","pricing_plan_id":"cebpf4jnsgd1na2vs0mg"},{"bike_id":"650f5835-bc4e-42c7-b5d8-20d584cdd8af","system_id":"levelo_inurba_marseille","lat":43.32472,"lon":5.36573,"is_reserved":false,"is_disabled":false,"rental_uris":{"android":"levelo://app?vid=650f5835-bc4e-42c7-b5d8-20d584cdd8af","ios":"levelo://app?vid=650f5835-bc4e-42c7-b5d8-20d584cdd8af"},"vehicle_type_id":"4","last_reported":1731053518,"current_range_meters":37600,"station_id":"ce4bhs12rcd13ifvqhvg","pricing_plan_id":"cebpf4jnsgd1na2vs0mg"},{"bike_id":"6b9fc225-cd4f-47e5-bc5e-a4e18191acc9","system_id":"levelo_inurba_marseille","lat":43.2407,"lon":5.37757,"is_reserved":false,"is_disabled":false,"rental_uris":{"android":"levelo://app?vid=6b9fc225-cd4f-47e5-bc5e-a4e18191acc9","ios":"levelo://app?vid=6b9fc225-cd4f-47e5-bc5e-a4e18191acc9"},"vehicle_type_id":"4","last_reported":1731053518,"current_range_meters":31200,"station_id":"ce4bhnp2rcd13ifvqgvg","pricing_plan_id":"cebpf4jnsgd1na2vs0mg"},{"bike_id":"2d070a95-3c33-42f0-b69d-b81170458850","system_id":"levelo_inurba_marseille","lat":43.26955,"lon":5.38628,"is_reserved":false,"is_disabled":false,"rental_uris":{"android":"levelo://app?vid=2d070a95-3c33-42f0-b69d-b81170458850","ios":"levelo://app?vid=2d070a95-3c33-42f0-b69d-b81170458850"},"vehicle_type_id":"4","last_reported":1731053518,"current_range_meters":16400,"station_id":"ce4bhh92rcd13ifvqfh0","pricing_plan_id":"cebpf4jnsgd1na2vs0mg"},{"bike_id":"8b72a1c6-8645-4c00-9eeb-cb47e52f5ec3","system_id":"levelo_inurba_marseille","lat":43.27489,"lon":5.42452,"is_reserved":false,"is_disabled":false,"rental_uris":{"android":"levelo://app?vid=8b72a1c6-8645-4c00-9eeb-cb47e52f5ec3","ios":"levelo://app?vid=8b72a1c6-8645-4c00-9eeb-cb47e52f5ec3"},"vehicle_type_id":"4","last_reported":1731053518,"current_range_meters":24000,"station_id":"ce4bhn92rcd13ifvqgrg","pricing_plan_id":"cebpf4jnsgd1na2vs0mg"},{"bike_id":"92bbe5af-b5d9-48fc-afb8-3b15fc8d3190","system_id":"levelo_inurba_marseille","lat":43.317166,"lon":5.424032,"is_reserved":false,"is_disabled":false,"rental_uris":{"android":"levelo://app?vid=92bbe5af-b5d9-48fc-afb8-3b15fc8d3190","ios":"levelo://app?vid=92bbe5af-b5d9-48fc-afb8-3b15fc8d3190"},"vehicle_type_id":"4","last_reported":1731053518,"current_range_meters":29600,"station_id":"ce4bhp92rcd13ifvqhbg","pricing_plan_id":"cebpf4jnsgd1na2vs0mg"},{"bike_id":"75eaf369-4a6d-49f4-92b4-b6d2925b63f9","system_id":"levelo_inurba_marseille","lat":43.29065,"lon":5.37163,"is_reserved":false,"is_disabled":false,"rental_uris":{"android":"levelo://app?vid=75eaf369-4a6d-49f4-92b4-b6d2925b63f9","ios":"levelo://app?vid=75eaf369-4a6d-49f4-92b4-b6d2925b63f9"},"vehicle_type_id":"4","last_reported":1731053518,"current_range_meters":38800,"station_id":"ce4bh5p2rcd13ifvqe4g","pricing_plan_id":"cebpf4jnsgd1na2vs0mg"},{"bike_id":"6a1c01c9-5426-499d-8599-cefb1ed1c171","system_id":"levelo_inurba_marseille","lat":43.23179,"lon":5.39984,"is_reserved":false,"is_disabled":false,"rental_uris":{"android":"levelo://app?vid=6a1c01c9-5426-499d-8599-cefb1ed1c171","ios":"levelo://app?vid=6a1c01c9-5426-499d-8599-cefb1ed1c171"},"vehicle_type_id":"4","last_reported":1731053518,"current_range_meters":9600,"station_id":"ce4bhn12rcd13ifvqgqg","pricing_plan_id":"cebpf4jnsgd1na2vs0mg"},{"bike_id":"ae6411f3-ae31-4f90-8975-cbb8b6d77600","system_id":"levelo_inurba_marseille","lat":43.32257,"lon":5.36752,"is_reserved":false,"is_disabled":false,"rental_uris":{"android":"levelo://app?vid=ae6411f3-ae31-4f90-8975-cbb8b6d77600","ios":"levelo://app?vid=ae6411f3-ae31-4f90-8975-cbb8b6d77600"},"vehicle_type_id":"4","last_reported":1731053518,"current_range_meters":8000,"station_id":"","pricing_plan_id":"cebpf4jnsgd1na2vs0mg"},{"bike_id":"4b918122-42c5-46f4-98ac-7a2d6c6f4495","system_id":"levelo_inurba_marseille","lat":43.25929,"lon":5.40913,"is_reserved":false,"is_disabled":false,"rental_uris":{"android":"levelo://app?vid=4b918122-42c5-46f4-98ac-7a2d6c6f4495","ios":"levelo://app?vid=4b918122-42c5-46f4-98ac-7a2d6c6f4495"},"vehicle_type_id":"4","last_reported":1731053518,"current_range_meters":24400,"station_id":"ce4bhm92rcd13ifvqglg","pricing_plan_id":"cebpf4jnsgd1na2vs0mg"},{"bike_id":"f54bde22-39d9-429c-beb9-5c655cc1564e","system_id":"levelo_inurba_marseille","lat":43.31226,"lon":5.36849,"is_reserved":false,"is_disabled":false,"rental_uris":{"android":"levelo://app?vid=f54bde22-39d9-429c-beb9-5c655cc1564e","ios":"levelo://app?vid=f54bde22-39d9-429c-beb9-5c655cc1564e"},"vehicle_type_id":"4","last_reported":1731053518,"current_range_meters":39200,"station_id":"ce4bgl92rcd13ifvqbq0","pricing_plan_id":"cebpf4jnsgd1na2vs0mg"},{"bike_id":"95148b88-228e-47b1-9a0c-3baa9b1ffef9","system_id":"levelo_inurba_marseille","lat":43.3108,"lon":5.42427,"is_reserved":false,"is_disabled":false,"rental_uris":{"android":"levelo://app?vid=95148b88-228e-47b1-9a0c-3baa9b1ffef9","ios":"levelo://app?vid=95148b88-228e-47b1-9a0c-3baa9b1ffef9"},"vehicle_type_id":"4","last_reported":1731053518,"current_range_meters":32000,"station_id":"ce4bhp92rcd13ifvqhag","pricing_plan_id":"cebpf4jnsgd1na2vs0mg"},{"bike_id":"0a579a4e-91b3-41fc-bdf0-3d9d80910e51","system_id":"levelo_inurba_marseille","lat":43.32336,"lon":5.40624,"is_reserved":false,"is_disabled":false,"rental_uris":{"android":"levelo://app?vid=0a579a4e-91b3-41fc-bdf0-3d9d80910e51","ios":"levelo://app?vid=0a579a4e-91b3-41fc-bdf0-3d9d80910e51"},"vehicle_type_id":"4","last_reported":1731053518,"current_range_meters":25200,"station_id":"ce4bhq92rcd13ifvqhjg","pricing_plan_id":"cebpf4jnsgd1na2vs0mg"},{"bike_id":"0366bdb5-16ac-4a75-93d2-d1f7e545a0e7","system_id":"levelo_inurba_marseille","lat":43.24671,"lon":5.38158,"is_reserved":false,"is_disabled":false,"rental_uris":{"android":"levelo://app?vid=0366bdb5-16ac-4a75-93d2-d1f7e545a0e7","ios":"levelo://app?vid=0366bdb5-16ac-4a75-93d2-d1f7e545a0e7"},"vehicle_type_id":"4","last_reported":1731053518,"current_range_meters":16400,"station_id":"ce4bhih2rcd13ifvqfr0","pricing_plan_id":"cebpf4jnsgd1na2vs0mg"},{"bike_id":"e94eb5fc-f892-4670-be8c-ec48705e08ac","system_id":"levelo_inurba_marseille","lat":43.284859,"lon":5.385593,"is_reserved":false,"is_disabled":false,"rental_uris":{"android":"levelo://app?vid=e94eb5fc-f892-4670-be8c-ec48705e08ac","ios":"levelo://app?vid=e94eb5fc-f892-4670-be8c-ec48705e08ac"},"vehicle_type_id":"4","last_reported":1731053518,"current_range_meters":28400,"station_id":"ce4bh8p2rcd13ifvqeb0","pricing_plan_id":"cebpf4jnsgd1na2vs0mg"},{"bike_id":"b4d2b281-5873-4902-bc46-b113f3def767","system_id":"levelo_inurba_marseille","lat":43.24076,"lon":5.37751,"is_reserved":false,"is_disabled":false,"rental_uris":{"android":"levelo://app?vid=b4d2b281-5873-4902-bc46-b113f3def767","ios":"levelo://app?vid=b4d2b281-5873-4902-bc46-b113f3def767"},"vehicle_type_id":"4","last_reported":1731053518,"current_range_meters":32400,"station_id":"ce4bhnp2rcd13ifvqgvg","pricing_plan_id":"cebpf4jnsgd1na2vs0mg"},{"bike_id":"224b4f9b-8964-41f7-a92d-d6f79ed1277c","system_id":"levelo_inurba_marseille","lat":43.33603,"lon":5.41022,"is_reserved":false,"is_disabled":false,"rental_uris":{"android":"levelo://app?vid=224b4f9b-8964-41f7-a92d-d6f79ed1277c","ios":"levelo://app?vid=224b4f9b-8964-41f7-a92d-d6f79ed1277c"},"vehicle_type_id":"4","last_reported":1731053518,"current_range_meters":20000,"station_id":"ce4bhqh2rcd13ifvqhmg","pricing_plan_id":"cebpf4jnsgd1na2vs0mg"},{"bike_id":"0953c204-6257-49ee-99e1-fac599d5e6fb","system_id":"levelo_inurba_marseille","lat":43.23964,"lon":5.36627,"is_reserved":false,"is_disabled":false,"rental_uris":{"android":"levelo://app?vid=0953c204-6257-49ee-99e1-fac599d5e6fb","ios":"levelo://app?vid=0953c204-6257-49ee-99e1-fac599d5e6fb"},"vehicle_type_id":"4","last_reported":1731053518,"current_range_meters":31200,"station_id":"ce4bhi12rcd13ifvqfp0","pricing_plan_id":"cebpf4jnsgd1na2vs0mg"},{"bike_id":"31b9ef32-8735-48f6-be39-ac7437ae78f0","system_id":"levelo_inurba_marseille","lat":43.30878,"lon":5.37206,"is_reserved":false,"is_disabled":false,"rental_uris":{"android":"levelo://app?vid=31b9ef32-8735-48f6-be39-ac7437ae78f0","ios":"levelo://app?vid=31b9ef32-8735-48f6-be39-ac7437ae78f0"},"vehicle_type_id":"4","last_reported":1731053518,"current_range_meters":38800,"station_id":"ce4bguh2rcd13ifvqckg","pricing_plan_id":"cebpf4jnsgd1na2vs0mg"},{"bike_id":"815a0138-3843-4918-a6bb-a635a504bec6","system_id":"levelo_inurba_marseille","lat":43.24075,"lon":5.37756,"is_reserved":false,"is_disabled":false,"rental_uris":{"android":"levelo://app?vid=815a0138-3843-4918-a6bb-a635a504bec6","ios":"levelo://app?vid=815a0138-3843-4918-a6bb-a635a504bec6"},"vehicle_type_id":"4","last_reported":1731053518,"current_range_meters":24400,"station_id":"ce4bhnp2rcd13ifvqgvg","pricing_plan_id":"cebpf4jnsgd1na2vs0mg"},{"bike_id":"f5da078b-5359-4a72-8642-c4bd0f9e6885","system_id":"levelo_inurba_marseille","lat":43.28344,"lon":5.38123,"is_reserved":false,"is_disabled":false,"rental_uris":{"android":"levelo://app?vid=f5da078b-5359-4a72-8642-c4bd0f9e6885","ios":"levelo://app?vid=f5da078b-5359-4a72-8642-c4bd0f9e6885"},"vehicle_type_id":"4","last_reported":1731053518,"current_range_meters":32800,"station_id":"ce4bh412rcd13ifvqdr0","pricing_plan_id":"cebpf4jnsgd1na2vs0mg"},{"bike_id":"03db7b6c-fffa-40e9-b9d5-d318a90083a1","system_id":"levelo_inurba_marseille","lat":43.30598,"lon":5.37224,"is_reserved":false,"is_disabled":false,"rental_uris":{"android":"levelo://app?vid=03db7b6c-fffa-40e9-b9d5-d318a90083a1","ios":"levelo://app?vid=03db7b6c-fffa-40e9-b9d5-d318a90083a1"},"vehicle_type_id":"4","last_reported":1731053518,"current_range_meters":20400,"station_id":"ce4bgqh2rcd13ifvqc4g","pricing_plan_id":"cebpf4jnsgd1na2vs0mg"},{"bike_id":"1699dfd4-a244-4371-9a89-bf11d3bbae81","system_id":"levelo_inurba_marseille","lat":43.24809,"lon":5.37451,"is_reserved":false,"is_disabled":false,"rental_uris":{"android":"levelo://app?vid=1699dfd4-a244-4371-9a89-bf11d3bbae81","ios":"levelo://app?vid=1699dfd4-a244-4371-9a89-bf11d3bbae81"},"vehicle_type_id":"4","last_reported":1731053518,"current_range_meters":37600,"station_id":"ce4bhgh2rcd13ifvqfb0","pricing_plan_id":"cebpf4jnsgd1na2vs0mg"},{"bike_id":"526456c3-b2b6-493d-a501-b020493511c3","system_id":"levelo_inurba_marseille","lat":43.23965,"lon":5.36632,"is_reserved":false,"is_disabled":false,"rental_uris":{"android":"levelo://app?vid=526456c3-b2b6-493d-a501-b020493511c3","ios":"levelo://app?vid=526456c3-b2b6-493d-a501-b020493511c3"},"vehicle_type_id":"4","last_reported":1731053518,"current_range_meters":28800,"station_id":"ce4bhi12rcd13ifvqfp0","pricing_plan_id":"cebpf4jnsgd1na2vs0mg"},{"bike_id":"373c6114-3ce0-4dbe-9759-a2bcd3eb8050","system_id":"levelo_inurba_marseille","lat":43.29706,"lon":5.37704,"is_reserved":false,"is_disabled":false,"rental_uris":{"android":"levelo://app?vid=373c6114-3ce0-4dbe-9759-a2bcd3eb8050","ios":"levelo://app?vid=373c6114-3ce0-4dbe-9759-a2bcd3eb8050"},"vehicle_type_id":"4","last_reported":1731053518,"current_range_meters":35200,"station_id":"ce4bgkh2rcd13ifvqbl0","pricing_plan_id":"cebpf4jnsgd1na2vs0mg"},{"bike_id":"cbf00055-bf11-47a5-8af2-3b1cb1abb636","system_id":"levelo_inurba_marseille","lat":43.33023,"lon":5.39044,"is_reserved":false,"is_disabled":false,"rental_uris":{"android":"levelo://app?vid=cbf00055-bf11-47a5-8af2-3b1cb1abb636","ios":"levelo://app?vid=cbf00055-bf11-47a5-8af2-3b1cb1abb636"},"vehicle_type_id":"4","last_reported":1731053518,"current_range_meters":39200,"station_id":"ce4bhr92rcd13ifvqhrg","pricing_plan_id":"cebpf4jnsgd1na2vs0mg"},{"bike_id":"93e800a3-8b5c-4a17-a99e-16efe8faf410","system_id":"levelo_inurba_marseille","lat":43.3254,"lon":5.41439,"is_reserved":false,"is_disabled":false,"rental_uris":{"android":"levelo://app?vid=93e800a3-8b5c-4a17-a99e-16efe8faf410","ios":"levelo://app?vid=93e800a3-8b5c-4a17-a99e-16efe8faf410"},"vehicle_type_id":"4","last_reported":1731053518,"current_range_meters":24000,"station_id":"ce4bhq12rcd13ifvqhhg","pricing_plan_id":"cebpf4jnsgd1na2vs0mg"},{"bike_id":"67a67de2-5262-42a9-b64a-4eae7029d493","system_id":"levelo_inurba_marseille","lat":43.30473,"lon":5.37911,"is_reserved":false,"is_disabled":false,"rental_uris":{"android":"levelo://app?vid=67a67de2-5262-42a9-b64a-4eae7029d493","ios":"levelo://app?vid=67a67de2-5262-42a9-b64a-4eae7029d493"},"vehicle_type_id":"4","last_reported":1731053518,"current_range_meters":30400,"station_id":"ce4bgup2rcd13ifvqcn0","pricing_plan_id":"cebpf4jnsgd1na2vs0mg"},{"bike_id":"dfcf3015-64e1-4c73-9065-23a58d1a316f","system_id":"levelo_inurba_marseille","lat":43.33742,"lon":5.37449,"is_reserved":false,"is_disabled":false,"rental_uris":{"android":"levelo://app?vid=dfcf3015-64e1-4c73-9065-23a58d1a316f","ios":"levelo://app?vid=dfcf3015-64e1-4c73-9065-23a58d1a316f"},"vehicle_type_id":"4","last_reported":1731053518,"current_range_meters":33200,"station_id":"","pricing_plan_id":"cebpf4jnsgd1na2vs0mg"},{"bike_id":"a857852f-ab68-41f9-9316-7113b72659b6","system_id":"levelo_inurba_marseille","lat":43.25002,"lon":5.3891,"is_reserved":false,"is_disabled":false,"rental_uris":{"android":"levelo://app?vid=a857852f-ab68-41f9-9316-7113b72659b6","ios":"levelo://app?vid=a857852f-ab68-41f9-9316-7113b72659b6"},"vehicle_type_id":"4","last_reported":1731053518,"current_range_meters":13600,"station_id":"ce4bhgp2rcd13ifvqfd0","pricing_plan_id":"cebpf4jnsgd1na2vs0mg"},{"bike_id":"7f2fea77-957a-450e-aafd-8a5fadc8bdce","system_id":"levelo_inurba_marseille","lat":43.25941,"lon":5.409,"is_reserved":false,"is_disabled":false,"rental_uris":{"android":"levelo://app?vid=7f2fea77-957a-450e-aafd-8a5fadc8bdce","ios":"levelo://app?vid=7f2fea77-957a-450e-aafd-8a5fadc8bdce"},"vehicle_type_id":"4","last_reported":1731053518,"current_range_meters":27200,"station_id":"ce4bhm92rcd13ifvqglg","pricing_plan_id":"cebpf4jnsgd1na2vs0mg"},{"bike_id":"b46ef1e8-1f5c-4ed9-8ea1-84ae97025f18","system_id":"levelo_inurba_marseille","lat":43.29299,"lon":5.37149,"is_reserved":false,"is_disabled":false,"rental_uris":{"android":"levelo://app?vid=b46ef1e8-1f5c-4ed9-8ea1-84ae97025f18","ios":"levelo://app?vid=b46ef1e8-1f5c-4ed9-8ea1-84ae97025f18"},"vehicle_type_id":"4","last_reported":1731053518,"current_range_meters":36800,"station_id":"ce4bgh92rcd13ifvqb40","pricing_plan_id":"cebpf4jnsgd1na2vs0mg"},{"bike_id":"f86ad4f3-b44e-4fd5-b4e3-84a9274ecd57","system_id":"levelo_inurba_marseille","lat":43.27483,"lon":5.42458,"is_reserved":false,"is_disabled":false,"rental_uris":{"android":"levelo://app?vid=f86ad4f3-b44e-4fd5-b4e3-84a9274ecd57","ios":"levelo://app?vid=f86ad4f3-b44e-4fd5-b4e3-84a9274ecd57"},"vehicle_type_id":"4","last_reported":1731053518,"current_range_meters":24400,"station_id":"ce4bhn92rcd13ifvqgrg","pricing_plan_id":"cebpf4jnsgd1na2vs0mg"},{"bike_id":"994f2147-e130-4895-b32f-cea19e1b13aa","system_id":"levelo_inurba_marseille","lat":43.283417,"lon":5.381074,"is_reserved":false,"is_disabled":false,"rental_uris":{"android":"levelo://app?vid=994f2147-e130-4895-b32f-cea19e1b13aa","ios":"levelo://app?vid=994f2147-e130-4895-b32f-cea19e1b13aa"},"vehicle_type_id":"4","last_reported":1731053518,"current_range_meters":8000,"station_id":"","pricing_plan_id":"cebpf4jnsgd1na2vs0mg"},{"bike_id":"cf8f8482-f782-4c29-b6ce-e440f1c1c735","system_id":"levelo_inurba_marseille","lat":43.30547,"lon":5.36706,"is_reserved":false,"is_disabled":false,"rental_uris":{"android":"levelo://app?vid=cf8f8482-f782-4c29-b6ce-e440f1c1c735","ios":"levelo://app?vid=cf8f8482-f782-4c29-b6ce-e440f1c1c735"},"vehicle_type_id":"4","last_reported":1731053518,"current_range_meters":38800,"station_id":"ce4bgrp2rcd13ifvqc9g","pricing_plan_id":"cebpf4jnsgd1na2vs0mg"},{"bike_id":"ac960791-5923-4024-bf74-2e67976868bc","system_id":"levelo_inurba_marseille","lat":43.27612,"lon":5.36102,"is_reserved":false,"is_disabled":false,"rental_uris":{"android":"levelo://app?vid=ac960791-5923-4024-bf74-2e67976868bc","ios":"levelo://app?vid=ac960791-5923-4024-bf74-2e67976868bc"},"vehicle_type_id":"4","last_reported":1731053518,"current_range_meters":26800,"station_id":"ce4bgj92rcd13ifvqbe0","pricing_plan_id":"cebpf4jnsgd1na2vs0mg"},{"bike_id":"effa9bf3-1a26-43a8-949d-44fdf5caeec3","system_id":"levelo_inurba_marseille","lat":43.30149,"lon":5.37415,"is_reserved":false,"is_disabled":false,"rental_uris":{"android":"levelo://app?vid=effa9bf3-1a26-43a8-949d-44fdf5caeec3","ios":"levelo://app?vid=effa9bf3-1a26-43a8-949d-44fdf5caeec3"},"vehicle_type_id":"4","last_reported":1731053518,"current_range_meters":24400,"station_id":"ce4bgs92rcd13ifvqcc0","pricing_plan_id":"cebpf4jnsgd1na2vs0mg"},{"bike_id":"ff989801-f59b-46d1-867b-7c2b6eab1cca","system_id":"levelo_inurba_marseille","lat":43.337444,"lon":5.374475,"is_reserved":false,"is_disabled":false,"rental_uris":{"android":"levelo://app?vid=ff989801-f59b-46d1-867b-7c2b6eab1cca","ios":"levelo://app?vid=ff989801-f59b-46d1-867b-7c2b6eab1cca"},"vehicle_type_id":"4","last_reported":1731053518,"current_range_meters":38800,"station_id":"","pricing_plan_id":"cebpf4jnsgd1na2vs0mg"},{"bike_id":"0f445d8d-c5c6-4426-9c60-d64eb330cd19","system_id":"levelo_inurba_marseille","lat":43.32287,"lon":5.38267,"is_reserved":false,"is_disabled":false,"rental_uris":{"android":"levelo://app?vid=0f445d8d-c5c6-4426-9c60-d64eb330cd19","ios":"levelo://app?vid=0f445d8d-c5c6-4426-9c60-d64eb330cd19"},"vehicle_type_id":"4","last_reported":1731053518,"current_range_meters":29600,"station_id":"ce4bhr12rcd13ifvqhqg","pricing_plan_id":"cebpf4jnsgd1na2vs0mg"},{"bike_id":"e9c8a630-2d73-4117-9bf7-aca5570a0743","system_id":"levelo_inurba_marseille","lat":43.23185,"lon":5.3999,"is_reserved":false,"is_disabled":false,"rental_uris":{"android":"levelo://app?vid=e9c8a630-2d73-4117-9bf7-aca5570a0743","ios":"levelo://app?vid=e9c8a630-2d73-4117-9bf7-aca5570a0743"},"vehicle_type_id":"4","last_reported":1731053518,"current_range_meters":37600,"station_id":"ce4bhn12rcd13ifvqgqg","pricing_plan_id":"cebpf4jnsgd1na2vs0mg"},{"bike_id":"502c538f-739d-4605-9214-99ec0c3fdafd","system_id":"levelo_inurba_marseille","lat":43.25004,"lon":5.38925,"is_reserved":false,"is_disabled":false,"rental_uris":{"android":"levelo://app?vid=502c538f-739d-4605-9214-99ec0c3fdafd","ios":"levelo://app?vid=502c538f-739d-4605-9214-99ec0c3fdafd"},"vehicle_type_id":"4","last_reported":1731053518,"current_range_meters":38800,"station_id":"ce4bhgp2rcd13ifvqfd0","pricing_plan_id":"cebpf4jnsgd1na2vs0mg"},{"bike_id":"c0df1b92-e4d4-45fc-bd86-dade0340c7cb","system_id":"levelo_inurba_marseille","lat":43.29274,"lon":5.36837,"is_reserved":false,"is_disabled":false,"rental_uris":{"android":"levelo://app?vid=c0df1b92-e4d4-45fc-bd86-dade0340c7cb","ios":"levelo://app?vid=c0df1b92-e4d4-45fc-bd86-dade0340c7cb"},"vehicle_type_id":"4","last_reported":1731053518,"current_range_meters":24000,"station_id":"ce4bhbp2rcd13ifvqesg","pricing_plan_id":"cebpf4jnsgd1na2vs0mg"},{"bike_id":"36e44c8a-c997-49fd-9d3e-8db3824cffb5","system_id":"levelo_inurba_marseille","lat":43.29063,"lon":5.37175,"is_reserved":false,"is_disabled":false,"rental_uris":{"android":"levelo://app?vid=36e44c8a-c997-49fd-9d3e-8db3824cffb5","ios":"levelo://app?vid=36e44c8a-c997-49fd-9d3e-8db3824cffb5"},"vehicle_type_id":"4","last_reported":1731053518,"current_range_meters":16400,"station_id":"ce4bh5p2rcd13ifvqe4g","pricing_plan_id":"cebpf4jnsgd1na2vs0mg"},{"bike_id":"b291b96e-df9f-4aac-9f51-274f361779ef","system_id":"levelo_inurba_marseille","lat":43.27209,"lon":5.39173,"is_reserved":false,"is_disabled":false,"rental_uris":{"android":"levelo://app?vid=b291b96e-df9f-4aac-9f51-274f361779ef","ios":"levelo://app?vid=b291b96e-df9f-4aac-9f51-274f361779ef"},"vehicle_type_id":"4","last_reported":1731053518,"current_range_meters":8400,"station_id":"ce4bhhp2rcd13ifvqfm0","pricing_plan_id":"cebpf4jnsgd1na2vs0mg"},{"bike_id":"43119191-917b-4370-bd95-937b42eb8493","system_id":"levelo_inurba_marseille","lat":43.26504,"lon":5.39529,"is_reserved":false,"is_disabled":false,"rental_uris":{"android":"levelo://app?vid=43119191-917b-4370-bd95-937b42eb8493","ios":"levelo://app?vid=43119191-917b-4370-bd95-937b42eb8493"},"vehicle_type_id":"4","last_reported":1731053518,"current_range_meters":29600,"station_id":"ce4bhi12rcd13ifvqfq0","pricing_plan_id":"cebpf4jnsgd1na2vs0mg"},{"bike_id":"a9426ee3-c4ae-494e-8066-9650a1e2f01d","system_id":"levelo_inurba_marseille","lat":43.28719,"lon":5.37938,"is_reserved":false,"is_disabled":false,"rental_uris":{"android":"levelo://app?vid=a9426ee3-c4ae-494e-8066-9650a1e2f01d","ios":"levelo://app?vid=a9426ee3-c4ae-494e-8066-9650a1e2f01d"},"vehicle_type_id":"4","last_reported":1731053518,"current_range_meters":37600,"station_id":"ce4bh9p2rcd13ifvqec0","pricing_plan_id":"cebpf4jnsgd1na2vs0mg"},{"bike_id":"fc7f83a7-009e-48ef-a8ff-3ce00ef445de","system_id":"levelo_inurba_marseille","lat":43.31227,"lon":5.36871,"is_reserved":false,"is_disabled":false,"rental_uris":{"android":"levelo://app?vid=fc7f83a7-009e-48ef-a8ff-3ce00ef445de","ios":"levelo://app?vid=fc7f83a7-009e-48ef-a8ff-3ce00ef445de"},"vehicle_type_id":"4","last_reported":1731053518,"current_range_meters":39200,"station_id":"ce4bgl92rcd13ifvqbq0","pricing_plan_id":"cebpf4jnsgd1na2vs0mg"},{"bike_id":"3f2baa4e-be97-4516-acda-9e8d8bfa7780","system_id":"levelo_inurba_marseille","lat":43.295931,"lon":5.380977,"is_reserved":false,"is_disabled":false,"rental_uris":{"android":"levelo://app?vid=3f2baa4e-be97-4516-acda-9e8d8bfa7780","ios":"levelo://app?vid=3f2baa4e-be97-4516-acda-9e8d8bfa7780"},"vehicle_type_id":"4","last_reported":1731053518,"current_range_meters":38000,"station_id":"ce4bh392rcd13ifvqdm0","pricing_plan_id":"cebpf4jnsgd1na2vs0mg"},{"bike_id":"57a808e1-19aa-404c-baa6-b888d48a917d","system_id":"levelo_inurba_marseille","lat":43.29094,"lon":5.38169,"is_reserved":false,"is_disabled":false,"rental_uris":{"android":"levelo://app?vid=57a808e1-19aa-404c-baa6-b888d48a917d","ios":"levelo://app?vid=57a808e1-19aa-404c-baa6-b888d48a917d"},"vehicle_type_id":"4","last_reported":1731053518,"current_range_meters":20400,"station_id":"ce4bh512rcd13ifvqe2g","pricing_plan_id":"cebpf4jnsgd1na2vs0mg"},{"bike_id":"2d3f424c-e6be-47ab-baf1-11e844740067","system_id":"levelo_inurba_marseille","lat":43.30469,"lon":5.37907,"is_reserved":false,"is_disabled":false,"rental_uris":{"android":"levelo://app?vid=2d3f424c-e6be-47ab-baf1-11e844740067","ios":"levelo://app?vid=2d3f424c-e6be-47ab-baf1-11e844740067"},"vehicle_type_id":"4","last_reported":1731053518,"current_range_meters":36000,"station_id":"ce4bgup2rcd13ifvqcn0","pricing_plan_id":"cebpf4jnsgd1na2vs0mg"},{"bike_id":"a13edeee-a08a-46ac-b8d3-fbbec7ae9dcc","system_id":"levelo_inurba_marseille","lat":43.30467,"lon":5.37907,"is_reserved":false,"is_disabled":false,"rental_uris":{"android":"levelo://app?vid=a13edeee-a08a-46ac-b8d3-fbbec7ae9dcc","ios":"levelo://app?vid=a13edeee-a08a-46ac-b8d3-fbbec7ae9dcc"},"vehicle_type_id":"4","last_reported":1731053518,"current_range_meters":18000,"station_id":"ce4bgup2rcd13ifvqcn0","pricing_plan_id":"cebpf4jnsgd1na2vs0mg"},{"bike_id":"1db15b25-e96d-4f48-9fbc-1f87da9b9ca5","system_id":"levelo_inurba_marseille","lat":43.29796,"lon":5.38094,"is_reserved":false,"is_disabled":false,"rental_uris":{"android":"levelo://app?vid=1db15b25-e96d-4f48-9fbc-1f87da9b9ca5","ios":"levelo://app?vid=1db15b25-e96d-4f48-9fbc-1f87da9b9ca5"},"vehicle_type_id":"4","last_reported":1731053518,"current_range_meters":12400,"station_id":"ce4bgip2rcd13ifvqbb0","pricing_plan_id":"cebpf4jnsgd1na2vs0mg"},{"bike_id":"50595a63-4a88-4807-8df2-51c3fbe587f7","system_id":"levelo_inurba_marseille","lat":43.32286,"lon":5.38274,"is_reserved":false,"is_disabled":false,"rental_uris":{"android":"levelo://app?vid=50595a63-4a88-4807-8df2-51c3fbe587f7","ios":"levelo://app?vid=50595a63-4a88-4807-8df2-51c3fbe587f7"},"vehicle_type_id":"4","last_reported":1731053518,"current_range_meters":37600,"station_id":"ce4bhr12rcd13ifvqhqg","pricing_plan_id":"cebpf4jnsgd1na2vs0mg"},{"bike_id":"0f6c9b87-1273-49c8-b349-408ffd5c2b13","system_id":"levelo_inurba_marseille","lat":43.26951,"lon":5.3863,"is_reserved":false,"is_disabled":false,"rental_uris":{"android":"levelo://app?vid=0f6c9b87-1273-49c8-b349-408ffd5c2b13","ios":"levelo://app?vid=0f6c9b87-1273-49c8-b349-408ffd5c2b13"},"vehicle_type_id":"4","last_reported":1731053518,"current_range_meters":10800,"station_id":"ce4bhh92rcd13ifvqfh0","pricing_plan_id":"cebpf4jnsgd1na2vs0mg"},{"bike_id":"878a1053-d78b-49a7-babf-42dbea1cc73b","system_id":"levelo_inurba_marseille","lat":43.29621,"lon":5.3716,"is_reserved":false,"is_disabled":false,"rental_uris":{"android":"levelo://app?vid=878a1053-d78b-49a7-babf-42dbea1cc73b","ios":"levelo://app?vid=878a1053-d78b-49a7-babf-42dbea1cc73b"},"vehicle_type_id":"4","last_reported":1731053518,"current_range_meters":36800,"station_id":"ce4bgnh2rcd13ifvqc0g","pricing_plan_id":"cebpf4jnsgd1na2vs0mg"},{"bike_id":"c4f91d88-a087-4dc6-849d-b8eaddd02046","system_id":"levelo_inurba_marseille","lat":43.30134,"lon":5.37396,"is_reserved":false,"is_disabled":false,"rental_uris":{"android":"levelo://app?vid=c4f91d88-a087-4dc6-849d-b8eaddd02046","ios":"levelo://app?vid=c4f91d88-a087-4dc6-849d-b8eaddd02046"},"vehicle_type_id":"4","last_reported":1731053518,"current_range_meters":38800,"station_id":"ce4bgs92rcd13ifvqcc0","pricing_plan_id":"cebpf4jnsgd1na2vs0mg"},{"bike_id":"73c69365-6fdc-46de-abde-9e89de27dba1","system_id":"levelo_inurba_marseille","lat":43.32366,"lon":5.38883,"is_reserved":false,"is_disabled":false,"rental_uris":{"android":"levelo://app?vid=73c69365-6fdc-46de-abde-9e89de27dba1","ios":"levelo://app?vid=73c69365-6fdc-46de-abde-9e89de27dba1"},"vehicle_type_id":"4","last_reported":1731053518,"current_range_meters":37600,"station_id":"ce4bhqp2rcd13ifvqhog","pricing_plan_id":"cebpf4jnsgd1na2vs0mg"},{"bike_id":"e52420d4-63e9-418f-89d3-416320262e35","system_id":"levelo_inurba_marseille","lat":43.23962,"lon":5.36629,"is_reserved":false,"is_disabled":false,"rental_uris":{"android":"levelo://app?vid=e52420d4-63e9-418f-89d3-416320262e35","ios":"levelo://app?vid=e52420d4-63e9-418f-89d3-416320262e35"},"vehicle_type_id":"4","last_reported":1731053518,"current_range_meters":39200,"station_id":"ce4bhi12rcd13ifvqfp0","pricing_plan_id":"cebpf4jnsgd1na2vs0mg"},{"bike_id":"85af0625-337c-402d-b411-0116a49673c3","system_id":"levelo_inurba_marseille","lat":43.292206,"lon":5.360505,"is_reserved":false,"is_disabled":false,"rental_uris":{"android":"levelo://app?vid=85af0625-337c-402d-b411-0116a49673c3","ios":"levelo://app?vid=85af0625-337c-402d-b411-0116a49673c3"},"vehicle_type_id":"4","last_reported":1731053518,"current_range_meters":8400,"station_id":"ce4bhbh2rcd13ifvqeqg","pricing_plan_id":"cebpf4jnsgd1na2vs0mg"},{"bike_id":"02f3bd69-c440-439f-96d2-1f56246cbb70","system_id":"levelo_inurba_marseille","lat":43.27479,"lon":5.42456,"is_reserved":false,"is_disabled":false,"rental_uris":{"android":"levelo://app?vid=02f3bd69-c440-439f-96d2-1f56246cbb70","ios":"levelo://app?vid=02f3bd69-c440-439f-96d2-1f56246cbb70"},"vehicle_type_id":"4","last_reported":1731053518,"current_range_meters":34000,"station_id":"ce4bhn92rcd13ifvqgrg","pricing_plan_id":"cebpf4jnsgd1na2vs0mg"},{"bike_id":"1304c55b-ba66-4def-8543-b51c00189aeb","system_id":"levelo_inurba_marseille","lat":43.30153,"lon":5.38074,"is_reserved":false,"is_disabled":false,"rental_uris":{"android":"levelo://app?vid=1304c55b-ba66-4def-8543-b51c00189aeb","ios":"levelo://app?vid=1304c55b-ba66-4def-8543-b51c00189aeb"},"vehicle_type_id":"4","last_reported":1731053518,"current_range_meters":35600,"station_id":"ce4bgjp2rcd13ifvqbh0","pricing_plan_id":"cebpf4jnsgd1na2vs0mg"},{"bike_id":"cca2255e-8fbc-45d1-9211-fe85bcfb0313","system_id":"levelo_inurba_marseille","lat":43.28152,"lon":5.42639,"is_reserved":false,"is_disabled":false,"rental_uris":{"android":"levelo://app?vid=cca2255e-8fbc-45d1-9211-fe85bcfb0313","ios":"levelo://app?vid=cca2255e-8fbc-45d1-9211-fe85bcfb0313"},"vehicle_type_id":"4","last_reported":1731053518,"current_range_meters":35200,"station_id":"ce4bhnh2rcd13ifvqgug","pricing_plan_id":"cebpf4jnsgd1na2vs0mg"},{"bike_id":"ad1a4eed-0121-40c8-8c1a-96a29bb86511","system_id":"levelo_inurba_marseille","lat":43.31754,"lon":5.39017,"is_reserved":false,"is_disabled":false,"rental_uris":{"android":"levelo://app?vid=ad1a4eed-0121-40c8-8c1a-96a29bb86511","ios":"levelo://app?vid=ad1a4eed-0121-40c8-8c1a-96a29bb86511"},"vehicle_type_id":"4","last_reported":1731053518,"current_range_meters":30800,"station_id":"ce4bhqp2rcd13ifvqhng","pricing_plan_id":"cebpf4jnsgd1na2vs0mg"},{"bike_id":"95036407-87c8-46e8-b3c5-db96b5b860e4","system_id":"levelo_inurba_marseille","lat":43.30463,"lon":5.37901,"is_reserved":false,"is_disabled":false,"rental_uris":{"android":"levelo://app?vid=95036407-87c8-46e8-b3c5-db96b5b860e4","ios":"levelo://app?vid=95036407-87c8-46e8-b3c5-db96b5b860e4"},"vehicle_type_id":"4","last_reported":1731053518,"current_range_meters":28000,"station_id":"ce4bgup2rcd13ifvqcn0","pricing_plan_id":"cebpf4jnsgd1na2vs0mg"},{"bike_id":"7d4fccd3-2e11-450b-9945-5f9a57c5186d","system_id":"levelo_inurba_marseille","lat":43.29562,"lon":5.42291,"is_reserved":false,"is_disabled":false,"rental_uris":{"android":"levelo://app?vid=7d4fccd3-2e11-450b-9945-5f9a57c5186d","ios":"levelo://app?vid=7d4fccd3-2e11-450b-9945-5f9a57c5186d"},"vehicle_type_id":"4","last_reported":1731053518,"current_range_meters":38800,"station_id":"ce4bhph2rcd13ifvqhdg","pricing_plan_id":"cebpf4jnsgd1na2vs0mg"},{"bike_id":"2d2f20bf-d7e7-4f1d-9da6-d9786e5be9ae","system_id":"levelo_inurba_marseille","lat":43.23147,"lon":5.43722,"is_reserved":false,"is_disabled":false,"rental_uris":{"android":"levelo://app?vid=2d2f20bf-d7e7-4f1d-9da6-d9786e5be9ae","ios":"levelo://app?vid=2d2f20bf-d7e7-4f1d-9da6-d9786e5be9ae"},"vehicle_type_id":"4","last_reported":1731053518,"current_range_meters":24800,"station_id":"ce4bhmp2rcd13ifvqgog","pricing_plan_id":"cebpf4jnsgd1na2vs0mg"},{"bike_id":"f6240ba0-900a-4bbb-b767-16165ed8fd4d","system_id":"levelo_inurba_marseille","lat":43.31819,"lon":5.38768,"is_reserved":false,"is_disabled":false,"rental_uris":{"android":"levelo://app?vid=f6240ba0-900a-4bbb-b767-16165ed8fd4d","ios":"levelo://app?vid=f6240ba0-900a-4bbb-b767-16165ed8fd4d"},"vehicle_type_id":"4","last_reported":1731053518,"current_range_meters":12400,"station_id":"","pricing_plan_id":"cebpf4jnsgd1na2vs0mg"},{"bike_id":"0cadfdbb-29cb-47f0-b0d2-065357ffe81f","system_id":"levelo_inurba_marseille","lat":43.304607,"lon":5.379057,"is_reserved":false,"is_disabled":false,"rental_uris":{"android":"levelo://app?vid=0cadfdbb-29cb-47f0-b0d2-065357ffe81f","ios":"levelo://app?vid=0cadfdbb-29cb-47f0-b0d2-065357ffe81f"},"vehicle_type_id":"4","last_reported":1731053518,"current_range_meters":23200,"station_id":"ce4bgup2rcd13ifvqcn0","pricing_plan_id":"cebpf4jnsgd1na2vs0mg"},{"bike_id":"dd2347bd-0f97-4ab6-9d91-35fba976d5c7","system_id":"levelo_inurba_marseille","lat":43.30459,"lon":5.37901,"is_reserved":false,"is_disabled":false,"rental_uris":{"android":"levelo://app?vid=dd2347bd-0f97-4ab6-9d91-35fba976d5c7","ios":"levelo://app?vid=dd2347bd-0f97-4ab6-9d91-35fba976d5c7"},"vehicle_type_id":"4","last_reported":1731053518,"current_range_meters":28400,"station_id":"ce4bgup2rcd13ifvqcn0","pricing_plan_id":"cebpf4jnsgd1na2vs0mg"},{"bike_id":"1d03ad79-5d85-4b22-9cfc-76ae71905ac8","system_id":"levelo_inurba_marseille","lat":43.24067,"lon":5.37763,"is_reserved":false,"is_disabled":false,"rental_uris":{"android":"levelo://app?vid=1d03ad79-5d85-4b22-9cfc-76ae71905ac8","ios":"levelo://app?vid=1d03ad79-5d85-4b22-9cfc-76ae71905ac8"},"vehicle_type_id":"4","last_reported":1731053518,"current_range_meters":38800,"station_id":"ce4bhnp2rcd13ifvqgvg","pricing_plan_id":"cebpf4jnsgd1na2vs0mg"},{"bike_id":"d41462fc-7ffa-4e10-a478-49dee02a0b8d","system_id":"levelo_inurba_marseille","lat":43.30314,"lon":5.36898,"is_reserved":false,"is_disabled":false,"rental_uris":{"android":"levelo://app?vid=d41462fc-7ffa-4e10-a478-49dee02a0b8d","ios":"levelo://app?vid=d41462fc-7ffa-4e10-a478-49dee02a0b8d"},"vehicle_type_id":"4","last_reported":1731053518,"current_range_meters":30800,"station_id":"ce4bgqh2rcd13ifvqc5g","pricing_plan_id":"cebpf4jnsgd1na2vs0mg"},{"bike_id":"c603e80c-4ec5-4d1f-8e67-62b12bfca15f","system_id":"levelo_inurba_marseille","lat":43.27493,"lon":5.42448,"is_reserved":false,"is_disabled":false,"rental_uris":{"android":"levelo://app?vid=c603e80c-4ec5-4d1f-8e67-62b12bfca15f","ios":"levelo://app?vid=c603e80c-4ec5-4d1f-8e67-62b12bfca15f"},"vehicle_type_id":"4","last_reported":1731053518,"current_range_meters":30800,"station_id":"ce4bhn92rcd13ifvqgrg","pricing_plan_id":"cebpf4jnsgd1na2vs0mg"},{"bike_id":"3c418c4d-a26a-4095-8c2b-6b5b246ae24a","system_id":"levelo_inurba_marseille","lat":43.28148,"lon":5.42636,"is_reserved":false,"is_disabled":false,"rental_uris":{"android":"levelo://app?vid=3c418c4d-a26a-4095-8c2b-6b5b246ae24a","ios":"levelo://app?vid=3c418c4d-a26a-4095-8c2b-6b5b246ae24a"},"vehicle_type_id":"4","last_reported":1731053518,"current_range_meters":34800,"station_id":"ce4bhnh2rcd13ifvqgug","pricing_plan_id":"cebpf4jnsgd1na2vs0mg"},{"bike_id":"3bb04ed5-a840-4c90-b544-f2374a5241a6","system_id":"levelo_inurba_marseille","lat":43.3135,"lon":5.3672,"is_reserved":false,"is_disabled":false,"rental_uris":{"android":"levelo://app?vid=3bb04ed5-a840-4c90-b544-f2374a5241a6","ios":"levelo://app?vid=3bb04ed5-a840-4c90-b544-f2374a5241a6"},"vehicle_type_id":"4","last_reported":1731053518,"current_range_meters":30000,"station_id":"ce4bgr92rcd13ifvqc6g","pricing_plan_id":"cebpf4jnsgd1na2vs0mg"},{"bike_id":"ea5b1e6a-e264-496a-a36a-58e005ef49f6","system_id":"levelo_inurba_marseille","lat":43.29795,"lon":5.38095,"is_reserved":false,"is_disabled":false,"rental_uris":{"android":"levelo://app?vid=ea5b1e6a-e264-496a-a36a-58e005ef49f6","ios":"levelo://app?vid=ea5b1e6a-e264-496a-a36a-58e005ef49f6"},"vehicle_type_id":"4","last_reported":1731053518,"current_range_meters":23200,"station_id":"ce4bgip2rcd13ifvqbb0","pricing_plan_id":"cebpf4jnsgd1na2vs0mg"},{"bike_id":"b7f77ccb-03f6-4b38-9170-37e131bf56e6","system_id":"levelo_inurba_marseille","lat":43.32533,"lon":5.41445,"is_reserved":false,"is_disabled":false,"rental_uris":{"android":"levelo://app?vid=b7f77ccb-03f6-4b38-9170-37e131bf56e6","ios":"levelo://app?vid=b7f77ccb-03f6-4b38-9170-37e131bf56e6"},"vehicle_type_id":"4","last_reported":1731053518,"current_range_meters":32800,"station_id":"ce4bhq12rcd13ifvqhhg","pricing_plan_id":"cebpf4jnsgd1na2vs0mg"},{"bike_id":"692a78bd-ec81-41e1-a11d-e1889abe5871","system_id":"levelo_inurba_marseille","lat":43.3135,"lon":5.36725,"is_reserved":false,"is_disabled":false,"rental_uris":{"android":"levelo://app?vid=692a78bd-ec81-41e1-a11d-e1889abe5871","ios":"levelo://app?vid=692a78bd-ec81-41e1-a11d-e1889abe5871"},"vehicle_type_id":"4","last_reported":1731053518,"current_range_meters":39200,"station_id":"ce4bgr92rcd13ifvqc6g","pricing_plan_id":"cebpf4jnsgd1na2vs0mg"},{"bike_id":"9588561e-5475-4542-a014-e26051205ef9","system_id":"levelo_inurba_marseille","lat":43.29025,"lon":5.39977,"is_reserved":false,"is_disabled":false,"rental_uris":{"android":"levelo://app?vid=9588561e-5475-4542-a014-e26051205ef9","ios":"levelo://app?vid=9588561e-5475-4542-a014-e26051205ef9"},"vehicle_type_id":"4","last_reported":1731053518,"current_range_meters":2800,"station_id":"ce4bh392rcd13ifvqdm0","pricing_plan_id":"cebpf4jnsgd1na2vs0mg"},{"bike_id":"24d3c1c9-987c-44c6-8219-1d9687dfe7f4","system_id":"levelo_inurba_marseille","lat":43.31493,"lon":5.37301,"is_reserved":false,"is_disabled":false,"rental_uris":{"android":"levelo://app?vid=24d3c1c9-987c-44c6-8219-1d9687dfe7f4","ios":"levelo://app?vid=24d3c1c9-987c-44c6-8219-1d9687dfe7f4"},"vehicle_type_id":"4","last_reported":1731053518,"current_range_meters":40000,"station_id":"ce4bgt12rcd13ifvqcd0","pricing_plan_id":"cebpf4jnsgd1na2vs0mg"},