{"last_updated":1784195732,"ttl":60,"version":"2.2","data":{"bikes":[{"bike_id":"ba0c28b1-8732-48e2-8079-f25b2b3fbc3c","system_id":"levelo_inurba_marseille","lat":43.337444,"lon":5.374475,"is_reserved":false,"is_disabled":false,"rental_uris":{"android":"levelo://app?vid=ba0c28b1-8732-48e2-8079-f25b2b3fbc3c","ios":"levelo://app?vid=ba0c28b1-8732-48e2-8079-f25b2b3fbc3c"},"vehicle_type_id":"4","last_reported":1784195733,"current_range_meters":0,"station_id":"","pricing_plan_id":"cebpf4jnsgd1na2vs0mg"},{"bike_id":"ac953eba-8b36-42a8-b2b0-1e3618a31ece","system_id":"levelo_inurba_marseille","lat":43.27185,"lon":5.39168,"is_reserved":false,"is_disabled":false,"rental_uris":{"android":"levelo://app?vid=ac953eba-8b36-42a8-b2b0-1e3618a31ece","ios":"levelo://app?vid=ac953eba-8b36-42a8-b2b0-1e3618a31ece"},"vehicle_type_id":"4","last_reported":1784195733,"current_range_meters":36800,"station_id":"ce4bhhp2rcd13ifvqfm0","pricing_plan_id":"cebpf4jnsgd1na2vs0mg"},{"bike_id":"6f63b739-dc30-4f0a-89fc-9491fc1f8f9f","system_id":"levelo_inurba_marseille","lat":43.29299,"lon":5.37174,"is_reserved":false,"is_disabled":false,"rental_uris":{"android":"levelo://app?vid=6f63b739-dc30-4f0a-89fc-9491fc1f8f9f","ios":"levelo://app?vid=6f63b739-dc30-4f0a-89fc-9491fc1f8f9f"},"vehicle_type_id":"4","last_reported":1784195733,"current_range_meters":11600,"station_id":"ce4bgh92rcd13ifvqb40","pricing_plan_id":"cebpf4jnsgd1na2vs0mg"},{"bike_id":"76b63993-96f7-484a-8343-5ea3ca2d69bf","system_id":"levelo_inurba_marseille","lat":43.27447,"lon":5.36135,"is_reserved":false,"is_disabled":false,"rental_uris":{"android":"levelo://app?vid=76b63993-96f7-484a-8343-5ea3ca2d69bf","ios":"levelo://app?vid=76b63993-96f7-484a-8343-5ea3ca2d69bf"},"vehicle_type_id":"4","last_reported":1784195733,"current_range_meters":32000,"station_id":"","pricing_plan_id":"cebpf4jnsgd1na2vs0mg"},{"bike_id":"3631541a-4963-4914-b39d-5dd1dfe19e96","system_id":"levelo_inurba_marseille","lat":43.26672,"lon":5.38242,"is_reserved":false,"is_disabled":false,"rental_uris":{"android":"levelo://app?vid=3631541a-4963-4914-b39d-5dd1dfe19e96","ios":"levelo://app?vid=3631541a-4963-4914-b39d-5dd1dfe19e96"},"vehicle_type_id":"4","last_reported":1784195733,"current_range_meters":33200,"station_id":"ce4bhg92rcd13ifvqf90","pricing_plan_id":"cebpf4jnsgd1na2vs0mg"},{"bike_id":"0355467a-4bf1-47dd-84f8-f9fae99cadaa","system_id":"levelo_inurba_marseille","lat":43.24087,"lon":5.37797,"is_reserved":false,"is_disabled":false,"rental_uris":{"android":"levelo://app?vid=0355467a-4bf1-47dd-84f8-f9fae99cadaa","ios":"levelo://app?vid=0355467a-4bf1-47dd-84f8-f9fae99cadaa"},"vehicle_type_id":"4","last_reported":1784195733,"current_range_meters":38000,"station_id":"ce4bhnp2rcd13ifvqgvg","pricing_plan_id":"cebpf4jnsgd1na2vs0mg"},{"bike_id":"c7044586-88ca-4de4-b4ba-a3dbd0505a35","system_id":"levelo_inurba_marseille","lat":43.2791,"lon":5.38815,"is_reserved":false,"is_disabled":false,"rental_uris":{"android":"levelo://app?vid=c7044586-88ca-4de4-b4ba-a3dbd0505a35","ios":"levelo://app?vid=c7044586-88ca-4de4-b4ba-a3dbd0505a35"},"vehicle_type_id":"4","last_reported":1784195733,"current_range_meters":38000,"station_id":"","pricing_plan_id":"cebpf4jnsgd1na2vs0mg"},{"bike_id":"b71cb193-3ff2-4137-bbb0-a3166d834714","system_id":"levelo_inurba_marseille","lat":43.30947,"lon":5.39062,"is_reserved":false,"is_disabled":false,"rental_uris":{"android":"levelo://app?vid=b71cb193-3ff2-4137-bbb0-a3166d834714","ios":"levelo://app?vid=b71cb193-3ff2-4137-bbb0-a3166d834714"},"vehicle_type_id":"4","last_reported":1784195733,"current_range_meters":39200,"station_id":"ce4bgup2rcd13ifvqco0","pricing_plan_id":"cebpf4jnsgd1na2vs0mg"},{"bike_id":"e7b772bc-bb42-4677-a86b-8af91aee4efe","system_id":"levelo_inurba_marseille","lat":43.29294,"lon":5.37444,"is_reserved":false,"is_disabled":true,"rental_uris":{"android":"levelo://app?vid=e7b772bc-bb42-4677-a86b-8af91aee4efe","ios":"levelo://app?vid=e7b772bc-bb42-4677-a86b-8af91aee4efe"},"vehicle_type_id":"4","last_reported":1784195733,"current_range_meters":14400,"station_id":"ce4bgi12rcd13ifvqb70","pricing_plan_id":"cebpf4jnsgd1na2vs0mg"},{"bike_id":"93f62aaf-97ab-422a-99e3-4c99e240ad11","system_id":"levelo_inurba_marseille","lat":43.2655,"lon":5.38998,"is_reserved":false,"is_disabled":true,"rental_uris":{"android":"levelo://app?vid=93f62aaf-97ab-422a-99e3-4c99e240ad11","ios":"levelo://app?vid=93f62aaf-97ab-422a-99e3-4c99e240ad11"},"vehicle_type_id":"4","last_reported":1784195733,"current_range_meters":38800,"station_id":"ce4bhe12rcd13ifvqf30","pricing_plan_id":"cebpf4jnsgd1na2vs0mg"},{"bike_id":"d25cc7c1-b35c-40e8-95e1-17ff370eade9","system_id":"levelo_inurba_marseille","lat":43.24724,"lon":5.37865,"is_reserved":false,"is_disabled":false,"rental_uris":{"android":"levelo://app?vid=d25cc7c1-b35c-40e8-95e1-17ff370eade9","ios":"levelo://app?vid=d25cc7c1-b35c-40e8-95e1-17ff370eade9"},"vehicle_type_id":"4","last_reported":1784195733,"current_range_meters":18800,"station_id":"","pricing_plan_id":"cebpf4jnsgd1na2vs0mg"},{"bike_id":"1ca92ab6-dc16-48d3-9edf-e28ae5bfe10b","system_id":"levelo_inurba_marseille","lat":43.29984,"lon":5.37182,"is_reserved":false,"is_disabled":false,"rental_uris":{"android":"levelo://app?vid=1ca92ab6-dc16-48d3-9edf-e28ae5bfe10b","ios":"levelo://app?vid=1ca92ab6-dc16-48d3-9edf-e28ae5bfe10b"},"vehicle_type_id":"4","last_reported":1784195733,"current_range_meters":39200,"station_id":"ce4bgr92rcd13ifvqc7g","pricing_plan_id":"cebpf4jnsgd1na2vs0mg"},{"bike_id":"e71494cd-d4a8-436a-a5c6-260a2924500e","system_id":"levelo_inurba_marseille","lat":43.26225,"lon":5.38787,"is_reserved":false,"is_disabled":true,"rental_uris":{"android":"levelo://app?vid=e71494cd-d4a8-436a-a5c6-260a2924500e","ios":"levelo://app?vid=e71494cd-d4a8-436a-a5c6-260a2924500e"},"vehicle_type_id":"4","last_reported":1784195733,"current_range_meters":35600,"station_id":"st_d8gjfg747rts73coq3b0","pricing_plan_id":"cebpf4jnsgd1na2vs0mg"},{"bike_id":"4dd83e35-73dd-44b8-9d3c-9c21e3418d4e","system_id":"levelo_inurba_marseille","lat":43.27482,"lon":5.42538,"is_reserved":false,"is_disabled":false,"rental_uris":{"android":"levelo://app?vid=4dd83e35-73dd-44b8-9d3c-9c21e3418d4e","ios":"levelo://app?vid=4dd83e35-73dd-44b8-9d3c-9c21e3418d4e"},"vehicle_type_id":"4","last_reported":1784195733,"current_range_meters":18000,"station_id":"st_d8t4bh7nbrqs73arha60","pricing_plan_id":"cebpf4jnsgd1na2vs0mg"},{"bike_id":"d671bf15-d315-4cd3-8f25-4adde7eb9a83","system_id":"levelo_inurba_marseille","lat":43.29351,"lon":5.40239,"is_reserved":false,"is_disabled":false,"rental_uris":{"android":"levelo://app?vid=d671bf15-d315-4cd3-8f25-4adde7eb9a83","ios":"levelo://app?vid=d671bf15-d315-4cd3-8f25-4adde7eb9a83"},"vehicle_type_id":"4","last_reported":1784195733,"current_range_meters":18800,"station_id":"","pricing_plan_id":"cebpf4jnsgd1na2vs0mg"},{"bike_id":"d6057eb2-9bb7-4bbb-9d1a-c165943bae0a","system_id":"levelo_inurba_marseille","lat":43.23969,"lon":5.3662,"is_reserved":false,"is_disabled":false,"rental_uris":{"android":"levelo://app?vid=d6057eb2-9bb7-4bbb-9d1a-c165943bae0a","ios":"levelo://app?vid=d6057eb2-9bb7-4bbb-9d1a-c165943bae0a"},"vehicle_type_id":"4","last_reported":1784195733,"current_range_meters":19200,"station_id":"ce4bhi12rcd13ifvqfp0","pricing_plan_id":"cebpf4jnsgd1na2vs0mg"},{"bike_id":"5369b032-dcc5-484a-9b18-671fceb20e9f","system_id":"levelo_inurba_marseille","lat":43.24999,"lon":5.38915,"is_reserved":false,"is_disabled":false,"rental_uris":{"android":"levelo://app?vid=5369b032-dcc5-484a-9b18-671fceb20e9f","ios":"levelo://app?vid=5369b032-dcc5-484a-9b18-671fceb20e9f"},"vehicle_type_id":"4","last_reported":1784195733,"current_range_meters":25600,"station_id":"","pricing_plan_id":"cebpf4jnsgd1na2vs0mg"},{"bike_id":"8398bafc-26c1-4b7f-b9f3-538c26945961","system_id":"levelo_inurba_marseille","lat":43.27318,"lon":5.3909,"is_reserved":false,"is_disabled":false,"rental_uris":{"android":"levelo://app?vid=8398bafc-26c1-4b7f-b9f3-538c26945961","ios":"levelo://app?vid=8398bafc-26c1-4b7f-b9f3-538c26945961"},"vehicle_type_id":"4","last_reported":1784195733,"current_range_meters":9200,"station_id":"ce4bhgp2rcd13ifvqfe0","pricing_plan_id":"cebpf4jnsgd1na2vs0mg"},{"bike_id":"daf11da9-09e4-45d4-814b-e16971bc59a4","system_id":"levelo_inurba_marseille","lat":43.27968,"lon":5.3875,"is_reserved":false,"is_disabled":true,"rental_uris":{"android":"levelo://app?vid=daf11da9-09e4-45d4-814b-e16971bc59a4","ios":"levelo://app?vid=daf11da9-09e4-45d4-814b-e16971bc59a4"},"vehicle_type_id":"4","last_reported":1784195733,"current_range_meters":30000,"station_id":"ce4bhg12rcd13ifvqf80","pricing_plan_id":"cebpf4jnsgd1na2vs0mg"},{"bike_id":"a4d79a17-63b8-4c7f-b179-79ed9edf9240","system_id":"levelo_inurba_marseille","lat":43.33546,"lon":5.37469,"is_reserved":false,"is_disabled":false,"rental_uris":{"android":"levelo://app?vid=a4d79a17-63b8-4c7f-b179-79ed9edf9240","ios":"levelo://app?vid=a4d79a17-63b8-4c7f-b179-79ed9edf9240"},"vehicle_type_id":"4","last_reported":1784195733,"current_range_meters":36800,"station_id":"st_d46tts09ee8s73dlu43g","pricing_plan_id":"cebpf4jnsgd1na2vs0mg"},{"bike_id":"90f6d1b0-f982-4151-82d6-4e658e527ef7","system_id":"levelo_inurba_marseille","lat":43.2549,"lon":5.3765,"is_reserved":false,"is_disabled":false,"rental_uris":{"android":"levelo://app?vid=90f6d1b0-f982-4151-82d6-4e658e527ef7","ios":"levelo://app?vid=90f6d1b0-f982-4151-82d6-4e658e527ef7"},"vehicle_type_id":"4","last_reported":1784195733,"current_range_meters":40000,"station_id":"ce4bhh12rcd13ifvqff0","pricing_plan_id":"cebpf4jnsgd1na2vs0mg"},{"bike_id":"a67c06bc-a947-4bf2-a376-d76f28182aad","system_id":"levelo_inurba_marseille","lat":43.29965,"lon":5.37167,"is_reserved":false,"is_disabled":false,"rental_uris":{"android":"levelo://app?vid=a67c06bc-a947-4bf2-a376-d76f28182aad","ios":"levelo://app?vid=a67c06bc-a947-4bf2-a376-d76f28182aad"},"vehicle_type_id":"4","last_reported":1784195733,"current_range_meters":39200,"station_id":"ce4bgr92rcd13ifvqc7g","pricing_plan_id":"cebpf4jnsgd1na2vs0mg"},{"bike_id":"92451269-f8d4-4349-bee7-395bf79e1e9a","system_id":"levelo_inurba_marseille","lat":43.29631,"lon":5.37948,"is_reserved":false,"is_disabled":false,"rental_uris":{"android":"levelo://app?vid=92451269-f8d4-4349-bee7-395bf79e1e9a","ios":"levelo://app?vid=92451269-f8d4-4349-bee7-395bf79e1e9a"},"vehicle_type_id":"4","last_reported":1784195733,"current_range_meters":20400,"station_id":"","pricing_plan_id":"cebpf4jnsgd1na2vs0mg"},{"bike_id":"b7b159b6-ba7d-4cd5-9705-b4bb03362319","system_id":"levelo_inurba_marseille","lat":43.28591,"lon":5.38437,"is_reserved":false,"is_disabled":false,"rental_uris":{"android":"levelo://app?vid=b7b159b6-ba7d-4cd5-9705-b4bb03362319","ios":"levelo://app?vid=b7b159b6-ba7d-4cd5-9705-b4bb03362319"},"vehicle_type_id":"4","last_reported":1784195733,"current_range_meters":16000,"station_id":"","pricing_plan_id":"cebpf4jnsgd1na2vs0mg"},{"bike_id":"80fb56c3-c297-4924-b0aa-a22c1dad003d","system_id":"levelo_inurba_marseille","lat":43.28857,"lon":5.42531,"is_reserved":false,"is_disabled":false,"rental_uris":{"android":"levelo://app?vid=80fb56c3-c297-4924-b0aa-a22c1dad003d","ios":"levelo://app?vid=80fb56c3-c297-4924-b0aa-a22c1dad003d"},"vehicle_type_id":"4","last_reported":1784195733,"current_range_meters":25600,"station_id":"st_d3b462108ojc7389ooeg","pricing_plan_id":"cebpf4jnsgd1na2vs0mg"},{"bike_id":"cdf4f285-5da5-4fe8-a49e-56a509f71a98","system_id":"levelo_inurba_marseille","lat":43.29567,"lon":5.37518,"is_reserved":false,"is_disabled":false,"rental_uris":{"android":"levelo://app?vid=cdf4f285-5da5-4fe8-a49e-56a509f71a98","ios":"levelo://app?vid=cdf4f285-5da5-4fe8-a49e-56a509f71a98"},"vehicle_type_id":"4","last_reported":1784195733,"current_range_meters":35200,"station_id":"ce4bgh92rcd13ifvqb50","pricing_plan_id":"cebpf4jnsgd1na2vs0mg"},{"bike_id":"4d103531-dc76-4632-9ed6-3b8eae789ecc","system_id":"levelo_inurba_marseille","lat":43.32119,"lon":5.36787,"is_reserved":false,"is_disabled":false,"rental_uris":{"android":"levelo://app?vid=4d103531-dc76-4632-9ed6-3b8eae789ecc","ios":"levelo://app?vid=4d103531-dc76-4632-9ed6-3b8eae789ecc"},"vehicle_type_id":"4","last_reported":1784195733,"current_range_meters":19600,"station_id":"ce4bhrh2rcd13ifvqhug","pricing_plan_id":"cebpf4jnsgd1na2vs0mg"},{"bike_id":"ef6880d0-6944-4f6a-8f40-6662368b8f75","system_id":"levelo_inurba_marseille","lat":43.31464,"lon":5.45411,"is_reserved":false,"is_disabled":false,"rental_uris":{"android":"levelo://app?vid=ef6880d0-6944-4f6a-8f40-6662368b8f75","ios":"levelo://app?vid=ef6880d0-6944-4f6a-8f40-6662368b8f75"},"vehicle_type_id":"4","last_reported":1784195733,"current_range_meters":18000,"station_id":"","pricing_plan_id":"cebpf4jnsgd1na2vs0mg"},{"bike_id":"520de34e-cad5-43e6-9d8d-25489f5f76d7","system_id":"levelo_inurba_marseille","lat":43.25568,"lon":5.3826,"is_reserved":false,"is_disabled":false,"rental_uris":{"android":"levelo://app?vid=520de34e-cad5-43e6-9d8d-25489f5f76d7","ios":"levelo://app?vid=520de34e-cad5-43e6-9d8d-25489f5f76d7"},"vehicle_type_id":"4","last_reported":1784195733,"current_range_meters":39200,"station_id":"ce4bhih2rcd13ifvqfs0","pricing_plan_id":"cebpf4jnsgd1na2vs0mg"},{"bike_id":"a2213ae8-2e6d-461a-8999-1b795907cda2","system_id":"levelo_inurba_marseille","lat":43.28612,"lon":5.39886,"is_reserved":false,"is_disabled":false,"rental_uris":{"android":"levelo://app?vid=a2213ae8-2e6d-461a-8999-1b795907cda2","ios":"levelo://app?vid=a2213ae8-2e6d-461a-8999-1b795907cda2"},"vehicle_type_id":"4","last_reported":1784195733,"current_range_meters":28800,"station_id":"st_d4a7ka997mjs738ck50g","pricing_plan_id":"cebpf4jnsgd1na2vs0mg"},{"bike_id":"bf7f46ab-16c0-45b1-9e14-09575cfc67ff","system_id":"levelo_inurba_marseille","lat":43.28683,"lon":5.38658,"is_reserved":false,"is_disabled":false,"rental_uris":{"android":"levelo://app?vid=bf7f46ab-16c0-45b1-9e14-09575cfc67ff","ios":"levelo://app?vid=bf7f46ab-16c0-45b1-9e14-09575cfc67ff"},"vehicle_type_id":"4","last_reported":1784195733,"current_range_meters":36800,"station_id":"ce4bh492rcd13ifvqdug","pricing_plan_id":"cebpf4jnsgd1na2vs0mg"},{"bike_id":"fc69d422-fc1d-45fe-8074-3c79aacfd0fb","system_id":"levelo_inurba_marseille","lat":43.24606,"lon":5.37896,"is_reserved":false,"is_disabled":false,"rental_uris":{"android":"levelo://app?vid=fc69d422-fc1d-45fe-8074-3c79aacfd0fb","ios":"levelo://app?vid=fc69d422-fc1d-45fe-8074-3c79aacfd0fb"},"vehicle_type_id":"4","last_reported":1784195733,"current_range_meters":38800,"station_id":"ce4bhih2rcd13ifvqfr0","pricing_plan_id":"cebpf4jnsgd1na2vs0mg"},{"bike_id":"7b91414b-f173-4f09-b849-2c98e898903b","system_id":"levelo_inurba_marseille","lat":43.31379,"lon":5.38492,"is_reserved":false,"is_disabled":false,"rental_uris":{"android":"levelo://app?vid=7b91414b-f173-4f09-b849-2c98e898903b","ios":"levelo://app?vid=7b91414b-f173-4f09-b849-2c98e898903b"},"vehicle_type_id":"4","last_reported":1784195733,"current_range_meters":28400,"station_id":"ce4bgt92rcd13ifvqcf0","pricing_plan_id":"cebpf4jnsgd1na2vs0mg"},{"bike_id":"d183c213-4177-4bf2-b9e0-24872be8a9c8","system_id":"levelo_inurba_marseille","lat":43.28498,"lon":5.48352,"is_reserved":false,"is_disabled":false,"rental_uris":{"android":"levelo://app?vid=d183c213-4177-4bf2-b9e0-24872be8a9c8","ios":"levelo://app?vid=d183c213-4177-4bf2-b9e0-24872be8a9c8"},"vehicle_type_id":"4","last_reported":1784195733,"current_range_meters":24400,"station_id":"st_d3svhcjqgbts73a3dn0g","pricing_plan_id":"cebpf4jnsgd1na2vs0mg"},{"bike_id":"2019d6d1-cb0d-4aa6-9cd9-0a5df7270fd1","system_id":"levelo_inurba_marseille","lat":43.262068,"lon":5.374426,"is_reserved":false,"is_disabled":false,"rental_uris":{"android":"levelo://app?vid=2019d6d1-cb0d-4aa6-9cd9-0a5df7270fd1","ios":"levelo://app?vid=2019d6d1-cb0d-4aa6-9cd9-0a5df7270fd1"},"vehicle_type_id":"4","last_reported":1784195733,"current_range_meters":39200,"station_id":"ce4bhgp2rcd13ifvqfc0","pricing_plan_id":"cebpf4jnsgd1na2vs0mg"},{"bike_id":"b0eee4fe-11fb-47a1-8f86-7ab257f96284","system_id":"levelo_inurba_marseille","lat":43.33159,"lon":5.37692,"is_reserved":false,"is_disabled":false,"rental_uris":{"android":"levelo://app?vid=b0eee4fe-11fb-47a1-8f86-7ab257f96284","ios":"levelo://app?vid=b0eee4fe-11fb-47a1-8f86-7ab257f96284"},"vehicle_type_id":"4","last_reported":1784195733,"current_range_meters":11200,"station_id":"st_d46cu089ee8s73dldbu0","pricing_plan_id":"cebpf4jnsgd1na2vs0mg"},{"bike_id":"77f0b611-8e54-40ee-804a-9a0ef852a88a","system_id":"levelo_inurba_marseille","lat":43.31112,"lon":5.37151,"is_reserved":false,"is_disabled":true,"rental_uris":{"android":"levelo://app?vid=77f0b611-8e54-40ee-804a-9a0ef852a88a","ios":"levelo://app?vid=77f0b611-8e54-40ee-804a-9a0ef852a88a"},"vehicle_type_id":"4","last_reported":1784195733,"current_range_meters":20800,"station_id":"","pricing_plan_id":"cebpf4jnsgd1na2vs0mg"},{"bike_id":"3d52ed38-78bf-4882-9313-b6474591023a","system_id":"levelo_inurba_marseille","lat":43.31192,"lon":5.36894,"is_reserved":false,"is_disabled":true,"rental_uris":{"android":"levelo://app?vid=3d52ed38-78bf-4882-9313-b6474591023a","ios":"levelo://app?vid=3d52ed38-78bf-4882-9313-b6474591023a"},"vehicle_type_id":"4","last_reported":1784195733,"current_range_meters":28000,"station_id":"ce4bgl92rcd13ifvqbq0","pricing_plan_id":"cebpf4jnsgd1na2vs0mg"},{"bike_id":"e4e2da61-31a3-435a-b1ec-9bb834559f2e","system_id":"levelo_inurba_marseille","lat":43.25001,"lon":5.38934,"is_reserved":false,"is_disabled":false,"rental_uris":{"android":"levelo://app?vid=e4e2da61-31a3-435a-b1ec-9bb834559f2e","ios":"levelo://app?vid=e4e2da61-31a3-435a-b1ec-9bb834559f2e"},"vehicle_type_id":"4","last_reported":1784195733,"current_range_meters":34000,"station_id":"ce4bhgp2rcd13ifvqfd0","pricing_plan_id":"cebpf4jnsgd1na2vs0mg"},{"bike_id":"e4b57b40-57f8-4ebb-9084-2876cf2f73ec","system_id":"levelo_inurba_marseille","lat":43.31209,"lon":5.36877,"is_reserved":false,"is_disabled":false,"rental_uris":{"android":"levelo://app?vid=e4b57b40-57f8-4ebb-9084-2876cf2f73ec","ios":"levelo://app?vid=e4b57b40-57f8-4ebb-9084-2876cf2f73ec"},"vehicle_type_id":"4","last_reported":1784195733,"current_range_meters":10000,"station_id":"ce4bgl92rcd13ifvqbq0","pricing_plan_id":"cebpf4jnsgd1na2vs0mg"},{"bike_id":"866aa9f7-ad6f-45bb-886c-f290137f6df3","system_id":"levelo_inurba_marseille","lat":43.26208,"lon":5.37441,"is_reserved":false,"is_disabled":false,"rental_uris":{"android":"levelo://app?vid=866aa9f7-ad6f-45bb-886c-f290137f6df3","ios":"levelo://app?vid=866aa9f7-ad6f-45bb-886c-f290137f6df3"},"vehicle_type_id":"4","last_reported":1784195733,"current_range_meters":19600,"station_id":"ce4bhgp2rcd13ifvqfc0","pricing_plan_id":"cebpf4jnsgd1na2vs0mg"},{"bike_id":"a8d878fb-4a41-4020-b6b7-b29ba8b7aab1","system_id":"levelo_inurba_marseille","lat":43.31055,"lon":5.37181,"is_reserved":false,"is_disabled":false,"rental_uris":{"android":"levelo://app?vid=a8d878fb-4a41-4020-b6b7-b29ba8b7aab1","ios":"levelo://app?vid=a8d878fb-4a41-4020-b6b7-b29ba8b7aab1"},"vehicle_type_id":"4","last_reported":1784195733,"current_range_meters":36000,"station_id":"st_d4kl2rp97mjs73e7tdfg","pricing_plan_id":"cebpf4jnsgd1na2vs0mg"},{"bike_id":"c25bb13f-78ac-46ad-85e2-c5fdfafeb5d8","system_id":"levelo_inurba_marseille","lat":43.30207,"lon":5.38096,"is_reserved":false,"is_disabled":false,"rental_uris":{"android":"levelo://app?vid=c25bb13f-78ac-46ad-85e2-c5fdfafeb5d8","ios":"levelo://app?vid=c25bb13f-78ac-46ad-85e2-c5fdfafeb5d8"},"vehicle_type_id":"4","last_reported":1784195733,"current_range_meters":16800,"station_id":"","pricing_plan_id":"cebpf4jnsgd1na2vs0mg"},{"bike_id":"b3d23da5-3818-4c03-a551-e227276b471b","system_id":"levelo_inurba_marseille","lat":43.32475,"lon":5.36559,"is_reserved":false,"is_disabled":false,"rental_uris":{"android":"levelo://app?vid=b3d23da5-3818-4c03-a551-e227276b471b","ios":"levelo://app?vid=b3d23da5-3818-4c03-a551-e227276b471b"},"vehicle_type_id":"4","last_reported":1784195733,"current_range_meters":30400,"station_id":"","pricing_plan_id":"cebpf4jnsgd1na2vs0mg"},{"bike_id":"0e1e6d52-3a1f-4a68-8f28-76593f7ee72c","system_id":"levelo_inurba_marseille","lat":43.29165,"lon":5.35806,"is_reserved":false,"is_disabled":false,"rental_uris":{"android":"levelo://app?vid=0e1e6d52-3a1f-4a68-8f28-76593f7ee72c","ios":"levelo://app?vid=0e1e6d52-3a1f-4a68-8f28-76593f7ee72c"},"vehicle_type_id":"4","last_reported":1784195733,"current_range_meters":38000,"station_id":"ce4bhb12rcd13ifvqel0","pricing_plan_id":"cebpf4jnsgd1na2vs0mg"},{"bike_id":"6cd48a31-aaa8-4146-8aa2-c9360304ef60","system_id":"levelo_inurba_marseille","lat":43.27817,"lon":5.40711,"is_reserved":false,"is_disabled":false,"rental_uris":{"android":"levelo://app?vid=6cd48a31-aaa8-4146-8aa2-c9360304ef60","ios":"levelo://app?vid=6cd48a31-aaa8-4146-8aa2-c9360304ef60"},"vehicle_type_id":"4","last_reported":1784195733,"current_range_meters":14000,"station_id":"ce4bhnh2rcd13ifvqgtg","pricing_plan_id":"cebpf4jnsgd1na2vs0mg"},{"bike_id":"e1bb6861-ee59-438c-aa2a-2a553b2d6f43","system_id":"levelo_inurba_marseille","lat":43.27183,"lon":5.40996,"is_reserved":false,"is_disabled":true,"rental_uris":{"android":"levelo://app?vid=e1bb6861-ee59-438c-aa2a-2a553b2d6f43","ios":"levelo://app?vid=e1bb6861-ee59-438c-aa2a-2a553b2d6f43"},"vehicle_type_id":"4","last_reported":1784195733,"current_range_meters":37600,"station_id":"ce4bhl12rcd13ifvqgf0","pricing_plan_id":"cebpf4jnsgd1na2vs0mg"},{"bike_id":"d61f5f42-3266-4ab9-bc4e-5a83331a7ece","system_id":"levelo_inurba_marseille","lat":43.25575,"lon":5.38249,"is_reserved":false,"is_disabled":true,"rental_uris":{"android":"levelo://app?vid=d61f5f42-3266-4ab9-bc4e-5a83331a7ece","ios":"levelo://app?vid=d61f5f42-3266-4ab9-bc4e-5a83331a7ece"},"vehicle_type_id":"4","last_reported":1784195733,"current_range_meters":36400,"station_id":"ce4bhih2rcd13ifvqfs0","pricing_plan_id":"cebpf4jnsgd1na2vs0mg"},{"bike_id":"06097b1f-6886-48c9-a8e6-84f03d133de4","system_id":"levelo_inurba_marseille","lat":43.31354,"lon":5.43239,"is_reserved":false,"is_disabled":false,"rental_uris":{"android":"levelo://app?vid=06097b1f-6886-48c9-a8e6-84f03d133de4","ios":"levelo://app?vid=06097b1f-6886-48c9-a8e6-84f03d133de4"},"vehicle_type_id":"4","last_reported":1784195733,"current_range_meters":7200,"station_id":"","pricing_plan_id":"cebpf4jnsgd1na2vs0mg"},{"bike_id":"34c5b572-acfb-4138-9633-fe327799f420","system_id":"levelo_inurba_marseille","lat":43.29542,"lon":5.36126,"is_reserved":false,"is_disabled":true,"rental_uris":{"android":"levelo://app?vid=34c5b572-acfb-4138-9633-fe327799f420","ios":"levelo://app?vid=34c5b572-acfb-4138-9633-fe327799f420"},"vehicle_type_id":"4","last_reported":1784195733,"current_range_meters":36000,"station_id":"","pricing_plan_id":"cebpf4jnsgd1na2vs0mg"},{"bike_id":"c70a5a1a-1138-428e-9352-e5f388c6b2fe","system_id":"levelo_inurba_marseille","lat":43.33787,"lon":5.37479,"is_reserved":false,"is_disabled":false,"rental_uris":{"android":"levelo://app?vid=c70a5a1a-1138-428e-9352-e5f388c6b2fe","ios":"levelo://app?vid=c70a5a1a-1138-428e-9352-e5f388c6b2fe"},"vehicle_type_id":"4","last_reported":1784195733,"current_range_meters":31200,"station_id":"","pricing_plan_id":"cebpf4jnsgd1na2vs0mg"},{"bike_id":"2623e023-e953-40ac-8068-15d2169ca99d","system_id":"levelo_inurba_marseille","lat":43.28695,"lon":5.46667,"is_reserved":false,"is_disabled":false,"rental_uris":{"android":"levelo://app?vid=2623e023-e953-40ac-8068-15d2169ca99d","ios":"levelo://app?vid=2623e023-e953-40ac-8068-15d2169ca99d"},"vehicle_type_id":"4","last_reported":1784195733,"current_range_meters":9600,"station_id":"st_d6tc3vkotcvc738tfjhg","pricing_plan_id":"cebpf4jnsgd1na2vs0mg"},{"bike_id":"91d816cf-f38d-4dae-9bb2-984028963317","system_id":"levelo_inurba_marseille","lat":43.30894,"lon":5.36848,"is_reserved":false,"is_disabled":false,"rental_uris":{"android":"levelo://app?vid=91d816cf-f38d-4dae-9bb2-984028963317","ios":"levelo://app?vid=91d816cf-f38d-4dae-9bb2-984028963317"},"vehicle_type_id":"4","last_reported":1784195733,"current_range_meters":18000,"station_id":"ce4bgn92rcd13ifvqbvg","pricing_plan_id":"cebpf4jnsgd1na2vs0mg"},{"bike_id":"7a5203cf-b3c3-4680-afa1-0e3d4d1fb7e2","system_id":"levelo_inurba_marseille","lat":43.23854,"lon":5.37563,"is_reserved":false,"is_disabled":false,"rental_uris":{"android":"levelo://app?vid=7a5203cf-b3c3-4680-afa1-0e3d4d1fb7e2","ios":"levelo://app?vid=7a5203cf-b3c3-4680-afa1-0e3d4d1fb7e2"},"vehicle_type_id":"4","last_reported":1784195733,"current_range_meters":38000,"station_id":"","pricing_plan_id":"cebpf4jnsgd1na2vs0mg"},{"bike_id":"69b6ed8c-1f17-46c2-8d4a-815055a3a3c4","system_id":"levelo_inurba_marseille","lat":43.29007,"lon":5.35586,"is_reserved":false,"is_disabled":true,"rental_uris":{"android":"levelo://app?vid=69b6ed8c-1f17-46c2-8d4a-815055a3a3c4","ios":"levelo://app?vid=69b6ed8c-1f17-46c2-8d4a-815055a3a3c4"},"vehicle_type_id":"4","last_reported":1784195733,"current_range_meters":6800,"station_id":"ce4bhb92rcd13ifvqen0","pricing_plan_id":"cebpf4jnsgd1na2vs0mg"},{"bike_id":"a31d2f72-bd22-475c-b112-1dbd4c70729b","system_id":"levelo_inurba_marseille","lat":43.28962,"lon":5.36418,"is_reserved":false,"is_disabled":true,"rental_uris":{"android":"levelo://app?vid=a31d2f72-bd22-475c-b112-1dbd4c70729b","ios":"levelo://app?vid=a31d2f72-bd22-475c-b112-1dbd4c70729b"},"vehicle_type_id":"4","last_reported":1784195733,"current_range_meters":11200,"station_id":"ce4bhc92rcd13ifvqetg","pricing_plan_id":"cebpf4jnsgd1na2vs0mg"},{"bike_id":"f9b04cff-0426-44bb-9440-4e9193de90d6","system_id":"levelo_inurba_marseille","lat":43.3128,"lon":5.37009,"is_reserved":false,"is_disabled":false,"rental_uris":{"android":"levelo://app?vid=f9b04cff-0426-44bb-9440-4e9193de90d6","ios":"levelo://app?vid=f9b04cff-0426-44bb-9440-4e9193de90d6"},"vehicle_type_id":"4","last_reported":1784195733,"current_range_meters":38800,"station_id":"","pricing_plan_id":"cebpf4jnsgd1na2vs0mg"},{"bike_id":"8ebae504-b9c3-42d1-8b8b-f8c2ea4bcda3","system_id":"levelo_inurba_marseille","lat":43.27999,"lon":5.3826,"is_reserved":false,"is_disabled":false,"rental_uris":{"android":"levelo://app?vid=8ebae504-b9c3-42d1-8b8b-f8c2ea4bcda3","ios":"levelo://app?vid=8ebae504-b9c3-42d1-8b8b-f8c2ea4bcda3"},"vehicle_type_id":"4","last_reported":1784195733,"current_range_meters":29600,"station_id":"","pricing_plan_id":"cebpf4jnsgd1na2vs0mg"},{"bike_id":"d53aa255-e8ee-473c-bec9-d23ab834a76d","system_id":"levelo_inurba_marseille","lat":43.28154,"lon":5.42641,"is_reserved":false,"is_disabled":false,"rental_uris":{"android":"levelo://app?vid=d53aa255-e8ee-473c-bec9-d23ab834a76d","ios":"levelo://app?vid=d53aa255-e8ee-473c-bec9-d23ab834a76d"},"vehicle_type_id":"4","last_reported":1784195733,"current_range_meters":36000,"station_id":"ce4bhnh2rcd13ifvqgug","pricing_plan_id":"cebpf4jnsgd1na2vs0mg"},{"bike_id":"10ef5bd0-f130-4452-b7f2-391aef329ae1","system_id":"levelo_inurba_marseille","lat":43.28154,"lon":5.42651,"is_reserved":false,"is_disabled":false,"rental_uris":{"android":"levelo://app?vid=10ef5bd0-f130-4452-b7f2-391aef329ae1","ios":"levelo://app?vid=10ef5bd0-f130-4452-b7f2-391aef329ae1"},"vehicle_type_id":"4","last_reported":1784195733,"current_range_meters":36800,"station_id":"ce4bhnh2rcd13ifvqgug","pricing_plan_id":"cebpf4jnsgd1na2vs0mg"},{"bike_id":"dc6c3e72-c6f7-41ad-a1e1-9713f0efd569","system_id":"levelo_inurba_marseille","lat":43.2593,"lon":5.40903,"is_reserved":false,"is_disabled":false,"rental_uris":{"android":"levelo://app?vid=dc6c3e72-c6f7-41ad-a1e1-9713f0efd569","ios":"levelo://app?vid=dc6c3e72-c6f7-41ad-a1e1-9713f0efd569"},"vehicle_type_id":"4","last_reported":1784195733,"current_range_meters":40000,"station_id":"ce4bhm92rcd13ifvqglg","pricing_plan_id":"cebpf4jnsgd1na2vs0mg"},{"bike_id":"8ba7f2d6-52d3-4c56-b19a-19a142e62779","system_id":"levelo_inurba_marseille","lat":43.24076,"lon":5.37761,"is_reserved":false,"is_disabled":false,"rental_uris":{"android":"levelo://app?vid=8ba7f2d6-52d3-4c56-b19a-19a142e62779","ios":"levelo://app?vid=8ba7f2d6-52d3-4c56-b19a-19a142e62779"},"vehicle_type_id":"4","last_reported":1784195733,"current_range_meters":20000,"station_id":"ce4bhnp2rcd13ifvqgvg","pricing_plan_id":"cebpf4jnsgd1na2vs0mg"},{"bike_id":"3df7b3ee-3083-4a49-a1f1-8ec2f9d7ba3b","system_id":"levelo_inurba_marseille","lat":43.26057,"lon":5.39398,"is_reserved":false,"is_disabled":false,"rental_uris":{"android":"levelo://app?vid=3df7b3ee-3083-4a49-a1f1-8ec2f9d7ba3b","ios":"levelo://app?vid=3df7b3ee-3083-4a49-a1f1-8ec2f9d7ba3b"},"vehicle_type_id":"4","last_reported":1784195733,"current_range_meters":32000,"station_id":"ce4bhh92rcd13ifvqfj0","pricing_plan_id":"cebpf4jnsgd1na2vs0mg"},{"bike_id":"8046da25-79fd-4646-8634-d6ee96ed332c","system_id":"levelo_inurba_marseille","lat":43.25488,"lon":5.37644,"is_reserved":false,"is_disabled":false,"rental_uris":{"android":"levelo://app?vid=8046da25-79fd-4646-8634-d6ee96ed332c","ios":"levelo://app?vid=8046da25-79fd-4646-8634-d6ee96ed332c"},"vehicle_type_id":"4","last_reported":1784195733,"current_range_meters":36800,"station_id":"ce4bhh12rcd13ifvqff0","pricing_plan_id":"cebpf4jnsgd1na2vs0mg"},{"bike_id":"06673c14-94ed-4eb5-ac49-41767b0b5282","system_id":"levelo_inurba_marseille","lat":43.265481,"lon":5.372848,"is_reserved":false,"is_disabled":false,"rental_uris":{"android":"levelo://app?vid=06673c14-94ed-4eb5-ac49-41767b0b5282","ios":"levelo://app?vid=06673c14-94ed-4eb5-ac49-41767b0b5282"},"vehicle_type_id":"4","last_reported":1784195733,"current_range_meters":36400,"station_id":"ce4bhgh2rcd13ifvqfa0","pricing_plan_id":"cebpf4jnsgd1na2vs0mg"},{"bike_id":"58875846-1130-490b-aa9f-75b680771617","system_id":"levelo_inurba_marseille","lat":43.27339,"lon":5.39097,"is_reserved":false,"is_disabled":false,"rental_uris":{"android":"levelo://app?vid=58875846-1130-490b-aa9f-75b680771617","ios":"levelo://app?vid=58875846-1130-490b-aa9f-75b680771617"},"vehicle_type_id":"4","last_reported":1784195733,"current_range_meters":18000,"station_id":"ce4bhgp2rcd13ifvqfe0","pricing_plan_id":"cebpf4jnsgd1na2vs0mg"},{"bike_id":"57091f55-05a7-48f3-b9de-2a363c338c85","system_id":"levelo_inurba_marseille","lat":43.23894,"lon":5.37449,"is_reserved":false,"is_disabled":false,"rental_uris":{"android":"levelo://app?vid=57091f55-05a7-48f3-b9de-2a363c338c85","ios":"levelo://app?vid=57091f55-05a7-48f3-b9de-2a363c338c85"},"vehicle_type_id":"4","last_reported":1784195733,"current_range_meters":38400,"station_id":"st_d6sm7csbq4hs73f8fpjg","pricing_plan_id":"cebpf4jnsgd1na2vs0mg"},{"bike_id":"5ee03f4b-159d-426a-a2ca-0b6a084e3698","system_id":"levelo_inurba_marseille","lat":43.23803,"lon":5.36657,"is_reserved":false,"is_disabled":false,"rental_uris":{"android":"levelo://app?vid=5ee03f4b-159d-426a-a2ca-0b6a084e3698","ios":"levelo://app?vid=5ee03f4b-159d-426a-a2ca-0b6a084e3698"},"vehicle_type_id":"4","last_reported":1784195733,"current_range_meters":32400,"station_id":"st_d3nk18o9ro0c73en2l3g","pricing_plan_id":"cebpf4jnsgd1na2vs0mg"},{"bike_id":"e9700518-bfab-4e19-9c8e-e3cb6414cf72","system_id":"levelo_inurba_marseille","lat":43.29174,"lon":5.35794,"is_reserved":false,"is_disabled":true,"rental_uris":{"android":"levelo://app?vid=e9700518-bfab-4e19-9c8e-e3cb6414cf72","ios":"levelo://app?vid=e9700518-bfab-4e19-9c8e-e3cb6414cf72"},"vehicle_type_id":"4","last_reported":1784195733,"current_range_meters":16400,"station_id":"ce4bhb12rcd13ifvqel0","pricing_plan_id":"cebpf4jnsgd1na2vs0mg"},{"bike_id":"4474154d-4ccb-41d1-b816-cd3782e9caee","system_id":"levelo_inurba_marseille","lat":43.24179,"lon":5.39717,"is_reserved":false,"is_disabled":false,"rental_uris":{"android":"levelo://app?vid=4474154d-4ccb-41d1-b816-cd3782e9caee","ios":"levelo://app?vid=4474154d-4ccb-41d1-b816-cd3782e9caee"},"vehicle_type_id":"4","last_reported":1784195733,"current_range_meters":12800,"station_id":"ce4bhn12rcd13ifvqgpg","pricing_plan_id":"cebpf4jnsgd1na2vs0mg"},{"bike_id":"94c9ef49-e00d-419e-a588-e0f66f0f90a7","system_id":"levelo_inurba_marseille","lat":43.27995,"lon":5.38258,"is_reserved":false,"is_disabled":false,"rental_uris":{"android":"levelo://app?vid=94c9ef49-e00d-419e-a588-e0f66f0f90a7","ios":"levelo://app?vid=94c9ef49-e00d-419e-a588-e0f66f0f90a7"},"vehicle_type_id":"4","last_reported":1784195733,"current_range_meters":2800,"station_id":"","pricing_plan_id":"cebpf4jnsgd1na2vs0mg"},{"bike_id":"ac84ea2b-27b9-42b3-9dda-35721fc128f1","system_id":"levelo_inurba_marseille","lat":43.29694,"lon":5.40084,"is_reserved":false,"is_disabled":false,"rental_uris":{"android":"levelo://app?vid=ac84ea2b-27b9-42b3-9dda-35721fc128f1","ios":"levelo://app?vid=ac84ea2b-27b9-42b3-9dda-35721fc128f1"},"vehicle_type_id":"4","last_reported":1784195733,"current_range_meters":28400,"station_id":"","pricing_plan_id":"cebpf4jnsgd1na2vs0mg"},{"bike_id":"37f24aa5-1057-468b-97f5-57f784dbd975","system_id":"levelo_inurba_marseille","lat":43.28859,"lon":5.35863,"is_reserved":false,"is_disabled":false,"rental_uris":{"android":"levelo://app?vid=37f24aa5-1057-468b-97f5-57f784dbd975","ios":"levelo://app?vid=37f24aa5-1057-468b-97f5-57f784dbd975"},"vehicle_type_id":"4","last_reported":1784195733,"current_range_meters":14400,"station_id":"ce4bhb12rcd13ifvqem0","pricing_plan_id":"cebpf4jnsgd1na2vs0mg"},{"bike_id":"e0803759-cfd9-40f6-9087-4b2836a17e9a","system_id":"levelo_inurba_marseille","lat":43.24164,"lon":5.36397,"is_reserved":false,"is_disabled":false,"rental_uris":{"android":"levelo://app?vid=e0803759-cfd9-40f6-9087-4b2836a17e9a","ios":"levelo://app?vid=e0803759-cfd9-40f6-9087-4b2836a17e9a"},"vehicle_type_id":"4","last_reported":1784195733,"current_range_meters":22800,"station_id":"cpo36qri1sfpv3e86is0","pricing_plan_id":"cebpf4jnsgd1na2vs0mg"},{"bike_id":"4a7eaf6c-ea42-4513-9dcf-f7f08fab0fdb","system_id":"levelo_inurba_marseille","lat":43.3136,"lon":5.38166,"is_reserved":false,"is_disabled":false,"rental_uris":{"android":"levelo://app?vid=4a7eaf6c-ea42-4513-9dcf-f7f08fab0fdb","ios":"levelo://app?vid=4a7eaf6c-ea42-4513-9dcf-f7f08fab0fdb"},"vehicle_type_id":"4","last_reported":1784195733,"current_range_meters":23200,"station_id":"","pricing_plan_id":"cebpf4jnsgd1na2vs0mg"},{"bike_id":"219d519e-2e68-40c6-b96c-2d1a4dd240a2","system_id":"levelo_inurba_marseille","lat":43.24684,"lon":5.38165,"is_reserved":false,"is_disabled":false,"rental_uris":{"android":"levelo://app?vid=219d519e-2e68-40c6-b96c-2d1a4dd240a2","ios":"levelo://app?vid=219d519e-2e68-40c6-b96c-2d1a4dd240a2"},"vehicle_type_id":"4","last_reported":1784195733,"current_range_meters":25200,"station_id":"ce4bhih2rcd13ifvqfr0","pricing_plan_id":"cebpf4jnsgd1na2vs0mg"},{"bike_id":"6f30e003-134a-42e4-8645-26d14eff6577","system_id":"levelo_inurba_marseille","lat":43.31696,"lon":5.4049,"is_reserved":false,"is_disabled":false,"rental_uris":{"android":"levelo://app?vid=6f30e003-134a-42e4-8645-26d14eff6577","ios":"levelo://app?vid=6f30e003-134a-42e4-8645-26d14eff6577"},"vehicle_type_id":"4","last_reported":1784195733,"current_range_meters":26000,"station_id":"ce4bh012rcd13ifvqd00","pricing_plan_id":"cebpf4jnsgd1na2vs0mg"},{"bike_id":"30aa77a3-d3f3-4a13-8baa-78f619385def","system_id":"levelo_inurba_marseille","lat":43.30145,"lon":5.38079,"is_reserved":false,"is_disabled":false,"rental_uris":{"android":"levelo://app?vid=30aa77a3-d3f3-4a13-8baa-78f619385def","ios":"levelo://app?vid=30aa77a3-d3f3-4a13-8baa-78f619385def"},"vehicle_type_id":"4","last_reported":1784195733,"current_range_meters":31200,"station_id":"ce4bgjp2rcd13ifvqbh0","pricing_plan_id":"cebpf4jnsgd1na2vs0mg"},{"bike_id":"faf68864-cf80-40f3-9cc5-49e0641de807","system_id":"levelo_inurba_marseille","lat":43.25083,"lon":5.3949,"is_reserved":false,"is_disabled":false,"rental_uris":{"android":"levelo://app?vid=faf68864-cf80-40f3-9cc5-49e0641de807","ios":"levelo://app?vid=faf68864-cf80-40f3-9cc5-49e0641de807"},"vehicle_type_id":"4","last_reported":1784195733,"current_range_meters":33200,"station_id":"ce4bhm12rcd13ifvqgkg","pricing_plan_id":"cebpf4jnsgd1na2vs0mg"},{"bike_id":"6093e309-ba05-457b-9016-b0abb9ebd9c0","system_id":"levelo_inurba_marseille","lat":43.28412,"lon":5.34994,"is_reserved":false,"is_disabled":false,"rental_uris":{"android":"levelo://app?vid=6093e309-ba05-457b-9016-b0abb9ebd9c0","ios":"levelo://app?vid=6093e309-ba05-457b-9016-b0abb9ebd9c0"},"vehicle_type_id":"4","last_reported":1784195733,"current_range_meters":31200,"station_id":"ce4bhbh2rcd13ifvqepg","pricing_plan_id":"cebpf4jnsgd1na2vs0mg"},{"bike_id":"2a2b993b-81f0-401e-a094-df30ccdca63f","system_id":"levelo_inurba_marseille","lat":43.28876,"lon":5.42514,"is_reserved":false,"is_disabled":false,"rental_uris":{"android":"levelo://app?vid=2a2b993b-81f0-401e-a094-df30ccdca63f","ios":"levelo://app?vid=2a2b993b-81f0-401e-a094-df30ccdca63f"},"vehicle_type_id":"4","last_reported":1784195733,"current_range_meters":33600,"station_id":"st_d3b462108ojc7389ooeg","pricing_plan_id":"cebpf4jnsgd1na2vs0mg"},{"bike_id":"d0dca651-580c-4704-be18-23cce9e78d40","system_id":"levelo_inurba_marseille","lat":43.23961,"lon":5.3665,"is_reserved":false,"is_disabled":false,"rental_uris":{"android":"levelo://app?vid=d0dca651-580c-4704-be18-23cce9e78d40","ios":"levelo://app?vid=d0dca651-580c-4704-be18-23cce9e78d40"},"vehicle_type_id":"4","last_reported":1784195733,"current_range_meters":14800,"station_id":"ce4bhi12rcd13ifvqfp0","pricing_plan_id":"cebpf4jnsgd1na2vs0mg"},{"bike_id":"81587832-75ed-49cd-91c3-f57f9b8cec45","system_id":"levelo_inurba_marseille","lat":43.29006,"lon":5.3593,"is_reserved":false,"is_disabled":true,"rental_uris":{"android":"levelo://app?vid=81587832-75ed-49cd-91c3-f57f9b8cec45","ios":"levelo://app?vid=81587832-75ed-49cd-91c3-f57f9b8cec45"},"vehicle_type_id":"4","last_reported":1784195733,"current_range_meters":16400,"station_id":"","pricing_plan_id":"cebpf4jnsgd1na2vs0mg"},{"bike_id":"d4037206-0988-49a5-9589-9cf52ca0b5da","system_id":"levelo_inurba_marseille","lat":43.3034,"lon":5.40732,"is_reserved":false,"is_disabled":true,"rental_uris":{"android":"levelo://app?vid=d4037206-0988-49a5-9589-9cf52ca0b5da","ios":"levelo://app?vid=d4037206-0988-49a5-9589-9cf52ca0b5da"},"vehicle_type_id":"4","last_reported":1784195733,"current_range_meters":800,"station_id":"","pricing_plan_id":"cebpf4jnsgd1na2vs0mg"},{"bike_id":"cd1ccc96-6bf6-456d-a0c0-f7f2ddad32c4","system_id":"levelo_inurba_marseille","lat":43.28558,"lon":5.39489,"is_reserved":false,"is_disabled":false,"rental_uris":{"android":"levelo://app?vid=cd1ccc96-6bf6-456d-a0c0-f7f2ddad32c4","ios":"levelo://app?vid=cd1ccc96-6bf6-456d-a0c0-f7f2ddad32c4"},"vehicle_type_id":"4","last_reported":1784195733,"current_range_meters":38800,"station_id":"ce4bh292rcd13ifvqdg0","pricing_plan_id":"cebpf4jnsgd1na2vs0mg"},{"bike_id":"a8cb6669-678d-4715-9cac-d3efe8d87b9f","system_id":"levelo_inurba_marseille","lat":43.28743,"lon":5.38002,"is_reserved":false,"is_disabled":true,"rental_uris":{"android":"levelo://app?vid=a8cb6669-678d-4715-9cac-d3efe8d87b9f","ios":"levelo://app?vid=a8cb6669-678d-4715-9cac-d3efe8d87b9f"},"vehicle_type_id":"4","last_reported":1784195733,"current_range_meters":0,"station_id":"","pricing_plan_id":"cebpf4jnsgd1na2vs0mg"},{"bike_id":"bf7c6627-6720-44ee-8638-b78aeed8ac14","system_id":"levelo_inurba_marseille","lat":43.30129,"lon":5.38779,"is_reserved":false,"is_disabled":true,"rental_uris":{"android":"levelo://app?vid=bf7c6627-6720-44ee-8638-b78aeed8ac14","ios":"levelo://app?vid=bf7c6627-6720-44ee-8638-b78aeed8ac14"},"vehicle_type_id":"4","last_reported":1784195733,"current_range_meters":39200,"station_id":"ce4bghh2rcd13ifvqb60","pricing_plan_id":"cebpf4jnsgd1na2vs0mg"},{"bike_id":"91e9874e-f69b-4033-bc2f-90b3c0abdfd7","system_id":"levelo_inurba_marseille","lat":43.3047,"lon":5.37907,"is_reserved":false,"is_disabled":false,"rental_uris":{"android":"levelo://app?vid=91e9874e-f69b-4033-bc2f-90b3c0abdfd7","ios":"levelo://app?vid=91e9874e-f69b-4033-bc2f-90b3c0abdfd7"},"vehicle_type_id":"4","last_reported":1784195733,"current_range_meters":25600,"station_id":"ce4bgup2rcd13ifvqcn0","pricing_plan_id":"cebpf4jnsgd1na2vs0mg"},{"bike_id":"c6ac626d-aef6-478f-8af0-d0de9fa8be85","system_id":"levelo_inurba_marseille","lat":43.22712,"lon":5.34834,"is_reserved":false,"is_disabled":false,"rental_uris":{"android":"levelo://app?vid=c6ac626d-aef6-478f-8af0-d0de9fa8be85","ios":"levelo://app?vid=c6ac626d-aef6-478f-8af0-d0de9fa8be85"},"vehicle_type_id":"4","last_reported":1784195733,"current_range_meters":9200,"station_id":"","pricing_plan_id":"cebpf4jnsgd1na2vs0mg"},{"bike_id":"c9da7c47-759b-4f0e-a2b7-3e4fe38d40ca","system_id":"levelo_inurba_marseille","lat":43.26784,"lon":5.39434,"is_reserved":false,"is_disabled":false,"rental_uris":{"android":"levelo://app?vid=c9da7c47-759b-4f0e-a2b7-3e4fe38d40ca","ios":"levelo://app?vid=c9da7c47-759b-4f0e-a2b7-3e4fe38d40ca"},"vehicle_type_id":"4","last_reported":1784195733,"current_range_meters":36400,"station_id":"ce4bhh12rcd13ifvqfg0","pricing_plan_id":"cebpf4jnsgd1na2vs0mg"},{"bike_id":"e8976180-d139-402b-b8a5-104a73f8a7c2","system_id":"levelo_inurba_marseille","lat":43.29934,"lon":5.43041,"is_reserved":false,"is_disabled":false,"rental_uris":{"android":"levelo://app?vid=e8976180-d139-402b-b8a5-104a73f8a7c2","ios":"levelo://app?vid=e8976180-d139-402b-b8a5-104a73f8a7c2"},"vehicle_type_id":"4","last_reported":1784195733,"current_range_meters":16800,"station_id":"","pricing_plan_id":"cebpf4jnsgd1na2vs0mg"},{"bike_id":"a10f3047-8a4f-4ff8-abec-fcc08107593c","system_id":"levelo_inurba_marseille","lat":43.29542,"lon":5.37504,"is_reserved":false,"is_disabled":false,"rental_uris":{"android":"levelo://app?vid=a10f3047-8a4f-4ff8-abec-fcc08107593c","ios":"levelo://app?vid=a10f3047-8a4f-4ff8-abec-fcc08107593c"},"vehicle_type_id":"4","last_reported":1784195733,"current_range_meters":24800,"station_id":"ce4bgkp2rcd13ifvqbmg","pricing_plan_id":"cebpf4jnsgd1na2vs0mg"},{"bike_id":"0c964dab-40ec-49b5-8e4d-a4ff83f48bf2","system_id":"levelo_inurba_marseille","lat":43.27934,"lon":5.39097,"is_reserved":false,"is_disabled":false,"rental_uris":{"android":"levelo://app?vid=0c964dab-40ec-49b5-8e4d-a4ff83f48bf2","ios":"levelo://app?vid=0c964dab-40ec-49b5-8e4d-a4ff83f48bf2"},"vehicle_type_id":"4","last_reported":1784195733,"current_range_meters":28800,"station_id":"","pricing_plan_id":"cebpf4jnsgd1na2vs0mg"},{"bike_id":"6224e227-7d0a-40cd-8ccc-b2e0d0d9f84f","system_id":"levelo_inurba_marseille","lat":43.31383,"lon":5.38804,"is_reserved":false,"is_disabled":false,"rental_uris":{"android":"levelo://app?vid=6224e227-7d0a-40cd-8ccc-b2e0d0d9f84f","ios":"levelo://app?vid=6224e227-7d0a-40cd-8ccc-b2e0d0d9f84f"},"vehicle_type_id":"4","last_reported":1784195733,"current_range_meters":15200,"station_id":"","pricing_plan_id":"cebpf4jnsgd1na2vs0mg"},{"bike_id":"7ff8118f-6c81-4cdf-8a1d-4753d954065d","system_id":"levelo_inurba_marseille","lat":43.29583,"lon":5.37999,"is_reserved":false,"is_disabled":false,"rental_uris":{"android":"levelo://app?vid=7ff8118f-6c81-4cdf-8a1d-4753d954065d","ios":"levelo://app?vid=7ff8118f-6c81-4cdf-8a1d-4753d954065d"},"vehicle_type_id":"4","last_reported":1784195733,"current_range_meters":14000,"station_id":"","pricing_plan_id":"cebpf4jnsgd1na2vs0mg"},{"bike_id":"7d9aee17-e1b8-4f5e-bcad-64c7c24e1aaf","system_id":"levelo_inurba_marseille","lat":43.29278,"lon":5.4089,"is_reserved":false,"is_disabled":false,"rental_uris":{"android":"levelo://app?vid=7d9aee17-e1b8-4f5e-bcad-64c7c24e1aaf","ios":"levelo://app?vid=7d9aee17-e1b8-4f5e-bcad-64c7c24e1aaf"},"vehicle_type_id":"4","last_reported":1784195733,"current_range_meters":34000,"station_id":"ce4bh192rcd13ifvqdc0","pricing_plan_id":"cebpf4jnsgd1na2vs0mg"},{"bike_id":"de163011-6b02-44c4-8d7f-1c724f9579ae","system_id":"levelo_inurba_marseille","lat":43.28555,"lon":5.44114,"is_reserved":false,"is_disabled":false,"rental_uris":{"android":"levelo://app?vid=de163011-6b02-44c4-8d7f-1c724f9579ae","ios":"levelo://app?vid=de163011-6b02-44c4-8d7f-1c724f9579ae"},"vehicle_type_id":"4","last_reported":1784195733,"current_range_meters":39200,"station_id":"st_d3j3df2ikq2c7380ej80","pricing_plan_id":"cebpf4jnsgd1na2vs0mg"},{"bike_id":"e7218309-5783-4c41-ba1f-6821e9f68f31","system_id":"levelo_inurba_marseille","lat":43.28447,"lon":5.40154,"is_reserved":false,"is_disabled":false,"rental_uris":{"android":"levelo://app?vid=e7218309-5783-4c41-ba1f-6821e9f68f31","ios":"levelo://app?vid=e7218309-5783-4c41-ba1f-6821e9f68f31"},"vehicle_type_id":"4","last_reported":1784195733,"current_range_meters":27200,"station_id":"","pricing_plan_id":"cebpf4jnsgd1na2vs0mg"},{"bike_id":"fc2a636f-f5ac-470d-96a8-c91135e5e893","system_id":"levelo_inurba_marseille","lat":43.32482,"lon":5.36578,"is_reserved":false,"is_disabled":false,"rental_uris":{"android":"levelo://app?vid=fc2a636f-f5ac-470d-96a8-c91135e5e893","ios":"levelo://app?vid=fc2a636f-f5ac-470d-96a8-c91135e5e893"},"vehicle_type_id":"4","last_reported":1784195733,"current_range_meters":38400,"station_id":"ce4bhs12rcd13ifvqhvg","pricing_plan_id":"cebpf4jnsgd1na2vs0mg"},{"bike_id":"e7659658-66d6-48ff-8338-aa3dd441e58a","system_id":"levelo_inurba_marseille","lat":43.2849,"lon":5.3856,"is_reserved":false,"is_disabled":true,"rental_uris":{"android":"levelo://app?vid=e7659658-66d6-48ff-8338-aa3dd441e58a","ios":"levelo://app?vid=e7659658-66d6-48ff-8338-aa3dd441e58a"},"vehicle_type_id":"4","last_reported":1784195733,"current_range_meters":800,"station_id":"ce4bh8p2rcd13ifvqeb0","pricing_plan_id":"cebpf4jnsgd1na2vs0mg"},{"bike_id":"8c373e44-2f54-499e-b2de-841fd3da9e3c","system_id":"levelo_inurba_marseille","lat":43.29544,"lon":5.37499,"is_reserved":false,"is_disabled":false,"rental_uris":{"android":"levelo://app?vid=8c373e44-2f54-499e-b2de-841fd3da9e3c","ios":"levelo://app?vid=8c373e44-2f54-499e-b2de-841fd3da9e3c"},"vehicle_type_id":"4","last_reported":1784195733,"current_range_meters":24000,"station_id":"ce4bgkp2rcd13ifvqbmg","pricing_plan_id":"cebpf4jnsgd1na2vs0mg"},{"bike_id":"e4ec1182-9638-464e-8e60-c34432d8b038","system_id":"levelo_inurba_marseille","lat":43.26559,"lon":5.37323,"is_reserved":false,"is_disabled":false,"rental_uris":{"android":"levelo://app?vid=e4ec1182-9638-464e-8e60-c34432d8b038","ios":"levelo://app?vid=e4ec1182-9638-464e-8e60-c34432d8b038"},"vehicle_type_id":"4","last_reported":1784195733,"current_range_meters":27600,"station_id":"ce4bhg12rcd13ifvqf70","pricing_plan_id":"cebpf4jnsgd1na2vs0mg"},{"bike_id":"231c151f-6b2a-4f3c-967a-ab9a354824ee","system_id":"levelo_inurba_marseille","lat":43.31515,"lon":5.37175,"is_reserved":false,"is_disabled":false,"rental_uris":{"android":"levelo://app?vid=231c151f-6b2a-4f3c-967a-ab9a354824ee","ios":"levelo://app?vid=231c151f-6b2a-4f3c-967a-ab9a354824ee"},"vehicle_type_id":"4","last_reported":1784195733,"current_range_meters":38000,"station_id":"ce4bgt12rcd13ifvqcd0","pricing_plan_id":"cebpf4jnsgd1na2vs0mg"},{"bike_id":"6b7bc794-a8b6-4b15-bdfb-b2fb240ae758","system_id":"levelo_inurba_marseille","lat":43.28412,"lon":5.34976,"is_reserved":false,"is_disabled":true,"rental_uris":{"android":"levelo://app?vid=6b7bc794-a8b6-4b15-bdfb-b2fb240ae758","ios":"levelo://app?vid=6b7bc794-a8b6-4b15-bdfb-b2fb240ae758"},"vehicle_type_id":"4","last_reported":1784195733,"current_range_meters":40000,"station_id":"ce4bhbh2rcd13ifvqepg","pricing_plan_id":"cebpf4jnsgd1na2vs0mg"},{"bike_id":"9a6436bd-a37a-4da9-9ee6-fc4ee1bfff26","system_id":"levelo_inurba_marseille","lat":43.30528,"lon":5.36542,"is_reserved":false,"is_disabled":false,"rental_uris":{"android":"levelo://app?vid=9a6436bd-a37a-4da9-9ee6-fc4ee1bfff26","ios":"levelo://app?vid=9a6436bd-a37a-4da9-9ee6-fc4ee1bfff26"},"vehicle_type_id":"4","last_reported":1784195733,"current_range_meters":32000,"station_id":"ce4bgs12rcd13ifvqcag","pricing_plan_id":"cebpf4jnsgd1na2vs0mg"},{"bike_id":"86d9ac8f-999c-484d-82b9-b320f23223ac","system_id":"levelo_inurba_marseille","lat":43.31367,"lon":5.36712,"is_reserved":false,"is_disabled":false,"rental_uris":{"android":"levelo://app?vid=86d9ac8f-999c-484d-82b9-b320f23223ac","ios":"levelo://app?vid=86d9ac8f-999c-484d-82b9-b320f23223ac"},"vehicle_type_id":"4","last_reported":1784195733,"current_range_meters":39200,"station_id":"ce4bgr92rcd13ifvqc6g","pricing_plan_id":"cebpf4jnsgd1na2vs0mg"},{"bike_id":"8d7266df-00a0-4dbc-8793-34cdde0c699a","system_id":"levelo_inurba_marseille","lat":43.29313,"lon":5.37178,"is_reserved":false,"is_disabled":false,"rental_uris":{"android":"levelo://app?vid=8d7266df-00a0-4dbc-8793-34cdde0c699a","ios":"levelo://app?vid=8d7266df-00a0-4dbc-8793-34cdde0c699a"},"vehicle_type_id":"4","last_reported":1784195733,"current_range_meters":38400,"station_id":"ce4bgh92rcd13ifvqb40","pricing_plan_id":"cebpf4jnsgd1na2vs0mg"},{"bike_id":"d6b0724d-3030-4e7b-8778-a4d582b3070a","system_id":"levelo_inurba_marseille","lat":43.2862,"lon":5.35097,"is_reserved":false,"is_disabled":true,"rental_uris":{"android":"levelo://app?vid=d6b0724d-3030-4e7b-8778-a4d582b3070a","ios":"levelo://app?vid=d6b0724d-3030-4e7b-8778-a4d582b3070a"},"vehicle_type_id":"4","last_reported":1784195733,"current_range_meters":28400,"station_id":"ce4bhch2rcd13ifvqeug","pricing_plan_id":"cebpf4jnsgd1na2vs0mg"},{"bike_id":"2cd91590-7e39-404f-be14-7001ebe41d55","system_id":"levelo_inurba_marseille","lat":43.231532,"lon":5.438209,"is_reserved":false,"is_disabled":false,"rental_uris":{"android":"levelo://app?vid=2cd91590-7e39-404f-be14-7001ebe41d55","ios":"levelo://app?vid=2cd91590-7e39-404f-be14-7001ebe41d55"},"vehicle_type_id":"4","last_reported":1784195733,"current_range_meters":8400,"station_id":"ce4bhmp2rcd13ifvqgog","pricing_plan_id":"cebpf4jnsgd1na2vs0mg"},{"bike_id":"41342251-a693-4f22-8756-a27b01d7edb3","system_id":"levelo_inurba_marseille","lat":43.30431,"lon":5.37917,"is_reserved":false,"is_disabled":false,"rental_uris":{"android":"levelo://app?vid=41342251-a693-4f22-8756-a27b01d7edb3","ios":"levelo://app?vid=41342251-a693-4f22-8756-a27b01d7edb3"},"vehicle_type_id":"4","last_reported":1784195733,"current_range_meters":22000,"station_id":"ce4bgup2rcd13ifvqcn0","pricing_plan_id":"cebpf4jnsgd1na2vs0mg"},{"bike_id":"0e616c17-0fd1-41b3-b775-a6e5c193aa79","system_id":"levelo_inurba_marseille","lat":43.30176,"lon":5.38108,"is_reserved":false,"is_disabled":false,"rental_uris":{"android":"levelo://app?vid=0e616c17-0fd1-41b3-b775-a6e5c193aa79","ios":"levelo://app?vid=0e616c17-0fd1-41b3-b775-a6e5c193aa79"},"vehicle_type_id":"4","last_reported":1784195733,"current_range_meters":34000,"station_id":"ce4bgjp2rcd13ifvqbh0","pricing_plan_id":"cebpf4jnsgd1na2vs0mg"},{"bike_id":"b8dcb6e5-36a7-4da7-afd1-712a95596c66","system_id":"levelo_inurba_marseille","lat":43.30856,"lon":5.39676,"is_reserved":false,"is_disabled":false,"rental_uris":{"android":"levelo://app?vid=b8dcb6e5-36a7-4da7-afd1-712a95596c66","ios":"levelo://app?vid=b8dcb6e5-36a7-4da7-afd1-712a95596c66"},"vehicle_type_id":"4","last_reported":1784195733,"current_range_meters":39200,"station_id":"ce4bh012rcd13ifvqcv0","pricing_plan_id":"cebpf4jnsgd1na2vs0mg"},{"bike_id":"a3b3164c-edc5-4c31-b06e-e09afe5337c2","system_id":"levelo_inurba_marseille","lat":43.33618,"lon":5.41036,"is_reserved":false,"is_disabled":false,"rental_uris":{"android":"levelo://app?vid=a3b3164c-edc5-4c31-b06e-e09afe5337c2","ios":"levelo://app?vid=a3b3164c-edc5-4c31-b06e-e09afe5337c2"},"vehicle_type_id":"4","last_reported":1784195733,"current_range_meters":39200,"station_id":"ce4bhqh2rcd13ifvqhmg","pricing_plan_id":"cebpf4jnsgd1na2vs0mg"},{"bike_id":"1e628dec-3141-48e0-b510-1c285ab03f4c","system_id":"levelo_inurba_marseille","lat":43.26412,"lon":5.41093,"is_reserved":false,"is_disabled":true,"rental_uris":{"android":"levelo://app?vid=1e628dec-3141-48e0-b510-1c285ab03f4c","ios":"levelo://app?vid=1e628dec-3141-48e0-b510-1c285ab03f4c"},"vehicle_type_id":"4","last_reported":1784195733,"current_range_meters":4000,"station_id":"st_d4e5ca6na9uc73bfl5fg","pricing_plan_id":"cebpf4jnsgd1na2vs0mg"},{"bike_id":"8337f5b4-2806-4bc0-9f71-af183adb5db8","system_id":"levelo_inurba_marseille","lat":43.231359,"lon":5.437577,"is_reserved":false,"is_disabled":false,"rental_uris":{"android":"levelo://app?vid=8337f5b4-2806-4bc0-9f71-af183adb5db8","ios":"levelo://app?vid=8337f5b4-2806-4bc0-9f71-af183adb5db8"},"vehicle_type_id":"4","last_reported":1784195733,"current_range_meters":4400,"station_id":"","pricing_plan_id":"cebpf4jnsgd1na2vs0mg"},{"bike_id":"0e80f4be-aa62-4d4f-a88f-c49843efcd83","system_id":"levelo_inurba_marseille","lat":43.25094,"lon":5.41373,"is_reserved":false,"is_disabled":true,"rental_uris":{"android":"levelo://app?vid=0e80f4be-aa62-4d4f-a88f-c49843efcd83","ios":"levelo://app?vid=0e80f4be-aa62-4d4f-a88f-c49843efcd83"},"vehicle_type_id":"4","last_reported":1784195733,"current_range_meters":11200,"station_id":"","pricing_plan_id":"cebpf4jnsgd1na2vs0mg"},{"bike_id":"a218384b-25a3-4a33-b23b-628bf79dcde7","system_id":"levelo_inurba_marseille","lat":43.29683,"lon":5.37274,"is_reserved":false,"is_disabled":false,"rental_uris":{"android":"levelo://app?vid=a218384b-25a3-4a33-b23b-628bf79dcde7","ios":"levelo://app?vid=a218384b-25a3-4a33-b23b-628bf79dcde7"},"vehicle_type_id":"4","last_reported":1784195733,"current_range_meters":34800,"station_id":"ce4bgk12rcd13ifvqbj0","pricing_plan_id":"cebpf4jnsgd1na2vs0mg"},{"bike_id":"9816fcfb-fed5-46a5-a828-dec154df7717","system_id":"levelo_inurba_marseille","lat":43.26811,"lon":5.40261,"is_reserved":false,"is_disabled":true,"rental_uris":{"android":"levelo://app?vid=9816fcfb-fed5-46a5-a828-dec154df7717","ios":"levelo://app?vid=9816fcfb-fed5-46a5-a828-dec154df7717"},"vehicle_type_id":"4","last_reported":1784195733,"current_range_meters":30400,"station_id":"ce501612rcd8frsf0b60","pricing_plan_id":"cebpf4jnsgd1na2vs0mg"},{"bike_id":"314807e5-c7e5-4040-98f7-f5b3f656b526","system_id":"levelo_inurba_marseille","lat":43.311114,"lon":5.377829,"is_reserved":false,"is_disabled":false,"rental_uris":{"android":"levelo://app?vid=314807e5-c7e5-4040-98f7-f5b3f656b526","ios":"levelo://app?vid=314807e5-c7e5-4040-98f7-f5b3f656b526"},"vehicle_type_id":"4","last_reported":1784195733,"current_range_meters":7200,"station_id":"ce4bgt92rcd13ifvqcg0","pricing_plan_id":"cebpf4jnsgd1na2vs0mg"},{"bike_id":"d54a2f0e-a437-49cc-9bfe-a3b97e9c8b46","system_id":"levelo_inurba_marseille","lat":43.30902,"lon":5.3685,"is_reserved":false,"is_disabled":false,"rental_uris":{"android":"levelo://app?vid=d54a2f0e-a437-49cc-9bfe-a3b97e9c8b46","ios":"levelo://app?vid=d54a2f0e-a437-49cc-9bfe-a3b97e9c8b46"},"vehicle_type_id":"4","last_reported":1784195733,"current_range_meters":40000,"station_id":"ce4bgn92rcd13ifvqbvg","pricing_plan_id":"cebpf4jnsgd1na2vs0mg"},{"bike_id":"3038bc08-15a5-4f2c-978b-17d6976b7abc","system_id":"levelo_inurba_marseille","lat":43.30547,"lon":5.36555,"is_reserved":false,"is_disabled":false,"rental_uris":{"android":"levelo://app?vid=3038bc08-15a5-4f2c-978b-17d6976b7abc","ios":"levelo://app?vid=3038bc08-15a5-4f2c-978b-17d6976b7abc"},"vehicle_type_id":"4","last_reported":1784195733,"current_range_meters":35600,"station_id":"ce4bgs12rcd13ifvqcag","pricing_plan_id":"cebpf4jnsgd1na2vs0mg"},{"bike_id":"cf0d7808-b9f4-450e-9ac9-de3db44df819","system_id":"levelo_inurba_marseille","lat":43.25822,"lon":5.39426,"is_reserved":false,"is_disabled":false,"rental_uris":{"android":"levelo://app?vid=cf0d7808-b9f4-450e-9ac9-de3db44df819","ios":"levelo://app?vid=cf0d7808-b9f4-450e-9ac9-de3db44df819"},"vehicle_type_id":"4","last_reported":1784195733,"current_range_meters":20800,"station_id":"ce4bhip2rcd13ifvqft0","pricing_plan_id":"cebpf4jnsgd1na2vs0mg"},{"bike_id":"bd529bea-55e2-462e-96f2-84ef02ccf732","system_id":"levelo_inurba_marseille","lat":43.3136,"lon":5.38501,"is_reserved":false,"is_disabled":false,"rental_uris":{"android":"levelo://app?vid=bd529bea-55e2-462e-96f2-84ef02ccf732","ios":"levelo://app?vid=bd529bea-55e2-462e-96f2-84ef02ccf732"},"vehicle_type_id":"4","last_reported":1784195733,"current_range_meters":26800,"station_id":"ce4bgt92rcd13ifvqcf0","pricing_plan_id":"cebpf4jnsgd1na2vs0mg"},{"bike_id":"d5c9c027-ce9b-46f0-b4eb-fc40b239d150","system_id":"levelo_inurba_marseille","lat":43.31317,"lon":5.40107,"is_reserved":false,"is_disabled":true,"rental_uris":{"android":"levelo://app?vid=d5c9c027-ce9b-46f0-b4eb-fc40b239d150","ios":"levelo://app?vid=d5c9c027-ce9b-46f0-b4eb-fc40b239d150"},"vehicle_type_id":"4","last_reported":1784195733,"current_range_meters":1600,"station_id":"","pricing_plan_id":"cebpf4jnsgd1na2vs0mg"},{"bike_id":"93704dec-746e-4db8-9abc-1e5fc281f374","system_id":"levelo_inurba_marseille","lat":43.32701,"lon":5.4126,"is_reserved":false,"is_disabled":false,"rental_uris":{"android":"levelo://app?vid=93704dec-746e-4db8-9abc-1e5fc281f374","ios":"levelo://app?vid=93704dec-746e-4db8-9abc-1e5fc281f374"},"vehicle_type_id":"4","last_reported":1784195733,"current_range_meters":4000,"station_id":"","pricing_plan_id":"cebpf4jnsgd1na2vs0mg"},{"bike_id":"fcfa093f-41ae-4183-8e01-083024d1b782","system_id":"levelo_inurba_marseille","lat":43.27552,"lon":5.38432,"is_reserved":false,"is_disabled":false,"rental_uris":{"android":"levelo://app?vid=fcfa093f-41ae-4183-8e01-083024d1b782","ios":"levelo://app?vid=fcfa093f-41ae-4183-8e01-083024d1b782"},"vehicle_type_id":"4","last_reported":1784195733,"current_range_meters":28800,"station_id":"ce4bhh92rcd13ifvqfi0","pricing_plan_id":"cebpf4jnsgd1na2vs0mg"},{"bike_id":"942148f9-90f2-4171-8f05-98ba0ca85bcb","system_id":"levelo_inurba_marseille","lat":43.28478,"lon":5.48398,"is_reserved":false,"is_disabled":false,"rental_uris":{"android":"levelo://app?vid=942148f9-90f2-4171-8f05-98ba0ca85bcb","ios":"levelo://app?vid=942148f9-90f2-4171-8f05-98ba0ca85bcb"},"vehicle_type_id":"4","last_reported":1784195733,"current_range_meters":14400,"station_id":"st_d3svhcjqgbts73a3dn0g","pricing_plan_id":"cebpf4jnsgd1na2vs0mg"},{"bike_id":"aedb9740-64ca-4725-872a-dceeef730534","system_id":"levelo_inurba_marseille","lat":43.29424,"lon":5.40165,"is_reserved":false,"is_disabled":false,"rental_uris":{"android":"levelo://app?vid=aedb9740-64ca-4725-872a-dceeef730534","ios":"levelo://app?vid=aedb9740-64ca-4725-872a-dceeef730534"},"vehicle_type_id":"4","last_reported":1784195733,"current_range_meters":23200,"station_id":"","pricing_plan_id":"cebpf4jnsgd1na2vs0mg"},{"bike_id":"b2b194ed-86a5-4dc8-b828-5b80e1681197","system_id":"levelo_inurba_marseille","lat":43.2854,"lon":5.44096,"is_reserved":false,"is_disabled":false,"rental_uris":{"android":"levelo://app?vid=b2b194ed-86a5-4dc8-b828-5b80e1681197","ios":"levelo://app?vid=b2b194ed-86a5-4dc8-b828-5b80e1681197"},"vehicle_type_id":"4","last_reported":1784195733,"current_range_meters":25600,"station_id":"st_d3j3df2ikq2c7380ej80","pricing_plan_id":"cebpf4jnsgd1na2vs0mg"},{"bike_id":"0527a6e6-96d3-4e15-a173-f34c876e1251","system_id":"levelo_inurba_marseille","lat":43.30473,"lon":5.37916,"is_reserved":false,"is_disabled":false,"rental_uris":{"android":"levelo://app?vid=0527a6e6-96d3-4e15-a173-f34c876e1251","ios":"levelo://app?vid=0527a6e6-96d3-4e15-a173-f34c876e1251"},"vehicle_type_id":"4","last_reported":1784195733,"current_range_meters":30000,"station_id":"ce4bgup2rcd13ifvqcn0","pricing_plan_id":"cebpf4jnsgd1na2vs0mg"},{"bike_id":"2a93def1-9840-4751-b465-b53bb0ce6123","system_id":"levelo_inurba_marseille","lat":43.22554,"lon":5.41642,"is_reserved":false,"is_disabled":false,"rental_uris":{"android":"levelo://app?vid=2a93def1-9840-4751-b465-b53bb0ce6123","ios":"levelo://app?vid=2a93def1-9840-4751-b465-b53bb0ce6123"},"vehicle_type_id":"4","last_reported":1784195733,"current_range_meters":21600,"station_id":"st_d2o4gvlbi1j2169b742g","pricing_plan_id":"cebpf4jnsgd1na2vs0mg"},{"bike_id":"4a704f50-eef6-4a9a-b6b7-28e63e5355dc","system_id":"levelo_inurba_marseille","lat":43.2509,"lon":5.3952,"is_reserved":false,"is_disabled":false,"rental_uris":{"android":"levelo://app?vid=4a704f50-eef6-4a9a-b6b7-28e63e5355dc","ios":"levelo://app?vid=4a704f50-eef6-4a9a-b6b7-28e63e5355dc"},"vehicle_type_id":"4","last_reported":1784195733,"current_range_meters":29600,"station_id":"ce4bhm12rcd13ifvqgkg","pricing_plan_id":"cebpf4jnsgd1na2vs0mg"},{"bike_id":"2ab8aed6-e4b5-49f6-a596-3523f1008ac8","system_id":"levelo_inurba_marseille","lat":43.289224,"lon":5.38392,"is_reserved":false,"is_disabled":true,"rental_uris":{"android":"levelo://app?vid=2ab8aed6-e4b5-49f6-a596-3523f1008ac8","ios":"levelo://app?vid=2ab8aed6-e4b5-49f6-a596-3523f1008ac8"},"vehicle_type_id":"4","last_reported":1784195733,"current_range_meters":28800,"station_id":"ce4bh612rcd13ifvqe6g","pricing_plan_id":"cebpf4jnsgd1na2vs0mg"},{"bike_id":"10592882-7bed-4bde-a924-b4cdb04c175f","system_id":"levelo_inurba_marseille","lat":43.28147,"lon":5.42658,"is_reserved":false,"is_disabled":false,"rental_uris":{"android":"levelo://app?vid=10592882-7bed-4bde-a924-b4cdb04c175f","ios":"levelo://app?vid=10592882-7bed-4bde-a924-b4cdb04c175f"},"vehicle_type_id":"4","last_reported":1784195733,"current_range_meters":38400,"station_id":"ce4bhnh2rcd13ifvqgug","pricing_plan_id":"cebpf4jnsgd1na2vs0mg"},{"bike_id":"b617c35b-7c51-4687-9948-30e5ef21086e","system_id":"levelo_inurba_marseille","lat":43.2868,"lon":5.46674,"is_reserved":false,"is_disabled":false,"rental_uris":{"android":"levelo://app?vid=b617c35b-7c51-4687-9948-30e5ef21086e","ios":"levelo://app?vid=b617c35b-7c51-4687-9948-30e5ef21086e"},"vehicle_type_id":"4","last_reported":1784195733,"current_range_meters":19600,"station_id":"st_d6tc3vkotcvc738tfjhg","pricing_plan_id":"cebpf4jnsgd1na2vs0mg"},{"bike_id":"2833affa-0043-4e75-98a0-706cbbf38050","system_id":"levelo_inurba_marseille","lat":43.30271,"lon":5.36909,"is_reserved":false,"is_disabled":false,"rental_uris":{"android":"levelo://app?vid=2833affa-0043-4e75-98a0-706cbbf38050","ios":"levelo://app?vid=2833affa-0043-4e75-98a0-706cbbf38050"},"vehicle_type_id":"4","last_reported":1784195733,"current_range_meters":40000,"station_id":"ce4bgqh2rcd13ifvqc5g","pricing_plan_id":"cebpf4jnsgd1na2vs0mg"},{"bike_id":"5e03883a-1f9e-4c31-9c58-cc6feea4589d","system_id":"levelo_inurba_marseille","lat":43.29508,"lon":5.39408,"is_reserved":false,"is_disabled":true,"rental_uris":{"android":"levelo://app?vid=5e03883a-1f9e-4c31-9c58-cc6feea4589d","ios":"levelo://app?vid=5e03883a-1f9e-4c31-9c58-cc6feea4589d"},"vehicle_type_id":"4","last_reported":1784195733,"current_range_meters":22800,"station_id":"ce4bh292rcd13ifvqdf0","pricing_plan_id":"cebpf4jnsgd1na2vs0mg"},{"bike_id":"abd28b51-9db3-4251-8023-1ab1c1cc68c9","system_id":"levelo_inurba_marseille","lat":43.28017,"lon":5.41624,"is_reserved":false,"is_disabled":true,"rental_uris":{"android":"levelo://app?vid=abd28b51-9db3-4251-8023-1ab1c1cc68c9","ios":"levelo://app?vid=abd28b51-9db3-4251-8023-1ab1c1cc68c9"},"vehicle_type_id":"4","last_reported":1784195733,"current_range_meters":27600,"station_id":"ce4bho12rcd13ifvqh1g","pricing_plan_id":"cebpf4jnsgd1na2vs0mg"},{"bike_id":"83ec170f-7125-4203-bf48-90c60a96fd26","system_id":"levelo_inurba_marseille","lat":43.30536,"lon":5.3673,"is_reserved":false,"is_disabled":false,"rental_uris":{"android":"levelo://app?vid=83ec170f-7125-4203-bf48-90c60a96fd26","ios":"levelo://app?vid=83ec170f-7125-4203-bf48-90c60a96fd26"},"vehicle_type_id":"4","last_reported":1784195733,"current_range_meters":37600,"station_id":"ce4bgrp2rcd13ifvqc9g","pricing_plan_id":"cebpf4jnsgd1na2vs0mg"},{"bike_id":"6d32b765-aa0d-46a8-942b-fd272d4b06e6","system_id":"levelo_inurba_marseille","lat":43.27611,"lon":5.36111,"is_reserved":false,"is_disabled":true,"rental_uris":{"android":"levelo://app?vid=6d32b765-aa0d-46a8-942b-fd272d4b06e6","ios":"levelo://app?vid=6d32b765-aa0d-46a8-942b-fd272d4b06e6"},"vehicle_type_id":"4","last_reported":1784195733,"current_range_meters":12000,"station_id":"ce4bgj92rcd13ifvqbe0","pricing_plan_id":"cebpf4jnsgd1na2vs0mg"},{"bike_id":"d2d50482-5abb-4f07-8372-ab40c21c2864","system_id":"levelo_inurba_marseille","lat":43.28938,"lon":5.36373,"is_reserved":false,"is_disabled":true,"rental_uris":{"android":"levelo://app?vid=d2d50482-5abb-4f07-8372-ab40c21c2864","ios":"levelo://app?vid=d2d50482-5abb-4f07-8372-ab40c21c2864"},"vehicle_type_id":"4","last_reported":1784195733,"current_range_meters":0,"station_id":"ce4bhc92rcd13ifvqetg","pricing_plan_id":"cebpf4jnsgd1na2vs0mg"},{"bike_id":"6565c5ef-861d-4526-b508-a57d82ebeb48","system_id":"levelo_inurba_marseille","lat":43.25913,"lon":5.40919,"is_reserved":false,"is_disabled":false,"rental_uris":{"android":"levelo://app?vid=6565c5ef-861d-4526-b508-a57d82ebeb48","ios":"levelo://app?vid=6565c5ef-861d-4526-b508-a57d82ebeb48"},"vehicle_type_id":"4","last_reported":1784195733,"current_range_meters":39200,"station_id":"ce4bhm92rcd13ifvqglg","pricing_plan_id":"cebpf4jnsgd1na2vs0mg"},{"bike_id":"57889d2e-37dd-4f8f-b3ab-1bc0a62b2215","system_id":"levelo_inurba_marseille","lat":43.30461,"lon":5.37928,"is_reserved":false,"is_disabled":true,"rental_uris":{"android":"levelo://app?vid=57889d2e-37dd-4f8f-b3ab-1bc0a62b2215","ios":"levelo://app?vid=57889d2e-37dd-4f8f-b3ab-1bc0a62b2215"},"vehicle_type_id":"4","last_reported":1784195733,"current_range_meters":28800,"station_id":"ce4bgup2rcd13ifvqcn0","pricing_plan_id":"cebpf4jnsgd1na2vs0mg"},{"bike_id":"433c6f06-bf7c-485e-a169-ec6db14456f6","system_id":"levelo_inurba_marseille","lat":43.29967,"lon":5.38502,"is_reserved":false,"is_disabled":false,"rental_uris":{"android":"levelo://app?vid=433c6f06-bf7c-485e-a169-ec6db14456f6","ios":"levelo://app?vid=433c6f06-bf7c-485e-a169-ec6db14456f6"},"vehicle_type_id":"4","last_reported":1784195733,"current_range_meters":38400,"station_id":"ce4bgj92rcd13ifvqbd0","pricing_plan_id":"cebpf4jnsgd1na2vs0mg"},{"bike_id":"b45f0205-96d2-4bd2-8ac9-1d2877b8b6cb","system_id":"levelo_inurba_marseille","lat":43.30879,"lon":5.3964,"is_reserved":false,"is_disabled":false,"rental_uris":{"android":"levelo://app?vid=b45f0205-96d2-4bd2-8ac9-1d2877b8b6cb","ios":"levelo://app?vid=b45f0205-96d2-4bd2-8ac9-1d2877b8b6cb"},"vehicle_type_id":"4","last_reported":1784195733,"current_range_meters":19600,"station_id":"ce4bh012rcd13ifvqcv0","pricing_plan_id":"cebpf4jnsgd1na2vs0mg"},{"bike_id":"8946fedd-2e32-49ed-b51d-8d2209da3742","system_id":"levelo_inurba_marseille","lat":43.29434,"lon":5.38111,"is_reserved":false,"is_disabled":false,"rental_uris":{"android":"levelo://app?vid=8946fedd-2e32-49ed-b51d-8d2209da3742","ios":"levelo://app?vid=8946fedd-2e32-49ed-b51d-8d2209da3742"},"vehicle_type_id":"4","last_reported":1784195733,"current_range_meters":11200,"station_id":"","pricing_plan_id":"cebpf4jnsgd1na2vs0mg"},{"bike_id":"d8718c52-f51e-4dca-a499-07fae3fae8d4","system_id":"levelo_inurba_marseille","lat":43.29907,"lon":5.43682,"is_reserved":false,"is_disabled":false,"rental_uris":{"android":"levelo://app?vid=d8718c52-f51e-4dca-a499-07fae3fae8d4","ios":"levelo://app?vid=d8718c52-f51e-4dca-a499-07fae3fae8d4"},"vehicle_type_id":"4","last_reported":1784195733,"current_range_meters":14400,"station_id":"ce4bhpp2rcd13ifvqhfg","pricing_plan_id":"cebpf4jnsgd1na2vs0mg"},{"bike_id":"51905566-557d-413c-97fd-b84daf11e827","system_id":"levelo_inurba_marseille","lat":43.27919,"lon":5.39572,"is_reserved":false,"is_disabled":true,"rental_uris":{"android":"levelo://app?vid=51905566-557d-413c-97fd-b84daf11e827","ios":"levelo://app?vid=51905566-557d-413c-97fd-b84daf11e827"},"vehicle_type_id":"4","last_reported":1784195733,"current_range_meters":33200,"station_id":"ce4bhf92rcd13ifvqf40","pricing_plan_id":"cebpf4jnsgd1na2vs0mg"},{"bike_id":"cbd89872-d1a8-46fc-a9d9-10e0fbde500c","system_id":"levelo_inurba_marseille","lat":43.24432,"lon":5.36983,"is_reserved":false,"is_disabled":false,"rental_uris":{"android":"levelo://app?vid=cbd89872-d1a8-46fc-a9d9-10e0fbde500c","ios":"levelo://app?vid=cbd89872-d1a8-46fc-a9d9-10e0fbde500c"},"vehicle_type_id":"4","last_reported":1784195733,"current_range_meters":4000,"station_id":"","pricing_plan_id":"cebpf4jnsgd1na2vs0mg"},{"bike_id":"68f55c8d-5ba2-4420-86d0-889ee4ec4a74","system_id":"levelo_inurba_marseille","lat":43.29996,"lon":5.37169,"is_reserved":false,"is_disabled":false,"rental_uris":{"android":"levelo://app?vid=68f55c8d-5ba2-4420-86d0-889ee4ec4a74","ios":"levelo://app?vid=68f55c8d-5ba2-4420-86d0-889ee4ec4a74"},"vehicle_type_id":"4","last_reported":1784195733,"current_range_meters":19600,"station_id":"ce4bgr92rcd13ifvqc7g","pricing_plan_id":"cebpf4jnsgd1na2vs0mg"},{"bike_id":"aea11bbc-2d6f-4be0-b121-dbc2d33dd165","system_id":"levelo_inurba_marseille","lat":43.32078,"lon":5.41631,"is_reserved":false,"is_disabled":false,"rental_uris":{"android":"levelo://app?vid=aea11bbc-2d6f-4be0-b121-dbc2d33dd165","ios":"levelo://app?vid=aea11bbc-2d6f-4be0-b121-dbc2d33dd165"},"vehicle_type_id":"4","last_reported":1784195733,"current_range_meters":39200,"station_id":"ce4bhq92rcd13ifvqhkg","pricing_plan_id":"cebpf4jnsgd1na2vs0mg"},{"bike_id":"325bff5d-f3d0-4b48-8353-a589458a6141","system_id":"levelo_inurba_marseille","lat":43.31334,"lon":5.39701,"is_reserved":false,"is_disabled":false,"rental_uris":{"android":"levelo://app?vid=325bff5d-f3d0-4b48-8353-a589458a6141","ios":"levelo://app?vid=325bff5d-f3d0-4b48-8353-a589458a6141"},"vehicle_type_id":"4","last_reported":1784195733,"current_range_meters":28000,"station_id":"ce4bgvp2rcd13ifvqcu0","pricing_plan_id":"cebpf4jnsgd1na2vs0mg"},{"bike_id":"96825e0c-14e6-44a1-9638-22706c4a0540","system_id":"levelo_inurba_marseille","lat":43.27217,"lon":5.39173,"is_reserved":false,"is_disabled":true,"rental_uris":{"android":"levelo://app?vid=96825e0c-14e6-44a1-9638-22706c4a0540","ios":"levelo://app?vid=96825e0c-14e6-44a1-9638-22706c4a0540"},"vehicle_type_id":"4","last_reported":1784195733,"current_range_meters":12800,"station_id":"ce4bhhp2rcd13ifvqfm0","pricing_plan_id":"cebpf4jnsgd1na2vs0mg"},{"bike_id":"e9a20b7a-af7a-4fb7-9733-755a1963e541","system_id":"levelo_inurba_marseille","lat":43.33758,"lon":5.37432,"is_reserved":false,"is_disabled":false,"rental_uris":{"android":"levelo://app?vid=e9a20b7a-af7a-4fb7-9733-755a1963e541","ios":"levelo://app?vid=e9a20b7a-af7a-4fb7-9733-755a1963e541"},"vehicle_type_id":"4","last_reported":1784195733,"current_range_meters":37600,"station_id":"","pricing_plan_id":"cebpf4jnsgd1na2vs0mg"},{"bike_id":"13c67d10-4be5-40a6-a763-47bbc79ea4b7","system_id":"levelo_inurba_marseille","lat":43.258259,"lon":5.394385,"is_reserved":false,"is_disabled":false,"rental_uris":{"android":"levelo://app?vid=13c67d10-4be5-40a6-a763-47bbc79ea4b7","ios":"levelo://app?vid=13c67d10-4be5-40a6-a763-47bbc79ea4b7"},"vehicle_type_id":"4","last_reported":1784195733,"current_range_meters":38000,"station_id":"cpo36qri1sfpv3e86is0","pricing_plan_id":"cebpf4jnsgd1na2vs0mg"},{"bike_id":"172bc998-698c-49b0-a877-c63dee205523","system_id":"levelo_inurba_marseille","lat":43.31211,"lon":5.36896,"is_reserved":false,"is_disabled":false,"rental_uris":{"android":"levelo://app?vid=172bc998-698c-49b0-a877-c63dee205523","ios":"levelo://app?vid=172bc998-698c-49b0-a877-c63dee205523"},"vehicle_type_id":"4","last_reported":1784195733,"current_range_meters":34000,"station_id":"ce4bgl92rcd13ifvqbq0","pricing_plan_id":"cebpf4jnsgd1na2vs0mg"},{"bike_id":"19a4b599-7fac-4d82-bf3a-7eed16fdd1ac","system_id":"levelo_inurba_marseille","lat":43.2997,"lon":5.38561,"is_reserved":false,"is_disabled":false,"rental_uris":{"android":"levelo://app?vid=19a4b599-7fac-4d82-bf3a-7eed16fdd1ac","ios":"levelo://app?vid=19a4b599-7fac-4d82-bf3a-7eed16fdd1ac"},"vehicle_type_id":"4","last_reported":1784195733,"current_range_meters":35200,"station_id":"","pricing_plan_id":"cebpf4jnsgd1na2vs0mg"},{"bike_id":"3897b37b-5ebf-4f3a-8458-0d1f0b06c771","system_id":"levelo_inurba_marseille","lat":43.30516,"lon":5.36702,"is_reserved":false,"is_disabled":false,"rental_uris":{"android":"levelo://app?vid=3897b37b-5ebf-4f3a-8458-0d1f0b06c771","ios":"levelo://app?vid=3897b37b-5ebf-4f3a-8458-0d1f0b06c771"},"vehicle_type_id":"4","last_reported":1784195733,"current_range_meters":38400,"station_id":"ce4bgrp2rcd13ifvqc9g","pricing_plan_id":"cebpf4jnsgd1na2vs0mg"},{"bike_id":"7501a6ba-1e83-4d1e-9471-fbdafd1731ca","system_id":"levelo_inurba_marseille","lat":43.30602,"lon":5.37232,"is_reserved":false,"is_disabled":false,"rental_uris":{"android":"levelo://app?vid=7501a6ba-1e83-4d1e-9471-fbdafd1731ca","ios":"levelo://app?vid=7501a6ba-1e83-4d1e-9471-fbdafd1731ca"},"vehicle_type_id":"4","last_reported":1784195733,"current_range_meters":34000,"station_id":"ce4bgqh2rcd13ifvqc4g","pricing_plan_id":"cebpf4jnsgd1na2vs0mg"},{"bike_id":"569b3651-7a03-491f-ab1e-676c9f9f6a01","system_id":"levelo_inurba_marseille","lat":43.28156,"lon":5.39221,"is_reserved":false,"is_disabled":true,"rental_uris":{"android":"levelo://app?vid=569b3651-7a03-491f-ab1e-676c9f9f6a01","ios":"levelo://app?vid=569b3651-7a03-491f-ab1e-676c9f9f6a01"},"vehicle_type_id":"4","last_reported":1784195733,"current_range_meters":0,"station_id":"","pricing_plan_id":"cebpf4jnsgd1na2vs0mg"},{"bike_id":"9945d993-577c-4caa-9f25-c17b3085dd0d","system_id":"levelo_inurba_marseille","lat":43.3144,"lon":5.37363,"is_reserved":false,"is_disabled":false,"rental_uris":{"android":"levelo://app?vid=9945d993-577c-4caa-9f25-c17b3085dd0d","ios":"levelo://app?vid=9945d993-577c-4caa-9f25-c17b3085dd0d"},"vehicle_type_id":"4","last_reported":1784195733,"current_range_meters":11600,"station_id":"","pricing_plan_id":"cebpf4jnsgd1na2vs0mg"},{"bike_id":"fad4d476-b565-4b81-9166-a20796df0b18","system_id":"levelo_inurba_marseille","lat":43.24798,"lon":5.37448,"is_reserved":false,"is_disabled":false,"rental_uris":{"android":"levelo://app?vid=fad4d476-b565-4b81-9166-a20796df0b18","ios":"levelo://app?vid=fad4d476-b565-4b81-9166-a20796df0b18"},"vehicle_type_id":"4","last_reported":1784195733,"current_range_meters":24800,"station_id":"","pricing_plan_id":"cebpf4jnsgd1na2vs0mg"},{"bike_id":"c90442fa-c5f2-4930-b41a-f04c8812ae3f","system_id":"levelo_inurba_marseille","lat":43.30473,"lon":5.37899,"is_reserved":false,"is_disabled":false,"rental_uris":{"android":"levelo://app?vid=c90442fa-c5f2-4930-b41a-f04c8812ae3f","ios":"levelo://app?vid=c90442fa-c5f2-4930-b41a-f04c8812ae3f"},"vehicle_type_id":"4","last_reported":1784195733,"current_range_meters":31200,"station_id":"ce4bgup2rcd13ifvqcn0","pricing_plan_id":"cebpf4jnsgd1na2vs0mg"},{"bike_id":"4587bf5e-e27c-4ca6-8cde-d3225ce81be6","system_id":"levelo_inurba_marseille","lat":43.30912,"lon":5.36856,"is_reserved":false,"is_disabled":false,"rental_uris":{"android":"levelo://app?vid=4587bf5e-e27c-4ca6-8cde-d3225ce81be6","ios":"levelo://app?vid=4587bf5e-e27c-4ca6-8cde-d3225ce81be6"},"vehicle_type_id":"4","last_reported":1784195733,"current_range_meters":33200,"station_id":"ce4bgn92rcd13ifvqbvg","pricing_plan_id":"cebpf4jnsgd1na2vs0mg"},{"bike_id":"93f173f0-b5e7-453c-b62d-5cea08429256","system_id":"levelo_inurba_marseille","lat":43.29191,"lon":5.35809,"is_reserved":false,"is_disabled":true,"rental_uris":{"android":"levelo://app?vid=93f173f0-b5e7-453c-b62d-5cea08429256","ios":"levelo://app?vid=93f173f0-b5e7-453c-b62d-5cea08429256"},"vehicle_type_id":"4","last_reported":1784195733,"current_range_meters":32800,"station_id":"ce4bhb12rcd13ifvqel0","pricing_plan_id":"cebpf4jnsgd1na2vs0mg"},{"bike_id":"aea92e92-120c-44cf-abbe-4f75219bd800","system_id":"levelo_inurba_marseille","lat":43.25937,"lon":5.40923,"is_reserved":false,"is_disabled":false,"rental_uris":{"android":"levelo://app?vid=aea92e92-120c-44cf-abbe-4f75219bd800","ios":"levelo://app?vid=aea92e92-120c-44cf-abbe-4f75219bd800"},"vehicle_type_id":"4","last_reported":1784195733,"current_range_meters":4400,"station_id":"ce4bhm92rcd13ifvqglg","pricing_plan_id":"cebpf4jnsgd1na2vs0mg"},{"bike_id":"935dc5cd-1d54-4d1e-8181-36b46070ea9e","system_id":"levelo_inurba_marseille","lat":43.27942,"lon":5.41056,"is_reserved":false,"is_disabled":false,"rental_uris":{"android":"levelo://app?vid=935dc5cd-1d54-4d1e-8181-36b46070ea9e","ios":"levelo://app?vid=935dc5cd-1d54-4d1e-8181-36b46070ea9e"},"vehicle_type_id":"4","last_reported":1784195733,"current_range_meters":23200,"station_id":"ce4bhnp2rcd13ifvqh0g","pricing_plan_id":"cebpf4jnsgd1na2vs0mg"},{"bike_id":"c0c12634-da58-4425-89c7-83dd3f1069a6","system_id":"levelo_inurba_marseille","lat":43.32106,"lon":5.36789,"is_reserved":false,"is_disabled":false,"rental_uris":{"android":"levelo://app?vid=c0c12634-da58-4425-89c7-83dd3f1069a6","ios":"levelo://app?vid=c0c12634-da58-4425-89c7-83dd3f1069a6"},"vehicle_type_id":"4","last_reported":1784195733,"current_range_meters":5600,"station_id":"ce4bhrh2rcd13ifvqhug","pricing_plan_id":"cebpf4jnsgd1na2vs0mg"},{"bike_id":"80d6dcc1-c27d-448b-9799-ce16fecb4aca","system_id":"levelo_inurba_marseille","lat":43.27342,"lon":5.39169,"is_reserved":false,"is_disabled":false,"rental_uris":{"android":"levelo://app?vid=80d6dcc1-c27d-448b-9799-ce16fecb4aca","ios":"levelo://app?vid=80d6dcc1-c27d-448b-9799-ce16fecb4aca"},"vehicle_type_id":"4","last_reported":1784195733,"current_range_meters":9600,"station_id":"ce4bhgp2rcd13ifvqfe0","pricing_plan_id":"cebpf4jnsgd1na2vs0mg"},{"bike_id":"4a26c072-0421-420b-837a-ab79a476a507","system_id":"levelo_inurba_marseille","lat":43.2656,"lon":5.39004,"is_reserved":false,"is_disabled":false,"rental_uris":{"android":"levelo://app?vid=4a26c072-0421-420b-837a-ab79a476a507","ios":"levelo://app?vid=4a26c072-0421-420b-837a-ab79a476a507"},"vehicle_type_id":"4","last_reported":1784195733,"current_range_meters":39200,"station_id":"ce4bhe12rcd13ifvqf30","pricing_plan_id":"cebpf4jnsgd1na2vs0mg"},{"bike_id":"9485be1f-c90e-4919-888f-8ea173824e12","system_id":"levelo_inurba_marseille","lat":43.22545,"lon":5.34854,"is_reserved":false,"is_disabled":false,"rental_uris":{"android":"levelo://app?vid=9485be1f-c90e-4919-888f-8ea173824e12","ios":"levelo://app?vid=9485be1f-c90e-4919-888f-8ea173824e12"},"vehicle_type_id":"4","last_reported":1784195733,"current_range_meters":28400,"station_id":"st_cvj5dfep6f1abm77gieg","pricing_plan_id":"cebpf4jnsgd1na2vs0mg"},{"bike_id":"d97c609b-426e-4c53-b709-2c63dfa43425","system_id":"levelo_inurba_marseille","lat":43.28605,"lon":5.37083,"is_reserved":false,"is_disabled":true,"rental_uris":{"android":"levelo://app?vid=d97c609b-426e-4c53-b709-2c63dfa43425","ios":"levelo://app?vid=d97c609b-426e-4c53-b709-2c63dfa43425"},"vehicle_type_id":"4","last_reported":1784195733,"current_range_meters":0,"station_id":"ce4bht12rcd13ifvqi60","pricing_plan_id":"cebpf4jnsgd1na2vs0mg"},{"bike_id":"83c7bb51-cb11-41ff-9266-19b383d83db4","system_id":"levelo_inurba_marseille","lat":43.31366,"lon":5.36731,"is_reserved":false,"is_disabled":false,"rental_uris":{"android":"levelo://app?vid=83c7bb51-cb11-41ff-9266-19b383d83db4","ios":"levelo://app?vid=83c7bb51-cb11-41ff-9266-19b383d83db4"},"vehicle_type_id":"4","last_reported":1784195733,"current_range_meters":39200,"station_id":"ce4bgr92rcd13ifvqc6g","pricing_plan_id":"cebpf4jnsgd1na2vs0mg"},{"bike_id":"c143dac0-0cb4-408d-9aa2-f314dfc99d3c","system_id":"levelo_inurba_marseille","lat":43.29981,"lon":5.37172,"is_reserved":false,"is_disabled":false,"rental_uris":{"android":"levelo://app?vid=c143dac0-0cb4-408d-9aa2-f314dfc99d3c","ios":"levelo://app?vid=c143dac0-0cb4-408d-9aa2-f314dfc99d3c"},"vehicle_type_id":"4","last_reported":1784195733,"current_range_meters":28000,"station_id":"ce4bgr92rcd13ifvqc7g","pricing_plan_id":"cebpf4jnsgd1na2vs0mg"},{"bike_id":"127041c9-3057-4763-bbb4-ce7f0d1a2d71","system_id":"levelo_inurba_marseille","lat":43.337662,"lon":5.374328,"is_reserved":false,"is_disabled":false,"rental_uris":{"android":"levelo://app?vid=127041c9-3057-4763-bbb4-ce7f0d1a2d71","ios":"levelo://app?vid=127041c9-3057-4763-bbb4-ce7f0d1a2d71"},"vehicle_type_id":"4","last_reported":1784195733,"current_range_meters":14800,"station_id":"","pricing_plan_id":"cebpf4jnsgd1na2vs0mg"},{"bike_id":"eaa2f425-0b8e-4abc-aff5-1e5643ff75c3","system_id":"levelo_inurba_marseille","lat":43.26962,"lon":5.36668,"is_reserved":false,"is_disabled":true,"rental_uris":{"android":"levelo://app?vid=eaa2f425-0b8e-4abc-aff5-1e5643ff75c3","ios":"levelo://app?vid=eaa2f425-0b8e-4abc-aff5-1e5643ff75c3"},"vehicle_type_id":"4","last_reported":1784195733,"current_range_meters":0,"station_id":"","pricing_plan_id":"cebpf4jnsgd1na2vs0mg"},{"bike_id":"6ab806e5-1482-44b8-97b4-a9e54df097e1","system_id":"levelo_inurba_marseille","lat":43.30307,"lon":5.36904,"is_reserved":false,"is_disabled":false,"rental_uris":{"android":"levelo://app?vid=6ab806e5-1482-44b8-97b4-a9e54df097e1","ios":"levelo://app?vid=6ab806e5-1482-44b8-97b4-a9e54df097e1"},"vehicle_type_id":"4","last_reported":1784195733,"current_range_meters":33600,"station_id":"ce4bgqh2rcd13ifvqc5g","pricing_plan_id":"cebpf4jnsgd1na2vs0mg"},{"bike_id":"e3d9742d-2490-49ba-8f64-8ebb7a700e99","system_id":"levelo_inurba_marseille","lat":43.29785,"lon":5.37081,"is_reserved":false,"is_disabled":false,"rental_uris":{"android":"levelo://app?vid=e3d9742d-2490-49ba-8f64-8ebb7a700e99","ios":"levelo://app?vid=e3d9742d-2490-49ba-8f64-8ebb7a700e99"},"vehicle_type_id":"4","last_reported":1784195733,"current_range_meters":35200,"station_id":"ce4bgop2rcd13ifvqc1g","pricing_plan_id":"cebpf4jnsgd1na2vs0mg"},{"bike_id":"aaf723eb-1bcb-4023-a772-7a3b0c0375d2","system_id":"levelo_inurba_marseille","lat":43.29175,"lon":5.37151,"is_reserved":false,"is_disabled":false,"rental_uris":{"android":"levelo://app?vid=aaf723eb-1bcb-4023-a772-7a3b0c0375d2","ios":"levelo://app?vid=aaf723eb-1bcb-4023-a772-7a3b0c0375d2"},"vehicle_type_id":"4","last_reported":1784195733,"current_range_meters":24800,"station_id":"ce4bha92rcd13ifvqeh0","pricing_plan_id":"cebpf4jnsgd1na2vs0mg"},{"bike_id":"15159f4d-6b2a-4430-955d-b063f2a287d0","system_id":"levelo_inurba_marseille","lat":43.26786,"lon":5.39422,"is_reserved":false,"is_disabled":false,"rental_uris":{"android":"levelo://app?vid=15159f4d-6b2a-4430-955d-b063f2a287d0","ios":"levelo://app?vid=15159f4d-6b2a-4430-955d-b063f2a287d0"},"vehicle_type_id":"4","last_reported":1784195733,"current_range_meters":38400,"station_id":"ce4bhh12rcd13ifvqfg0","pricing_plan_id":"cebpf4jnsgd1na2vs0mg"},{"bike_id":"08f7fe99-b002-428f-9539-d3a3a5e52615","system_id":"levelo_inurba_marseille","lat":43.2903,"lon":5.37568,"is_reserved":false,"is_disabled":false,"rental_uris":{"android":"levelo://app?vid=08f7fe99-b002-428f-9539-d3a3a5e52615","ios":"levelo://app?vid=08f7fe99-b002-428f-9539-d3a3a5e52615"},"vehicle_type_id":"4","last_reported":1784195733,"current_range_meters":36000,"station_id":"ce4bh692rcd13ifvqe90","pricing_plan_id":"cebpf4jnsgd1na2vs0mg"},{"bike_id":"74ed25d7-72a1-4531-b9eb-d6c73aaa3536","system_id":"levelo_inurba_marseille","lat":43.27059,"lon":5.40261,"is_reserved":false,"is_disabled":false,"rental_uris":{"android":"levelo://app?vid=74ed25d7-72a1-4531-b9eb-d6c73aaa3536","ios":"levelo://app?vid=74ed25d7-72a1-4531-b9eb-d6c73aaa3536"},"vehicle_type_id":"4","last_reported":1784195733,"current_range_meters":38400,"station_id":"ce4bhk92rcd13ifvqgc0","pricing_plan_id":"cebpf4jnsgd1na2vs0mg"},{"bike_id":"6d299867-6f3a-4f62-8b26-47211eaecba9","system_id":"levelo_inurba_marseille","lat":43.3055,"lon":5.3655,"is_reserved":false,"is_disabled":false,"rental_uris":{"android":"levelo://app?vid=6d299867-6f3a-4f62-8b26-47211eaecba9","ios":"levelo://app?vid=6d299867-6f3a-4f62-8b26-47211eaecba9"},"vehicle_type_id":"4","last_reported":1784195733,"current_range_meters":31200,"station_id":"ce4bgs12rcd13ifvqcag","pricing_plan_id":"cebpf4jnsgd1na2vs0mg"},{"bike_id":"d1ecb1bc-decb-4a49-8af7-7f5db8aab7e8","system_id":"levelo_inurba_marseille","lat":43.29189,"lon":5.36812,"is_reserved":false,"is_disabled":false,"rental_uris":{"android":"levelo://app?vid=d1ecb1bc-decb-4a49-8af7-7f5db8aab7e8","ios":"levelo://app?vid=d1ecb1bc-decb-4a49-8af7-7f5db8aab7e8"},"vehicle_type_id":"4","last_reported":1784195733,"current_range_meters":30000,"station_id":"","pricing_plan_id":"cebpf4jnsgd1na2vs0mg"},{"bike_id":"797fb9c2-b17e-4392-a9af-96f719fe3873","system_id":"levelo_inurba_marseille","lat":43.24177,"lon":5.39721,"is_reserved":false,"is_disabled":true,"rental_uris":{"android":"levelo://app?vid=797fb9c2-b17e-4392-a9af-96f719fe3873","ios":"levelo://app?vid=797fb9c2-b17e-4392-a9af-96f719fe3873"},"vehicle_type_id":"4","last_reported":1784195733,"current_range_meters":30800,"station_id":"ce4bhn12rcd13ifvqgpg","pricing_plan_id":"cebpf4jnsgd1na2vs0mg"},{"bike_id":"8427e0af-d4af-4fb4-89c0-875197efc945","system_id":"levelo_inurba_marseille","lat":43.26484,"lon":5.39552,"is_reserved":false,"is_disabled":false,"rental_uris":{"android":"levelo://app?vid=8427e0af-d4af-4fb4-89c0-875197efc945","ios":"levelo://app?vid=8427e0af-d4af-4fb4-89c0-875197efc945"},"vehicle_type_id":"4","last_reported":1784195733,"current_range_meters":40000,"station_id":"ce4bhi12rcd13ifvqfq0","pricing_plan_id":"cebpf4jnsgd1na2vs0mg"},{"bike_id":"4c445abe-25ad-466b-a445-744bf62fbea8","system_id":"levelo_inurba_marseille","lat":43.24397,"lon":5.37037,"is_reserved":false,"is_disabled":false,"rental_uris":{"android":"levelo://app?vid=4c445abe-25ad-466b-a445-744bf62fbea8","ios":"levelo://app?vid=4c445abe-25ad-466b-a445-744bf62fbea8"},"vehicle_type_id":"4","last_reported":1784195733,"current_range_meters":39200,"station_id":"ce4bhhh2rcd13ifvqfk0","pricing_plan_id":"cebpf4jnsgd1na2vs0mg"},{"bike_id":"b4648b07-45d5-4679-b804-f44ce951072d","system_id":"levelo_inurba_marseille","lat":43.22965,"lon":5.4449,"is_reserved":false,"is_disabled":false,"rental_uris":{"android":"levelo://app?vid=b4648b07-45d5-4679-b804-f44ce951072d","ios":"levelo://app?vid=b4648b07-45d5-4679-b804-f44ce951072d"},"vehicle_type_id":"4","last_reported":1784195733,"current_range_meters":10800,"station_id":"","pricing_plan_id":"cebpf4jnsgd1na2vs0mg"},{"bike_id":"38724eb1-ce4d-4aa9-aef0-217c1040261c","system_id":"levelo_inurba_marseille","lat":43.30931,"lon":5.39041,"is_reserved":false,"is_disabled":false,"rental_uris":{"android":"levelo://app?vid=38724eb1-ce4d-4aa9-aef0-217c1040261c","ios":"levelo://app?vid=38724eb1-ce4d-4aa9-aef0-217c1040261c"},"vehicle_type_id":"4","last_reported":1784195733,"current_range_meters":24000,"station_id":"ce4bgup2rcd13ifvqco0","pricing_plan_id":"cebpf4jnsgd1na2vs0mg"},{"bike_id":"85aa1803-8127-4970-ad73-f8de39bdfbb8","system_id":"levelo_inurba_marseille","lat":43.32501,"lon":5.38294,"is_reserved":false,"is_disabled":false,"rental_uris":{"android":"levelo://app?vid=85aa1803-8127-4970-ad73-f8de39bdfbb8","ios":"levelo://app?vid=85aa1803-8127-4970-ad73-f8de39bdfbb8"},"vehicle_type_id":"4","last_reported":1784195733,"current_range_meters":16000,"station_id":"st_d4asgbiv49dc73anf9m0","pricing_plan_id":"cebpf4jnsgd1na2vs0mg"},{"bike_id":"e06b1a35-94c0-4166-bf44-df7815b4074b","system_id":"levelo_inurba_marseille","lat":43.32079,"lon":5.36828,"is_reserved":false,"is_disabled":false,"rental_uris":{"android":"levelo://app?vid=e06b1a35-94c0-4166-bf44-df7815b4074b","ios":"levelo://app?vid=e06b1a35-94c0-4166-bf44-df7815b4074b"},"vehicle_type_id":"4","last_reported":1784195733,"current_range_meters":36000,"station_id":"","pricing_plan_id":"cebpf4jnsgd1na2vs0mg"},{"bike_id":"265c4457-e7db-4fcf-a041-6c3453a70a5d","system_id":"levelo_inurba_marseille","lat":43.28496,"lon":5.38449,"is_reserved":false,"is_disabled":false,"rental_uris":{"android":"levelo://app?vid=265c4457-e7db-4fcf-a041-6c3453a70a5d","ios":"levelo://app?vid=265c4457-e7db-4fcf-a041-6c3453a70a5d"},"vehicle_type_id":"4","last_reported":1784195733,"current_range_meters":39200,"station_id":"ce4bh512rcd13ifvqe3g","pricing_plan_id":"cebpf4jnsgd1na2vs0mg"},{"bike_id":"0d3e100f-48fe-47e1-bef7-0a1dcfcc4955","system_id":"levelo_inurba_marseille","lat":43.33722,"lon":5.39186,"is_reserved":false,"is_disabled":false,"rental_uris":{"android":"levelo://app?vid=0d3e100f-48fe-47e1-bef7-0a1dcfcc4955","ios":"levelo://app?vid=0d3e100f-48fe-47e1-bef7-0a1dcfcc4955"},"vehicle_type_id":"4","last_reported":1784195733,"current_range_meters":31200,"station_id":"ce4bhr92rcd13ifvqhsg","pricing_plan_id":"cebpf4jnsgd1na2vs0mg"},{"bike_id":"0f34ff65-c41a-414e-929b-c51a425f3622","system_id":"levelo_inurba_marseille","lat":43.27484,"lon":5.42545,"is_reserved":false,"is_disabled":false,"rental_uris":{"android":"levelo://app?vid=0f34ff65-c41a-414e-929b-c51a425f3622","ios":"levelo://app?vid=0f34ff65-c41a-414e-929b-c51a425f3622"},"vehicle_type_id":"4","last_reported":1784195733,"current_range_meters":6800,"station_id":"st_d8t4bh7nbrqs73arha60","pricing_plan_id":"cebpf4jnsgd1na2vs0mg"},{"bike_id":"66824936-5b36-4512-97d3-e9e62c6dae7c","system_id":"levelo_inurba_marseille","lat":43.27385,"lon":5.36264,"is_reserved":false,"is_disabled":false,"rental_uris":{"android":"levelo://app?vid=66824936-5b36-4512-97d3-e9e62c6dae7c","ios":"levelo://app?vid=66824936-5b36-4512-97d3-e9e62c6dae7c"},"vehicle_type_id":"4","last_reported":1784195733,"current_range_meters":39200,"station_id":"ce4bhbh2rcd13ifvqeo0","pricing_plan_id":"cebpf4jnsgd1na2vs0mg"},{"bike_id":"ddbfbc6e-9ea5-4164-b0a2-7cc31ec7c025","system_id":"levelo_inurba_marseille","lat":43.32108,"lon":5.36815,"is_reserved":false,"is_disabled":false,"rental_uris":{"android":"levelo://app?vid=ddbfbc6e-9ea5-4164-b0a2-7cc31ec7c025","ios":"levelo://app?vid=ddbfbc6e-9ea5-4164-b0a2-7cc31ec7c025"},"vehicle_type_id":"4","last_reported":1784195733,"current_range_meters":22000,"station_id":"ce4bhrh2rcd13ifvqhug","pricing_plan_id":"cebpf4jnsgd1na2vs0mg"},{"bike_id":"7c35e7b9-d6cd-4ca3-ac0d-8434252de34d","system_id":"levelo_inurba_marseille","lat":43.27174,"lon":5.39126,"is_reserved":false,"is_disabled":false,"rental_uris":{"android":"levelo://app?vid=7c35e7b9-d6cd-4ca3-ac0d-8434252de34d","ios":"levelo://app?vid=7c35e7b9-d6cd-4ca3-ac0d-8434252de34d"},"vehicle_type_id":"4","last_reported":1784195733,"current_range_meters":31200,"station_id":"","pricing_plan_id":"cebpf4jnsgd1na2vs0mg"},{"bike_id":"51ef93ad-9789-4353-a45c-469338a94b1f","system_id":"levelo_inurba_marseille","lat":43.24168,"lon":5.36399,"is_reserved":false,"is_disabled":false,"rental_uris":{"android":"levelo://app?vid=51ef93ad-9789-4353-a45c-469338a94b1f","ios":"levelo://app?vid=51ef93ad-9789-4353-a45c-469338a94b1f"},"vehicle_type_id":"4","last_reported":1784195733,"current_range_meters":21600,"station_id":"cpo36qri1sfpv3e86is0","pricing_plan_id":"cebpf4jnsgd1na2vs0mg"},{"bike_id":"01911bd2-bb84-414e-9870-248f0357afb3","system_id":"levelo_inurba_marseille","lat":43.33747,"lon":5.37468,"is_reserved":false,"is_disabled":false,"rental_uris":{"android":"levelo://app?vid=01911bd2-bb84-414e-9870-248f0357afb3","ios":"levelo://app?vid=01911bd2-bb84-414e-9870-248f0357afb3"},"vehicle_type_id":"4","last_reported":1784195733,"current_range_meters":14000,"station_id":"","pricing_plan_id":"cebpf4jnsgd1na2vs0mg"},{"bike_id":"e831a20e-a534-4158-a72a-9484a13db346","system_id":"levelo_inurba_marseille","lat":43.28368,"lon":5.38643,"is_reserved":false,"is_disabled":false,"rental_uris":{"android":"levelo://app?vid=e831a20e-a534-4158-a72a-9484a13db346","ios":"levelo://app?vid=e831a20e-a534-4158-a72a-9484a13db346"},"vehicle_type_id":"4","last_reported":1784195733,"current_range_meters":7200,"station_id":"ce4bh492rcd13ifvqdvg","pricing_plan_id":"cebpf4jnsgd1na2vs0mg"},{"bike_id":"35a1c1b1-1551-464e-9377-5fa97ea88f68","system_id":"levelo_inurba_marseille","lat":43.29175,"lon":5.37154,"is_reserved":false,"is_disabled":false,"rental_uris":{"android":"levelo://app?vid=35a1c1b1-1551-464e-9377-5fa97ea88f68","ios":"levelo://app?vid=35a1c1b1-1551-464e-9377-5fa97ea88f68"},"vehicle_type_id":"4","last_reported":1784195733,"current_range_meters":20400,"station_id":"ce4bha92rcd13ifvqeh0","pricing_plan_id":"cebpf4jnsgd1na2vs0mg"},{"bike_id":"b4b7cf45-857d-499f-903c-2153de8727c5","system_id":"levelo_inurba_marseille","lat":43.32477,"lon":5.36592,"is_reserved":false,"is_disabled":false,"rental_uris":{"android":"levelo://app?vid=b4b7cf45-857d-499f-903c-2153de8727c5","ios":"levelo://app?vid=b4b7cf45-857d-499f-903c-2153de8727c5"},"vehicle_type_id":"4","last_reported":1784195733,"current_range_meters":6000,"station_id":"ce4bhs12rcd13ifvqhvg","pricing_plan_id":"cebpf4jnsgd1na2vs0mg"},{"bike_id":"cf221891-28f4-4c61-aedf-5c04ffd24ec6","system_id":"levelo_inurba_marseille","lat":43.24393,"lon":5.37091,"is_reserved":false,"is_disabled":false,"rental_uris":{"android":"levelo://app?vid=cf221891-28f4-4c61-aedf-5c04ffd24ec6","ios":"levelo://app?vid=cf221891-28f4-4c61-aedf-5c04ffd24ec6"},"vehicle_type_id":"4","last_reported":1784195733,"current_range_meters":16800,"station_id":"ce4bhhh2rcd13ifvqfk0","pricing_plan_id":"cebpf4jnsgd1na2vs0mg"},{"bike_id":"de33586d-1ad6-43fb-abac-eff95af90a64","system_id":"levelo_inurba_marseille","lat":43.26016,"lon":5.37564,"is_reserved":false,"is_disabled":true,"rental_uris":{"android":"levelo://app?vid=de33586d-1ad6-43fb-abac-eff95af90a64","ios":"levelo://app?vid=de33586d-1ad6-43fb-abac-eff95af90a64"},"vehicle_type_id":"4","last_reported":1784195733,"current_range_meters":26800,"station_id":"ce4bhgh2rcd13ifvqfa0","pricing_plan_id":"cebpf4jnsgd1na2vs0mg"},{"bike_id":"89847ec5-d323-4491-a78d-67c169cbd924","system_id":"levelo_inurba_marseille","lat":43.2879,"lon":5.35926,"is_reserved":false,"is_disabled":false,"rental_uris":{"android":"levelo://app?vid=89847ec5-d323-4491-a78d-67c169cbd924","ios":"levelo://app?vid=89847ec5-d323-4491-a78d-67c169cbd924"},"vehicle_type_id":"4","last_reported":1784195733,"current_range_meters":39200,"station_id":"ce4bhb12rcd13ifvqem0","pricing_plan_id":"cebpf4jnsgd1na2vs0mg"},{"bike_id":"69044d62-79c8-43cc-995b-981c90dd7cdf","system_id":"levelo_inurba_marseille","lat":43.29273,"lon":5.40177,"is_reserved":false,"is_disabled":true,"rental_uris":{"android":"levelo://app?vid=69044d62-79c8-43cc-995b-981c90dd7cdf","ios":"levelo://app?vid=69044d62-79c8-43cc-995b-981c90dd7cdf"},"vehicle_type_id":"4","last_reported":1784195733,"current_range_meters":1200,"station_id":"","pricing_plan_id":"cebpf4jnsgd1na2vs0mg"},{"bike_id":"05c29d56-6c44-4de6-93a8-ddd7db2f99c1","system_id":"levelo_inurba_marseille","lat":43.269268,"lon":5.389179,"is_reserved":false,"is_disabled":false,"rental_uris":{"android":"levelo://app?vid=05c29d56-6c44-4de6-93a8-ddd7db2f99c1","ios":"levelo://app?vid=05c29d56-6c44-4de6-93a8-ddd7db2f99c1"},"vehicle_type_id":"4","last_reported":1784195733,"current_range_meters":34800,"station_id":"ce4bhhh2rcd13ifvqfl0","pricing_plan_id":"cebpf4jnsgd1na2vs0mg"},{"bike_id":"13652050-b2e1-4225-9cf4-5b4af3b19551","system_id":"levelo_inurba_marseille","lat":43.3374,"lon":5.37486,"is_reserved":false,"is_disabled":false,"rental_uris":{"android":"levelo://app?vid=13652050-b2e1-4225-9cf4-5b4af3b19551","ios":"levelo://app?vid=13652050-b2e1-4225-9cf4-5b4af3b19551"},"vehicle_type_id":"4","last_reported":1784195733,"current_range_meters":12400,"station_id":"","pricing_plan_id":"cebpf4jnsgd1na2vs0mg"},{"bike_id":"51715928-b767-4063-bdf7-2027d9b3bc27","system_id":"levelo_inurba_marseille","lat":43.2749,"lon":5.42455,"is_reserved":false,"is_disabled":false,"rental_uris":{"android":"levelo://app?vid=51715928-b767-4063-bdf7-2027d9b3bc27","ios":"levelo://app?vid=51715928-b767-4063-bdf7-2027d9b3bc27"},"vehicle_type_id":"4","last_reported":1784195733,"current_range_meters":39200,"station_id":"ce4bhn92rcd13ifvqgrg","pricing_plan_id":"cebpf4jnsgd1na2vs0mg"},{"bike_id":"eadbf5e7-6bfc-4e3a-b0e9-0f3c75f13d91","system_id":"levelo_inurba_marseille","lat":43.28106,"lon":5.37833,"is_reserved":false,"is_disabled":false,"rental_uris":{"android":"levelo://app?vid=eadbf5e7-6bfc-4e3a-b0e9-0f3c75f13d91","ios":"levelo://app?vid=eadbf5e7-6bfc-4e3a-b0e9-0f3c75f13d91"},"vehicle_type_id":"4","last_reported":1784195733,"current_range_meters":37600,"station_id":"ce4bha12rcd13ifvqee0","pricing_plan_id":"cebpf4jnsgd1na2vs0mg"},{"bike_id":"bf35414f-c30d-4783-b8f1-f75851484545","system_id":"levelo_inurba_marseille","lat":43.29041,"lon":5.4001,"is_reserved":false,"is_disabled":false,"rental_uris":{"android":"levelo://app?vid=bf35414f-c30d-4783-b8f1-f75851484545","ios":"levelo://app?vid=bf35414f-c30d-4783-b8f1-f75851484545"},"vehicle_type_id":"4","last_reported":1784195733,"current_range_meters":11200,"station_id":"ce4bh392rcd13ifvqdm0","pricing_plan_id":"cebpf4jnsgd1na2vs0mg"},{"bike_id":"5ff11a0a-2481-4117-b692-800c69436509","system_id":"levelo_inurba_marseille","lat":43.31354,"lon":5.3668,"is_reserved":false,"is_disabled":false,"rental_uris":{"android":"levelo://app?vid=5ff11a0a-2481-4117-b692-800c69436509","ios":"levelo://app?vid=5ff11a0a-2481-4117-b692-800c69436509"},"vehicle_type_id":"4","last_reported":1784195733,"current_range_meters":33200,"station_id":"ce4bgr92rcd13ifvqc6g","pricing_plan_id":"cebpf4jnsgd1na2vs0mg"},{"bike_id":"33f44d9f-53dd-43c7-95a7-26b88889dbd0","system_id":"levelo_inurba_marseille","lat":43.29361,"lon":5.3786,"is_reserved":false,"is_disabled":false,"rental_uris":{"android":"levelo://app?vid=33f44d9f-53dd-43c7-95a7-26b88889dbd0","ios":"levelo://app?vid=33f44d9f-53dd-43c7-95a7-26b88889dbd0"},"vehicle_type_id":"4","last_reported":1784195733,"current_range_meters":10800,"station_id":"ce4bgjh2rcd13ifvqbf0","pricing_plan_id":"cebpf4jnsgd1na2vs0mg"},{"bike_id":"f92b7b60-3c92-4d94-afd8-81544d7ea807","system_id":"levelo_inurba_marseille","lat":43.29591,"lon":5.37733,"is_reserved":false,"is_disabled":false,"rental_uris":{"android":"levelo://app?vid=f92b7b60-3c92-4d94-afd8-81544d7ea807","ios":"levelo://app?vid=f92b7b60-3c92-4d94-afd8-81544d7ea807"},"vehicle_type_id":"4","last_reported":1784195733,"current_range_meters":39200,"station_id":"ce4bgi92rcd13ifvqb90","pricing_plan_id":"cebpf4jnsgd1na2vs0mg"},{"bike_id":"7604574c-06cb-407e-9e16-b7858411e1bc","system_id":"levelo_inurba_marseille","lat":43.27822,"lon":5.40719,"is_reserved":false,"is_disabled":true,"rental_uris":{"android":"levelo://app?vid=7604574c-06cb-407e-9e16-b7858411e1bc","ios":"levelo://app?vid=7604574c-06cb-407e-9e16-b7858411e1bc"},"vehicle_type_id":"4","last_reported":1784195733,"current_range_meters":24800,"station_id":"ce4bhnh2rcd13ifvqgtg","pricing_plan_id":"cebpf4jnsgd1na2vs0mg"},{"bike_id":"1ae0696c-1a8e-44c7-b609-30b4c7607f0d","system_id":"levelo_inurba_marseille","lat":43.27207,"lon":5.392,"is_reserved":false,"is_disabled":false,"rental_uris":{"android":"levelo://app?vid=1ae0696c-1a8e-44c7-b609-30b4c7607f0d","ios":"levelo://app?vid=1ae0696c-1a8e-44c7-b609-30b4c7607f0d"},"vehicle_type_id":"4","last_reported":1784195733,"current_range_meters":38400,"station_id":"ce4bhhp2rcd13ifvqfm0","pricing_plan_id":"cebpf4jnsgd1na2vs0mg"},{"bike_id":"7cb9f064-d418-4654-a63f-551786e75112","system_id":"levelo_inurba_marseille","lat":43.27294,"lon":5.39098,"is_reserved":false,"is_disabled":false,"rental_uris":{"android":"levelo://app?vid=7cb9f064-d418-4654-a63f-551786e75112","ios":"levelo://app?vid=7cb9f064-d418-4654-a63f-551786e75112"},"vehicle_type_id":"4","last_reported":1784195733,"current_range_meters":40000,"station_id":"ce4bhgp2rcd13ifvqfe0","pricing_plan_id":"cebpf4jnsgd1na2vs0mg"},{"bike_id":"a5874282-4bf4-4bb8-957c-0c4b3e0b0d95","system_id":"levelo_inurba_marseille","lat":43.2508,"lon":5.39548,"is_reserved":false,"is_disabled":false,"rental_uris":{"android":"levelo://app?vid=a5874282-4bf4-4bb8-957c-0c4b3e0b0d95","ios":"levelo://app?vid=a5874282-4bf4-4bb8-957c-0c4b3e0b0d95"},"vehicle_type_id":"4","last_reported":1784195733,"current_range_meters":38400,"station_id":"ce4bhm12rcd13ifvqgkg","pricing_plan_id":"cebpf4jnsgd1na2vs0mg"},{"bike_id":"4114751a-3c44-46b0-979b-b9ba4f78ff44","system_id":"levelo_inurba_marseille","lat":43.25341,"lon":5.42167,"is_reserved":false,"is_disabled":false,"rental_uris":{"android":"levelo://app?vid=4114751a-3c44-46b0-979b-b9ba4f78ff44","ios":"levelo://app?vid=4114751a-3c44-46b0-979b-b9ba4f78ff44"},"vehicle_type_id":"4","last_reported":1784195733,"current_range_meters":21600,"station_id":"st_d2m65c5bi1j21697t3ng","pricing_plan_id":"cebpf4jnsgd1na2vs0mg"},{"bike_id":"ae8d07f8-d83f-4df5-8725-1125b8447f31","system_id":"levelo_inurba_marseille","lat":43.27544,"lon":5.38444,"is_reserved":false,"is_disabled":false,"rental_uris":{"android":"levelo://app?vid=ae8d07f8-d83f-4df5-8725-1125b8447f31","ios":"levelo://app?vid=ae8d07f8-d83f-4df5-8725-1125b8447f31"},"vehicle_type_id":"4","last_reported":1784195733,"current_range_meters":29600,"station_id":"ce4bhh92rcd13ifvqfi0","pricing_plan_id":"cebpf4jnsgd1na2vs0mg"},{"bike_id":"d1210815-3b6f-46d9-8562-5a9f90c2f696","system_id":"levelo_inurba_marseille","lat":43.29209,"lon":5.3584,"is_reserved":false,"is_disabled":true,"rental_uris":{"android":"levelo://app?vid=d1210815-3b6f-46d9-8562-5a9f90c2f696","ios":"levelo://app?vid=d1210815-3b6f-46d9-8562-5a9f90c2f696"},"vehicle_type_id":"4","last_reported":1784195733,"current_range_meters":14000,"station_id":"ce4bhb12rcd13ifvqel0","pricing_plan_id":"cebpf4jnsgd1na2vs0mg"},