{"last_updated":1745295108,"ttl":60,"version":"2.2","data":{"bikes":[{"bike_id":"d09f3576-b2de-40f6-8e1f-bea4d205dbfc","system_id":"levelo_inurba_marseille","lat":43.231904,"lon":5.399857,"is_reserved":false,"is_disabled":false,"rental_uris":{"android":"levelo://app?vid=d09f3576-b2de-40f6-8e1f-bea4d205dbfc","ios":"levelo://app?vid=d09f3576-b2de-40f6-8e1f-bea4d205dbfc"},"vehicle_type_id":"4","last_reported":1745295109,"current_range_meters":2800,"station_id":"ce4bhn12rcd13ifvqgqg","pricing_plan_id":"cebpf4jnsgd1na2vs0mg"},{"bike_id":"e39d68e1-d581-42b4-beaf-9a00f5ac5bac","system_id":"levelo_inurba_marseille","lat":43.21191,"lon":5.35081,"is_reserved":false,"is_disabled":true,"rental_uris":{"android":"levelo://app?vid=e39d68e1-d581-42b4-beaf-9a00f5ac5bac","ios":"levelo://app?vid=e39d68e1-d581-42b4-beaf-9a00f5ac5bac"},"vehicle_type_id":"4","last_reported":1745295109,"current_range_meters":2800,"station_id":"st_cvj6sg6p6f1abm77japg","pricing_plan_id":"cebpf4jnsgd1na2vs0mg"},{"bike_id":"13018b37-7712-4e10-b3d5-4cd7ac013443","system_id":"levelo_inurba_marseille","lat":43.28708,"lon":5.39987,"is_reserved":false,"is_disabled":false,"rental_uris":{"android":"levelo://app?vid=13018b37-7712-4e10-b3d5-4cd7ac013443","ios":"levelo://app?vid=13018b37-7712-4e10-b3d5-4cd7ac013443"},"vehicle_type_id":"4","last_reported":1745295109,"current_range_meters":3200,"station_id":"ce4bho92rcd13ifvqh3g","pricing_plan_id":"cebpf4jnsgd1na2vs0mg"},{"bike_id":"4f0b25c3-2f51-4c00-9f56-69333455e756","system_id":"levelo_inurba_marseille","lat":43.278594,"lon":5.392963,"is_reserved":false,"is_disabled":false,"rental_uris":{"android":"levelo://app?vid=4f0b25c3-2f51-4c00-9f56-69333455e756","ios":"levelo://app?vid=4f0b25c3-2f51-4c00-9f56-69333455e756"},"vehicle_type_id":"4","last_reported":1745295109,"current_range_meters":3200,"station_id":"","pricing_plan_id":"cebpf4jnsgd1na2vs0mg"},{"bike_id":"949a3b98-b3d0-4b58-9e5c-50967c540964","system_id":"levelo_inurba_marseille","lat":43.297167,"lon":5.400636,"is_reserved":false,"is_disabled":false,"rental_uris":{"android":"levelo://app?vid=949a3b98-b3d0-4b58-9e5c-50967c540964","ios":"levelo://app?vid=949a3b98-b3d0-4b58-9e5c-50967c540964"},"vehicle_type_id":"4","last_reported":1745295109,"current_range_meters":3200,"station_id":"","pricing_plan_id":"cebpf4jnsgd1na2vs0mg"},{"bike_id":"e9b40b8c-aa8b-493b-9704-ac204b4fdb74","system_id":"levelo_inurba_marseille","lat":43.22487,"lon":5.34798,"is_reserved":false,"is_disabled":true,"rental_uris":{"android":"levelo://app?vid=e9b40b8c-aa8b-493b-9704-ac204b4fdb74","ios":"levelo://app?vid=e9b40b8c-aa8b-493b-9704-ac204b4fdb74"},"vehicle_type_id":"4","last_reported":1745295109,"current_range_meters":3600,"station_id":"","pricing_plan_id":"cebpf4jnsgd1na2vs0mg"},{"bike_id":"13dcc10c-4cac-4cf2-9318-07e242720dc9","system_id":"levelo_inurba_marseille","lat":43.312,"lon":5.37715,"is_reserved":false,"is_disabled":true,"rental_uris":{"android":"levelo://app?vid=13dcc10c-4cac-4cf2-9318-07e242720dc9","ios":"levelo://app?vid=13dcc10c-4cac-4cf2-9318-07e242720dc9"},"vehicle_type_id":"4","last_reported":1745295109,"current_range_meters":3600,"station_id":"","pricing_plan_id":"cebpf4jnsgd1na2vs0mg"},{"bike_id":"ba688fa3-020d-49aa-be99-774baa1304a2","system_id":"levelo_inurba_marseille","lat":43.33726,"lon":5.39188,"is_reserved":false,"is_disabled":false,"rental_uris":{"android":"levelo://app?vid=ba688fa3-020d-49aa-be99-774baa1304a2","ios":"levelo://app?vid=ba688fa3-020d-49aa-be99-774baa1304a2"},"vehicle_type_id":"4","last_reported":1745295109,"current_range_meters":4000,"station_id":"ce4bhr92rcd13ifvqhsg","pricing_plan_id":"cebpf4jnsgd1na2vs0mg"},{"bike_id":"2bdde4a3-7509-460a-b2c7-d172c5297380","system_id":"levelo_inurba_marseille","lat":43.21189,"lon":5.3509,"is_reserved":false,"is_disabled":true,"rental_uris":{"android":"levelo://app?vid=2bdde4a3-7509-460a-b2c7-d172c5297380","ios":"levelo://app?vid=2bdde4a3-7509-460a-b2c7-d172c5297380"},"vehicle_type_id":"4","last_reported":1745295109,"current_range_meters":4000,"station_id":"st_cvj6sg6p6f1abm77japg","pricing_plan_id":"cebpf4jnsgd1na2vs0mg"},{"bike_id":"ddb90528-fd99-4947-9b60-d46c792df734","system_id":"levelo_inurba_marseille","lat":43.297847,"lon":5.393439,"is_reserved":false,"is_disabled":false,"rental_uris":{"android":"levelo://app?vid=ddb90528-fd99-4947-9b60-d46c792df734","ios":"levelo://app?vid=ddb90528-fd99-4947-9b60-d46c792df734"},"vehicle_type_id":"4","last_reported":1745295109,"current_range_meters":4000,"station_id":"chh1huq6cuj3fo74tm60","pricing_plan_id":"cebpf4jnsgd1na2vs0mg"},{"bike_id":"49225d49-9260-47b2-a782-7d3d21b08c48","system_id":"levelo_inurba_marseille","lat":43.295342,"lon":5.378851,"is_reserved":false,"is_disabled":false,"rental_uris":{"android":"levelo://app?vid=49225d49-9260-47b2-a782-7d3d21b08c48","ios":"levelo://app?vid=49225d49-9260-47b2-a782-7d3d21b08c48"},"vehicle_type_id":"4","last_reported":1745295109,"current_range_meters":4000,"station_id":"","pricing_plan_id":"cebpf4jnsgd1na2vs0mg"},{"bike_id":"bfefb57c-154e-4cbc-90d7-24ac4b95745f","system_id":"levelo_inurba_marseille","lat":43.31032,"lon":5.37091,"is_reserved":false,"is_disabled":false,"rental_uris":{"android":"levelo://app?vid=bfefb57c-154e-4cbc-90d7-24ac4b95745f","ios":"levelo://app?vid=bfefb57c-154e-4cbc-90d7-24ac4b95745f"},"vehicle_type_id":"4","last_reported":1745295109,"current_range_meters":4000,"station_id":"","pricing_plan_id":"cebpf4jnsgd1na2vs0mg"},{"bike_id":"05ed6031-6dc3-4a10-b561-edbf27b714b8","system_id":"levelo_inurba_marseille","lat":43.26532,"lon":5.39034,"is_reserved":false,"is_disabled":false,"rental_uris":{"android":"levelo://app?vid=05ed6031-6dc3-4a10-b561-edbf27b714b8","ios":"levelo://app?vid=05ed6031-6dc3-4a10-b561-edbf27b714b8"},"vehicle_type_id":"4","last_reported":1745295109,"current_range_meters":4400,"station_id":"ce4bhe12rcd13ifvqf30","pricing_plan_id":"cebpf4jnsgd1na2vs0mg"},{"bike_id":"a373f1b2-c1f8-4d57-bca1-4c97514ea92c","system_id":"levelo_inurba_marseille","lat":43.31241,"lon":5.36854,"is_reserved":false,"is_disabled":true,"rental_uris":{"android":"levelo://app?vid=a373f1b2-c1f8-4d57-bca1-4c97514ea92c","ios":"levelo://app?vid=a373f1b2-c1f8-4d57-bca1-4c97514ea92c"},"vehicle_type_id":"4","last_reported":1745295109,"current_range_meters":4400,"station_id":"ce4bgl92rcd13ifvqbq0","pricing_plan_id":"cebpf4jnsgd1na2vs0mg"},{"bike_id":"901518be-3c90-4e14-ada4-9071cd926d8b","system_id":"levelo_inurba_marseille","lat":43.27484,"lon":5.4247,"is_reserved":false,"is_disabled":true,"rental_uris":{"android":"levelo://app?vid=901518be-3c90-4e14-ada4-9071cd926d8b","ios":"levelo://app?vid=901518be-3c90-4e14-ada4-9071cd926d8b"},"vehicle_type_id":"4","last_reported":1745295109,"current_range_meters":4400,"station_id":"ce4bhn92rcd13ifvqgrg","pricing_plan_id":"cebpf4jnsgd1na2vs0mg"},{"bike_id":"6d0b1e09-0778-4875-a9ec-ebd4ab3c5c71","system_id":"levelo_inurba_marseille","lat":43.2119,"lon":5.35094,"is_reserved":false,"is_disabled":true,"rental_uris":{"android":"levelo://app?vid=6d0b1e09-0778-4875-a9ec-ebd4ab3c5c71","ios":"levelo://app?vid=6d0b1e09-0778-4875-a9ec-ebd4ab3c5c71"},"vehicle_type_id":"4","last_reported":1745295109,"current_range_meters":4800,"station_id":"st_cvj6sg6p6f1abm77japg","pricing_plan_id":"cebpf4jnsgd1na2vs0mg"},{"bike_id":"b9eabe22-14e8-4096-b7f7-dc24c3e65d3d","system_id":"levelo_inurba_marseille","lat":43.26924,"lon":5.40256,"is_reserved":false,"is_disabled":false,"rental_uris":{"android":"levelo://app?vid=b9eabe22-14e8-4096-b7f7-dc24c3e65d3d","ios":"levelo://app?vid=b9eabe22-14e8-4096-b7f7-dc24c3e65d3d"},"vehicle_type_id":"4","last_reported":1745295109,"current_range_meters":5600,"station_id":"cjm6bp8fraef2m0cb0m0","pricing_plan_id":"cebpf4jnsgd1na2vs0mg"},{"bike_id":"f984d1c9-94d7-48d1-9f06-f702edb8335d","system_id":"levelo_inurba_marseille","lat":43.2415,"lon":5.36461,"is_reserved":false,"is_disabled":true,"rental_uris":{"android":"levelo://app?vid=f984d1c9-94d7-48d1-9f06-f702edb8335d","ios":"levelo://app?vid=f984d1c9-94d7-48d1-9f06-f702edb8335d"},"vehicle_type_id":"4","last_reported":1745295109,"current_range_meters":5600,"station_id":"cpo36qri1sfpv3e86is0","pricing_plan_id":"cebpf4jnsgd1na2vs0mg"},{"bike_id":"f7bdbfb7-0359-4d1d-8705-6870094c1c06","system_id":"levelo_inurba_marseille","lat":43.26476,"lon":5.39569,"is_reserved":false,"is_disabled":false,"rental_uris":{"android":"levelo://app?vid=f7bdbfb7-0359-4d1d-8705-6870094c1c06","ios":"levelo://app?vid=f7bdbfb7-0359-4d1d-8705-6870094c1c06"},"vehicle_type_id":"4","last_reported":1745295109,"current_range_meters":6000,"station_id":"ce4bhi12rcd13ifvqfq0","pricing_plan_id":"cebpf4jnsgd1na2vs0mg"},{"bike_id":"9e73287d-1994-4690-823b-f026061cdce2","system_id":"levelo_inurba_marseille","lat":43.26813,"lon":5.39413,"is_reserved":false,"is_disabled":false,"rental_uris":{"android":"levelo://app?vid=9e73287d-1994-4690-823b-f026061cdce2","ios":"levelo://app?vid=9e73287d-1994-4690-823b-f026061cdce2"},"vehicle_type_id":"4","last_reported":1745295109,"current_range_meters":6400,"station_id":"ce4bhh12rcd13ifvqfg0","pricing_plan_id":"cebpf4jnsgd1na2vs0mg"},{"bike_id":"3abc6f89-03ac-4495-a4f3-98421156fd12","system_id":"levelo_inurba_marseille","lat":43.27892,"lon":5.41143,"is_reserved":false,"is_disabled":false,"rental_uris":{"android":"levelo://app?vid=3abc6f89-03ac-4495-a4f3-98421156fd12","ios":"levelo://app?vid=3abc6f89-03ac-4495-a4f3-98421156fd12"},"vehicle_type_id":"4","last_reported":1745295109,"current_range_meters":6400,"station_id":"","pricing_plan_id":"cebpf4jnsgd1na2vs0mg"},{"bike_id":"dacb9310-ef47-42d4-82c3-6f67b29ded17","system_id":"levelo_inurba_marseille","lat":43.319961,"lon":5.381475,"is_reserved":false,"is_disabled":true,"rental_uris":{"android":"levelo://app?vid=dacb9310-ef47-42d4-82c3-6f67b29ded17","ios":"levelo://app?vid=dacb9310-ef47-42d4-82c3-6f67b29ded17"},"vehicle_type_id":"4","last_reported":1745295109,"current_range_meters":6800,"station_id":"ce4bhr12rcd13ifvqhpg","pricing_plan_id":"cebpf4jnsgd1na2vs0mg"},{"bike_id":"2eae6397-3f35-48cb-91a4-97f36e4dda21","system_id":"levelo_inurba_marseille","lat":43.217598,"lon":5.346066,"is_reserved":false,"is_disabled":true,"rental_uris":{"android":"levelo://app?vid=2eae6397-3f35-48cb-91a4-97f36e4dda21","ios":"levelo://app?vid=2eae6397-3f35-48cb-91a4-97f36e4dda21"},"vehicle_type_id":"4","last_reported":1745295109,"current_range_meters":6800,"station_id":"","pricing_plan_id":"cebpf4jnsgd1na2vs0mg"},{"bike_id":"0d5ea7b1-dddf-43fe-aea2-a6db5036338d","system_id":"levelo_inurba_marseille","lat":43.290211,"lon":5.386439,"is_reserved":false,"is_disabled":true,"rental_uris":{"android":"levelo://app?vid=0d5ea7b1-dddf-43fe-aea2-a6db5036338d","ios":"levelo://app?vid=0d5ea7b1-dddf-43fe-aea2-a6db5036338d"},"vehicle_type_id":"4","last_reported":1745295109,"current_range_meters":6800,"station_id":"ce4bh4p2rcd13ifvqe0g","pricing_plan_id":"cebpf4jnsgd1na2vs0mg"},{"bike_id":"8688da35-0361-46d9-8ceb-92c653ba3306","system_id":"levelo_inurba_marseille","lat":43.31113,"lon":5.37776,"is_reserved":false,"is_disabled":false,"rental_uris":{"android":"levelo://app?vid=8688da35-0361-46d9-8ceb-92c653ba3306","ios":"levelo://app?vid=8688da35-0361-46d9-8ceb-92c653ba3306"},"vehicle_type_id":"4","last_reported":1745295109,"current_range_meters":6800,"station_id":"ce4bgt92rcd13ifvqcg0","pricing_plan_id":"cebpf4jnsgd1na2vs0mg"},{"bike_id":"83458351-f904-4977-ba29-6514c513febe","system_id":"levelo_inurba_marseille","lat":43.30323,"lon":5.40435,"is_reserved":false,"is_disabled":false,"rental_uris":{"android":"levelo://app?vid=83458351-f904-4977-ba29-6514c513febe","ios":"levelo://app?vid=83458351-f904-4977-ba29-6514c513febe"},"vehicle_type_id":"4","last_reported":1745295109,"current_range_meters":6800,"station_id":"ce4bh012rcd13ifvqd10","pricing_plan_id":"cebpf4jnsgd1na2vs0mg"},{"bike_id":"7fc13708-0a51-4d48-b10d-562b87dc6657","system_id":"levelo_inurba_marseille","lat":43.260602,"lon":5.393962,"is_reserved":false,"is_disabled":true,"rental_uris":{"android":"levelo://app?vid=7fc13708-0a51-4d48-b10d-562b87dc6657","ios":"levelo://app?vid=7fc13708-0a51-4d48-b10d-562b87dc6657"},"vehicle_type_id":"4","last_reported":1745295109,"current_range_meters":6800,"station_id":"ce4bhh92rcd13ifvqfj0","pricing_plan_id":"cebpf4jnsgd1na2vs0mg"},{"bike_id":"08adba7b-eac3-4cfc-9923-2ccf0cc4ffef","system_id":"levelo_inurba_marseille","lat":43.24525,"lon":5.4131,"is_reserved":false,"is_disabled":false,"rental_uris":{"android":"levelo://app?vid=08adba7b-eac3-4cfc-9923-2ccf0cc4ffef","ios":"levelo://app?vid=08adba7b-eac3-4cfc-9923-2ccf0cc4ffef"},"vehicle_type_id":"4","last_reported":1745295109,"current_range_meters":7200,"station_id":"","pricing_plan_id":"cebpf4jnsgd1na2vs0mg"},{"bike_id":"1f84f51f-d2f4-4d4c-982d-d184ffe24a02","system_id":"levelo_inurba_marseille","lat":43.323696,"lon":5.388896,"is_reserved":false,"is_disabled":true,"rental_uris":{"android":"levelo://app?vid=1f84f51f-d2f4-4d4c-982d-d184ffe24a02","ios":"levelo://app?vid=1f84f51f-d2f4-4d4c-982d-d184ffe24a02"},"vehicle_type_id":"4","last_reported":1745295109,"current_range_meters":7200,"station_id":"ce4bhqp2rcd13ifvqhog","pricing_plan_id":"cebpf4jnsgd1na2vs0mg"},{"bike_id":"d2ee2ac3-0edb-437f-ab20-14dfef68fef0","system_id":"levelo_inurba_marseille","lat":43.27056,"lon":5.4027,"is_reserved":false,"is_disabled":false,"rental_uris":{"android":"levelo://app?vid=d2ee2ac3-0edb-437f-ab20-14dfef68fef0","ios":"levelo://app?vid=d2ee2ac3-0edb-437f-ab20-14dfef68fef0"},"vehicle_type_id":"4","last_reported":1745295109,"current_range_meters":7200,"station_id":"ce4bhk92rcd13ifvqgc0","pricing_plan_id":"cebpf4jnsgd1na2vs0mg"},{"bike_id":"53c4f1f2-61f8-4d5c-8603-4dc7641e16e9","system_id":"levelo_inurba_marseille","lat":43.3059,"lon":5.39376,"is_reserved":false,"is_disabled":false,"rental_uris":{"android":"levelo://app?vid=53c4f1f2-61f8-4d5c-8603-4dc7641e16e9","ios":"levelo://app?vid=53c4f1f2-61f8-4d5c-8603-4dc7641e16e9"},"vehicle_type_id":"4","last_reported":1745295109,"current_range_meters":7200,"station_id":"ce4bh0p2rcd13ifvqd80","pricing_plan_id":"cebpf4jnsgd1na2vs0mg"},{"bike_id":"b09a0f3d-c48b-475b-8346-07998bdf0685","system_id":"levelo_inurba_marseille","lat":43.240735,"lon":5.377776,"is_reserved":false,"is_disabled":false,"rental_uris":{"android":"levelo://app?vid=b09a0f3d-c48b-475b-8346-07998bdf0685","ios":"levelo://app?vid=b09a0f3d-c48b-475b-8346-07998bdf0685"},"vehicle_type_id":"4","last_reported":1745295109,"current_range_meters":8000,"station_id":"ce4bhnp2rcd13ifvqgvg","pricing_plan_id":"cebpf4jnsgd1na2vs0mg"},{"bike_id":"0e3f01e5-c3de-4476-9321-0ae8ce1ce1f2","system_id":"levelo_inurba_marseille","lat":43.283686,"lon":5.386333,"is_reserved":false,"is_disabled":false,"rental_uris":{"android":"levelo://app?vid=0e3f01e5-c3de-4476-9321-0ae8ce1ce1f2","ios":"levelo://app?vid=0e3f01e5-c3de-4476-9321-0ae8ce1ce1f2"},"vehicle_type_id":"4","last_reported":1745295109,"current_range_meters":8000,"station_id":"ce4bh492rcd13ifvqdvg","pricing_plan_id":"cebpf4jnsgd1na2vs0mg"},{"bike_id":"b3fbcf1e-704c-4a62-b16c-3d3e62dbba14","system_id":"levelo_inurba_marseille","lat":43.26935,"lon":5.40264,"is_reserved":false,"is_disabled":false,"rental_uris":{"android":"levelo://app?vid=b3fbcf1e-704c-4a62-b16c-3d3e62dbba14","ios":"levelo://app?vid=b3fbcf1e-704c-4a62-b16c-3d3e62dbba14"},"vehicle_type_id":"4","last_reported":1745295109,"current_range_meters":8000,"station_id":"cjm6bp8fraef2m0cb0m0","pricing_plan_id":"cebpf4jnsgd1na2vs0mg"},{"bike_id":"35f2a906-9ed9-4281-a569-57111b51db28","system_id":"levelo_inurba_marseille","lat":43.250059,"lon":5.389496,"is_reserved":false,"is_disabled":false,"rental_uris":{"android":"levelo://app?vid=35f2a906-9ed9-4281-a569-57111b51db28","ios":"levelo://app?vid=35f2a906-9ed9-4281-a569-57111b51db28"},"vehicle_type_id":"4","last_reported":1745295109,"current_range_meters":8400,"station_id":"ce4bhgp2rcd13ifvqfd0","pricing_plan_id":"cebpf4jnsgd1na2vs0mg"},{"bike_id":"6fd03af9-7c6e-4b0a-b29f-3c73b47dd294","system_id":"levelo_inurba_marseille","lat":43.28698,"lon":5.40068,"is_reserved":false,"is_disabled":false,"rental_uris":{"android":"levelo://app?vid=6fd03af9-7c6e-4b0a-b29f-3c73b47dd294","ios":"levelo://app?vid=6fd03af9-7c6e-4b0a-b29f-3c73b47dd294"},"vehicle_type_id":"4","last_reported":1745295109,"current_range_meters":8400,"station_id":"ce4bho92rcd13ifvqh3g","pricing_plan_id":"cebpf4jnsgd1na2vs0mg"},{"bike_id":"78a1a724-1424-40bb-82f8-c320da3c5899","system_id":"levelo_inurba_marseille","lat":43.27072,"lon":5.42276,"is_reserved":false,"is_disabled":false,"rental_uris":{"android":"levelo://app?vid=78a1a724-1424-40bb-82f8-c320da3c5899","ios":"levelo://app?vid=78a1a724-1424-40bb-82f8-c320da3c5899"},"vehicle_type_id":"4","last_reported":1745295109,"current_range_meters":8400,"station_id":"ce4bhk92rcd13ifvqgb0","pricing_plan_id":"cebpf4jnsgd1na2vs0mg"},{"bike_id":"8a22242a-73a7-412d-b9cd-62ce2fd89dc2","system_id":"levelo_inurba_marseille","lat":43.28455,"lon":5.35889,"is_reserved":false,"is_disabled":false,"rental_uris":{"android":"levelo://app?vid=8a22242a-73a7-412d-b9cd-62ce2fd89dc2","ios":"levelo://app?vid=8a22242a-73a7-412d-b9cd-62ce2fd89dc2"},"vehicle_type_id":"4","last_reported":1745295109,"current_range_meters":8400,"station_id":"ce4bhah2rcd13ifvqei0","pricing_plan_id":"cebpf4jnsgd1na2vs0mg"},{"bike_id":"34166cb2-24d1-48d4-88e5-65264e3a037d","system_id":"levelo_inurba_marseille","lat":43.3102,"lon":5.37098,"is_reserved":false,"is_disabled":false,"rental_uris":{"android":"levelo://app?vid=34166cb2-24d1-48d4-88e5-65264e3a037d","ios":"levelo://app?vid=34166cb2-24d1-48d4-88e5-65264e3a037d"},"vehicle_type_id":"4","last_reported":1745295109,"current_range_meters":8400,"station_id":"","pricing_plan_id":"cebpf4jnsgd1na2vs0mg"},{"bike_id":"5d71f84a-10ca-4e55-9806-002e8068abd8","system_id":"levelo_inurba_marseille","lat":43.27923,"lon":5.39578,"is_reserved":false,"is_disabled":false,"rental_uris":{"android":"levelo://app?vid=5d71f84a-10ca-4e55-9806-002e8068abd8","ios":"levelo://app?vid=5d71f84a-10ca-4e55-9806-002e8068abd8"},"vehicle_type_id":"4","last_reported":1745295109,"current_range_meters":8400,"station_id":"ce4bhf92rcd13ifvqf40","pricing_plan_id":"cebpf4jnsgd1na2vs0mg"},{"bike_id":"89cfd28b-0c7c-4079-955f-194e937acbb9","system_id":"levelo_inurba_marseille","lat":43.29948,"lon":5.3634,"is_reserved":false,"is_disabled":false,"rental_uris":{"android":"levelo://app?vid=89cfd28b-0c7c-4079-955f-194e937acbb9","ios":"levelo://app?vid=89cfd28b-0c7c-4079-955f-194e937acbb9"},"vehicle_type_id":"4","last_reported":1745295109,"current_range_meters":8400,"station_id":"","pricing_plan_id":"cebpf4jnsgd1na2vs0mg"},{"bike_id":"d7323cc1-013d-43e0-bb47-a978b4402b6a","system_id":"levelo_inurba_marseille","lat":43.30869,"lon":5.39647,"is_reserved":false,"is_disabled":false,"rental_uris":{"android":"levelo://app?vid=d7323cc1-013d-43e0-bb47-a978b4402b6a","ios":"levelo://app?vid=d7323cc1-013d-43e0-bb47-a978b4402b6a"},"vehicle_type_id":"4","last_reported":1745295109,"current_range_meters":8800,"station_id":"ce4bh012rcd13ifvqcv0","pricing_plan_id":"cebpf4jnsgd1na2vs0mg"},{"bike_id":"62801924-329e-46ea-aa72-be8e28d87636","system_id":"levelo_inurba_marseille","lat":43.266659,"lon":5.399833,"is_reserved":false,"is_disabled":false,"rental_uris":{"android":"levelo://app?vid=62801924-329e-46ea-aa72-be8e28d87636","ios":"levelo://app?vid=62801924-329e-46ea-aa72-be8e28d87636"},"vehicle_type_id":"4","last_reported":1745295109,"current_range_meters":8800,"station_id":"","pricing_plan_id":"cebpf4jnsgd1na2vs0mg"},{"bike_id":"a64fa6e5-033a-4227-9458-dd312b1da4ba","system_id":"levelo_inurba_marseille","lat":43.3031,"lon":5.40452,"is_reserved":false,"is_disabled":false,"rental_uris":{"android":"levelo://app?vid=a64fa6e5-033a-4227-9458-dd312b1da4ba","ios":"levelo://app?vid=a64fa6e5-033a-4227-9458-dd312b1da4ba"},"vehicle_type_id":"4","last_reported":1745295109,"current_range_meters":8800,"station_id":"ce4bh012rcd13ifvqd10","pricing_plan_id":"cebpf4jnsgd1na2vs0mg"},{"bike_id":"1c755526-7610-4241-9257-348acde561d3","system_id":"levelo_inurba_marseille","lat":43.2485,"lon":5.38215,"is_reserved":false,"is_disabled":false,"rental_uris":{"android":"levelo://app?vid=1c755526-7610-4241-9257-348acde561d3","ios":"levelo://app?vid=1c755526-7610-4241-9257-348acde561d3"},"vehicle_type_id":"4","last_reported":1745295109,"current_range_meters":9200,"station_id":"","pricing_plan_id":"cebpf4jnsgd1na2vs0mg"},{"bike_id":"6efbea2d-5eb1-4a4a-8c84-47a375f78190","system_id":"levelo_inurba_marseille","lat":43.29854,"lon":5.38919,"is_reserved":false,"is_disabled":true,"rental_uris":{"android":"levelo://app?vid=6efbea2d-5eb1-4a4a-8c84-47a375f78190","ios":"levelo://app?vid=6efbea2d-5eb1-4a4a-8c84-47a375f78190"},"vehicle_type_id":"4","last_reported":1745295109,"current_range_meters":9200,"station_id":"ce4bh392rcd13ifvqdl0","pricing_plan_id":"cebpf4jnsgd1na2vs0mg"},{"bike_id":"43fc777f-db94-447a-a033-7e97f2f52314","system_id":"levelo_inurba_marseille","lat":43.30888,"lon":5.39624,"is_reserved":false,"is_disabled":false,"rental_uris":{"android":"levelo://app?vid=43fc777f-db94-447a-a033-7e97f2f52314","ios":"levelo://app?vid=43fc777f-db94-447a-a033-7e97f2f52314"},"vehicle_type_id":"4","last_reported":1745295109,"current_range_meters":9200,"station_id":"ce4bh012rcd13ifvqcv0","pricing_plan_id":"cebpf4jnsgd1na2vs0mg"},{"bike_id":"af062bcb-c0d8-4f82-b254-b3dfb315e067","system_id":"levelo_inurba_marseille","lat":43.33003,"lon":5.39052,"is_reserved":false,"is_disabled":false,"rental_uris":{"android":"levelo://app?vid=af062bcb-c0d8-4f82-b254-b3dfb315e067","ios":"levelo://app?vid=af062bcb-c0d8-4f82-b254-b3dfb315e067"},"vehicle_type_id":"4","last_reported":1745295109,"current_range_meters":9200,"station_id":"ce4bhr92rcd13ifvqhrg","pricing_plan_id":"cebpf4jnsgd1na2vs0mg"},{"bike_id":"fe8b594a-1525-4084-8e05-931f2d1c230a","system_id":"levelo_inurba_marseille","lat":43.28354,"lon":5.38631,"is_reserved":false,"is_disabled":false,"rental_uris":{"android":"levelo://app?vid=fe8b594a-1525-4084-8e05-931f2d1c230a","ios":"levelo://app?vid=fe8b594a-1525-4084-8e05-931f2d1c230a"},"vehicle_type_id":"4","last_reported":1745295109,"current_range_meters":9200,"station_id":"ce4bh492rcd13ifvqdvg","pricing_plan_id":"cebpf4jnsgd1na2vs0mg"},{"bike_id":"38496ab1-dcd9-47e1-88de-12902fbdc1d3","system_id":"levelo_inurba_marseille","lat":43.290227,"lon":5.386372,"is_reserved":false,"is_disabled":false,"rental_uris":{"android":"levelo://app?vid=38496ab1-dcd9-47e1-88de-12902fbdc1d3","ios":"levelo://app?vid=38496ab1-dcd9-47e1-88de-12902fbdc1d3"},"vehicle_type_id":"4","last_reported":1745295109,"current_range_meters":9200,"station_id":"ce4bh4p2rcd13ifvqe0g","pricing_plan_id":"cebpf4jnsgd1na2vs0mg"},{"bike_id":"9bced37d-d2c2-489f-b5d4-ab1f6f0ebd81","system_id":"levelo_inurba_marseille","lat":43.310744,"lon":5.383533,"is_reserved":false,"is_disabled":false,"rental_uris":{"android":"levelo://app?vid=9bced37d-d2c2-489f-b5d4-ab1f6f0ebd81","ios":"levelo://app?vid=9bced37d-d2c2-489f-b5d4-ab1f6f0ebd81"},"vehicle_type_id":"4","last_reported":1745295109,"current_range_meters":9200,"station_id":"ce4bgv92rcd13ifvqcr0","pricing_plan_id":"cebpf4jnsgd1na2vs0mg"},{"bike_id":"b187e78d-1724-4b31-8cf0-6bdebd0684ee","system_id":"levelo_inurba_marseille","lat":43.289714,"lon":5.378409,"is_reserved":false,"is_disabled":true,"rental_uris":{"android":"levelo://app?vid=b187e78d-1724-4b31-8cf0-6bdebd0684ee","ios":"levelo://app?vid=b187e78d-1724-4b31-8cf0-6bdebd0684ee"},"vehicle_type_id":"4","last_reported":1745295109,"current_range_meters":9600,"station_id":"","pricing_plan_id":"cebpf4jnsgd1na2vs0mg"},{"bike_id":"4bc82e1a-bca4-44ab-8223-aee3605c8d43","system_id":"levelo_inurba_marseille","lat":43.30544,"lon":5.38439,"is_reserved":false,"is_disabled":false,"rental_uris":{"android":"levelo://app?vid=4bc82e1a-bca4-44ab-8223-aee3605c8d43","ios":"levelo://app?vid=4bc82e1a-bca4-44ab-8223-aee3605c8d43"},"vehicle_type_id":"4","last_reported":1745295109,"current_range_meters":9600,"station_id":"ce4bgg92rcd13ifvqb30","pricing_plan_id":"cebpf4jnsgd1na2vs0mg"},{"bike_id":"97b5301b-7f92-4673-aaeb-cee1feaf34d3","system_id":"levelo_inurba_marseille","lat":43.27925,"lon":5.41056,"is_reserved":false,"is_disabled":false,"rental_uris":{"android":"levelo://app?vid=97b5301b-7f92-4673-aaeb-cee1feaf34d3","ios":"levelo://app?vid=97b5301b-7f92-4673-aaeb-cee1feaf34d3"},"vehicle_type_id":"4","last_reported":1745295109,"current_range_meters":9600,"station_id":"ce4bhnp2rcd13ifvqh0g","pricing_plan_id":"cebpf4jnsgd1na2vs0mg"},{"bike_id":"5bc52f99-c488-4886-bf7e-6d74b0ab5e69","system_id":"levelo_inurba_marseille","lat":43.27972,"lon":5.40993,"is_reserved":false,"is_disabled":false,"rental_uris":{"android":"levelo://app?vid=5bc52f99-c488-4886-bf7e-6d74b0ab5e69","ios":"levelo://app?vid=5bc52f99-c488-4886-bf7e-6d74b0ab5e69"},"vehicle_type_id":"4","last_reported":1745295109,"current_range_meters":9600,"station_id":"ce4bhnp2rcd13ifvqh0g","pricing_plan_id":"cebpf4jnsgd1na2vs0mg"},{"bike_id":"64adcb2b-0958-4245-bddc-4122d932a81b","system_id":"levelo_inurba_marseille","lat":43.298019,"lon":5.404015,"is_reserved":false,"is_disabled":false,"rental_uris":{"android":"levelo://app?vid=64adcb2b-0958-4245-bddc-4122d932a81b","ios":"levelo://app?vid=64adcb2b-0958-4245-bddc-4122d932a81b"},"vehicle_type_id":"4","last_reported":1745295109,"current_range_meters":9600,"station_id":"ce4bh112rcd13ifvqd90","pricing_plan_id":"cebpf4jnsgd1na2vs0mg"},{"bike_id":"d5aaf7b9-7fe4-4e49-ab5f-5b64544b07d5","system_id":"levelo_inurba_marseille","lat":43.25006,"lon":5.38916,"is_reserved":false,"is_disabled":false,"rental_uris":{"android":"levelo://app?vid=d5aaf7b9-7fe4-4e49-ab5f-5b64544b07d5","ios":"levelo://app?vid=d5aaf7b9-7fe4-4e49-ab5f-5b64544b07d5"},"vehicle_type_id":"4","last_reported":1745295109,"current_range_meters":10000,"station_id":"ce4bhgp2rcd13ifvqfd0","pricing_plan_id":"cebpf4jnsgd1na2vs0mg"},{"bike_id":"5651431b-db7d-46f1-ba47-9c260ae40481","system_id":"levelo_inurba_marseille","lat":43.298687,"lon":5.397261,"is_reserved":false,"is_disabled":false,"rental_uris":{"android":"levelo://app?vid=5651431b-db7d-46f1-ba47-9c260ae40481","ios":"levelo://app?vid=5651431b-db7d-46f1-ba47-9c260ae40481"},"vehicle_type_id":"4","last_reported":1745295109,"current_range_meters":10000,"station_id":"ce4bh0h2rcd13ifvqd50","pricing_plan_id":"cebpf4jnsgd1na2vs0mg"},{"bike_id":"410e2ce2-1cab-49a6-96c3-30cb0e6044da","system_id":"levelo_inurba_marseille","lat":43.30195,"lon":5.39478,"is_reserved":false,"is_disabled":false,"rental_uris":{"android":"levelo://app?vid=410e2ce2-1cab-49a6-96c3-30cb0e6044da","ios":"levelo://app?vid=410e2ce2-1cab-49a6-96c3-30cb0e6044da"},"vehicle_type_id":"4","last_reported":1745295109,"current_range_meters":10000,"station_id":"ce4bh0p2rcd13ifvqd70","pricing_plan_id":"cebpf4jnsgd1na2vs0mg"},{"bike_id":"98bb5fbf-6f36-4f60-9412-0dcd0922c2df","system_id":"levelo_inurba_marseille","lat":43.29526,"lon":5.39026,"is_reserved":false,"is_disabled":false,"rental_uris":{"android":"levelo://app?vid=98bb5fbf-6f36-4f60-9412-0dcd0922c2df","ios":"levelo://app?vid=98bb5fbf-6f36-4f60-9412-0dcd0922c2df"},"vehicle_type_id":"4","last_reported":1745295109,"current_range_meters":10000,"station_id":"ce4bh3p2rcd13ifvqdp0","pricing_plan_id":"cebpf4jnsgd1na2vs0mg"},{"bike_id":"d7891f6f-dbf7-462a-8ba9-666022d45f1b","system_id":"levelo_inurba_marseille","lat":43.28727,"lon":5.39982,"is_reserved":false,"is_disabled":false,"rental_uris":{"android":"levelo://app?vid=d7891f6f-dbf7-462a-8ba9-666022d45f1b","ios":"levelo://app?vid=d7891f6f-dbf7-462a-8ba9-666022d45f1b"},"vehicle_type_id":"4","last_reported":1745295109,"current_range_meters":10000,"station_id":"ce4bho92rcd13ifvqh3g","pricing_plan_id":"cebpf4jnsgd1na2vs0mg"},{"bike_id":"79aa6860-e364-4149-b072-633a474e9932","system_id":"levelo_inurba_marseille","lat":43.27988,"lon":5.41657,"is_reserved":false,"is_disabled":false,"rental_uris":{"android":"levelo://app?vid=79aa6860-e364-4149-b072-633a474e9932","ios":"levelo://app?vid=79aa6860-e364-4149-b072-633a474e9932"},"vehicle_type_id":"4","last_reported":1745295109,"current_range_meters":10000,"station_id":"ce4bho12rcd13ifvqh1g","pricing_plan_id":"cebpf4jnsgd1na2vs0mg"},{"bike_id":"29c5e35e-31cc-4877-a9f7-24a7e5c474bd","system_id":"levelo_inurba_marseille","lat":43.28709,"lon":5.37917,"is_reserved":false,"is_disabled":false,"rental_uris":{"android":"levelo://app?vid=29c5e35e-31cc-4877-a9f7-24a7e5c474bd","ios":"levelo://app?vid=29c5e35e-31cc-4877-a9f7-24a7e5c474bd"},"vehicle_type_id":"4","last_reported":1745295109,"current_range_meters":10000,"station_id":"ce4bh9p2rcd13ifvqec0","pricing_plan_id":"cebpf4jnsgd1na2vs0mg"},{"bike_id":"f4b7a7f2-0d5e-41f4-8959-ca288a5714d9","system_id":"levelo_inurba_marseille","lat":43.286079,"lon":5.370611,"is_reserved":false,"is_disabled":false,"rental_uris":{"android":"levelo://app?vid=f4b7a7f2-0d5e-41f4-8959-ca288a5714d9","ios":"levelo://app?vid=f4b7a7f2-0d5e-41f4-8959-ca288a5714d9"},"vehicle_type_id":"4","last_reported":1745295109,"current_range_meters":10800,"station_id":"ce4bht12rcd13ifvqi60","pricing_plan_id":"cebpf4jnsgd1na2vs0mg"},{"bike_id":"ea8dd40d-d1c9-495b-acb7-79fe81df74e2","system_id":"levelo_inurba_marseille","lat":43.28706,"lon":5.40008,"is_reserved":false,"is_disabled":false,"rental_uris":{"android":"levelo://app?vid=ea8dd40d-d1c9-495b-acb7-79fe81df74e2","ios":"levelo://app?vid=ea8dd40d-d1c9-495b-acb7-79fe81df74e2"},"vehicle_type_id":"4","last_reported":1745295109,"current_range_meters":10800,"station_id":"ce4bho92rcd13ifvqh3g","pricing_plan_id":"cebpf4jnsgd1na2vs0mg"},{"bike_id":"66a9a378-d232-4166-a630-37e48fa18f9f","system_id":"levelo_inurba_marseille","lat":43.31994,"lon":5.38146,"is_reserved":false,"is_disabled":false,"rental_uris":{"android":"levelo://app?vid=66a9a378-d232-4166-a630-37e48fa18f9f","ios":"levelo://app?vid=66a9a378-d232-4166-a630-37e48fa18f9f"},"vehicle_type_id":"4","last_reported":1745295109,"current_range_meters":10800,"station_id":"ce4bhr12rcd13ifvqhpg","pricing_plan_id":"cebpf4jnsgd1na2vs0mg"},{"bike_id":"a172f588-42ca-4666-a9cd-434e4d1874bf","system_id":"levelo_inurba_marseille","lat":43.28461,"lon":5.35886,"is_reserved":false,"is_disabled":false,"rental_uris":{"android":"levelo://app?vid=a172f588-42ca-4666-a9cd-434e4d1874bf","ios":"levelo://app?vid=a172f588-42ca-4666-a9cd-434e4d1874bf"},"vehicle_type_id":"4","last_reported":1745295109,"current_range_meters":10800,"station_id":"ce4bhah2rcd13ifvqei0","pricing_plan_id":"cebpf4jnsgd1na2vs0mg"},{"bike_id":"9032c1b2-7805-4907-a608-5610837f60f3","system_id":"levelo_inurba_marseille","lat":43.2927,"lon":5.40163,"is_reserved":false,"is_disabled":false,"rental_uris":{"android":"levelo://app?vid=9032c1b2-7805-4907-a608-5610837f60f3","ios":"levelo://app?vid=9032c1b2-7805-4907-a608-5610837f60f3"},"vehicle_type_id":"4","last_reported":1745295109,"current_range_meters":10800,"station_id":"ce4bh312rcd13ifvqdk0","pricing_plan_id":"cebpf4jnsgd1na2vs0mg"},{"bike_id":"50f6dc04-17ec-4940-9332-8f3db38b7ab2","system_id":"levelo_inurba_marseille","lat":43.28723,"lon":5.39967,"is_reserved":false,"is_disabled":false,"rental_uris":{"android":"levelo://app?vid=50f6dc04-17ec-4940-9332-8f3db38b7ab2","ios":"levelo://app?vid=50f6dc04-17ec-4940-9332-8f3db38b7ab2"},"vehicle_type_id":"4","last_reported":1745295109,"current_range_meters":11200,"station_id":"ce4bho92rcd13ifvqh3g","pricing_plan_id":"cebpf4jnsgd1na2vs0mg"},{"bike_id":"6a4af5e8-f5c0-41fb-afb5-22ff76967e42","system_id":"levelo_inurba_marseille","lat":43.28404,"lon":5.37534,"is_reserved":false,"is_disabled":false,"rental_uris":{"android":"levelo://app?vid=6a4af5e8-f5c0-41fb-afb5-22ff76967e42","ios":"levelo://app?vid=6a4af5e8-f5c0-41fb-afb5-22ff76967e42"},"vehicle_type_id":"4","last_reported":1745295109,"current_range_meters":11200,"station_id":"ce4bh412rcd13ifvqds0","pricing_plan_id":"cebpf4jnsgd1na2vs0mg"},{"bike_id":"2dc4e79a-33a8-48b0-bf03-f6328f1dc1f6","system_id":"levelo_inurba_marseille","lat":43.323575,"lon":5.389006,"is_reserved":false,"is_disabled":true,"rental_uris":{"android":"levelo://app?vid=2dc4e79a-33a8-48b0-bf03-f6328f1dc1f6","ios":"levelo://app?vid=2dc4e79a-33a8-48b0-bf03-f6328f1dc1f6"},"vehicle_type_id":"4","last_reported":1745295109,"current_range_meters":11200,"station_id":"ce4bhqp2rcd13ifvqhog","pricing_plan_id":"cebpf4jnsgd1na2vs0mg"},{"bike_id":"f2ff2ce8-b00d-4b62-a381-f4671f62f1a9","system_id":"levelo_inurba_marseille","lat":43.31167,"lon":5.38706,"is_reserved":false,"is_disabled":false,"rental_uris":{"android":"levelo://app?vid=f2ff2ce8-b00d-4b62-a381-f4671f62f1a9","ios":"levelo://app?vid=f2ff2ce8-b00d-4b62-a381-f4671f62f1a9"},"vehicle_type_id":"4","last_reported":1745295109,"current_range_meters":11200,"station_id":"ce4bgv12rcd13ifvqcp0","pricing_plan_id":"cebpf4jnsgd1na2vs0mg"},{"bike_id":"fa6fb692-3c02-45e3-ae8b-7fd21c19ed5f","system_id":"levelo_inurba_marseille","lat":43.28635,"lon":5.38371,"is_reserved":false,"is_disabled":false,"rental_uris":{"android":"levelo://app?vid=fa6fb692-3c02-45e3-ae8b-7fd21c19ed5f","ios":"levelo://app?vid=fa6fb692-3c02-45e3-ae8b-7fd21c19ed5f"},"vehicle_type_id":"4","last_reported":1745295109,"current_range_meters":11200,"station_id":"","pricing_plan_id":"cebpf4jnsgd1na2vs0mg"},{"bike_id":"4eb3e58f-17bb-4007-b6f7-ead627ffb500","system_id":"levelo_inurba_marseille","lat":43.292563,"lon":5.384339,"is_reserved":false,"is_disabled":true,"rental_uris":{"android":"levelo://app?vid=4eb3e58f-17bb-4007-b6f7-ead627ffb500","ios":"levelo://app?vid=4eb3e58f-17bb-4007-b6f7-ead627ffb500"},"vehicle_type_id":"4","last_reported":1745295109,"current_range_meters":11200,"station_id":"ce4bh692rcd13ifvqea0","pricing_plan_id":"cebpf4jnsgd1na2vs0mg"},{"bike_id":"43ea2697-003d-4975-8a5e-6da0f8df830d","system_id":"levelo_inurba_marseille","lat":43.31984,"lon":5.38135,"is_reserved":false,"is_disabled":false,"rental_uris":{"android":"levelo://app?vid=43ea2697-003d-4975-8a5e-6da0f8df830d","ios":"levelo://app?vid=43ea2697-003d-4975-8a5e-6da0f8df830d"},"vehicle_type_id":"4","last_reported":1745295109,"current_range_meters":11600,"station_id":"ce4bhr12rcd13ifvqhpg","pricing_plan_id":"cebpf4jnsgd1na2vs0mg"},{"bike_id":"47218403-8595-4637-a42b-ee977a548d13","system_id":"levelo_inurba_marseille","lat":43.28365,"lon":5.3864,"is_reserved":false,"is_disabled":false,"rental_uris":{"android":"levelo://app?vid=47218403-8595-4637-a42b-ee977a548d13","ios":"levelo://app?vid=47218403-8595-4637-a42b-ee977a548d13"},"vehicle_type_id":"4","last_reported":1745295109,"current_range_meters":11600,"station_id":"ce4bh492rcd13ifvqdvg","pricing_plan_id":"cebpf4jnsgd1na2vs0mg"},{"bike_id":"e07c446c-794c-4c7e-8983-08bcf88741d7","system_id":"levelo_inurba_marseille","lat":43.308833,"lon":5.396355,"is_reserved":false,"is_disabled":false,"rental_uris":{"android":"levelo://app?vid=e07c446c-794c-4c7e-8983-08bcf88741d7","ios":"levelo://app?vid=e07c446c-794c-4c7e-8983-08bcf88741d7"},"vehicle_type_id":"4","last_reported":1745295109,"current_range_meters":12000,"station_id":"ce4bh012rcd13ifvqcv0","pricing_plan_id":"cebpf4jnsgd1na2vs0mg"},{"bike_id":"8845df7c-25f7-458d-9ae1-738a6dd391e2","system_id":"levelo_inurba_marseille","lat":43.34143,"lon":5.40912,"is_reserved":false,"is_disabled":false,"rental_uris":{"android":"levelo://app?vid=8845df7c-25f7-458d-9ae1-738a6dd391e2","ios":"levelo://app?vid=8845df7c-25f7-458d-9ae1-738a6dd391e2"},"vehicle_type_id":"4","last_reported":1745295109,"current_range_meters":12000,"station_id":"ce4bhqh2rcd13ifvqhlg","pricing_plan_id":"cebpf4jnsgd1na2vs0mg"},{"bike_id":"896376d6-ea17-4234-ae73-98d1ffb299ab","system_id":"levelo_inurba_marseille","lat":43.28602,"lon":5.37064,"is_reserved":false,"is_disabled":false,"rental_uris":{"android":"levelo://app?vid=896376d6-ea17-4234-ae73-98d1ffb299ab","ios":"levelo://app?vid=896376d6-ea17-4234-ae73-98d1ffb299ab"},"vehicle_type_id":"4","last_reported":1745295109,"current_range_meters":12000,"station_id":"ce4bht12rcd13ifvqi60","pricing_plan_id":"cebpf4jnsgd1na2vs0mg"},{"bike_id":"8fd43598-927a-4b0c-abdc-ee6ebcc379cd","system_id":"levelo_inurba_marseille","lat":43.30801,"lon":5.381663,"is_reserved":false,"is_disabled":false,"rental_uris":{"android":"levelo://app?vid=8fd43598-927a-4b0c-abdc-ee6ebcc379cd","ios":"levelo://app?vid=8fd43598-927a-4b0c-abdc-ee6ebcc379cd"},"vehicle_type_id":"4","last_reported":1745295109,"current_range_meters":12000,"station_id":"ce4bgt12rcd13ifvqce0","pricing_plan_id":"cebpf4jnsgd1na2vs0mg"},{"bike_id":"213da5e8-23e1-4c9c-89ed-8256ec571fc4","system_id":"levelo_inurba_marseille","lat":43.28363,"lon":5.38628,"is_reserved":false,"is_disabled":false,"rental_uris":{"android":"levelo://app?vid=213da5e8-23e1-4c9c-89ed-8256ec571fc4","ios":"levelo://app?vid=213da5e8-23e1-4c9c-89ed-8256ec571fc4"},"vehicle_type_id":"4","last_reported":1745295109,"current_range_meters":12000,"station_id":"ce4bh492rcd13ifvqdvg","pricing_plan_id":"cebpf4jnsgd1na2vs0mg"},{"bike_id":"0cc8691f-a082-4a9b-944f-91ae0092fb38","system_id":"levelo_inurba_marseille","lat":43.293301,"lon":5.401876,"is_reserved":false,"is_disabled":false,"rental_uris":{"android":"levelo://app?vid=0cc8691f-a082-4a9b-944f-91ae0092fb38","ios":"levelo://app?vid=0cc8691f-a082-4a9b-944f-91ae0092fb38"},"vehicle_type_id":"4","last_reported":1745295109,"current_range_meters":12000,"station_id":"","pricing_plan_id":"cebpf4jnsgd1na2vs0mg"},{"bike_id":"a56ba011-d190-409d-b99e-3c214f1d2894","system_id":"levelo_inurba_marseille","lat":43.28949,"lon":5.39638,"is_reserved":false,"is_disabled":false,"rental_uris":{"android":"levelo://app?vid=a56ba011-d190-409d-b99e-3c214f1d2894","ios":"levelo://app?vid=a56ba011-d190-409d-b99e-3c214f1d2894"},"vehicle_type_id":"4","last_reported":1745295109,"current_range_meters":12000,"station_id":"ce4bh3h2rcd13ifvqdn0","pricing_plan_id":"cebpf4jnsgd1na2vs0mg"},{"bike_id":"7aad4794-62b1-44fd-97ea-9553d6742a29","system_id":"levelo_inurba_marseille","lat":43.30191,"lon":5.39482,"is_reserved":false,"is_disabled":false,"rental_uris":{"android":"levelo://app?vid=7aad4794-62b1-44fd-97ea-9553d6742a29","ios":"levelo://app?vid=7aad4794-62b1-44fd-97ea-9553d6742a29"},"vehicle_type_id":"4","last_reported":1745295109,"current_range_meters":12000,"station_id":"ce4bh0p2rcd13ifvqd70","pricing_plan_id":"cebpf4jnsgd1na2vs0mg"},{"bike_id":"31dad1ac-0f84-44f8-a969-f5f6007b9b50","system_id":"levelo_inurba_marseille","lat":43.25,"lon":5.38951,"is_reserved":false,"is_disabled":true,"rental_uris":{"android":"levelo://app?vid=31dad1ac-0f84-44f8-a969-f5f6007b9b50","ios":"levelo://app?vid=31dad1ac-0f84-44f8-a969-f5f6007b9b50"},"vehicle_type_id":"4","last_reported":1745295109,"current_range_meters":12400,"station_id":"ce4bhgp2rcd13ifvqfd0","pricing_plan_id":"cebpf4jnsgd1na2vs0mg"},{"bike_id":"ae426aff-dab8-48da-aece-a07401c06655","system_id":"levelo_inurba_marseille","lat":43.2808,"lon":5.39648,"is_reserved":false,"is_disabled":false,"rental_uris":{"android":"levelo://app?vid=ae426aff-dab8-48da-aece-a07401c06655","ios":"levelo://app?vid=ae426aff-dab8-48da-aece-a07401c06655"},"vehicle_type_id":"4","last_reported":1745295109,"current_range_meters":12400,"station_id":"ce4bho12rcd13ifvqh2g","pricing_plan_id":"cebpf4jnsgd1na2vs0mg"},{"bike_id":"01dfcb94-132f-4901-bfff-e881dfa4af40","system_id":"levelo_inurba_marseille","lat":43.30877,"lon":5.39645,"is_reserved":false,"is_disabled":false,"rental_uris":{"android":"levelo://app?vid=01dfcb94-132f-4901-bfff-e881dfa4af40","ios":"levelo://app?vid=01dfcb94-132f-4901-bfff-e881dfa4af40"},"vehicle_type_id":"4","last_reported":1745295109,"current_range_meters":12400,"station_id":"ce4bh012rcd13ifvqcv0","pricing_plan_id":"cebpf4jnsgd1na2vs0mg"},{"bike_id":"85a4b1a0-8ac6-4193-a4bd-d5cdcf7c4a8f","system_id":"levelo_inurba_marseille","lat":43.287138,"lon":5.379428,"is_reserved":false,"is_disabled":false,"rental_uris":{"android":"levelo://app?vid=85a4b1a0-8ac6-4193-a4bd-d5cdcf7c4a8f","ios":"levelo://app?vid=85a4b1a0-8ac6-4193-a4bd-d5cdcf7c4a8f"},"vehicle_type_id":"4","last_reported":1745295109,"current_range_meters":12400,"station_id":"ce4bh9p2rcd13ifvqec0","pricing_plan_id":"cebpf4jnsgd1na2vs0mg"},{"bike_id":"c715e6d5-141e-4f7d-89aa-48d9818c4993","system_id":"levelo_inurba_marseille","lat":43.306026,"lon":5.393574,"is_reserved":false,"is_disabled":false,"rental_uris":{"android":"levelo://app?vid=c715e6d5-141e-4f7d-89aa-48d9818c4993","ios":"levelo://app?vid=c715e6d5-141e-4f7d-89aa-48d9818c4993"},"vehicle_type_id":"4","last_reported":1745295109,"current_range_meters":12400,"station_id":"ce4bh0p2rcd13ifvqd80","pricing_plan_id":"cebpf4jnsgd1na2vs0mg"},{"bike_id":"b373a9fc-b19f-49e6-9414-e3e614041e34","system_id":"levelo_inurba_marseille","lat":43.27045,"lon":5.42302,"is_reserved":false,"is_disabled":true,"rental_uris":{"android":"levelo://app?vid=b373a9fc-b19f-49e6-9414-e3e614041e34","ios":"levelo://app?vid=b373a9fc-b19f-49e6-9414-e3e614041e34"},"vehicle_type_id":"4","last_reported":1745295109,"current_range_meters":12400,"station_id":"ce4bhk92rcd13ifvqgb0","pricing_plan_id":"cebpf4jnsgd1na2vs0mg"},{"bike_id":"d9e72d62-42e6-4a3d-bf14-45de72170061","system_id":"levelo_inurba_marseille","lat":43.27057,"lon":5.40267,"is_reserved":false,"is_disabled":false,"rental_uris":{"android":"levelo://app?vid=d9e72d62-42e6-4a3d-bf14-45de72170061","ios":"levelo://app?vid=d9e72d62-42e6-4a3d-bf14-45de72170061"},"vehicle_type_id":"4","last_reported":1745295109,"current_range_meters":12400,"station_id":"ce4bhk92rcd13ifvqgc0","pricing_plan_id":"cebpf4jnsgd1na2vs0mg"},{"bike_id":"b9990b0b-23ad-461b-a2d8-df7e2af72eca","system_id":"levelo_inurba_marseille","lat":43.307057,"lon":5.380921,"is_reserved":false,"is_disabled":false,"rental_uris":{"android":"levelo://app?vid=b9990b0b-23ad-461b-a2d8-df7e2af72eca","ios":"levelo://app?vid=b9990b0b-23ad-461b-a2d8-df7e2af72eca"},"vehicle_type_id":"4","last_reported":1745295109,"current_range_meters":12400,"station_id":"","pricing_plan_id":"cebpf4jnsgd1na2vs0mg"},{"bike_id":"21917916-4faf-4a68-958e-ef1fcba4e701","system_id":"levelo_inurba_marseille","lat":43.31492,"lon":5.37258,"is_reserved":false,"is_disabled":false,"rental_uris":{"android":"levelo://app?vid=21917916-4faf-4a68-958e-ef1fcba4e701","ios":"levelo://app?vid=21917916-4faf-4a68-958e-ef1fcba4e701"},"vehicle_type_id":"4","last_reported":1745295109,"current_range_meters":12400,"station_id":"ce4bgt12rcd13ifvqcd0","pricing_plan_id":"cebpf4jnsgd1na2vs0mg"},{"bike_id":"afca05cb-9dea-4e13-bae3-b0bd83251e29","system_id":"levelo_inurba_marseille","lat":43.33773,"lon":5.37444,"is_reserved":false,"is_disabled":false,"rental_uris":{"android":"levelo://app?vid=afca05cb-9dea-4e13-bae3-b0bd83251e29","ios":"levelo://app?vid=afca05cb-9dea-4e13-bae3-b0bd83251e29"},"vehicle_type_id":"4","last_reported":1745295109,"current_range_meters":12800,"station_id":"","pricing_plan_id":"cebpf4jnsgd1na2vs0mg"},{"bike_id":"ae53a1b2-a997-4258-ba05-04424f6f3516","system_id":"levelo_inurba_marseille","lat":43.279075,"lon":5.395869,"is_reserved":false,"is_disabled":false,"rental_uris":{"android":"levelo://app?vid=ae53a1b2-a997-4258-ba05-04424f6f3516","ios":"levelo://app?vid=ae53a1b2-a997-4258-ba05-04424f6f3516"},"vehicle_type_id":"4","last_reported":1745295109,"current_range_meters":12800,"station_id":"ce4bhf92rcd13ifvqf40","pricing_plan_id":"cebpf4jnsgd1na2vs0mg"},{"bike_id":"a597aa79-a9e7-446e-9f8d-ad8e32781eda","system_id":"levelo_inurba_marseille","lat":43.25936,"lon":5.40901,"is_reserved":false,"is_disabled":false,"rental_uris":{"android":"levelo://app?vid=a597aa79-a9e7-446e-9f8d-ad8e32781eda","ios":"levelo://app?vid=a597aa79-a9e7-446e-9f8d-ad8e32781eda"},"vehicle_type_id":"4","last_reported":1745295109,"current_range_meters":12800,"station_id":"ce4bhm92rcd13ifvqglg","pricing_plan_id":"cebpf4jnsgd1na2vs0mg"},{"bike_id":"e7c416a1-d3d4-4a43-927c-145ae605d8a0","system_id":"levelo_inurba_marseille","lat":43.24072,"lon":5.3775,"is_reserved":false,"is_disabled":false,"rental_uris":{"android":"levelo://app?vid=e7c416a1-d3d4-4a43-927c-145ae605d8a0","ios":"levelo://app?vid=e7c416a1-d3d4-4a43-927c-145ae605d8a0"},"vehicle_type_id":"4","last_reported":1745295109,"current_range_meters":12800,"station_id":"ce4bhnp2rcd13ifvqgvg","pricing_plan_id":"cebpf4jnsgd1na2vs0mg"},{"bike_id":"e3f2ff94-19f7-4b16-a506-885772f72f4c","system_id":"levelo_inurba_marseille","lat":43.24167,"lon":5.36402,"is_reserved":false,"is_disabled":true,"rental_uris":{"android":"levelo://app?vid=e3f2ff94-19f7-4b16-a506-885772f72f4c","ios":"levelo://app?vid=e3f2ff94-19f7-4b16-a506-885772f72f4c"},"vehicle_type_id":"4","last_reported":1745295109,"current_range_meters":12800,"station_id":"cpo36qri1sfpv3e86is0","pricing_plan_id":"cebpf4jnsgd1na2vs0mg"},{"bike_id":"d9e79c39-e7f5-4230-a287-0d676fda5550","system_id":"levelo_inurba_marseille","lat":43.29269,"lon":5.40184,"is_reserved":false,"is_disabled":false,"rental_uris":{"android":"levelo://app?vid=d9e79c39-e7f5-4230-a287-0d676fda5550","ios":"levelo://app?vid=d9e79c39-e7f5-4230-a287-0d676fda5550"},"vehicle_type_id":"4","last_reported":1745295109,"current_range_meters":13600,"station_id":"","pricing_plan_id":"cebpf4jnsgd1na2vs0mg"},{"bike_id":"a7aa4f0d-dbae-40db-a193-3ad158f70ff8","system_id":"levelo_inurba_marseille","lat":43.310344,"lon":5.370885,"is_reserved":false,"is_disabled":false,"rental_uris":{"android":"levelo://app?vid=a7aa4f0d-dbae-40db-a193-3ad158f70ff8","ios":"levelo://app?vid=a7aa4f0d-dbae-40db-a193-3ad158f70ff8"},"vehicle_type_id":"4","last_reported":1745295109,"current_range_meters":13600,"station_id":"","pricing_plan_id":"cebpf4jnsgd1na2vs0mg"},{"bike_id":"b101afbf-59d1-496d-8034-1c01b9f4a24e","system_id":"levelo_inurba_marseille","lat":43.291909,"lon":5.393254,"is_reserved":false,"is_disabled":false,"rental_uris":{"android":"levelo://app?vid=b101afbf-59d1-496d-8034-1c01b9f4a24e","ios":"levelo://app?vid=b101afbf-59d1-496d-8034-1c01b9f4a24e"},"vehicle_type_id":"4","last_reported":1745295109,"current_range_meters":14000,"station_id":"ce4bh192rcd13ifvqdd0","pricing_plan_id":"cebpf4jnsgd1na2vs0mg"},{"bike_id":"217bc09c-9054-444f-b0a6-1a91698bbf60","system_id":"levelo_inurba_marseille","lat":43.26182,"lon":5.37458,"is_reserved":false,"is_disabled":true,"rental_uris":{"android":"levelo://app?vid=217bc09c-9054-444f-b0a6-1a91698bbf60","ios":"levelo://app?vid=217bc09c-9054-444f-b0a6-1a91698bbf60"},"vehicle_type_id":"4","last_reported":1745295109,"current_range_meters":14000,"station_id":"ce4bhgp2rcd13ifvqfc0","pricing_plan_id":"cebpf4jnsgd1na2vs0mg"},{"bike_id":"2568281a-34e3-44a1-8733-80292791fc14","system_id":"levelo_inurba_marseille","lat":43.28713,"lon":5.399865,"is_reserved":false,"is_disabled":false,"rental_uris":{"android":"levelo://app?vid=2568281a-34e3-44a1-8733-80292791fc14","ios":"levelo://app?vid=2568281a-34e3-44a1-8733-80292791fc14"},"vehicle_type_id":"4","last_reported":1745295109,"current_range_meters":14000,"station_id":"ce4bho92rcd13ifvqh3g","pricing_plan_id":"cebpf4jnsgd1na2vs0mg"},{"bike_id":"68e09bbf-f72d-41c4-aeef-60185538bcb5","system_id":"levelo_inurba_marseille","lat":43.28713,"lon":5.379403,"is_reserved":false,"is_disabled":false,"rental_uris":{"android":"levelo://app?vid=68e09bbf-f72d-41c4-aeef-60185538bcb5","ios":"levelo://app?vid=68e09bbf-f72d-41c4-aeef-60185538bcb5"},"vehicle_type_id":"4","last_reported":1745295109,"current_range_meters":14000,"station_id":"ce4bh9p2rcd13ifvqec0","pricing_plan_id":"cebpf4jnsgd1na2vs0mg"},{"bike_id":"49031319-d769-4007-8548-0273e2675310","system_id":"levelo_inurba_marseille","lat":43.309397,"lon":5.401386,"is_reserved":false,"is_disabled":false,"rental_uris":{"android":"levelo://app?vid=49031319-d769-4007-8548-0273e2675310","ios":"levelo://app?vid=49031319-d769-4007-8548-0273e2675310"},"vehicle_type_id":"4","last_reported":1745295109,"current_range_meters":14000,"station_id":"ce4bgvp2rcd13ifvqct0","pricing_plan_id":"cebpf4jnsgd1na2vs0mg"},{"bike_id":"0b220d75-68f8-45ed-a4ba-a58468c427bf","system_id":"levelo_inurba_marseille","lat":43.30591,"lon":5.39364,"is_reserved":false,"is_disabled":false,"rental_uris":{"android":"levelo://app?vid=0b220d75-68f8-45ed-a4ba-a58468c427bf","ios":"levelo://app?vid=0b220d75-68f8-45ed-a4ba-a58468c427bf"},"vehicle_type_id":"4","last_reported":1745295109,"current_range_meters":14000,"station_id":"ce4bh0p2rcd13ifvqd80","pricing_plan_id":"cebpf4jnsgd1na2vs0mg"},{"bike_id":"eb05006c-0ef3-47c9-973c-9ee304de3e62","system_id":"levelo_inurba_marseille","lat":43.31172,"lon":5.38713,"is_reserved":false,"is_disabled":false,"rental_uris":{"android":"levelo://app?vid=eb05006c-0ef3-47c9-973c-9ee304de3e62","ios":"levelo://app?vid=eb05006c-0ef3-47c9-973c-9ee304de3e62"},"vehicle_type_id":"4","last_reported":1745295109,"current_range_meters":14400,"station_id":"ce4bgv12rcd13ifvqcp0","pricing_plan_id":"cebpf4jnsgd1na2vs0mg"},{"bike_id":"6b4282bc-9432-4c95-847b-7452cf13e716","system_id":"levelo_inurba_marseille","lat":43.29315,"lon":5.37128,"is_reserved":false,"is_disabled":true,"rental_uris":{"android":"levelo://app?vid=6b4282bc-9432-4c95-847b-7452cf13e716","ios":"levelo://app?vid=6b4282bc-9432-4c95-847b-7452cf13e716"},"vehicle_type_id":"4","last_reported":1745295109,"current_range_meters":14400,"station_id":"ce4bgh92rcd13ifvqb40","pricing_plan_id":"cebpf4jnsgd1na2vs0mg"},{"bike_id":"d1bab3a3-d105-4848-95e6-766bc72e11df","system_id":"levelo_inurba_marseille","lat":43.308899,"lon":5.396351,"is_reserved":false,"is_disabled":false,"rental_uris":{"android":"levelo://app?vid=d1bab3a3-d105-4848-95e6-766bc72e11df","ios":"levelo://app?vid=d1bab3a3-d105-4848-95e6-766bc72e11df"},"vehicle_type_id":"4","last_reported":1745295109,"current_range_meters":14400,"station_id":"ce4bh012rcd13ifvqcv0","pricing_plan_id":"cebpf4jnsgd1na2vs0mg"},{"bike_id":"b21c73ab-4359-4f8e-bb95-e8439a292e7b","system_id":"levelo_inurba_marseille","lat":43.2718,"lon":5.40994,"is_reserved":false,"is_disabled":false,"rental_uris":{"android":"levelo://app?vid=b21c73ab-4359-4f8e-bb95-e8439a292e7b","ios":"levelo://app?vid=b21c73ab-4359-4f8e-bb95-e8439a292e7b"},"vehicle_type_id":"4","last_reported":1745295109,"current_range_meters":14400,"station_id":"ce4bhl12rcd13ifvqgf0","pricing_plan_id":"cebpf4jnsgd1na2vs0mg"},{"bike_id":"4d86512c-bf08-4145-ba8e-3cfa7e7aa6d8","system_id":"levelo_inurba_marseille","lat":43.30663,"lon":5.40099,"is_reserved":false,"is_disabled":false,"rental_uris":{"android":"levelo://app?vid=4d86512c-bf08-4145-ba8e-3cfa7e7aa6d8","ios":"levelo://app?vid=4d86512c-bf08-4145-ba8e-3cfa7e7aa6d8"},"vehicle_type_id":"4","last_reported":1745295109,"current_range_meters":14800,"station_id":"ce4bh112rcd13ifvqda0","pricing_plan_id":"cebpf4jnsgd1na2vs0mg"},{"bike_id":"19bdf40e-ce17-4477-9c87-815068b2b0ca","system_id":"levelo_inurba_marseille","lat":43.28932,"lon":5.39626,"is_reserved":false,"is_disabled":false,"rental_uris":{"android":"levelo://app?vid=19bdf40e-ce17-4477-9c87-815068b2b0ca","ios":"levelo://app?vid=19bdf40e-ce17-4477-9c87-815068b2b0ca"},"vehicle_type_id":"4","last_reported":1745295109,"current_range_meters":14800,"station_id":"ce4bh3h2rcd13ifvqdn0","pricing_plan_id":"cebpf4jnsgd1na2vs0mg"},{"bike_id":"2a35ab10-f416-439f-a4fa-784873cd587f","system_id":"levelo_inurba_marseille","lat":43.269544,"lon":5.386397,"is_reserved":false,"is_disabled":true,"rental_uris":{"android":"levelo://app?vid=2a35ab10-f416-439f-a4fa-784873cd587f","ios":"levelo://app?vid=2a35ab10-f416-439f-a4fa-784873cd587f"},"vehicle_type_id":"4","last_reported":1745295109,"current_range_meters":14800,"station_id":"ce4bhh92rcd13ifvqfh0","pricing_plan_id":"cebpf4jnsgd1na2vs0mg"},{"bike_id":"12505a0a-b14f-4f59-9be1-55ce43130db1","system_id":"levelo_inurba_marseille","lat":43.2959,"lon":5.38093,"is_reserved":false,"is_disabled":true,"rental_uris":{"android":"levelo://app?vid=12505a0a-b14f-4f59-9be1-55ce43130db1","ios":"levelo://app?vid=12505a0a-b14f-4f59-9be1-55ce43130db1"},"vehicle_type_id":"4","last_reported":1745295109,"current_range_meters":14800,"station_id":"ce4bgl12rcd13ifvqbo0","pricing_plan_id":"cebpf4jnsgd1na2vs0mg"},{"bike_id":"fa15de24-cca3-4579-a312-f78f5ae8f6e1","system_id":"levelo_inurba_marseille","lat":43.240831,"lon":5.377534,"is_reserved":false,"is_disabled":false,"rental_uris":{"android":"levelo://app?vid=fa15de24-cca3-4579-a312-f78f5ae8f6e1","ios":"levelo://app?vid=fa15de24-cca3-4579-a312-f78f5ae8f6e1"},"vehicle_type_id":"4","last_reported":1745295109,"current_range_meters":14800,"station_id":"ce4bhnp2rcd13ifvqgvg","pricing_plan_id":"cebpf4jnsgd1na2vs0mg"},{"bike_id":"45480439-b5c3-4e5a-9735-d67e2b5e8704","system_id":"levelo_inurba_marseille","lat":43.28689,"lon":5.37421,"is_reserved":false,"is_disabled":false,"rental_uris":{"android":"levelo://app?vid=45480439-b5c3-4e5a-9735-d67e2b5e8704","ios":"levelo://app?vid=45480439-b5c3-4e5a-9735-d67e2b5e8704"},"vehicle_type_id":"4","last_reported":1745295109,"current_range_meters":14800,"station_id":"ce4bh3p2rcd13ifvqdq0","pricing_plan_id":"cebpf4jnsgd1na2vs0mg"},{"bike_id":"f25d8672-7640-4033-8cc4-f80944c4dd44","system_id":"levelo_inurba_marseille","lat":43.27238,"lon":5.40108,"is_reserved":false,"is_disabled":false,"rental_uris":{"android":"levelo://app?vid=f25d8672-7640-4033-8cc4-f80944c4dd44","ios":"levelo://app?vid=f25d8672-7640-4033-8cc4-f80944c4dd44"},"vehicle_type_id":"4","last_reported":1745295109,"current_range_meters":15200,"station_id":"","pricing_plan_id":"cebpf4jnsgd1na2vs0mg"},{"bike_id":"550d508d-030e-4766-b8c3-c19b3655c09d","system_id":"levelo_inurba_marseille","lat":43.309316,"lon":5.401441,"is_reserved":false,"is_disabled":false,"rental_uris":{"android":"levelo://app?vid=550d508d-030e-4766-b8c3-c19b3655c09d","ios":"levelo://app?vid=550d508d-030e-4766-b8c3-c19b3655c09d"},"vehicle_type_id":"4","last_reported":1745295109,"current_range_meters":15200,"station_id":"ce4bgvp2rcd13ifvqct0","pricing_plan_id":"cebpf4jnsgd1na2vs0mg"},{"bike_id":"a756bae3-49c1-4d6c-89e8-fcb7b0e7d2e2","system_id":"levelo_inurba_marseille","lat":43.29029,"lon":5.35931,"is_reserved":false,"is_disabled":true,"rental_uris":{"android":"levelo://app?vid=a756bae3-49c1-4d6c-89e8-fcb7b0e7d2e2","ios":"levelo://app?vid=a756bae3-49c1-4d6c-89e8-fcb7b0e7d2e2"},"vehicle_type_id":"4","last_reported":1745295109,"current_range_meters":15200,"station_id":"ce4bha92rcd13ifvqeg0","pricing_plan_id":"cebpf4jnsgd1na2vs0mg"},{"bike_id":"0f64adcb-2459-42cc-b90e-1e660a23ec79","system_id":"levelo_inurba_marseille","lat":43.29276,"lon":5.40153,"is_reserved":false,"is_disabled":false,"rental_uris":{"android":"levelo://app?vid=0f64adcb-2459-42cc-b90e-1e660a23ec79","ios":"levelo://app?vid=0f64adcb-2459-42cc-b90e-1e660a23ec79"},"vehicle_type_id":"4","last_reported":1745295109,"current_range_meters":15200,"station_id":"ce4bh312rcd13ifvqdk0","pricing_plan_id":"cebpf4jnsgd1na2vs0mg"},{"bike_id":"3db07ae4-35bc-49f5-9fb8-a9b19427acdd","system_id":"levelo_inurba_marseille","lat":43.28411,"lon":5.35008,"is_reserved":false,"is_disabled":false,"rental_uris":{"android":"levelo://app?vid=3db07ae4-35bc-49f5-9fb8-a9b19427acdd","ios":"levelo://app?vid=3db07ae4-35bc-49f5-9fb8-a9b19427acdd"},"vehicle_type_id":"4","last_reported":1745295109,"current_range_meters":15200,"station_id":"ce4bhbh2rcd13ifvqepg","pricing_plan_id":"cebpf4jnsgd1na2vs0mg"},{"bike_id":"41cd4d50-3bdd-4fa7-b5d1-d715f5a540e6","system_id":"levelo_inurba_marseille","lat":43.32345,"lon":5.36768,"is_reserved":false,"is_disabled":false,"rental_uris":{"android":"levelo://app?vid=41cd4d50-3bdd-4fa7-b5d1-d715f5a540e6","ios":"levelo://app?vid=41cd4d50-3bdd-4fa7-b5d1-d715f5a540e6"},"vehicle_type_id":"4","last_reported":1745295109,"current_range_meters":15200,"station_id":"ce4bhsh2rcd13ifvqi2g","pricing_plan_id":"cebpf4jnsgd1na2vs0mg"},{"bike_id":"322cb3bd-1b2c-4ec8-9cd5-563729b64d42","system_id":"levelo_inurba_marseille","lat":43.24076,"lon":5.37749,"is_reserved":false,"is_disabled":false,"rental_uris":{"android":"levelo://app?vid=322cb3bd-1b2c-4ec8-9cd5-563729b64d42","ios":"levelo://app?vid=322cb3bd-1b2c-4ec8-9cd5-563729b64d42"},"vehicle_type_id":"4","last_reported":1745295109,"current_range_meters":16000,"station_id":"ce4bhnp2rcd13ifvqgvg","pricing_plan_id":"cebpf4jnsgd1na2vs0mg"},{"bike_id":"013b0bba-3a8e-4176-aec5-9b030be1a006","system_id":"levelo_inurba_marseille","lat":43.31731,"lon":5.37776,"is_reserved":false,"is_disabled":false,"rental_uris":{"android":"levelo://app?vid=013b0bba-3a8e-4176-aec5-9b030be1a006","ios":"levelo://app?vid=013b0bba-3a8e-4176-aec5-9b030be1a006"},"vehicle_type_id":"4","last_reported":1745295109,"current_range_meters":16000,"station_id":"ce4bgth2rcd13ifvqch0","pricing_plan_id":"cebpf4jnsgd1na2vs0mg"},{"bike_id":"e67493be-90d1-453e-bdde-ef8f6fd8f9f8","system_id":"levelo_inurba_marseille","lat":43.292579,"lon":5.409064,"is_reserved":false,"is_disabled":false,"rental_uris":{"android":"levelo://app?vid=e67493be-90d1-453e-bdde-ef8f6fd8f9f8","ios":"levelo://app?vid=e67493be-90d1-453e-bdde-ef8f6fd8f9f8"},"vehicle_type_id":"4","last_reported":1745295109,"current_range_meters":16000,"station_id":"ce4bh192rcd13ifvqdc0","pricing_plan_id":"cebpf4jnsgd1na2vs0mg"},{"bike_id":"38459f6a-034c-4bc7-9ad6-a5f483ad2390","system_id":"levelo_inurba_marseille","lat":43.2438,"lon":5.37085,"is_reserved":false,"is_disabled":false,"rental_uris":{"android":"levelo://app?vid=38459f6a-034c-4bc7-9ad6-a5f483ad2390","ios":"levelo://app?vid=38459f6a-034c-4bc7-9ad6-a5f483ad2390"},"vehicle_type_id":"4","last_reported":1745295109,"current_range_meters":16000,"station_id":"ce4bhhh2rcd13ifvqfk0","pricing_plan_id":"cebpf4jnsgd1na2vs0mg"},{"bike_id":"fe554ffa-b5ed-4d08-a812-c81614445734","system_id":"levelo_inurba_marseille","lat":43.28849,"lon":5.358439,"is_reserved":false,"is_disabled":false,"rental_uris":{"android":"levelo://app?vid=fe554ffa-b5ed-4d08-a812-c81614445734","ios":"levelo://app?vid=fe554ffa-b5ed-4d08-a812-c81614445734"},"vehicle_type_id":"4","last_reported":1745295109,"current_range_meters":16000,"station_id":"ce4bhb12rcd13ifvqem0","pricing_plan_id":"cebpf4jnsgd1na2vs0mg"},{"bike_id":"457b4425-2143-4d8d-ab07-86e97485e358","system_id":"levelo_inurba_marseille","lat":43.31974,"lon":5.38159,"is_reserved":false,"is_disabled":false,"rental_uris":{"android":"levelo://app?vid=457b4425-2143-4d8d-ab07-86e97485e358","ios":"levelo://app?vid=457b4425-2143-4d8d-ab07-86e97485e358"},"vehicle_type_id":"4","last_reported":1745295109,"current_range_meters":16400,"station_id":"ce4bhr12rcd13ifvqhpg","pricing_plan_id":"cebpf4jnsgd1na2vs0mg"},{"bike_id":"b94ce143-5dd7-45a3-b111-19f8d55c0056","system_id":"levelo_inurba_marseille","lat":43.30197,"lon":5.4379,"is_reserved":false,"is_disabled":false,"rental_uris":{"android":"levelo://app?vid=b94ce143-5dd7-45a3-b111-19f8d55c0056","ios":"levelo://app?vid=b94ce143-5dd7-45a3-b111-19f8d55c0056"},"vehicle_type_id":"4","last_reported":1745295109,"current_range_meters":16400,"station_id":"","pricing_plan_id":"cebpf4jnsgd1na2vs0mg"},{"bike_id":"d1a505ef-7473-49c5-bad8-0e2f929d6043","system_id":"levelo_inurba_marseille","lat":43.2796,"lon":5.4165,"is_reserved":false,"is_disabled":false,"rental_uris":{"android":"levelo://app?vid=d1a505ef-7473-49c5-bad8-0e2f929d6043","ios":"levelo://app?vid=d1a505ef-7473-49c5-bad8-0e2f929d6043"},"vehicle_type_id":"4","last_reported":1745295109,"current_range_meters":16400,"station_id":"ce4bho12rcd13ifvqh1g","pricing_plan_id":"cebpf4jnsgd1na2vs0mg"},{"bike_id":"0862c2a3-6791-42f2-9d93-d826d756298f","system_id":"levelo_inurba_marseille","lat":43.308918,"lon":5.396502,"is_reserved":false,"is_disabled":false,"rental_uris":{"android":"levelo://app?vid=0862c2a3-6791-42f2-9d93-d826d756298f","ios":"levelo://app?vid=0862c2a3-6791-42f2-9d93-d826d756298f"},"vehicle_type_id":"4","last_reported":1745295109,"current_range_meters":16400,"station_id":"ce4bh012rcd13ifvqcv0","pricing_plan_id":"cebpf4jnsgd1na2vs0mg"},{"bike_id":"85c5e05e-7712-409a-829b-75043230d454","system_id":"levelo_inurba_marseille","lat":43.30971,"lon":5.39052,"is_reserved":false,"is_disabled":false,"rental_uris":{"android":"levelo://app?vid=85c5e05e-7712-409a-829b-75043230d454","ios":"levelo://app?vid=85c5e05e-7712-409a-829b-75043230d454"},"vehicle_type_id":"4","last_reported":1745295109,"current_range_meters":16400,"station_id":"ce4bgup2rcd13ifvqco0","pricing_plan_id":"cebpf4jnsgd1na2vs0mg"},{"bike_id":"de9704f9-bc65-4f5a-9c6b-e4c83851fc93","system_id":"levelo_inurba_marseille","lat":43.217483,"lon":5.346011,"is_reserved":false,"is_disabled":true,"rental_uris":{"android":"levelo://app?vid=de9704f9-bc65-4f5a-9c6b-e4c83851fc93","ios":"levelo://app?vid=de9704f9-bc65-4f5a-9c6b-e4c83851fc93"},"vehicle_type_id":"4","last_reported":1745295109,"current_range_meters":16400,"station_id":"","pricing_plan_id":"cebpf4jnsgd1na2vs0mg"},{"bike_id":"7597983a-d80c-4b62-8d4f-8826b5806a32","system_id":"levelo_inurba_marseille","lat":43.29714,"lon":5.37707,"is_reserved":false,"is_disabled":false,"rental_uris":{"android":"levelo://app?vid=7597983a-d80c-4b62-8d4f-8826b5806a32","ios":"levelo://app?vid=7597983a-d80c-4b62-8d4f-8826b5806a32"},"vehicle_type_id":"4","last_reported":1745295109,"current_range_meters":16000,"station_id":"ce4bgkh2rcd13ifvqbl0","pricing_plan_id":"cebpf4jnsgd1na2vs0mg"},{"bike_id":"eb35f0ad-c433-4dc1-8d7d-8dd574839854","system_id":"levelo_inurba_marseille","lat":43.24062,"lon":5.37745,"is_reserved":false,"is_disabled":false,"rental_uris":{"android":"levelo://app?vid=eb35f0ad-c433-4dc1-8d7d-8dd574839854","ios":"levelo://app?vid=eb35f0ad-c433-4dc1-8d7d-8dd574839854"},"vehicle_type_id":"4","last_reported":1745295109,"current_range_meters":16400,"station_id":"ce4bhnp2rcd13ifvqgvg","pricing_plan_id":"cebpf4jnsgd1na2vs0mg"},{"bike_id":"1f1f9885-6e62-4243-a5b0-45be9ddf4073","system_id":"levelo_inurba_marseille","lat":43.239604,"lon":5.366232,"is_reserved":false,"is_disabled":true,"rental_uris":{"android":"levelo://app?vid=1f1f9885-6e62-4243-a5b0-45be9ddf4073","ios":"levelo://app?vid=1f1f9885-6e62-4243-a5b0-45be9ddf4073"},"vehicle_type_id":"4","last_reported":1745295109,"current_range_meters":16400,"station_id":"ce4bhi12rcd13ifvqfp0","pricing_plan_id":"cebpf4jnsgd1na2vs0mg"},{"bike_id":"67f63153-bd63-4c57-a2cb-95fa14067c52","system_id":"levelo_inurba_marseille","lat":43.29514,"lon":5.39405,"is_reserved":false,"is_disabled":false,"rental_uris":{"android":"levelo://app?vid=67f63153-bd63-4c57-a2cb-95fa14067c52","ios":"levelo://app?vid=67f63153-bd63-4c57-a2cb-95fa14067c52"},"vehicle_type_id":"4","last_reported":1745295109,"current_range_meters":16800,"station_id":"ce4bh292rcd13ifvqdf0","pricing_plan_id":"cebpf4jnsgd1na2vs0mg"},{"bike_id":"ac2082c6-18ff-4d80-a328-e29457c661d9","system_id":"levelo_inurba_marseille","lat":43.31067,"lon":5.38362,"is_reserved":false,"is_disabled":false,"rental_uris":{"android":"levelo://app?vid=ac2082c6-18ff-4d80-a328-e29457c661d9","ios":"levelo://app?vid=ac2082c6-18ff-4d80-a328-e29457c661d9"},"vehicle_type_id":"4","last_reported":1745295109,"current_range_meters":16800,"station_id":"ce4bgv92rcd13ifvqcr0","pricing_plan_id":"cebpf4jnsgd1na2vs0mg"},{"bike_id":"efa113e4-6fbe-480a-846c-830bcd7b6f11","system_id":"levelo_inurba_marseille","lat":43.297891,"lon":5.393418,"is_reserved":false,"is_disabled":false,"rental_uris":{"android":"levelo://app?vid=efa113e4-6fbe-480a-846c-830bcd7b6f11","ios":"levelo://app?vid=efa113e4-6fbe-480a-846c-830bcd7b6f11"},"vehicle_type_id":"4","last_reported":1745295109,"current_range_meters":16800,"station_id":"chh1huq6cuj3fo74tm60","pricing_plan_id":"cebpf4jnsgd1na2vs0mg"},{"bike_id":"d5312e91-790a-4952-9d4c-970327cc40c0","system_id":"levelo_inurba_marseille","lat":43.314975,"lon":5.373038,"is_reserved":false,"is_disabled":false,"rental_uris":{"android":"levelo://app?vid=d5312e91-790a-4952-9d4c-970327cc40c0","ios":"levelo://app?vid=d5312e91-790a-4952-9d4c-970327cc40c0"},"vehicle_type_id":"4","last_reported":1745295109,"current_range_meters":16800,"station_id":"ce4bgt12rcd13ifvqcd0","pricing_plan_id":"cebpf4jnsgd1na2vs0mg"},{"bike_id":"783e8ee7-8e02-4c36-92ae-ffc32956093e","system_id":"levelo_inurba_marseille","lat":43.307923,"lon":5.381615,"is_reserved":false,"is_disabled":false,"rental_uris":{"android":"levelo://app?vid=783e8ee7-8e02-4c36-92ae-ffc32956093e","ios":"levelo://app?vid=783e8ee7-8e02-4c36-92ae-ffc32956093e"},"vehicle_type_id":"4","last_reported":1745295109,"current_range_meters":16800,"station_id":"ce4bgt12rcd13ifvqce0","pricing_plan_id":"cebpf4jnsgd1na2vs0mg"},{"bike_id":"0555710f-732a-440e-b51e-8edb070ee7e9","system_id":"levelo_inurba_marseille","lat":43.29884,"lon":5.389038,"is_reserved":false,"is_disabled":false,"rental_uris":{"android":"levelo://app?vid=0555710f-732a-440e-b51e-8edb070ee7e9","ios":"levelo://app?vid=0555710f-732a-440e-b51e-8edb070ee7e9"},"vehicle_type_id":"4","last_reported":1745295109,"current_range_meters":17200,"station_id":"ce4bh392rcd13ifvqdl0","pricing_plan_id":"cebpf4jnsgd1na2vs0mg"},{"bike_id":"f4217dd9-55f7-498f-a5c0-8f8701b3bd47","system_id":"levelo_inurba_marseille","lat":43.29628,"lon":5.40613,"is_reserved":false,"is_disabled":false,"rental_uris":{"android":"levelo://app?vid=f4217dd9-55f7-498f-a5c0-8f8701b3bd47","ios":"levelo://app?vid=f4217dd9-55f7-498f-a5c0-8f8701b3bd47"},"vehicle_type_id":"4","last_reported":1745295109,"current_range_meters":17200,"station_id":"ce4bh0h2rcd13ifvqd60","pricing_plan_id":"cebpf4jnsgd1na2vs0mg"},{"bike_id":"4f750d7b-66e9-4360-bedf-9116f4f068dc","system_id":"levelo_inurba_marseille","lat":43.29179,"lon":5.3934,"is_reserved":false,"is_disabled":false,"rental_uris":{"android":"levelo://app?vid=4f750d7b-66e9-4360-bedf-9116f4f068dc","ios":"levelo://app?vid=4f750d7b-66e9-4360-bedf-9116f4f068dc"},"vehicle_type_id":"4","last_reported":1745295109,"current_range_meters":17200,"station_id":"ce4bh192rcd13ifvqdd0","pricing_plan_id":"cebpf4jnsgd1na2vs0mg"},{"bike_id":"584387b4-187d-4f80-b338-fcdc107989ef","system_id":"levelo_inurba_marseille","lat":43.24743,"lon":5.4117,"is_reserved":false,"is_disabled":false,"rental_uris":{"android":"levelo://app?vid=584387b4-187d-4f80-b338-fcdc107989ef","ios":"levelo://app?vid=584387b4-187d-4f80-b338-fcdc107989ef"},"vehicle_type_id":"4","last_reported":1745295109,"current_range_meters":17200,"station_id":"","pricing_plan_id":"cebpf4jnsgd1na2vs0mg"},{"bike_id":"3ac21a61-1f65-46e2-9a5a-81d628d5aeb0","system_id":"levelo_inurba_marseille","lat":43.314908,"lon":5.373065,"is_reserved":false,"is_disabled":false,"rental_uris":{"android":"levelo://app?vid=3ac21a61-1f65-46e2-9a5a-81d628d5aeb0","ios":"levelo://app?vid=3ac21a61-1f65-46e2-9a5a-81d628d5aeb0"},"vehicle_type_id":"4","last_reported":1745295109,"current_range_meters":17600,"station_id":"ce4bgt12rcd13ifvqcd0","pricing_plan_id":"cebpf4jnsgd1na2vs0mg"},{"bike_id":"6c238e44-7be5-423e-a02e-d2afb2f0beec","system_id":"levelo_inurba_marseille","lat":43.31165,"lon":5.38727,"is_reserved":false,"is_disabled":false,"rental_uris":{"android":"levelo://app?vid=6c238e44-7be5-423e-a02e-d2afb2f0beec","ios":"levelo://app?vid=6c238e44-7be5-423e-a02e-d2afb2f0beec"},"vehicle_type_id":"4","last_reported":1745295109,"current_range_meters":18000,"station_id":"ce4bgv12rcd13ifvqcp0","pricing_plan_id":"cebpf4jnsgd1na2vs0mg"},{"bike_id":"1b06bef2-142e-4557-810a-fc865fa25a0b","system_id":"levelo_inurba_marseille","lat":43.26545,"lon":5.37338,"is_reserved":false,"is_disabled":true,"rental_uris":{"android":"levelo://app?vid=1b06bef2-142e-4557-810a-fc865fa25a0b","ios":"levelo://app?vid=1b06bef2-142e-4557-810a-fc865fa25a0b"},"vehicle_type_id":"4","last_reported":1745295109,"current_range_meters":18000,"station_id":"ce4bhg12rcd13ifvqf70","pricing_plan_id":"cebpf4jnsgd1na2vs0mg"},{"bike_id":"c7f6877f-a7e6-472f-946b-614814d467fe","system_id":"levelo_inurba_marseille","lat":43.30138,"lon":5.38084,"is_reserved":false,"is_disabled":false,"rental_uris":{"android":"levelo://app?vid=c7f6877f-a7e6-472f-946b-614814d467fe","ios":"levelo://app?vid=c7f6877f-a7e6-472f-946b-614814d467fe"},"vehicle_type_id":"4","last_reported":1745295109,"current_range_meters":18000,"station_id":"ce4bgjp2rcd13ifvqbh0","pricing_plan_id":"cebpf4jnsgd1na2vs0mg"},{"bike_id":"d01df6a6-b745-430f-aed3-8244c27e3204","system_id":"levelo_inurba_marseille","lat":43.28337,"lon":5.38104,"is_reserved":false,"is_disabled":false,"rental_uris":{"android":"levelo://app?vid=d01df6a6-b745-430f-aed3-8244c27e3204","ios":"levelo://app?vid=d01df6a6-b745-430f-aed3-8244c27e3204"},"vehicle_type_id":"4","last_reported":1745295109,"current_range_meters":18000,"station_id":"ce4bh412rcd13ifvqdr0","pricing_plan_id":"cebpf4jnsgd1na2vs0mg"},{"bike_id":"aba5fb3e-be38-4cda-830a-07f38c54b831","system_id":"levelo_inurba_marseille","lat":43.27938,"lon":5.41054,"is_reserved":false,"is_disabled":false,"rental_uris":{"android":"levelo://app?vid=aba5fb3e-be38-4cda-830a-07f38c54b831","ios":"levelo://app?vid=aba5fb3e-be38-4cda-830a-07f38c54b831"},"vehicle_type_id":"4","last_reported":1745295109,"current_range_meters":18000,"station_id":"ce4bhnp2rcd13ifvqh0g","pricing_plan_id":"cebpf4jnsgd1na2vs0mg"},{"bike_id":"3ff95dfb-cc8b-40ac-8dc3-7a934f78150b","system_id":"levelo_inurba_marseille","lat":43.30246,"lon":5.40122,"is_reserved":false,"is_disabled":false,"rental_uris":{"android":"levelo://app?vid=3ff95dfb-cc8b-40ac-8dc3-7a934f78150b","ios":"levelo://app?vid=3ff95dfb-cc8b-40ac-8dc3-7a934f78150b"},"vehicle_type_id":"4","last_reported":1745295109,"current_range_meters":18000,"station_id":"ce4bgvh2rcd13ifvqcs0","pricing_plan_id":"cebpf4jnsgd1na2vs0mg"},{"bike_id":"79229100-948a-407c-9f3d-d24dc0dcb252","system_id":"levelo_inurba_marseille","lat":43.265513,"lon":5.37296,"is_reserved":false,"is_disabled":true,"rental_uris":{"android":"levelo://app?vid=79229100-948a-407c-9f3d-d24dc0dcb252","ios":"levelo://app?vid=79229100-948a-407c-9f3d-d24dc0dcb252"},"vehicle_type_id":"4","last_reported":1745295109,"current_range_meters":18000,"station_id":"ce4bhg12rcd13ifvqf70","pricing_plan_id":"cebpf4jnsgd1na2vs0mg"},{"bike_id":"1b84bfe3-cae7-4cb8-be32-9cbeef2186cf","system_id":"levelo_inurba_marseille","lat":43.30889,"lon":5.37179,"is_reserved":false,"is_disabled":false,"rental_uris":{"android":"levelo://app?vid=1b84bfe3-cae7-4cb8-be32-9cbeef2186cf","ios":"levelo://app?vid=1b84bfe3-cae7-4cb8-be32-9cbeef2186cf"},"vehicle_type_id":"4","last_reported":1745295109,"current_range_meters":18000,"station_id":"ce4bguh2rcd13ifvqckg","pricing_plan_id":"cebpf4jnsgd1na2vs0mg"},{"bike_id":"27166011-9659-43f9-9d49-c158ddc3e57c","system_id":"levelo_inurba_marseille","lat":43.24167,"lon":5.39698,"is_reserved":false,"is_disabled":false,"rental_uris":{"android":"levelo://app?vid=27166011-9659-43f9-9d49-c158ddc3e57c","ios":"levelo://app?vid=27166011-9659-43f9-9d49-c158ddc3e57c"},"vehicle_type_id":"4","last_reported":1745295109,"current_range_meters":18000,"station_id":"ce4bhn12rcd13ifvqgpg","pricing_plan_id":"cebpf4jnsgd1na2vs0mg"},{"bike_id":"258b0b4c-5b99-4570-a859-adeda5b62274","system_id":"levelo_inurba_marseille","lat":43.29281,"lon":5.40178,"is_reserved":false,"is_disabled":false,"rental_uris":{"android":"levelo://app?vid=258b0b4c-5b99-4570-a859-adeda5b62274","ios":"levelo://app?vid=258b0b4c-5b99-4570-a859-adeda5b62274"},"vehicle_type_id":"4","last_reported":1745295109,"current_range_meters":18000,"station_id":"","pricing_plan_id":"cebpf4jnsgd1na2vs0mg"},{"bike_id":"5aee7c73-e3ed-4c26-aa0f-d214150e67e5","system_id":"levelo_inurba_marseille","lat":43.23958,"lon":5.36663,"is_reserved":false,"is_disabled":true,"rental_uris":{"android":"levelo://app?vid=5aee7c73-e3ed-4c26-aa0f-d214150e67e5","ios":"levelo://app?vid=5aee7c73-e3ed-4c26-aa0f-d214150e67e5"},"vehicle_type_id":"4","last_reported":1745295109,"current_range_meters":18000,"station_id":"ce4bhi12rcd13ifvqfp0","pricing_plan_id":"cebpf4jnsgd1na2vs0mg"},{"bike_id":"178a8772-42ae-427d-97c6-cb956128d797","system_id":"levelo_inurba_marseille","lat":43.2803,"lon":5.36952,"is_reserved":false,"is_disabled":false,"rental_uris":{"android":"levelo://app?vid=178a8772-42ae-427d-97c6-cb956128d797","ios":"levelo://app?vid=178a8772-42ae-427d-97c6-cb956128d797"},"vehicle_type_id":"4","last_reported":1745295109,"current_range_meters":18000,"station_id":"ce4bha12rcd13ifvqef0","pricing_plan_id":"cebpf4jnsgd1na2vs0mg"},{"bike_id":"be305559-a7ce-4a1b-b9f4-776f06beb273","system_id":"levelo_inurba_marseille","lat":43.28478,"lon":5.3842,"is_reserved":false,"is_disabled":false,"rental_uris":{"android":"levelo://app?vid=be305559-a7ce-4a1b-b9f4-776f06beb273","ios":"levelo://app?vid=be305559-a7ce-4a1b-b9f4-776f06beb273"},"vehicle_type_id":"4","last_reported":1745295109,"current_range_meters":18800,"station_id":"ce4bh512rcd13ifvqe3g","pricing_plan_id":"cebpf4jnsgd1na2vs0mg"},{"bike_id":"98c1a7d8-e077-4271-82f8-42e14f36d05c","system_id":"levelo_inurba_marseille","lat":43.292827,"lon":5.401243,"is_reserved":false,"is_disabled":false,"rental_uris":{"android":"levelo://app?vid=98c1a7d8-e077-4271-82f8-42e14f36d05c","ios":"levelo://app?vid=98c1a7d8-e077-4271-82f8-42e14f36d05c"},"vehicle_type_id":"4","last_reported":1745295109,"current_range_meters":18800,"station_id":"ce4bh312rcd13ifvqdk0","pricing_plan_id":"cebpf4jnsgd1na2vs0mg"},{"bike_id":"8489ce70-01ca-4d70-b34d-50233af9280f","system_id":"levelo_inurba_marseille","lat":43.29516,"lon":5.39412,"is_reserved":false,"is_disabled":false,"rental_uris":{"android":"levelo://app?vid=8489ce70-01ca-4d70-b34d-50233af9280f","ios":"levelo://app?vid=8489ce70-01ca-4d70-b34d-50233af9280f"},"vehicle_type_id":"4","last_reported":1745295109,"current_range_meters":18800,"station_id":"ce4bh292rcd13ifvqdf0","pricing_plan_id":"cebpf4jnsgd1na2vs0mg"},{"bike_id":"bfb6a197-fb29-40f0-a2e8-984f700e18b4","system_id":"levelo_inurba_marseille","lat":43.34133,"lon":5.40906,"is_reserved":false,"is_disabled":false,"rental_uris":{"android":"levelo://app?vid=bfb6a197-fb29-40f0-a2e8-984f700e18b4","ios":"levelo://app?vid=bfb6a197-fb29-40f0-a2e8-984f700e18b4"},"vehicle_type_id":"4","last_reported":1745295109,"current_range_meters":18800,"station_id":"ce4bhqh2rcd13ifvqhlg","pricing_plan_id":"cebpf4jnsgd1na2vs0mg"},{"bike_id":"3eeaa5ee-7282-4572-8d60-4d266c5d718f","system_id":"levelo_inurba_marseille","lat":43.21195,"lon":5.3508,"is_reserved":false,"is_disabled":true,"rental_uris":{"android":"levelo://app?vid=3eeaa5ee-7282-4572-8d60-4d266c5d718f","ios":"levelo://app?vid=3eeaa5ee-7282-4572-8d60-4d266c5d718f"},"vehicle_type_id":"4","last_reported":1745295109,"current_range_meters":18800,"station_id":"","pricing_plan_id":"cebpf4jnsgd1na2vs0mg"},{"bike_id":"e0ed866d-3aa8-4a3a-887d-34616074a025","system_id":"levelo_inurba_marseille","lat":43.28428,"lon":5.37519,"is_reserved":false,"is_disabled":false,"rental_uris":{"android":"levelo://app?vid=e0ed866d-3aa8-4a3a-887d-34616074a025","ios":"levelo://app?vid=e0ed866d-3aa8-4a3a-887d-34616074a025"},"vehicle_type_id":"4","last_reported":1745295109,"current_range_meters":18800,"station_id":"ce4bh412rcd13ifvqds0","pricing_plan_id":"cebpf4jnsgd1na2vs0mg"},{"bike_id":"9364fd95-471d-4c2c-87b7-5f02fd1dfadd","system_id":"levelo_inurba_marseille","lat":43.28691,"lon":5.40053,"is_reserved":false,"is_disabled":false,"rental_uris":{"android":"levelo://app?vid=9364fd95-471d-4c2c-87b7-5f02fd1dfadd","ios":"levelo://app?vid=9364fd95-471d-4c2c-87b7-5f02fd1dfadd"},"vehicle_type_id":"4","last_reported":1745295109,"current_range_meters":19200,"station_id":"","pricing_plan_id":"cebpf4jnsgd1na2vs0mg"},{"bike_id":"5fa42bc2-b30c-4535-ad7e-76477c018241","system_id":"levelo_inurba_marseille","lat":43.269399,"lon":5.402453,"is_reserved":false,"is_disabled":false,"rental_uris":{"android":"levelo://app?vid=5fa42bc2-b30c-4535-ad7e-76477c018241","ios":"levelo://app?vid=5fa42bc2-b30c-4535-ad7e-76477c018241"},"vehicle_type_id":"4","last_reported":1745295109,"current_range_meters":19200,"station_id":"cjm6bp8fraef2m0cb0m0","pricing_plan_id":"cebpf4jnsgd1na2vs0mg"},{"bike_id":"7b2dc864-a4e9-468c-9cee-f3075a20977d","system_id":"levelo_inurba_marseille","lat":43.31496,"lon":5.37304,"is_reserved":false,"is_disabled":true,"rental_uris":{"android":"levelo://app?vid=7b2dc864-a4e9-468c-9cee-f3075a20977d","ios":"levelo://app?vid=7b2dc864-a4e9-468c-9cee-f3075a20977d"},"vehicle_type_id":"4","last_reported":1745295109,"current_range_meters":19200,"station_id":"ce4bgt12rcd13ifvqcd0","pricing_plan_id":"cebpf4jnsgd1na2vs0mg"},{"bike_id":"99b87c40-0751-4c05-a832-0d5c755bc822","system_id":"levelo_inurba_marseille","lat":43.29275,"lon":5.40129,"is_reserved":false,"is_disabled":false,"rental_uris":{"android":"levelo://app?vid=99b87c40-0751-4c05-a832-0d5c755bc822","ios":"levelo://app?vid=99b87c40-0751-4c05-a832-0d5c755bc822"},"vehicle_type_id":"4","last_reported":1745295109,"current_range_meters":19200,"station_id":"ce4bh312rcd13ifvqdk0","pricing_plan_id":"cebpf4jnsgd1na2vs0mg"},{"bike_id":"3d1afb70-2282-4946-ba64-9d417eff0bda","system_id":"levelo_inurba_marseille","lat":43.3029,"lon":5.39189,"is_reserved":false,"is_disabled":false,"rental_uris":{"android":"levelo://app?vid=3d1afb70-2282-4946-ba64-9d417eff0bda","ios":"levelo://app?vid=3d1afb70-2282-4946-ba64-9d417eff0bda"},"vehicle_type_id":"4","last_reported":1745295109,"current_range_meters":19200,"station_id":"ce4bgkh2rcd13ifvqbk0","pricing_plan_id":"cebpf4jnsgd1na2vs0mg"},{"bike_id":"7aca1411-9915-4f5d-970a-e8f316d62219","system_id":"levelo_inurba_marseille","lat":43.29188,"lon":5.39319,"is_reserved":false,"is_disabled":false,"rental_uris":{"android":"levelo://app?vid=7aca1411-9915-4f5d-970a-e8f316d62219","ios":"levelo://app?vid=7aca1411-9915-4f5d-970a-e8f316d62219"},"vehicle_type_id":"4","last_reported":1745295109,"current_range_meters":19200,"station_id":"ce4bh192rcd13ifvqdd0","pricing_plan_id":"cebpf4jnsgd1na2vs0mg"},{"bike_id":"1b903b38-38de-4714-9a2c-59836acfa168","system_id":"levelo_inurba_marseille","lat":43.31713,"lon":5.43698,"is_reserved":false,"is_disabled":true,"rental_uris":{"android":"levelo://app?vid=1b903b38-38de-4714-9a2c-59836acfa168","ios":"levelo://app?vid=1b903b38-38de-4714-9a2c-59836acfa168"},"vehicle_type_id":"4","last_reported":1745295109,"current_range_meters":19200,"station_id":"ce4bhp92rcd13ifvqhcg","pricing_plan_id":"cebpf4jnsgd1na2vs0mg"},{"bike_id":"aacbab09-12e8-48ab-ab2b-622a9e40fabb","system_id":"levelo_inurba_marseille","lat":43.269429,"lon":5.402509,"is_reserved":false,"is_disabled":false,"rental_uris":{"android":"levelo://app?vid=aacbab09-12e8-48ab-ab2b-622a9e40fabb","ios":"levelo://app?vid=aacbab09-12e8-48ab-ab2b-622a9e40fabb"},"vehicle_type_id":"4","last_reported":1745295109,"current_range_meters":19600,"station_id":"cjm6bp8fraef2m0cb0m0","pricing_plan_id":"cebpf4jnsgd1na2vs0mg"},{"bike_id":"98bae8a6-0de7-453b-a31e-d119779cf78e","system_id":"levelo_inurba_marseille","lat":43.28846,"lon":5.35814,"is_reserved":false,"is_disabled":false,"rental_uris":{"android":"levelo://app?vid=98bae8a6-0de7-453b-a31e-d119779cf78e","ios":"levelo://app?vid=98bae8a6-0de7-453b-a31e-d119779cf78e"},"vehicle_type_id":"4","last_reported":1745295109,"current_range_meters":19600,"station_id":"ce4bhb12rcd13ifvqem0","pricing_plan_id":"cebpf4jnsgd1na2vs0mg"},{"bike_id":"080497d0-a075-4355-8487-fd3a3c1df99b","system_id":"levelo_inurba_marseille","lat":43.3371,"lon":5.39211,"is_reserved":false,"is_disabled":false,"rental_uris":{"android":"levelo://app?vid=080497d0-a075-4355-8487-fd3a3c1df99b","ios":"levelo://app?vid=080497d0-a075-4355-8487-fd3a3c1df99b"},"vehicle_type_id":"4","last_reported":1745295109,"current_range_meters":19600,"station_id":"ce4bhr92rcd13ifvqhsg","pricing_plan_id":"cebpf4jnsgd1na2vs0mg"},{"bike_id":"17d94bf2-3173-4d6a-b6b6-abb922d18dbe","system_id":"levelo_inurba_marseille","lat":43.313285,"lon":5.397134,"is_reserved":false,"is_disabled":false,"rental_uris":{"android":"levelo://app?vid=17d94bf2-3173-4d6a-b6b6-abb922d18dbe","ios":"levelo://app?vid=17d94bf2-3173-4d6a-b6b6-abb922d18dbe"},"vehicle_type_id":"4","last_reported":1745295109,"current_range_meters":19600,"station_id":"ce4bgvp2rcd13ifvqcu0","pricing_plan_id":"cebpf4jnsgd1na2vs0mg"},{"bike_id":"84ed2209-c14c-412e-8cfb-2294751b7fff","system_id":"levelo_inurba_marseille","lat":43.30318,"lon":5.40462,"is_reserved":false,"is_disabled":false,"rental_uris":{"android":"levelo://app?vid=84ed2209-c14c-412e-8cfb-2294751b7fff","ios":"levelo://app?vid=84ed2209-c14c-412e-8cfb-2294751b7fff"},"vehicle_type_id":"4","last_reported":1745295109,"current_range_meters":19600,"station_id":"ce4bh012rcd13ifvqd10","pricing_plan_id":"cebpf4jnsgd1na2vs0mg"},{"bike_id":"28f798a3-56f2-4fbf-b12d-c540c66dbab9","system_id":"levelo_inurba_marseille","lat":43.3377,"lon":5.3746,"is_reserved":false,"is_disabled":false,"rental_uris":{"android":"levelo://app?vid=28f798a3-56f2-4fbf-b12d-c540c66dbab9","ios":"levelo://app?vid=28f798a3-56f2-4fbf-b12d-c540c66dbab9"},"vehicle_type_id":"4","last_reported":1745295109,"current_range_meters":20000,"station_id":"","pricing_plan_id":"cebpf4jnsgd1na2vs0mg"},{"bike_id":"41256598-945a-4074-82f8-1ae4e9bcdf44","system_id":"levelo_inurba_marseille","lat":43.285706,"lon":5.395006,"is_reserved":false,"is_disabled":false,"rental_uris":{"android":"levelo://app?vid=41256598-945a-4074-82f8-1ae4e9bcdf44","ios":"levelo://app?vid=41256598-945a-4074-82f8-1ae4e9bcdf44"},"vehicle_type_id":"4","last_reported":1745295109,"current_range_meters":20000,"station_id":"ce4bh292rcd13ifvqdg0","pricing_plan_id":"cebpf4jnsgd1na2vs0mg"},{"bike_id":"796f584e-d0e0-46a8-ac52-777edabbde1a","system_id":"levelo_inurba_marseille","lat":43.311195,"lon":5.377661,"is_reserved":false,"is_disabled":false,"rental_uris":{"android":"levelo://app?vid=796f584e-d0e0-46a8-ac52-777edabbde1a","ios":"levelo://app?vid=796f584e-d0e0-46a8-ac52-777edabbde1a"},"vehicle_type_id":"4","last_reported":1745295109,"current_range_meters":20000,"station_id":"ce4bgt92rcd13ifvqcg0","pricing_plan_id":"cebpf4jnsgd1na2vs0mg"},{"bike_id":"b6de26b1-605b-42ce-b093-79d53dd0959d","system_id":"levelo_inurba_marseille","lat":43.2798,"lon":5.38749,"is_reserved":false,"is_disabled":false,"rental_uris":{"android":"levelo://app?vid=b6de26b1-605b-42ce-b093-79d53dd0959d","ios":"levelo://app?vid=b6de26b1-605b-42ce-b093-79d53dd0959d"},"vehicle_type_id":"4","last_reported":1745295109,"current_range_meters":20000,"station_id":"ce4bhg12rcd13ifvqf80","pricing_plan_id":"cebpf4jnsgd1na2vs0mg"},{"bike_id":"78596189-9b2b-48ef-84e5-2f8f30158d3e","system_id":"levelo_inurba_marseille","lat":43.28451,"lon":5.35897,"is_reserved":false,"is_disabled":false,"rental_uris":{"android":"levelo://app?vid=78596189-9b2b-48ef-84e5-2f8f30158d3e","ios":"levelo://app?vid=78596189-9b2b-48ef-84e5-2f8f30158d3e"},"vehicle_type_id":"4","last_reported":1745295109,"current_range_meters":20000,"station_id":"ce4bhah2rcd13ifvqei0","pricing_plan_id":"cebpf4jnsgd1na2vs0mg"},{"bike_id":"22ad8cd8-448d-4f6e-b2fe-740f8d592dd7","system_id":"levelo_inurba_marseille","lat":43.29982,"lon":5.37257,"is_reserved":false,"is_disabled":false,"rental_uris":{"android":"levelo://app?vid=22ad8cd8-448d-4f6e-b2fe-740f8d592dd7","ios":"levelo://app?vid=22ad8cd8-448d-4f6e-b2fe-740f8d592dd7"},"vehicle_type_id":"4","last_reported":1745295109,"current_range_meters":20400,"station_id":"","pricing_plan_id":"cebpf4jnsgd1na2vs0mg"},{"bike_id":"1fb71ef3-a7f4-476e-b74f-9a9a8fc4664d","system_id":"levelo_inurba_marseille","lat":43.30877,"lon":5.39639,"is_reserved":false,"is_disabled":false,"rental_uris":{"android":"levelo://app?vid=1fb71ef3-a7f4-476e-b74f-9a9a8fc4664d","ios":"levelo://app?vid=1fb71ef3-a7f4-476e-b74f-9a9a8fc4664d"},"vehicle_type_id":"4","last_reported":1745295109,"current_range_meters":20400,"station_id":"ce4bh012rcd13ifvqcv0","pricing_plan_id":"cebpf4jnsgd1na2vs0mg"},{"bike_id":"db7e17fe-6d0a-4d36-b838-2d92865e16d0","system_id":"levelo_inurba_marseille","lat":43.322874,"lon":5.382747,"is_reserved":false,"is_disabled":false,"rental_uris":{"android":"levelo://app?vid=db7e17fe-6d0a-4d36-b838-2d92865e16d0","ios":"levelo://app?vid=db7e17fe-6d0a-4d36-b838-2d92865e16d0"},"vehicle_type_id":"4","last_reported":1745295109,"current_range_meters":20800,"station_id":"ce4bhr12rcd13ifvqhqg","pricing_plan_id":"cebpf4jnsgd1na2vs0mg"},{"bike_id":"2c660b5d-01e5-4453-a19f-67ece0e25071","system_id":"levelo_inurba_marseille","lat":43.240661,"lon":5.377575,"is_reserved":false,"is_disabled":false,"rental_uris":{"android":"levelo://app?vid=2c660b5d-01e5-4453-a19f-67ece0e25071","ios":"levelo://app?vid=2c660b5d-01e5-4453-a19f-67ece0e25071"},"vehicle_type_id":"4","last_reported":1745295109,"current_range_meters":20800,"station_id":"ce4bhnp2rcd13ifvqgvg","pricing_plan_id":"cebpf4jnsgd1na2vs0mg"},{"bike_id":"88bf37e5-1cb9-46e5-8acf-554dd4451f7d","system_id":"levelo_inurba_marseille","lat":43.27054,"lon":5.42298,"is_reserved":false,"is_disabled":false,"rental_uris":{"android":"levelo://app?vid=88bf37e5-1cb9-46e5-8acf-554dd4451f7d","ios":"levelo://app?vid=88bf37e5-1cb9-46e5-8acf-554dd4451f7d"},"vehicle_type_id":"4","last_reported":1745295109,"current_range_meters":20800,"station_id":"ce4bhk92rcd13ifvqgb0","pricing_plan_id":"cebpf4jnsgd1na2vs0mg"},{"bike_id":"0f14c987-efee-48fa-af1b-2096962b84e3","system_id":"levelo_inurba_marseille","lat":43.24066,"lon":5.38772,"is_reserved":false,"is_disabled":false,"rental_uris":{"android":"levelo://app?vid=0f14c987-efee-48fa-af1b-2096962b84e3","ios":"levelo://app?vid=0f14c987-efee-48fa-af1b-2096962b84e3"},"vehicle_type_id":"4","last_reported":1745295109,"current_range_meters":20800,"station_id":"","pricing_plan_id":"cebpf4jnsgd1na2vs0mg"},{"bike_id":"fc5fa76e-3be5-4df9-8c7d-269c9317919e","system_id":"levelo_inurba_marseille","lat":43.286948,"lon":5.400199,"is_reserved":false,"is_disabled":false,"rental_uris":{"android":"levelo://app?vid=fc5fa76e-3be5-4df9-8c7d-269c9317919e","ios":"levelo://app?vid=fc5fa76e-3be5-4df9-8c7d-269c9317919e"},"vehicle_type_id":"4","last_reported":1745295109,"current_range_meters":20800,"station_id":"ce4bho92rcd13ifvqh3g","pricing_plan_id":"cebpf4jnsgd1na2vs0mg"},{"bike_id":"68a0a858-f03b-40e6-810c-6b9af8027519","system_id":"levelo_inurba_marseille","lat":43.31124,"lon":5.37779,"is_reserved":false,"is_disabled":false,"rental_uris":{"android":"levelo://app?vid=68a0a858-f03b-40e6-810c-6b9af8027519","ios":"levelo://app?vid=68a0a858-f03b-40e6-810c-6b9af8027519"},"vehicle_type_id":"4","last_reported":1745295109,"current_range_meters":20800,"station_id":"ce4bgt92rcd13ifvqcg0","pricing_plan_id":"cebpf4jnsgd1na2vs0mg"},{"bike_id":"20ede925-27e6-407f-8bf5-4c244f8341b4","system_id":"levelo_inurba_marseille","lat":43.24175,"lon":5.36392,"is_reserved":false,"is_disabled":false,"rental_uris":{"android":"levelo://app?vid=20ede925-27e6-407f-8bf5-4c244f8341b4","ios":"levelo://app?vid=20ede925-27e6-407f-8bf5-4c244f8341b4"},"vehicle_type_id":"4","last_reported":1745295109,"current_range_meters":21600,"station_id":"cpo36qri1sfpv3e86is0","pricing_plan_id":"cebpf4jnsgd1na2vs0mg"},{"bike_id":"6382d094-23f2-4d1e-9fc5-0b03894a7c4d","system_id":"levelo_inurba_marseille","lat":43.30419,"lon":5.3975,"is_reserved":false,"is_disabled":true,"rental_uris":{"android":"levelo://app?vid=6382d094-23f2-4d1e-9fc5-0b03894a7c4d","ios":"levelo://app?vid=6382d094-23f2-4d1e-9fc5-0b03894a7c4d"},"vehicle_type_id":"4","last_reported":1745295109,"current_range_meters":21600,"station_id":"ce4bh092rcd13ifvqd20","pricing_plan_id":"cebpf4jnsgd1na2vs0mg"},{"bike_id":"3444424c-f460-4b03-800f-a98e29c81f69","system_id":"levelo_inurba_marseille","lat":43.287101,"lon":5.399794,"is_reserved":false,"is_disabled":false,"rental_uris":{"android":"levelo://app?vid=3444424c-f460-4b03-800f-a98e29c81f69","ios":"levelo://app?vid=3444424c-f460-4b03-800f-a98e29c81f69"},"vehicle_type_id":"4","last_reported":1745295109,"current_range_meters":22000,"station_id":"ce4bho92rcd13ifvqh3g","pricing_plan_id":"cebpf4jnsgd1na2vs0mg"},{"bike_id":"19bd6481-e42b-4f2f-8596-4963547c74ad","system_id":"levelo_inurba_marseille","lat":43.31474,"lon":5.37288,"is_reserved":false,"is_disabled":false,"rental_uris":{"android":"levelo://app?vid=19bd6481-e42b-4f2f-8596-4963547c74ad","ios":"levelo://app?vid=19bd6481-e42b-4f2f-8596-4963547c74ad"},"vehicle_type_id":"4","last_reported":1745295109,"current_range_meters":22000,"station_id":"ce4bgt12rcd13ifvqcd0","pricing_plan_id":"cebpf4jnsgd1na2vs0mg"},{"bike_id":"303b83d6-b59d-4120-86b5-a0449d051209","system_id":"levelo_inurba_marseille","lat":43.287106,"lon":5.399849,"is_reserved":false,"is_disabled":false,"rental_uris":{"android":"levelo://app?vid=303b83d6-b59d-4120-86b5-a0449d051209","ios":"levelo://app?vid=303b83d6-b59d-4120-86b5-a0449d051209"},"vehicle_type_id":"4","last_reported":1745295109,"current_range_meters":22000,"station_id":"ce4bho92rcd13ifvqh3g","pricing_plan_id":"cebpf4jnsgd1na2vs0mg"},{"bike_id":"9914a6f5-f88a-4de1-9259-2681d0d4d432","system_id":"levelo_inurba_marseille","lat":43.28413,"lon":5.37518,"is_reserved":false,"is_disabled":false,"rental_uris":{"android":"levelo://app?vid=9914a6f5-f88a-4de1-9259-2681d0d4d432","ios":"levelo://app?vid=9914a6f5-f88a-4de1-9259-2681d0d4d432"},"vehicle_type_id":"4","last_reported":1745295109,"current_range_meters":22000,"station_id":"ce4bh412rcd13ifvqds0","pricing_plan_id":"cebpf4jnsgd1na2vs0mg"},{"bike_id":"43f69d8d-df5e-425e-b41d-bcc37ca62603","system_id":"levelo_inurba_marseille","lat":43.27508,"lon":5.42477,"is_reserved":false,"is_disabled":true,"rental_uris":{"android":"levelo://app?vid=43f69d8d-df5e-425e-b41d-bcc37ca62603","ios":"levelo://app?vid=43f69d8d-df5e-425e-b41d-bcc37ca62603"},"vehicle_type_id":"4","last_reported":1745295109,"current_range_meters":22000,"station_id":"ce4bhn92rcd13ifvqgrg","pricing_plan_id":"cebpf4jnsgd1na2vs0mg"},{"bike_id":"3141ba66-2281-4a71-8d92-97971b08ddc6","system_id":"levelo_inurba_marseille","lat":43.3234,"lon":5.40616,"is_reserved":false,"is_disabled":false,"rental_uris":{"android":"levelo://app?vid=3141ba66-2281-4a71-8d92-97971b08ddc6","ios":"levelo://app?vid=3141ba66-2281-4a71-8d92-97971b08ddc6"},"vehicle_type_id":"4","last_reported":1745295109,"current_range_meters":22000,"station_id":"ce4bhq92rcd13ifvqhjg","pricing_plan_id":"cebpf4jnsgd1na2vs0mg"},{"bike_id":"46374c49-3adc-4c5a-8966-e00f056c0d57","system_id":"levelo_inurba_marseille","lat":43.27846,"lon":5.35442,"is_reserved":false,"is_disabled":false,"rental_uris":{"android":"levelo://app?vid=46374c49-3adc-4c5a-8966-e00f056c0d57","ios":"levelo://app?vid=46374c49-3adc-4c5a-8966-e00f056c0d57"},"vehicle_type_id":"4","last_reported":1745295109,"current_range_meters":22400,"station_id":"","pricing_plan_id":"cebpf4jnsgd1na2vs0mg"},{"bike_id":"a2d5a464-f649-430b-b737-a14b0a2b42fe","system_id":"levelo_inurba_marseille","lat":43.28484,"lon":5.38439,"is_reserved":false,"is_disabled":false,"rental_uris":{"android":"levelo://app?vid=a2d5a464-f649-430b-b737-a14b0a2b42fe","ios":"levelo://app?vid=a2d5a464-f649-430b-b737-a14b0a2b42fe"},"vehicle_type_id":"4","last_reported":1745295109,"current_range_meters":22400,"station_id":"ce4bh512rcd13ifvqe3g","pricing_plan_id":"cebpf4jnsgd1na2vs0mg"},{"bike_id":"7c88ec95-2985-4bb3-b853-01d88f4560b1","system_id":"levelo_inurba_marseille","lat":43.28031,"lon":5.36938,"is_reserved":false,"is_disabled":false,"rental_uris":{"android":"levelo://app?vid=7c88ec95-2985-4bb3-b853-01d88f4560b1","ios":"levelo://app?vid=7c88ec95-2985-4bb3-b853-01d88f4560b1"},"vehicle_type_id":"4","last_reported":1745295109,"current_range_meters":22400,"station_id":"ce4bha12rcd13ifvqef0","pricing_plan_id":"cebpf4jnsgd1na2vs0mg"},{"bike_id":"e7a535f8-ed78-40de-8cdc-f8a1d2d90b31","system_id":"levelo_inurba_marseille","lat":43.24807,"lon":5.37445,"is_reserved":false,"is_disabled":true,"rental_uris":{"android":"levelo://app?vid=e7a535f8-ed78-40de-8cdc-f8a1d2d90b31","ios":"levelo://app?vid=e7a535f8-ed78-40de-8cdc-f8a1d2d90b31"},"vehicle_type_id":"4","last_reported":1745295109,"current_range_meters":22400,"station_id":"ce4bhgh2rcd13ifvqfb0","pricing_plan_id":"cebpf4jnsgd1na2vs0mg"},{"bike_id":"5d6ce0cf-9f03-41a4-849f-504bf29dfe65","system_id":"levelo_inurba_marseille","lat":43.2172,"lon":5.34631,"is_reserved":false,"is_disabled":false,"rental_uris":{"android":"levelo://app?vid=5d6ce0cf-9f03-41a4-849f-504bf29dfe65","ios":"levelo://app?vid=5d6ce0cf-9f03-41a4-849f-504bf29dfe65"},"vehicle_type_id":"4","last_reported":1745295109,"current_range_meters":22400,"station_id":"st_cvj6r9ubvosntc0bgbag","pricing_plan_id":"cebpf4jnsgd1na2vs0mg"},{"bike_id":"b5d609bf-0c9b-49e3-9426-ce02cb8383b8","system_id":"levelo_inurba_marseille","lat":43.34148,"lon":5.40914,"is_reserved":false,"is_disabled":true,"rental_uris":{"android":"levelo://app?vid=b5d609bf-0c9b-49e3-9426-ce02cb8383b8","ios":"levelo://app?vid=b5d609bf-0c9b-49e3-9426-ce02cb8383b8"},"vehicle_type_id":"4","last_reported":1745295109,"current_range_meters":22800,"station_id":"ce4bhqh2rcd13ifvqhlg","pricing_plan_id":"cebpf4jnsgd1na2vs0mg"},{"bike_id":"95b8bc11-d0dd-4aad-a8cc-3bcf7c3eb2a4","system_id":"levelo_inurba_marseille","lat":43.2923,"lon":5.40897,"is_reserved":false,"is_disabled":false,"rental_uris":{"android":"levelo://app?vid=95b8bc11-d0dd-4aad-a8cc-3bcf7c3eb2a4","ios":"levelo://app?vid=95b8bc11-d0dd-4aad-a8cc-3bcf7c3eb2a4"},"vehicle_type_id":"4","last_reported":1745295109,"current_range_meters":22800,"station_id":"ce4bh192rcd13ifvqdc0","pricing_plan_id":"cebpf4jnsgd1na2vs0mg"},{"bike_id":"dd9dfbf5-a667-49ba-a0c2-9957279ca2e7","system_id":"levelo_inurba_marseille","lat":43.306558,"lon":5.400785,"is_reserved":false,"is_disabled":false,"rental_uris":{"android":"levelo://app?vid=dd9dfbf5-a667-49ba-a0c2-9957279ca2e7","ios":"levelo://app?vid=dd9dfbf5-a667-49ba-a0c2-9957279ca2e7"},"vehicle_type_id":"4","last_reported":1745295109,"current_range_meters":22800,"station_id":"ce4bh112rcd13ifvqda0","pricing_plan_id":"cebpf4jnsgd1na2vs0mg"},{"bike_id":"d9d975bc-1861-4214-b6db-271166d025a2","system_id":"levelo_inurba_marseille","lat":43.314871,"lon":5.373026,"is_reserved":false,"is_disabled":false,"rental_uris":{"android":"levelo://app?vid=d9d975bc-1861-4214-b6db-271166d025a2","ios":"levelo://app?vid=d9d975bc-1861-4214-b6db-271166d025a2"},"vehicle_type_id":"4","last_reported":1745295109,"current_range_meters":22800,"station_id":"ce4bgt12rcd13ifvqcd0","pricing_plan_id":"cebpf4jnsgd1na2vs0mg"},{"bike_id":"d99aece5-8200-49bd-8edf-8c66ba7779c9","system_id":"levelo_inurba_marseille","lat":43.24541,"lon":5.39524,"is_reserved":false,"is_disabled":false,"rental_uris":{"android":"levelo://app?vid=d99aece5-8200-49bd-8edf-8c66ba7779c9","ios":"levelo://app?vid=d99aece5-8200-49bd-8edf-8c66ba7779c9"},"vehicle_type_id":"4","last_reported":1745295109,"current_range_meters":22800,"station_id":"ce4bhlp2rcd13ifvqgjg","pricing_plan_id":"cebpf4jnsgd1na2vs0mg"},{"bike_id":"6013693d-c8c0-4b6b-94ab-31ea0c9d9a1f","system_id":"levelo_inurba_marseille","lat":43.27562,"lon":5.38422,"is_reserved":false,"is_disabled":false,"rental_uris":{"android":"levelo://app?vid=6013693d-c8c0-4b6b-94ab-31ea0c9d9a1f","ios":"levelo://app?vid=6013693d-c8c0-4b6b-94ab-31ea0c9d9a1f"},"vehicle_type_id":"4","last_reported":1745295109,"current_range_meters":22800,"station_id":"ce4bhh92rcd13ifvqfi0","pricing_plan_id":"cebpf4jnsgd1na2vs0mg"},{"bike_id":"6dae202a-2029-4a50-938e-41697b9a35c6","system_id":"levelo_inurba_marseille","lat":43.2873,"lon":5.39992,"is_reserved":false,"is_disabled":false,"rental_uris":{"android":"levelo://app?vid=6dae202a-2029-4a50-938e-41697b9a35c6","ios":"levelo://app?vid=6dae202a-2029-4a50-938e-41697b9a35c6"},"vehicle_type_id":"4","last_reported":1745295109,"current_range_meters":22800,"station_id":"ce4bho92rcd13ifvqh3g","pricing_plan_id":"cebpf4jnsgd1na2vs0mg"},{"bike_id":"9b2d17db-c765-4254-83fd-a875727a39ec","system_id":"levelo_inurba_marseille","lat":43.265512,"lon":5.372939,"is_reserved":false,"is_disabled":true,"rental_uris":{"android":"levelo://app?vid=9b2d17db-c765-4254-83fd-a875727a39ec","ios":"levelo://app?vid=9b2d17db-c765-4254-83fd-a875727a39ec"},"vehicle_type_id":"4","last_reported":1745295109,"current_range_meters":23200,"station_id":"ce4bhg12rcd13ifvqf70","pricing_plan_id":"cebpf4jnsgd1na2vs0mg"},{"bike_id":"3c15ed54-530c-4039-9427-66ae1a67c633","system_id":"levelo_inurba_marseille","lat":43.27173,"lon":5.40995,"is_reserved":false,"is_disabled":false,"rental_uris":{"android":"levelo://app?vid=3c15ed54-530c-4039-9427-66ae1a67c633","ios":"levelo://app?vid=3c15ed54-530c-4039-9427-66ae1a67c633"},"vehicle_type_id":"4","last_reported":1745295109,"current_range_meters":23200,"station_id":"ce4bhl12rcd13ifvqgf0","pricing_plan_id":"cebpf4jnsgd1na2vs0mg"},{"bike_id":"50b82aff-4b6a-4b1c-b2b1-604070165a23","system_id":"levelo_inurba_marseille","lat":43.28732,"lon":5.39978,"is_reserved":false,"is_disabled":false,"rental_uris":{"android":"levelo://app?vid=50b82aff-4b6a-4b1c-b2b1-604070165a23","ios":"levelo://app?vid=50b82aff-4b6a-4b1c-b2b1-604070165a23"},"vehicle_type_id":"4","last_reported":1745295109,"current_range_meters":23200,"station_id":"ce4bho92rcd13ifvqh3g","pricing_plan_id":"cebpf4jnsgd1na2vs0mg"},{"bike_id":"36c078e8-06ee-4b6f-a720-e2b8d5b2efaf","system_id":"levelo_inurba_marseille","lat":43.292696,"lon":5.368501,"is_reserved":false,"is_disabled":true,"rental_uris":{"android":"levelo://app?vid=36c078e8-06ee-4b6f-a720-e2b8d5b2efaf","ios":"levelo://app?vid=36c078e8-06ee-4b6f-a720-e2b8d5b2efaf"},"vehicle_type_id":"4","last_reported":1745295109,"current_range_meters":23200,"station_id":"ce4bhbp2rcd13ifvqesg","pricing_plan_id":"cebpf4jnsgd1na2vs0mg"},{"bike_id":"74984a4e-33cd-43e7-b2c8-25255c9f8b59","system_id":"levelo_inurba_marseille","lat":43.27359,"lon":5.36247,"is_reserved":false,"is_disabled":true,"rental_uris":{"android":"levelo://app?vid=74984a4e-33cd-43e7-b2c8-25255c9f8b59","ios":"levelo://app?vid=74984a4e-33cd-43e7-b2c8-25255c9f8b59"},"vehicle_type_id":"4","last_reported":1745295109,"current_range_meters":23200,"station_id":"ce4bhbh2rcd13ifvqeo0","pricing_plan_id":"cebpf4jnsgd1na2vs0mg"},{"bike_id":"dca5eea8-8010-4337-86ff-9d2fe7c7d143","system_id":"levelo_inurba_marseille","lat":43.311658,"lon":5.38713,"is_reserved":false,"is_disabled":false,"rental_uris":{"android":"levelo://app?vid=dca5eea8-8010-4337-86ff-9d2fe7c7d143","ios":"levelo://app?vid=dca5eea8-8010-4337-86ff-9d2fe7c7d143"},"vehicle_type_id":"4","last_reported":1745295109,"current_range_meters":24000,"station_id":"ce4bgv12rcd13ifvqcp0","pricing_plan_id":"cebpf4jnsgd1na2vs0mg"},{"bike_id":"51ad0592-5fad-4b4f-a456-2d73e078debe","system_id":"levelo_inurba_marseille","lat":43.303155,"lon":5.404451,"is_reserved":false,"is_disabled":false,"rental_uris":{"android":"levelo://app?vid=51ad0592-5fad-4b4f-a456-2d73e078debe","ios":"levelo://app?vid=51ad0592-5fad-4b4f-a456-2d73e078debe"},"vehicle_type_id":"4","last_reported":1745295109,"current_range_meters":24000,"station_id":"ce4bh012rcd13ifvqd10","pricing_plan_id":"cebpf4jnsgd1na2vs0mg"},{"bike_id":"b4e1453b-06ec-46d9-a00c-f69874361df3","system_id":"levelo_inurba_marseille","lat":43.30083,"lon":5.39089,"is_reserved":false,"is_disabled":false,"rental_uris":{"android":"levelo://app?vid=b4e1453b-06ec-46d9-a00c-f69874361df3","ios":"levelo://app?vid=b4e1453b-06ec-46d9-a00c-f69874361df3"},"vehicle_type_id":"4","last_reported":1745295109,"current_range_meters":24000,"station_id":"ce4bh192rcd13ifvqdb0","pricing_plan_id":"cebpf4jnsgd1na2vs0mg"},{"bike_id":"7d36a2d5-ec13-4525-aaa5-c5dbca4380da","system_id":"levelo_inurba_marseille","lat":43.31737,"lon":5.40416,"is_reserved":false,"is_disabled":false,"rental_uris":{"android":"levelo://app?vid=7d36a2d5-ec13-4525-aaa5-c5dbca4380da","ios":"levelo://app?vid=7d36a2d5-ec13-4525-aaa5-c5dbca4380da"},"vehicle_type_id":"4","last_reported":1745295109,"current_range_meters":24000,"station_id":"ce4bh012rcd13ifvqd00","pricing_plan_id":"cebpf4jnsgd1na2vs0mg"},{"bike_id":"7f564237-8f93-438e-a502-3fabf3dc1745","system_id":"levelo_inurba_marseille","lat":43.308763,"lon":5.396458,"is_reserved":false,"is_disabled":false,"rental_uris":{"android":"levelo://app?vid=7f564237-8f93-438e-a502-3fabf3dc1745","ios":"levelo://app?vid=7f564237-8f93-438e-a502-3fabf3dc1745"},"vehicle_type_id":"4","last_reported":1745295109,"current_range_meters":24000,"station_id":"ce4bh012rcd13ifvqcv0","pricing_plan_id":"cebpf4jnsgd1na2vs0mg"},{"bike_id":"017460f9-a472-4509-9a04-109166f36ab2","system_id":"levelo_inurba_marseille","lat":43.30998,"lon":5.37542,"is_reserved":false,"is_disabled":false,"rental_uris":{"android":"levelo://app?vid=017460f9-a472-4509-9a04-109166f36ab2","ios":"levelo://app?vid=017460f9-a472-4509-9a04-109166f36ab2"},"vehicle_type_id":"4","last_reported":1745295109,"current_range_meters":24000,"station_id":"ce4bguh2rcd13ifvqckg","pricing_plan_id":"cebpf4jnsgd1na2vs0mg"},