{"last_updated":1732846792,"ttl":60,"version":"2.2","data":{"bikes":[{"bike_id":"32ab80bc-e625-46a0-8a89-d877000fa341","system_id":"levelo_inurba_marseille","lat":43.31312,"lon":5.39704,"is_reserved":false,"is_disabled":false,"rental_uris":{"android":"levelo://app?vid=32ab80bc-e625-46a0-8a89-d877000fa341","ios":"levelo://app?vid=32ab80bc-e625-46a0-8a89-d877000fa341"},"vehicle_type_id":"4","last_reported":1732846792,"current_range_meters":39200,"station_id":"ce4bgvp2rcd13ifvqcu0","pricing_plan_id":"cebpf4jnsgd1na2vs0mg"},{"bike_id":"4154a7c5-244d-4bf7-94c3-6831d52a43c5","system_id":"levelo_inurba_marseille","lat":43.28462,"lon":5.35887,"is_reserved":false,"is_disabled":false,"rental_uris":{"android":"levelo://app?vid=4154a7c5-244d-4bf7-94c3-6831d52a43c5","ios":"levelo://app?vid=4154a7c5-244d-4bf7-94c3-6831d52a43c5"},"vehicle_type_id":"4","last_reported":1732846792,"current_range_meters":38400,"station_id":"ce4bhah2rcd13ifvqei0","pricing_plan_id":"cebpf4jnsgd1na2vs0mg"},{"bike_id":"b856c8b4-412d-4c25-bdd4-e6b29aed04cb","system_id":"levelo_inurba_marseille","lat":43.22937,"lon":5.35379,"is_reserved":false,"is_disabled":false,"rental_uris":{"android":"levelo://app?vid=b856c8b4-412d-4c25-bdd4-e6b29aed04cb","ios":"levelo://app?vid=b856c8b4-412d-4c25-bdd4-e6b29aed04cb"},"vehicle_type_id":"4","last_reported":1732846792,"current_range_meters":38800,"station_id":"cpo3532slgdg3j2ikp40","pricing_plan_id":"cebpf4jnsgd1na2vs0mg"},{"bike_id":"787ae4f5-fdfe-4df6-b036-ee75178e31fb","system_id":"levelo_inurba_marseille","lat":43.31491,"lon":5.37299,"is_reserved":false,"is_disabled":false,"rental_uris":{"android":"levelo://app?vid=787ae4f5-fdfe-4df6-b036-ee75178e31fb","ios":"levelo://app?vid=787ae4f5-fdfe-4df6-b036-ee75178e31fb"},"vehicle_type_id":"4","last_reported":1732846792,"current_range_meters":11600,"station_id":"ce4bgt12rcd13ifvqcd0","pricing_plan_id":"cebpf4jnsgd1na2vs0mg"},{"bike_id":"2454e998-2e23-4446-9ab7-ffc1ca5b1159","system_id":"levelo_inurba_marseille","lat":43.3169,"lon":5.37774,"is_reserved":false,"is_disabled":false,"rental_uris":{"android":"levelo://app?vid=2454e998-2e23-4446-9ab7-ffc1ca5b1159","ios":"levelo://app?vid=2454e998-2e23-4446-9ab7-ffc1ca5b1159"},"vehicle_type_id":"4","last_reported":1732846792,"current_range_meters":24800,"station_id":"ce4bgth2rcd13ifvqch0","pricing_plan_id":"cebpf4jnsgd1na2vs0mg"},{"bike_id":"8d406c1a-f24c-4769-a560-66f9c6249ad5","system_id":"levelo_inurba_marseille","lat":43.31715,"lon":5.4371,"is_reserved":false,"is_disabled":false,"rental_uris":{"android":"levelo://app?vid=8d406c1a-f24c-4769-a560-66f9c6249ad5","ios":"levelo://app?vid=8d406c1a-f24c-4769-a560-66f9c6249ad5"},"vehicle_type_id":"4","last_reported":1732846792,"current_range_meters":17200,"station_id":"ce4bhp92rcd13ifvqhcg","pricing_plan_id":"cebpf4jnsgd1na2vs0mg"},{"bike_id":"742641cb-ede7-44c9-9eca-ae4b65bf9ac5","system_id":"levelo_inurba_marseille","lat":43.25561,"lon":5.38205,"is_reserved":false,"is_disabled":false,"rental_uris":{"android":"levelo://app?vid=742641cb-ede7-44c9-9eca-ae4b65bf9ac5","ios":"levelo://app?vid=742641cb-ede7-44c9-9eca-ae4b65bf9ac5"},"vehicle_type_id":"4","last_reported":1732846792,"current_range_meters":22400,"station_id":"ce4bhih2rcd13ifvqfs0","pricing_plan_id":"cebpf4jnsgd1na2vs0mg"},{"bike_id":"fac63031-3de9-41dc-941a-a395646bc4e4","system_id":"levelo_inurba_marseille","lat":43.25572,"lon":5.38226,"is_reserved":false,"is_disabled":false,"rental_uris":{"android":"levelo://app?vid=fac63031-3de9-41dc-941a-a395646bc4e4","ios":"levelo://app?vid=fac63031-3de9-41dc-941a-a395646bc4e4"},"vehicle_type_id":"4","last_reported":1732846792,"current_range_meters":8000,"station_id":"ce4bhih2rcd13ifvqfs0","pricing_plan_id":"cebpf4jnsgd1na2vs0mg"},{"bike_id":"78228560-6fbf-4122-9d03-128a049c2bf9","system_id":"levelo_inurba_marseille","lat":43.23189,"lon":5.39981,"is_reserved":false,"is_disabled":false,"rental_uris":{"android":"levelo://app?vid=78228560-6fbf-4122-9d03-128a049c2bf9","ios":"levelo://app?vid=78228560-6fbf-4122-9d03-128a049c2bf9"},"vehicle_type_id":"4","last_reported":1732846792,"current_range_meters":37600,"station_id":"ce4bhn12rcd13ifvqgqg","pricing_plan_id":"cebpf4jnsgd1na2vs0mg"},{"bike_id":"331eced5-6952-41e6-b98c-088b1bd5e10f","system_id":"levelo_inurba_marseille","lat":43.30952,"lon":5.39032,"is_reserved":false,"is_disabled":false,"rental_uris":{"android":"levelo://app?vid=331eced5-6952-41e6-b98c-088b1bd5e10f","ios":"levelo://app?vid=331eced5-6952-41e6-b98c-088b1bd5e10f"},"vehicle_type_id":"4","last_reported":1732846792,"current_range_meters":29600,"station_id":"ce4bgup2rcd13ifvqco0","pricing_plan_id":"cebpf4jnsgd1na2vs0mg"},{"bike_id":"0bb615d3-a859-46b8-8041-b46f9b3edbf9","system_id":"levelo_inurba_marseille","lat":43.30472,"lon":5.37918,"is_reserved":false,"is_disabled":false,"rental_uris":{"android":"levelo://app?vid=0bb615d3-a859-46b8-8041-b46f9b3edbf9","ios":"levelo://app?vid=0bb615d3-a859-46b8-8041-b46f9b3edbf9"},"vehicle_type_id":"4","last_reported":1732846792,"current_range_meters":38400,"station_id":"ce4bgup2rcd13ifvqcn0","pricing_plan_id":"cebpf4jnsgd1na2vs0mg"},{"bike_id":"4b7d29bf-038d-4bed-b735-693a7ae5e93a","system_id":"levelo_inurba_marseille","lat":43.28459,"lon":5.35883,"is_reserved":false,"is_disabled":false,"rental_uris":{"android":"levelo://app?vid=4b7d29bf-038d-4bed-b735-693a7ae5e93a","ios":"levelo://app?vid=4b7d29bf-038d-4bed-b735-693a7ae5e93a"},"vehicle_type_id":"4","last_reported":1732846792,"current_range_meters":37600,"station_id":"ce4bhah2rcd13ifvqei0","pricing_plan_id":"cebpf4jnsgd1na2vs0mg"},{"bike_id":"5251a556-2e67-4701-8a47-0d845c92da66","system_id":"levelo_inurba_marseille","lat":43.2692,"lon":5.40268,"is_reserved":false,"is_disabled":false,"rental_uris":{"android":"levelo://app?vid=5251a556-2e67-4701-8a47-0d845c92da66","ios":"levelo://app?vid=5251a556-2e67-4701-8a47-0d845c92da66"},"vehicle_type_id":"4","last_reported":1732846792,"current_range_meters":38800,"station_id":"cjm6bp8fraef2m0cb0m0","pricing_plan_id":"cebpf4jnsgd1na2vs0mg"},{"bike_id":"c9fb6819-c048-4bb7-bb71-207e20cce37a","system_id":"levelo_inurba_marseille","lat":43.31313,"lon":5.39702,"is_reserved":false,"is_disabled":false,"rental_uris":{"android":"levelo://app?vid=c9fb6819-c048-4bb7-bb71-207e20cce37a","ios":"levelo://app?vid=c9fb6819-c048-4bb7-bb71-207e20cce37a"},"vehicle_type_id":"4","last_reported":1732846792,"current_range_meters":36800,"station_id":"ce4bgvp2rcd13ifvqcu0","pricing_plan_id":"cebpf4jnsgd1na2vs0mg"},{"bike_id":"247caaec-966c-4c99-9156-317327c27d5f","system_id":"levelo_inurba_marseille","lat":43.31525,"lon":5.3803,"is_reserved":false,"is_disabled":false,"rental_uris":{"android":"levelo://app?vid=247caaec-966c-4c99-9156-317327c27d5f","ios":"levelo://app?vid=247caaec-966c-4c99-9156-317327c27d5f"},"vehicle_type_id":"4","last_reported":1732846792,"current_range_meters":38000,"station_id":"ce4bhsp2rcd13ifvqi50","pricing_plan_id":"cebpf4jnsgd1na2vs0mg"},{"bike_id":"7b5ae10d-9ccd-47c1-98be-f07866f88e17","system_id":"levelo_inurba_marseille","lat":43.30889,"lon":5.39645,"is_reserved":false,"is_disabled":false,"rental_uris":{"android":"levelo://app?vid=7b5ae10d-9ccd-47c1-98be-f07866f88e17","ios":"levelo://app?vid=7b5ae10d-9ccd-47c1-98be-f07866f88e17"},"vehicle_type_id":"4","last_reported":1732846792,"current_range_meters":38800,"station_id":"ce4bh012rcd13ifvqcv0","pricing_plan_id":"cebpf4jnsgd1na2vs0mg"},{"bike_id":"5633f747-dc3e-4dc9-8636-1b9ee0ec3c95","system_id":"levelo_inurba_marseille","lat":43.28995,"lon":5.37558,"is_reserved":false,"is_disabled":false,"rental_uris":{"android":"levelo://app?vid=5633f747-dc3e-4dc9-8636-1b9ee0ec3c95","ios":"levelo://app?vid=5633f747-dc3e-4dc9-8636-1b9ee0ec3c95"},"vehicle_type_id":"4","last_reported":1732846792,"current_range_meters":36800,"station_id":"ce4bh692rcd13ifvqe90","pricing_plan_id":"cebpf4jnsgd1na2vs0mg"},{"bike_id":"ce15a521-8a1d-47b7-92c8-091ca367d00e","system_id":"levelo_inurba_marseille","lat":43.33749,"lon":5.37439,"is_reserved":false,"is_disabled":false,"rental_uris":{"android":"levelo://app?vid=ce15a521-8a1d-47b7-92c8-091ca367d00e","ios":"levelo://app?vid=ce15a521-8a1d-47b7-92c8-091ca367d00e"},"vehicle_type_id":"4","last_reported":1732846792,"current_range_meters":35200,"station_id":"","pricing_plan_id":"cebpf4jnsgd1na2vs0mg"},{"bike_id":"e1f29068-7335-4296-9fe7-379e36521a22","system_id":"levelo_inurba_marseille","lat":43.30928,"lon":5.4016,"is_reserved":false,"is_disabled":false,"rental_uris":{"android":"levelo://app?vid=e1f29068-7335-4296-9fe7-379e36521a22","ios":"levelo://app?vid=e1f29068-7335-4296-9fe7-379e36521a22"},"vehicle_type_id":"4","last_reported":1732846792,"current_range_meters":9200,"station_id":"ce4bgvp2rcd13ifvqct0","pricing_plan_id":"cebpf4jnsgd1na2vs0mg"},{"bike_id":"a8cfb7c5-59c0-4772-a793-b840317f8234","system_id":"levelo_inurba_marseille","lat":43.29272,"lon":5.40904,"is_reserved":false,"is_disabled":true,"rental_uris":{"android":"levelo://app?vid=a8cfb7c5-59c0-4772-a793-b840317f8234","ios":"levelo://app?vid=a8cfb7c5-59c0-4772-a793-b840317f8234"},"vehicle_type_id":"4","last_reported":1732846792,"current_range_meters":38800,"station_id":"ce4bh192rcd13ifvqdc0","pricing_plan_id":"cebpf4jnsgd1na2vs0mg"},{"bike_id":"ba2d1a62-e632-4169-9a28-b83f6acba689","system_id":"levelo_inurba_marseille","lat":43.26328,"lon":5.40464,"is_reserved":false,"is_disabled":true,"rental_uris":{"android":"levelo://app?vid=ba2d1a62-e632-4169-9a28-b83f6acba689","ios":"levelo://app?vid=ba2d1a62-e632-4169-9a28-b83f6acba689"},"vehicle_type_id":"4","last_reported":1732846792,"current_range_meters":0,"station_id":"","pricing_plan_id":"cebpf4jnsgd1na2vs0mg"},{"bike_id":"106e461f-3874-428c-8522-21fc2ca5b5c8","system_id":"levelo_inurba_marseille","lat":43.28051,"lon":5.36923,"is_reserved":false,"is_disabled":false,"rental_uris":{"android":"levelo://app?vid=106e461f-3874-428c-8522-21fc2ca5b5c8","ios":"levelo://app?vid=106e461f-3874-428c-8522-21fc2ca5b5c8"},"vehicle_type_id":"4","last_reported":1732846792,"current_range_meters":38800,"station_id":"ce4bha12rcd13ifvqef0","pricing_plan_id":"cebpf4jnsgd1na2vs0mg"},{"bike_id":"92958baa-3572-4747-bf10-749c50af56fd","system_id":"levelo_inurba_marseille","lat":43.27998,"lon":5.40023,"is_reserved":false,"is_disabled":false,"rental_uris":{"android":"levelo://app?vid=92958baa-3572-4747-bf10-749c50af56fd","ios":"levelo://app?vid=92958baa-3572-4747-bf10-749c50af56fd"},"vehicle_type_id":"4","last_reported":1732846792,"current_range_meters":38400,"station_id":"ce4bho92rcd13ifvqh4g","pricing_plan_id":"cebpf4jnsgd1na2vs0mg"},{"bike_id":"5bc3f434-939d-4b3b-8c02-f1997fc4c3d7","system_id":"levelo_inurba_marseille","lat":43.31371,"lon":5.38499,"is_reserved":false,"is_disabled":false,"rental_uris":{"android":"levelo://app?vid=5bc3f434-939d-4b3b-8c02-f1997fc4c3d7","ios":"levelo://app?vid=5bc3f434-939d-4b3b-8c02-f1997fc4c3d7"},"vehicle_type_id":"4","last_reported":1732846792,"current_range_meters":17600,"station_id":"ce4bgt92rcd13ifvqcf0","pricing_plan_id":"cebpf4jnsgd1na2vs0mg"},{"bike_id":"ff9a1ec5-be80-43ec-9b6e-d2bb637a4f30","system_id":"levelo_inurba_marseille","lat":43.28738,"lon":5.39921,"is_reserved":false,"is_disabled":true,"rental_uris":{"android":"levelo://app?vid=ff9a1ec5-be80-43ec-9b6e-d2bb637a4f30","ios":"levelo://app?vid=ff9a1ec5-be80-43ec-9b6e-d2bb637a4f30"},"vehicle_type_id":"4","last_reported":1732846792,"current_range_meters":2800,"station_id":"","pricing_plan_id":"cebpf4jnsgd1na2vs0mg"},{"bike_id":"1d0a8399-939d-4683-82f8-7692d9842e45","system_id":"levelo_inurba_marseille","lat":43.30795,"lon":5.3766,"is_reserved":false,"is_disabled":false,"rental_uris":{"android":"levelo://app?vid=1d0a8399-939d-4683-82f8-7692d9842e45","ios":"levelo://app?vid=1d0a8399-939d-4683-82f8-7692d9842e45"},"vehicle_type_id":"4","last_reported":1732846792,"current_range_meters":38800,"station_id":"ce4bgv92rcd13ifvqcq0","pricing_plan_id":"cebpf4jnsgd1na2vs0mg"},{"bike_id":"6f7949e1-de87-4a49-8620-fec27e04447f","system_id":"levelo_inurba_marseille","lat":43.33726,"lon":5.39185,"is_reserved":false,"is_disabled":false,"rental_uris":{"android":"levelo://app?vid=6f7949e1-de87-4a49-8620-fec27e04447f","ios":"levelo://app?vid=6f7949e1-de87-4a49-8620-fec27e04447f"},"vehicle_type_id":"4","last_reported":1732846792,"current_range_meters":32800,"station_id":"ce4bhr92rcd13ifvqhsg","pricing_plan_id":"cebpf4jnsgd1na2vs0mg"},{"bike_id":"98c69e06-866c-4e8e-93ab-7f604f6cae5b","system_id":"levelo_inurba_marseille","lat":43.30906,"lon":5.39608,"is_reserved":false,"is_disabled":false,"rental_uris":{"android":"levelo://app?vid=98c69e06-866c-4e8e-93ab-7f604f6cae5b","ios":"levelo://app?vid=98c69e06-866c-4e8e-93ab-7f604f6cae5b"},"vehicle_type_id":"4","last_reported":1732846792,"current_range_meters":27600,"station_id":"ce4bh012rcd13ifvqcv0","pricing_plan_id":"cebpf4jnsgd1na2vs0mg"},{"bike_id":"d6af473c-317d-44a4-ba58-092abf84584f","system_id":"levelo_inurba_marseille","lat":43.22931,"lon":5.35377,"is_reserved":false,"is_disabled":false,"rental_uris":{"android":"levelo://app?vid=d6af473c-317d-44a4-ba58-092abf84584f","ios":"levelo://app?vid=d6af473c-317d-44a4-ba58-092abf84584f"},"vehicle_type_id":"4","last_reported":1732846792,"current_range_meters":38800,"station_id":"cpo3532slgdg3j2ikp40","pricing_plan_id":"cebpf4jnsgd1na2vs0mg"},{"bike_id":"2aa3eeb0-144d-43de-91b5-edf07e9cb90a","system_id":"levelo_inurba_marseille","lat":43.28944,"lon":5.3966,"is_reserved":false,"is_disabled":true,"rental_uris":{"android":"levelo://app?vid=2aa3eeb0-144d-43de-91b5-edf07e9cb90a","ios":"levelo://app?vid=2aa3eeb0-144d-43de-91b5-edf07e9cb90a"},"vehicle_type_id":"4","last_reported":1732846792,"current_range_meters":31200,"station_id":"ce4bh3h2rcd13ifvqdn0","pricing_plan_id":"cebpf4jnsgd1na2vs0mg"},{"bike_id":"f421ed1b-900d-4dbb-b850-dc05e2e7f371","system_id":"levelo_inurba_marseille","lat":43.28465,"lon":5.35881,"is_reserved":false,"is_disabled":false,"rental_uris":{"android":"levelo://app?vid=f421ed1b-900d-4dbb-b850-dc05e2e7f371","ios":"levelo://app?vid=f421ed1b-900d-4dbb-b850-dc05e2e7f371"},"vehicle_type_id":"4","last_reported":1732846792,"current_range_meters":20000,"station_id":"ce4bhah2rcd13ifvqei0","pricing_plan_id":"cebpf4jnsgd1na2vs0mg"},{"bike_id":"d873b31d-bfeb-45ba-95cb-ddd4b051333e","system_id":"levelo_inurba_marseille","lat":43.30166,"lon":5.38092,"is_reserved":false,"is_disabled":true,"rental_uris":{"android":"levelo://app?vid=d873b31d-bfeb-45ba-95cb-ddd4b051333e","ios":"levelo://app?vid=d873b31d-bfeb-45ba-95cb-ddd4b051333e"},"vehicle_type_id":"4","last_reported":1732846792,"current_range_meters":36400,"station_id":"ce4bgjp2rcd13ifvqbh0","pricing_plan_id":"cebpf4jnsgd1na2vs0mg"},{"bike_id":"2149f122-447a-44a9-977c-3913a030e554","system_id":"levelo_inurba_marseille","lat":43.24673,"lon":5.3816,"is_reserved":false,"is_disabled":false,"rental_uris":{"android":"levelo://app?vid=2149f122-447a-44a9-977c-3913a030e554","ios":"levelo://app?vid=2149f122-447a-44a9-977c-3913a030e554"},"vehicle_type_id":"4","last_reported":1732846792,"current_range_meters":38400,"station_id":"ce4bhih2rcd13ifvqfr0","pricing_plan_id":"cebpf4jnsgd1na2vs0mg"},{"bike_id":"5649c94f-d611-4822-a905-a32b4dd1af05","system_id":"levelo_inurba_marseille","lat":43.31363,"lon":5.385,"is_reserved":false,"is_disabled":false,"rental_uris":{"android":"levelo://app?vid=5649c94f-d611-4822-a905-a32b4dd1af05","ios":"levelo://app?vid=5649c94f-d611-4822-a905-a32b4dd1af05"},"vehicle_type_id":"4","last_reported":1732846792,"current_range_meters":38800,"station_id":"ce4bgt92rcd13ifvqcf0","pricing_plan_id":"cebpf4jnsgd1na2vs0mg"},{"bike_id":"698d8235-243a-42fe-a642-45e8bd12a3e0","system_id":"levelo_inurba_marseille","lat":43.31055,"lon":5.38344,"is_reserved":false,"is_disabled":false,"rental_uris":{"android":"levelo://app?vid=698d8235-243a-42fe-a642-45e8bd12a3e0","ios":"levelo://app?vid=698d8235-243a-42fe-a642-45e8bd12a3e0"},"vehicle_type_id":"4","last_reported":1732846792,"current_range_meters":27600,"station_id":"ce4bgv92rcd13ifvqcr0","pricing_plan_id":"cebpf4jnsgd1na2vs0mg"},{"bike_id":"95bce0c8-7aac-4804-81c7-e4d0b22cb60c","system_id":"levelo_inurba_marseille","lat":43.23946,"lon":5.36649,"is_reserved":false,"is_disabled":false,"rental_uris":{"android":"levelo://app?vid=95bce0c8-7aac-4804-81c7-e4d0b22cb60c","ios":"levelo://app?vid=95bce0c8-7aac-4804-81c7-e4d0b22cb60c"},"vehicle_type_id":"4","last_reported":1732846792,"current_range_meters":38400,"station_id":"ce4bhi12rcd13ifvqfp0","pricing_plan_id":"cebpf4jnsgd1na2vs0mg"},{"bike_id":"9244b89b-f36c-48db-97f3-7bec24ee66d4","system_id":"levelo_inurba_marseille","lat":43.31374,"lon":5.38502,"is_reserved":false,"is_disabled":true,"rental_uris":{"android":"levelo://app?vid=9244b89b-f36c-48db-97f3-7bec24ee66d4","ios":"levelo://app?vid=9244b89b-f36c-48db-97f3-7bec24ee66d4"},"vehicle_type_id":"4","last_reported":1732846792,"current_range_meters":0,"station_id":"ce4bgt92rcd13ifvqcf0","pricing_plan_id":"cebpf4jnsgd1na2vs0mg"},{"bike_id":"ed4237d4-30fc-4f62-8af6-4b4a55da31fc","system_id":"levelo_inurba_marseille","lat":43.2762,"lon":5.36105,"is_reserved":false,"is_disabled":false,"rental_uris":{"android":"levelo://app?vid=ed4237d4-30fc-4f62-8af6-4b4a55da31fc","ios":"levelo://app?vid=ed4237d4-30fc-4f62-8af6-4b4a55da31fc"},"vehicle_type_id":"4","last_reported":1732846792,"current_range_meters":20800,"station_id":"ce4bgj92rcd13ifvqbe0","pricing_plan_id":"cebpf4jnsgd1na2vs0mg"},{"bike_id":"c6b92bc4-9b0c-4205-be63-808e157ca80c","system_id":"levelo_inurba_marseille","lat":43.25737,"lon":5.41099,"is_reserved":false,"is_disabled":false,"rental_uris":{"android":"levelo://app?vid=c6b92bc4-9b0c-4205-be63-808e157ca80c","ios":"levelo://app?vid=c6b92bc4-9b0c-4205-be63-808e157ca80c"},"vehicle_type_id":"4","last_reported":1732846792,"current_range_meters":30000,"station_id":"ce4bhkp2rcd13ifvqgd0","pricing_plan_id":"cebpf4jnsgd1na2vs0mg"},{"bike_id":"26e4b19e-f41d-4cd7-8a2f-105102ed5e09","system_id":"levelo_inurba_marseille","lat":43.31512,"lon":5.37316,"is_reserved":false,"is_disabled":false,"rental_uris":{"android":"levelo://app?vid=26e4b19e-f41d-4cd7-8a2f-105102ed5e09","ios":"levelo://app?vid=26e4b19e-f41d-4cd7-8a2f-105102ed5e09"},"vehicle_type_id":"4","last_reported":1732846792,"current_range_meters":39200,"station_id":"ce4bgt12rcd13ifvqcd0","pricing_plan_id":"cebpf4jnsgd1na2vs0mg"},{"bike_id":"04aa9e5c-080b-4e26-a3cb-df232fab5d53","system_id":"levelo_inurba_marseille","lat":43.29912,"lon":5.43652,"is_reserved":false,"is_disabled":false,"rental_uris":{"android":"levelo://app?vid=04aa9e5c-080b-4e26-a3cb-df232fab5d53","ios":"levelo://app?vid=04aa9e5c-080b-4e26-a3cb-df232fab5d53"},"vehicle_type_id":"4","last_reported":1732846792,"current_range_meters":38000,"station_id":"ce4bhpp2rcd13ifvqhfg","pricing_plan_id":"cebpf4jnsgd1na2vs0mg"},{"bike_id":"4709c438-f4af-415a-a919-d27302b75dca","system_id":"levelo_inurba_marseille","lat":43.23191,"lon":5.35561,"is_reserved":false,"is_disabled":false,"rental_uris":{"android":"levelo://app?vid=4709c438-f4af-415a-a919-d27302b75dca","ios":"levelo://app?vid=4709c438-f4af-415a-a919-d27302b75dca"},"vehicle_type_id":"4","last_reported":1732846792,"current_range_meters":38800,"station_id":"ce4bhu92rcd13ifvqi70","pricing_plan_id":"cebpf4jnsgd1na2vs0mg"},{"bike_id":"24fbed4a-ccdf-495e-9862-dade3be413cd","system_id":"levelo_inurba_marseille","lat":43.296252,"lon":5.376982,"is_reserved":false,"is_disabled":true,"rental_uris":{"android":"levelo://app?vid=24fbed4a-ccdf-495e-9862-dade3be413cd","ios":"levelo://app?vid=24fbed4a-ccdf-495e-9862-dade3be413cd"},"vehicle_type_id":"4","last_reported":1732846792,"current_range_meters":38800,"station_id":"ce4bgi92rcd13ifvqb90","pricing_plan_id":"cebpf4jnsgd1na2vs0mg"},{"bike_id":"a6dc4e35-fd04-42cd-b5e5-6111ed261c10","system_id":"levelo_inurba_marseille","lat":43.27369,"lon":5.36253,"is_reserved":false,"is_disabled":false,"rental_uris":{"android":"levelo://app?vid=a6dc4e35-fd04-42cd-b5e5-6111ed261c10","ios":"levelo://app?vid=a6dc4e35-fd04-42cd-b5e5-6111ed261c10"},"vehicle_type_id":"4","last_reported":1732846792,"current_range_meters":6800,"station_id":"ce4bhbh2rcd13ifvqeo0","pricing_plan_id":"cebpf4jnsgd1na2vs0mg"},{"bike_id":"7ab6b4d1-3628-43e9-aea2-805d67c9542f","system_id":"levelo_inurba_marseille","lat":43.28469,"lon":5.35888,"is_reserved":false,"is_disabled":false,"rental_uris":{"android":"levelo://app?vid=7ab6b4d1-3628-43e9-aea2-805d67c9542f","ios":"levelo://app?vid=7ab6b4d1-3628-43e9-aea2-805d67c9542f"},"vehicle_type_id":"4","last_reported":1732846792,"current_range_meters":17200,"station_id":"ce4bhah2rcd13ifvqei0","pricing_plan_id":"cebpf4jnsgd1na2vs0mg"},{"bike_id":"d95f3110-7d79-4b18-b43d-6182f665cd23","system_id":"levelo_inurba_marseille","lat":43.31486,"lon":5.37286,"is_reserved":false,"is_disabled":false,"rental_uris":{"android":"levelo://app?vid=d95f3110-7d79-4b18-b43d-6182f665cd23","ios":"levelo://app?vid=d95f3110-7d79-4b18-b43d-6182f665cd23"},"vehicle_type_id":"4","last_reported":1732846792,"current_range_meters":26000,"station_id":"ce4bgt12rcd13ifvqcd0","pricing_plan_id":"cebpf4jnsgd1na2vs0mg"},{"bike_id":"89ae7642-9710-4d62-86f7-b3f42fa57649","system_id":"levelo_inurba_marseille","lat":43.29563,"lon":5.3997,"is_reserved":false,"is_disabled":false,"rental_uris":{"android":"levelo://app?vid=89ae7642-9710-4d62-86f7-b3f42fa57649","ios":"levelo://app?vid=89ae7642-9710-4d62-86f7-b3f42fa57649"},"vehicle_type_id":"4","last_reported":1732846792,"current_range_meters":38400,"station_id":"ce4bh312rcd13ifvqdj0","pricing_plan_id":"cebpf4jnsgd1na2vs0mg"},{"bike_id":"2c2dbeed-d8b9-4443-8bc1-facb2c0b2be9","system_id":"levelo_inurba_marseille","lat":43.3045,"lon":5.36852,"is_reserved":false,"is_disabled":false,"rental_uris":{"android":"levelo://app?vid=2c2dbeed-d8b9-4443-8bc1-facb2c0b2be9","ios":"levelo://app?vid=2c2dbeed-d8b9-4443-8bc1-facb2c0b2be9"},"vehicle_type_id":"4","last_reported":1732846792,"current_range_meters":9600,"station_id":"","pricing_plan_id":"cebpf4jnsgd1na2vs0mg"},{"bike_id":"e6bca829-a129-47df-811a-ec14c7bd5d1d","system_id":"levelo_inurba_marseille","lat":43.24551,"lon":5.39514,"is_reserved":false,"is_disabled":false,"rental_uris":{"android":"levelo://app?vid=e6bca829-a129-47df-811a-ec14c7bd5d1d","ios":"levelo://app?vid=e6bca829-a129-47df-811a-ec14c7bd5d1d"},"vehicle_type_id":"4","last_reported":1732846792,"current_range_meters":31200,"station_id":"ce4bhlp2rcd13ifvqgjg","pricing_plan_id":"cebpf4jnsgd1na2vs0mg"},{"bike_id":"b053b308-df93-40ed-81b7-cc6347a6608e","system_id":"levelo_inurba_marseille","lat":43.28672,"lon":5.36361,"is_reserved":false,"is_disabled":true,"rental_uris":{"android":"levelo://app?vid=b053b308-df93-40ed-81b7-cc6347a6608e","ios":"levelo://app?vid=b053b308-df93-40ed-81b7-cc6347a6608e"},"vehicle_type_id":"4","last_reported":1732846792,"current_range_meters":38800,"station_id":"ce4bhah2rcd13ifvqej0","pricing_plan_id":"cebpf4jnsgd1na2vs0mg"},{"bike_id":"dbd8f055-15d1-4b81-82db-41291145e7b7","system_id":"levelo_inurba_marseille","lat":43.30896,"lon":5.39616,"is_reserved":false,"is_disabled":false,"rental_uris":{"android":"levelo://app?vid=dbd8f055-15d1-4b81-82db-41291145e7b7","ios":"levelo://app?vid=dbd8f055-15d1-4b81-82db-41291145e7b7"},"vehicle_type_id":"4","last_reported":1732846792,"current_range_meters":39200,"station_id":"ce4bh012rcd13ifvqcv0","pricing_plan_id":"cebpf4jnsgd1na2vs0mg"},{"bike_id":"d43bcf0d-16aa-4132-bee9-932c9bcef8f2","system_id":"levelo_inurba_marseille","lat":43.3237,"lon":5.38883,"is_reserved":false,"is_disabled":false,"rental_uris":{"android":"levelo://app?vid=d43bcf0d-16aa-4132-bee9-932c9bcef8f2","ios":"levelo://app?vid=d43bcf0d-16aa-4132-bee9-932c9bcef8f2"},"vehicle_type_id":"4","last_reported":1732846792,"current_range_meters":38800,"station_id":"ce4bhqp2rcd13ifvqhog","pricing_plan_id":"cebpf4jnsgd1na2vs0mg"},{"bike_id":"490a3a7c-2b4c-411a-b6ee-c44a5d632d99","system_id":"levelo_inurba_marseille","lat":43.28719,"lon":5.39995,"is_reserved":false,"is_disabled":false,"rental_uris":{"android":"levelo://app?vid=490a3a7c-2b4c-411a-b6ee-c44a5d632d99","ios":"levelo://app?vid=490a3a7c-2b4c-411a-b6ee-c44a5d632d99"},"vehicle_type_id":"4","last_reported":1732846792,"current_range_meters":16800,"station_id":"ce4bho92rcd13ifvqh3g","pricing_plan_id":"cebpf4jnsgd1na2vs0mg"},{"bike_id":"db40ca1f-b7d1-44e8-9b75-dd8786aa97db","system_id":"levelo_inurba_marseille","lat":43.28165,"lon":5.42656,"is_reserved":false,"is_disabled":false,"rental_uris":{"android":"levelo://app?vid=db40ca1f-b7d1-44e8-9b75-dd8786aa97db","ios":"levelo://app?vid=db40ca1f-b7d1-44e8-9b75-dd8786aa97db"},"vehicle_type_id":"4","last_reported":1732846792,"current_range_meters":28000,"station_id":"ce4bhnh2rcd13ifvqgug","pricing_plan_id":"cebpf4jnsgd1na2vs0mg"},{"bike_id":"ac54e89a-5aa3-432e-a554-1bd83c6a941f","system_id":"levelo_inurba_marseille","lat":43.30143,"lon":5.39852,"is_reserved":false,"is_disabled":false,"rental_uris":{"android":"levelo://app?vid=ac54e89a-5aa3-432e-a554-1bd83c6a941f","ios":"levelo://app?vid=ac54e89a-5aa3-432e-a554-1bd83c6a941f"},"vehicle_type_id":"4","last_reported":1732846792,"current_range_meters":38000,"station_id":"ce4bh0h2rcd13ifvqd40","pricing_plan_id":"cebpf4jnsgd1na2vs0mg"},{"bike_id":"26b5c406-3aca-4413-aab2-0a69ed2123c4","system_id":"levelo_inurba_marseille","lat":43.29958,"lon":5.41329,"is_reserved":false,"is_disabled":false,"rental_uris":{"android":"levelo://app?vid=26b5c406-3aca-4413-aab2-0a69ed2123c4","ios":"levelo://app?vid=26b5c406-3aca-4413-aab2-0a69ed2123c4"},"vehicle_type_id":"4","last_reported":1732846792,"current_range_meters":39200,"station_id":"ce4bhp12rcd13ifvqh9g","pricing_plan_id":"cebpf4jnsgd1na2vs0mg"},{"bike_id":"8e2041ad-6bf5-4186-becc-025de1939b87","system_id":"levelo_inurba_marseille","lat":43.28457,"lon":5.35908,"is_reserved":false,"is_disabled":true,"rental_uris":{"android":"levelo://app?vid=8e2041ad-6bf5-4186-becc-025de1939b87","ios":"levelo://app?vid=8e2041ad-6bf5-4186-becc-025de1939b87"},"vehicle_type_id":"4","last_reported":1732846792,"current_range_meters":11200,"station_id":"ce4bhah2rcd13ifvqei0","pricing_plan_id":"cebpf4jnsgd1na2vs0mg"},{"bike_id":"e1c76266-7d5c-49f3-b563-00be91d3a9f3","system_id":"levelo_inurba_marseille","lat":43.27822,"lon":5.40725,"is_reserved":false,"is_disabled":false,"rental_uris":{"android":"levelo://app?vid=e1c76266-7d5c-49f3-b563-00be91d3a9f3","ios":"levelo://app?vid=e1c76266-7d5c-49f3-b563-00be91d3a9f3"},"vehicle_type_id":"4","last_reported":1732846792,"current_range_meters":14400,"station_id":"ce4bhnh2rcd13ifvqgtg","pricing_plan_id":"cebpf4jnsgd1na2vs0mg"},{"bike_id":"422d452f-17cc-4565-afd8-833a3bc96a0e","system_id":"levelo_inurba_marseille","lat":43.3011,"lon":5.39809,"is_reserved":false,"is_disabled":true,"rental_uris":{"android":"levelo://app?vid=422d452f-17cc-4565-afd8-833a3bc96a0e","ios":"levelo://app?vid=422d452f-17cc-4565-afd8-833a3bc96a0e"},"vehicle_type_id":"4","last_reported":1732846792,"current_range_meters":24400,"station_id":"ce4bh0h2rcd13ifvqd40","pricing_plan_id":"cebpf4jnsgd1na2vs0mg"},{"bike_id":"dcee47ea-c950-4870-9c89-79b44232ba85","system_id":"levelo_inurba_marseille","lat":43.31718,"lon":5.42393,"is_reserved":false,"is_disabled":false,"rental_uris":{"android":"levelo://app?vid=dcee47ea-c950-4870-9c89-79b44232ba85","ios":"levelo://app?vid=dcee47ea-c950-4870-9c89-79b44232ba85"},"vehicle_type_id":"4","last_reported":1732846792,"current_range_meters":38800,"station_id":"ce4bhp92rcd13ifvqhbg","pricing_plan_id":"cebpf4jnsgd1na2vs0mg"},{"bike_id":"4d4c884f-6933-49c0-8899-f9856d90f44d","system_id":"levelo_inurba_marseille","lat":43.29748,"lon":5.37971,"is_reserved":false,"is_disabled":true,"rental_uris":{"android":"levelo://app?vid=4d4c884f-6933-49c0-8899-f9856d90f44d","ios":"levelo://app?vid=4d4c884f-6933-49c0-8899-f9856d90f44d"},"vehicle_type_id":"4","last_reported":1732846792,"current_range_meters":0,"station_id":"","pricing_plan_id":"cebpf4jnsgd1na2vs0mg"},{"bike_id":"0a6a01b8-ebc9-4549-9bc8-25449ed3a98c","system_id":"levelo_inurba_marseille","lat":43.31997,"lon":5.38152,"is_reserved":false,"is_disabled":false,"rental_uris":{"android":"levelo://app?vid=0a6a01b8-ebc9-4549-9bc8-25449ed3a98c","ios":"levelo://app?vid=0a6a01b8-ebc9-4549-9bc8-25449ed3a98c"},"vehicle_type_id":"4","last_reported":1732846792,"current_range_meters":25200,"station_id":"ce4bhr12rcd13ifvqhpg","pricing_plan_id":"cebpf4jnsgd1na2vs0mg"},{"bike_id":"b6e48330-8212-4476-b4d2-8a1e3bec5ff6","system_id":"levelo_inurba_marseille","lat":43.28664,"lon":5.36347,"is_reserved":false,"is_disabled":true,"rental_uris":{"android":"levelo://app?vid=b6e48330-8212-4476-b4d2-8a1e3bec5ff6","ios":"levelo://app?vid=b6e48330-8212-4476-b4d2-8a1e3bec5ff6"},"vehicle_type_id":"4","last_reported":1732846792,"current_range_meters":9600,"station_id":"ce4bhah2rcd13ifvqej0","pricing_plan_id":"cebpf4jnsgd1na2vs0mg"},{"bike_id":"563fb09b-a3df-4a23-a6c4-7dc183bdb452","system_id":"levelo_inurba_marseille","lat":43.279429,"lon":5.410446,"is_reserved":false,"is_disabled":false,"rental_uris":{"android":"levelo://app?vid=563fb09b-a3df-4a23-a6c4-7dc183bdb452","ios":"levelo://app?vid=563fb09b-a3df-4a23-a6c4-7dc183bdb452"},"vehicle_type_id":"4","last_reported":1732846792,"current_range_meters":30400,"station_id":"ce4bhnp2rcd13ifvqh0g","pricing_plan_id":"cebpf4jnsgd1na2vs0mg"},{"bike_id":"74e95188-1907-451d-8b54-ee413415f459","system_id":"levelo_inurba_marseille","lat":43.28847,"lon":5.35853,"is_reserved":false,"is_disabled":false,"rental_uris":{"android":"levelo://app?vid=74e95188-1907-451d-8b54-ee413415f459","ios":"levelo://app?vid=74e95188-1907-451d-8b54-ee413415f459"},"vehicle_type_id":"4","last_reported":1732846792,"current_range_meters":31200,"station_id":"ce4bhb12rcd13ifvqem0","pricing_plan_id":"cebpf4jnsgd1na2vs0mg"},{"bike_id":"9009be37-c6b1-406b-b0a8-fbab355f715e","system_id":"levelo_inurba_marseille","lat":43.33767,"lon":5.37492,"is_reserved":false,"is_disabled":false,"rental_uris":{"android":"levelo://app?vid=9009be37-c6b1-406b-b0a8-fbab355f715e","ios":"levelo://app?vid=9009be37-c6b1-406b-b0a8-fbab355f715e"},"vehicle_type_id":"4","last_reported":1732846792,"current_range_meters":38800,"station_id":"","pricing_plan_id":"cebpf4jnsgd1na2vs0mg"},{"bike_id":"41b5e72e-6b19-45dc-a9ad-51ccbc0f0a20","system_id":"levelo_inurba_marseille","lat":43.26568,"lon":5.39007,"is_reserved":false,"is_disabled":false,"rental_uris":{"android":"levelo://app?vid=41b5e72e-6b19-45dc-a9ad-51ccbc0f0a20","ios":"levelo://app?vid=41b5e72e-6b19-45dc-a9ad-51ccbc0f0a20"},"vehicle_type_id":"4","last_reported":1732846792,"current_range_meters":30000,"station_id":"ce4bhe12rcd13ifvqf30","pricing_plan_id":"cebpf4jnsgd1na2vs0mg"},{"bike_id":"cfbb9735-0073-47e5-a7b0-871700092b34","system_id":"levelo_inurba_marseille","lat":43.27814,"lon":5.40713,"is_reserved":false,"is_disabled":false,"rental_uris":{"android":"levelo://app?vid=cfbb9735-0073-47e5-a7b0-871700092b34","ios":"levelo://app?vid=cfbb9735-0073-47e5-a7b0-871700092b34"},"vehicle_type_id":"4","last_reported":1732846792,"current_range_meters":30000,"station_id":"ce4bhnh2rcd13ifvqgtg","pricing_plan_id":"cebpf4jnsgd1na2vs0mg"},{"bike_id":"ad448571-bebb-4a8d-8d20-19092292da85","system_id":"levelo_inurba_marseille","lat":43.29172,"lon":5.37143,"is_reserved":false,"is_disabled":true,"rental_uris":{"android":"levelo://app?vid=ad448571-bebb-4a8d-8d20-19092292da85","ios":"levelo://app?vid=ad448571-bebb-4a8d-8d20-19092292da85"},"vehicle_type_id":"4","last_reported":1732846792,"current_range_meters":25200,"station_id":"ce4bha92rcd13ifvqeh0","pricing_plan_id":"cebpf4jnsgd1na2vs0mg"},{"bike_id":"5f433b1c-0e0f-43b4-a0b0-55b89bfd72f5","system_id":"levelo_inurba_marseille","lat":43.33611,"lon":5.41023,"is_reserved":false,"is_disabled":false,"rental_uris":{"android":"levelo://app?vid=5f433b1c-0e0f-43b4-a0b0-55b89bfd72f5","ios":"levelo://app?vid=5f433b1c-0e0f-43b4-a0b0-55b89bfd72f5"},"vehicle_type_id":"4","last_reported":1732846792,"current_range_meters":20000,"station_id":"ce4bhqh2rcd13ifvqhmg","pricing_plan_id":"cebpf4jnsgd1na2vs0mg"},{"bike_id":"1e09145b-f8b8-4d9f-84a8-523155ea47d2","system_id":"levelo_inurba_marseille","lat":43.3088,"lon":5.37186,"is_reserved":false,"is_disabled":false,"rental_uris":{"android":"levelo://app?vid=1e09145b-f8b8-4d9f-84a8-523155ea47d2","ios":"levelo://app?vid=1e09145b-f8b8-4d9f-84a8-523155ea47d2"},"vehicle_type_id":"4","last_reported":1732846792,"current_range_meters":38800,"station_id":"ce4bguh2rcd13ifvqckg","pricing_plan_id":"cebpf4jnsgd1na2vs0mg"},{"bike_id":"9589002c-1bab-46c5-9d09-a7efb8d9d194","system_id":"levelo_inurba_marseille","lat":43.28474,"lon":5.34987,"is_reserved":false,"is_disabled":false,"rental_uris":{"android":"levelo://app?vid=9589002c-1bab-46c5-9d09-a7efb8d9d194","ios":"levelo://app?vid=9589002c-1bab-46c5-9d09-a7efb8d9d194"},"vehicle_type_id":"4","last_reported":1732846792,"current_range_meters":32400,"station_id":"","pricing_plan_id":"cebpf4jnsgd1na2vs0mg"},{"bike_id":"b8d94c9d-8975-4a3a-998d-fed5a02e203f","system_id":"levelo_inurba_marseille","lat":43.28084,"lon":5.39651,"is_reserved":false,"is_disabled":true,"rental_uris":{"android":"levelo://app?vid=b8d94c9d-8975-4a3a-998d-fed5a02e203f","ios":"levelo://app?vid=b8d94c9d-8975-4a3a-998d-fed5a02e203f"},"vehicle_type_id":"4","last_reported":1732846792,"current_range_meters":1200,"station_id":"ce4bho12rcd13ifvqh2g","pricing_plan_id":"cebpf4jnsgd1na2vs0mg"},{"bike_id":"5d84ab37-b887-4cbc-90d8-c3fbc6154e0e","system_id":"levelo_inurba_marseille","lat":43.31699,"lon":5.40468,"is_reserved":false,"is_disabled":false,"rental_uris":{"android":"levelo://app?vid=5d84ab37-b887-4cbc-90d8-c3fbc6154e0e","ios":"levelo://app?vid=5d84ab37-b887-4cbc-90d8-c3fbc6154e0e"},"vehicle_type_id":"4","last_reported":1732846792,"current_range_meters":38000,"station_id":"ce4bh012rcd13ifvqd00","pricing_plan_id":"cebpf4jnsgd1na2vs0mg"},{"bike_id":"840c2084-3872-4bb0-aad2-5ab80f87c1f6","system_id":"levelo_inurba_marseille","lat":43.30655,"lon":5.40077,"is_reserved":false,"is_disabled":true,"rental_uris":{"android":"levelo://app?vid=840c2084-3872-4bb0-aad2-5ab80f87c1f6","ios":"levelo://app?vid=840c2084-3872-4bb0-aad2-5ab80f87c1f6"},"vehicle_type_id":"4","last_reported":1732846792,"current_range_meters":38800,"station_id":"ce4bh112rcd13ifvqda0","pricing_plan_id":"cebpf4jnsgd1na2vs0mg"},{"bike_id":"c0e8c0c5-8cf0-4bea-b3b2-c88efdc8014a","system_id":"levelo_inurba_marseille","lat":43.32362,"lon":5.38884,"is_reserved":false,"is_disabled":false,"rental_uris":{"android":"levelo://app?vid=c0e8c0c5-8cf0-4bea-b3b2-c88efdc8014a","ios":"levelo://app?vid=c0e8c0c5-8cf0-4bea-b3b2-c88efdc8014a"},"vehicle_type_id":"4","last_reported":1732846792,"current_range_meters":26000,"station_id":"ce4bhqp2rcd13ifvqhog","pricing_plan_id":"cebpf4jnsgd1na2vs0mg"},{"bike_id":"6770707a-d638-46db-ac11-17ca394f4eb5","system_id":"levelo_inurba_marseille","lat":43.23949,"lon":5.36641,"is_reserved":false,"is_disabled":false,"rental_uris":{"android":"levelo://app?vid=6770707a-d638-46db-ac11-17ca394f4eb5","ios":"levelo://app?vid=6770707a-d638-46db-ac11-17ca394f4eb5"},"vehicle_type_id":"4","last_reported":1732846792,"current_range_meters":17600,"station_id":"ce4bhi12rcd13ifvqfp0","pricing_plan_id":"cebpf4jnsgd1na2vs0mg"},{"bike_id":"528c3082-6b75-410f-a51b-d7e2f524e380","system_id":"levelo_inurba_marseille","lat":43.28471,"lon":5.35893,"is_reserved":false,"is_disabled":false,"rental_uris":{"android":"levelo://app?vid=528c3082-6b75-410f-a51b-d7e2f524e380","ios":"levelo://app?vid=528c3082-6b75-410f-a51b-d7e2f524e380"},"vehicle_type_id":"4","last_reported":1732846792,"current_range_meters":29600,"station_id":"ce4bhah2rcd13ifvqei0","pricing_plan_id":"cebpf4jnsgd1na2vs0mg"},{"bike_id":"aa226446-391e-4936-ad4e-4dca6c8cbb57","system_id":"levelo_inurba_marseille","lat":43.27613,"lon":5.36116,"is_reserved":false,"is_disabled":false,"rental_uris":{"android":"levelo://app?vid=aa226446-391e-4936-ad4e-4dca6c8cbb57","ios":"levelo://app?vid=aa226446-391e-4936-ad4e-4dca6c8cbb57"},"vehicle_type_id":"4","last_reported":1732846792,"current_range_meters":33200,"station_id":"ce4bgj92rcd13ifvqbe0","pricing_plan_id":"cebpf4jnsgd1na2vs0mg"},{"bike_id":"1936c595-32cf-4097-a6cb-753cf309a951","system_id":"levelo_inurba_marseille","lat":43.31722,"lon":5.42404,"is_reserved":false,"is_disabled":false,"rental_uris":{"android":"levelo://app?vid=1936c595-32cf-4097-a6cb-753cf309a951","ios":"levelo://app?vid=1936c595-32cf-4097-a6cb-753cf309a951"},"vehicle_type_id":"4","last_reported":1732846792,"current_range_meters":39200,"station_id":"ce4bhp92rcd13ifvqhbg","pricing_plan_id":"cebpf4jnsgd1na2vs0mg"},{"bike_id":"f62a5fa2-9173-4ac1-b63a-4a63811fbef9","system_id":"levelo_inurba_marseille","lat":43.25932,"lon":5.40898,"is_reserved":false,"is_disabled":false,"rental_uris":{"android":"levelo://app?vid=f62a5fa2-9173-4ac1-b63a-4a63811fbef9","ios":"levelo://app?vid=f62a5fa2-9173-4ac1-b63a-4a63811fbef9"},"vehicle_type_id":"4","last_reported":1732846792,"current_range_meters":22000,"station_id":"ce4bhm92rcd13ifvqglg","pricing_plan_id":"cebpf4jnsgd1na2vs0mg"},{"bike_id":"4ef82adb-1398-4bed-bf34-1aa2370cf21d","system_id":"levelo_inurba_marseille","lat":43.3202,"lon":5.38152,"is_reserved":false,"is_disabled":false,"rental_uris":{"android":"levelo://app?vid=4ef82adb-1398-4bed-bf34-1aa2370cf21d","ios":"levelo://app?vid=4ef82adb-1398-4bed-bf34-1aa2370cf21d"},"vehicle_type_id":"4","last_reported":1732846792,"current_range_meters":8000,"station_id":"ce4bhr12rcd13ifvqhpg","pricing_plan_id":"cebpf4jnsgd1na2vs0mg"},{"bike_id":"e8fa7be1-2407-41a7-b843-e7c70f1917ef","system_id":"levelo_inurba_marseille","lat":43.27612,"lon":5.36105,"is_reserved":false,"is_disabled":true,"rental_uris":{"android":"levelo://app?vid=e8fa7be1-2407-41a7-b843-e7c70f1917ef","ios":"levelo://app?vid=e8fa7be1-2407-41a7-b843-e7c70f1917ef"},"vehicle_type_id":"4","last_reported":1732846792,"current_range_meters":0,"station_id":"ce4bgj92rcd13ifvqbe0","pricing_plan_id":"cebpf4jnsgd1na2vs0mg"},{"bike_id":"9ecc32de-994a-4dac-bf19-477b1a5bf98c","system_id":"levelo_inurba_marseille","lat":43.28083,"lon":5.39652,"is_reserved":false,"is_disabled":false,"rental_uris":{"android":"levelo://app?vid=9ecc32de-994a-4dac-bf19-477b1a5bf98c","ios":"levelo://app?vid=9ecc32de-994a-4dac-bf19-477b1a5bf98c"},"vehicle_type_id":"4","last_reported":1732846792,"current_range_meters":6400,"station_id":"ce4bho12rcd13ifvqh2g","pricing_plan_id":"cebpf4jnsgd1na2vs0mg"},{"bike_id":"289614bb-31f0-4f7a-a4f9-71dc95ecf9e2","system_id":"levelo_inurba_marseille","lat":43.29608,"lon":5.37703,"is_reserved":false,"is_disabled":true,"rental_uris":{"android":"levelo://app?vid=289614bb-31f0-4f7a-a4f9-71dc95ecf9e2","ios":"levelo://app?vid=289614bb-31f0-4f7a-a4f9-71dc95ecf9e2"},"vehicle_type_id":"4","last_reported":1732846792,"current_range_meters":0,"station_id":"ce4bgi92rcd13ifvqb90","pricing_plan_id":"cebpf4jnsgd1na2vs0mg"},{"bike_id":"a06c1c1e-28b5-4b4b-bbd8-e996140e89eb","system_id":"levelo_inurba_marseille","lat":43.24668,"lon":5.38878,"is_reserved":false,"is_disabled":false,"rental_uris":{"android":"levelo://app?vid=a06c1c1e-28b5-4b4b-bbd8-e996140e89eb","ios":"levelo://app?vid=a06c1c1e-28b5-4b4b-bbd8-e996140e89eb"},"vehicle_type_id":"4","last_reported":1732846792,"current_range_meters":38800,"station_id":"ce4bhg12rcd13ifvqf60","pricing_plan_id":"cebpf4jnsgd1na2vs0mg"},{"bike_id":"c9583c7b-689a-482b-b93d-4134b87781d6","system_id":"levelo_inurba_marseille","lat":43.29795,"lon":5.38089,"is_reserved":false,"is_disabled":false,"rental_uris":{"android":"levelo://app?vid=c9583c7b-689a-482b-b93d-4134b87781d6","ios":"levelo://app?vid=c9583c7b-689a-482b-b93d-4134b87781d6"},"vehicle_type_id":"4","last_reported":1732846792,"current_range_meters":36400,"station_id":"ce4bgip2rcd13ifvqbb0","pricing_plan_id":"cebpf4jnsgd1na2vs0mg"},{"bike_id":"e63455c5-5f55-4960-8084-8cbaf9be1b50","system_id":"levelo_inurba_marseille","lat":43.25589,"lon":5.38244,"is_reserved":false,"is_disabled":false,"rental_uris":{"android":"levelo://app?vid=e63455c5-5f55-4960-8084-8cbaf9be1b50","ios":"levelo://app?vid=e63455c5-5f55-4960-8084-8cbaf9be1b50"},"vehicle_type_id":"4","last_reported":1732846792,"current_range_meters":35200,"station_id":"ce4bhih2rcd13ifvqfs0","pricing_plan_id":"cebpf4jnsgd1na2vs0mg"},{"bike_id":"1dee5398-ece1-4217-b5b9-984f22c2ff59","system_id":"levelo_inurba_marseille","lat":43.29247,"lon":5.38436,"is_reserved":false,"is_disabled":true,"rental_uris":{"android":"levelo://app?vid=1dee5398-ece1-4217-b5b9-984f22c2ff59","ios":"levelo://app?vid=1dee5398-ece1-4217-b5b9-984f22c2ff59"},"vehicle_type_id":"4","last_reported":1732846792,"current_range_meters":0,"station_id":"ce4bh692rcd13ifvqea0","pricing_plan_id":"cebpf4jnsgd1na2vs0mg"},{"bike_id":"35cde48b-e232-4392-95d8-1d6118a2707a","system_id":"levelo_inurba_marseille","lat":43.2827,"lon":5.35075,"is_reserved":false,"is_disabled":true,"rental_uris":{"android":"levelo://app?vid=35cde48b-e232-4392-95d8-1d6118a2707a","ios":"levelo://app?vid=35cde48b-e232-4392-95d8-1d6118a2707a"},"vehicle_type_id":"4","last_reported":1732846792,"current_range_meters":14800,"station_id":"ce4bhbp2rcd13ifvqerg","pricing_plan_id":"cebpf4jnsgd1na2vs0mg"},{"bike_id":"1a1ad613-e33a-4722-b183-07da1e0aa14f","system_id":"levelo_inurba_marseille","lat":43.32291,"lon":5.38263,"is_reserved":false,"is_disabled":false,"rental_uris":{"android":"levelo://app?vid=1a1ad613-e33a-4722-b183-07da1e0aa14f","ios":"levelo://app?vid=1a1ad613-e33a-4722-b183-07da1e0aa14f"},"vehicle_type_id":"4","last_reported":1732846792,"current_range_meters":38800,"station_id":"ce4bhr12rcd13ifvqhqg","pricing_plan_id":"cebpf4jnsgd1na2vs0mg"},{"bike_id":"36efb457-9d0e-4c6f-a8b0-4b397864951e","system_id":"levelo_inurba_marseille","lat":43.30787,"lon":5.38178,"is_reserved":false,"is_disabled":false,"rental_uris":{"android":"levelo://app?vid=36efb457-9d0e-4c6f-a8b0-4b397864951e","ios":"levelo://app?vid=36efb457-9d0e-4c6f-a8b0-4b397864951e"},"vehicle_type_id":"4","last_reported":1732846792,"current_range_meters":34000,"station_id":"ce4bgt12rcd13ifvqce0","pricing_plan_id":"cebpf4jnsgd1na2vs0mg"},{"bike_id":"3ca8d527-6c31-4160-8bc9-0dbae13780f9","system_id":"levelo_inurba_marseille","lat":43.28474,"lon":5.3589,"is_reserved":false,"is_disabled":true,"rental_uris":{"android":"levelo://app?vid=3ca8d527-6c31-4160-8bc9-0dbae13780f9","ios":"levelo://app?vid=3ca8d527-6c31-4160-8bc9-0dbae13780f9"},"vehicle_type_id":"4","last_reported":1732846792,"current_range_meters":24800,"station_id":"ce4bhah2rcd13ifvqei0","pricing_plan_id":"cebpf4jnsgd1na2vs0mg"},{"bike_id":"36a3f96e-478e-4879-a67a-ad06aea66f6d","system_id":"levelo_inurba_marseille","lat":43.30893,"lon":5.39605,"is_reserved":false,"is_disabled":false,"rental_uris":{"android":"levelo://app?vid=36a3f96e-478e-4879-a67a-ad06aea66f6d","ios":"levelo://app?vid=36a3f96e-478e-4879-a67a-ad06aea66f6d"},"vehicle_type_id":"4","last_reported":1732846792,"current_range_meters":38800,"station_id":"ce4bh012rcd13ifvqcv0","pricing_plan_id":"cebpf4jnsgd1na2vs0mg"},{"bike_id":"ad4d8a87-5ee6-4a40-b373-1f14cad201c7","system_id":"levelo_inurba_marseille","lat":43.31263,"lon":5.40187,"is_reserved":false,"is_disabled":false,"rental_uris":{"android":"levelo://app?vid=ad4d8a87-5ee6-4a40-b373-1f14cad201c7","ios":"levelo://app?vid=ad4d8a87-5ee6-4a40-b373-1f14cad201c7"},"vehicle_type_id":"4","last_reported":1732846792,"current_range_meters":14800,"station_id":"ce4bh092rcd13ifvqd30","pricing_plan_id":"cebpf4jnsgd1na2vs0mg"},{"bike_id":"ba00654e-53a2-4532-9f95-136ca1396363","system_id":"levelo_inurba_marseille","lat":43.26206,"lon":5.37932,"is_reserved":false,"is_disabled":false,"rental_uris":{"android":"levelo://app?vid=ba00654e-53a2-4532-9f95-136ca1396363","ios":"levelo://app?vid=ba00654e-53a2-4532-9f95-136ca1396363"},"vehicle_type_id":"4","last_reported":1732846792,"current_range_meters":12400,"station_id":"ce4bhjp2rcd13ifvqg90","pricing_plan_id":"cebpf4jnsgd1na2vs0mg"},{"bike_id":"08eecff9-7445-4ae9-87ab-550174feeb1e","system_id":"levelo_inurba_marseille","lat":43.28559,"lon":5.39505,"is_reserved":false,"is_disabled":false,"rental_uris":{"android":"levelo://app?vid=08eecff9-7445-4ae9-87ab-550174feeb1e","ios":"levelo://app?vid=08eecff9-7445-4ae9-87ab-550174feeb1e"},"vehicle_type_id":"4","last_reported":1732846792,"current_range_meters":36400,"station_id":"ce4bh292rcd13ifvqdg0","pricing_plan_id":"cebpf4jnsgd1na2vs0mg"},{"bike_id":"c7036a54-397c-47e5-a4a2-7e2996939a25","system_id":"levelo_inurba_marseille","lat":43.28463,"lon":5.3588,"is_reserved":false,"is_disabled":false,"rental_uris":{"android":"levelo://app?vid=c7036a54-397c-47e5-a4a2-7e2996939a25","ios":"levelo://app?vid=c7036a54-397c-47e5-a4a2-7e2996939a25"},"vehicle_type_id":"4","last_reported":1732846792,"current_range_meters":38800,"station_id":"ce4bhah2rcd13ifvqei0","pricing_plan_id":"cebpf4jnsgd1na2vs0mg"},{"bike_id":"16fb8e17-b179-4d5a-add7-fbd05efe76fb","system_id":"levelo_inurba_marseille","lat":43.2593,"lon":5.40912,"is_reserved":false,"is_disabled":true,"rental_uris":{"android":"levelo://app?vid=16fb8e17-b179-4d5a-add7-fbd05efe76fb","ios":"levelo://app?vid=16fb8e17-b179-4d5a-add7-fbd05efe76fb"},"vehicle_type_id":"4","last_reported":1732846792,"current_range_meters":30400,"station_id":"ce4bhm92rcd13ifvqglg","pricing_plan_id":"cebpf4jnsgd1na2vs0mg"},{"bike_id":"39b04c21-6a6a-40a7-a489-741c2b67c9bd","system_id":"levelo_inurba_marseille","lat":43.33735,"lon":5.39196,"is_reserved":false,"is_disabled":false,"rental_uris":{"android":"levelo://app?vid=39b04c21-6a6a-40a7-a489-741c2b67c9bd","ios":"levelo://app?vid=39b04c21-6a6a-40a7-a489-741c2b67c9bd"},"vehicle_type_id":"4","last_reported":1732846792,"current_range_meters":37600,"station_id":"ce4bhr92rcd13ifvqhsg","pricing_plan_id":"cebpf4jnsgd1na2vs0mg"},{"bike_id":"f7d32c62-c1bf-45e7-ad7d-baaa7e7b7b4f","system_id":"levelo_inurba_marseille","lat":43.28727,"lon":5.36091,"is_reserved":false,"is_disabled":false,"rental_uris":{"android":"levelo://app?vid=f7d32c62-c1bf-45e7-ad7d-baaa7e7b7b4f","ios":"levelo://app?vid=f7d32c62-c1bf-45e7-ad7d-baaa7e7b7b4f"},"vehicle_type_id":"4","last_reported":1732846792,"current_range_meters":7200,"station_id":"cki0cbj6b192h4jlfktg","pricing_plan_id":"cebpf4jnsgd1na2vs0mg"},{"bike_id":"67295fa8-fa27-48f4-b6f6-b84e14b2e05c","system_id":"levelo_inurba_marseille","lat":43.25728,"lon":5.41102,"is_reserved":false,"is_disabled":false,"rental_uris":{"android":"levelo://app?vid=67295fa8-fa27-48f4-b6f6-b84e14b2e05c","ios":"levelo://app?vid=67295fa8-fa27-48f4-b6f6-b84e14b2e05c"},"vehicle_type_id":"4","last_reported":1732846792,"current_range_meters":16800,"station_id":"ce4bhkp2rcd13ifvqgd0","pricing_plan_id":"cebpf4jnsgd1na2vs0mg"},{"bike_id":"7c7cc416-eb41-4a4c-99ce-42558eaa1248","system_id":"levelo_inurba_marseille","lat":43.24685,"lon":5.3815,"is_reserved":false,"is_disabled":false,"rental_uris":{"android":"levelo://app?vid=7c7cc416-eb41-4a4c-99ce-42558eaa1248","ios":"levelo://app?vid=7c7cc416-eb41-4a4c-99ce-42558eaa1248"},"vehicle_type_id":"4","last_reported":1732846792,"current_range_meters":8800,"station_id":"","pricing_plan_id":"cebpf4jnsgd1na2vs0mg"},{"bike_id":"8f3f4a42-abb8-4c93-99bd-742eb22f23bc","system_id":"levelo_inurba_marseille","lat":43.27816,"lon":5.40713,"is_reserved":false,"is_disabled":false,"rental_uris":{"android":"levelo://app?vid=8f3f4a42-abb8-4c93-99bd-742eb22f23bc","ios":"levelo://app?vid=8f3f4a42-abb8-4c93-99bd-742eb22f23bc"},"vehicle_type_id":"4","last_reported":1732846792,"current_range_meters":38800,"station_id":"ce4bhnh2rcd13ifvqgtg","pricing_plan_id":"cebpf4jnsgd1na2vs0mg"},{"bike_id":"293c0668-2fe3-4b01-a470-53f962940d6f","system_id":"levelo_inurba_marseille","lat":43.29932,"lon":5.365356,"is_reserved":false,"is_disabled":false,"rental_uris":{"android":"levelo://app?vid=293c0668-2fe3-4b01-a470-53f962940d6f","ios":"levelo://app?vid=293c0668-2fe3-4b01-a470-53f962940d6f"},"vehicle_type_id":"4","last_reported":1732846792,"current_range_meters":28000,"station_id":"ce4bgm92rcd13ifvqbr0","pricing_plan_id":"cebpf4jnsgd1na2vs0mg"},{"bike_id":"4f416bbb-7a6b-4165-a3a6-7d70b74c4469","system_id":"levelo_inurba_marseille","lat":43.27065,"lon":5.40253,"is_reserved":false,"is_disabled":false,"rental_uris":{"android":"levelo://app?vid=4f416bbb-7a6b-4165-a3a6-7d70b74c4469","ios":"levelo://app?vid=4f416bbb-7a6b-4165-a3a6-7d70b74c4469"},"vehicle_type_id":"4","last_reported":1732846792,"current_range_meters":24000,"station_id":"ce4bhk92rcd13ifvqgc0","pricing_plan_id":"cebpf4jnsgd1na2vs0mg"},{"bike_id":"dd8abf73-0f11-4528-81c0-f7dfced5b75d","system_id":"levelo_inurba_marseille","lat":43.28029,"lon":5.3695,"is_reserved":false,"is_disabled":false,"rental_uris":{"android":"levelo://app?vid=dd8abf73-0f11-4528-81c0-f7dfced5b75d","ios":"levelo://app?vid=dd8abf73-0f11-4528-81c0-f7dfced5b75d"},"vehicle_type_id":"4","last_reported":1732846792,"current_range_meters":25600,"station_id":"ce4bha12rcd13ifvqef0","pricing_plan_id":"cebpf4jnsgd1na2vs0mg"},{"bike_id":"a4334e68-df66-47a8-81e3-023882891004","system_id":"levelo_inurba_marseille","lat":43.27813,"lon":5.40716,"is_reserved":false,"is_disabled":false,"rental_uris":{"android":"levelo://app?vid=a4334e68-df66-47a8-81e3-023882891004","ios":"levelo://app?vid=a4334e68-df66-47a8-81e3-023882891004"},"vehicle_type_id":"4","last_reported":1732846792,"current_range_meters":22800,"station_id":"ce4bhnh2rcd13ifvqgtg","pricing_plan_id":"cebpf4jnsgd1na2vs0mg"},{"bike_id":"b03386a7-851f-4d46-893d-b76a4e79cd7b","system_id":"levelo_inurba_marseille","lat":43.28669,"lon":5.36354,"is_reserved":false,"is_disabled":false,"rental_uris":{"android":"levelo://app?vid=b03386a7-851f-4d46-893d-b76a4e79cd7b","ios":"levelo://app?vid=b03386a7-851f-4d46-893d-b76a4e79cd7b"},"vehicle_type_id":"4","last_reported":1732846792,"current_range_meters":25200,"station_id":"ce4bhah2rcd13ifvqej0","pricing_plan_id":"cebpf4jnsgd1na2vs0mg"},{"bike_id":"ab9ea4d5-385f-4213-9207-9a6809ebbe18","system_id":"levelo_inurba_marseille","lat":43.31891,"lon":5.40746,"is_reserved":false,"is_disabled":false,"rental_uris":{"android":"levelo://app?vid=ab9ea4d5-385f-4213-9207-9a6809ebbe18","ios":"levelo://app?vid=ab9ea4d5-385f-4213-9207-9a6809ebbe18"},"vehicle_type_id":"4","last_reported":1732846792,"current_range_meters":24400,"station_id":"ce4bhq12rcd13ifvqhig","pricing_plan_id":"cebpf4jnsgd1na2vs0mg"},{"bike_id":"cc37c967-d94d-4e90-ba4a-1377c913b85f","system_id":"levelo_inurba_marseille","lat":43.26494,"lon":5.39541,"is_reserved":false,"is_disabled":false,"rental_uris":{"android":"levelo://app?vid=cc37c967-d94d-4e90-ba4a-1377c913b85f","ios":"levelo://app?vid=cc37c967-d94d-4e90-ba4a-1377c913b85f"},"vehicle_type_id":"4","last_reported":1732846792,"current_range_meters":27600,"station_id":"ce4bhi12rcd13ifvqfq0","pricing_plan_id":"cebpf4jnsgd1na2vs0mg"},{"bike_id":"b28150e4-18cc-4d56-b749-abddac5e0ca1","system_id":"levelo_inurba_marseille","lat":43.24667,"lon":5.38169,"is_reserved":false,"is_disabled":false,"rental_uris":{"android":"levelo://app?vid=b28150e4-18cc-4d56-b749-abddac5e0ca1","ios":"levelo://app?vid=b28150e4-18cc-4d56-b749-abddac5e0ca1"},"vehicle_type_id":"4","last_reported":1732846792,"current_range_meters":38800,"station_id":"ce4bhih2rcd13ifvqfr0","pricing_plan_id":"cebpf4jnsgd1na2vs0mg"},{"bike_id":"81d9f7be-c3c6-4233-bf11-948e6f22debc","system_id":"levelo_inurba_marseille","lat":43.32357,"lon":5.38871,"is_reserved":false,"is_disabled":false,"rental_uris":{"android":"levelo://app?vid=81d9f7be-c3c6-4233-bf11-948e6f22debc","ios":"levelo://app?vid=81d9f7be-c3c6-4233-bf11-948e6f22debc"},"vehicle_type_id":"4","last_reported":1732846792,"current_range_meters":38400,"station_id":"ce4bhqp2rcd13ifvqhog","pricing_plan_id":"cebpf4jnsgd1na2vs0mg"},{"bike_id":"7fe8aae4-e2fd-45e8-ad84-418c66f3914f","system_id":"levelo_inurba_marseille","lat":43.28861,"lon":5.35895,"is_reserved":false,"is_disabled":true,"rental_uris":{"android":"levelo://app?vid=7fe8aae4-e2fd-45e8-ad84-418c66f3914f","ios":"levelo://app?vid=7fe8aae4-e2fd-45e8-ad84-418c66f3914f"},"vehicle_type_id":"4","last_reported":1732846792,"current_range_meters":8800,"station_id":"ce4bhb12rcd13ifvqem0","pricing_plan_id":"cebpf4jnsgd1na2vs0mg"},{"bike_id":"d3002ae4-e8b3-4192-8be0-24c220ff6b8e","system_id":"levelo_inurba_marseille","lat":43.28102,"lon":5.37847,"is_reserved":false,"is_disabled":false,"rental_uris":{"android":"levelo://app?vid=d3002ae4-e8b3-4192-8be0-24c220ff6b8e","ios":"levelo://app?vid=d3002ae4-e8b3-4192-8be0-24c220ff6b8e"},"vehicle_type_id":"4","last_reported":1732846792,"current_range_meters":36800,"station_id":"ce4bha12rcd13ifvqee0","pricing_plan_id":"cebpf4jnsgd1na2vs0mg"},{"bike_id":"4d9843d2-7dfc-4bc3-8e09-2208b04e3616","system_id":"levelo_inurba_marseille","lat":43.31354,"lon":5.38512,"is_reserved":false,"is_disabled":false,"rental_uris":{"android":"levelo://app?vid=4d9843d2-7dfc-4bc3-8e09-2208b04e3616","ios":"levelo://app?vid=4d9843d2-7dfc-4bc3-8e09-2208b04e3616"},"vehicle_type_id":"4","last_reported":1732846792,"current_range_meters":11600,"station_id":"ce4bgt92rcd13ifvqcf0","pricing_plan_id":"cebpf4jnsgd1na2vs0mg"},{"bike_id":"e1350b90-17a2-4605-911f-6cc2fafa31c2","system_id":"levelo_inurba_marseille","lat":43.31726,"lon":5.42404,"is_reserved":false,"is_disabled":false,"rental_uris":{"android":"levelo://app?vid=e1350b90-17a2-4605-911f-6cc2fafa31c2","ios":"levelo://app?vid=e1350b90-17a2-4605-911f-6cc2fafa31c2"},"vehicle_type_id":"4","last_reported":1732846792,"current_range_meters":23200,"station_id":"ce4bhp92rcd13ifvqhbg","pricing_plan_id":"cebpf4jnsgd1na2vs0mg"},{"bike_id":"6e9137a2-a63e-409e-817a-eb2e2b583ef8","system_id":"levelo_inurba_marseille","lat":43.31376,"lon":5.38502,"is_reserved":false,"is_disabled":false,"rental_uris":{"android":"levelo://app?vid=6e9137a2-a63e-409e-817a-eb2e2b583ef8","ios":"levelo://app?vid=6e9137a2-a63e-409e-817a-eb2e2b583ef8"},"vehicle_type_id":"4","last_reported":1732846792,"current_range_meters":38400,"station_id":"ce4bgt92rcd13ifvqcf0","pricing_plan_id":"cebpf4jnsgd1na2vs0mg"},{"bike_id":"29a80c71-9648-4a26-b6c9-5f69092eaa01","system_id":"levelo_inurba_marseille","lat":43.280891,"lon":5.396391,"is_reserved":false,"is_disabled":true,"rental_uris":{"android":"levelo://app?vid=29a80c71-9648-4a26-b6c9-5f69092eaa01","ios":"levelo://app?vid=29a80c71-9648-4a26-b6c9-5f69092eaa01"},"vehicle_type_id":"4","last_reported":1732846792,"current_range_meters":0,"station_id":"ce4bho12rcd13ifvqh2g","pricing_plan_id":"cebpf4jnsgd1na2vs0mg"},{"bike_id":"4d089ae2-8d3d-4ba1-9519-c59633c846c6","system_id":"levelo_inurba_marseille","lat":43.28269,"lon":5.35088,"is_reserved":false,"is_disabled":false,"rental_uris":{"android":"levelo://app?vid=4d089ae2-8d3d-4ba1-9519-c59633c846c6","ios":"levelo://app?vid=4d089ae2-8d3d-4ba1-9519-c59633c846c6"},"vehicle_type_id":"4","last_reported":1732846792,"current_range_meters":38800,"station_id":"ce4bhbp2rcd13ifvqerg","pricing_plan_id":"cebpf4jnsgd1na2vs0mg"},{"bike_id":"2a60fd72-9cfa-415f-937e-d89edec4f374","system_id":"levelo_inurba_marseille","lat":43.25026,"lon":5.38913,"is_reserved":false,"is_disabled":false,"rental_uris":{"android":"levelo://app?vid=2a60fd72-9cfa-415f-937e-d89edec4f374","ios":"levelo://app?vid=2a60fd72-9cfa-415f-937e-d89edec4f374"},"vehicle_type_id":"4","last_reported":1732846792,"current_range_meters":30800,"station_id":"ce4bhgp2rcd13ifvqfd0","pricing_plan_id":"cebpf4jnsgd1na2vs0mg"},{"bike_id":"0995621e-0e5a-482e-8b5a-efe4989f97eb","system_id":"levelo_inurba_marseille","lat":43.31341,"lon":5.38516,"is_reserved":false,"is_disabled":false,"rental_uris":{"android":"levelo://app?vid=0995621e-0e5a-482e-8b5a-efe4989f97eb","ios":"levelo://app?vid=0995621e-0e5a-482e-8b5a-efe4989f97eb"},"vehicle_type_id":"4","last_reported":1732846792,"current_range_meters":8000,"station_id":"ce4bgt92rcd13ifvqcf0","pricing_plan_id":"cebpf4jnsgd1na2vs0mg"},{"bike_id":"5b6140a7-7f65-4ca3-a3f2-419ab04c93da","system_id":"levelo_inurba_marseille","lat":43.22921,"lon":5.35372,"is_reserved":false,"is_disabled":true,"rental_uris":{"android":"levelo://app?vid=5b6140a7-7f65-4ca3-a3f2-419ab04c93da","ios":"levelo://app?vid=5b6140a7-7f65-4ca3-a3f2-419ab04c93da"},"vehicle_type_id":"4","last_reported":1732846792,"current_range_meters":29600,"station_id":"cpo3532slgdg3j2ikp40","pricing_plan_id":"cebpf4jnsgd1na2vs0mg"},{"bike_id":"64f1d7ec-bb5c-4a72-87fb-74dfe1b8e50c","system_id":"levelo_inurba_marseille","lat":43.30928,"lon":5.40148,"is_reserved":false,"is_disabled":false,"rental_uris":{"android":"levelo://app?vid=64f1d7ec-bb5c-4a72-87fb-74dfe1b8e50c","ios":"levelo://app?vid=64f1d7ec-bb5c-4a72-87fb-74dfe1b8e50c"},"vehicle_type_id":"4","last_reported":1732846792,"current_range_meters":38800,"station_id":"ce4bgvp2rcd13ifvqct0","pricing_plan_id":"cebpf4jnsgd1na2vs0mg"},{"bike_id":"f794b8fa-1f88-483b-a054-16f24b00c834","system_id":"levelo_inurba_marseille","lat":43.28269,"lon":5.35078,"is_reserved":false,"is_disabled":true,"rental_uris":{"android":"levelo://app?vid=f794b8fa-1f88-483b-a054-16f24b00c834","ios":"levelo://app?vid=f794b8fa-1f88-483b-a054-16f24b00c834"},"vehicle_type_id":"4","last_reported":1732846792,"current_range_meters":9600,"station_id":"ce4bhbp2rcd13ifvqerg","pricing_plan_id":"cebpf4jnsgd1na2vs0mg"},{"bike_id":"80940577-afe8-4613-b61c-57a7bd481a54","system_id":"levelo_inurba_marseille","lat":43.28462,"lon":5.35888,"is_reserved":false,"is_disabled":false,"rental_uris":{"android":"levelo://app?vid=80940577-afe8-4613-b61c-57a7bd481a54","ios":"levelo://app?vid=80940577-afe8-4613-b61c-57a7bd481a54"},"vehicle_type_id":"4","last_reported":1732846792,"current_range_meters":27200,"station_id":"ce4bhah2rcd13ifvqei0","pricing_plan_id":"cebpf4jnsgd1na2vs0mg"},{"bike_id":"3fc27dc1-e484-41b1-8595-849742206ae2","system_id":"levelo_inurba_marseille","lat":43.32345,"lon":5.4062,"is_reserved":false,"is_disabled":false,"rental_uris":{"android":"levelo://app?vid=3fc27dc1-e484-41b1-8595-849742206ae2","ios":"levelo://app?vid=3fc27dc1-e484-41b1-8595-849742206ae2"},"vehicle_type_id":"4","last_reported":1732846792,"current_range_meters":12000,"station_id":"ce4bhq92rcd13ifvqhjg","pricing_plan_id":"cebpf4jnsgd1na2vs0mg"},{"bike_id":"de3fa110-9268-48bb-8c90-0e177616d2e3","system_id":"levelo_inurba_marseille","lat":43.31282,"lon":5.40165,"is_reserved":false,"is_disabled":false,"rental_uris":{"android":"levelo://app?vid=de3fa110-9268-48bb-8c90-0e177616d2e3","ios":"levelo://app?vid=de3fa110-9268-48bb-8c90-0e177616d2e3"},"vehicle_type_id":"4","last_reported":1732846792,"current_range_meters":23200,"station_id":"ce4bh092rcd13ifvqd30","pricing_plan_id":"cebpf4jnsgd1na2vs0mg"},{"bike_id":"969f8d15-92a4-4c5c-9b7f-8e499035236c","system_id":"levelo_inurba_marseille","lat":43.31291,"lon":5.40174,"is_reserved":false,"is_disabled":false,"rental_uris":{"android":"levelo://app?vid=969f8d15-92a4-4c5c-9b7f-8e499035236c","ios":"levelo://app?vid=969f8d15-92a4-4c5c-9b7f-8e499035236c"},"vehicle_type_id":"4","last_reported":1732846792,"current_range_meters":36800,"station_id":"ce4bh092rcd13ifvqd30","pricing_plan_id":"cebpf4jnsgd1na2vs0mg"},{"bike_id":"a4209cd4-70d3-458b-81a6-38d1ffca5925","system_id":"levelo_inurba_marseille","lat":43.28343,"lon":5.38114,"is_reserved":false,"is_disabled":false,"rental_uris":{"android":"levelo://app?vid=a4209cd4-70d3-458b-81a6-38d1ffca5925","ios":"levelo://app?vid=a4209cd4-70d3-458b-81a6-38d1ffca5925"},"vehicle_type_id":"4","last_reported":1732846792,"current_range_meters":40000,"station_id":"ce4bh412rcd13ifvqdr0","pricing_plan_id":"cebpf4jnsgd1na2vs0mg"},{"bike_id":"960e0ce8-4af8-4a7b-a1d9-99f150008994","system_id":"levelo_inurba_marseille","lat":43.33013,"lon":5.39045,"is_reserved":false,"is_disabled":false,"rental_uris":{"android":"levelo://app?vid=960e0ce8-4af8-4a7b-a1d9-99f150008994","ios":"levelo://app?vid=960e0ce8-4af8-4a7b-a1d9-99f150008994"},"vehicle_type_id":"4","last_reported":1732846792,"current_range_meters":38400,"station_id":"ce4bhr92rcd13ifvqhrg","pricing_plan_id":"cebpf4jnsgd1na2vs0mg"},{"bike_id":"41013cd1-5605-41c1-833c-cffbaa8e8f33","system_id":"levelo_inurba_marseille","lat":43.28351,"lon":5.38117,"is_reserved":false,"is_disabled":false,"rental_uris":{"android":"levelo://app?vid=41013cd1-5605-41c1-833c-cffbaa8e8f33","ios":"levelo://app?vid=41013cd1-5605-41c1-833c-cffbaa8e8f33"},"vehicle_type_id":"4","last_reported":1732846792,"current_range_meters":38800,"station_id":"ce4bh412rcd13ifvqdr0","pricing_plan_id":"cebpf4jnsgd1na2vs0mg"},{"bike_id":"6aa7d263-c9db-4fc0-b9ea-e1517b0dfa32","system_id":"levelo_inurba_marseille","lat":43.28147,"lon":5.42641,"is_reserved":false,"is_disabled":false,"rental_uris":{"android":"levelo://app?vid=6aa7d263-c9db-4fc0-b9ea-e1517b0dfa32","ios":"levelo://app?vid=6aa7d263-c9db-4fc0-b9ea-e1517b0dfa32"},"vehicle_type_id":"4","last_reported":1732846792,"current_range_meters":38800,"station_id":"ce4bhnh2rcd13ifvqgug","pricing_plan_id":"cebpf4jnsgd1na2vs0mg"},{"bike_id":"edeb856b-8c18-4582-a564-a8f907c8aa40","system_id":"levelo_inurba_marseille","lat":43.30605,"lon":5.37209,"is_reserved":false,"is_disabled":false,"rental_uris":{"android":"levelo://app?vid=edeb856b-8c18-4582-a564-a8f907c8aa40","ios":"levelo://app?vid=edeb856b-8c18-4582-a564-a8f907c8aa40"},"vehicle_type_id":"4","last_reported":1732846792,"current_range_meters":38800,"station_id":"ce4bgqh2rcd13ifvqc4g","pricing_plan_id":"cebpf4jnsgd1na2vs0mg"},{"bike_id":"5688fac3-e87c-436a-b4e9-09631dd71f90","system_id":"levelo_inurba_marseille","lat":43.27909,"lon":5.38012,"is_reserved":false,"is_disabled":false,"rental_uris":{"android":"levelo://app?vid=5688fac3-e87c-436a-b4e9-09631dd71f90","ios":"levelo://app?vid=5688fac3-e87c-436a-b4e9-09631dd71f90"},"vehicle_type_id":"4","last_reported":1732846792,"current_range_meters":9600,"station_id":"ce4bhf92rcd13ifvqf50","pricing_plan_id":"cebpf4jnsgd1na2vs0mg"},{"bike_id":"12462571-ac00-4165-924f-fb9f69cddf1f","system_id":"levelo_inurba_marseille","lat":43.27566,"lon":5.3842,"is_reserved":false,"is_disabled":false,"rental_uris":{"android":"levelo://app?vid=12462571-ac00-4165-924f-fb9f69cddf1f","ios":"levelo://app?vid=12462571-ac00-4165-924f-fb9f69cddf1f"},"vehicle_type_id":"4","last_reported":1732846792,"current_range_meters":30400,"station_id":"ce4bhh92rcd13ifvqfi0","pricing_plan_id":"cebpf4jnsgd1na2vs0mg"},{"bike_id":"2e95a691-d7d8-426b-8dba-47b6b56c6a41","system_id":"levelo_inurba_marseille","lat":43.28163,"lon":5.42645,"is_reserved":false,"is_disabled":true,"rental_uris":{"android":"levelo://app?vid=2e95a691-d7d8-426b-8dba-47b6b56c6a41","ios":"levelo://app?vid=2e95a691-d7d8-426b-8dba-47b6b56c6a41"},"vehicle_type_id":"4","last_reported":1732846792,"current_range_meters":3600,"station_id":"ce4bhnh2rcd13ifvqgug","pricing_plan_id":"cebpf4jnsgd1na2vs0mg"},{"bike_id":"c2da9a32-11bc-4fe0-8a48-9b682c55e15f","system_id":"levelo_inurba_marseille","lat":43.28054,"lon":5.3693,"is_reserved":false,"is_disabled":false,"rental_uris":{"android":"levelo://app?vid=c2da9a32-11bc-4fe0-8a48-9b682c55e15f","ios":"levelo://app?vid=c2da9a32-11bc-4fe0-8a48-9b682c55e15f"},"vehicle_type_id":"4","last_reported":1732846792,"current_range_meters":38800,"station_id":"ce4bha12rcd13ifvqef0","pricing_plan_id":"cebpf4jnsgd1na2vs0mg"},{"bike_id":"9c6ac303-315b-4686-a31b-3630a8db8c41","system_id":"levelo_inurba_marseille","lat":43.29963,"lon":5.41325,"is_reserved":false,"is_disabled":false,"rental_uris":{"android":"levelo://app?vid=9c6ac303-315b-4686-a31b-3630a8db8c41","ios":"levelo://app?vid=9c6ac303-315b-4686-a31b-3630a8db8c41"},"vehicle_type_id":"4","last_reported":1732846792,"current_range_meters":36800,"station_id":"ce4bhp12rcd13ifvqh9g","pricing_plan_id":"cebpf4jnsgd1na2vs0mg"},{"bike_id":"4aa958d1-c3c5-44e5-b08d-f97580abbed0","system_id":"levelo_inurba_marseille","lat":43.28852,"lon":5.35862,"is_reserved":false,"is_disabled":false,"rental_uris":{"android":"levelo://app?vid=4aa958d1-c3c5-44e5-b08d-f97580abbed0","ios":"levelo://app?vid=4aa958d1-c3c5-44e5-b08d-f97580abbed0"},"vehicle_type_id":"4","last_reported":1732846792,"current_range_meters":38000,"station_id":"ce4bhb12rcd13ifvqem0","pricing_plan_id":"cebpf4jnsgd1na2vs0mg"},{"bike_id":"4adfe8d8-96d7-4c88-ab44-7ef6a8f2bf9d","system_id":"levelo_inurba_marseille","lat":43.31316,"lon":5.39713,"is_reserved":false,"is_disabled":false,"rental_uris":{"android":"levelo://app?vid=4adfe8d8-96d7-4c88-ab44-7ef6a8f2bf9d","ios":"levelo://app?vid=4adfe8d8-96d7-4c88-ab44-7ef6a8f2bf9d"},"vehicle_type_id":"4","last_reported":1732846792,"current_range_meters":39200,"station_id":"ce4bgvp2rcd13ifvqcu0","pricing_plan_id":"cebpf4jnsgd1na2vs0mg"},{"bike_id":"082b7cd2-9ce0-4486-9a82-02cf1ca7a2c3","system_id":"levelo_inurba_marseille","lat":43.31165,"lon":5.38712,"is_reserved":false,"is_disabled":false,"rental_uris":{"android":"levelo://app?vid=082b7cd2-9ce0-4486-9a82-02cf1ca7a2c3","ios":"levelo://app?vid=082b7cd2-9ce0-4486-9a82-02cf1ca7a2c3"},"vehicle_type_id":"4","last_reported":1732846792,"current_range_meters":39200,"station_id":"ce4bgv12rcd13ifvqcp0","pricing_plan_id":"cebpf4jnsgd1na2vs0mg"},{"bike_id":"26b2c14d-3aff-4e9e-933d-91ae202dcf09","system_id":"levelo_inurba_marseille","lat":43.31067,"lon":5.38354,"is_reserved":false,"is_disabled":false,"rental_uris":{"android":"levelo://app?vid=26b2c14d-3aff-4e9e-933d-91ae202dcf09","ios":"levelo://app?vid=26b2c14d-3aff-4e9e-933d-91ae202dcf09"},"vehicle_type_id":"4","last_reported":1732846792,"current_range_meters":6800,"station_id":"ce4bgv92rcd13ifvqcr0","pricing_plan_id":"cebpf4jnsgd1na2vs0mg"},{"bike_id":"d31969a2-e036-460c-a7db-c18d1a5bec8f","system_id":"levelo_inurba_marseille","lat":43.2781,"lon":5.40712,"is_reserved":false,"is_disabled":false,"rental_uris":{"android":"levelo://app?vid=d31969a2-e036-460c-a7db-c18d1a5bec8f","ios":"levelo://app?vid=d31969a2-e036-460c-a7db-c18d1a5bec8f"},"vehicle_type_id":"4","last_reported":1732846792,"current_range_meters":36800,"station_id":"ce4bhnh2rcd13ifvqgtg","pricing_plan_id":"cebpf4jnsgd1na2vs0mg"},{"bike_id":"e51b2acb-d883-446b-9ce9-347608453ece","system_id":"levelo_inurba_marseille","lat":43.22931,"lon":5.35375,"is_reserved":false,"is_disabled":false,"rental_uris":{"android":"levelo://app?vid=e51b2acb-d883-446b-9ce9-347608453ece","ios":"levelo://app?vid=e51b2acb-d883-446b-9ce9-347608453ece"},"vehicle_type_id":"4","last_reported":1732846792,"current_range_meters":38800,"station_id":"cpo3532slgdg3j2ikp40","pricing_plan_id":"cebpf4jnsgd1na2vs0mg"},{"bike_id":"3086611e-2b5c-4be0-860a-c70d388b9380","system_id":"levelo_inurba_marseille","lat":43.28178,"lon":5.37909,"is_reserved":false,"is_disabled":false,"rental_uris":{"android":"levelo://app?vid=3086611e-2b5c-4be0-860a-c70d388b9380","ios":"levelo://app?vid=3086611e-2b5c-4be0-860a-c70d388b9380"},"vehicle_type_id":"4","last_reported":1732846792,"current_range_meters":32800,"station_id":"ce4bha12rcd13ifvqee0","pricing_plan_id":"cebpf4jnsgd1na2vs0mg"},{"bike_id":"93bf632f-9c2c-453f-931e-3a26e12fd5f1","system_id":"levelo_inurba_marseille","lat":43.30124,"lon":5.39868,"is_reserved":false,"is_disabled":true,"rental_uris":{"android":"levelo://app?vid=93bf632f-9c2c-453f-931e-3a26e12fd5f1","ios":"levelo://app?vid=93bf632f-9c2c-453f-931e-3a26e12fd5f1"},"vehicle_type_id":"4","last_reported":1732846792,"current_range_meters":35600,"station_id":"ce4bh0h2rcd13ifvqd40","pricing_plan_id":"cebpf4jnsgd1na2vs0mg"},{"bike_id":"2081a172-273b-47d8-8736-2e7f61029c8a","system_id":"levelo_inurba_marseille","lat":43.30909,"lon":5.40186,"is_reserved":false,"is_disabled":false,"rental_uris":{"android":"levelo://app?vid=2081a172-273b-47d8-8736-2e7f61029c8a","ios":"levelo://app?vid=2081a172-273b-47d8-8736-2e7f61029c8a"},"vehicle_type_id":"4","last_reported":1732846792,"current_range_meters":30400,"station_id":"ce4bgvp2rcd13ifvqct0","pricing_plan_id":"cebpf4jnsgd1na2vs0mg"},{"bike_id":"fe1c6c60-0f4f-4b5c-a7ea-9f2ff8347245","system_id":"levelo_inurba_marseille","lat":43.27622,"lon":5.36112,"is_reserved":false,"is_disabled":true,"rental_uris":{"android":"levelo://app?vid=fe1c6c60-0f4f-4b5c-a7ea-9f2ff8347245","ios":"levelo://app?vid=fe1c6c60-0f4f-4b5c-a7ea-9f2ff8347245"},"vehicle_type_id":"4","last_reported":1732846792,"current_range_meters":400,"station_id":"ce4bgj92rcd13ifvqbe0","pricing_plan_id":"cebpf4jnsgd1na2vs0mg"},{"bike_id":"fb62c573-2f9e-4e05-b6df-8341401b9528","system_id":"levelo_inurba_marseille","lat":43.28611,"lon":5.370606,"is_reserved":false,"is_disabled":false,"rental_uris":{"android":"levelo://app?vid=fb62c573-2f9e-4e05-b6df-8341401b9528","ios":"levelo://app?vid=fb62c573-2f9e-4e05-b6df-8341401b9528"},"vehicle_type_id":"4","last_reported":1732846792,"current_range_meters":38000,"station_id":"ce4bht12rcd13ifvqi60","pricing_plan_id":"cebpf4jnsgd1na2vs0mg"},{"bike_id":"371abac0-5dd0-42bb-a641-ca0cac7a118a","system_id":"levelo_inurba_marseille","lat":43.27677,"lon":5.38925,"is_reserved":false,"is_disabled":true,"rental_uris":{"android":"levelo://app?vid=371abac0-5dd0-42bb-a641-ca0cac7a118a","ios":"levelo://app?vid=371abac0-5dd0-42bb-a641-ca0cac7a118a"},"vehicle_type_id":"4","last_reported":1732846792,"current_range_meters":0,"station_id":"ce4bhi12rcd13ifvqfo0","pricing_plan_id":"cebpf4jnsgd1na2vs0mg"},{"bike_id":"36b8e559-af12-4230-9101-223ec590d7f3","system_id":"levelo_inurba_marseille","lat":43.32553,"lon":5.41436,"is_reserved":false,"is_disabled":false,"rental_uris":{"android":"levelo://app?vid=36b8e559-af12-4230-9101-223ec590d7f3","ios":"levelo://app?vid=36b8e559-af12-4230-9101-223ec590d7f3"},"vehicle_type_id":"4","last_reported":1732846792,"current_range_meters":38800,"station_id":"ce4bhq12rcd13ifvqhhg","pricing_plan_id":"cebpf4jnsgd1na2vs0mg"},{"bike_id":"44692518-f307-4d34-bde3-20456f8e1767","system_id":"levelo_inurba_marseille","lat":43.27463,"lon":5.39041,"is_reserved":false,"is_disabled":false,"rental_uris":{"android":"levelo://app?vid=44692518-f307-4d34-bde3-20456f8e1767","ios":"levelo://app?vid=44692518-f307-4d34-bde3-20456f8e1767"},"vehicle_type_id":"4","last_reported":1732846792,"current_range_meters":27200,"station_id":"","pricing_plan_id":"cebpf4jnsgd1na2vs0mg"},{"bike_id":"0bcb30b8-a44f-492b-ad8c-0e62e16f67dc","system_id":"levelo_inurba_marseille","lat":43.29516,"lon":5.3942,"is_reserved":false,"is_disabled":false,"rental_uris":{"android":"levelo://app?vid=0bcb30b8-a44f-492b-ad8c-0e62e16f67dc","ios":"levelo://app?vid=0bcb30b8-a44f-492b-ad8c-0e62e16f67dc"},"vehicle_type_id":"4","last_reported":1732846792,"current_range_meters":38000,"station_id":"ce4bh292rcd13ifvqdf0","pricing_plan_id":"cebpf4jnsgd1na2vs0mg"},{"bike_id":"898b7dff-4df3-4872-b4e0-72502a85b372","system_id":"levelo_inurba_marseille","lat":43.2956,"lon":5.39978,"is_reserved":false,"is_disabled":false,"rental_uris":{"android":"levelo://app?vid=898b7dff-4df3-4872-b4e0-72502a85b372","ios":"levelo://app?vid=898b7dff-4df3-4872-b4e0-72502a85b372"},"vehicle_type_id":"4","last_reported":1732846792,"current_range_meters":39200,"station_id":"ce4bh312rcd13ifvqdj0","pricing_plan_id":"cebpf4jnsgd1na2vs0mg"},{"bike_id":"91e5d756-3e01-477b-9095-b1cf5444260a","system_id":"levelo_inurba_marseille","lat":43.24663,"lon":5.38175,"is_reserved":false,"is_disabled":false,"rental_uris":{"android":"levelo://app?vid=91e5d756-3e01-477b-9095-b1cf5444260a","ios":"levelo://app?vid=91e5d756-3e01-477b-9095-b1cf5444260a"},"vehicle_type_id":"4","last_reported":1732846792,"current_range_meters":9600,"station_id":"ce4bhih2rcd13ifvqfr0","pricing_plan_id":"cebpf4jnsgd1na2vs0mg"},{"bike_id":"335d3669-de2c-4562-8ef0-3627e977e855","system_id":"levelo_inurba_marseille","lat":43.2969,"lon":5.3662,"is_reserved":false,"is_disabled":false,"rental_uris":{"android":"levelo://app?vid=335d3669-de2c-4562-8ef0-3627e977e855","ios":"levelo://app?vid=335d3669-de2c-4562-8ef0-3627e977e855"},"vehicle_type_id":"4","last_reported":1732846792,"current_range_meters":38400,"station_id":"ce4bgn12rcd13ifvqbt0","pricing_plan_id":"cebpf4jnsgd1na2vs0mg"},{"bike_id":"896bb771-c287-4bfc-b67d-af4b55d971c0","system_id":"levelo_inurba_marseille","lat":43.24177,"lon":5.39726,"is_reserved":false,"is_disabled":false,"rental_uris":{"android":"levelo://app?vid=896bb771-c287-4bfc-b67d-af4b55d971c0","ios":"levelo://app?vid=896bb771-c287-4bfc-b67d-af4b55d971c0"},"vehicle_type_id":"4","last_reported":1732846792,"current_range_meters":38000,"station_id":"ce4bhn12rcd13ifvqgpg","pricing_plan_id":"cebpf4jnsgd1na2vs0mg"},{"bike_id":"229a55d8-136d-4f53-9e79-63d45f2ee933","system_id":"levelo_inurba_marseille","lat":43.28732,"lon":5.39953,"is_reserved":false,"is_disabled":false,"rental_uris":{"android":"levelo://app?vid=229a55d8-136d-4f53-9e79-63d45f2ee933","ios":"levelo://app?vid=229a55d8-136d-4f53-9e79-63d45f2ee933"},"vehicle_type_id":"4","last_reported":1732846792,"current_range_meters":32000,"station_id":"ce4bho92rcd13ifvqh3g","pricing_plan_id":"cebpf4jnsgd1na2vs0mg"},{"bike_id":"e42c3730-6b48-4ecf-b483-e2c2e24c4f25","system_id":"levelo_inurba_marseille","lat":43.27823,"lon":5.40721,"is_reserved":false,"is_disabled":false,"rental_uris":{"android":"levelo://app?vid=e42c3730-6b48-4ecf-b483-e2c2e24c4f25","ios":"levelo://app?vid=e42c3730-6b48-4ecf-b483-e2c2e24c4f25"},"vehicle_type_id":"4","last_reported":1732846792,"current_range_meters":37600,"station_id":"ce4bhnh2rcd13ifvqgtg","pricing_plan_id":"cebpf4jnsgd1na2vs0mg"},{"bike_id":"3f6f4a2b-d15e-4ac3-9081-84f79781513d","system_id":"levelo_inurba_marseille","lat":43.28719,"lon":5.36095,"is_reserved":false,"is_disabled":false,"rental_uris":{"android":"levelo://app?vid=3f6f4a2b-d15e-4ac3-9081-84f79781513d","ios":"levelo://app?vid=3f6f4a2b-d15e-4ac3-9081-84f79781513d"},"vehicle_type_id":"4","last_reported":1732846792,"current_range_meters":12800,"station_id":"cki0cbj6b192h4jlfktg","pricing_plan_id":"cebpf4jnsgd1na2vs0mg"},{"bike_id":"f21afc80-3ec1-4dbd-ba0c-da243dc5e81e","system_id":"levelo_inurba_marseille","lat":43.31681,"lon":5.37805,"is_reserved":false,"is_disabled":false,"rental_uris":{"android":"levelo://app?vid=f21afc80-3ec1-4dbd-ba0c-da243dc5e81e","ios":"levelo://app?vid=f21afc80-3ec1-4dbd-ba0c-da243dc5e81e"},"vehicle_type_id":"4","last_reported":1732846792,"current_range_meters":38800,"station_id":"ce4bgth2rcd13ifvqch0","pricing_plan_id":"cebpf4jnsgd1na2vs0mg"},{"bike_id":"a11c87cd-c5ed-4a29-ba8a-78abe7a5d984","system_id":"levelo_inurba_marseille","lat":43.27826,"lon":5.39201,"is_reserved":false,"is_disabled":true,"rental_uris":{"android":"levelo://app?vid=a11c87cd-c5ed-4a29-ba8a-78abe7a5d984","ios":"levelo://app?vid=a11c87cd-c5ed-4a29-ba8a-78abe7a5d984"},"vehicle_type_id":"4","last_reported":1732846792,"current_range_meters":28800,"station_id":"ce4bhjp2rcd13ifvqga0","pricing_plan_id":"cebpf4jnsgd1na2vs0mg"},{"bike_id":"3e5a2e41-79f4-4430-a7cc-8ebc5970d02f","system_id":"levelo_inurba_marseille","lat":43.2904,"lon":5.38143,"is_reserved":false,"is_disabled":true,"rental_uris":{"android":"levelo://app?vid=3e5a2e41-79f4-4430-a7cc-8ebc5970d02f","ios":"levelo://app?vid=3e5a2e41-79f4-4430-a7cc-8ebc5970d02f"},"vehicle_type_id":"4","last_reported":1732846792,"current_range_meters":17200,"station_id":"ce4bh4p2rcd13ifvqe1g","pricing_plan_id":"cebpf4jnsgd1na2vs0mg"},{"bike_id":"9d95c138-91c4-40e0-a45c-c4e828158f44","system_id":"levelo_inurba_marseille","lat":43.31063,"lon":5.38359,"is_reserved":false,"is_disabled":false,"rental_uris":{"android":"levelo://app?vid=9d95c138-91c4-40e0-a45c-c4e828158f44","ios":"levelo://app?vid=9d95c138-91c4-40e0-a45c-c4e828158f44"},"vehicle_type_id":"4","last_reported":1732846792,"current_range_meters":28000,"station_id":"ce4bgv92rcd13ifvqcr0","pricing_plan_id":"cebpf4jnsgd1na2vs0mg"},{"bike_id":"75486131-8e85-4448-87a1-67a7e3096de4","system_id":"levelo_inurba_marseille","lat":43.30937,"lon":5.37863,"is_reserved":false,"is_disabled":true,"rental_uris":{"android":"levelo://app?vid=75486131-8e85-4448-87a1-67a7e3096de4","ios":"levelo://app?vid=75486131-8e85-4448-87a1-67a7e3096de4"},"vehicle_type_id":"4","last_reported":1732846792,"current_range_meters":0,"station_id":"","pricing_plan_id":"cebpf4jnsgd1na2vs0mg"},{"bike_id":"a5909545-3e09-4859-9fda-9ffe4e6e4883","system_id":"levelo_inurba_marseille","lat":43.23066,"lon":5.3549,"is_reserved":false,"is_disabled":false,"rental_uris":{"android":"levelo://app?vid=a5909545-3e09-4859-9fda-9ffe4e6e4883","ios":"levelo://app?vid=a5909545-3e09-4859-9fda-9ffe4e6e4883"},"vehicle_type_id":"4","last_reported":1732846792,"current_range_meters":19600,"station_id":"cpo3342slgdg3j2ifvpg","pricing_plan_id":"cebpf4jnsgd1na2vs0mg"},{"bike_id":"784030d3-5f25-464c-adae-5cf44ab50f7e","system_id":"levelo_inurba_marseille","lat":43.27939,"lon":5.4104,"is_reserved":false,"is_disabled":false,"rental_uris":{"android":"levelo://app?vid=784030d3-5f25-464c-adae-5cf44ab50f7e","ios":"levelo://app?vid=784030d3-5f25-464c-adae-5cf44ab50f7e"},"vehicle_type_id":"4","last_reported":1732846792,"current_range_meters":29600,"station_id":"ce4bhnp2rcd13ifvqh0g","pricing_plan_id":"cebpf4jnsgd1na2vs0mg"},{"bike_id":"5559fa9c-6554-4adc-88d5-8830af50ca7b","system_id":"levelo_inurba_marseille","lat":43.29516,"lon":5.39456,"is_reserved":false,"is_disabled":false,"rental_uris":{"android":"levelo://app?vid=5559fa9c-6554-4adc-88d5-8830af50ca7b","ios":"levelo://app?vid=5559fa9c-6554-4adc-88d5-8830af50ca7b"},"vehicle_type_id":"4","last_reported":1732846792,"current_range_meters":12000,"station_id":"ce4bh292rcd13ifvqdf0","pricing_plan_id":"cebpf4jnsgd1na2vs0mg"},{"bike_id":"b6b1f691-f5d4-4437-a273-f7c9759cc4c1","system_id":"levelo_inurba_marseille","lat":43.29197,"lon":5.39326,"is_reserved":false,"is_disabled":true,"rental_uris":{"android":"levelo://app?vid=b6b1f691-f5d4-4437-a273-f7c9759cc4c1","ios":"levelo://app?vid=b6b1f691-f5d4-4437-a273-f7c9759cc4c1"},"vehicle_type_id":"4","last_reported":1732846792,"current_range_meters":38000,"station_id":"ce4bh192rcd13ifvqdd0","pricing_plan_id":"cebpf4jnsgd1na2vs0mg"},{"bike_id":"1f3be82a-39fb-49be-9f70-2df7092d6f3c","system_id":"levelo_inurba_marseille","lat":43.32488,"lon":5.36581,"is_reserved":false,"is_disabled":false,"rental_uris":{"android":"levelo://app?vid=1f3be82a-39fb-49be-9f70-2df7092d6f3c","ios":"levelo://app?vid=1f3be82a-39fb-49be-9f70-2df7092d6f3c"},"vehicle_type_id":"4","last_reported":1732846792,"current_range_meters":14800,"station_id":"ce4bhs12rcd13ifvqhvg","pricing_plan_id":"cebpf4jnsgd1na2vs0mg"},{"bike_id":"5329edfd-3f80-481f-b22a-9053213b3f4f","system_id":"levelo_inurba_marseille","lat":43.33603,"lon":5.41013,"is_reserved":false,"is_disabled":false,"rental_uris":{"android":"levelo://app?vid=5329edfd-3f80-481f-b22a-9053213b3f4f","ios":"levelo://app?vid=5329edfd-3f80-481f-b22a-9053213b3f4f"},"vehicle_type_id":"4","last_reported":1732846792,"current_range_meters":25600,"station_id":"ce4bhqh2rcd13ifvqhmg","pricing_plan_id":"cebpf4jnsgd1na2vs0mg"},{"bike_id":"77a09c01-f73a-4994-ad8c-cc1cb0513316","system_id":"levelo_inurba_marseille","lat":43.30145,"lon":5.37424,"is_reserved":false,"is_disabled":false,"rental_uris":{"android":"levelo://app?vid=77a09c01-f73a-4994-ad8c-cc1cb0513316","ios":"levelo://app?vid=77a09c01-f73a-4994-ad8c-cc1cb0513316"},"vehicle_type_id":"4","last_reported":1732846792,"current_range_meters":19200,"station_id":"ce4bgs92rcd13ifvqcc0","pricing_plan_id":"cebpf4jnsgd1na2vs0mg"},{"bike_id":"3386ced5-0306-44cd-8554-861a220df651","system_id":"levelo_inurba_marseille","lat":43.27051,"lon":5.4227,"is_reserved":false,"is_disabled":false,"rental_uris":{"android":"levelo://app?vid=3386ced5-0306-44cd-8554-861a220df651","ios":"levelo://app?vid=3386ced5-0306-44cd-8554-861a220df651"},"vehicle_type_id":"4","last_reported":1732846792,"current_range_meters":38800,"station_id":"ce4bhk92rcd13ifvqgb0","pricing_plan_id":"cebpf4jnsgd1na2vs0mg"},{"bike_id":"e5951ee3-4a5a-4ebb-b469-096c5188dfa3","system_id":"levelo_inurba_marseille","lat":43.23187,"lon":5.35555,"is_reserved":false,"is_disabled":false,"rental_uris":{"android":"levelo://app?vid=e5951ee3-4a5a-4ebb-b469-096c5188dfa3","ios":"levelo://app?vid=e5951ee3-4a5a-4ebb-b469-096c5188dfa3"},"vehicle_type_id":"4","last_reported":1732846792,"current_range_meters":25600,"station_id":"ce4bhu92rcd13ifvqi70","pricing_plan_id":"cebpf4jnsgd1na2vs0mg"},{"bike_id":"5733288a-0a95-4634-a230-18459870c301","system_id":"levelo_inurba_marseille","lat":43.29219,"lon":5.39338,"is_reserved":false,"is_disabled":false,"rental_uris":{"android":"levelo://app?vid=5733288a-0a95-4634-a230-18459870c301","ios":"levelo://app?vid=5733288a-0a95-4634-a230-18459870c301"},"vehicle_type_id":"4","last_reported":1732846792,"current_range_meters":20000,"station_id":"ce4bh192rcd13ifvqdd0","pricing_plan_id":"cebpf4jnsgd1na2vs0mg"},{"bike_id":"e162dab6-2896-4f47-af89-0694fd91933d","system_id":"levelo_inurba_marseille","lat":43.31267,"lon":5.40168,"is_reserved":false,"is_disabled":false,"rental_uris":{"android":"levelo://app?vid=e162dab6-2896-4f47-af89-0694fd91933d","ios":"levelo://app?vid=e162dab6-2896-4f47-af89-0694fd91933d"},"vehicle_type_id":"4","last_reported":1732846792,"current_range_meters":31200,"station_id":"ce4bh092rcd13ifvqd30","pricing_plan_id":"cebpf4jnsgd1na2vs0mg"},{"bike_id":"cc633f01-bdc8-430a-91b8-8b9dcc960bcd","system_id":"levelo_inurba_marseille","lat":43.32289,"lon":5.38269,"is_reserved":false,"is_disabled":false,"rental_uris":{"android":"levelo://app?vid=cc633f01-bdc8-430a-91b8-8b9dcc960bcd","ios":"levelo://app?vid=cc633f01-bdc8-430a-91b8-8b9dcc960bcd"},"vehicle_type_id":"4","last_reported":1732846792,"current_range_meters":38800,"station_id":"ce4bhr12rcd13ifvqhqg","pricing_plan_id":"cebpf4jnsgd1na2vs0mg"},{"bike_id":"6c3f2765-db95-49ab-b798-a0ebacf63bb3","system_id":"levelo_inurba_marseille","lat":43.3414,"lon":5.40914,"is_reserved":false,"is_disabled":false,"rental_uris":{"android":"levelo://app?vid=6c3f2765-db95-49ab-b798-a0ebacf63bb3","ios":"levelo://app?vid=6c3f2765-db95-49ab-b798-a0ebacf63bb3"},"vehicle_type_id":"4","last_reported":1732846792,"current_range_meters":34000,"station_id":"ce4bhqh2rcd13ifvqhlg","pricing_plan_id":"cebpf4jnsgd1na2vs0mg"},{"bike_id":"6af8456e-bf83-48d8-8c46-e2069ed79b1b","system_id":"levelo_inurba_marseille","lat":43.27172,"lon":5.40981,"is_reserved":false,"is_disabled":false,"rental_uris":{"android":"levelo://app?vid=6af8456e-bf83-48d8-8c46-e2069ed79b1b","ios":"levelo://app?vid=6af8456e-bf83-48d8-8c46-e2069ed79b1b"},"vehicle_type_id":"4","last_reported":1732846792,"current_range_meters":36000,"station_id":"ce4bhl12rcd13ifvqgf0","pricing_plan_id":"cebpf4jnsgd1na2vs0mg"},{"bike_id":"deeb86e6-447f-42ec-9c09-1f848d62ca5e","system_id":"levelo_inurba_marseille","lat":43.28694,"lon":5.40003,"is_reserved":false,"is_disabled":false,"rental_uris":{"android":"levelo://app?vid=deeb86e6-447f-42ec-9c09-1f848d62ca5e","ios":"levelo://app?vid=deeb86e6-447f-42ec-9c09-1f848d62ca5e"},"vehicle_type_id":"4","last_reported":1732846792,"current_range_meters":23200,"station_id":"ce4bho92rcd13ifvqh3g","pricing_plan_id":"cebpf4jnsgd1na2vs0mg"},{"bike_id":"968cd8c8-9284-4285-8be1-e26ca5a81010","system_id":"levelo_inurba_marseille","lat":43.30648,"lon":5.40075,"is_reserved":false,"is_disabled":false,"rental_uris":{"android":"levelo://app?vid=968cd8c8-9284-4285-8be1-e26ca5a81010","ios":"levelo://app?vid=968cd8c8-9284-4285-8be1-e26ca5a81010"},"vehicle_type_id":"4","last_reported":1732846792,"current_range_meters":34000,"station_id":"ce4bh112rcd13ifvqda0","pricing_plan_id":"cebpf4jnsgd1na2vs0mg"},{"bike_id":"2a75dead-01eb-416b-bf7a-87fb5392efa0","system_id":"levelo_inurba_marseille","lat":43.24648,"lon":5.38908,"is_reserved":false,"is_disabled":false,"rental_uris":{"android":"levelo://app?vid=2a75dead-01eb-416b-bf7a-87fb5392efa0","ios":"levelo://app?vid=2a75dead-01eb-416b-bf7a-87fb5392efa0"},"vehicle_type_id":"4","last_reported":1732846792,"current_range_meters":38000,"station_id":"ce4bhg12rcd13ifvqf60","pricing_plan_id":"cebpf4jnsgd1na2vs0mg"},{"bike_id":"f07be376-12c0-44a4-8084-05a29a74bdae","system_id":"levelo_inurba_marseille","lat":43.30425,"lon":5.41262,"is_reserved":false,"is_disabled":true,"rental_uris":{"android":"levelo://app?vid=f07be376-12c0-44a4-8084-05a29a74bdae","ios":"levelo://app?vid=f07be376-12c0-44a4-8084-05a29a74bdae"},"vehicle_type_id":"4","last_reported":1732846792,"current_range_meters":0,"station_id":"ce4bhop2rcd13ifvqh8g","pricing_plan_id":"cebpf4jnsgd1na2vs0mg"},{"bike_id":"de8dedfd-c65e-4ce5-b8ec-b5ab34a22a6e","system_id":"levelo_inurba_marseille","lat":43.27068,"lon":5.42271,"is_reserved":false,"is_disabled":true,"rental_uris":{"android":"levelo://app?vid=de8dedfd-c65e-4ce5-b8ec-b5ab34a22a6e","ios":"levelo://app?vid=de8dedfd-c65e-4ce5-b8ec-b5ab34a22a6e"},"vehicle_type_id":"4","last_reported":1732846792,"current_range_meters":38800,"station_id":"ce4bhk92rcd13ifvqgb0","pricing_plan_id":"cebpf4jnsgd1na2vs0mg"},{"bike_id":"88017654-35c5-46a0-bf88-dad2fc7092a1","system_id":"levelo_inurba_marseille","lat":43.31528,"lon":5.38038,"is_reserved":false,"is_disabled":false,"rental_uris":{"android":"levelo://app?vid=88017654-35c5-46a0-bf88-dad2fc7092a1","ios":"levelo://app?vid=88017654-35c5-46a0-bf88-dad2fc7092a1"},"vehicle_type_id":"4","last_reported":1732846792,"current_range_meters":38800,"station_id":"ce4bhsp2rcd13ifvqi50","pricing_plan_id":"cebpf4jnsgd1na2vs0mg"},{"bike_id":"edd0c985-8684-4759-8848-5b0ccc1b8086","system_id":"levelo_inurba_marseille","lat":43.31362,"lon":5.38516,"is_reserved":false,"is_disabled":false,"rental_uris":{"android":"levelo://app?vid=edd0c985-8684-4759-8848-5b0ccc1b8086","ios":"levelo://app?vid=edd0c985-8684-4759-8848-5b0ccc1b8086"},"vehicle_type_id":"4","last_reported":1732846792,"current_range_meters":16800,"station_id":"ce4bgt92rcd13ifvqcf0","pricing_plan_id":"cebpf4jnsgd1na2vs0mg"},{"bike_id":"06cf4a98-1117-420a-ac73-1c6ad1620d76","system_id":"levelo_inurba_marseille","lat":43.27833,"lon":5.39214,"is_reserved":false,"is_disabled":false,"rental_uris":{"android":"levelo://app?vid=06cf4a98-1117-420a-ac73-1c6ad1620d76","ios":"levelo://app?vid=06cf4a98-1117-420a-ac73-1c6ad1620d76"},"vehicle_type_id":"4","last_reported":1732846792,"current_range_meters":12400,"station_id":"ce4bhjp2rcd13ifvqga0","pricing_plan_id":"cebpf4jnsgd1na2vs0mg"},{"bike_id":"6fc223c7-5ccb-4bbf-b122-e543dd0cde6c","system_id":"levelo_inurba_marseille","lat":43.3128,"lon":5.4016,"is_reserved":false,"is_disabled":false,"rental_uris":{"android":"levelo://app?vid=6fc223c7-5ccb-4bbf-b122-e543dd0cde6c","ios":"levelo://app?vid=6fc223c7-5ccb-4bbf-b122-e543dd0cde6c"},"vehicle_type_id":"4","last_reported":1732846792,"current_range_meters":38800,"station_id":"ce4bh092rcd13ifvqd30","pricing_plan_id":"cebpf4jnsgd1na2vs0mg"},{"bike_id":"d2d01e23-35ca-407f-8292-f4fa070f2e36","system_id":"levelo_inurba_marseille","lat":43.28703,"lon":5.37404,"is_reserved":false,"is_disabled":false,"rental_uris":{"android":"levelo://app?vid=d2d01e23-35ca-407f-8292-f4fa070f2e36","ios":"levelo://app?vid=d2d01e23-35ca-407f-8292-f4fa070f2e36"},"vehicle_type_id":"4","last_reported":1732846792,"current_range_meters":36800,"station_id":"ce4bh3p2rcd13ifvqdq0","pricing_plan_id":"cebpf4jnsgd1na2vs0mg"},{"bike_id":"04140521-b99c-426b-829c-a7832eed2d5f","system_id":"levelo_inurba_marseille","lat":43.28042,"lon":5.36937,"is_reserved":false,"is_disabled":false,"rental_uris":{"android":"levelo://app?vid=04140521-b99c-426b-829c-a7832eed2d5f","ios":"levelo://app?vid=04140521-b99c-426b-829c-a7832eed2d5f"},"vehicle_type_id":"4","last_reported":1732846792,"current_range_meters":30800,"station_id":"ce4bha12rcd13ifvqef0","pricing_plan_id":"cebpf4jnsgd1na2vs0mg"},{"bike_id":"31556a9c-75b7-49c4-b9bd-5409b6da0083","system_id":"levelo_inurba_marseille","lat":43.31382,"lon":5.38499,"is_reserved":false,"is_disabled":false,"rental_uris":{"android":"levelo://app?vid=31556a9c-75b7-49c4-b9bd-5409b6da0083","ios":"levelo://app?vid=31556a9c-75b7-49c4-b9bd-5409b6da0083"},"vehicle_type_id":"4","last_reported":1732846792,"current_range_meters":22800,"station_id":"ce4bgt92rcd13ifvqcf0","pricing_plan_id":"cebpf4jnsgd1na2vs0mg"},{"bike_id":"3a3b1b2b-9521-4bba-ba92-f3603821bdb4","system_id":"levelo_inurba_marseille","lat":43.25585,"lon":5.38242,"is_reserved":false,"is_disabled":false,"rental_uris":{"android":"levelo://app?vid=3a3b1b2b-9521-4bba-ba92-f3603821bdb4","ios":"levelo://app?vid=3a3b1b2b-9521-4bba-ba92-f3603821bdb4"},"vehicle_type_id":"4","last_reported":1732846792,"current_range_meters":26000,"station_id":"ce4bhih2rcd13ifvqfs0","pricing_plan_id":"cebpf4jnsgd1na2vs0mg"},{"bike_id":"6cdca301-a6f9-46d8-b774-ea570d50511a","system_id":"levelo_inurba_marseille","lat":43.25088,"lon":5.39513,"is_reserved":false,"is_disabled":false,"rental_uris":{"android":"levelo://app?vid=6cdca301-a6f9-46d8-b774-ea570d50511a","ios":"levelo://app?vid=6cdca301-a6f9-46d8-b774-ea570d50511a"},"vehicle_type_id":"4","last_reported":1732846792,"current_range_meters":37600,"station_id":"ce4bhm12rcd13ifvqgkg","pricing_plan_id":"cebpf4jnsgd1na2vs0mg"},{"bike_id":"63c3b7c5-a0a5-4303-943a-5512cff1f3b4","system_id":"levelo_inurba_marseille","lat":43.32376,"lon":5.38878,"is_reserved":false,"is_disabled":false,"rental_uris":{"android":"levelo://app?vid=63c3b7c5-a0a5-4303-943a-5512cff1f3b4","ios":"levelo://app?vid=63c3b7c5-a0a5-4303-943a-5512cff1f3b4"},"vehicle_type_id":"4","last_reported":1732846792,"current_range_meters":24400,"station_id":"ce4bhqp2rcd13ifvqhog","pricing_plan_id":"cebpf4jnsgd1na2vs0mg"},{"bike_id":"e666f953-78ae-4769-9367-523118478078","system_id":"levelo_inurba_marseille","lat":43.28101,"lon":5.37844,"is_reserved":false,"is_disabled":false,"rental_uris":{"android":"levelo://app?vid=e666f953-78ae-4769-9367-523118478078","ios":"levelo://app?vid=e666f953-78ae-4769-9367-523118478078"},"vehicle_type_id":"4","last_reported":1732846792,"current_range_meters":38000,"station_id":"ce4bha12rcd13ifvqee0","pricing_plan_id":"cebpf4jnsgd1na2vs0mg"},{"bike_id":"6108fa7b-e921-434d-b33c-8c98fca98dfc","system_id":"levelo_inurba_marseille","lat":43.28107,"lon":5.37841,"is_reserved":false,"is_disabled":false,"rental_uris":{"android":"levelo://app?vid=6108fa7b-e921-434d-b33c-8c98fca98dfc","ios":"levelo://app?vid=6108fa7b-e921-434d-b33c-8c98fca98dfc"},"vehicle_type_id":"4","last_reported":1732846792,"current_range_meters":34000,"station_id":"ce4bha12rcd13ifvqee0","pricing_plan_id":"cebpf4jnsgd1na2vs0mg"},{"bike_id":"0b67c11a-7f61-471c-b133-c725ccafd423","system_id":"levelo_inurba_marseille","lat":43.28947,"lon":5.36385,"is_reserved":false,"is_disabled":false,"rental_uris":{"android":"levelo://app?vid=0b67c11a-7f61-471c-b133-c725ccafd423","ios":"levelo://app?vid=0b67c11a-7f61-471c-b133-c725ccafd423"},"vehicle_type_id":"4","last_reported":1732846792,"current_range_meters":35600,"station_id":"ce4bhc92rcd13ifvqetg","pricing_plan_id":"cebpf4jnsgd1na2vs0mg"},{"bike_id":"7ac8541e-0478-4b4b-8c77-7f232f1a9ae5","system_id":"levelo_inurba_marseille","lat":43.29035,"lon":5.39917,"is_reserved":false,"is_disabled":false,"rental_uris":{"android":"levelo://app?vid=7ac8541e-0478-4b4b-8c77-7f232f1a9ae5","ios":"levelo://app?vid=7ac8541e-0478-4b4b-8c77-7f232f1a9ae5"},"vehicle_type_id":"4","last_reported":1732846792,"current_range_meters":12800,"station_id":"ce4bh392rcd13ifvqdm0","pricing_plan_id":"cebpf4jnsgd1na2vs0mg"},{"bike_id":"43746d86-8a13-4845-9faf-ae69b548d714","system_id":"levelo_inurba_marseille","lat":43.29459,"lon":5.37917,"is_reserved":false,"is_disabled":true,"rental_uris":{"android":"levelo://app?vid=43746d86-8a13-4845-9faf-ae69b548d714","ios":"levelo://app?vid=43746d86-8a13-4845-9faf-ae69b548d714"},"vehicle_type_id":"4","last_reported":1732846792,"current_range_meters":0,"station_id":"","pricing_plan_id":"cebpf4jnsgd1na2vs0mg"},{"bike_id":"275580cb-c826-4ddc-bea0-bdea9342896d","system_id":"levelo_inurba_marseille","lat":43.31534,"lon":5.38023,"is_reserved":false,"is_disabled":false,"rental_uris":{"android":"levelo://app?vid=275580cb-c826-4ddc-bea0-bdea9342896d","ios":"levelo://app?vid=275580cb-c826-4ddc-bea0-bdea9342896d"},"vehicle_type_id":"4","last_reported":1732846792,"current_range_meters":33200,"station_id":"ce4bhsp2rcd13ifvqi50","pricing_plan_id":"cebpf4jnsgd1na2vs0mg"},{"bike_id":"36603975-a82a-4e80-bfd2-6b7269bf6b54","system_id":"levelo_inurba_marseille","lat":43.32662,"lon":5.40993,"is_reserved":false,"is_disabled":false,"rental_uris":{"android":"levelo://app?vid=36603975-a82a-4e80-bfd2-6b7269bf6b54","ios":"levelo://app?vid=36603975-a82a-4e80-bfd2-6b7269bf6b54"},"vehicle_type_id":"4","last_reported":1732846792,"current_range_meters":38800,"station_id":"ce4bhpp2rcd13ifvqhgg","pricing_plan_id":"cebpf4jnsgd1na2vs0mg"},{"bike_id":"867f2eee-3850-4e4a-9654-c8d051c37d1c","system_id":"levelo_inurba_marseille","lat":43.30887,"lon":5.39647,"is_reserved":false,"is_disabled":false,"rental_uris":{"android":"levelo://app?vid=867f2eee-3850-4e4a-9654-c8d051c37d1c","ios":"levelo://app?vid=867f2eee-3850-4e4a-9654-c8d051c37d1c"},"vehicle_type_id":"4","last_reported":1732846792,"current_range_meters":38800,"station_id":"ce4bh012rcd13ifvqcv0","pricing_plan_id":"cebpf4jnsgd1na2vs0mg"},{"bike_id":"24475bbe-d591-422d-886b-4e03bfa37464","system_id":"levelo_inurba_marseille","lat":43.23192,"lon":5.39954,"is_reserved":false,"is_disabled":false,"rental_uris":{"android":"levelo://app?vid=24475bbe-d591-422d-886b-4e03bfa37464","ios":"levelo://app?vid=24475bbe-d591-422d-886b-4e03bfa37464"},"vehicle_type_id":"4","last_reported":1732846792,"current_range_meters":38400,"station_id":"ce4bhn12rcd13ifvqgqg","pricing_plan_id":"cebpf4jnsgd1na2vs0mg"},{"bike_id":"f21851d2-4b6a-4ef0-a92f-0a09916706ce","system_id":"levelo_inurba_marseille","lat":43.27222,"lon":5.40976,"is_reserved":false,"is_disabled":false,"rental_uris":{"android":"levelo://app?vid=f21851d2-4b6a-4ef0-a92f-0a09916706ce","ios":"levelo://app?vid=f21851d2-4b6a-4ef0-a92f-0a09916706ce"},"vehicle_type_id":"4","last_reported":1732846792,"current_range_meters":39200,"station_id":"ce4bhl12rcd13ifvqgf0","pricing_plan_id":"cebpf4jnsgd1na2vs0mg"},{"bike_id":"48b5ff29-f272-4faf-a81d-daa5ce069c5c","system_id":"levelo_inurba_marseille","lat":43.31285,"lon":5.38877,"is_reserved":false,"is_disabled":false,"rental_uris":{"android":"levelo://app?vid=48b5ff29-f272-4faf-a81d-daa5ce069c5c","ios":"levelo://app?vid=48b5ff29-f272-4faf-a81d-daa5ce069c5c"},"vehicle_type_id":"4","last_reported":1732846792,"current_range_meters":9200,"station_id":"","pricing_plan_id":"cebpf4jnsgd1na2vs0mg"},{"bike_id":"38f07019-7b2d-4ea4-8138-ab655e972192","system_id":"levelo_inurba_marseille","lat":43.28563,"lon":5.39494,"is_reserved":false,"is_disabled":false,"rental_uris":{"android":"levelo://app?vid=38f07019-7b2d-4ea4-8138-ab655e972192","ios":"levelo://app?vid=38f07019-7b2d-4ea4-8138-ab655e972192"},"vehicle_type_id":"4","last_reported":1732846792,"current_range_meters":38000,"station_id":"ce4bh292rcd13ifvqdg0","pricing_plan_id":"cebpf4jnsgd1na2vs0mg"},{"bike_id":"bb2d75fd-eb1e-47e2-8da6-ca4e05134df5","system_id":"levelo_inurba_marseille","lat":43.24672,"lon":5.38146,"is_reserved":false,"is_disabled":false,"rental_uris":{"android":"levelo://app?vid=bb2d75fd-eb1e-47e2-8da6-ca4e05134df5","ios":"levelo://app?vid=bb2d75fd-eb1e-47e2-8da6-ca4e05134df5"},"vehicle_type_id":"4","last_reported":1732846792,"current_range_meters":38800,"station_id":"ce4bhih2rcd13ifvqfr0","pricing_plan_id":"cebpf4jnsgd1na2vs0mg"},{"bike_id":"207ee563-28e6-4f18-b3f1-22fe6f5fb58f","system_id":"levelo_inurba_marseille","lat":43.31755,"lon":5.39021,"is_reserved":false,"is_disabled":false,"rental_uris":{"android":"levelo://app?vid=207ee563-28e6-4f18-b3f1-22fe6f5fb58f","ios":"levelo://app?vid=207ee563-28e6-4f18-b3f1-22fe6f5fb58f"},"vehicle_type_id":"4","last_reported":1732846792,"current_range_meters":28800,"station_id":"ce4bhqp2rcd13ifvqhng","pricing_plan_id":"cebpf4jnsgd1na2vs0mg"},{"bike_id":"f56fb7e3-c722-421f-956f-65aa7ba72e68","system_id":"levelo_inurba_marseille","lat":43.31523,"lon":5.37292,"is_reserved":false,"is_disabled":false,"rental_uris":{"android":"levelo://app?vid=f56fb7e3-c722-421f-956f-65aa7ba72e68","ios":"levelo://app?vid=f56fb7e3-c722-421f-956f-65aa7ba72e68"},"vehicle_type_id":"4","last_reported":1732846792,"current_range_meters":27600,"station_id":"ce4bgt12rcd13ifvqcd0","pricing_plan_id":"cebpf4jnsgd1na2vs0mg"},{"bike_id":"fc624297-e35e-4dbb-b061-c0bce6fc8715","system_id":"levelo_inurba_marseille","lat":43.28472,"lon":5.35884,"is_reserved":false,"is_disabled":false,"rental_uris":{"android":"levelo://app?vid=fc624297-e35e-4dbb-b061-c0bce6fc8715","ios":"levelo://app?vid=fc624297-e35e-4dbb-b061-c0bce6fc8715"},"vehicle_type_id":"4","last_reported":1732846792,"current_range_meters":33600,"station_id":"ce4bhah2rcd13ifvqei0","pricing_plan_id":"cebpf4jnsgd1na2vs0mg"},{"bike_id":"3b197e5a-c568-4760-aa41-5161a5428fdb","system_id":"levelo_inurba_marseille","lat":43.28007,"lon":5.39994,"is_reserved":false,"is_disabled":false,"rental_uris":{"android":"levelo://app?vid=3b197e5a-c568-4760-aa41-5161a5428fdb","ios":"levelo://app?vid=3b197e5a-c568-4760-aa41-5161a5428fdb"},"vehicle_type_id":"4","last_reported":1732846792,"current_range_meters":32800,"station_id":"ce4bho92rcd13ifvqh4g","pricing_plan_id":"cebpf4jnsgd1na2vs0mg"},{"bike_id":"9783b55c-a85e-4c32-9342-ae4463038363","system_id":"levelo_inurba_marseille","lat":43.27067,"lon":5.42273,"is_reserved":false,"is_disabled":false,"rental_uris":{"android":"levelo://app?vid=9783b55c-a85e-4c32-9342-ae4463038363","ios":"levelo://app?vid=9783b55c-a85e-4c32-9342-ae4463038363"},"vehicle_type_id":"4","last_reported":1732846792,"current_range_meters":38800,"station_id":"ce4bhk92rcd13ifvqgb0","pricing_plan_id":"cebpf4jnsgd1na2vs0mg"},{"bike_id":"73237246-d3c1-43bc-bad7-8e44028b6f2d","system_id":"levelo_inurba_marseille","lat":43.23182,"lon":5.39989,"is_reserved":false,"is_disabled":false,"rental_uris":{"android":"levelo://app?vid=73237246-d3c1-43bc-bad7-8e44028b6f2d","ios":"levelo://app?vid=73237246-d3c1-43bc-bad7-8e44028b6f2d"},"vehicle_type_id":"4","last_reported":1732846792,"current_range_meters":28400,"station_id":"ce4bhn12rcd13ifvqgqg","pricing_plan_id":"cebpf4jnsgd1na2vs0mg"},{"bike_id":"b61d80d7-b353-4771-8382-6558a9c16f91","system_id":"levelo_inurba_marseille","lat":43.31769,"lon":5.39009,"is_reserved":false,"is_disabled":false,"rental_uris":{"android":"levelo://app?vid=b61d80d7-b353-4771-8382-6558a9c16f91","ios":"levelo://app?vid=b61d80d7-b353-4771-8382-6558a9c16f91"},"vehicle_type_id":"4","last_reported":1732846792,"current_range_meters":17200,"station_id":"ce4bhqp2rcd13ifvqhng","pricing_plan_id":"cebpf4jnsgd1na2vs0mg"},{"bike_id":"fc4d15f5-6256-45a3-90d6-77bb4c676955","system_id":"levelo_inurba_marseille","lat":43.296284,"lon":5.377877,"is_reserved":false,"is_disabled":true,"rental_uris":{"android":"levelo://app?vid=fc4d15f5-6256-45a3-90d6-77bb4c676955","ios":"levelo://app?vid=fc4d15f5-6256-45a3-90d6-77bb4c676955"},"vehicle_type_id":"4","last_reported":1732846792,"current_range_meters":31200,"station_id":"","pricing_plan_id":"cebpf4jnsgd1na2vs0mg"},{"bike_id":"555b0212-1e13-46d2-a35d-899f48647c87","system_id":"levelo_inurba_marseille","lat":43.3025,"lon":5.40088,"is_reserved":false,"is_disabled":false,"rental_uris":{"android":"levelo://app?vid=555b0212-1e13-46d2-a35d-899f48647c87","ios":"levelo://app?vid=555b0212-1e13-46d2-a35d-899f48647c87"},"vehicle_type_id":"4","last_reported":1732846792,"current_range_meters":38000,"station_id":"ce4bgvh2rcd13ifvqcs0","pricing_plan_id":"cebpf4jnsgd1na2vs0mg"},{"bike_id":"c88f8730-1176-4717-97e2-17c27b15274f","system_id":"levelo_inurba_marseille","lat":43.23201,"lon":5.3554,"is_reserved":false,"is_disabled":false,"rental_uris":{"android":"levelo://app?vid=c88f8730-1176-4717-97e2-17c27b15274f","ios":"levelo://app?vid=c88f8730-1176-4717-97e2-17c27b15274f"},"vehicle_type_id":"4","last_reported":1732846792,"current_range_meters":39200,"station_id":"ce4bhu92rcd13ifvqi70","pricing_plan_id":"cebpf4jnsgd1na2vs0mg"},{"bike_id":"a9e111f5-2597-4318-b5a6-43bcb08f5159","system_id":"levelo_inurba_marseille","lat":43.25741,"lon":5.41076,"is_reserved":false,"is_disabled":false,"rental_uris":{"android":"levelo://app?vid=a9e111f5-2597-4318-b5a6-43bcb08f5159","ios":"levelo://app?vid=a9e111f5-2597-4318-b5a6-43bcb08f5159"},"vehicle_type_id":"4","last_reported":1732846792,"current_range_meters":38000,"station_id":"ce4bhkp2rcd13ifvqgd0","pricing_plan_id":"cebpf4jnsgd1na2vs0mg"},