{"last_updated":1700989560,"ttl":30,"version":"2.2","data":{"bikes":[{"bike_id":"81b54e6a-6719-41a5-9771-a5837602b04f","system_id":"levelo_inurba_marseille","lat":43.309076,"lon":5.368465,"is_reserved":false,"is_disabled":false,"rental_uris":{"android":"levelo://app?vid=81b54e6a-6719-41a5-9771-a5837602b04f","ios":"levelo://app?vid=81b54e6a-6719-41a5-9771-a5837602b04f"},"vehicle_type_id":"4","last_reported":1700989560,"current_range_meters":23600,"station_id":"ce4bgn92rcd13ifvqbvg","pricing_plan_id":"free"},{"bike_id":"03d2367c-9729-40ce-bbe3-676067b27942","system_id":"levelo_inurba_marseille","lat":43.309076,"lon":5.368465,"is_reserved":false,"is_disabled":false,"rental_uris":{"android":"levelo://app?vid=03d2367c-9729-40ce-bbe3-676067b27942","ios":"levelo://app?vid=03d2367c-9729-40ce-bbe3-676067b27942"},"vehicle_type_id":"4","last_reported":1700989560,"current_range_meters":30400,"station_id":"ce4bgn92rcd13ifvqbvg","pricing_plan_id":"free"},{"bike_id":"2c4e2ab4-2bc9-4e71-8e28-b7f9c78b7444","system_id":"levelo_inurba_marseille","lat":43.305945,"lon":5.365685,"is_reserved":false,"is_disabled":false,"rental_uris":{"android":"levelo://app?vid=2c4e2ab4-2bc9-4e71-8e28-b7f9c78b7444","ios":"levelo://app?vid=2c4e2ab4-2bc9-4e71-8e28-b7f9c78b7444"},"vehicle_type_id":"4","last_reported":1700989560,"current_range_meters":0,"station_id":"ce4bgs12rcd13ifvqcag","pricing_plan_id":"free"},{"bike_id":"658d29b0-08c1-4e20-a094-40c9ebef41ff","system_id":"levelo_inurba_marseille","lat":43.305712,"lon":5.365641,"is_reserved":false,"is_disabled":false,"rental_uris":{"android":"levelo://app?vid=658d29b0-08c1-4e20-a094-40c9ebef41ff","ios":"levelo://app?vid=658d29b0-08c1-4e20-a094-40c9ebef41ff"},"vehicle_type_id":"4","last_reported":1700989560,"current_range_meters":27200,"station_id":"ce4bgs12rcd13ifvqcag","pricing_plan_id":"free"},{"bike_id":"bdc51e8a-d4d9-414d-83ee-10c3742da7a8","system_id":"levelo_inurba_marseille","lat":43.305712,"lon":5.365641,"is_reserved":false,"is_disabled":false,"rental_uris":{"android":"levelo://app?vid=bdc51e8a-d4d9-414d-83ee-10c3742da7a8","ios":"levelo://app?vid=bdc51e8a-d4d9-414d-83ee-10c3742da7a8"},"vehicle_type_id":"4","last_reported":1700989560,"current_range_meters":25200,"station_id":"ce4bgs12rcd13ifvqcag","pricing_plan_id":"free"},{"bike_id":"6513f7a6-9d89-4ce0-b604-777c72f2af23","system_id":"levelo_inurba_marseille","lat":43.305706,"lon":5.365654,"is_reserved":false,"is_disabled":false,"rental_uris":{"android":"levelo://app?vid=6513f7a6-9d89-4ce0-b604-777c72f2af23","ios":"levelo://app?vid=6513f7a6-9d89-4ce0-b604-777c72f2af23"},"vehicle_type_id":"4","last_reported":1700989560,"current_range_meters":1200,"station_id":"ce4bgs12rcd13ifvqcag","pricing_plan_id":"free"},{"bike_id":"2eb2a494-c403-44eb-b9e6-df0e690298e4","system_id":"levelo_inurba_marseille","lat":43.305706,"lon":5.365654,"is_reserved":false,"is_disabled":false,"rental_uris":{"android":"levelo://app?vid=2eb2a494-c403-44eb-b9e6-df0e690298e4","ios":"levelo://app?vid=2eb2a494-c403-44eb-b9e6-df0e690298e4"},"vehicle_type_id":"4","last_reported":1700989560,"current_range_meters":29200,"station_id":"ce4bgs12rcd13ifvqcag","pricing_plan_id":"free"},{"bike_id":"573a870a-b6c4-429d-8587-8103772b84bc","system_id":"levelo_inurba_marseille","lat":43.308165,"lon":5.376608,"is_reserved":false,"is_disabled":false,"rental_uris":{"android":"levelo://app?vid=573a870a-b6c4-429d-8587-8103772b84bc","ios":"levelo://app?vid=573a870a-b6c4-429d-8587-8103772b84bc"},"vehicle_type_id":"4","last_reported":1700989560,"current_range_meters":1200,"station_id":"ce4bgv92rcd13ifvqcq0","pricing_plan_id":"free"},{"bike_id":"f427a2c3-6e4a-446b-ae2f-9be8aa7f4122","system_id":"levelo_inurba_marseille","lat":43.31719,"lon":5.376813,"is_reserved":false,"is_disabled":false,"rental_uris":{"android":"levelo://app?vid=f427a2c3-6e4a-446b-ae2f-9be8aa7f4122","ios":"levelo://app?vid=f427a2c3-6e4a-446b-ae2f-9be8aa7f4122"},"vehicle_type_id":"4","last_reported":1700989560,"current_range_meters":21600,"station_id":"ce4bgth2rcd13ifvqch0","pricing_plan_id":"free"},{"bike_id":"b898b018-f57d-4901-bab2-fdd15d391de9","system_id":"levelo_inurba_marseille","lat":43.317168,"lon":5.376883,"is_reserved":false,"is_disabled":false,"rental_uris":{"android":"levelo://app?vid=b898b018-f57d-4901-bab2-fdd15d391de9","ios":"levelo://app?vid=b898b018-f57d-4901-bab2-fdd15d391de9"},"vehicle_type_id":"4","last_reported":1700989560,"current_range_meters":24000,"station_id":"ce4bgth2rcd13ifvqch0","pricing_plan_id":"free"},{"bike_id":"c200345a-3bd8-4603-963e-2d6fa6b524a5","system_id":"levelo_inurba_marseille","lat":43.30189,"lon":5.36633,"is_reserved":false,"is_disabled":false,"rental_uris":{"android":"levelo://app?vid=c200345a-3bd8-4603-963e-2d6fa6b524a5","ios":"levelo://app?vid=c200345a-3bd8-4603-963e-2d6fa6b524a5"},"vehicle_type_id":"4","last_reported":1700989560,"current_range_meters":27200,"station_id":"ce4bgrh2rcd13ifvqc8g","pricing_plan_id":"free"},{"bike_id":"6d91c55d-857e-4bd6-9a7b-36272e81183c","system_id":"levelo_inurba_marseille","lat":43.301939,"lon":5.366286,"is_reserved":false,"is_disabled":false,"rental_uris":{"android":"levelo://app?vid=6d91c55d-857e-4bd6-9a7b-36272e81183c","ios":"levelo://app?vid=6d91c55d-857e-4bd6-9a7b-36272e81183c"},"vehicle_type_id":"4","last_reported":1700989560,"current_range_meters":7200,"station_id":"ce4bgrh2rcd13ifvqc8g","pricing_plan_id":"free"},{"bike_id":"cc407ed2-9c54-44e3-9062-70929a1b7b25","system_id":"levelo_inurba_marseille","lat":43.308012,"lon":5.381511,"is_reserved":false,"is_disabled":false,"rental_uris":{"android":"levelo://app?vid=cc407ed2-9c54-44e3-9062-70929a1b7b25","ios":"levelo://app?vid=cc407ed2-9c54-44e3-9062-70929a1b7b25"},"vehicle_type_id":"4","last_reported":1700989560,"current_range_meters":25600,"station_id":"ce4bgt12rcd13ifvqce0","pricing_plan_id":"free"},{"bike_id":"88e997ac-67ed-4b29-b6ae-5b4e1b0ab96c","system_id":"levelo_inurba_marseille","lat":43.304606,"lon":5.379026,"is_reserved":false,"is_disabled":false,"rental_uris":{"android":"levelo://app?vid=88e997ac-67ed-4b29-b6ae-5b4e1b0ab96c","ios":"levelo://app?vid=88e997ac-67ed-4b29-b6ae-5b4e1b0ab96c"},"vehicle_type_id":"4","last_reported":1700989560,"current_range_meters":31600,"station_id":"ce4bgup2rcd13ifvqcn0","pricing_plan_id":"free"},{"bike_id":"5fbcd450-349c-4221-a97d-a673a6e55f28","system_id":"levelo_inurba_marseille","lat":43.304606,"lon":5.379026,"is_reserved":false,"is_disabled":false,"rental_uris":{"android":"levelo://app?vid=5fbcd450-349c-4221-a97d-a673a6e55f28","ios":"levelo://app?vid=5fbcd450-349c-4221-a97d-a673a6e55f28"},"vehicle_type_id":"4","last_reported":1700989560,"current_range_meters":17600,"station_id":"ce4bgup2rcd13ifvqcn0","pricing_plan_id":"free"},{"bike_id":"83e889aa-e22c-4625-8396-dffc3845e501","system_id":"levelo_inurba_marseille","lat":43.30463,"lon":5.378968,"is_reserved":false,"is_disabled":false,"rental_uris":{"android":"levelo://app?vid=83e889aa-e22c-4625-8396-dffc3845e501","ios":"levelo://app?vid=83e889aa-e22c-4625-8396-dffc3845e501"},"vehicle_type_id":"4","last_reported":1700989560,"current_range_meters":14400,"station_id":"ce4bgup2rcd13ifvqcn0","pricing_plan_id":"free"},{"bike_id":"311a8a4c-7406-47cb-8c98-5c2c856cf6e4","system_id":"levelo_inurba_marseille","lat":43.304606,"lon":5.379026,"is_reserved":false,"is_disabled":false,"rental_uris":{"android":"levelo://app?vid=311a8a4c-7406-47cb-8c98-5c2c856cf6e4","ios":"levelo://app?vid=311a8a4c-7406-47cb-8c98-5c2c856cf6e4"},"vehicle_type_id":"4","last_reported":1700989560,"current_range_meters":18000,"station_id":"ce4bgup2rcd13ifvqcn0","pricing_plan_id":"free"},{"bike_id":"afb03874-a8a4-40f2-bcf7-3a1ae74ce189","system_id":"levelo_inurba_marseille","lat":43.304606,"lon":5.379026,"is_reserved":false,"is_disabled":false,"rental_uris":{"android":"levelo://app?vid=afb03874-a8a4-40f2-bcf7-3a1ae74ce189","ios":"levelo://app?vid=afb03874-a8a4-40f2-bcf7-3a1ae74ce189"},"vehicle_type_id":"4","last_reported":1700989560,"current_range_meters":28000,"station_id":"ce4bgup2rcd13ifvqcn0","pricing_plan_id":"free"},{"bike_id":"a665e2b4-af2b-437d-8c82-57be44ef384b","system_id":"levelo_inurba_marseille","lat":43.30143,"lon":5.37413,"is_reserved":false,"is_disabled":false,"rental_uris":{"android":"levelo://app?vid=a665e2b4-af2b-437d-8c82-57be44ef384b","ios":"levelo://app?vid=a665e2b4-af2b-437d-8c82-57be44ef384b"},"vehicle_type_id":"4","last_reported":1700989560,"current_range_meters":22800,"station_id":"ce4bgs92rcd13ifvqcc0","pricing_plan_id":"free"},{"bike_id":"607b455d-a459-42cb-824b-aec2a9b677eb","system_id":"levelo_inurba_marseille","lat":43.301429,"lon":5.37413,"is_reserved":false,"is_disabled":false,"rental_uris":{"android":"levelo://app?vid=607b455d-a459-42cb-824b-aec2a9b677eb","ios":"levelo://app?vid=607b455d-a459-42cb-824b-aec2a9b677eb"},"vehicle_type_id":"4","last_reported":1700989560,"current_range_meters":28400,"station_id":"ce4bgs92rcd13ifvqcc0","pricing_plan_id":"free"},{"bike_id":"270683b3-833d-4480-a998-6a16729a2e73","system_id":"levelo_inurba_marseille","lat":43.319935,"lon":5.381699,"is_reserved":false,"is_disabled":false,"rental_uris":{"android":"levelo://app?vid=270683b3-833d-4480-a998-6a16729a2e73","ios":"levelo://app?vid=270683b3-833d-4480-a998-6a16729a2e73"},"vehicle_type_id":"4","last_reported":1700989560,"current_range_meters":30000,"station_id":"ce4bhr12rcd13ifvqhpg","pricing_plan_id":"free"},{"bike_id":"37b33645-89d7-4706-ad67-8561aeaa3082","system_id":"levelo_inurba_marseille","lat":43.313594,"lon":5.384986,"is_reserved":false,"is_disabled":false,"rental_uris":{"android":"levelo://app?vid=37b33645-89d7-4706-ad67-8561aeaa3082","ios":"levelo://app?vid=37b33645-89d7-4706-ad67-8561aeaa3082"},"vehicle_type_id":"4","last_reported":1700989560,"current_range_meters":0,"station_id":"ce4bgt92rcd13ifvqcf0","pricing_plan_id":"free"},{"bike_id":"0460575c-553b-4011-8fc7-9976bfb4bedf","system_id":"levelo_inurba_marseille","lat":43.299724,"lon":5.371829,"is_reserved":false,"is_disabled":false,"rental_uris":{"android":"levelo://app?vid=0460575c-553b-4011-8fc7-9976bfb4bedf","ios":"levelo://app?vid=0460575c-553b-4011-8fc7-9976bfb4bedf"},"vehicle_type_id":"4","last_reported":1700989560,"current_range_meters":26800,"station_id":"ce4bgr92rcd13ifvqc7g","pricing_plan_id":"free"},{"bike_id":"4d1176d8-d007-45e5-b023-1ed1f1fa9ddc","system_id":"levelo_inurba_marseille","lat":43.298433,"lon":5.362774,"is_reserved":false,"is_disabled":false,"rental_uris":{"android":"levelo://app?vid=4d1176d8-d007-45e5-b023-1ed1f1fa9ddc","ios":"levelo://app?vid=4d1176d8-d007-45e5-b023-1ed1f1fa9ddc"},"vehicle_type_id":"4","last_reported":1700989560,"current_range_meters":24400,"station_id":"ce4bgpp2rcd13ifvqc3g","pricing_plan_id":"free"},{"bike_id":"3c0f0e03-19e8-4b31-9bda-a925ec1d2126","system_id":"levelo_inurba_marseille","lat":43.298433,"lon":5.362774,"is_reserved":false,"is_disabled":false,"rental_uris":{"android":"levelo://app?vid=3c0f0e03-19e8-4b31-9bda-a925ec1d2126","ios":"levelo://app?vid=3c0f0e03-19e8-4b31-9bda-a925ec1d2126"},"vehicle_type_id":"4","last_reported":1700989560,"current_range_meters":1600,"station_id":"ce4bgpp2rcd13ifvqc3g","pricing_plan_id":"free"},{"bike_id":"44bcb1df-e66f-4a27-9c41-4844a0c89864","system_id":"levelo_inurba_marseille","lat":43.298433,"lon":5.362774,"is_reserved":false,"is_disabled":false,"rental_uris":{"android":"levelo://app?vid=44bcb1df-e66f-4a27-9c41-4844a0c89864","ios":"levelo://app?vid=44bcb1df-e66f-4a27-9c41-4844a0c89864"},"vehicle_type_id":"4","last_reported":1700989560,"current_range_meters":11600,"station_id":"ce4bgpp2rcd13ifvqc3g","pricing_plan_id":"free"},{"bike_id":"828e663a-c34d-45d1-849c-ab680196da69","system_id":"levelo_inurba_marseille","lat":43.298433,"lon":5.362774,"is_reserved":false,"is_disabled":false,"rental_uris":{"android":"levelo://app?vid=828e663a-c34d-45d1-849c-ab680196da69","ios":"levelo://app?vid=828e663a-c34d-45d1-849c-ab680196da69"},"vehicle_type_id":"4","last_reported":1700989560,"current_range_meters":24000,"station_id":"ce4bgpp2rcd13ifvqc3g","pricing_plan_id":"free"},{"bike_id":"e7f47ecb-a43c-4a16-9ad6-cc6de4f6da1a","system_id":"levelo_inurba_marseille","lat":43.298433,"lon":5.362774,"is_reserved":false,"is_disabled":false,"rental_uris":{"android":"levelo://app?vid=e7f47ecb-a43c-4a16-9ad6-cc6de4f6da1a","ios":"levelo://app?vid=e7f47ecb-a43c-4a16-9ad6-cc6de4f6da1a"},"vehicle_type_id":"4","last_reported":1700989560,"current_range_meters":17200,"station_id":"ce4bgpp2rcd13ifvqc3g","pricing_plan_id":"free"},{"bike_id":"c668379c-2986-4ad3-b5e8-c6239cd7650d","system_id":"levelo_inurba_marseille","lat":43.298433,"lon":5.362774,"is_reserved":false,"is_disabled":false,"rental_uris":{"android":"levelo://app?vid=c668379c-2986-4ad3-b5e8-c6239cd7650d","ios":"levelo://app?vid=c668379c-2986-4ad3-b5e8-c6239cd7650d"},"vehicle_type_id":"4","last_reported":1700989560,"current_range_meters":20800,"station_id":"ce4bgpp2rcd13ifvqc3g","pricing_plan_id":"free"},{"bike_id":"4084e26a-4a5b-4c30-a290-34faaca8cb02","system_id":"levelo_inurba_marseille","lat":43.298433,"lon":5.362774,"is_reserved":false,"is_disabled":false,"rental_uris":{"android":"levelo://app?vid=4084e26a-4a5b-4c30-a290-34faaca8cb02","ios":"levelo://app?vid=4084e26a-4a5b-4c30-a290-34faaca8cb02"},"vehicle_type_id":"4","last_reported":1700989560,"current_range_meters":26800,"station_id":"ce4bgpp2rcd13ifvqc3g","pricing_plan_id":"free"},{"bike_id":"2fb7829c-e11d-48fe-bdc0-14e62cd3e5b9","system_id":"levelo_inurba_marseille","lat":43.299243,"lon":5.37481,"is_reserved":false,"is_disabled":false,"rental_uris":{"android":"levelo://app?vid=2fb7829c-e11d-48fe-bdc0-14e62cd3e5b9","ios":"levelo://app?vid=2fb7829c-e11d-48fe-bdc0-14e62cd3e5b9"},"vehicle_type_id":"4","last_reported":1700989560,"current_range_meters":28400,"station_id":"ce4bgjh2rcd13ifvqbg0","pricing_plan_id":"free"},{"bike_id":"7af6db02-e034-4701-a80e-f5bc0d145240","system_id":"levelo_inurba_marseille","lat":43.299243,"lon":5.37481,"is_reserved":false,"is_disabled":false,"rental_uris":{"android":"levelo://app?vid=7af6db02-e034-4701-a80e-f5bc0d145240","ios":"levelo://app?vid=7af6db02-e034-4701-a80e-f5bc0d145240"},"vehicle_type_id":"4","last_reported":1700989560,"current_range_meters":30000,"station_id":"ce4bgjh2rcd13ifvqbg0","pricing_plan_id":"free"},{"bike_id":"143e17f6-6a9b-45c4-803f-51cfea6a664e","system_id":"levelo_inurba_marseille","lat":43.299243,"lon":5.37481,"is_reserved":false,"is_disabled":false,"rental_uris":{"android":"levelo://app?vid=143e17f6-6a9b-45c4-803f-51cfea6a664e","ios":"levelo://app?vid=143e17f6-6a9b-45c4-803f-51cfea6a664e"},"vehicle_type_id":"4","last_reported":1700989560,"current_range_meters":28800,"station_id":"ce4bgjh2rcd13ifvqbg0","pricing_plan_id":"free"},{"bike_id":"03c4961a-a76b-4778-9210-9d2dfeae6e75","system_id":"levelo_inurba_marseille","lat":43.299243,"lon":5.374807,"is_reserved":false,"is_disabled":false,"rental_uris":{"android":"levelo://app?vid=03c4961a-a76b-4778-9210-9d2dfeae6e75","ios":"levelo://app?vid=03c4961a-a76b-4778-9210-9d2dfeae6e75"},"vehicle_type_id":"4","last_reported":1700989560,"current_range_meters":7600,"station_id":"ce4bgjh2rcd13ifvqbg0","pricing_plan_id":"free"},{"bike_id":"a430b56b-fd0c-4136-bc41-0181039a55ee","system_id":"levelo_inurba_marseille","lat":43.297163,"lon":5.365866,"is_reserved":false,"is_disabled":false,"rental_uris":{"android":"levelo://app?vid=a430b56b-fd0c-4136-bc41-0181039a55ee","ios":"levelo://app?vid=a430b56b-fd0c-4136-bc41-0181039a55ee"},"vehicle_type_id":"4","last_reported":1700989560,"current_range_meters":28800,"station_id":"ce4bgn12rcd13ifvqbt0","pricing_plan_id":"free"},{"bike_id":"2b2a085b-0ba0-4e47-b8c0-ed9727b31028","system_id":"levelo_inurba_marseille","lat":43.2968,"lon":5.37291,"is_reserved":false,"is_disabled":false,"rental_uris":{"android":"levelo://app?vid=2b2a085b-0ba0-4e47-b8c0-ed9727b31028","ios":"levelo://app?vid=2b2a085b-0ba0-4e47-b8c0-ed9727b31028"},"vehicle_type_id":"4","last_reported":1700989560,"current_range_meters":24800,"station_id":"ce4bgk12rcd13ifvqbj0","pricing_plan_id":"free"},{"bike_id":"c662922b-aa93-4e71-a75b-a6a82c83893a","system_id":"levelo_inurba_marseille","lat":43.296131,"lon":5.370791,"is_reserved":false,"is_disabled":false,"rental_uris":{"android":"levelo://app?vid=c662922b-aa93-4e71-a75b-a6a82c83893a","ios":"levelo://app?vid=c662922b-aa93-4e71-a75b-a6a82c83893a"},"vehicle_type_id":"4","last_reported":1700989560,"current_range_meters":28800,"station_id":"ce4bgnh2rcd13ifvqc0g","pricing_plan_id":"free"},{"bike_id":"6e00c2e6-34a3-49c8-9519-5fcc8881755d","system_id":"levelo_inurba_marseille","lat":43.296131,"lon":5.370791,"is_reserved":false,"is_disabled":false,"rental_uris":{"android":"levelo://app?vid=6e00c2e6-34a3-49c8-9519-5fcc8881755d","ios":"levelo://app?vid=6e00c2e6-34a3-49c8-9519-5fcc8881755d"},"vehicle_type_id":"4","last_reported":1700989560,"current_range_meters":31200,"station_id":"ce4bgnh2rcd13ifvqc0g","pricing_plan_id":"free"},{"bike_id":"663d21e8-2e74-4084-92c9-81d38f995fd9","system_id":"levelo_inurba_marseille","lat":43.29573,"lon":5.367355,"is_reserved":false,"is_disabled":false,"rental_uris":{"android":"levelo://app?vid=663d21e8-2e74-4084-92c9-81d38f995fd9","ios":"levelo://app?vid=663d21e8-2e74-4084-92c9-81d38f995fd9"},"vehicle_type_id":"4","last_reported":1700989560,"current_range_meters":31200,"station_id":"ce4bgph2rcd13ifvqc2g","pricing_plan_id":"free"},{"bike_id":"74a6eadd-de0a-4852-9bfa-c9dd403c0892","system_id":"levelo_inurba_marseille","lat":43.29573,"lon":5.367355,"is_reserved":false,"is_disabled":false,"rental_uris":{"android":"levelo://app?vid=74a6eadd-de0a-4852-9bfa-c9dd403c0892","ios":"levelo://app?vid=74a6eadd-de0a-4852-9bfa-c9dd403c0892"},"vehicle_type_id":"4","last_reported":1700989560,"current_range_meters":30400,"station_id":"ce4bgph2rcd13ifvqc2g","pricing_plan_id":"free"},{"bike_id":"58034286-d764-400c-92dc-17f57034801c","system_id":"levelo_inurba_marseille","lat":43.29573,"lon":5.367355,"is_reserved":false,"is_disabled":false,"rental_uris":{"android":"levelo://app?vid=58034286-d764-400c-92dc-17f57034801c","ios":"levelo://app?vid=58034286-d764-400c-92dc-17f57034801c"},"vehicle_type_id":"4","last_reported":1700989560,"current_range_meters":31200,"station_id":"ce4bgph2rcd13ifvqc2g","pricing_plan_id":"free"},{"bike_id":"b8f8084c-3862-4d7e-96dd-7313cbf34a87","system_id":"levelo_inurba_marseille","lat":43.296131,"lon":5.370791,"is_reserved":false,"is_disabled":false,"rental_uris":{"android":"levelo://app?vid=b8f8084c-3862-4d7e-96dd-7313cbf34a87","ios":"levelo://app?vid=b8f8084c-3862-4d7e-96dd-7313cbf34a87"},"vehicle_type_id":"4","last_reported":1700989560,"current_range_meters":31600,"station_id":"ce4bgnh2rcd13ifvqc0g","pricing_plan_id":"free"},{"bike_id":"995d6062-015c-48cc-ba4f-7e0f5ccd6bcf","system_id":"levelo_inurba_marseille","lat":43.296131,"lon":5.370791,"is_reserved":false,"is_disabled":false,"rental_uris":{"android":"levelo://app?vid=995d6062-015c-48cc-ba4f-7e0f5ccd6bcf","ios":"levelo://app?vid=995d6062-015c-48cc-ba4f-7e0f5ccd6bcf"},"vehicle_type_id":"4","last_reported":1700989560,"current_range_meters":22800,"station_id":"ce4bgnh2rcd13ifvqc0g","pricing_plan_id":"free"},{"bike_id":"4c9f5533-0422-4130-b066-a78a1f12e4b5","system_id":"levelo_inurba_marseille","lat":43.29573,"lon":5.367355,"is_reserved":false,"is_disabled":false,"rental_uris":{"android":"levelo://app?vid=4c9f5533-0422-4130-b066-a78a1f12e4b5","ios":"levelo://app?vid=4c9f5533-0422-4130-b066-a78a1f12e4b5"},"vehicle_type_id":"4","last_reported":1700989560,"current_range_meters":18400,"station_id":"ce4bgph2rcd13ifvqc2g","pricing_plan_id":"free"},{"bike_id":"2ed359b4-f75c-48f2-a0c8-62dcf4c5ade5","system_id":"levelo_inurba_marseille","lat":43.29573,"lon":5.367355,"is_reserved":false,"is_disabled":false,"rental_uris":{"android":"levelo://app?vid=2ed359b4-f75c-48f2-a0c8-62dcf4c5ade5","ios":"levelo://app?vid=2ed359b4-f75c-48f2-a0c8-62dcf4c5ade5"},"vehicle_type_id":"4","last_reported":1700989560,"current_range_meters":29600,"station_id":"ce4bgph2rcd13ifvqc2g","pricing_plan_id":"free"},{"bike_id":"b1e22c6c-5113-4ef3-a28e-b67cbfef7a27","system_id":"levelo_inurba_marseille","lat":43.29573,"lon":5.367355,"is_reserved":false,"is_disabled":false,"rental_uris":{"android":"levelo://app?vid=b1e22c6c-5113-4ef3-a28e-b67cbfef7a27","ios":"levelo://app?vid=b1e22c6c-5113-4ef3-a28e-b67cbfef7a27"},"vehicle_type_id":"4","last_reported":1700989560,"current_range_meters":23200,"station_id":"ce4bgph2rcd13ifvqc2g","pricing_plan_id":"free"},{"bike_id":"24d56c22-6c01-459b-acc1-6e8225731a8b","system_id":"levelo_inurba_marseille","lat":43.29573,"lon":5.367355,"is_reserved":false,"is_disabled":false,"rental_uris":{"android":"levelo://app?vid=24d56c22-6c01-459b-acc1-6e8225731a8b","ios":"levelo://app?vid=24d56c22-6c01-459b-acc1-6e8225731a8b"},"vehicle_type_id":"4","last_reported":1700989560,"current_range_meters":4400,"station_id":"ce4bgph2rcd13ifvqc2g","pricing_plan_id":"free"},{"bike_id":"8db9fa52-a84f-4b79-873d-a9ae31dde132","system_id":"levelo_inurba_marseille","lat":43.29573,"lon":5.367355,"is_reserved":false,"is_disabled":false,"rental_uris":{"android":"levelo://app?vid=8db9fa52-a84f-4b79-873d-a9ae31dde132","ios":"levelo://app?vid=8db9fa52-a84f-4b79-873d-a9ae31dde132"},"vehicle_type_id":"4","last_reported":1700989560,"current_range_meters":27200,"station_id":"ce4bgph2rcd13ifvqc2g","pricing_plan_id":"free"},{"bike_id":"a29e12f4-b518-4a8a-83e5-3c8a57b4c753","system_id":"levelo_inurba_marseille","lat":43.29573,"lon":5.367355,"is_reserved":false,"is_disabled":false,"rental_uris":{"android":"levelo://app?vid=a29e12f4-b518-4a8a-83e5-3c8a57b4c753","ios":"levelo://app?vid=a29e12f4-b518-4a8a-83e5-3c8a57b4c753"},"vehicle_type_id":"4","last_reported":1700989560,"current_range_meters":31200,"station_id":"ce4bgph2rcd13ifvqc2g","pricing_plan_id":"free"},{"bike_id":"beff33c3-19de-453f-854c-6ef986ace5c6","system_id":"levelo_inurba_marseille","lat":43.296935,"lon":5.376544,"is_reserved":false,"is_disabled":false,"rental_uris":{"android":"levelo://app?vid=beff33c3-19de-453f-854c-6ef986ace5c6","ios":"levelo://app?vid=beff33c3-19de-453f-854c-6ef986ace5c6"},"vehicle_type_id":"4","last_reported":1700989560,"current_range_meters":30400,"station_id":"ce4bgkh2rcd13ifvqbl0","pricing_plan_id":"free"},{"bike_id":"426ae3fd-7f4d-43b6-9725-4d07bf81cbb7","system_id":"levelo_inurba_marseille","lat":43.295748,"lon":5.37522,"is_reserved":false,"is_disabled":false,"rental_uris":{"android":"levelo://app?vid=426ae3fd-7f4d-43b6-9725-4d07bf81cbb7","ios":"levelo://app?vid=426ae3fd-7f4d-43b6-9725-4d07bf81cbb7"},"vehicle_type_id":"4","last_reported":1700989560,"current_range_meters":26000,"station_id":"ce4bgh92rcd13ifvqb50","pricing_plan_id":"free"},{"bike_id":"85d19023-2734-4dc8-aac8-8aaa325785ea","system_id":"levelo_inurba_marseille","lat":43.295748,"lon":5.37522,"is_reserved":false,"is_disabled":false,"rental_uris":{"android":"levelo://app?vid=85d19023-2734-4dc8-aac8-8aaa325785ea","ios":"levelo://app?vid=85d19023-2734-4dc8-aac8-8aaa325785ea"},"vehicle_type_id":"4","last_reported":1700989560,"current_range_meters":31200,"station_id":"ce4bgh92rcd13ifvqb50","pricing_plan_id":"free"},{"bike_id":"d42a6b98-fe0f-4a4c-ac3d-98baa0301ffd","system_id":"levelo_inurba_marseille","lat":43.295748,"lon":5.37522,"is_reserved":false,"is_disabled":false,"rental_uris":{"android":"levelo://app?vid=d42a6b98-fe0f-4a4c-ac3d-98baa0301ffd","ios":"levelo://app?vid=d42a6b98-fe0f-4a4c-ac3d-98baa0301ffd"},"vehicle_type_id":"4","last_reported":1700989560,"current_range_meters":17200,"station_id":"ce4bgh92rcd13ifvqb50","pricing_plan_id":"free"},{"bike_id":"90f2108f-36ba-4dac-a826-290bd27baf0c","system_id":"levelo_inurba_marseille","lat":43.304278,"lon":5.388868,"is_reserved":false,"is_disabled":false,"rental_uris":{"android":"levelo://app?vid=90f2108f-36ba-4dac-a826-290bd27baf0c","ios":"levelo://app?vid=90f2108f-36ba-4dac-a826-290bd27baf0c"},"vehicle_type_id":"4","last_reported":1700989560,"current_range_meters":20800,"station_id":"ce4bgk12rcd13ifvqbi0","pricing_plan_id":"free"},{"bike_id":"bfd56994-8726-43f5-a632-d7c44a073357","system_id":"levelo_inurba_marseille","lat":43.296263,"lon":5.377094,"is_reserved":false,"is_disabled":false,"rental_uris":{"android":"levelo://app?vid=bfd56994-8726-43f5-a632-d7c44a073357","ios":"levelo://app?vid=bfd56994-8726-43f5-a632-d7c44a073357"},"vehicle_type_id":"4","last_reported":1700989560,"current_range_meters":10000,"station_id":"ce4bgi92rcd13ifvqb90","pricing_plan_id":"free"},{"bike_id":"6fe2356b-43d2-43af-a5dd-0e9714673a9b","system_id":"levelo_inurba_marseille","lat":43.296263,"lon":5.377094,"is_reserved":false,"is_disabled":false,"rental_uris":{"android":"levelo://app?vid=6fe2356b-43d2-43af-a5dd-0e9714673a9b","ios":"levelo://app?vid=6fe2356b-43d2-43af-a5dd-0e9714673a9b"},"vehicle_type_id":"4","last_reported":1700989560,"current_range_meters":24000,"station_id":"ce4bgi92rcd13ifvqb90","pricing_plan_id":"free"},{"bike_id":"dbafb914-edf2-4109-b259-4aae61a42025","system_id":"levelo_inurba_marseille","lat":43.296263,"lon":5.377094,"is_reserved":false,"is_disabled":false,"rental_uris":{"android":"levelo://app?vid=dbafb914-edf2-4109-b259-4aae61a42025","ios":"levelo://app?vid=dbafb914-edf2-4109-b259-4aae61a42025"},"vehicle_type_id":"4","last_reported":1700989560,"current_range_meters":26400,"station_id":"ce4bgi92rcd13ifvqb90","pricing_plan_id":"free"},{"bike_id":"5bb5fced-ab1f-484e-99aa-bd5f04af1af5","system_id":"levelo_inurba_marseille","lat":43.295279,"lon":5.375048,"is_reserved":false,"is_disabled":false,"rental_uris":{"android":"levelo://app?vid=5bb5fced-ab1f-484e-99aa-bd5f04af1af5","ios":"levelo://app?vid=5bb5fced-ab1f-484e-99aa-bd5f04af1af5"},"vehicle_type_id":"4","last_reported":1700989560,"current_range_meters":24400,"station_id":"ce4bgkp2rcd13ifvqbmg","pricing_plan_id":"free"},{"bike_id":"6b621983-5e9e-42f7-990d-ad5a093820d2","system_id":"levelo_inurba_marseille","lat":43.293801,"lon":5.363066,"is_reserved":false,"is_disabled":false,"rental_uris":{"android":"levelo://app?vid=6b621983-5e9e-42f7-990d-ad5a093820d2","ios":"levelo://app?vid=6b621983-5e9e-42f7-990d-ad5a093820d2"},"vehicle_type_id":"4","last_reported":1700989560,"current_range_meters":0,"station_id":"","pricing_plan_id":"free"},{"bike_id":"bc50ee3c-6a97-48ed-bb6b-07f924bc7b7b","system_id":"levelo_inurba_marseille","lat":43.293259,"lon":5.371586,"is_reserved":false,"is_disabled":false,"rental_uris":{"android":"levelo://app?vid=bc50ee3c-6a97-48ed-bb6b-07f924bc7b7b","ios":"levelo://app?vid=bc50ee3c-6a97-48ed-bb6b-07f924bc7b7b"},"vehicle_type_id":"4","last_reported":1700989560,"current_range_meters":29600,"station_id":"ce4bgh92rcd13ifvqb40","pricing_plan_id":"free"},{"bike_id":"6f2ef802-73b7-457b-b876-39036b87b9f4","system_id":"levelo_inurba_marseille","lat":43.292749,"lon":5.368402,"is_reserved":false,"is_disabled":false,"rental_uris":{"android":"levelo://app?vid=6f2ef802-73b7-457b-b876-39036b87b9f4","ios":"levelo://app?vid=6f2ef802-73b7-457b-b876-39036b87b9f4"},"vehicle_type_id":"4","last_reported":1700989560,"current_range_meters":23600,"station_id":"ce4bhbp2rcd13ifvqesg","pricing_plan_id":"free"},{"bike_id":"e4e989f5-c464-468e-8433-b03a93a904fe","system_id":"levelo_inurba_marseille","lat":43.305994,"lon":5.393687,"is_reserved":false,"is_disabled":false,"rental_uris":{"android":"levelo://app?vid=e4e989f5-c464-468e-8433-b03a93a904fe","ios":"levelo://app?vid=e4e989f5-c464-468e-8433-b03a93a904fe"},"vehicle_type_id":"4","last_reported":1700989560,"current_range_meters":23600,"station_id":"ce4bh0p2rcd13ifvqd80","pricing_plan_id":"free"},{"bike_id":"0717f7b2-4ac5-4d10-af60-9b5856987ed8","system_id":"levelo_inurba_marseille","lat":43.305994,"lon":5.393687,"is_reserved":false,"is_disabled":false,"rental_uris":{"android":"levelo://app?vid=0717f7b2-4ac5-4d10-af60-9b5856987ed8","ios":"levelo://app?vid=0717f7b2-4ac5-4d10-af60-9b5856987ed8"},"vehicle_type_id":"4","last_reported":1700989560,"current_range_meters":23200,"station_id":"ce4bh0p2rcd13ifvqd80","pricing_plan_id":"free"},{"bike_id":"c5c81066-2418-40f8-80b5-23cad610877d","system_id":"levelo_inurba_marseille","lat":43.305994,"lon":5.393687,"is_reserved":false,"is_disabled":false,"rental_uris":{"android":"levelo://app?vid=c5c81066-2418-40f8-80b5-23cad610877d","ios":"levelo://app?vid=c5c81066-2418-40f8-80b5-23cad610877d"},"vehicle_type_id":"4","last_reported":1700989560,"current_range_meters":30000,"station_id":"ce4bh0p2rcd13ifvqd80","pricing_plan_id":"free"},{"bike_id":"6cb96574-d855-4f82-8da3-a57dab76864e","system_id":"levelo_inurba_marseille","lat":43.305994,"lon":5.393687,"is_reserved":false,"is_disabled":false,"rental_uris":{"android":"levelo://app?vid=6cb96574-d855-4f82-8da3-a57dab76864e","ios":"levelo://app?vid=6cb96574-d855-4f82-8da3-a57dab76864e"},"vehicle_type_id":"4","last_reported":1700989560,"current_range_meters":26800,"station_id":"ce4bh0p2rcd13ifvqd80","pricing_plan_id":"free"},{"bike_id":"b72a5589-15c6-4d25-b51c-d8fe11ccb3a8","system_id":"levelo_inurba_marseille","lat":43.302992,"lon":5.392136,"is_reserved":false,"is_disabled":false,"rental_uris":{"android":"levelo://app?vid=b72a5589-15c6-4d25-b51c-d8fe11ccb3a8","ios":"levelo://app?vid=b72a5589-15c6-4d25-b51c-d8fe11ccb3a8"},"vehicle_type_id":"4","last_reported":1700989560,"current_range_meters":11200,"station_id":"ce4bgkh2rcd13ifvqbk0","pricing_plan_id":"free"},{"bike_id":"14f487ad-1564-4742-b4c4-0977f5415cbf","system_id":"levelo_inurba_marseille","lat":43.2936,"lon":5.37835,"is_reserved":false,"is_disabled":false,"rental_uris":{"android":"levelo://app?vid=14f487ad-1564-4742-b4c4-0977f5415cbf","ios":"levelo://app?vid=14f487ad-1564-4742-b4c4-0977f5415cbf"},"vehicle_type_id":"4","last_reported":1700989560,"current_range_meters":2400,"station_id":"ce4bgjh2rcd13ifvqbf0","pricing_plan_id":"free"},{"bike_id":"140f4633-cfec-4331-b70c-75b4d79eea9a","system_id":"levelo_inurba_marseille","lat":43.292311,"lon":5.360731,"is_reserved":false,"is_disabled":false,"rental_uris":{"android":"levelo://app?vid=140f4633-cfec-4331-b70c-75b4d79eea9a","ios":"levelo://app?vid=140f4633-cfec-4331-b70c-75b4d79eea9a"},"vehicle_type_id":"4","last_reported":1700989560,"current_range_meters":31200,"station_id":"ce4bhbh2rcd13ifvqeqg","pricing_plan_id":"free"},{"bike_id":"7742942f-34c8-4d11-ae3a-e53237bc3742","system_id":"levelo_inurba_marseille","lat":43.292311,"lon":5.360731,"is_reserved":false,"is_disabled":false,"rental_uris":{"android":"levelo://app?vid=7742942f-34c8-4d11-ae3a-e53237bc3742","ios":"levelo://app?vid=7742942f-34c8-4d11-ae3a-e53237bc3742"},"vehicle_type_id":"4","last_reported":1700989560,"current_range_meters":27200,"station_id":"ce4bhbh2rcd13ifvqeqg","pricing_plan_id":"free"},{"bike_id":"81647ce7-e4b0-41ad-b2e0-1f3f5f2b1ede","system_id":"levelo_inurba_marseille","lat":43.292311,"lon":5.360731,"is_reserved":false,"is_disabled":false,"rental_uris":{"android":"levelo://app?vid=81647ce7-e4b0-41ad-b2e0-1f3f5f2b1ede","ios":"levelo://app?vid=81647ce7-e4b0-41ad-b2e0-1f3f5f2b1ede"},"vehicle_type_id":"4","last_reported":1700989560,"current_range_meters":21600,"station_id":"ce4bhbh2rcd13ifvqeqg","pricing_plan_id":"free"},{"bike_id":"ef56f204-aeb9-4849-a3fa-8543fba8ccee","system_id":"levelo_inurba_marseille","lat":43.292311,"lon":5.360731,"is_reserved":false,"is_disabled":false,"rental_uris":{"android":"levelo://app?vid=ef56f204-aeb9-4849-a3fa-8543fba8ccee","ios":"levelo://app?vid=ef56f204-aeb9-4849-a3fa-8543fba8ccee"},"vehicle_type_id":"4","last_reported":1700989560,"current_range_meters":31200,"station_id":"ce4bhbh2rcd13ifvqeqg","pricing_plan_id":"free"},{"bike_id":"866c6577-a27e-416a-bed3-31a86e949892","system_id":"levelo_inurba_marseille","lat":43.300852,"lon":5.390859,"is_reserved":false,"is_disabled":false,"rental_uris":{"android":"levelo://app?vid=866c6577-a27e-416a-bed3-31a86e949892","ios":"levelo://app?vid=866c6577-a27e-416a-bed3-31a86e949892"},"vehicle_type_id":"4","last_reported":1700989560,"current_range_meters":27200,"station_id":"ce4bh192rcd13ifvqdb0","pricing_plan_id":"free"},{"bike_id":"e100b2da-acd7-442a-996c-32ec66579328","system_id":"levelo_inurba_marseille","lat":43.292156,"lon":5.360508,"is_reserved":false,"is_disabled":false,"rental_uris":{"android":"levelo://app?vid=e100b2da-acd7-442a-996c-32ec66579328","ios":"levelo://app?vid=e100b2da-acd7-442a-996c-32ec66579328"},"vehicle_type_id":"4","last_reported":1700989560,"current_range_meters":30800,"station_id":"ce4bhbh2rcd13ifvqeqg","pricing_plan_id":"free"},{"bike_id":"a3ddc59c-f5ce-4f7d-8ad5-702ca215cf24","system_id":"levelo_inurba_marseille","lat":43.30085,"lon":5.390856,"is_reserved":false,"is_disabled":false,"rental_uris":{"android":"levelo://app?vid=a3ddc59c-f5ce-4f7d-8ad5-702ca215cf24","ios":"levelo://app?vid=a3ddc59c-f5ce-4f7d-8ad5-702ca215cf24"},"vehicle_type_id":"4","last_reported":1700989560,"current_range_meters":20400,"station_id":"ce4bh192rcd13ifvqdb0","pricing_plan_id":"free"},{"bike_id":"2dc264ec-1522-4b02-9e59-c8c798747aa5","system_id":"levelo_inurba_marseille","lat":43.29883,"lon":5.38906,"is_reserved":false,"is_disabled":false,"rental_uris":{"android":"levelo://app?vid=2dc264ec-1522-4b02-9e59-c8c798747aa5","ios":"levelo://app?vid=2dc264ec-1522-4b02-9e59-c8c798747aa5"},"vehicle_type_id":"4","last_reported":1700989560,"current_range_meters":6800,"station_id":"ce4bh392rcd13ifvqdl0","pricing_plan_id":"free"},{"bike_id":"be8beb00-f4e4-4b3a-b021-d3c5ca72c974","system_id":"levelo_inurba_marseille","lat":43.30882,"lon":5.39635,"is_reserved":false,"is_disabled":false,"rental_uris":{"android":"levelo://app?vid=be8beb00-f4e4-4b3a-b021-d3c5ca72c974","ios":"levelo://app?vid=be8beb00-f4e4-4b3a-b021-d3c5ca72c974"},"vehicle_type_id":"4","last_reported":1700989560,"current_range_meters":14400,"station_id":"ce4bh012rcd13ifvqcv0","pricing_plan_id":"free"},{"bike_id":"0736bc3f-4481-4dae-ab1f-aafcaa4e2927","system_id":"levelo_inurba_marseille","lat":43.309038,"lon":5.396546,"is_reserved":false,"is_disabled":false,"rental_uris":{"android":"levelo://app?vid=0736bc3f-4481-4dae-ab1f-aafcaa4e2927","ios":"levelo://app?vid=0736bc3f-4481-4dae-ab1f-aafcaa4e2927"},"vehicle_type_id":"4","last_reported":1700989560,"current_range_meters":26400,"station_id":"ce4bh012rcd13ifvqcv0","pricing_plan_id":"free"},{"bike_id":"e8ab592d-0d2c-4309-8e84-3487519873bf","system_id":"levelo_inurba_marseille","lat":43.313291,"lon":5.396838,"is_reserved":false,"is_disabled":false,"rental_uris":{"android":"levelo://app?vid=e8ab592d-0d2c-4309-8e84-3487519873bf","ios":"levelo://app?vid=e8ab592d-0d2c-4309-8e84-3487519873bf"},"vehicle_type_id":"4","last_reported":1700989560,"current_range_meters":26800,"station_id":"ce4bgvp2rcd13ifvqcu0","pricing_plan_id":"free"},{"bike_id":"d50accdd-0958-4344-a7b1-99d6174e896a","system_id":"levelo_inurba_marseille","lat":43.309047,"lon":5.396551,"is_reserved":false,"is_disabled":false,"rental_uris":{"android":"levelo://app?vid=d50accdd-0958-4344-a7b1-99d6174e896a","ios":"levelo://app?vid=d50accdd-0958-4344-a7b1-99d6174e896a"},"vehicle_type_id":"4","last_reported":1700989560,"current_range_meters":30000,"station_id":"ce4bh012rcd13ifvqcv0","pricing_plan_id":"free"},{"bike_id":"d004a540-b451-4f1f-a4b2-16e4213cc9bc","system_id":"levelo_inurba_marseille","lat":43.291873,"lon":5.357963,"is_reserved":false,"is_disabled":false,"rental_uris":{"android":"levelo://app?vid=d004a540-b451-4f1f-a4b2-16e4213cc9bc","ios":"levelo://app?vid=d004a540-b451-4f1f-a4b2-16e4213cc9bc"},"vehicle_type_id":"4","last_reported":1700989560,"current_range_meters":29200,"station_id":"ce4bhb12rcd13ifvqel0","pricing_plan_id":"free"},{"bike_id":"83cdfa94-b263-4a38-9749-8e4992dd7c64","system_id":"levelo_inurba_marseille","lat":43.303002,"lon":5.392142,"is_reserved":false,"is_disabled":false,"rental_uris":{"android":"levelo://app?vid=83cdfa94-b263-4a38-9749-8e4992dd7c64","ios":"levelo://app?vid=83cdfa94-b263-4a38-9749-8e4992dd7c64"},"vehicle_type_id":"4","last_reported":1700989560,"current_range_meters":20400,"station_id":"ce4bgkh2rcd13ifvqbk0","pricing_plan_id":"free"},{"bike_id":"40edede7-e78e-4495-8ab4-91cb07e80708","system_id":"levelo_inurba_marseille","lat":43.294153,"lon":5.386305,"is_reserved":false,"is_disabled":false,"rental_uris":{"android":"levelo://app?vid=40edede7-e78e-4495-8ab4-91cb07e80708","ios":"levelo://app?vid=40edede7-e78e-4495-8ab4-91cb07e80708"},"vehicle_type_id":"4","last_reported":1700989560,"current_range_meters":30400,"station_id":"ce4bh2h2rcd13ifvqdh0","pricing_plan_id":"free"},{"bike_id":"308608d2-2107-449c-9593-e0b71c9e1152","system_id":"levelo_inurba_marseille","lat":43.28939,"lon":5.36626,"is_reserved":false,"is_disabled":false,"rental_uris":{"android":"levelo://app?vid=308608d2-2107-449c-9593-e0b71c9e1152","ios":"levelo://app?vid=308608d2-2107-449c-9593-e0b71c9e1152"},"vehicle_type_id":"4","last_reported":1700989560,"current_range_meters":22000,"station_id":"ce4bhap2rcd13ifvqek0","pricing_plan_id":"free"},{"bike_id":"05e3924b-ee08-489f-bab2-3e7575695440","system_id":"levelo_inurba_marseille","lat":43.28934,"lon":5.36632,"is_reserved":false,"is_disabled":false,"rental_uris":{"android":"levelo://app?vid=05e3924b-ee08-489f-bab2-3e7575695440","ios":"levelo://app?vid=05e3924b-ee08-489f-bab2-3e7575695440"},"vehicle_type_id":"4","last_reported":1700989560,"current_range_meters":22400,"station_id":"ce4bhap2rcd13ifvqek0","pricing_plan_id":"free"},{"bike_id":"eae74115-ec9f-484e-9f5f-5ccd59757bf4","system_id":"levelo_inurba_marseille","lat":43.304274,"lon":5.397513,"is_reserved":false,"is_disabled":false,"rental_uris":{"android":"levelo://app?vid=eae74115-ec9f-484e-9f5f-5ccd59757bf4","ios":"levelo://app?vid=eae74115-ec9f-484e-9f5f-5ccd59757bf4"},"vehicle_type_id":"4","last_reported":1700989560,"current_range_meters":27200,"station_id":"ce4bh092rcd13ifvqd20","pricing_plan_id":"free"},{"bike_id":"66e9e321-fb5d-4833-9d20-b51fa8d31cbe","system_id":"levelo_inurba_marseille","lat":43.290104,"lon":5.356111,"is_reserved":false,"is_disabled":false,"rental_uris":{"android":"levelo://app?vid=66e9e321-fb5d-4833-9d20-b51fa8d31cbe","ios":"levelo://app?vid=66e9e321-fb5d-4833-9d20-b51fa8d31cbe"},"vehicle_type_id":"4","last_reported":1700989560,"current_range_meters":25200,"station_id":"ce4bhb92rcd13ifvqen0","pricing_plan_id":"free"},{"bike_id":"24a16b2d-2fc6-4c08-b01b-e656d45f59ba","system_id":"levelo_inurba_marseille","lat":43.312609,"lon":5.401662,"is_reserved":false,"is_disabled":false,"rental_uris":{"android":"levelo://app?vid=24a16b2d-2fc6-4c08-b01b-e656d45f59ba","ios":"levelo://app?vid=24a16b2d-2fc6-4c08-b01b-e656d45f59ba"},"vehicle_type_id":"4","last_reported":1700989560,"current_range_meters":29200,"station_id":"ce4bh092rcd13ifvqd30","pricing_plan_id":"free"},{"bike_id":"de4934ef-5f8a-47de-aa4e-092ab81beee9","system_id":"levelo_inurba_marseille","lat":43.3127,"lon":5.40164,"is_reserved":false,"is_disabled":false,"rental_uris":{"android":"levelo://app?vid=de4934ef-5f8a-47de-aa4e-092ab81beee9","ios":"levelo://app?vid=de4934ef-5f8a-47de-aa4e-092ab81beee9"},"vehicle_type_id":"4","last_reported":1700989560,"current_range_meters":21600,"station_id":"ce4bh092rcd13ifvqd30","pricing_plan_id":"free"},{"bike_id":"28847d0d-02fa-4eca-9d89-96c923496ebe","system_id":"levelo_inurba_marseille","lat":43.309371,"lon":5.401449,"is_reserved":false,"is_disabled":false,"rental_uris":{"android":"levelo://app?vid=28847d0d-02fa-4eca-9d89-96c923496ebe","ios":"levelo://app?vid=28847d0d-02fa-4eca-9d89-96c923496ebe"},"vehicle_type_id":"4","last_reported":1700989560,"current_range_meters":24800,"station_id":"ce4bgvp2rcd13ifvqct0","pricing_plan_id":"free"},{"bike_id":"1634e63f-0d65-48c1-bf99-318333e12a5d","system_id":"levelo_inurba_marseille","lat":43.30927,"lon":5.40143,"is_reserved":false,"is_disabled":false,"rental_uris":{"android":"levelo://app?vid=1634e63f-0d65-48c1-bf99-318333e12a5d","ios":"levelo://app?vid=1634e63f-0d65-48c1-bf99-318333e12a5d"},"vehicle_type_id":"4","last_reported":1700989560,"current_range_meters":18400,"station_id":"ce4bgvp2rcd13ifvqct0","pricing_plan_id":"free"},{"bike_id":"092ee098-eed0-43d0-904b-fd2deffb4d61","system_id":"levelo_inurba_marseille","lat":43.337601,"lon":5.374558,"is_reserved":false,"is_disabled":false,"rental_uris":{"android":"levelo://app?vid=092ee098-eed0-43d0-904b-fd2deffb4d61","ios":"levelo://app?vid=092ee098-eed0-43d0-904b-fd2deffb4d61"},"vehicle_type_id":"4","last_reported":1700989560,"current_range_meters":26800,"station_id":"","pricing_plan_id":"free"},{"bike_id":"6e64b53b-1c5e-4ee8-91f2-e70bdea94389","system_id":"levelo_inurba_marseille","lat":43.3376,"lon":5.37465,"is_reserved":false,"is_disabled":false,"rental_uris":{"android":"levelo://app?vid=6e64b53b-1c5e-4ee8-91f2-e70bdea94389","ios":"levelo://app?vid=6e64b53b-1c5e-4ee8-91f2-e70bdea94389"},"vehicle_type_id":"4","last_reported":1700989560,"current_range_meters":20800,"station_id":"","pricing_plan_id":"free"},{"bike_id":"da9ecc6d-a61e-4237-abe5-a9e085c2b0c2","system_id":"levelo_inurba_marseille","lat":43.306412,"lon":5.401035,"is_reserved":false,"is_disabled":false,"rental_uris":{"android":"levelo://app?vid=da9ecc6d-a61e-4237-abe5-a9e085c2b0c2","ios":"levelo://app?vid=da9ecc6d-a61e-4237-abe5-a9e085c2b0c2"},"vehicle_type_id":"4","last_reported":1700989560,"current_range_meters":26400,"station_id":"ce4bh112rcd13ifvqda0","pricing_plan_id":"free"},{"bike_id":"0d2d2501-c408-4f97-b510-e8100f6d7286","system_id":"levelo_inurba_marseille","lat":43.30133,"lon":5.39859,"is_reserved":false,"is_disabled":false,"rental_uris":{"android":"levelo://app?vid=0d2d2501-c408-4f97-b510-e8100f6d7286","ios":"levelo://app?vid=0d2d2501-c408-4f97-b510-e8100f6d7286"},"vehicle_type_id":"4","last_reported":1700989560,"current_range_meters":18400,"station_id":"ce4bh0h2rcd13ifvqd40","pricing_plan_id":"free"},{"bike_id":"a24e63fd-e638-4727-926b-15ee6a9c4fe8","system_id":"levelo_inurba_marseille","lat":43.301117,"lon":5.398795,"is_reserved":false,"is_disabled":false,"rental_uris":{"android":"levelo://app?vid=a24e63fd-e638-4727-926b-15ee6a9c4fe8","ios":"levelo://app?vid=a24e63fd-e638-4727-926b-15ee6a9c4fe8"},"vehicle_type_id":"4","last_reported":1700989560,"current_range_meters":28800,"station_id":"ce4bh0h2rcd13ifvqd40","pricing_plan_id":"free"},{"bike_id":"0056628a-e7a4-4702-8634-ee41e49e82a1","system_id":"levelo_inurba_marseille","lat":43.30132,"lon":5.39875,"is_reserved":false,"is_disabled":false,"rental_uris":{"android":"levelo://app?vid=0056628a-e7a4-4702-8634-ee41e49e82a1","ios":"levelo://app?vid=0056628a-e7a4-4702-8634-ee41e49e82a1"},"vehicle_type_id":"4","last_reported":1700989560,"current_range_meters":1200,"station_id":"ce4bh0h2rcd13ifvqd40","pricing_plan_id":"free"},{"bike_id":"019dcbb8-0b7e-47da-887b-8172a0662d79","system_id":"levelo_inurba_marseille","lat":43.286591,"lon":5.363346,"is_reserved":false,"is_disabled":false,"rental_uris":{"android":"levelo://app?vid=019dcbb8-0b7e-47da-887b-8172a0662d79","ios":"levelo://app?vid=019dcbb8-0b7e-47da-887b-8172a0662d79"},"vehicle_type_id":"4","last_reported":1700989560,"current_range_meters":31200,"station_id":"ce4bhah2rcd13ifvqej0","pricing_plan_id":"free"},{"bike_id":"e5ad4d95-e8f5-4c67-97c8-5eb5383161dd","system_id":"levelo_inurba_marseille","lat":43.302759,"lon":5.400793,"is_reserved":false,"is_disabled":false,"rental_uris":{"android":"levelo://app?vid=e5ad4d95-e8f5-4c67-97c8-5eb5383161dd","ios":"levelo://app?vid=e5ad4d95-e8f5-4c67-97c8-5eb5383161dd"},"vehicle_type_id":"4","last_reported":1700989560,"current_range_meters":30400,"station_id":"ce4bgvh2rcd13ifvqcs0","pricing_plan_id":"free"},{"bike_id":"31902e9a-ad56-4d51-9718-22ae7370041b","system_id":"levelo_inurba_marseille","lat":43.28927,"lon":5.38396,"is_reserved":false,"is_disabled":false,"rental_uris":{"android":"levelo://app?vid=31902e9a-ad56-4d51-9718-22ae7370041b","ios":"levelo://app?vid=31902e9a-ad56-4d51-9718-22ae7370041b"},"vehicle_type_id":"4","last_reported":1700989560,"current_range_meters":27600,"station_id":"ce4bh612rcd13ifvqe6g","pricing_plan_id":"free"},{"bike_id":"fb325d17-d069-4894-a4d2-0bac407135ea","system_id":"levelo_inurba_marseille","lat":43.3025,"lon":5.40061,"is_reserved":false,"is_disabled":false,"rental_uris":{"android":"levelo://app?vid=fb325d17-d069-4894-a4d2-0bac407135ea","ios":"levelo://app?vid=fb325d17-d069-4894-a4d2-0bac407135ea"},"vehicle_type_id":"4","last_reported":1700989560,"current_range_meters":26000,"station_id":"ce4bgvh2rcd13ifvqcs0","pricing_plan_id":"free"},{"bike_id":"81c0ffcd-71c4-442c-a108-f0eb30b91e38","system_id":"levelo_inurba_marseille","lat":43.302521,"lon":5.400643,"is_reserved":false,"is_disabled":false,"rental_uris":{"android":"levelo://app?vid=81c0ffcd-71c4-442c-a108-f0eb30b91e38","ios":"levelo://app?vid=81c0ffcd-71c4-442c-a108-f0eb30b91e38"},"vehicle_type_id":"4","last_reported":1700989560,"current_range_meters":21200,"station_id":"ce4bgvh2rcd13ifvqcs0","pricing_plan_id":"free"},{"bike_id":"fc4dde56-dd31-47b3-a23d-ebaf06400252","system_id":"levelo_inurba_marseille","lat":43.302759,"lon":5.400793,"is_reserved":false,"is_disabled":false,"rental_uris":{"android":"levelo://app?vid=fc4dde56-dd31-47b3-a23d-ebaf06400252","ios":"levelo://app?vid=fc4dde56-dd31-47b3-a23d-ebaf06400252"},"vehicle_type_id":"4","last_reported":1700989560,"current_range_meters":31200,"station_id":"ce4bgvh2rcd13ifvqcs0","pricing_plan_id":"free"},{"bike_id":"335fa0b2-1ce8-47c8-8279-c5b374771105","system_id":"levelo_inurba_marseille","lat":43.302759,"lon":5.400793,"is_reserved":false,"is_disabled":false,"rental_uris":{"android":"levelo://app?vid=335fa0b2-1ce8-47c8-8279-c5b374771105","ios":"levelo://app?vid=335fa0b2-1ce8-47c8-8279-c5b374771105"},"vehicle_type_id":"4","last_reported":1700989560,"current_range_meters":31200,"station_id":"ce4bgvh2rcd13ifvqcs0","pricing_plan_id":"free"},{"bike_id":"32263013-effb-45ee-bc1c-4dcad7ca5b7c","system_id":"levelo_inurba_marseille","lat":43.302507,"lon":5.400705,"is_reserved":false,"is_disabled":false,"rental_uris":{"android":"levelo://app?vid=32263013-effb-45ee-bc1c-4dcad7ca5b7c","ios":"levelo://app?vid=32263013-effb-45ee-bc1c-4dcad7ca5b7c"},"vehicle_type_id":"4","last_reported":1700989560,"current_range_meters":9200,"station_id":"ce4bgvh2rcd13ifvqcs0","pricing_plan_id":"free"},{"bike_id":"39925ae3-9cac-4690-9eb9-7ac71c005e75","system_id":"levelo_inurba_marseille","lat":43.302487,"lon":5.400749,"is_reserved":false,"is_disabled":false,"rental_uris":{"android":"levelo://app?vid=39925ae3-9cac-4690-9eb9-7ac71c005e75","ios":"levelo://app?vid=39925ae3-9cac-4690-9eb9-7ac71c005e75"},"vehicle_type_id":"4","last_reported":1700989560,"current_range_meters":10000,"station_id":"ce4bgvh2rcd13ifvqcs0","pricing_plan_id":"free"},{"bike_id":"2967e580-4075-40a5-b4e3-f6c0225f647b","system_id":"levelo_inurba_marseille","lat":43.316456,"lon":5.404292,"is_reserved":false,"is_disabled":false,"rental_uris":{"android":"levelo://app?vid=2967e580-4075-40a5-b4e3-f6c0225f647b","ios":"levelo://app?vid=2967e580-4075-40a5-b4e3-f6c0225f647b"},"vehicle_type_id":"4","last_reported":1700989560,"current_range_meters":30800,"station_id":"ce4bh012rcd13ifvqd00","pricing_plan_id":"free"},{"bike_id":"8d8fd114-dda9-4f31-9c51-bd52a98f3b7a","system_id":"levelo_inurba_marseille","lat":43.31645,"lon":5.40434,"is_reserved":false,"is_disabled":false,"rental_uris":{"android":"levelo://app?vid=8d8fd114-dda9-4f31-9c51-bd52a98f3b7a","ios":"levelo://app?vid=8d8fd114-dda9-4f31-9c51-bd52a98f3b7a"},"vehicle_type_id":"4","last_reported":1700989560,"current_range_meters":16400,"station_id":"ce4bh012rcd13ifvqd00","pricing_plan_id":"free"},{"bike_id":"9b99cd47-6818-450c-a075-65ebe4661431","system_id":"levelo_inurba_marseille","lat":43.316517,"lon":5.404375,"is_reserved":false,"is_disabled":false,"rental_uris":{"android":"levelo://app?vid=9b99cd47-6818-450c-a075-65ebe4661431","ios":"levelo://app?vid=9b99cd47-6818-450c-a075-65ebe4661431"},"vehicle_type_id":"4","last_reported":1700989560,"current_range_meters":30400,"station_id":"ce4bh012rcd13ifvqd00","pricing_plan_id":"free"},{"bike_id":"bbccb255-5172-4362-b638-ce15b7bbd505","system_id":"levelo_inurba_marseille","lat":43.294314,"lon":5.397498,"is_reserved":false,"is_disabled":false,"rental_uris":{"android":"levelo://app?vid=bbccb255-5172-4362-b638-ce15b7bbd505","ios":"levelo://app?vid=bbccb255-5172-4362-b638-ce15b7bbd505"},"vehicle_type_id":"4","last_reported":1700989560,"current_range_meters":28000,"station_id":"ce4bh3h2rcd13ifvqdo0","pricing_plan_id":"free"},{"bike_id":"6c75e270-e87d-4fc7-a1c6-e4b3d5c451ba","system_id":"levelo_inurba_marseille","lat":43.28414,"lon":5.37511,"is_reserved":false,"is_disabled":false,"rental_uris":{"android":"levelo://app?vid=6c75e270-e87d-4fc7-a1c6-e4b3d5c451ba","ios":"levelo://app?vid=6c75e270-e87d-4fc7-a1c6-e4b3d5c451ba"},"vehicle_type_id":"4","last_reported":1700989560,"current_range_meters":22800,"station_id":"ce4bh412rcd13ifvqds0","pricing_plan_id":"free"},{"bike_id":"f0e68064-137a-48ad-a642-19ed73b3dd19","system_id":"levelo_inurba_marseille","lat":43.28473,"lon":5.38422,"is_reserved":false,"is_disabled":false,"rental_uris":{"android":"levelo://app?vid=f0e68064-137a-48ad-a642-19ed73b3dd19","ios":"levelo://app?vid=f0e68064-137a-48ad-a642-19ed73b3dd19"},"vehicle_type_id":"4","last_reported":1700989560,"current_range_meters":20400,"station_id":"ce4bh512rcd13ifvqe3g","pricing_plan_id":"free"},{"bike_id":"188c1a75-1e3f-4613-9904-eb0b5b9077af","system_id":"levelo_inurba_marseille","lat":43.28852,"lon":5.39302,"is_reserved":false,"is_disabled":false,"rental_uris":{"android":"levelo://app?vid=188c1a75-1e3f-4613-9904-eb0b5b9077af","ios":"levelo://app?vid=188c1a75-1e3f-4613-9904-eb0b5b9077af"},"vehicle_type_id":"4","last_reported":1700989560,"current_range_meters":16800,"station_id":"ce4bh2p2rcd13ifvqdi0","pricing_plan_id":"free"},{"bike_id":"e2284003-4e46-4e0a-93e7-73d05c3666d9","system_id":"levelo_inurba_marseille","lat":43.33508,"lon":5.397755,"is_reserved":false,"is_disabled":false,"rental_uris":{"android":"levelo://app?vid=e2284003-4e46-4e0a-93e7-73d05c3666d9","ios":"levelo://app?vid=e2284003-4e46-4e0a-93e7-73d05c3666d9"},"vehicle_type_id":"4","last_reported":1700989560,"current_range_meters":19200,"station_id":"","pricing_plan_id":"free"},{"bike_id":"09e36bc1-3aab-4c36-b800-245e5d4c52bb","system_id":"levelo_inurba_marseille","lat":43.292724,"lon":5.401131,"is_reserved":false,"is_disabled":false,"rental_uris":{"android":"levelo://app?vid=09e36bc1-3aab-4c36-b800-245e5d4c52bb","ios":"levelo://app?vid=09e36bc1-3aab-4c36-b800-245e5d4c52bb"},"vehicle_type_id":"4","last_reported":1700989560,"current_range_meters":17200,"station_id":"ce4bh312rcd13ifvqdk0","pricing_plan_id":"free"},{"bike_id":"c96521a3-a4ff-4fca-9fa0-331d448d0e71","system_id":"levelo_inurba_marseille","lat":43.292724,"lon":5.401131,"is_reserved":false,"is_disabled":false,"rental_uris":{"android":"levelo://app?vid=c96521a3-a4ff-4fca-9fa0-331d448d0e71","ios":"levelo://app?vid=c96521a3-a4ff-4fca-9fa0-331d448d0e71"},"vehicle_type_id":"4","last_reported":1700989560,"current_range_meters":24000,"station_id":"ce4bh312rcd13ifvqdk0","pricing_plan_id":"free"},{"bike_id":"ec3b3fd1-5bfc-4d6f-bc0e-3062bce32f53","system_id":"levelo_inurba_marseille","lat":43.28039,"lon":5.369297,"is_reserved":false,"is_disabled":false,"rental_uris":{"android":"levelo://app?vid=ec3b3fd1-5bfc-4d6f-bc0e-3062bce32f53","ios":"levelo://app?vid=ec3b3fd1-5bfc-4d6f-bc0e-3062bce32f53"},"vehicle_type_id":"4","last_reported":1700989560,"current_range_meters":31200,"station_id":"ce4bha12rcd13ifvqef0","pricing_plan_id":"free"},{"bike_id":"db9334a0-0093-411c-aac9-d2c04233863c","system_id":"levelo_inurba_marseille","lat":43.28039,"lon":5.369297,"is_reserved":false,"is_disabled":false,"rental_uris":{"android":"levelo://app?vid=db9334a0-0093-411c-aac9-d2c04233863c","ios":"levelo://app?vid=db9334a0-0093-411c-aac9-d2c04233863c"},"vehicle_type_id":"4","last_reported":1700989560,"current_range_meters":29600,"station_id":"ce4bha12rcd13ifvqef0","pricing_plan_id":"free"},{"bike_id":"57ae1c4e-3134-4051-8a20-577d938684d7","system_id":"levelo_inurba_marseille","lat":43.28039,"lon":5.369297,"is_reserved":false,"is_disabled":false,"rental_uris":{"android":"levelo://app?vid=57ae1c4e-3134-4051-8a20-577d938684d7","ios":"levelo://app?vid=57ae1c4e-3134-4051-8a20-577d938684d7"},"vehicle_type_id":"4","last_reported":1700989560,"current_range_meters":20000,"station_id":"ce4bha12rcd13ifvqef0","pricing_plan_id":"free"},{"bike_id":"6ac7559d-766f-424e-98d9-2ad5998281b0","system_id":"levelo_inurba_marseille","lat":43.28039,"lon":5.369297,"is_reserved":false,"is_disabled":false,"rental_uris":{"android":"levelo://app?vid=6ac7559d-766f-424e-98d9-2ad5998281b0","ios":"levelo://app?vid=6ac7559d-766f-424e-98d9-2ad5998281b0"},"vehicle_type_id":"4","last_reported":1700989560,"current_range_meters":26400,"station_id":"ce4bha12rcd13ifvqef0","pricing_plan_id":"free"},{"bike_id":"389763c1-c0a3-4abc-9c52-92d5795ca5c0","system_id":"levelo_inurba_marseille","lat":43.29041,"lon":5.399634,"is_reserved":false,"is_disabled":false,"rental_uris":{"android":"levelo://app?vid=389763c1-c0a3-4abc-9c52-92d5795ca5c0","ios":"levelo://app?vid=389763c1-c0a3-4abc-9c52-92d5795ca5c0"},"vehicle_type_id":"4","last_reported":1700989560,"current_range_meters":30400,"station_id":"ce4bh392rcd13ifvqdm0","pricing_plan_id":"free"},{"bike_id":"fa742351-07b9-4767-9d49-2391a969ba61","system_id":"levelo_inurba_marseille","lat":43.281044,"lon":5.378308,"is_reserved":false,"is_disabled":false,"rental_uris":{"android":"levelo://app?vid=fa742351-07b9-4767-9d49-2391a969ba61","ios":"levelo://app?vid=fa742351-07b9-4767-9d49-2391a969ba61"},"vehicle_type_id":"4","last_reported":1700989560,"current_range_meters":20800,"station_id":"ce4bha12rcd13ifvqee0","pricing_plan_id":"free"},{"bike_id":"9f82135b-52f2-48b0-bb7c-d289fdaab813","system_id":"levelo_inurba_marseille","lat":43.296263,"lon":5.40601,"is_reserved":false,"is_disabled":false,"rental_uris":{"android":"levelo://app?vid=9f82135b-52f2-48b0-bb7c-d289fdaab813","ios":"levelo://app?vid=9f82135b-52f2-48b0-bb7c-d289fdaab813"},"vehicle_type_id":"4","last_reported":1700989560,"current_range_meters":31200,"station_id":"ce4bh0h2rcd13ifvqd60","pricing_plan_id":"free"},{"bike_id":"20476fb2-3ba2-40b8-9da3-1ee98254bb43","system_id":"levelo_inurba_marseille","lat":43.296263,"lon":5.40601,"is_reserved":false,"is_disabled":false,"rental_uris":{"android":"levelo://app?vid=20476fb2-3ba2-40b8-9da3-1ee98254bb43","ios":"levelo://app?vid=20476fb2-3ba2-40b8-9da3-1ee98254bb43"},"vehicle_type_id":"4","last_reported":1700989560,"current_range_meters":20800,"station_id":"ce4bh0h2rcd13ifvqd60","pricing_plan_id":"free"},{"bike_id":"14d68bab-bd8f-4d1d-ad7c-f20047f7c7e4","system_id":"levelo_inurba_marseille","lat":43.287154,"lon":5.399979,"is_reserved":false,"is_disabled":false,"rental_uris":{"android":"levelo://app?vid=14d68bab-bd8f-4d1d-ad7c-f20047f7c7e4","ios":"levelo://app?vid=14d68bab-bd8f-4d1d-ad7c-f20047f7c7e4"},"vehicle_type_id":"4","last_reported":1700989560,"current_range_meters":18000,"station_id":"ce4bho92rcd13ifvqh3g","pricing_plan_id":"free"},{"bike_id":"10f817af-ac4b-4f62-b41e-23dffb47f9ff","system_id":"levelo_inurba_marseille","lat":43.287154,"lon":5.399979,"is_reserved":false,"is_disabled":false,"rental_uris":{"android":"levelo://app?vid=10f817af-ac4b-4f62-b41e-23dffb47f9ff","ios":"levelo://app?vid=10f817af-ac4b-4f62-b41e-23dffb47f9ff"},"vehicle_type_id":"4","last_reported":1700989560,"current_range_meters":24800,"station_id":"ce4bho92rcd13ifvqh3g","pricing_plan_id":"free"},{"bike_id":"2532c679-1cc7-4268-a49d-9e7b00df2495","system_id":"levelo_inurba_marseille","lat":43.279087,"lon":5.380114,"is_reserved":false,"is_disabled":false,"rental_uris":{"android":"levelo://app?vid=2532c679-1cc7-4268-a49d-9e7b00df2495","ios":"levelo://app?vid=2532c679-1cc7-4268-a49d-9e7b00df2495"},"vehicle_type_id":"4","last_reported":1700989560,"current_range_meters":26400,"station_id":"ce4bhf92rcd13ifvqf50","pricing_plan_id":"free"},{"bike_id":"6526cad1-2f4b-4db1-8d6b-ce04bc407b31","system_id":"levelo_inurba_marseille","lat":43.34883,"lon":5.37501,"is_reserved":false,"is_disabled":false,"rental_uris":{"android":"levelo://app?vid=6526cad1-2f4b-4db1-8d6b-ce04bc407b31","ios":"levelo://app?vid=6526cad1-2f4b-4db1-8d6b-ce04bc407b31"},"vehicle_type_id":"4","last_reported":1700989560,"current_range_meters":0,"station_id":"","pricing_plan_id":"free"},{"bike_id":"062d6964-a217-4fd7-b47f-eac665d05b08","system_id":"levelo_inurba_marseille","lat":43.292571,"lon":5.409107,"is_reserved":false,"is_disabled":false,"rental_uris":{"android":"levelo://app?vid=062d6964-a217-4fd7-b47f-eac665d05b08","ios":"levelo://app?vid=062d6964-a217-4fd7-b47f-eac665d05b08"},"vehicle_type_id":"4","last_reported":1700989560,"current_range_meters":25600,"station_id":"ce4bh192rcd13ifvqdc0","pricing_plan_id":"free"},{"bike_id":"a9e5830a-6d25-4040-b903-1975f7534cc3","system_id":"levelo_inurba_marseille","lat":43.27618,"lon":5.361009,"is_reserved":false,"is_disabled":false,"rental_uris":{"android":"levelo://app?vid=a9e5830a-6d25-4040-b903-1975f7534cc3","ios":"levelo://app?vid=a9e5830a-6d25-4040-b903-1975f7534cc3"},"vehicle_type_id":"4","last_reported":1700989560,"current_range_meters":24800,"station_id":"ce4bgj92rcd13ifvqbe0","pricing_plan_id":"free"},{"bike_id":"af96db3f-8e8a-4f09-9fd5-44ed1b445f15","system_id":"levelo_inurba_marseille","lat":43.276179,"lon":5.361009,"is_reserved":false,"is_disabled":false,"rental_uris":{"android":"levelo://app?vid=af96db3f-8e8a-4f09-9fd5-44ed1b445f15","ios":"levelo://app?vid=af96db3f-8e8a-4f09-9fd5-44ed1b445f15"},"vehicle_type_id":"4","last_reported":1700989560,"current_range_meters":26000,"station_id":"ce4bgj92rcd13ifvqbe0","pricing_plan_id":"free"},{"bike_id":"c25ea147-e804-4786-9d25-91f61a8ed59a","system_id":"levelo_inurba_marseille","lat":43.293651,"lon":5.41268,"is_reserved":false,"is_disabled":false,"rental_uris":{"android":"levelo://app?vid=c25ea147-e804-4786-9d25-91f61a8ed59a","ios":"levelo://app?vid=c25ea147-e804-4786-9d25-91f61a8ed59a"},"vehicle_type_id":"4","last_reported":1700989560,"current_range_meters":0,"station_id":"","pricing_plan_id":"free"},{"bike_id":"1a41ba2d-126a-45a0-9786-3a69c6425282","system_id":"levelo_inurba_marseille","lat":43.273613,"lon":5.362705,"is_reserved":false,"is_disabled":false,"rental_uris":{"android":"levelo://app?vid=1a41ba2d-126a-45a0-9786-3a69c6425282","ios":"levelo://app?vid=1a41ba2d-126a-45a0-9786-3a69c6425282"},"vehicle_type_id":"4","last_reported":1700989560,"current_range_meters":30000,"station_id":"ce4bhbh2rcd13ifvqeo0","pricing_plan_id":"free"},{"bike_id":"46692558-8846-4a6d-81d7-552990d88bb6","system_id":"levelo_inurba_marseille","lat":43.273609,"lon":5.362708,"is_reserved":false,"is_disabled":false,"rental_uris":{"android":"levelo://app?vid=46692558-8846-4a6d-81d7-552990d88bb6","ios":"levelo://app?vid=46692558-8846-4a6d-81d7-552990d88bb6"},"vehicle_type_id":"4","last_reported":1700989560,"current_range_meters":27600,"station_id":"ce4bhbh2rcd13ifvqeo0","pricing_plan_id":"free"},{"bike_id":"1168ee67-6676-44e3-8158-09fbed9ad342","system_id":"levelo_inurba_marseille","lat":43.275625,"lon":5.384392,"is_reserved":false,"is_disabled":false,"rental_uris":{"android":"levelo://app?vid=1168ee67-6676-44e3-8158-09fbed9ad342","ios":"levelo://app?vid=1168ee67-6676-44e3-8158-09fbed9ad342"},"vehicle_type_id":"4","last_reported":1700989560,"current_range_meters":27200,"station_id":"ce4bhh92rcd13ifvqfi0","pricing_plan_id":"free"},{"bike_id":"2de05027-7797-4106-81c1-0fbaf060e0d4","system_id":"levelo_inurba_marseille","lat":43.31717,"lon":5.42394,"is_reserved":false,"is_disabled":false,"rental_uris":{"android":"levelo://app?vid=2de05027-7797-4106-81c1-0fbaf060e0d4","ios":"levelo://app?vid=2de05027-7797-4106-81c1-0fbaf060e0d4"},"vehicle_type_id":"4","last_reported":1700989560,"current_range_meters":13200,"station_id":"ce4bhp92rcd13ifvqhbg","pricing_plan_id":"free"},{"bike_id":"60395232-e532-4f5a-ae3e-52a22da3b50f","system_id":"levelo_inurba_marseille","lat":43.31084,"lon":5.42426,"is_reserved":false,"is_disabled":false,"rental_uris":{"android":"levelo://app?vid=60395232-e532-4f5a-ae3e-52a22da3b50f","ios":"levelo://app?vid=60395232-e532-4f5a-ae3e-52a22da3b50f"},"vehicle_type_id":"4","last_reported":1700989560,"current_range_meters":31200,"station_id":"ce4bhp92rcd13ifvqhag","pricing_plan_id":"free"},{"bike_id":"2bac63be-2248-4f83-9913-6fa6e719b914","system_id":"levelo_inurba_marseille","lat":43.31082,"lon":5.42427,"is_reserved":false,"is_disabled":false,"rental_uris":{"android":"levelo://app?vid=2bac63be-2248-4f83-9913-6fa6e719b914","ios":"levelo://app?vid=2bac63be-2248-4f83-9913-6fa6e719b914"},"vehicle_type_id":"4","last_reported":1700989560,"current_range_meters":13600,"station_id":"ce4bhp92rcd13ifvqhag","pricing_plan_id":"free"},{"bike_id":"8eb5bdb0-5c9b-4999-93c3-a1a499ccf536","system_id":"levelo_inurba_marseille","lat":43.310785,"lon":5.424305,"is_reserved":false,"is_disabled":false,"rental_uris":{"android":"levelo://app?vid=8eb5bdb0-5c9b-4999-93c3-a1a499ccf536","ios":"levelo://app?vid=8eb5bdb0-5c9b-4999-93c3-a1a499ccf536"},"vehicle_type_id":"4","last_reported":1700989560,"current_range_meters":31200,"station_id":"ce4bhp92rcd13ifvqhag","pricing_plan_id":"free"},{"bike_id":"10d499f0-b304-4b6a-a6be-4748d86b9d95","system_id":"levelo_inurba_marseille","lat":43.27329,"lon":5.39071,"is_reserved":false,"is_disabled":false,"rental_uris":{"android":"levelo://app?vid=10d499f0-b304-4b6a-a6be-4748d86b9d95","ios":"levelo://app?vid=10d499f0-b304-4b6a-a6be-4748d86b9d95"},"vehicle_type_id":"4","last_reported":1700989560,"current_range_meters":28800,"station_id":"ce4bhgp2rcd13ifvqfe0","pricing_plan_id":"free"},{"bike_id":"06a73c60-1a08-4f7a-bd1f-d8bebb6fabcb","system_id":"levelo_inurba_marseille","lat":43.273125,"lon":5.390731,"is_reserved":false,"is_disabled":false,"rental_uris":{"android":"levelo://app?vid=06a73c60-1a08-4f7a-bd1f-d8bebb6fabcb","ios":"levelo://app?vid=06a73c60-1a08-4f7a-bd1f-d8bebb6fabcb"},"vehicle_type_id":"4","last_reported":1700989560,"current_range_meters":26800,"station_id":"ce4bhgp2rcd13ifvqfe0","pricing_plan_id":"free"},{"bike_id":"b0273806-c6ff-4614-a087-72f71830b25a","system_id":"levelo_inurba_marseille","lat":43.274103,"lon":5.394016,"is_reserved":false,"is_disabled":false,"rental_uris":{"android":"levelo://app?vid=b0273806-c6ff-4614-a087-72f71830b25a","ios":"levelo://app?vid=b0273806-c6ff-4614-a087-72f71830b25a"},"vehicle_type_id":"4","last_reported":1700989560,"current_range_meters":4000,"station_id":"ce4bhdp2rcd13ifvqf20","pricing_plan_id":"free"},{"bike_id":"dc4c9817-850e-4178-9260-7c7bc0756f71","system_id":"levelo_inurba_marseille","lat":43.273125,"lon":5.390731,"is_reserved":false,"is_disabled":false,"rental_uris":{"android":"levelo://app?vid=dc4c9817-850e-4178-9260-7c7bc0756f71","ios":"levelo://app?vid=dc4c9817-850e-4178-9260-7c7bc0756f71"},"vehicle_type_id":"4","last_reported":1700989560,"current_range_meters":24000,"station_id":"ce4bhgp2rcd13ifvqfe0","pricing_plan_id":"free"},{"bike_id":"eb196576-9a17-42cf-83de-361d35a505ce","system_id":"levelo_inurba_marseille","lat":43.273125,"lon":5.390731,"is_reserved":false,"is_disabled":false,"rental_uris":{"android":"levelo://app?vid=eb196576-9a17-42cf-83de-361d35a505ce","ios":"levelo://app?vid=eb196576-9a17-42cf-83de-361d35a505ce"},"vehicle_type_id":"4","last_reported":1700989560,"current_range_meters":28800,"station_id":"ce4bhgp2rcd13ifvqfe0","pricing_plan_id":"free"},{"bike_id":"66c5df28-1bf7-4530-b742-a18a7a53be5e","system_id":"levelo_inurba_marseille","lat":43.274099,"lon":5.394019,"is_reserved":false,"is_disabled":false,"rental_uris":{"android":"levelo://app?vid=66c5df28-1bf7-4530-b742-a18a7a53be5e","ios":"levelo://app?vid=66c5df28-1bf7-4530-b742-a18a7a53be5e"},"vehicle_type_id":"4","last_reported":1700989560,"current_range_meters":28400,"station_id":"ce4bhdp2rcd13ifvqf20","pricing_plan_id":"free"},{"bike_id":"321ce704-3e10-4714-80de-e604258e5e37","system_id":"levelo_inurba_marseille","lat":43.27306,"lon":5.39074,"is_reserved":false,"is_disabled":false,"rental_uris":{"android":"levelo://app?vid=321ce704-3e10-4714-80de-e604258e5e37","ios":"levelo://app?vid=321ce704-3e10-4714-80de-e604258e5e37"},"vehicle_type_id":"4","last_reported":1700989560,"current_range_meters":29600,"station_id":"ce4bhgp2rcd13ifvqfe0","pricing_plan_id":"free"},{"bike_id":"b0d8de64-7d3c-494c-8008-dc5f6b9121ab","system_id":"levelo_inurba_marseille","lat":43.295523,"lon":5.422926,"is_reserved":false,"is_disabled":false,"rental_uris":{"android":"levelo://app?vid=b0d8de64-7d3c-494c-8008-dc5f6b9121ab","ios":"levelo://app?vid=b0d8de64-7d3c-494c-8008-dc5f6b9121ab"},"vehicle_type_id":"4","last_reported":1700989560,"current_range_meters":30800,"station_id":"ce4bhph2rcd13ifvqhdg","pricing_plan_id":"free"},{"bike_id":"28cdca6c-20d4-45a5-a5d3-e667af576d43","system_id":"levelo_inurba_marseille","lat":43.272124,"lon":5.391768,"is_reserved":false,"is_disabled":false,"rental_uris":{"android":"levelo://app?vid=28cdca6c-20d4-45a5-a5d3-e667af576d43","ios":"levelo://app?vid=28cdca6c-20d4-45a5-a5d3-e667af576d43"},"vehicle_type_id":"4","last_reported":1700989560,"current_range_meters":25200,"station_id":"ce4bhhp2rcd13ifvqfm0","pricing_plan_id":"free"},{"bike_id":"28778b87-3f32-481b-97d8-ed2c591f6f52","system_id":"levelo_inurba_marseille","lat":43.272124,"lon":5.391768,"is_reserved":false,"is_disabled":false,"rental_uris":{"android":"levelo://app?vid=28778b87-3f32-481b-97d8-ed2c591f6f52","ios":"levelo://app?vid=28778b87-3f32-481b-97d8-ed2c591f6f52"},"vehicle_type_id":"4","last_reported":1700989560,"current_range_meters":20400,"station_id":"ce4bhhp2rcd13ifvqfm0","pricing_plan_id":"free"},{"bike_id":"35ff0fef-0031-4454-b197-36cc197ade8d","system_id":"levelo_inurba_marseille","lat":43.272124,"lon":5.391768,"is_reserved":false,"is_disabled":false,"rental_uris":{"android":"levelo://app?vid=35ff0fef-0031-4454-b197-36cc197ade8d","ios":"levelo://app?vid=35ff0fef-0031-4454-b197-36cc197ade8d"},"vehicle_type_id":"4","last_reported":1700989560,"current_range_meters":30800,"station_id":"ce4bhhp2rcd13ifvqfm0","pricing_plan_id":"free"},{"bike_id":"5c549b9d-9de8-4736-a9c6-e2dbe83c665a","system_id":"levelo_inurba_marseille","lat":43.272116,"lon":5.391747,"is_reserved":false,"is_disabled":false,"rental_uris":{"android":"levelo://app?vid=5c549b9d-9de8-4736-a9c6-e2dbe83c665a","ios":"levelo://app?vid=5c549b9d-9de8-4736-a9c6-e2dbe83c665a"},"vehicle_type_id":"4","last_reported":1700989560,"current_range_meters":24000,"station_id":"ce4bhhp2rcd13ifvqfm0","pricing_plan_id":"free"},{"bike_id":"a11a582f-55fd-4d9c-a0a1-56909531a629","system_id":"levelo_inurba_marseille","lat":43.278128,"lon":5.407195,"is_reserved":false,"is_disabled":false,"rental_uris":{"android":"levelo://app?vid=a11a582f-55fd-4d9c-a0a1-56909531a629","ios":"levelo://app?vid=a11a582f-55fd-4d9c-a0a1-56909531a629"},"vehicle_type_id":"4","last_reported":1700989560,"current_range_meters":26800,"station_id":"ce4bhnh2rcd13ifvqgtg","pricing_plan_id":"free"},{"bike_id":"18238bc1-a7d6-4bf1-97ad-06f73ddaa374","system_id":"levelo_inurba_marseille","lat":43.278128,"lon":5.407195,"is_reserved":false,"is_disabled":false,"rental_uris":{"android":"levelo://app?vid=18238bc1-a7d6-4bf1-97ad-06f73ddaa374","ios":"levelo://app?vid=18238bc1-a7d6-4bf1-97ad-06f73ddaa374"},"vehicle_type_id":"4","last_reported":1700989560,"current_range_meters":28400,"station_id":"ce4bhnh2rcd13ifvqgtg","pricing_plan_id":"free"},{"bike_id":"f7f5461d-0db3-4faa-a906-87dee17ee96d","system_id":"levelo_inurba_marseille","lat":43.27815,"lon":5.4072,"is_reserved":false,"is_disabled":false,"rental_uris":{"android":"levelo://app?vid=f7f5461d-0db3-4faa-a906-87dee17ee96d","ios":"levelo://app?vid=f7f5461d-0db3-4faa-a906-87dee17ee96d"},"vehicle_type_id":"4","last_reported":1700989560,"current_range_meters":20000,"station_id":"ce4bhnh2rcd13ifvqgtg","pricing_plan_id":"free"},{"bike_id":"724acedc-ffb8-4f6e-ac6e-94692eb59727","system_id":"levelo_inurba_marseille","lat":43.269319,"lon":5.389397,"is_reserved":false,"is_disabled":false,"rental_uris":{"android":"levelo://app?vid=724acedc-ffb8-4f6e-ac6e-94692eb59727","ios":"levelo://app?vid=724acedc-ffb8-4f6e-ac6e-94692eb59727"},"vehicle_type_id":"4","last_reported":1700989560,"current_range_meters":26800,"station_id":"ce4bhhh2rcd13ifvqfl0","pricing_plan_id":"free"},{"bike_id":"e64e7aac-b148-468d-9c8b-71a40bf0bd77","system_id":"levelo_inurba_marseille","lat":43.269319,"lon":5.389397,"is_reserved":false,"is_disabled":false,"rental_uris":{"android":"levelo://app?vid=e64e7aac-b148-468d-9c8b-71a40bf0bd77","ios":"levelo://app?vid=e64e7aac-b148-468d-9c8b-71a40bf0bd77"},"vehicle_type_id":"4","last_reported":1700989560,"current_range_meters":23600,"station_id":"ce4bhhh2rcd13ifvqfl0","pricing_plan_id":"free"},{"bike_id":"cb580163-af10-4d48-8319-0786c9de1b67","system_id":"levelo_inurba_marseille","lat":43.26681,"lon":5.382694,"is_reserved":false,"is_disabled":false,"rental_uris":{"android":"levelo://app?vid=cb580163-af10-4d48-8319-0786c9de1b67","ios":"levelo://app?vid=cb580163-af10-4d48-8319-0786c9de1b67"},"vehicle_type_id":"4","last_reported":1700989560,"current_range_meters":14800,"station_id":"ce4bhg92rcd13ifvqf90","pricing_plan_id":"free"},{"bike_id":"552b9570-5876-4717-a59e-c90d5a6c1b1a","system_id":"levelo_inurba_marseille","lat":43.26681,"lon":5.382694,"is_reserved":false,"is_disabled":false,"rental_uris":{"android":"levelo://app?vid=552b9570-5876-4717-a59e-c90d5a6c1b1a","ios":"levelo://app?vid=552b9570-5876-4717-a59e-c90d5a6c1b1a"},"vehicle_type_id":"4","last_reported":1700989560,"current_range_meters":31200,"station_id":"ce4bhg92rcd13ifvqf90","pricing_plan_id":"free"},{"bike_id":"5c6ff074-752b-4e7b-b426-7201d9c547af","system_id":"levelo_inurba_marseille","lat":43.26558,"lon":5.37284,"is_reserved":false,"is_disabled":false,"rental_uris":{"android":"levelo://app?vid=5c6ff074-752b-4e7b-b426-7201d9c547af","ios":"levelo://app?vid=5c6ff074-752b-4e7b-b426-7201d9c547af"},"vehicle_type_id":"4","last_reported":1700989560,"current_range_meters":18000,"station_id":"ce4bhg12rcd13ifvqf70","pricing_plan_id":"free"},{"bike_id":"58eb8a06-6d28-4ec6-a188-66edf966b964","system_id":"levelo_inurba_marseille","lat":43.26681,"lon":5.382694,"is_reserved":false,"is_disabled":false,"rental_uris":{"android":"levelo://app?vid=58eb8a06-6d28-4ec6-a188-66edf966b964","ios":"levelo://app?vid=58eb8a06-6d28-4ec6-a188-66edf966b964"},"vehicle_type_id":"4","last_reported":1700989560,"current_range_meters":26000,"station_id":"ce4bhg92rcd13ifvqf90","pricing_plan_id":"free"},{"bike_id":"0d7dd0fe-70fa-4075-8d3d-0c05a3070ec9","system_id":"levelo_inurba_marseille","lat":43.26681,"lon":5.382694,"is_reserved":false,"is_disabled":false,"rental_uris":{"android":"levelo://app?vid=0d7dd0fe-70fa-4075-8d3d-0c05a3070ec9","ios":"levelo://app?vid=0d7dd0fe-70fa-4075-8d3d-0c05a3070ec9"},"vehicle_type_id":"4","last_reported":1700989560,"current_range_meters":28000,"station_id":"ce4bhg92rcd13ifvqf90","pricing_plan_id":"free"},{"bike_id":"f23d8119-b478-4639-98c5-6883279f9f84","system_id":"levelo_inurba_marseille","lat":43.32592,"lon":5.43067,"is_reserved":false,"is_disabled":false,"rental_uris":{"android":"levelo://app?vid=f23d8119-b478-4639-98c5-6883279f9f84","ios":"levelo://app?vid=f23d8119-b478-4639-98c5-6883279f9f84"},"vehicle_type_id":"4","last_reported":1700989560,"current_range_meters":23600,"station_id":"","pricing_plan_id":"free"},{"bike_id":"ed30d6a1-b23a-49e5-9c83-5546be72a734","system_id":"levelo_inurba_marseille","lat":43.3259,"lon":5.43075,"is_reserved":false,"is_disabled":false,"rental_uris":{"android":"levelo://app?vid=ed30d6a1-b23a-49e5-9c83-5546be72a734","ios":"levelo://app?vid=ed30d6a1-b23a-49e5-9c83-5546be72a734"},"vehicle_type_id":"4","last_reported":1700989560,"current_range_meters":18400,"station_id":"","pricing_plan_id":"free"},{"bike_id":"d67469ee-5362-4610-a163-fe05ae3cf4f7","system_id":"levelo_inurba_marseille","lat":43.32604,"lon":5.430817,"is_reserved":false,"is_disabled":false,"rental_uris":{"android":"levelo://app?vid=d67469ee-5362-4610-a163-fe05ae3cf4f7","ios":"levelo://app?vid=d67469ee-5362-4610-a163-fe05ae3cf4f7"},"vehicle_type_id":"4","last_reported":1700989560,"current_range_meters":6800,"station_id":"","pricing_plan_id":"free"},{"bike_id":"1037b41f-ee53-4d23-8a6e-3ed0ac6bf173","system_id":"levelo_inurba_marseille","lat":43.27992,"lon":5.41647,"is_reserved":false,"is_disabled":false,"rental_uris":{"android":"levelo://app?vid=1037b41f-ee53-4d23-8a6e-3ed0ac6bf173","ios":"levelo://app?vid=1037b41f-ee53-4d23-8a6e-3ed0ac6bf173"},"vehicle_type_id":"4","last_reported":1700989560,"current_range_meters":30000,"station_id":"ce4bho12rcd13ifvqh1g","pricing_plan_id":"free"},{"bike_id":"2ce81b26-2847-48e0-8768-f3be7864a8f7","system_id":"levelo_inurba_marseille","lat":43.279986,"lon":5.41668,"is_reserved":false,"is_disabled":false,"rental_uris":{"android":"levelo://app?vid=2ce81b26-2847-48e0-8768-f3be7864a8f7","ios":"levelo://app?vid=2ce81b26-2847-48e0-8768-f3be7864a8f7"},"vehicle_type_id":"4","last_reported":1700989560,"current_range_meters":26800,"station_id":"ce4bho12rcd13ifvqh1g","pricing_plan_id":"free"},{"bike_id":"97e80021-871f-43cf-ad8e-99b17a254f61","system_id":"levelo_inurba_marseille","lat":43.27996,"lon":5.416624,"is_reserved":false,"is_disabled":false,"rental_uris":{"android":"levelo://app?vid=97e80021-871f-43cf-ad8e-99b17a254f61","ios":"levelo://app?vid=97e80021-871f-43cf-ad8e-99b17a254f61"},"vehicle_type_id":"4","last_reported":1700989560,"current_range_meters":31200,"station_id":"ce4bho12rcd13ifvqh1g","pricing_plan_id":"free"},{"bike_id":"05d11fc6-bfad-4336-bbb0-16504370a872","system_id":"levelo_inurba_marseille","lat":43.27987,"lon":5.41656,"is_reserved":false,"is_disabled":false,"rental_uris":{"android":"levelo://app?vid=05d11fc6-bfad-4336-bbb0-16504370a872","ios":"levelo://app?vid=05d11fc6-bfad-4336-bbb0-16504370a872"},"vehicle_type_id":"4","last_reported":1700989560,"current_range_meters":27600,"station_id":"ce4bho12rcd13ifvqh1g","pricing_plan_id":"free"},{"bike_id":"d8b5098a-ad04-43b0-8016-95d267f393c0","system_id":"levelo_inurba_marseille","lat":43.265714,"lon":5.372891,"is_reserved":false,"is_disabled":false,"rental_uris":{"android":"levelo://app?vid=d8b5098a-ad04-43b0-8016-95d267f393c0","ios":"levelo://app?vid=d8b5098a-ad04-43b0-8016-95d267f393c0"},"vehicle_type_id":"4","last_reported":1700989560,"current_range_meters":28400,"station_id":"ce4bhg12rcd13ifvqf70","pricing_plan_id":"free"},{"bike_id":"58f09646-198a-4784-9b3b-ea4659d37cf6","system_id":"levelo_inurba_marseille","lat":43.267966,"lon":5.393976,"is_reserved":false,"is_disabled":false,"rental_uris":{"android":"levelo://app?vid=58f09646-198a-4784-9b3b-ea4659d37cf6","ios":"levelo://app?vid=58f09646-198a-4784-9b3b-ea4659d37cf6"},"vehicle_type_id":"4","last_reported":1700989560,"current_range_meters":28400,"station_id":"ce4bhh12rcd13ifvqfg0","pricing_plan_id":"free"},{"bike_id":"f9b42e34-c938-4751-a0ed-542b074e380e","system_id":"levelo_inurba_marseille","lat":43.265714,"lon":5.372891,"is_reserved":false,"is_disabled":false,"rental_uris":{"android":"levelo://app?vid=f9b42e34-c938-4751-a0ed-542b074e380e","ios":"levelo://app?vid=f9b42e34-c938-4751-a0ed-542b074e380e"},"vehicle_type_id":"4","last_reported":1700989560,"current_range_meters":21600,"station_id":"ce4bhg12rcd13ifvqf70","pricing_plan_id":"free"},{"bike_id":"eae4233e-5c8e-459b-8d14-731ee6c7e4fe","system_id":"levelo_inurba_marseille","lat":43.265714,"lon":5.372891,"is_reserved":false,"is_disabled":false,"rental_uris":{"android":"levelo://app?vid=eae4233e-5c8e-459b-8d14-731ee6c7e4fe","ios":"levelo://app?vid=eae4233e-5c8e-459b-8d14-731ee6c7e4fe"},"vehicle_type_id":"4","last_reported":1700989560,"current_range_meters":28000,"station_id":"ce4bhg12rcd13ifvqf70","pricing_plan_id":"free"},{"bike_id":"a3f89d76-8a6a-4496-a898-4607c6b46081","system_id":"levelo_inurba_marseille","lat":43.267966,"lon":5.393976,"is_reserved":false,"is_disabled":false,"rental_uris":{"android":"levelo://app?vid=a3f89d76-8a6a-4496-a898-4607c6b46081","ios":"levelo://app?vid=a3f89d76-8a6a-4496-a898-4607c6b46081"},"vehicle_type_id":"4","last_reported":1700989560,"current_range_meters":31200,"station_id":"ce4bhh12rcd13ifvqfg0","pricing_plan_id":"free"},{"bike_id":"4288c862-af4b-433c-bb7c-8fc023ffef48","system_id":"levelo_inurba_marseille","lat":43.267966,"lon":5.393976,"is_reserved":false,"is_disabled":false,"rental_uris":{"android":"levelo://app?vid=4288c862-af4b-433c-bb7c-8fc023ffef48","ios":"levelo://app?vid=4288c862-af4b-433c-bb7c-8fc023ffef48"},"vehicle_type_id":"4","last_reported":1700989560,"current_range_meters":27600,"station_id":"ce4bhh12rcd13ifvqfg0","pricing_plan_id":"free"},{"bike_id":"2b5f0b27-ae58-4e9e-bd76-c585f78e8a73","system_id":"levelo_inurba_marseille","lat":43.26386,"lon":5.37454,"is_reserved":false,"is_disabled":false,"rental_uris":{"android":"levelo://app?vid=2b5f0b27-ae58-4e9e-bd76-c585f78e8a73","ios":"levelo://app?vid=2b5f0b27-ae58-4e9e-bd76-c585f78e8a73"},"vehicle_type_id":"4","last_reported":1700989560,"current_range_meters":7600,"station_id":"","pricing_plan_id":"free"},{"bike_id":"9ae2cda8-ba30-4f57-9aaa-5721cc4b2b5a","system_id":"levelo_inurba_marseille","lat":43.308051,"lon":5.43527,"is_reserved":false,"is_disabled":false,"rental_uris":{"android":"levelo://app?vid=9ae2cda8-ba30-4f57-9aaa-5721cc4b2b5a","ios":"levelo://app?vid=9ae2cda8-ba30-4f57-9aaa-5721cc4b2b5a"},"vehicle_type_id":"4","last_reported":1700989560,"current_range_meters":30800,"station_id":"ce4bhph2rcd13ifvqheg","pricing_plan_id":"free"},{"bike_id":"7566e70d-58e0-4a68-8fd4-b312311835d0","system_id":"levelo_inurba_marseille","lat":43.26565,"lon":5.39,"is_reserved":false,"is_disabled":false,"rental_uris":{"android":"levelo://app?vid=7566e70d-58e0-4a68-8fd4-b312311835d0","ios":"levelo://app?vid=7566e70d-58e0-4a68-8fd4-b312311835d0"},"vehicle_type_id":"4","last_reported":1700989560,"current_range_meters":14800,"station_id":"ce4bhe12rcd13ifvqf30","pricing_plan_id":"free"},{"bike_id":"e8c2728b-4f0c-4469-81c8-cc7a0a2d3da3","system_id":"levelo_inurba_marseille","lat":43.26949,"lon":5.40262,"is_reserved":false,"is_disabled":false,"rental_uris":{"android":"levelo://app?vid=e8c2728b-4f0c-4469-81c8-cc7a0a2d3da3","ios":"levelo://app?vid=e8c2728b-4f0c-4469-81c8-cc7a0a2d3da3"},"vehicle_type_id":"4","last_reported":1700989560,"current_range_meters":28000,"station_id":"cjm6bp8fraef2m0cb0m0","pricing_plan_id":"free"},{"bike_id":"2d7b9048-acd1-4460-9b4c-6c362bf53a5f","system_id":"levelo_inurba_marseille","lat":43.26949,"lon":5.40262,"is_reserved":false,"is_disabled":false,"rental_uris":{"android":"levelo://app?vid=2d7b9048-acd1-4460-9b4c-6c362bf53a5f","ios":"levelo://app?vid=2d7b9048-acd1-4460-9b4c-6c362bf53a5f"},"vehicle_type_id":"4","last_reported":1700989560,"current_range_meters":22400,"station_id":"cjm6bp8fraef2m0cb0m0","pricing_plan_id":"free"},{"bike_id":"b6be2ed9-33cc-4a48-960c-fcfccf8f87a2","system_id":"levelo_inurba_marseille","lat":43.26938,"lon":5.40244,"is_reserved":false,"is_disabled":false,"rental_uris":{"android":"levelo://app?vid=b6be2ed9-33cc-4a48-960c-fcfccf8f87a2","ios":"levelo://app?vid=b6be2ed9-33cc-4a48-960c-fcfccf8f87a2"},"vehicle_type_id":"4","last_reported":1700989560,"current_range_meters":27600,"station_id":"cjm6bp8fraef2m0cb0m0","pricing_plan_id":"free"},{"bike_id":"7eb84224-ddd2-4ee3-9ea9-0c75c393e799","system_id":"levelo_inurba_marseille","lat":43.26949,"lon":5.40262,"is_reserved":false,"is_disabled":false,"rental_uris":{"android":"levelo://app?vid=7eb84224-ddd2-4ee3-9ea9-0c75c393e799","ios":"levelo://app?vid=7eb84224-ddd2-4ee3-9ea9-0c75c393e799"},"vehicle_type_id":"4","last_reported":1700989560,"current_range_meters":17200,"station_id":"cjm6bp8fraef2m0cb0m0","pricing_plan_id":"free"},{"bike_id":"0ef7beb1-0e92-4d9b-ba63-b4b6389025b2","system_id":"levelo_inurba_marseille","lat":43.26937,"lon":5.40252,"is_reserved":false,"is_disabled":false,"rental_uris":{"android":"levelo://app?vid=0ef7beb1-0e92-4d9b-ba63-b4b6389025b2","ios":"levelo://app?vid=0ef7beb1-0e92-4d9b-ba63-b4b6389025b2"},"vehicle_type_id":"4","last_reported":1700989560,"current_range_meters":24400,"station_id":"cjm6bp8fraef2m0cb0m0","pricing_plan_id":"free"},{"bike_id":"c23fe9c1-cbb8-4bc4-8a83-b06cc729e7ad","system_id":"levelo_inurba_marseille","lat":43.26949,"lon":5.40262,"is_reserved":false,"is_disabled":false,"rental_uris":{"android":"levelo://app?vid=c23fe9c1-cbb8-4bc4-8a83-b06cc729e7ad","ios":"levelo://app?vid=c23fe9c1-cbb8-4bc4-8a83-b06cc729e7ad"},"vehicle_type_id":"4","last_reported":1700989560,"current_range_meters":14400,"station_id":"cjm6bp8fraef2m0cb0m0","pricing_plan_id":"free"},{"bike_id":"6931a1bf-4d1f-4449-992b-a47fe1f96118","system_id":"levelo_inurba_marseille","lat":43.26938,"lon":5.40263,"is_reserved":false,"is_disabled":false,"rental_uris":{"android":"levelo://app?vid=6931a1bf-4d1f-4449-992b-a47fe1f96118","ios":"levelo://app?vid=6931a1bf-4d1f-4449-992b-a47fe1f96118"},"vehicle_type_id":"4","last_reported":1700989560,"current_range_meters":21600,"station_id":"cjm6bp8fraef2m0cb0m0","pricing_plan_id":"free"},{"bike_id":"e6ae5fa6-9435-4ad0-836c-d6e0a81870ce","system_id":"levelo_inurba_marseille","lat":43.317104,"lon":5.436818,"is_reserved":false,"is_disabled":false,"rental_uris":{"android":"levelo://app?vid=e6ae5fa6-9435-4ad0-836c-d6e0a81870ce","ios":"levelo://app?vid=e6ae5fa6-9435-4ad0-836c-d6e0a81870ce"},"vehicle_type_id":"4","last_reported":1700989560,"current_range_meters":22000,"station_id":"ce4bhp92rcd13ifvqhcg","pricing_plan_id":"free"},{"bike_id":"149de16b-7aa0-4c51-98d0-fc74b233cb43","system_id":"levelo_inurba_marseille","lat":43.317104,"lon":5.436818,"is_reserved":false,"is_disabled":false,"rental_uris":{"android":"levelo://app?vid=149de16b-7aa0-4c51-98d0-fc74b233cb43","ios":"levelo://app?vid=149de16b-7aa0-4c51-98d0-fc74b233cb43"},"vehicle_type_id":"4","last_reported":1700989560,"current_range_meters":12400,"station_id":"ce4bhp92rcd13ifvqhcg","pricing_plan_id":"free"},{"bike_id":"ec593df7-85d2-4a7c-a892-75fec147bf75","system_id":"levelo_inurba_marseille","lat":43.317104,"lon":5.436818,"is_reserved":false,"is_disabled":false,"rental_uris":{"android":"levelo://app?vid=ec593df7-85d2-4a7c-a892-75fec147bf75","ios":"levelo://app?vid=ec593df7-85d2-4a7c-a892-75fec147bf75"},"vehicle_type_id":"4","last_reported":1700989560,"current_range_meters":30000,"station_id":"ce4bhp92rcd13ifvqhcg","pricing_plan_id":"free"},{"bike_id":"69c23016-61c2-4c94-9138-5d76dcb062ac","system_id":"levelo_inurba_marseille","lat":43.262012,"lon":5.379307,"is_reserved":false,"is_disabled":false,"rental_uris":{"android":"levelo://app?vid=69c23016-61c2-4c94-9138-5d76dcb062ac","ios":"levelo://app?vid=69c23016-61c2-4c94-9138-5d76dcb062ac"},"vehicle_type_id":"4","last_reported":1700989560,"current_range_meters":20800,"station_id":"ce4bhjp2rcd13ifvqg90","pricing_plan_id":"free"},{"bike_id":"168519a5-1052-47ea-a7cb-3924cbbe4eda","system_id":"levelo_inurba_marseille","lat":43.271388,"lon":5.409269,"is_reserved":false,"is_disabled":false,"rental_uris":{"android":"levelo://app?vid=168519a5-1052-47ea-a7cb-3924cbbe4eda","ios":"levelo://app?vid=168519a5-1052-47ea-a7cb-3924cbbe4eda"},"vehicle_type_id":"4","last_reported":1700989560,"current_range_meters":28000,"station_id":"ce4bhl12rcd13ifvqgf0","pricing_plan_id":"free"},{"bike_id":"9e593d08-8c96-44ca-b16e-7bf16e9cac2f","system_id":"levelo_inurba_marseille","lat":43.271368,"lon":5.40928,"is_reserved":false,"is_disabled":false,"rental_uris":{"android":"levelo://app?vid=9e593d08-8c96-44ca-b16e-7bf16e9cac2f","ios":"levelo://app?vid=9e593d08-8c96-44ca-b16e-7bf16e9cac2f"},"vehicle_type_id":"4","last_reported":1700989560,"current_range_meters":31200,"station_id":"ce4bhl12rcd13ifvqgf0","pricing_plan_id":"free"},{"bike_id":"8f9e7c4b-8ea4-4692-9557-a7f5a28012eb","system_id":"levelo_inurba_marseille","lat":43.26202,"lon":5.379299,"is_reserved":false,"is_disabled":false,"rental_uris":{"android":"levelo://app?vid=8f9e7c4b-8ea4-4692-9557-a7f5a28012eb","ios":"levelo://app?vid=8f9e7c4b-8ea4-4692-9557-a7f5a28012eb"},"vehicle_type_id":"4","last_reported":1700989560,"current_range_meters":24000,"station_id":"ce4bhjp2rcd13ifvqg90","pricing_plan_id":"free"},{"bike_id":"3ebbbbf8-0d1e-4343-910b-5aa8c2d3fc91","system_id":"levelo_inurba_marseille","lat":43.271368,"lon":5.40928,"is_reserved":false,"is_disabled":false,"rental_uris":{"android":"levelo://app?vid=3ebbbbf8-0d1e-4343-910b-5aa8c2d3fc91","ios":"levelo://app?vid=3ebbbbf8-0d1e-4343-910b-5aa8c2d3fc91"},"vehicle_type_id":"4","last_reported":1700989560,"current_range_meters":29200,"station_id":"ce4bhl12rcd13ifvqgf0","pricing_plan_id":"free"},{"bike_id":"18f6538e-ace0-449c-9add-ff9f568fd93b","system_id":"levelo_inurba_marseille","lat":43.26202,"lon":5.379299,"is_reserved":false,"is_disabled":false,"rental_uris":{"android":"levelo://app?vid=18f6538e-ace0-449c-9add-ff9f568fd93b","ios":"levelo://app?vid=18f6538e-ace0-449c-9add-ff9f568fd93b"},"vehicle_type_id":"4","last_reported":1700989560,"current_range_meters":22400,"station_id":"ce4bhjp2rcd13ifvqg90","pricing_plan_id":"free"},{"bike_id":"dbf62bfb-d43b-46dc-b301-0e9e00d707fe","system_id":"levelo_inurba_marseille","lat":43.261808,"lon":5.379047,"is_reserved":false,"is_disabled":false,"rental_uris":{"android":"levelo://app?vid=dbf62bfb-d43b-46dc-b301-0e9e00d707fe","ios":"levelo://app?vid=dbf62bfb-d43b-46dc-b301-0e9e00d707fe"},"vehicle_type_id":"4","last_reported":1700989560,"current_range_meters":24800,"station_id":"ce4bhjp2rcd13ifvqg90","pricing_plan_id":"free"},{"bike_id":"7c5a83ac-336c-4b91-a5ea-82b3c6d6127d","system_id":"levelo_inurba_marseille","lat":43.298768,"lon":5.43643,"is_reserved":false,"is_disabled":false,"rental_uris":{"android":"levelo://app?vid=7c5a83ac-336c-4b91-a5ea-82b3c6d6127d","ios":"levelo://app?vid=7c5a83ac-336c-4b91-a5ea-82b3c6d6127d"},"vehicle_type_id":"4","last_reported":1700989560,"current_range_meters":31200,"station_id":"ce4bhpp2rcd13ifvqhfg","pricing_plan_id":"free"},{"bike_id":"f4f2e1d5-dafa-412d-9b3a-3611814786ce","system_id":"levelo_inurba_marseille","lat":43.298768,"lon":5.43643,"is_reserved":false,"is_disabled":false,"rental_uris":{"android":"levelo://app?vid=f4f2e1d5-dafa-412d-9b3a-3611814786ce","ios":"levelo://app?vid=f4f2e1d5-dafa-412d-9b3a-3611814786ce"},"vehicle_type_id":"4","last_reported":1700989560,"current_range_meters":31200,"station_id":"ce4bhpp2rcd13ifvqhfg","pricing_plan_id":"free"},{"bike_id":"d24921c1-8c61-4b91-941a-2e11a6ed2b73","system_id":"levelo_inurba_marseille","lat":43.29893,"lon":5.43665,"is_reserved":false,"is_disabled":false,"rental_uris":{"android":"levelo://app?vid=d24921c1-8c61-4b91-941a-2e11a6ed2b73","ios":"levelo://app?vid=d24921c1-8c61-4b91-941a-2e11a6ed2b73"},"vehicle_type_id":"4","last_reported":1700989560,"current_range_meters":30000,"station_id":"ce4bhpp2rcd13ifvqhfg","pricing_plan_id":"free"},{"bike_id":"8af0d2ed-93d1-485d-9803-40c71e52d0d9","system_id":"levelo_inurba_marseille","lat":43.299011,"lon":5.43673,"is_reserved":false,"is_disabled":false,"rental_uris":{"android":"levelo://app?vid=8af0d2ed-93d1-485d-9803-40c71e52d0d9","ios":"levelo://app?vid=8af0d2ed-93d1-485d-9803-40c71e52d0d9"},"vehicle_type_id":"4","last_reported":1700989560,"current_range_meters":9200,"station_id":"ce4bhpp2rcd13ifvqhfg","pricing_plan_id":"free"},{"bike_id":"a7146f4b-6f73-4d96-993b-442257edc98b","system_id":"levelo_inurba_marseille","lat":43.260225,"lon":5.375455,"is_reserved":false,"is_disabled":false,"rental_uris":{"android":"levelo://app?vid=a7146f4b-6f73-4d96-993b-442257edc98b","ios":"levelo://app?vid=a7146f4b-6f73-4d96-993b-442257edc98b"},"vehicle_type_id":"4","last_reported":1700989560,"current_range_meters":27200,"station_id":"ce4bhgh2rcd13ifvqfa0","pricing_plan_id":"free"},{"bike_id":"2628fb3a-9b3a-4836-8cca-8b1625de82d4","system_id":"levelo_inurba_marseille","lat":43.28153,"lon":5.42631,"is_reserved":false,"is_disabled":false,"rental_uris":{"android":"levelo://app?vid=2628fb3a-9b3a-4836-8cca-8b1625de82d4","ios":"levelo://app?vid=2628fb3a-9b3a-4836-8cca-8b1625de82d4"},"vehicle_type_id":"4","last_reported":1700989560,"current_range_meters":12800,"station_id":"ce4bhnh2rcd13ifvqgug","pricing_plan_id":"free"},{"bike_id":"1c8d74f7-5570-450a-a3f0-692cd9a40004","system_id":"levelo_inurba_marseille","lat":43.281548,"lon":5.42643,"is_reserved":false,"is_disabled":false,"rental_uris":{"android":"levelo://app?vid=1c8d74f7-5570-450a-a3f0-692cd9a40004","ios":"levelo://app?vid=1c8d74f7-5570-450a-a3f0-692cd9a40004"},"vehicle_type_id":"4","last_reported":1700989560,"current_range_meters":30800,"station_id":"ce4bhnh2rcd13ifvqgug","pricing_plan_id":"free"},{"bike_id":"842dcf66-28c7-40dc-af0b-7a3c6c857991","system_id":"levelo_inurba_marseille","lat":43.28154,"lon":5.42636,"is_reserved":false,"is_disabled":false,"rental_uris":{"android":"levelo://app?vid=842dcf66-28c7-40dc-af0b-7a3c6c857991","ios":"levelo://app?vid=842dcf66-28c7-40dc-af0b-7a3c6c857991"},"vehicle_type_id":"4","last_reported":1700989560,"current_range_meters":26400,"station_id":"ce4bhnh2rcd13ifvqgug","pricing_plan_id":"free"},{"bike_id":"1fc56d20-6c5b-4d59-bab9-40842dc89680","system_id":"levelo_inurba_marseille","lat":43.28155,"lon":5.42637,"is_reserved":false,"is_disabled":false,"rental_uris":{"android":"levelo://app?vid=1fc56d20-6c5b-4d59-bab9-40842dc89680","ios":"levelo://app?vid=1fc56d20-6c5b-4d59-bab9-40842dc89680"},"vehicle_type_id":"4","last_reported":1700989560,"current_range_meters":28000,"station_id":"ce4bhnh2rcd13ifvqgug","pricing_plan_id":"free"},{"bike_id":"f68ee4f6-e3d9-4c3c-8264-f88965d8ef31","system_id":"levelo_inurba_marseille","lat":43.28154,"lon":5.42638,"is_reserved":false,"is_disabled":false,"rental_uris":{"android":"levelo://app?vid=f68ee4f6-e3d9-4c3c-8264-f88965d8ef31","ios":"levelo://app?vid=f68ee4f6-e3d9-4c3c-8264-f88965d8ef31"},"vehicle_type_id":"4","last_reported":1700989560,"current_range_meters":12400,"station_id":"ce4bhnh2rcd13ifvqgug","pricing_plan_id":"free"},{"bike_id":"dc0c3350-5dd6-44a3-9302-c3102229fc54","system_id":"levelo_inurba_marseille","lat":43.281548,"lon":5.42643,"is_reserved":false,"is_disabled":false,"rental_uris":{"android":"levelo://app?vid=dc0c3350-5dd6-44a3-9302-c3102229fc54","ios":"levelo://app?vid=dc0c3350-5dd6-44a3-9302-c3102229fc54"},"vehicle_type_id":"4","last_reported":1700989560,"current_range_meters":26400,"station_id":"ce4bhnh2rcd13ifvqgug","pricing_plan_id":"free"},{"bike_id":"c87cdef8-d70c-463e-88fd-987162c81837","system_id":"levelo_inurba_marseille","lat":43.28153,"lon":5.42638,"is_reserved":false,"is_disabled":false,"rental_uris":{"android":"levelo://app?vid=c87cdef8-d70c-463e-88fd-987162c81837","ios":"levelo://app?vid=c87cdef8-d70c-463e-88fd-987162c81837"},"vehicle_type_id":"4","last_reported":1700989560,"current_range_meters":16400,"station_id":"ce4bhnh2rcd13ifvqgug","pricing_plan_id":"free"},{"bike_id":"91b404f7-dd69-4e65-9cf1-9f90fef0012e","system_id":"levelo_inurba_marseille","lat":43.281526,"lon":5.426408,"is_reserved":false,"is_disabled":false,"rental_uris":{"android":"levelo://app?vid=91b404f7-dd69-4e65-9cf1-9f90fef0012e","ios":"levelo://app?vid=91b404f7-dd69-4e65-9cf1-9f90fef0012e"},"vehicle_type_id":"4","last_reported":1700989560,"current_range_meters":29600,"station_id":"ce4bhnh2rcd13ifvqgug","pricing_plan_id":"free"},{"bike_id":"006f1478-b3a1-4c5b-bb58-6b7da0cc1461","system_id":"levelo_inurba_marseille","lat":43.2607,"lon":5.393983,"is_reserved":false,"is_disabled":false,"rental_uris":{"android":"levelo://app?vid=006f1478-b3a1-4c5b-bb58-6b7da0cc1461","ios":"levelo://app?vid=006f1478-b3a1-4c5b-bb58-6b7da0cc1461"},"vehicle_type_id":"4","last_reported":1700989560,"current_range_meters":22000,"station_id":"ce4bhh92rcd13ifvqfj0","pricing_plan_id":"free"},{"bike_id":"25f53fe9-442d-4a6b-bff7-b174c2430662","system_id":"levelo_inurba_marseille","lat":43.2607,"lon":5.393983,"is_reserved":false,"is_disabled":false,"rental_uris":{"android":"levelo://app?vid=25f53fe9-442d-4a6b-bff7-b174c2430662","ios":"levelo://app?vid=25f53fe9-442d-4a6b-bff7-b174c2430662"},"vehicle_type_id":"4","last_reported":1700989560,"current_range_meters":30000,"station_id":"ce4bhh92rcd13ifvqfj0","pricing_plan_id":"free"},{"bike_id":"b65b9c54-d36b-463e-8b4c-ee74997be54e","system_id":"levelo_inurba_marseille","lat":43.2607,"lon":5.393983,"is_reserved":false,"is_disabled":false,"rental_uris":{"android":"levelo://app?vid=b65b9c54-d36b-463e-8b4c-ee74997be54e","ios":"levelo://app?vid=b65b9c54-d36b-463e-8b4c-ee74997be54e"},"vehicle_type_id":"4","last_reported":1700989560,"current_range_meters":14800,"station_id":"ce4bhh92rcd13ifvqfj0","pricing_plan_id":"free"},{"bike_id":"afa512d0-7796-450c-8a39-5402468cd7bf","system_id":"levelo_inurba_marseille","lat":43.26093,"lon":5.39759,"is_reserved":false,"is_disabled":false,"rental_uris":{"android":"levelo://app?vid=afa512d0-7796-450c-8a39-5402468cd7bf","ios":"levelo://app?vid=afa512d0-7796-450c-8a39-5402468cd7bf"},"vehicle_type_id":"4","last_reported":1700989560,"current_range_meters":26800,"station_id":"ce4bhi12rcd13ifvqfq0","pricing_plan_id":"free"},{"bike_id":"c1adb875-0c34-4f35-aefb-e41572323da8","system_id":"levelo_inurba_marseille","lat":43.260883,"lon":5.397551,"is_reserved":false,"is_disabled":false,"rental_uris":{"android":"levelo://app?vid=c1adb875-0c34-4f35-aefb-e41572323da8","ios":"levelo://app?vid=c1adb875-0c34-4f35-aefb-e41572323da8"},"vehicle_type_id":"4","last_reported":1700989560,"current_range_meters":18400,"station_id":"ce4bhi12rcd13ifvqfq0","pricing_plan_id":"free"},{"bike_id":"e2482bab-1eb4-4a6f-b7fd-75767a4a3271","system_id":"levelo_inurba_marseille","lat":43.275028,"lon":5.424534,"is_reserved":false,"is_disabled":false,"rental_uris":{"android":"levelo://app?vid=e2482bab-1eb4-4a6f-b7fd-75767a4a3271","ios":"levelo://app?vid=e2482bab-1eb4-4a6f-b7fd-75767a4a3271"},"vehicle_type_id":"4","last_reported":1700989560,"current_range_meters":28400,"station_id":"ce4bhn92rcd13ifvqgrg","pricing_plan_id":"free"},{"bike_id":"be64daa4-651e-49cc-985e-fc8eb2f1ac5c","system_id":"levelo_inurba_marseille","lat":43.275028,"lon":5.424534,"is_reserved":false,"is_disabled":false,"rental_uris":{"android":"levelo://app?vid=be64daa4-651e-49cc-985e-fc8eb2f1ac5c","ios":"levelo://app?vid=be64daa4-651e-49cc-985e-fc8eb2f1ac5c"},"vehicle_type_id":"4","last_reported":1700989560,"current_range_meters":28800,"station_id":"ce4bhn92rcd13ifvqgrg","pricing_plan_id":"free"},{"bike_id":"9ae83bda-b0aa-4bb6-8db1-9e8551b5d543","system_id":"levelo_inurba_marseille","lat":43.260909,"lon":5.397591,"is_reserved":false,"is_disabled":false,"rental_uris":{"android":"levelo://app?vid=9ae83bda-b0aa-4bb6-8db1-9e8551b5d543","ios":"levelo://app?vid=9ae83bda-b0aa-4bb6-8db1-9e8551b5d543"},"vehicle_type_id":"4","last_reported":1700989560,"current_range_meters":29600,"station_id":"ce4bhi12rcd13ifvqfq0","pricing_plan_id":"free"},{"bike_id":"9131ea2f-45c2-4f2b-8a53-843f24ad5d93","system_id":"levelo_inurba_marseille","lat":43.26089,"lon":5.39775,"is_reserved":false,"is_disabled":false,"rental_uris":{"android":"levelo://app?vid=9131ea2f-45c2-4f2b-8a53-843f24ad5d93","ios":"levelo://app?vid=9131ea2f-45c2-4f2b-8a53-843f24ad5d93"},"vehicle_type_id":"4","last_reported":1700989560,"current_range_meters":28800,"station_id":"ce4bhi12rcd13ifvqfq0","pricing_plan_id":"free"},{"bike_id":"503bbd35-5565-42f7-9e59-5026d025b01e","system_id":"levelo_inurba_marseille","lat":43.274908,"lon":5.4246,"is_reserved":false,"is_disabled":false,"rental_uris":{"android":"levelo://app?vid=503bbd35-5565-42f7-9e59-5026d025b01e","ios":"levelo://app?vid=503bbd35-5565-42f7-9e59-5026d025b01e"},"vehicle_type_id":"4","last_reported":1700989560,"current_range_meters":27600,"station_id":"ce4bhn92rcd13ifvqgrg","pricing_plan_id":"free"},{"bike_id":"783e5a08-5c76-48d6-b5a2-4da09393953f","system_id":"levelo_inurba_marseille","lat":43.260909,"lon":5.397591,"is_reserved":false,"is_disabled":false,"rental_uris":{"android":"levelo://app?vid=783e5a08-5c76-48d6-b5a2-4da09393953f","ios":"levelo://app?vid=783e5a08-5c76-48d6-b5a2-4da09393953f"},"vehicle_type_id":"4","last_reported":1700989560,"current_range_meters":8800,"station_id":"ce4bhi12rcd13ifvqfq0","pricing_plan_id":"free"},{"bike_id":"c85f7616-3a9e-47a4-ae16-28a03e51ab4f","system_id":"levelo_inurba_marseille","lat":43.289289,"lon":5.438756,"is_reserved":false,"is_disabled":false,"rental_uris":{"android":"levelo://app?vid=c85f7616-3a9e-47a4-ae16-28a03e51ab4f","ios":"levelo://app?vid=c85f7616-3a9e-47a4-ae16-28a03e51ab4f"},"vehicle_type_id":"4","last_reported":1700989560,"current_range_meters":9200,"station_id":"","pricing_plan_id":"free"},{"bike_id":"2815230e-bf9b-400c-be93-737a58174572","system_id":"levelo_inurba_marseille","lat":43.258305,"lon":5.394285,"is_reserved":false,"is_disabled":false,"rental_uris":{"android":"levelo://app?vid=2815230e-bf9b-400c-be93-737a58174572","ios":"levelo://app?vid=2815230e-bf9b-400c-be93-737a58174572"},"vehicle_type_id":"4","last_reported":1700989560,"current_range_meters":27600,"station_id":"ce4bhip2rcd13ifvqft0","pricing_plan_id":"free"},{"bike_id":"50212635-4160-4083-b7f4-667edaba123a","system_id":"levelo_inurba_marseille","lat":43.2583,"lon":5.3943,"is_reserved":false,"is_disabled":false,"rental_uris":{"android":"levelo://app?vid=50212635-4160-4083-b7f4-667edaba123a","ios":"levelo://app?vid=50212635-4160-4083-b7f4-667edaba123a"},"vehicle_type_id":"4","last_reported":1700989560,"current_range_meters":11600,"station_id":"ce4bhip2rcd13ifvqft0","pricing_plan_id":"free"},{"bike_id":"53ae05c5-1664-4ddb-ae58-547f63e25710","system_id":"levelo_inurba_marseille","lat":43.25826,"lon":5.3943,"is_reserved":false,"is_disabled":false,"rental_uris":{"android":"levelo://app?vid=53ae05c5-1664-4ddb-ae58-547f63e25710","ios":"levelo://app?vid=53ae05c5-1664-4ddb-ae58-547f63e25710"},"vehicle_type_id":"4","last_reported":1700989560,"current_range_meters":27200,"station_id":"ce4bhip2rcd13ifvqft0","pricing_plan_id":"free"},{"bike_id":"9a634b5d-6845-48fc-8232-4dd0d8b056bc","system_id":"levelo_inurba_marseille","lat":43.2558,"lon":5.38223,"is_reserved":false,"is_disabled":false,"rental_uris":{"android":"levelo://app?vid=9a634b5d-6845-48fc-8232-4dd0d8b056bc","ios":"levelo://app?vid=9a634b5d-6845-48fc-8232-4dd0d8b056bc"},"vehicle_type_id":"4","last_reported":1700989560,"current_range_meters":18400,"station_id":"ce4bhih2rcd13ifvqfs0","pricing_plan_id":"free"},{"bike_id":"c32181e7-cd0d-465e-9bc3-b5345e6a44e9","system_id":"levelo_inurba_marseille","lat":43.25579,"lon":5.38231,"is_reserved":false,"is_disabled":false,"rental_uris":{"android":"levelo://app?vid=c32181e7-cd0d-465e-9bc3-b5345e6a44e9","ios":"levelo://app?vid=c32181e7-cd0d-465e-9bc3-b5345e6a44e9"},"vehicle_type_id":"4","last_reported":1700989560,"current_range_meters":14800,"station_id":"ce4bhih2rcd13ifvqfs0","pricing_plan_id":"free"},{"bike_id":"9d48e2b6-8a78-46c3-a26d-037280acbae5","system_id":"levelo_inurba_marseille","lat":43.25577,"lon":5.38233,"is_reserved":false,"is_disabled":false,"rental_uris":{"android":"levelo://app?vid=9d48e2b6-8a78-46c3-a26d-037280acbae5","ios":"levelo://app?vid=9d48e2b6-8a78-46c3-a26d-037280acbae5"},"vehicle_type_id":"4","last_reported":1700989560,"current_range_meters":20800,"station_id":"ce4bhih2rcd13ifvqfs0","pricing_plan_id":"free"},{"bike_id":"2be2ec2e-b2b2-45e9-8b93-bbc631fc5983","system_id":"levelo_inurba_marseille","lat":43.25576,"lon":5.38227,"is_reserved":false,"is_disabled":false,"rental_uris":{"android":"levelo://app?vid=2be2ec2e-b2b2-45e9-8b93-bbc631fc5983","ios":"levelo://app?vid=2be2ec2e-b2b2-45e9-8b93-bbc631fc5983"},"vehicle_type_id":"4","last_reported":1700989560,"current_range_meters":30000,"station_id":"ce4bhih2rcd13ifvqfs0","pricing_plan_id":"free"},{"bike_id":"5e4358a6-9fee-4f7e-9d89-a4bfe129b7f4","system_id":"levelo_inurba_marseille","lat":43.254947,"lon":5.376454,"is_reserved":false,"is_disabled":false,"rental_uris":{"android":"levelo://app?vid=5e4358a6-9fee-4f7e-9d89-a4bfe129b7f4","ios":"levelo://app?vid=5e4358a6-9fee-4f7e-9d89-a4bfe129b7f4"},"vehicle_type_id":"4","last_reported":1700989560,"current_range_meters":30000,"station_id":"ce4bhh12rcd13ifvqff0","pricing_plan_id":"free"},