{"last_updated":1744899015,"ttl":60,"version":"2.2","data":{"bikes":[{"bike_id":"3eecef82-ffe8-42c1-a3fe-81aa14c4ae31","system_id":"levelo_inurba_marseille","lat":43.301583,"lon":5.380771,"is_reserved":false,"is_disabled":false,"rental_uris":{"android":"levelo://app?vid=3eecef82-ffe8-42c1-a3fe-81aa14c4ae31","ios":"levelo://app?vid=3eecef82-ffe8-42c1-a3fe-81aa14c4ae31"},"vehicle_type_id":"4","last_reported":1744899015,"current_range_meters":2800,"station_id":"ce4bgjp2rcd13ifvqbh0","pricing_plan_id":"cebpf4jnsgd1na2vs0mg"},{"bike_id":"b849420f-a755-4df1-b3d9-888cc18ed7b8","system_id":"levelo_inurba_marseille","lat":43.27919,"lon":5.39578,"is_reserved":false,"is_disabled":false,"rental_uris":{"android":"levelo://app?vid=b849420f-a755-4df1-b3d9-888cc18ed7b8","ios":"levelo://app?vid=b849420f-a755-4df1-b3d9-888cc18ed7b8"},"vehicle_type_id":"4","last_reported":1744899015,"current_range_meters":3600,"station_id":"ce4bhf92rcd13ifvqf40","pricing_plan_id":"cebpf4jnsgd1na2vs0mg"},{"bike_id":"27d65429-e235-4ad4-8e99-624219bf772a","system_id":"levelo_inurba_marseille","lat":43.30736,"lon":5.4244,"is_reserved":false,"is_disabled":false,"rental_uris":{"android":"levelo://app?vid=27d65429-e235-4ad4-8e99-624219bf772a","ios":"levelo://app?vid=27d65429-e235-4ad4-8e99-624219bf772a"},"vehicle_type_id":"4","last_reported":1744899015,"current_range_meters":3600,"station_id":"st_cvj6ca6bvosntc0bfgr0","pricing_plan_id":"cebpf4jnsgd1na2vs0mg"},{"bike_id":"13448244-4631-4cf6-a05e-adae71d9093f","system_id":"levelo_inurba_marseille","lat":43.31071,"lon":5.38358,"is_reserved":false,"is_disabled":false,"rental_uris":{"android":"levelo://app?vid=13448244-4631-4cf6-a05e-adae71d9093f","ios":"levelo://app?vid=13448244-4631-4cf6-a05e-adae71d9093f"},"vehicle_type_id":"4","last_reported":1744899015,"current_range_meters":4400,"station_id":"ce4bgv92rcd13ifvqcr0","pricing_plan_id":"cebpf4jnsgd1na2vs0mg"},{"bike_id":"5cdcf813-8cb3-4afb-a12e-ba05f2f6910d","system_id":"levelo_inurba_marseille","lat":43.27207,"lon":5.39182,"is_reserved":false,"is_disabled":false,"rental_uris":{"android":"levelo://app?vid=5cdcf813-8cb3-4afb-a12e-ba05f2f6910d","ios":"levelo://app?vid=5cdcf813-8cb3-4afb-a12e-ba05f2f6910d"},"vehicle_type_id":"4","last_reported":1744899015,"current_range_meters":4400,"station_id":"ce4bhhp2rcd13ifvqfm0","pricing_plan_id":"cebpf4jnsgd1na2vs0mg"},{"bike_id":"01062114-9fa0-4a2f-b52b-41a1a094c047","system_id":"levelo_inurba_marseille","lat":43.29552,"lon":5.42286,"is_reserved":false,"is_disabled":false,"rental_uris":{"android":"levelo://app?vid=01062114-9fa0-4a2f-b52b-41a1a094c047","ios":"levelo://app?vid=01062114-9fa0-4a2f-b52b-41a1a094c047"},"vehicle_type_id":"4","last_reported":1744899015,"current_range_meters":4400,"station_id":"ce4bhph2rcd13ifvqhdg","pricing_plan_id":"cebpf4jnsgd1na2vs0mg"},{"bike_id":"86ed1dd9-1041-492b-9144-d841d5556d1a","system_id":"levelo_inurba_marseille","lat":43.28001,"lon":5.41665,"is_reserved":false,"is_disabled":false,"rental_uris":{"android":"levelo://app?vid=86ed1dd9-1041-492b-9144-d841d5556d1a","ios":"levelo://app?vid=86ed1dd9-1041-492b-9144-d841d5556d1a"},"vehicle_type_id":"4","last_reported":1744899015,"current_range_meters":4400,"station_id":"ce4bho12rcd13ifvqh1g","pricing_plan_id":"cebpf4jnsgd1na2vs0mg"},{"bike_id":"ad155b1e-8f0c-4601-9c14-69fc54a33c49","system_id":"levelo_inurba_marseille","lat":43.28359,"lon":5.38643,"is_reserved":false,"is_disabled":false,"rental_uris":{"android":"levelo://app?vid=ad155b1e-8f0c-4601-9c14-69fc54a33c49","ios":"levelo://app?vid=ad155b1e-8f0c-4601-9c14-69fc54a33c49"},"vehicle_type_id":"4","last_reported":1744899015,"current_range_meters":4800,"station_id":"ce4bh492rcd13ifvqdvg","pricing_plan_id":"cebpf4jnsgd1na2vs0mg"},{"bike_id":"b1a27541-5e9a-44b2-930f-2e196637fc16","system_id":"levelo_inurba_marseille","lat":43.336,"lon":5.41034,"is_reserved":false,"is_disabled":false,"rental_uris":{"android":"levelo://app?vid=b1a27541-5e9a-44b2-930f-2e196637fc16","ios":"levelo://app?vid=b1a27541-5e9a-44b2-930f-2e196637fc16"},"vehicle_type_id":"4","last_reported":1744899015,"current_range_meters":4800,"station_id":"ce4bhqh2rcd13ifvqhmg","pricing_plan_id":"cebpf4jnsgd1na2vs0mg"},{"bike_id":"2a200926-8ae6-46e0-ac59-891b1e14cd26","system_id":"levelo_inurba_marseille","lat":43.29985,"lon":5.3846,"is_reserved":false,"is_disabled":false,"rental_uris":{"android":"levelo://app?vid=2a200926-8ae6-46e0-ac59-891b1e14cd26","ios":"levelo://app?vid=2a200926-8ae6-46e0-ac59-891b1e14cd26"},"vehicle_type_id":"4","last_reported":1744899015,"current_range_meters":5600,"station_id":"ce4bgj92rcd13ifvqbd0","pricing_plan_id":"cebpf4jnsgd1na2vs0mg"},{"bike_id":"1d9e2e13-cc2b-439d-a333-f5e3d5d0aac4","system_id":"levelo_inurba_marseille","lat":43.29874,"lon":5.39719,"is_reserved":false,"is_disabled":false,"rental_uris":{"android":"levelo://app?vid=1d9e2e13-cc2b-439d-a333-f5e3d5d0aac4","ios":"levelo://app?vid=1d9e2e13-cc2b-439d-a333-f5e3d5d0aac4"},"vehicle_type_id":"4","last_reported":1744899015,"current_range_meters":5600,"station_id":"ce4bh0h2rcd13ifvqd50","pricing_plan_id":"cebpf4jnsgd1na2vs0mg"},{"bike_id":"b2264eb1-5e1f-4f92-929e-c66b4b54a200","system_id":"levelo_inurba_marseille","lat":43.28607,"lon":5.37076,"is_reserved":false,"is_disabled":false,"rental_uris":{"android":"levelo://app?vid=b2264eb1-5e1f-4f92-929e-c66b4b54a200","ios":"levelo://app?vid=b2264eb1-5e1f-4f92-929e-c66b4b54a200"},"vehicle_type_id":"4","last_reported":1744899015,"current_range_meters":6400,"station_id":"ce4bht12rcd13ifvqi60","pricing_plan_id":"cebpf4jnsgd1na2vs0mg"},{"bike_id":"494e0dfb-685e-450b-b514-49211caafe78","system_id":"levelo_inurba_marseille","lat":43.27828,"lon":5.39206,"is_reserved":false,"is_disabled":false,"rental_uris":{"android":"levelo://app?vid=494e0dfb-685e-450b-b514-49211caafe78","ios":"levelo://app?vid=494e0dfb-685e-450b-b514-49211caafe78"},"vehicle_type_id":"4","last_reported":1744899015,"current_range_meters":6400,"station_id":"ce4bhjp2rcd13ifvqga0","pricing_plan_id":"cebpf4jnsgd1na2vs0mg"},{"bike_id":"07b3bd8d-83fc-4bfb-9fcf-03809243cfea","system_id":"levelo_inurba_marseille","lat":43.23153,"lon":5.43709,"is_reserved":false,"is_disabled":false,"rental_uris":{"android":"levelo://app?vid=07b3bd8d-83fc-4bfb-9fcf-03809243cfea","ios":"levelo://app?vid=07b3bd8d-83fc-4bfb-9fcf-03809243cfea"},"vehicle_type_id":"4","last_reported":1744899015,"current_range_meters":6400,"station_id":"ce4bhmp2rcd13ifvqgog","pricing_plan_id":"cebpf4jnsgd1na2vs0mg"},{"bike_id":"b0dbd109-dd07-40d7-86e1-bf3b86717302","system_id":"levelo_inurba_marseille","lat":43.279922,"lon":5.400297,"is_reserved":false,"is_disabled":false,"rental_uris":{"android":"levelo://app?vid=b0dbd109-dd07-40d7-86e1-bf3b86717302","ios":"levelo://app?vid=b0dbd109-dd07-40d7-86e1-bf3b86717302"},"vehicle_type_id":"4","last_reported":1744899015,"current_range_meters":6800,"station_id":"ce4bho92rcd13ifvqh4g","pricing_plan_id":"cebpf4jnsgd1na2vs0mg"},{"bike_id":"575c843c-1b74-4dd5-b48f-1b33ee58b5a7","system_id":"levelo_inurba_marseille","lat":43.21758,"lon":5.34606,"is_reserved":false,"is_disabled":false,"rental_uris":{"android":"levelo://app?vid=575c843c-1b74-4dd5-b48f-1b33ee58b5a7","ios":"levelo://app?vid=575c843c-1b74-4dd5-b48f-1b33ee58b5a7"},"vehicle_type_id":"4","last_reported":1744899015,"current_range_meters":7200,"station_id":"st_cvj6r9ubvosntc0bgbag","pricing_plan_id":"cebpf4jnsgd1na2vs0mg"},{"bike_id":"f29c4740-aa86-4a8e-a39e-dd7cc994db84","system_id":"levelo_inurba_marseille","lat":43.29416,"lon":5.38634,"is_reserved":false,"is_disabled":false,"rental_uris":{"android":"levelo://app?vid=f29c4740-aa86-4a8e-a39e-dd7cc994db84","ios":"levelo://app?vid=f29c4740-aa86-4a8e-a39e-dd7cc994db84"},"vehicle_type_id":"4","last_reported":1744899015,"current_range_meters":8000,"station_id":"ce4bh2h2rcd13ifvqdh0","pricing_plan_id":"cebpf4jnsgd1na2vs0mg"},{"bike_id":"751ec6b4-a903-4445-a13d-51a5efaa2210","system_id":"levelo_inurba_marseille","lat":43.29255,"lon":5.37594,"is_reserved":false,"is_disabled":false,"rental_uris":{"android":"levelo://app?vid=751ec6b4-a903-4445-a13d-51a5efaa2210","ios":"levelo://app?vid=751ec6b4-a903-4445-a13d-51a5efaa2210"},"vehicle_type_id":"4","last_reported":1744899015,"current_range_meters":8000,"station_id":"ce4bgi12rcd13ifvqb80","pricing_plan_id":"cebpf4jnsgd1na2vs0mg"},{"bike_id":"994695a9-98fd-4da6-9191-c96330e6cffb","system_id":"levelo_inurba_marseille","lat":43.21754,"lon":5.34603,"is_reserved":false,"is_disabled":false,"rental_uris":{"android":"levelo://app?vid=994695a9-98fd-4da6-9191-c96330e6cffb","ios":"levelo://app?vid=994695a9-98fd-4da6-9191-c96330e6cffb"},"vehicle_type_id":"4","last_reported":1744899015,"current_range_meters":8000,"station_id":"st_cvj6r9ubvosntc0bgbag","pricing_plan_id":"cebpf4jnsgd1na2vs0mg"},{"bike_id":"adb99102-c2e1-4399-8d04-866b557b576c","system_id":"levelo_inurba_marseille","lat":43.28967,"lon":5.38273,"is_reserved":false,"is_disabled":false,"rental_uris":{"android":"levelo://app?vid=adb99102-c2e1-4399-8d04-866b557b576c","ios":"levelo://app?vid=adb99102-c2e1-4399-8d04-866b557b576c"},"vehicle_type_id":"4","last_reported":1744899015,"current_range_meters":8400,"station_id":"ce4bh612rcd13ifvqe6g","pricing_plan_id":"cebpf4jnsgd1na2vs0mg"},{"bike_id":"09002642-e1dc-4dc3-a673-71dae931d56f","system_id":"levelo_inurba_marseille","lat":43.21743,"lon":5.34602,"is_reserved":false,"is_disabled":false,"rental_uris":{"android":"levelo://app?vid=09002642-e1dc-4dc3-a673-71dae931d56f","ios":"levelo://app?vid=09002642-e1dc-4dc3-a673-71dae931d56f"},"vehicle_type_id":"4","last_reported":1744899015,"current_range_meters":8800,"station_id":"st_cvj6r9ubvosntc0bgbag","pricing_plan_id":"cebpf4jnsgd1na2vs0mg"},{"bike_id":"e2fca265-51ed-4986-8f4c-b2b897d6d52a","system_id":"levelo_inurba_marseille","lat":43.28084,"lon":5.39654,"is_reserved":false,"is_disabled":false,"rental_uris":{"android":"levelo://app?vid=e2fca265-51ed-4986-8f4c-b2b897d6d52a","ios":"levelo://app?vid=e2fca265-51ed-4986-8f4c-b2b897d6d52a"},"vehicle_type_id":"4","last_reported":1744899015,"current_range_meters":8800,"station_id":"ce4bho12rcd13ifvqh2g","pricing_plan_id":"cebpf4jnsgd1na2vs0mg"},{"bike_id":"343180fc-354d-467a-b078-64fd79eba0b3","system_id":"levelo_inurba_marseille","lat":43.31191,"lon":5.38711,"is_reserved":false,"is_disabled":false,"rental_uris":{"android":"levelo://app?vid=343180fc-354d-467a-b078-64fd79eba0b3","ios":"levelo://app?vid=343180fc-354d-467a-b078-64fd79eba0b3"},"vehicle_type_id":"4","last_reported":1744899015,"current_range_meters":9200,"station_id":"ce4bgv12rcd13ifvqcp0","pricing_plan_id":"cebpf4jnsgd1na2vs0mg"},{"bike_id":"1bdba7a7-a82e-4252-906c-80db6beb180e","system_id":"levelo_inurba_marseille","lat":43.33774,"lon":5.37473,"is_reserved":false,"is_disabled":false,"rental_uris":{"android":"levelo://app?vid=1bdba7a7-a82e-4252-906c-80db6beb180e","ios":"levelo://app?vid=1bdba7a7-a82e-4252-906c-80db6beb180e"},"vehicle_type_id":"4","last_reported":1744899015,"current_range_meters":9600,"station_id":"","pricing_plan_id":"cebpf4jnsgd1na2vs0mg"},{"bike_id":"1d4dfec9-e6ff-46a1-9295-2722f0963b42","system_id":"levelo_inurba_marseille","lat":43.2467,"lon":5.38143,"is_reserved":false,"is_disabled":false,"rental_uris":{"android":"levelo://app?vid=1d4dfec9-e6ff-46a1-9295-2722f0963b42","ios":"levelo://app?vid=1d4dfec9-e6ff-46a1-9295-2722f0963b42"},"vehicle_type_id":"4","last_reported":1744899015,"current_range_meters":9600,"station_id":"ce4bhih2rcd13ifvqfr0","pricing_plan_id":"cebpf4jnsgd1na2vs0mg"},{"bike_id":"7bcc7c88-573b-4e6a-9819-d78f0ca42610","system_id":"levelo_inurba_marseille","lat":43.30203,"lon":5.36622,"is_reserved":false,"is_disabled":false,"rental_uris":{"android":"levelo://app?vid=7bcc7c88-573b-4e6a-9819-d78f0ca42610","ios":"levelo://app?vid=7bcc7c88-573b-4e6a-9819-d78f0ca42610"},"vehicle_type_id":"4","last_reported":1744899015,"current_range_meters":9600,"station_id":"ce4bgrh2rcd13ifvqc8g","pricing_plan_id":"cebpf4jnsgd1na2vs0mg"},{"bike_id":"2df22311-bac1-4b8f-abff-11893969de63","system_id":"levelo_inurba_marseille","lat":43.30806,"lon":5.38161,"is_reserved":false,"is_disabled":false,"rental_uris":{"android":"levelo://app?vid=2df22311-bac1-4b8f-abff-11893969de63","ios":"levelo://app?vid=2df22311-bac1-4b8f-abff-11893969de63"},"vehicle_type_id":"4","last_reported":1744899015,"current_range_meters":10000,"station_id":"ce4bgt12rcd13ifvqce0","pricing_plan_id":"cebpf4jnsgd1na2vs0mg"},{"bike_id":"ae623da4-6edd-49fd-8225-0e029ec4d0f1","system_id":"levelo_inurba_marseille","lat":43.284668,"lon":5.384033,"is_reserved":false,"is_disabled":false,"rental_uris":{"android":"levelo://app?vid=ae623da4-6edd-49fd-8225-0e029ec4d0f1","ios":"levelo://app?vid=ae623da4-6edd-49fd-8225-0e029ec4d0f1"},"vehicle_type_id":"4","last_reported":1744899015,"current_range_meters":10000,"station_id":"ce4bhbh2rcd13ifvqeo0","pricing_plan_id":"cebpf4jnsgd1na2vs0mg"},{"bike_id":"5a127f48-c8a9-427c-a19b-29b0c540925d","system_id":"levelo_inurba_marseille","lat":43.26501,"lon":5.39543,"is_reserved":false,"is_disabled":false,"rental_uris":{"android":"levelo://app?vid=5a127f48-c8a9-427c-a19b-29b0c540925d","ios":"levelo://app?vid=5a127f48-c8a9-427c-a19b-29b0c540925d"},"vehicle_type_id":"4","last_reported":1744899015,"current_range_meters":10000,"station_id":"ce4bhi12rcd13ifvqfq0","pricing_plan_id":"cebpf4jnsgd1na2vs0mg"},{"bike_id":"c2edfd09-1e0e-49de-a6e6-84b45c79d940","system_id":"levelo_inurba_marseille","lat":43.32482,"lon":5.36565,"is_reserved":false,"is_disabled":false,"rental_uris":{"android":"levelo://app?vid=c2edfd09-1e0e-49de-a6e6-84b45c79d940","ios":"levelo://app?vid=c2edfd09-1e0e-49de-a6e6-84b45c79d940"},"vehicle_type_id":"4","last_reported":1744899015,"current_range_meters":10000,"station_id":"ce4bhs12rcd13ifvqhvg","pricing_plan_id":"cebpf4jnsgd1na2vs0mg"},{"bike_id":"7ad40f18-ae98-4c0f-b710-eca5b5c79bb7","system_id":"levelo_inurba_marseille","lat":43.296213,"lon":5.37166,"is_reserved":false,"is_disabled":false,"rental_uris":{"android":"levelo://app?vid=7ad40f18-ae98-4c0f-b710-eca5b5c79bb7","ios":"levelo://app?vid=7ad40f18-ae98-4c0f-b710-eca5b5c79bb7"},"vehicle_type_id":"4","last_reported":1744899015,"current_range_meters":10000,"station_id":"ce4bgnh2rcd13ifvqc0g","pricing_plan_id":"cebpf4jnsgd1na2vs0mg"},{"bike_id":"0a0b0a73-2b27-49fb-801a-3111dcebfbac","system_id":"levelo_inurba_marseille","lat":43.27498,"lon":5.42456,"is_reserved":false,"is_disabled":false,"rental_uris":{"android":"levelo://app?vid=0a0b0a73-2b27-49fb-801a-3111dcebfbac","ios":"levelo://app?vid=0a0b0a73-2b27-49fb-801a-3111dcebfbac"},"vehicle_type_id":"4","last_reported":1744899015,"current_range_meters":10000,"station_id":"ce4bhn92rcd13ifvqgrg","pricing_plan_id":"cebpf4jnsgd1na2vs0mg"},{"bike_id":"014fbf5a-ad2a-46f4-80dc-1ca45fb5c333","system_id":"levelo_inurba_marseille","lat":43.29881,"lon":5.39732,"is_reserved":false,"is_disabled":false,"rental_uris":{"android":"levelo://app?vid=014fbf5a-ad2a-46f4-80dc-1ca45fb5c333","ios":"levelo://app?vid=014fbf5a-ad2a-46f4-80dc-1ca45fb5c333"},"vehicle_type_id":"4","last_reported":1744899015,"current_range_meters":10000,"station_id":"ce4bh0h2rcd13ifvqd50","pricing_plan_id":"cebpf4jnsgd1na2vs0mg"},{"bike_id":"6a42fdd6-075d-4748-811a-29f5845c8920","system_id":"levelo_inurba_marseille","lat":43.21756,"lon":5.34594,"is_reserved":false,"is_disabled":false,"rental_uris":{"android":"levelo://app?vid=6a42fdd6-075d-4748-811a-29f5845c8920","ios":"levelo://app?vid=6a42fdd6-075d-4748-811a-29f5845c8920"},"vehicle_type_id":"4","last_reported":1744899015,"current_range_meters":10800,"station_id":"st_cvj6r9ubvosntc0bgbag","pricing_plan_id":"cebpf4jnsgd1na2vs0mg"},{"bike_id":"408eca25-c9e3-4259-ba41-7160925f4d7a","system_id":"levelo_inurba_marseille","lat":43.21672,"lon":5.34777,"is_reserved":false,"is_disabled":false,"rental_uris":{"android":"levelo://app?vid=408eca25-c9e3-4259-ba41-7160925f4d7a","ios":"levelo://app?vid=408eca25-c9e3-4259-ba41-7160925f4d7a"},"vehicle_type_id":"4","last_reported":1744899015,"current_range_meters":10800,"station_id":"","pricing_plan_id":"cebpf4jnsgd1na2vs0mg"},{"bike_id":"a7442f23-f5ea-4852-979a-6e7b6befe28b","system_id":"levelo_inurba_marseille","lat":43.3077,"lon":5.3765,"is_reserved":false,"is_disabled":false,"rental_uris":{"android":"levelo://app?vid=a7442f23-f5ea-4852-979a-6e7b6befe28b","ios":"levelo://app?vid=a7442f23-f5ea-4852-979a-6e7b6befe28b"},"vehicle_type_id":"4","last_reported":1744899015,"current_range_meters":10800,"station_id":"ce4bgv92rcd13ifvqcq0","pricing_plan_id":"cebpf4jnsgd1na2vs0mg"},{"bike_id":"9f8e06d3-5872-4f4e-b571-578e00489c6c","system_id":"levelo_inurba_marseille","lat":43.26221,"lon":5.37441,"is_reserved":false,"is_disabled":false,"rental_uris":{"android":"levelo://app?vid=9f8e06d3-5872-4f4e-b571-578e00489c6c","ios":"levelo://app?vid=9f8e06d3-5872-4f4e-b571-578e00489c6c"},"vehicle_type_id":"4","last_reported":1744899015,"current_range_meters":10800,"station_id":"ce4bhgp2rcd13ifvqfc0","pricing_plan_id":"cebpf4jnsgd1na2vs0mg"},{"bike_id":"cc5b6e11-3128-4345-a773-79c574cd5fc5","system_id":"levelo_inurba_marseille","lat":43.28566,"lon":5.3949,"is_reserved":false,"is_disabled":false,"rental_uris":{"android":"levelo://app?vid=cc5b6e11-3128-4345-a773-79c574cd5fc5","ios":"levelo://app?vid=cc5b6e11-3128-4345-a773-79c574cd5fc5"},"vehicle_type_id":"4","last_reported":1744899015,"current_range_meters":11600,"station_id":"ce4bh292rcd13ifvqdg0","pricing_plan_id":"cebpf4jnsgd1na2vs0mg"},{"bike_id":"7c67b9cd-54d7-43a4-95fb-c0c285ea79f2","system_id":"levelo_inurba_marseille","lat":43.29912,"lon":5.3814,"is_reserved":false,"is_disabled":false,"rental_uris":{"android":"levelo://app?vid=7c67b9cd-54d7-43a4-95fb-c0c285ea79f2","ios":"levelo://app?vid=7c67b9cd-54d7-43a4-95fb-c0c285ea79f2"},"vehicle_type_id":"4","last_reported":1744899015,"current_range_meters":11600,"station_id":"ce4bgj12rcd13ifvqbc0","pricing_plan_id":"cebpf4jnsgd1na2vs0mg"},{"bike_id":"b3368a4b-172f-436c-89f1-5b68b3612fbc","system_id":"levelo_inurba_marseille","lat":43.295603,"lon":5.422742,"is_reserved":false,"is_disabled":false,"rental_uris":{"android":"levelo://app?vid=b3368a4b-172f-436c-89f1-5b68b3612fbc","ios":"levelo://app?vid=b3368a4b-172f-436c-89f1-5b68b3612fbc"},"vehicle_type_id":"4","last_reported":1744899015,"current_range_meters":12000,"station_id":"ce4bhph2rcd13ifvqhdg","pricing_plan_id":"cebpf4jnsgd1na2vs0mg"},{"bike_id":"ff935f1c-246d-4e07-a399-40ad7e059de5","system_id":"levelo_inurba_marseille","lat":43.25492,"lon":5.37646,"is_reserved":false,"is_disabled":true,"rental_uris":{"android":"levelo://app?vid=ff935f1c-246d-4e07-a399-40ad7e059de5","ios":"levelo://app?vid=ff935f1c-246d-4e07-a399-40ad7e059de5"},"vehicle_type_id":"4","last_reported":1744899015,"current_range_meters":12000,"station_id":"ce4bhh12rcd13ifvqff0","pricing_plan_id":"cebpf4jnsgd1na2vs0mg"},{"bike_id":"c88fc7d6-c2b8-446b-8fe8-8fb075ca5dbc","system_id":"levelo_inurba_marseille","lat":43.29424,"lon":5.38627,"is_reserved":false,"is_disabled":false,"rental_uris":{"android":"levelo://app?vid=c88fc7d6-c2b8-446b-8fe8-8fb075ca5dbc","ios":"levelo://app?vid=c88fc7d6-c2b8-446b-8fe8-8fb075ca5dbc"},"vehicle_type_id":"4","last_reported":1744899015,"current_range_meters":12000,"station_id":"ce4bh2h2rcd13ifvqdh0","pricing_plan_id":"cebpf4jnsgd1na2vs0mg"},{"bike_id":"34b35194-65d9-47ff-85b1-424d235ab1e4","system_id":"levelo_inurba_marseille","lat":43.31894,"lon":5.4073,"is_reserved":false,"is_disabled":false,"rental_uris":{"android":"levelo://app?vid=34b35194-65d9-47ff-85b1-424d235ab1e4","ios":"levelo://app?vid=34b35194-65d9-47ff-85b1-424d235ab1e4"},"vehicle_type_id":"4","last_reported":1744899015,"current_range_meters":12000,"station_id":"ce4bhq12rcd13ifvqhig","pricing_plan_id":"cebpf4jnsgd1na2vs0mg"},{"bike_id":"6182d45b-191a-4249-88bd-5fad61239bca","system_id":"levelo_inurba_marseille","lat":43.2176,"lon":5.34601,"is_reserved":false,"is_disabled":false,"rental_uris":{"android":"levelo://app?vid=6182d45b-191a-4249-88bd-5fad61239bca","ios":"levelo://app?vid=6182d45b-191a-4249-88bd-5fad61239bca"},"vehicle_type_id":"4","last_reported":1744899015,"current_range_meters":12000,"station_id":"st_cvj6r9ubvosntc0bgbag","pricing_plan_id":"cebpf4jnsgd1na2vs0mg"},{"bike_id":"51848573-b8e3-419f-87a9-c06a17eaf53e","system_id":"levelo_inurba_marseille","lat":43.29868,"lon":5.39733,"is_reserved":false,"is_disabled":false,"rental_uris":{"android":"levelo://app?vid=51848573-b8e3-419f-87a9-c06a17eaf53e","ios":"levelo://app?vid=51848573-b8e3-419f-87a9-c06a17eaf53e"},"vehicle_type_id":"4","last_reported":1744899015,"current_range_meters":12000,"station_id":"ce4bh0h2rcd13ifvqd50","pricing_plan_id":"cebpf4jnsgd1na2vs0mg"},{"bike_id":"5d115a57-12ca-4e41-8e74-1e3e1717f24f","system_id":"levelo_inurba_marseille","lat":43.26498,"lon":5.39529,"is_reserved":false,"is_disabled":false,"rental_uris":{"android":"levelo://app?vid=5d115a57-12ca-4e41-8e74-1e3e1717f24f","ios":"levelo://app?vid=5d115a57-12ca-4e41-8e74-1e3e1717f24f"},"vehicle_type_id":"4","last_reported":1744899015,"current_range_meters":12400,"station_id":"ce4bhi12rcd13ifvqfq0","pricing_plan_id":"cebpf4jnsgd1na2vs0mg"},{"bike_id":"9ae4de2b-65d6-4c8d-9fd9-eb2927f36e22","system_id":"levelo_inurba_marseille","lat":43.23349,"lon":5.36454,"is_reserved":false,"is_disabled":false,"rental_uris":{"android":"levelo://app?vid=9ae4de2b-65d6-4c8d-9fd9-eb2927f36e22","ios":"levelo://app?vid=9ae4de2b-65d6-4c8d-9fd9-eb2927f36e22"},"vehicle_type_id":"4","last_reported":1744899015,"current_range_meters":12400,"station_id":"","pricing_plan_id":"cebpf4jnsgd1na2vs0mg"},{"bike_id":"da0699e6-fffb-42fd-bda2-fa249cfedfd8","system_id":"levelo_inurba_marseille","lat":43.31479,"lon":5.37299,"is_reserved":false,"is_disabled":false,"rental_uris":{"android":"levelo://app?vid=da0699e6-fffb-42fd-bda2-fa249cfedfd8","ios":"levelo://app?vid=da0699e6-fffb-42fd-bda2-fa249cfedfd8"},"vehicle_type_id":"4","last_reported":1744899015,"current_range_meters":12800,"station_id":"ce4bgt12rcd13ifvqcd0","pricing_plan_id":"cebpf4jnsgd1na2vs0mg"},{"bike_id":"b66512e9-6177-4d4b-801b-0a909db33f3b","system_id":"levelo_inurba_marseille","lat":43.2998,"lon":5.37196,"is_reserved":false,"is_disabled":false,"rental_uris":{"android":"levelo://app?vid=b66512e9-6177-4d4b-801b-0a909db33f3b","ios":"levelo://app?vid=b66512e9-6177-4d4b-801b-0a909db33f3b"},"vehicle_type_id":"4","last_reported":1744899015,"current_range_meters":12400,"station_id":"ce4bgr92rcd13ifvqc7g","pricing_plan_id":"cebpf4jnsgd1na2vs0mg"},{"bike_id":"686d5080-0b2b-462b-997f-95fdfd2e51b5","system_id":"levelo_inurba_marseille","lat":43.30155,"lon":5.38047,"is_reserved":false,"is_disabled":false,"rental_uris":{"android":"levelo://app?vid=686d5080-0b2b-462b-997f-95fdfd2e51b5","ios":"levelo://app?vid=686d5080-0b2b-462b-997f-95fdfd2e51b5"},"vehicle_type_id":"4","last_reported":1744899015,"current_range_meters":12800,"station_id":"ce4bgjp2rcd13ifvqbh0","pricing_plan_id":"cebpf4jnsgd1na2vs0mg"},{"bike_id":"2e3d1586-39b9-4f2e-a808-4f2fbc6116b5","system_id":"levelo_inurba_marseille","lat":43.28413,"lon":5.37512,"is_reserved":false,"is_disabled":false,"rental_uris":{"android":"levelo://app?vid=2e3d1586-39b9-4f2e-a808-4f2fbc6116b5","ios":"levelo://app?vid=2e3d1586-39b9-4f2e-a808-4f2fbc6116b5"},"vehicle_type_id":"4","last_reported":1744899015,"current_range_meters":12800,"station_id":"ce4bh412rcd13ifvqds0","pricing_plan_id":"cebpf4jnsgd1na2vs0mg"},{"bike_id":"0b7b9afc-b2db-43f5-aeb8-7a1248a5408e","system_id":"levelo_inurba_marseille","lat":43.31277,"lon":5.37762,"is_reserved":false,"is_disabled":false,"rental_uris":{"android":"levelo://app?vid=0b7b9afc-b2db-43f5-aeb8-7a1248a5408e","ios":"levelo://app?vid=0b7b9afc-b2db-43f5-aeb8-7a1248a5408e"},"vehicle_type_id":"4","last_reported":1744899015,"current_range_meters":12800,"station_id":"","pricing_plan_id":"cebpf4jnsgd1na2vs0mg"},{"bike_id":"9ea701f4-6eb4-4e83-9666-c252f37d15ce","system_id":"levelo_inurba_marseille","lat":43.27809,"lon":5.40713,"is_reserved":false,"is_disabled":false,"rental_uris":{"android":"levelo://app?vid=9ea701f4-6eb4-4e83-9666-c252f37d15ce","ios":"levelo://app?vid=9ea701f4-6eb4-4e83-9666-c252f37d15ce"},"vehicle_type_id":"4","last_reported":1744899015,"current_range_meters":13600,"station_id":"ce4bhnh2rcd13ifvqgtg","pricing_plan_id":"cebpf4jnsgd1na2vs0mg"},{"bike_id":"ec8c9ac7-1e95-4171-97f3-226ce1e3c951","system_id":"levelo_inurba_marseille","lat":43.32093,"lon":5.36803,"is_reserved":false,"is_disabled":false,"rental_uris":{"android":"levelo://app?vid=ec8c9ac7-1e95-4171-97f3-226ce1e3c951","ios":"levelo://app?vid=ec8c9ac7-1e95-4171-97f3-226ce1e3c951"},"vehicle_type_id":"4","last_reported":1744899015,"current_range_meters":13600,"station_id":"ce4bhrh2rcd13ifvqhug","pricing_plan_id":"cebpf4jnsgd1na2vs0mg"},{"bike_id":"03142180-fa2d-4347-9cc5-7d10404eacf5","system_id":"levelo_inurba_marseille","lat":43.27834,"lon":5.39201,"is_reserved":false,"is_disabled":false,"rental_uris":{"android":"levelo://app?vid=03142180-fa2d-4347-9cc5-7d10404eacf5","ios":"levelo://app?vid=03142180-fa2d-4347-9cc5-7d10404eacf5"},"vehicle_type_id":"4","last_reported":1744899015,"current_range_meters":14800,"station_id":"ce4bhjp2rcd13ifvqga0","pricing_plan_id":"cebpf4jnsgd1na2vs0mg"},{"bike_id":"5a97eaa9-8d77-4756-80c3-9be08e1fd099","system_id":"levelo_inurba_marseille","lat":43.29982,"lon":5.38491,"is_reserved":false,"is_disabled":false,"rental_uris":{"android":"levelo://app?vid=5a97eaa9-8d77-4756-80c3-9be08e1fd099","ios":"levelo://app?vid=5a97eaa9-8d77-4756-80c3-9be08e1fd099"},"vehicle_type_id":"4","last_reported":1744899015,"current_range_meters":13600,"station_id":"ce4bgj92rcd13ifvqbd0","pricing_plan_id":"cebpf4jnsgd1na2vs0mg"},{"bike_id":"8d2576da-4d4d-4433-a3d2-79b01ce8ad76","system_id":"levelo_inurba_marseille","lat":43.29873,"lon":5.39725,"is_reserved":false,"is_disabled":false,"rental_uris":{"android":"levelo://app?vid=8d2576da-4d4d-4433-a3d2-79b01ce8ad76","ios":"levelo://app?vid=8d2576da-4d4d-4433-a3d2-79b01ce8ad76"},"vehicle_type_id":"4","last_reported":1744899015,"current_range_meters":13600,"station_id":"ce4bh0h2rcd13ifvqd50","pricing_plan_id":"cebpf4jnsgd1na2vs0mg"},{"bike_id":"6d7e1211-cf92-4821-8453-1fcbefd4317c","system_id":"levelo_inurba_marseille","lat":43.30436,"lon":5.39754,"is_reserved":false,"is_disabled":false,"rental_uris":{"android":"levelo://app?vid=6d7e1211-cf92-4821-8453-1fcbefd4317c","ios":"levelo://app?vid=6d7e1211-cf92-4821-8453-1fcbefd4317c"},"vehicle_type_id":"4","last_reported":1744899015,"current_range_meters":13600,"station_id":"ce4bh092rcd13ifvqd20","pricing_plan_id":"cebpf4jnsgd1na2vs0mg"},{"bike_id":"ffa64ee9-a7ca-4183-a012-534ec11a6645","system_id":"levelo_inurba_marseille","lat":43.3023,"lon":5.37781,"is_reserved":false,"is_disabled":false,"rental_uris":{"android":"levelo://app?vid=ffa64ee9-a7ca-4183-a012-534ec11a6645","ios":"levelo://app?vid=ffa64ee9-a7ca-4183-a012-534ec11a6645"},"vehicle_type_id":"4","last_reported":1744899015,"current_range_meters":14000,"station_id":"","pricing_plan_id":"cebpf4jnsgd1na2vs0mg"},{"bike_id":"173d39b4-7a97-4693-9385-db8bda0fe199","system_id":"levelo_inurba_marseille","lat":43.21753,"lon":5.34598,"is_reserved":false,"is_disabled":false,"rental_uris":{"android":"levelo://app?vid=173d39b4-7a97-4693-9385-db8bda0fe199","ios":"levelo://app?vid=173d39b4-7a97-4693-9385-db8bda0fe199"},"vehicle_type_id":"4","last_reported":1744899015,"current_range_meters":14400,"station_id":"st_cvj6r9ubvosntc0bgbag","pricing_plan_id":"cebpf4jnsgd1na2vs0mg"},{"bike_id":"30cd24fd-39aa-47c9-af49-994524e71ef5","system_id":"levelo_inurba_marseille","lat":43.24658,"lon":5.38902,"is_reserved":false,"is_disabled":false,"rental_uris":{"android":"levelo://app?vid=30cd24fd-39aa-47c9-af49-994524e71ef5","ios":"levelo://app?vid=30cd24fd-39aa-47c9-af49-994524e71ef5"},"vehicle_type_id":"4","last_reported":1744899015,"current_range_meters":14400,"station_id":"ce4bhg12rcd13ifvqf60","pricing_plan_id":"cebpf4jnsgd1na2vs0mg"},{"bike_id":"a1f548cc-681f-4b4b-98e7-c3edbb2aca21","system_id":"levelo_inurba_marseille","lat":43.2985,"lon":5.36272,"is_reserved":false,"is_disabled":false,"rental_uris":{"android":"levelo://app?vid=a1f548cc-681f-4b4b-98e7-c3edbb2aca21","ios":"levelo://app?vid=a1f548cc-681f-4b4b-98e7-c3edbb2aca21"},"vehicle_type_id":"4","last_reported":1744899015,"current_range_meters":14400,"station_id":"ce4bgpp2rcd13ifvqc3g","pricing_plan_id":"cebpf4jnsgd1na2vs0mg"},{"bike_id":"4556749b-5e36-402a-a02b-7ad040f2809d","system_id":"levelo_inurba_marseille","lat":43.28417,"lon":5.3499,"is_reserved":false,"is_disabled":false,"rental_uris":{"android":"levelo://app?vid=4556749b-5e36-402a-a02b-7ad040f2809d","ios":"levelo://app?vid=4556749b-5e36-402a-a02b-7ad040f2809d"},"vehicle_type_id":"4","last_reported":1744899015,"current_range_meters":14400,"station_id":"ce4bhbh2rcd13ifvqepg","pricing_plan_id":"cebpf4jnsgd1na2vs0mg"},{"bike_id":"826a96a7-f3c4-4546-8927-07babefd37fc","system_id":"levelo_inurba_marseille","lat":43.30298,"lon":5.37691,"is_reserved":false,"is_disabled":false,"rental_uris":{"android":"levelo://app?vid=826a96a7-f3c4-4546-8927-07babefd37fc","ios":"levelo://app?vid=826a96a7-f3c4-4546-8927-07babefd37fc"},"vehicle_type_id":"4","last_reported":1744899015,"current_range_meters":14800,"station_id":"ce4bguh2rcd13ifvqcj0","pricing_plan_id":"cebpf4jnsgd1na2vs0mg"},{"bike_id":"4185ed73-b8ae-4716-a861-6569e582e213","system_id":"levelo_inurba_marseille","lat":43.29004,"lon":5.35609,"is_reserved":false,"is_disabled":false,"rental_uris":{"android":"levelo://app?vid=4185ed73-b8ae-4716-a861-6569e582e213","ios":"levelo://app?vid=4185ed73-b8ae-4716-a861-6569e582e213"},"vehicle_type_id":"4","last_reported":1744899015,"current_range_meters":14800,"station_id":"ce4bhb92rcd13ifvqen0","pricing_plan_id":"cebpf4jnsgd1na2vs0mg"},{"bike_id":"3af48173-ba90-4f90-a09a-afe24b29a50c","system_id":"levelo_inurba_marseille","lat":43.24175,"lon":5.39731,"is_reserved":false,"is_disabled":false,"rental_uris":{"android":"levelo://app?vid=3af48173-ba90-4f90-a09a-afe24b29a50c","ios":"levelo://app?vid=3af48173-ba90-4f90-a09a-afe24b29a50c"},"vehicle_type_id":"4","last_reported":1744899015,"current_range_meters":14800,"station_id":"ce4bhn12rcd13ifvqgpg","pricing_plan_id":"cebpf4jnsgd1na2vs0mg"},{"bike_id":"0291b7a7-5f86-48ec-8437-eba04e7bafe8","system_id":"levelo_inurba_marseille","lat":43.32399,"lon":5.36718,"is_reserved":false,"is_disabled":false,"rental_uris":{"android":"levelo://app?vid=0291b7a7-5f86-48ec-8437-eba04e7bafe8","ios":"levelo://app?vid=0291b7a7-5f86-48ec-8437-eba04e7bafe8"},"vehicle_type_id":"4","last_reported":1744899015,"current_range_meters":14800,"station_id":"ce4bhsh2rcd13ifvqi2g","pricing_plan_id":"cebpf4jnsgd1na2vs0mg"},{"bike_id":"4f5949cd-aa32-4e2a-8f94-d009bdd8c8cd","system_id":"levelo_inurba_marseille","lat":43.30389,"lon":5.42502,"is_reserved":false,"is_disabled":false,"rental_uris":{"android":"levelo://app?vid=4f5949cd-aa32-4e2a-8f94-d009bdd8c8cd","ios":"levelo://app?vid=4f5949cd-aa32-4e2a-8f94-d009bdd8c8cd"},"vehicle_type_id":"4","last_reported":1744899015,"current_range_meters":14800,"station_id":"ce4bhoh2rcd13ifvqh6g","pricing_plan_id":"cebpf4jnsgd1na2vs0mg"},{"bike_id":"bbc466bf-df91-4836-af1d-5af6d158dd9f","system_id":"levelo_inurba_marseille","lat":43.30433,"lon":5.38878,"is_reserved":false,"is_disabled":false,"rental_uris":{"android":"levelo://app?vid=bbc466bf-df91-4836-af1d-5af6d158dd9f","ios":"levelo://app?vid=bbc466bf-df91-4836-af1d-5af6d158dd9f"},"vehicle_type_id":"4","last_reported":1744899015,"current_range_meters":14800,"station_id":"ce4bgk12rcd13ifvqbi0","pricing_plan_id":"cebpf4jnsgd1na2vs0mg"},{"bike_id":"9690ce0c-2b16-4e77-8667-cd440ef274c8","system_id":"levelo_inurba_marseille","lat":43.32546,"lon":5.41438,"is_reserved":false,"is_disabled":false,"rental_uris":{"android":"levelo://app?vid=9690ce0c-2b16-4e77-8667-cd440ef274c8","ios":"levelo://app?vid=9690ce0c-2b16-4e77-8667-cd440ef274c8"},"vehicle_type_id":"4","last_reported":1744899015,"current_range_meters":14800,"station_id":"ce4bhq12rcd13ifvqhhg","pricing_plan_id":"cebpf4jnsgd1na2vs0mg"},{"bike_id":"226b764c-dc09-4258-87bc-7aea4c8af69d","system_id":"levelo_inurba_marseille","lat":43.30224,"lon":5.39472,"is_reserved":false,"is_disabled":false,"rental_uris":{"android":"levelo://app?vid=226b764c-dc09-4258-87bc-7aea4c8af69d","ios":"levelo://app?vid=226b764c-dc09-4258-87bc-7aea4c8af69d"},"vehicle_type_id":"4","last_reported":1744899015,"current_range_meters":14800,"station_id":"ce4bh0p2rcd13ifvqd70","pricing_plan_id":"cebpf4jnsgd1na2vs0mg"},{"bike_id":"c6df4557-9f73-4116-9e46-36186b05b4e0","system_id":"levelo_inurba_marseille","lat":43.28148,"lon":5.42626,"is_reserved":false,"is_disabled":false,"rental_uris":{"android":"levelo://app?vid=c6df4557-9f73-4116-9e46-36186b05b4e0","ios":"levelo://app?vid=c6df4557-9f73-4116-9e46-36186b05b4e0"},"vehicle_type_id":"4","last_reported":1744899015,"current_range_meters":15200,"station_id":"ce4bhnh2rcd13ifvqgug","pricing_plan_id":"cebpf4jnsgd1na2vs0mg"},{"bike_id":"cc7ac33d-b61e-49f5-ad83-554a3d040679","system_id":"levelo_inurba_marseille","lat":43.304726,"lon":5.379161,"is_reserved":false,"is_disabled":false,"rental_uris":{"android":"levelo://app?vid=cc7ac33d-b61e-49f5-ad83-554a3d040679","ios":"levelo://app?vid=cc7ac33d-b61e-49f5-ad83-554a3d040679"},"vehicle_type_id":"4","last_reported":1744899015,"current_range_meters":15200,"station_id":"ce4bgup2rcd13ifvqcn0","pricing_plan_id":"cebpf4jnsgd1na2vs0mg"},{"bike_id":"d750596a-6ac6-4755-84cc-45acd4464f3d","system_id":"levelo_inurba_marseille","lat":43.24395,"lon":5.37062,"is_reserved":false,"is_disabled":false,"rental_uris":{"android":"levelo://app?vid=d750596a-6ac6-4755-84cc-45acd4464f3d","ios":"levelo://app?vid=d750596a-6ac6-4755-84cc-45acd4464f3d"},"vehicle_type_id":"4","last_reported":1744899015,"current_range_meters":16000,"station_id":"ce4bhhh2rcd13ifvqfk0","pricing_plan_id":"cebpf4jnsgd1na2vs0mg"},{"bike_id":"e520c632-b557-4e0a-b3ab-92ef7c633752","system_id":"levelo_inurba_marseille","lat":43.29631,"lon":5.37727,"is_reserved":false,"is_disabled":false,"rental_uris":{"android":"levelo://app?vid=e520c632-b557-4e0a-b3ab-92ef7c633752","ios":"levelo://app?vid=e520c632-b557-4e0a-b3ab-92ef7c633752"},"vehicle_type_id":"4","last_reported":1744899015,"current_range_meters":16000,"station_id":"ce4bgi92rcd13ifvqb90","pricing_plan_id":"cebpf4jnsgd1na2vs0mg"},{"bike_id":"41fb0398-f2fe-4abb-ae37-a38f47615ea9","system_id":"levelo_inurba_marseille","lat":43.32361,"lon":5.36767,"is_reserved":false,"is_disabled":false,"rental_uris":{"android":"levelo://app?vid=41fb0398-f2fe-4abb-ae37-a38f47615ea9","ios":"levelo://app?vid=41fb0398-f2fe-4abb-ae37-a38f47615ea9"},"vehicle_type_id":"4","last_reported":1744899015,"current_range_meters":16000,"station_id":"ce4bhsh2rcd13ifvqi2g","pricing_plan_id":"cebpf4jnsgd1na2vs0mg"},{"bike_id":"e14c265e-eca3-4791-a3e7-f534121ae166","system_id":"levelo_inurba_marseille","lat":43.22921,"lon":5.35394,"is_reserved":false,"is_disabled":false,"rental_uris":{"android":"levelo://app?vid=e14c265e-eca3-4791-a3e7-f534121ae166","ios":"levelo://app?vid=e14c265e-eca3-4791-a3e7-f534121ae166"},"vehicle_type_id":"4","last_reported":1744899015,"current_range_meters":16000,"station_id":"cpo3532slgdg3j2ikp40","pricing_plan_id":"cebpf4jnsgd1na2vs0mg"},{"bike_id":"84a6f013-5eeb-4839-a237-e60aa09a1ad9","system_id":"levelo_inurba_marseille","lat":43.29549,"lon":5.37503,"is_reserved":false,"is_disabled":false,"rental_uris":{"android":"levelo://app?vid=84a6f013-5eeb-4839-a237-e60aa09a1ad9","ios":"levelo://app?vid=84a6f013-5eeb-4839-a237-e60aa09a1ad9"},"vehicle_type_id":"4","last_reported":1744899015,"current_range_meters":16000,"station_id":"ce4bgkp2rcd13ifvqbmg","pricing_plan_id":"cebpf4jnsgd1na2vs0mg"},{"bike_id":"386b66dd-54dd-4f23-9399-5feab1b083fa","system_id":"levelo_inurba_marseille","lat":43.29675,"lon":5.37833,"is_reserved":false,"is_disabled":false,"rental_uris":{"android":"levelo://app?vid=386b66dd-54dd-4f23-9399-5feab1b083fa","ios":"levelo://app?vid=386b66dd-54dd-4f23-9399-5feab1b083fa"},"vehicle_type_id":"4","last_reported":1744899015,"current_range_meters":16000,"station_id":"","pricing_plan_id":"cebpf4jnsgd1na2vs0mg"},{"bike_id":"de07f061-fea0-412d-8750-24f4054e4094","system_id":"levelo_inurba_marseille","lat":43.2917,"lon":5.37164,"is_reserved":false,"is_disabled":false,"rental_uris":{"android":"levelo://app?vid=de07f061-fea0-412d-8750-24f4054e4094","ios":"levelo://app?vid=de07f061-fea0-412d-8750-24f4054e4094"},"vehicle_type_id":"4","last_reported":1744899015,"current_range_meters":16000,"station_id":"ce4bha92rcd13ifvqeh0","pricing_plan_id":"cebpf4jnsgd1na2vs0mg"},{"bike_id":"3730e885-c094-44f8-a47f-397784e6cce8","system_id":"levelo_inurba_marseille","lat":43.29784,"lon":5.39351,"is_reserved":false,"is_disabled":false,"rental_uris":{"android":"levelo://app?vid=3730e885-c094-44f8-a47f-397784e6cce8","ios":"levelo://app?vid=3730e885-c094-44f8-a47f-397784e6cce8"},"vehicle_type_id":"4","last_reported":1744899015,"current_range_meters":16400,"station_id":"chh1huq6cuj3fo74tm60","pricing_plan_id":"cebpf4jnsgd1na2vs0mg"},{"bike_id":"aae1e5a7-8f8b-462e-a6db-878b1252f2fe","system_id":"levelo_inurba_marseille","lat":43.30461,"lon":5.38878,"is_reserved":false,"is_disabled":false,"rental_uris":{"android":"levelo://app?vid=aae1e5a7-8f8b-462e-a6db-878b1252f2fe","ios":"levelo://app?vid=aae1e5a7-8f8b-462e-a6db-878b1252f2fe"},"vehicle_type_id":"4","last_reported":1744899015,"current_range_meters":16400,"station_id":"ce4bgk12rcd13ifvqbi0","pricing_plan_id":"cebpf4jnsgd1na2vs0mg"},{"bike_id":"64b81355-bd6e-4d3d-819e-09776b604527","system_id":"levelo_inurba_marseille","lat":43.297556,"lon":5.385539,"is_reserved":false,"is_disabled":false,"rental_uris":{"android":"levelo://app?vid=64b81355-bd6e-4d3d-819e-09776b604527","ios":"levelo://app?vid=64b81355-bd6e-4d3d-819e-09776b604527"},"vehicle_type_id":"4","last_reported":1744899015,"current_range_meters":17600,"station_id":"ce4bgih2rcd13ifvqba0","pricing_plan_id":"cebpf4jnsgd1na2vs0mg"},{"bike_id":"e7dfa557-137e-44f8-86e4-b07f939d2c5e","system_id":"levelo_inurba_marseille","lat":43.305206,"lon":5.36699,"is_reserved":false,"is_disabled":false,"rental_uris":{"android":"levelo://app?vid=e7dfa557-137e-44f8-86e4-b07f939d2c5e","ios":"levelo://app?vid=e7dfa557-137e-44f8-86e4-b07f939d2c5e"},"vehicle_type_id":"4","last_reported":1744899015,"current_range_meters":16800,"station_id":"ce4bgrp2rcd13ifvqc9g","pricing_plan_id":"cebpf4jnsgd1na2vs0mg"},{"bike_id":"a6e39086-c337-43a5-ae0b-62f493b856a8","system_id":"levelo_inurba_marseille","lat":43.30434,"lon":5.38891,"is_reserved":false,"is_disabled":false,"rental_uris":{"android":"levelo://app?vid=a6e39086-c337-43a5-ae0b-62f493b856a8","ios":"levelo://app?vid=a6e39086-c337-43a5-ae0b-62f493b856a8"},"vehicle_type_id":"4","last_reported":1744899015,"current_range_meters":16800,"station_id":"ce4bgk12rcd13ifvqbi0","pricing_plan_id":"cebpf4jnsgd1na2vs0mg"},{"bike_id":"eb88ff69-4654-409d-9bd5-93738e3a7dcd","system_id":"levelo_inurba_marseille","lat":43.2926,"lon":5.37626,"is_reserved":false,"is_disabled":false,"rental_uris":{"android":"levelo://app?vid=eb88ff69-4654-409d-9bd5-93738e3a7dcd","ios":"levelo://app?vid=eb88ff69-4654-409d-9bd5-93738e3a7dcd"},"vehicle_type_id":"4","last_reported":1744899015,"current_range_meters":16800,"station_id":"ce4bgi12rcd13ifvqb80","pricing_plan_id":"cebpf4jnsgd1na2vs0mg"},{"bike_id":"784b8a32-926a-4e38-a53e-1c0be32395d5","system_id":"levelo_inurba_marseille","lat":43.28419,"lon":5.34989,"is_reserved":false,"is_disabled":false,"rental_uris":{"android":"levelo://app?vid=784b8a32-926a-4e38-a53e-1c0be32395d5","ios":"levelo://app?vid=784b8a32-926a-4e38-a53e-1c0be32395d5"},"vehicle_type_id":"4","last_reported":1744899015,"current_range_meters":17200,"station_id":"ce4bhbh2rcd13ifvqepg","pricing_plan_id":"cebpf4jnsgd1na2vs0mg"},{"bike_id":"a17920db-4b7e-474c-ab57-3b97ec496a14","system_id":"levelo_inurba_marseille","lat":43.24173,"lon":5.39732,"is_reserved":false,"is_disabled":false,"rental_uris":{"android":"levelo://app?vid=a17920db-4b7e-474c-ab57-3b97ec496a14","ios":"levelo://app?vid=a17920db-4b7e-474c-ab57-3b97ec496a14"},"vehicle_type_id":"4","last_reported":1744899015,"current_range_meters":17200,"station_id":"ce4bhn12rcd13ifvqgpg","pricing_plan_id":"cebpf4jnsgd1na2vs0mg"},{"bike_id":"28bcb2af-e1d4-4f31-9634-1a9aee5af87f","system_id":"levelo_inurba_marseille","lat":43.29799,"lon":5.37083,"is_reserved":false,"is_disabled":false,"rental_uris":{"android":"levelo://app?vid=28bcb2af-e1d4-4f31-9634-1a9aee5af87f","ios":"levelo://app?vid=28bcb2af-e1d4-4f31-9634-1a9aee5af87f"},"vehicle_type_id":"4","last_reported":1744899015,"current_range_meters":17200,"station_id":"ce4bgop2rcd13ifvqc1g","pricing_plan_id":"cebpf4jnsgd1na2vs0mg"},{"bike_id":"502eb57f-58c1-46b5-bbab-f82b11336169","system_id":"levelo_inurba_marseille","lat":43.30539,"lon":5.3655,"is_reserved":false,"is_disabled":false,"rental_uris":{"android":"levelo://app?vid=502eb57f-58c1-46b5-bbab-f82b11336169","ios":"levelo://app?vid=502eb57f-58c1-46b5-bbab-f82b11336169"},"vehicle_type_id":"4","last_reported":1744899015,"current_range_meters":17200,"station_id":"ce4bgs12rcd13ifvqcag","pricing_plan_id":"cebpf4jnsgd1na2vs0mg"},{"bike_id":"f28f6329-6f87-40a6-b35d-ae390c74597f","system_id":"levelo_inurba_marseille","lat":43.2512,"lon":5.40321,"is_reserved":false,"is_disabled":false,"rental_uris":{"android":"levelo://app?vid=f28f6329-6f87-40a6-b35d-ae390c74597f","ios":"levelo://app?vid=f28f6329-6f87-40a6-b35d-ae390c74597f"},"vehicle_type_id":"4","last_reported":1744899015,"current_range_meters":16800,"station_id":"ce4bhlh2rcd13ifvqgig","pricing_plan_id":"cebpf4jnsgd1na2vs0mg"},{"bike_id":"1ce2e4b6-92ac-4019-987f-f7e2d80b4e6b","system_id":"levelo_inurba_marseille","lat":43.27502,"lon":5.42452,"is_reserved":false,"is_disabled":false,"rental_uris":{"android":"levelo://app?vid=1ce2e4b6-92ac-4019-987f-f7e2d80b4e6b","ios":"levelo://app?vid=1ce2e4b6-92ac-4019-987f-f7e2d80b4e6b"},"vehicle_type_id":"4","last_reported":1744899015,"current_range_meters":17200,"station_id":"ce4bhn92rcd13ifvqgrg","pricing_plan_id":"cebpf4jnsgd1na2vs0mg"},{"bike_id":"73c5a53a-f6e9-4937-a8eb-cdda1711b60a","system_id":"levelo_inurba_marseille","lat":43.30121,"lon":5.39861,"is_reserved":false,"is_disabled":false,"rental_uris":{"android":"levelo://app?vid=73c5a53a-f6e9-4937-a8eb-cdda1711b60a","ios":"levelo://app?vid=73c5a53a-f6e9-4937-a8eb-cdda1711b60a"},"vehicle_type_id":"4","last_reported":1744899015,"current_range_meters":16800,"station_id":"ce4bh0h2rcd13ifvqd40","pricing_plan_id":"cebpf4jnsgd1na2vs0mg"},{"bike_id":"00b69e4a-ada5-49c7-bd4a-d4222f466720","system_id":"levelo_inurba_marseille","lat":43.27366,"lon":5.36254,"is_reserved":false,"is_disabled":false,"rental_uris":{"android":"levelo://app?vid=00b69e4a-ada5-49c7-bd4a-d4222f466720","ios":"levelo://app?vid=00b69e4a-ada5-49c7-bd4a-d4222f466720"},"vehicle_type_id":"4","last_reported":1744899015,"current_range_meters":17200,"station_id":"ce4bhbh2rcd13ifvqeo0","pricing_plan_id":"cebpf4jnsgd1na2vs0mg"},{"bike_id":"a0ddb0a5-f7f0-4281-aa27-9e82747cc573","system_id":"levelo_inurba_marseille","lat":43.33754,"lon":5.37491,"is_reserved":false,"is_disabled":false,"rental_uris":{"android":"levelo://app?vid=a0ddb0a5-f7f0-4281-aa27-9e82747cc573","ios":"levelo://app?vid=a0ddb0a5-f7f0-4281-aa27-9e82747cc573"},"vehicle_type_id":"4","last_reported":1744899015,"current_range_meters":17200,"station_id":"","pricing_plan_id":"cebpf4jnsgd1na2vs0mg"},{"bike_id":"135f0758-d03d-42f1-a2d6-49e93dc7a634","system_id":"levelo_inurba_marseille","lat":43.2984,"lon":5.36268,"is_reserved":false,"is_disabled":false,"rental_uris":{"android":"levelo://app?vid=135f0758-d03d-42f1-a2d6-49e93dc7a634","ios":"levelo://app?vid=135f0758-d03d-42f1-a2d6-49e93dc7a634"},"vehicle_type_id":"4","last_reported":1744899015,"current_range_meters":17600,"station_id":"ce4bgpp2rcd13ifvqc3g","pricing_plan_id":"cebpf4jnsgd1na2vs0mg"},{"bike_id":"bbb1c662-cc65-4c72-8489-de78d2f0f12f","system_id":"levelo_inurba_marseille","lat":43.23068,"lon":5.35487,"is_reserved":false,"is_disabled":false,"rental_uris":{"android":"levelo://app?vid=bbb1c662-cc65-4c72-8489-de78d2f0f12f","ios":"levelo://app?vid=bbb1c662-cc65-4c72-8489-de78d2f0f12f"},"vehicle_type_id":"4","last_reported":1744899015,"current_range_meters":17600,"station_id":"cpo3342slgdg3j2ifvpg","pricing_plan_id":"cebpf4jnsgd1na2vs0mg"},{"bike_id":"d0c8ddc6-7bef-4f2f-badc-f82cd3a01bc8","system_id":"levelo_inurba_marseille","lat":43.280432,"lon":5.36909,"is_reserved":false,"is_disabled":false,"rental_uris":{"android":"levelo://app?vid=d0c8ddc6-7bef-4f2f-badc-f82cd3a01bc8","ios":"levelo://app?vid=d0c8ddc6-7bef-4f2f-badc-f82cd3a01bc8"},"vehicle_type_id":"4","last_reported":1744899015,"current_range_meters":17600,"station_id":"ce4bha12rcd13ifvqef0","pricing_plan_id":"cebpf4jnsgd1na2vs0mg"},{"bike_id":"4db06d98-ef3f-4322-bb1a-56487e040895","system_id":"levelo_inurba_marseille","lat":43.24177,"lon":5.39733,"is_reserved":false,"is_disabled":false,"rental_uris":{"android":"levelo://app?vid=4db06d98-ef3f-4322-bb1a-56487e040895","ios":"levelo://app?vid=4db06d98-ef3f-4322-bb1a-56487e040895"},"vehicle_type_id":"4","last_reported":1744899015,"current_range_meters":17600,"station_id":"ce4bhn12rcd13ifvqgpg","pricing_plan_id":"cebpf4jnsgd1na2vs0mg"},{"bike_id":"51f32d2c-1879-464c-acba-93c57bc66ab6","system_id":"levelo_inurba_marseille","lat":43.29026,"lon":5.35913,"is_reserved":false,"is_disabled":true,"rental_uris":{"android":"levelo://app?vid=51f32d2c-1879-464c-acba-93c57bc66ab6","ios":"levelo://app?vid=51f32d2c-1879-464c-acba-93c57bc66ab6"},"vehicle_type_id":"4","last_reported":1744899015,"current_range_meters":17600,"station_id":"ce4bha92rcd13ifvqeg0","pricing_plan_id":"cebpf4jnsgd1na2vs0mg"},{"bike_id":"8105409d-e5da-4233-9e00-0e43b0f47dfa","system_id":"levelo_inurba_marseille","lat":43.323697,"lon":5.388904,"is_reserved":false,"is_disabled":false,"rental_uris":{"android":"levelo://app?vid=8105409d-e5da-4233-9e00-0e43b0f47dfa","ios":"levelo://app?vid=8105409d-e5da-4233-9e00-0e43b0f47dfa"},"vehicle_type_id":"4","last_reported":1744899015,"current_range_meters":17600,"station_id":"ce4bhqp2rcd13ifvqhog","pricing_plan_id":"cebpf4jnsgd1na2vs0mg"},{"bike_id":"e86f50e0-914d-4c94-b81c-73c8a5f0aa16","system_id":"levelo_inurba_marseille","lat":43.27342,"lon":5.39133,"is_reserved":false,"is_disabled":true,"rental_uris":{"android":"levelo://app?vid=e86f50e0-914d-4c94-b81c-73c8a5f0aa16","ios":"levelo://app?vid=e86f50e0-914d-4c94-b81c-73c8a5f0aa16"},"vehicle_type_id":"4","last_reported":1744899015,"current_range_meters":17200,"station_id":"ce4bhgp2rcd13ifvqfe0","pricing_plan_id":"cebpf4jnsgd1na2vs0mg"},{"bike_id":"72252ee0-6b29-4ecb-b919-233f7db6d4bd","system_id":"levelo_inurba_marseille","lat":43.21764,"lon":5.34588,"is_reserved":false,"is_disabled":false,"rental_uris":{"android":"levelo://app?vid=72252ee0-6b29-4ecb-b919-233f7db6d4bd","ios":"levelo://app?vid=72252ee0-6b29-4ecb-b919-233f7db6d4bd"},"vehicle_type_id":"4","last_reported":1744899015,"current_range_meters":17600,"station_id":"st_cvj6r9ubvosntc0bgbag","pricing_plan_id":"cebpf4jnsgd1na2vs0mg"},{"bike_id":"0633cfd1-9359-4413-8339-16f44cbfa593","system_id":"levelo_inurba_marseille","lat":43.29113,"lon":5.38145,"is_reserved":false,"is_disabled":false,"rental_uris":{"android":"levelo://app?vid=0633cfd1-9359-4413-8339-16f44cbfa593","ios":"levelo://app?vid=0633cfd1-9359-4413-8339-16f44cbfa593"},"vehicle_type_id":"4","last_reported":1744899015,"current_range_meters":17600,"station_id":"ce4bh512rcd13ifvqe2g","pricing_plan_id":"cebpf4jnsgd1na2vs0mg"},{"bike_id":"a216723c-9181-4613-be28-e02b384bf03d","system_id":"levelo_inurba_marseille","lat":43.306,"lon":5.37234,"is_reserved":false,"is_disabled":false,"rental_uris":{"android":"levelo://app?vid=a216723c-9181-4613-be28-e02b384bf03d","ios":"levelo://app?vid=a216723c-9181-4613-be28-e02b384bf03d"},"vehicle_type_id":"4","last_reported":1744899015,"current_range_meters":17600,"station_id":"ce4bgqh2rcd13ifvqc4g","pricing_plan_id":"cebpf4jnsgd1na2vs0mg"},{"bike_id":"8a8d7c87-f05b-4b03-8844-9ab0d00cca54","system_id":"levelo_inurba_marseille","lat":43.28945,"lon":5.36404,"is_reserved":false,"is_disabled":false,"rental_uris":{"android":"levelo://app?vid=8a8d7c87-f05b-4b03-8844-9ab0d00cca54","ios":"levelo://app?vid=8a8d7c87-f05b-4b03-8844-9ab0d00cca54"},"vehicle_type_id":"4","last_reported":1744899015,"current_range_meters":18000,"station_id":"ce4bhc92rcd13ifvqetg","pricing_plan_id":"cebpf4jnsgd1na2vs0mg"},{"bike_id":"7ed91d22-3d5b-4254-83bf-64eb2a7d5481","system_id":"levelo_inurba_marseille","lat":43.22502,"lon":5.34794,"is_reserved":false,"is_disabled":false,"rental_uris":{"android":"levelo://app?vid=7ed91d22-3d5b-4254-83bf-64eb2a7d5481","ios":"levelo://app?vid=7ed91d22-3d5b-4254-83bf-64eb2a7d5481"},"vehicle_type_id":"4","last_reported":1744899015,"current_range_meters":18000,"station_id":"","pricing_plan_id":"cebpf4jnsgd1na2vs0mg"},{"bike_id":"90f392af-ee1a-4609-9899-bc6f017a9ba6","system_id":"levelo_inurba_marseille","lat":43.280077,"lon":5.40002,"is_reserved":false,"is_disabled":false,"rental_uris":{"android":"levelo://app?vid=90f392af-ee1a-4609-9899-bc6f017a9ba6","ios":"levelo://app?vid=90f392af-ee1a-4609-9899-bc6f017a9ba6"},"vehicle_type_id":"4","last_reported":1744899015,"current_range_meters":17600,"station_id":"ce4bho92rcd13ifvqh4g","pricing_plan_id":"cebpf4jnsgd1na2vs0mg"},{"bike_id":"2884605a-a4c9-4234-b7c9-7f9297743ed8","system_id":"levelo_inurba_marseille","lat":43.25863,"lon":5.39908,"is_reserved":false,"is_disabled":false,"rental_uris":{"android":"levelo://app?vid=2884605a-a4c9-4234-b7c9-7f9297743ed8","ios":"levelo://app?vid=2884605a-a4c9-4234-b7c9-7f9297743ed8"},"vehicle_type_id":"4","last_reported":1744899015,"current_range_meters":18000,"station_id":"ce4bhl92rcd13ifvqghg","pricing_plan_id":"cebpf4jnsgd1na2vs0mg"},{"bike_id":"4cdeb94d-6b8c-4d5b-a59f-49def5ff14db","system_id":"levelo_inurba_marseille","lat":43.27495,"lon":5.42453,"is_reserved":false,"is_disabled":false,"rental_uris":{"android":"levelo://app?vid=4cdeb94d-6b8c-4d5b-a59f-49def5ff14db","ios":"levelo://app?vid=4cdeb94d-6b8c-4d5b-a59f-49def5ff14db"},"vehicle_type_id":"4","last_reported":1744899015,"current_range_meters":18000,"station_id":"ce4bhn92rcd13ifvqgrg","pricing_plan_id":"cebpf4jnsgd1na2vs0mg"},{"bike_id":"36e34577-052a-4e3f-88f0-24973e6ae84e","system_id":"levelo_inurba_marseille","lat":43.30155,"lon":5.38085,"is_reserved":false,"is_disabled":false,"rental_uris":{"android":"levelo://app?vid=36e34577-052a-4e3f-88f0-24973e6ae84e","ios":"levelo://app?vid=36e34577-052a-4e3f-88f0-24973e6ae84e"},"vehicle_type_id":"4","last_reported":1744899015,"current_range_meters":18000,"station_id":"ce4bgjp2rcd13ifvqbh0","pricing_plan_id":"cebpf4jnsgd1na2vs0mg"},{"bike_id":"a77bdd15-388e-4dfa-ae84-9a1f1930181f","system_id":"levelo_inurba_marseille","lat":43.29245,"lon":5.37609,"is_reserved":false,"is_disabled":false,"rental_uris":{"android":"levelo://app?vid=a77bdd15-388e-4dfa-ae84-9a1f1930181f","ios":"levelo://app?vid=a77bdd15-388e-4dfa-ae84-9a1f1930181f"},"vehicle_type_id":"4","last_reported":1744899015,"current_range_meters":18000,"station_id":"ce4bgi12rcd13ifvqb80","pricing_plan_id":"cebpf4jnsgd1na2vs0mg"},{"bike_id":"e5d8bda5-a8c3-47f4-859d-27cac7d00e4c","system_id":"levelo_inurba_marseille","lat":43.30152,"lon":5.38093,"is_reserved":false,"is_disabled":false,"rental_uris":{"android":"levelo://app?vid=e5d8bda5-a8c3-47f4-859d-27cac7d00e4c","ios":"levelo://app?vid=e5d8bda5-a8c3-47f4-859d-27cac7d00e4c"},"vehicle_type_id":"4","last_reported":1744899015,"current_range_meters":18800,"station_id":"ce4bgjp2rcd13ifvqbh0","pricing_plan_id":"cebpf4jnsgd1na2vs0mg"},{"bike_id":"2052dc63-8ee1-4b61-9715-d5f11bb2c19a","system_id":"levelo_inurba_marseille","lat":43.26485,"lon":5.39556,"is_reserved":false,"is_disabled":false,"rental_uris":{"android":"levelo://app?vid=2052dc63-8ee1-4b61-9715-d5f11bb2c19a","ios":"levelo://app?vid=2052dc63-8ee1-4b61-9715-d5f11bb2c19a"},"vehicle_type_id":"4","last_reported":1744899015,"current_range_meters":18800,"station_id":"ce4bhi12rcd13ifvqfq0","pricing_plan_id":"cebpf4jnsgd1na2vs0mg"},{"bike_id":"c0ee038b-e766-4150-bc15-bfd92f633a0e","system_id":"levelo_inurba_marseille","lat":43.21756,"lon":5.34595,"is_reserved":false,"is_disabled":false,"rental_uris":{"android":"levelo://app?vid=c0ee038b-e766-4150-bc15-bfd92f633a0e","ios":"levelo://app?vid=c0ee038b-e766-4150-bc15-bfd92f633a0e"},"vehicle_type_id":"4","last_reported":1744899015,"current_range_meters":18800,"station_id":"st_cvj6r9ubvosntc0bgbag","pricing_plan_id":"cebpf4jnsgd1na2vs0mg"},{"bike_id":"841c4e61-5c25-4e94-b3c6-fd624426b29c","system_id":"levelo_inurba_marseille","lat":43.30278,"lon":5.37711,"is_reserved":false,"is_disabled":false,"rental_uris":{"android":"levelo://app?vid=841c4e61-5c25-4e94-b3c6-fd624426b29c","ios":"levelo://app?vid=841c4e61-5c25-4e94-b3c6-fd624426b29c"},"vehicle_type_id":"4","last_reported":1744899015,"current_range_meters":18800,"station_id":"ce4bguh2rcd13ifvqcj0","pricing_plan_id":"cebpf4jnsgd1na2vs0mg"},{"bike_id":"ef6e9c6f-8f69-4fcf-9727-b556a001e5bc","system_id":"levelo_inurba_marseille","lat":43.29548,"lon":5.42275,"is_reserved":false,"is_disabled":false,"rental_uris":{"android":"levelo://app?vid=ef6e9c6f-8f69-4fcf-9727-b556a001e5bc","ios":"levelo://app?vid=ef6e9c6f-8f69-4fcf-9727-b556a001e5bc"},"vehicle_type_id":"4","last_reported":1744899015,"current_range_meters":18800,"station_id":"ce4bhph2rcd13ifvqhdg","pricing_plan_id":"cebpf4jnsgd1na2vs0mg"},{"bike_id":"332d50ef-0349-465a-a3f8-a14d47a27c91","system_id":"levelo_inurba_marseille","lat":43.3055,"lon":5.36485,"is_reserved":false,"is_disabled":false,"rental_uris":{"android":"levelo://app?vid=332d50ef-0349-465a-a3f8-a14d47a27c91","ios":"levelo://app?vid=332d50ef-0349-465a-a3f8-a14d47a27c91"},"vehicle_type_id":"4","last_reported":1744899015,"current_range_meters":18800,"station_id":"ce4bgs12rcd13ifvqcag","pricing_plan_id":"cebpf4jnsgd1na2vs0mg"},{"bike_id":"7eb8853e-3665-40f5-8308-1299f0674652","system_id":"levelo_inurba_marseille","lat":43.30385,"lon":5.42499,"is_reserved":false,"is_disabled":false,"rental_uris":{"android":"levelo://app?vid=7eb8853e-3665-40f5-8308-1299f0674652","ios":"levelo://app?vid=7eb8853e-3665-40f5-8308-1299f0674652"},"vehicle_type_id":"4","last_reported":1744899015,"current_range_meters":18800,"station_id":"ce4bhoh2rcd13ifvqh6g","pricing_plan_id":"cebpf4jnsgd1na2vs0mg"},{"bike_id":"fdf102c3-d7b9-4c4a-84da-0254278b1adc","system_id":"levelo_inurba_marseille","lat":43.30148,"lon":5.37411,"is_reserved":false,"is_disabled":false,"rental_uris":{"android":"levelo://app?vid=fdf102c3-d7b9-4c4a-84da-0254278b1adc","ios":"levelo://app?vid=fdf102c3-d7b9-4c4a-84da-0254278b1adc"},"vehicle_type_id":"4","last_reported":1744899015,"current_range_meters":18800,"station_id":"ce4bgs92rcd13ifvqcc0","pricing_plan_id":"cebpf4jnsgd1na2vs0mg"},{"bike_id":"934a8fc0-98f8-4aaf-a145-d485dee937c7","system_id":"levelo_inurba_marseille","lat":43.3236,"lon":5.36761,"is_reserved":false,"is_disabled":false,"rental_uris":{"android":"levelo://app?vid=934a8fc0-98f8-4aaf-a145-d485dee937c7","ios":"levelo://app?vid=934a8fc0-98f8-4aaf-a145-d485dee937c7"},"vehicle_type_id":"4","last_reported":1744899015,"current_range_meters":18800,"station_id":"ce4bhsh2rcd13ifvqi2g","pricing_plan_id":"cebpf4jnsgd1na2vs0mg"},{"bike_id":"68342d9f-f0b6-47e7-b690-b27078e67a77","system_id":"levelo_inurba_marseille","lat":43.24159,"lon":5.36383,"is_reserved":false,"is_disabled":false,"rental_uris":{"android":"levelo://app?vid=68342d9f-f0b6-47e7-b690-b27078e67a77","ios":"levelo://app?vid=68342d9f-f0b6-47e7-b690-b27078e67a77"},"vehicle_type_id":"4","last_reported":1744899015,"current_range_meters":19200,"station_id":"cpo36qri1sfpv3e86is0","pricing_plan_id":"cebpf4jnsgd1na2vs0mg"},{"bike_id":"f332932e-b174-483a-8274-751626cfe4bb","system_id":"levelo_inurba_marseille","lat":43.27996,"lon":5.40024,"is_reserved":false,"is_disabled":false,"rental_uris":{"android":"levelo://app?vid=f332932e-b174-483a-8274-751626cfe4bb","ios":"levelo://app?vid=f332932e-b174-483a-8274-751626cfe4bb"},"vehicle_type_id":"4","last_reported":1744899015,"current_range_meters":19200,"station_id":"ce4bho92rcd13ifvqh4g","pricing_plan_id":"cebpf4jnsgd1na2vs0mg"},{"bike_id":"ca2e1c0e-b4f2-46ea-9bc6-4832bf223e90","system_id":"levelo_inurba_marseille","lat":43.25815,"lon":5.39424,"is_reserved":false,"is_disabled":false,"rental_uris":{"android":"levelo://app?vid=ca2e1c0e-b4f2-46ea-9bc6-4832bf223e90","ios":"levelo://app?vid=ca2e1c0e-b4f2-46ea-9bc6-4832bf223e90"},"vehicle_type_id":"4","last_reported":1744899015,"current_range_meters":19200,"station_id":"ce4bhip2rcd13ifvqft0","pricing_plan_id":"cebpf4jnsgd1na2vs0mg"},{"bike_id":"789c3822-56ca-4769-bcd4-8845bdea2fda","system_id":"levelo_inurba_marseille","lat":43.24164,"lon":5.36393,"is_reserved":false,"is_disabled":false,"rental_uris":{"android":"levelo://app?vid=789c3822-56ca-4769-bcd4-8845bdea2fda","ios":"levelo://app?vid=789c3822-56ca-4769-bcd4-8845bdea2fda"},"vehicle_type_id":"4","last_reported":1744899015,"current_range_meters":19200,"station_id":"cpo36qri1sfpv3e86is0","pricing_plan_id":"cebpf4jnsgd1na2vs0mg"},{"bike_id":"5807070e-7591-4608-b97d-4da390ac25a7","system_id":"levelo_inurba_marseille","lat":43.217471,"lon":5.34608,"is_reserved":false,"is_disabled":false,"rental_uris":{"android":"levelo://app?vid=5807070e-7591-4608-b97d-4da390ac25a7","ios":"levelo://app?vid=5807070e-7591-4608-b97d-4da390ac25a7"},"vehicle_type_id":"4","last_reported":1744899015,"current_range_meters":19200,"station_id":"st_cvj6r9ubvosntc0bgbag","pricing_plan_id":"cebpf4jnsgd1na2vs0mg"},{"bike_id":"33efbe4e-e642-4271-be29-4926b421ca5b","system_id":"levelo_inurba_marseille","lat":43.24164,"lon":5.36383,"is_reserved":false,"is_disabled":false,"rental_uris":{"android":"levelo://app?vid=33efbe4e-e642-4271-be29-4926b421ca5b","ios":"levelo://app?vid=33efbe4e-e642-4271-be29-4926b421ca5b"},"vehicle_type_id":"4","last_reported":1744899015,"current_range_meters":19200,"station_id":"cpo36qri1sfpv3e86is0","pricing_plan_id":"cebpf4jnsgd1na2vs0mg"},{"bike_id":"81d8f52e-4672-4ed8-a29b-bbaf63d2f3c4","system_id":"levelo_inurba_marseille","lat":43.32334,"lon":5.40625,"is_reserved":false,"is_disabled":false,"rental_uris":{"android":"levelo://app?vid=81d8f52e-4672-4ed8-a29b-bbaf63d2f3c4","ios":"levelo://app?vid=81d8f52e-4672-4ed8-a29b-bbaf63d2f3c4"},"vehicle_type_id":"4","last_reported":1744899015,"current_range_meters":19200,"station_id":"ce4bhq92rcd13ifvqhjg","pricing_plan_id":"cebpf4jnsgd1na2vs0mg"},{"bike_id":"f3e9c09b-65b6-4c05-a7c9-8add677f3cc8","system_id":"levelo_inurba_marseille","lat":43.28677,"lon":5.3867,"is_reserved":false,"is_disabled":false,"rental_uris":{"android":"levelo://app?vid=f3e9c09b-65b6-4c05-a7c9-8add677f3cc8","ios":"levelo://app?vid=f3e9c09b-65b6-4c05-a7c9-8add677f3cc8"},"vehicle_type_id":"4","last_reported":1744899015,"current_range_meters":19200,"station_id":"ce4bh492rcd13ifvqdug","pricing_plan_id":"cebpf4jnsgd1na2vs0mg"},{"bike_id":"1be126e7-581d-49fb-b41c-947b2946a0d2","system_id":"levelo_inurba_marseille","lat":43.30287,"lon":5.37692,"is_reserved":false,"is_disabled":false,"rental_uris":{"android":"levelo://app?vid=1be126e7-581d-49fb-b41c-947b2946a0d2","ios":"levelo://app?vid=1be126e7-581d-49fb-b41c-947b2946a0d2"},"vehicle_type_id":"4","last_reported":1744899015,"current_range_meters":20400,"station_id":"ce4bguh2rcd13ifvqcj0","pricing_plan_id":"cebpf4jnsgd1na2vs0mg"},{"bike_id":"5e328f7a-692b-480d-8aaa-c7ad9af84ca8","system_id":"levelo_inurba_marseille","lat":43.29929,"lon":5.38148,"is_reserved":false,"is_disabled":false,"rental_uris":{"android":"levelo://app?vid=5e328f7a-692b-480d-8aaa-c7ad9af84ca8","ios":"levelo://app?vid=5e328f7a-692b-480d-8aaa-c7ad9af84ca8"},"vehicle_type_id":"4","last_reported":1744899015,"current_range_meters":19200,"station_id":"ce4bgj12rcd13ifvqbc0","pricing_plan_id":"cebpf4jnsgd1na2vs0mg"},{"bike_id":"baecf04b-7089-4e93-9766-36898fc68960","system_id":"levelo_inurba_marseille","lat":43.2985,"lon":5.36295,"is_reserved":false,"is_disabled":false,"rental_uris":{"android":"levelo://app?vid=baecf04b-7089-4e93-9766-36898fc68960","ios":"levelo://app?vid=baecf04b-7089-4e93-9766-36898fc68960"},"vehicle_type_id":"4","last_reported":1744899015,"current_range_meters":19600,"station_id":"ce4bgpp2rcd13ifvqc3g","pricing_plan_id":"cebpf4jnsgd1na2vs0mg"},{"bike_id":"f9d3fbe6-73e5-424e-af02-f446d5b07152","system_id":"levelo_inurba_marseille","lat":43.21752,"lon":5.34611,"is_reserved":false,"is_disabled":false,"rental_uris":{"android":"levelo://app?vid=f9d3fbe6-73e5-424e-af02-f446d5b07152","ios":"levelo://app?vid=f9d3fbe6-73e5-424e-af02-f446d5b07152"},"vehicle_type_id":"4","last_reported":1744899015,"current_range_meters":19600,"station_id":"st_cvj6r9ubvosntc0bgbag","pricing_plan_id":"cebpf4jnsgd1na2vs0mg"},{"bike_id":"e8fac7c8-1540-4e0c-9372-7177a2742d74","system_id":"levelo_inurba_marseille","lat":43.29923,"lon":5.38144,"is_reserved":false,"is_disabled":false,"rental_uris":{"android":"levelo://app?vid=e8fac7c8-1540-4e0c-9372-7177a2742d74","ios":"levelo://app?vid=e8fac7c8-1540-4e0c-9372-7177a2742d74"},"vehicle_type_id":"4","last_reported":1744899015,"current_range_meters":19600,"station_id":"ce4bgj12rcd13ifvqbc0","pricing_plan_id":"cebpf4jnsgd1na2vs0mg"},{"bike_id":"3d478ed8-ed25-416a-87f2-402df3b77c0b","system_id":"levelo_inurba_marseille","lat":43.24178,"lon":5.39739,"is_reserved":false,"is_disabled":false,"rental_uris":{"android":"levelo://app?vid=3d478ed8-ed25-416a-87f2-402df3b77c0b","ios":"levelo://app?vid=3d478ed8-ed25-416a-87f2-402df3b77c0b"},"vehicle_type_id":"4","last_reported":1744899015,"current_range_meters":19600,"station_id":"ce4bhn12rcd13ifvqgpg","pricing_plan_id":"cebpf4jnsgd1na2vs0mg"},{"bike_id":"efb996b3-bed7-4ae8-93ff-d4d1352bc8f1","system_id":"levelo_inurba_marseille","lat":43.30276,"lon":5.37702,"is_reserved":false,"is_disabled":false,"rental_uris":{"android":"levelo://app?vid=efb996b3-bed7-4ae8-93ff-d4d1352bc8f1","ios":"levelo://app?vid=efb996b3-bed7-4ae8-93ff-d4d1352bc8f1"},"vehicle_type_id":"4","last_reported":1744899015,"current_range_meters":20000,"station_id":"ce4bguh2rcd13ifvqcj0","pricing_plan_id":"cebpf4jnsgd1na2vs0mg"},{"bike_id":"f333f110-959a-46ad-821a-d1feadf162d8","system_id":"levelo_inurba_marseille","lat":43.305298,"lon":5.367081,"is_reserved":false,"is_disabled":false,"rental_uris":{"android":"levelo://app?vid=f333f110-959a-46ad-821a-d1feadf162d8","ios":"levelo://app?vid=f333f110-959a-46ad-821a-d1feadf162d8"},"vehicle_type_id":"4","last_reported":1744899015,"current_range_meters":20000,"station_id":"ce4bgrp2rcd13ifvqc9g","pricing_plan_id":"cebpf4jnsgd1na2vs0mg"},{"bike_id":"ecd9b5fe-4b17-4d30-a270-9ff21e0a9ad2","system_id":"levelo_inurba_marseille","lat":43.2417,"lon":5.36399,"is_reserved":false,"is_disabled":false,"rental_uris":{"android":"levelo://app?vid=ecd9b5fe-4b17-4d30-a270-9ff21e0a9ad2","ios":"levelo://app?vid=ecd9b5fe-4b17-4d30-a270-9ff21e0a9ad2"},"vehicle_type_id":"4","last_reported":1744899015,"current_range_meters":20000,"station_id":"cpo36qri1sfpv3e86is0","pricing_plan_id":"cebpf4jnsgd1na2vs0mg"},{"bike_id":"97c80d4b-fdef-4ea6-8da8-df5e9d5b1677","system_id":"levelo_inurba_marseille","lat":43.27202,"lon":5.39197,"is_reserved":false,"is_disabled":false,"rental_uris":{"android":"levelo://app?vid=97c80d4b-fdef-4ea6-8da8-df5e9d5b1677","ios":"levelo://app?vid=97c80d4b-fdef-4ea6-8da8-df5e9d5b1677"},"vehicle_type_id":"4","last_reported":1744899015,"current_range_meters":20400,"station_id":"ce4bhhp2rcd13ifvqfm0","pricing_plan_id":"cebpf4jnsgd1na2vs0mg"},{"bike_id":"05f9b99d-7805-460c-b863-06baeb2f9dc2","system_id":"levelo_inurba_marseille","lat":43.30152,"lon":5.38097,"is_reserved":false,"is_disabled":false,"rental_uris":{"android":"levelo://app?vid=05f9b99d-7805-460c-b863-06baeb2f9dc2","ios":"levelo://app?vid=05f9b99d-7805-460c-b863-06baeb2f9dc2"},"vehicle_type_id":"4","last_reported":1744899015,"current_range_meters":20400,"station_id":"ce4bgjp2rcd13ifvqbh0","pricing_plan_id":"cebpf4jnsgd1na2vs0mg"},{"bike_id":"313814f3-6f19-4af8-951a-2abfc3490229","system_id":"levelo_inurba_marseille","lat":43.29287,"lon":5.36845,"is_reserved":false,"is_disabled":false,"rental_uris":{"android":"levelo://app?vid=313814f3-6f19-4af8-951a-2abfc3490229","ios":"levelo://app?vid=313814f3-6f19-4af8-951a-2abfc3490229"},"vehicle_type_id":"4","last_reported":1744899015,"current_range_meters":20400,"station_id":"ce4bhbp2rcd13ifvqesg","pricing_plan_id":"cebpf4jnsgd1na2vs0mg"},{"bike_id":"cc937bc8-27c1-44e9-a469-8b24e9cfd941","system_id":"levelo_inurba_marseille","lat":43.29871,"lon":5.36249,"is_reserved":false,"is_disabled":false,"rental_uris":{"android":"levelo://app?vid=cc937bc8-27c1-44e9-a469-8b24e9cfd941","ios":"levelo://app?vid=cc937bc8-27c1-44e9-a469-8b24e9cfd941"},"vehicle_type_id":"4","last_reported":1744899015,"current_range_meters":20800,"station_id":"ce4bgpp2rcd13ifvqc3g","pricing_plan_id":"cebpf4jnsgd1na2vs0mg"},{"bike_id":"0853db6b-da22-4f8d-b9f0-5929a96ab008","system_id":"levelo_inurba_marseille","lat":43.28727,"lon":5.39969,"is_reserved":false,"is_disabled":false,"rental_uris":{"android":"levelo://app?vid=0853db6b-da22-4f8d-b9f0-5929a96ab008","ios":"levelo://app?vid=0853db6b-da22-4f8d-b9f0-5929a96ab008"},"vehicle_type_id":"4","last_reported":1744899015,"current_range_meters":20800,"station_id":"ce4bho92rcd13ifvqh3g","pricing_plan_id":"cebpf4jnsgd1na2vs0mg"},{"bike_id":"2b8e70ea-bfad-4d33-9b56-df45f9871c15","system_id":"levelo_inurba_marseille","lat":43.304327,"lon":5.39746,"is_reserved":false,"is_disabled":false,"rental_uris":{"android":"levelo://app?vid=2b8e70ea-bfad-4d33-9b56-df45f9871c15","ios":"levelo://app?vid=2b8e70ea-bfad-4d33-9b56-df45f9871c15"},"vehicle_type_id":"4","last_reported":1744899015,"current_range_meters":20800,"station_id":"ce4bh092rcd13ifvqd20","pricing_plan_id":"cebpf4jnsgd1na2vs0mg"},{"bike_id":"b6749992-d556-412a-96b3-c2b63e639ddc","system_id":"levelo_inurba_marseille","lat":43.254609,"lon":5.376778,"is_reserved":false,"is_disabled":false,"rental_uris":{"android":"levelo://app?vid=b6749992-d556-412a-96b3-c2b63e639ddc","ios":"levelo://app?vid=b6749992-d556-412a-96b3-c2b63e639ddc"},"vehicle_type_id":"4","last_reported":1744899015,"current_range_meters":20400,"station_id":"ce4bhh12rcd13ifvqff0","pricing_plan_id":"cebpf4jnsgd1na2vs0mg"},{"bike_id":"d39e5537-c00a-4bf8-9f22-53966b448679","system_id":"levelo_inurba_marseille","lat":43.29576,"lon":5.42258,"is_reserved":false,"is_disabled":false,"rental_uris":{"android":"levelo://app?vid=d39e5537-c00a-4bf8-9f22-53966b448679","ios":"levelo://app?vid=d39e5537-c00a-4bf8-9f22-53966b448679"},"vehicle_type_id":"4","last_reported":1744899015,"current_range_meters":20800,"station_id":"ce4bhph2rcd13ifvqhdg","pricing_plan_id":"cebpf4jnsgd1na2vs0mg"},{"bike_id":"a98846e9-8bfc-47f7-8530-12eb548f5820","system_id":"levelo_inurba_marseille","lat":43.28985,"lon":5.37837,"is_reserved":false,"is_disabled":false,"rental_uris":{"android":"levelo://app?vid=a98846e9-8bfc-47f7-8530-12eb548f5820","ios":"levelo://app?vid=a98846e9-8bfc-47f7-8530-12eb548f5820"},"vehicle_type_id":"4","last_reported":1744899015,"current_range_meters":20800,"station_id":"ce4bh9p2rcd13ifvqed0","pricing_plan_id":"cebpf4jnsgd1na2vs0mg"},{"bike_id":"767ac8e2-0e80-4549-a954-7d5c8496a13a","system_id":"levelo_inurba_marseille","lat":43.30526,"lon":5.36552,"is_reserved":false,"is_disabled":false,"rental_uris":{"android":"levelo://app?vid=767ac8e2-0e80-4549-a954-7d5c8496a13a","ios":"levelo://app?vid=767ac8e2-0e80-4549-a954-7d5c8496a13a"},"vehicle_type_id":"4","last_reported":1744899015,"current_range_meters":20800,"station_id":"ce4bgs12rcd13ifvqcag","pricing_plan_id":"cebpf4jnsgd1na2vs0mg"},{"bike_id":"18857628-88a4-4f29-a2c3-73e35b825aeb","system_id":"levelo_inurba_marseille","lat":43.29278,"lon":5.40111,"is_reserved":false,"is_disabled":false,"rental_uris":{"android":"levelo://app?vid=18857628-88a4-4f29-a2c3-73e35b825aeb","ios":"levelo://app?vid=18857628-88a4-4f29-a2c3-73e35b825aeb"},"vehicle_type_id":"4","last_reported":1744899015,"current_range_meters":21600,"station_id":"ce4bh312rcd13ifvqdk0","pricing_plan_id":"cebpf4jnsgd1na2vs0mg"},{"bike_id":"a7b3d567-0870-4210-acd9-2c8d2000a89c","system_id":"levelo_inurba_marseille","lat":43.28981,"lon":5.37839,"is_reserved":false,"is_disabled":false,"rental_uris":{"android":"levelo://app?vid=a7b3d567-0870-4210-acd9-2c8d2000a89c","ios":"levelo://app?vid=a7b3d567-0870-4210-acd9-2c8d2000a89c"},"vehicle_type_id":"4","last_reported":1744899015,"current_range_meters":21600,"station_id":"ce4bh9p2rcd13ifvqed0","pricing_plan_id":"cebpf4jnsgd1na2vs0mg"},{"bike_id":"eab3d13a-8a95-41b9-938b-3c34b45f89a4","system_id":"levelo_inurba_marseille","lat":43.25007,"lon":5.38923,"is_reserved":false,"is_disabled":false,"rental_uris":{"android":"levelo://app?vid=eab3d13a-8a95-41b9-938b-3c34b45f89a4","ios":"levelo://app?vid=eab3d13a-8a95-41b9-938b-3c34b45f89a4"},"vehicle_type_id":"4","last_reported":1744899015,"current_range_meters":21600,"station_id":"ce4bhgp2rcd13ifvqfd0","pricing_plan_id":"cebpf4jnsgd1na2vs0mg"},{"bike_id":"b5cf081f-dfe7-46de-a623-de7a0be169ba","system_id":"levelo_inurba_marseille","lat":43.29632,"lon":5.37732,"is_reserved":false,"is_disabled":false,"rental_uris":{"android":"levelo://app?vid=b5cf081f-dfe7-46de-a623-de7a0be169ba","ios":"levelo://app?vid=b5cf081f-dfe7-46de-a623-de7a0be169ba"},"vehicle_type_id":"4","last_reported":1744899015,"current_range_meters":21600,"station_id":"ce4bgi92rcd13ifvqb90","pricing_plan_id":"cebpf4jnsgd1na2vs0mg"},{"bike_id":"9582cb1b-ad48-41f3-aa41-75d97b9629fc","system_id":"levelo_inurba_marseille","lat":43.29867,"lon":5.39733,"is_reserved":false,"is_disabled":false,"rental_uris":{"android":"levelo://app?vid=9582cb1b-ad48-41f3-aa41-75d97b9629fc","ios":"levelo://app?vid=9582cb1b-ad48-41f3-aa41-75d97b9629fc"},"vehicle_type_id":"4","last_reported":1744899015,"current_range_meters":21600,"station_id":"ce4bh0h2rcd13ifvqd50","pricing_plan_id":"cebpf4jnsgd1na2vs0mg"},{"bike_id":"f3d6c9bf-05f8-48c5-840c-2af4559922a8","system_id":"levelo_inurba_marseille","lat":43.29867,"lon":5.39731,"is_reserved":false,"is_disabled":false,"rental_uris":{"android":"levelo://app?vid=f3d6c9bf-05f8-48c5-840c-2af4559922a8","ios":"levelo://app?vid=f3d6c9bf-05f8-48c5-840c-2af4559922a8"},"vehicle_type_id":"4","last_reported":1744899015,"current_range_meters":21600,"station_id":"ce4bh0h2rcd13ifvqd50","pricing_plan_id":"cebpf4jnsgd1na2vs0mg"},{"bike_id":"f1d513e7-93f2-472b-b840-4c42490aad95","system_id":"levelo_inurba_marseille","lat":43.24166,"lon":5.36397,"is_reserved":false,"is_disabled":false,"rental_uris":{"android":"levelo://app?vid=f1d513e7-93f2-472b-b840-4c42490aad95","ios":"levelo://app?vid=f1d513e7-93f2-472b-b840-4c42490aad95"},"vehicle_type_id":"4","last_reported":1744899015,"current_range_meters":21600,"station_id":"cpo36qri1sfpv3e86is0","pricing_plan_id":"cebpf4jnsgd1na2vs0mg"},{"bike_id":"5e6be620-a3d0-49c3-9ff0-b85332cde817","system_id":"levelo_inurba_marseille","lat":43.231937,"lon":5.355624,"is_reserved":false,"is_disabled":false,"rental_uris":{"android":"levelo://app?vid=5e6be620-a3d0-49c3-9ff0-b85332cde817","ios":"levelo://app?vid=5e6be620-a3d0-49c3-9ff0-b85332cde817"},"vehicle_type_id":"4","last_reported":1744899015,"current_range_meters":21600,"station_id":"ce4bhu92rcd13ifvqi70","pricing_plan_id":"cebpf4jnsgd1na2vs0mg"},{"bike_id":"80bac1fe-218c-4068-937c-4aa733df023f","system_id":"levelo_inurba_marseille","lat":43.28613,"lon":5.37069,"is_reserved":false,"is_disabled":false,"rental_uris":{"android":"levelo://app?vid=80bac1fe-218c-4068-937c-4aa733df023f","ios":"levelo://app?vid=80bac1fe-218c-4068-937c-4aa733df023f"},"vehicle_type_id":"4","last_reported":1744899015,"current_range_meters":21600,"station_id":"ce4bht12rcd13ifvqi60","pricing_plan_id":"cebpf4jnsgd1na2vs0mg"},{"bike_id":"3b69be52-ad38-4b8f-8d12-ea7008a9b4fc","system_id":"levelo_inurba_marseille","lat":43.2794,"lon":5.41046,"is_reserved":false,"is_disabled":false,"rental_uris":{"android":"levelo://app?vid=3b69be52-ad38-4b8f-8d12-ea7008a9b4fc","ios":"levelo://app?vid=3b69be52-ad38-4b8f-8d12-ea7008a9b4fc"},"vehicle_type_id":"4","last_reported":1744899015,"current_range_meters":22000,"station_id":"ce4bhnp2rcd13ifvqh0g","pricing_plan_id":"cebpf4jnsgd1na2vs0mg"},{"bike_id":"229be63d-35d1-484e-9baa-ba0eedf358a3","system_id":"levelo_inurba_marseille","lat":43.279918,"lon":5.400571,"is_reserved":false,"is_disabled":false,"rental_uris":{"android":"levelo://app?vid=229be63d-35d1-484e-9baa-ba0eedf358a3","ios":"levelo://app?vid=229be63d-35d1-484e-9baa-ba0eedf358a3"},"vehicle_type_id":"4","last_reported":1744899015,"current_range_meters":22000,"station_id":"ce4bho92rcd13ifvqh4g","pricing_plan_id":"cebpf4jnsgd1na2vs0mg"},{"bike_id":"06ce55b5-173e-4271-95ae-39ee41470f70","system_id":"levelo_inurba_marseille","lat":43.29279,"lon":5.36848,"is_reserved":false,"is_disabled":false,"rental_uris":{"android":"levelo://app?vid=06ce55b5-173e-4271-95ae-39ee41470f70","ios":"levelo://app?vid=06ce55b5-173e-4271-95ae-39ee41470f70"},"vehicle_type_id":"4","last_reported":1744899015,"current_range_meters":22000,"station_id":"ce4bhbp2rcd13ifvqesg","pricing_plan_id":"cebpf4jnsgd1na2vs0mg"},{"bike_id":"6bcd098e-e5f1-4c0b-9b8c-581b4c8e510d","system_id":"levelo_inurba_marseille","lat":43.28699,"lon":5.39981,"is_reserved":false,"is_disabled":false,"rental_uris":{"android":"levelo://app?vid=6bcd098e-e5f1-4c0b-9b8c-581b4c8e510d","ios":"levelo://app?vid=6bcd098e-e5f1-4c0b-9b8c-581b4c8e510d"},"vehicle_type_id":"4","last_reported":1744899015,"current_range_meters":22000,"station_id":"ce4bho92rcd13ifvqh3g","pricing_plan_id":"cebpf4jnsgd1na2vs0mg"},{"bike_id":"cc601d9d-f3a5-4022-b97b-485f0ad7ebad","system_id":"levelo_inurba_marseille","lat":43.2407,"lon":5.37752,"is_reserved":false,"is_disabled":false,"rental_uris":{"android":"levelo://app?vid=cc601d9d-f3a5-4022-b97b-485f0ad7ebad","ios":"levelo://app?vid=cc601d9d-f3a5-4022-b97b-485f0ad7ebad"},"vehicle_type_id":"4","last_reported":1744899015,"current_range_meters":22000,"station_id":"ce4bhnp2rcd13ifvqgvg","pricing_plan_id":"cebpf4jnsgd1na2vs0mg"},{"bike_id":"9eb6738d-486c-4d0a-88f4-70b8d81983d1","system_id":"levelo_inurba_marseille","lat":43.2176,"lon":5.34596,"is_reserved":false,"is_disabled":false,"rental_uris":{"android":"levelo://app?vid=9eb6738d-486c-4d0a-88f4-70b8d81983d1","ios":"levelo://app?vid=9eb6738d-486c-4d0a-88f4-70b8d81983d1"},"vehicle_type_id":"4","last_reported":1744899015,"current_range_meters":22000,"station_id":"st_cvj6r9ubvosntc0bgbag","pricing_plan_id":"cebpf4jnsgd1na2vs0mg"},{"bike_id":"10186643-4fbb-4b44-a420-79bfc6e1cf87","system_id":"levelo_inurba_marseille","lat":43.29727,"lon":5.36599,"is_reserved":false,"is_disabled":false,"rental_uris":{"android":"levelo://app?vid=10186643-4fbb-4b44-a420-79bfc6e1cf87","ios":"levelo://app?vid=10186643-4fbb-4b44-a420-79bfc6e1cf87"},"vehicle_type_id":"4","last_reported":1744899015,"current_range_meters":21600,"station_id":"ce4bgn12rcd13ifvqbt0","pricing_plan_id":"cebpf4jnsgd1na2vs0mg"},{"bike_id":"bdd919fe-71e0-4bf3-9126-88e3a81dfb11","system_id":"levelo_inurba_marseille","lat":43.29276,"lon":5.37629,"is_reserved":false,"is_disabled":false,"rental_uris":{"android":"levelo://app?vid=bdd919fe-71e0-4bf3-9126-88e3a81dfb11","ios":"levelo://app?vid=bdd919fe-71e0-4bf3-9126-88e3a81dfb11"},"vehicle_type_id":"4","last_reported":1744899015,"current_range_meters":22000,"station_id":"ce4bgi12rcd13ifvqb80","pricing_plan_id":"cebpf4jnsgd1na2vs0mg"},{"bike_id":"cc70eaf9-f6d2-4780-ac21-2144ec2ae0a6","system_id":"levelo_inurba_marseille","lat":43.25584,"lon":5.38227,"is_reserved":false,"is_disabled":false,"rental_uris":{"android":"levelo://app?vid=cc70eaf9-f6d2-4780-ac21-2144ec2ae0a6","ios":"levelo://app?vid=cc70eaf9-f6d2-4780-ac21-2144ec2ae0a6"},"vehicle_type_id":"4","last_reported":1744899015,"current_range_meters":22400,"station_id":"ce4bhih2rcd13ifvqfs0","pricing_plan_id":"cebpf4jnsgd1na2vs0mg"},{"bike_id":"91aa591a-3e56-4092-a295-ecb6aebe69eb","system_id":"levelo_inurba_marseille","lat":43.22501,"lon":5.34782,"is_reserved":false,"is_disabled":false,"rental_uris":{"android":"levelo://app?vid=91aa591a-3e56-4092-a295-ecb6aebe69eb","ios":"levelo://app?vid=91aa591a-3e56-4092-a295-ecb6aebe69eb"},"vehicle_type_id":"4","last_reported":1744899015,"current_range_meters":22400,"station_id":"st_cvj5dfep6f1abm77gieg","pricing_plan_id":"cebpf4jnsgd1na2vs0mg"},{"bike_id":"cabf441d-79da-45d6-b778-101b92c4ed42","system_id":"levelo_inurba_marseille","lat":43.30544,"lon":5.36556,"is_reserved":false,"is_disabled":false,"rental_uris":{"android":"levelo://app?vid=cabf441d-79da-45d6-b778-101b92c4ed42","ios":"levelo://app?vid=cabf441d-79da-45d6-b778-101b92c4ed42"},"vehicle_type_id":"4","last_reported":1744899015,"current_range_meters":22400,"station_id":"ce4bgs12rcd13ifvqcag","pricing_plan_id":"cebpf4jnsgd1na2vs0mg"},{"bike_id":"a20e20e9-176b-41c6-b02b-f05bd668df53","system_id":"levelo_inurba_marseille","lat":43.28999,"lon":5.35609,"is_reserved":false,"is_disabled":false,"rental_uris":{"android":"levelo://app?vid=a20e20e9-176b-41c6-b02b-f05bd668df53","ios":"levelo://app?vid=a20e20e9-176b-41c6-b02b-f05bd668df53"},"vehicle_type_id":"4","last_reported":1744899015,"current_range_meters":22400,"station_id":"ce4bhb92rcd13ifvqen0","pricing_plan_id":"cebpf4jnsgd1na2vs0mg"},{"bike_id":"cd359ed7-af75-448f-9e9f-0aa6c48f6997","system_id":"levelo_inurba_marseille","lat":43.25107,"lon":5.4032,"is_reserved":false,"is_disabled":false,"rental_uris":{"android":"levelo://app?vid=cd359ed7-af75-448f-9e9f-0aa6c48f6997","ios":"levelo://app?vid=cd359ed7-af75-448f-9e9f-0aa6c48f6997"},"vehicle_type_id":"4","last_reported":1744899015,"current_range_meters":22400,"station_id":"ce4bhlh2rcd13ifvqgig","pricing_plan_id":"cebpf4jnsgd1na2vs0mg"},{"bike_id":"d8b3e3c8-2bcd-4eec-8837-da1d905a02a2","system_id":"levelo_inurba_marseille","lat":43.28983,"lon":5.35607,"is_reserved":false,"is_disabled":false,"rental_uris":{"android":"levelo://app?vid=d8b3e3c8-2bcd-4eec-8837-da1d905a02a2","ios":"levelo://app?vid=d8b3e3c8-2bcd-4eec-8837-da1d905a02a2"},"vehicle_type_id":"4","last_reported":1744899015,"current_range_meters":22400,"station_id":"ce4bhb92rcd13ifvqen0","pricing_plan_id":"cebpf4jnsgd1na2vs0mg"},{"bike_id":"aea2afb6-112e-4c3a-968a-5eb5aa77e9be","system_id":"levelo_inurba_marseille","lat":43.21185,"lon":5.35065,"is_reserved":false,"is_disabled":false,"rental_uris":{"android":"levelo://app?vid=aea2afb6-112e-4c3a-968a-5eb5aa77e9be","ios":"levelo://app?vid=aea2afb6-112e-4c3a-968a-5eb5aa77e9be"},"vehicle_type_id":"4","last_reported":1744899015,"current_range_meters":22400,"station_id":"st_cvj6sg6p6f1abm77japg","pricing_plan_id":"cebpf4jnsgd1na2vs0mg"},{"bike_id":"873bcab6-b973-48ed-b129-34762c209441","system_id":"levelo_inurba_marseille","lat":43.31486,"lon":5.37307,"is_reserved":false,"is_disabled":false,"rental_uris":{"android":"levelo://app?vid=873bcab6-b973-48ed-b129-34762c209441","ios":"levelo://app?vid=873bcab6-b973-48ed-b129-34762c209441"},"vehicle_type_id":"4","last_reported":1744899015,"current_range_meters":22400,"station_id":"ce4bgt12rcd13ifvqcd0","pricing_plan_id":"cebpf4jnsgd1na2vs0mg"},{"bike_id":"60165374-6da0-4d0e-9a73-c535a9e6f8d9","system_id":"levelo_inurba_marseille","lat":43.29887,"lon":5.38902,"is_reserved":false,"is_disabled":false,"rental_uris":{"android":"levelo://app?vid=60165374-6da0-4d0e-9a73-c535a9e6f8d9","ios":"levelo://app?vid=60165374-6da0-4d0e-9a73-c535a9e6f8d9"},"vehicle_type_id":"4","last_reported":1744899015,"current_range_meters":24000,"station_id":"ce4bh392rcd13ifvqdl0","pricing_plan_id":"cebpf4jnsgd1na2vs0mg"},{"bike_id":"6b263e6b-aafb-45b2-8f6c-e9526fac004d","system_id":"levelo_inurba_marseille","lat":43.25836,"lon":5.3944,"is_reserved":false,"is_disabled":false,"rental_uris":{"android":"levelo://app?vid=6b263e6b-aafb-45b2-8f6c-e9526fac004d","ios":"levelo://app?vid=6b263e6b-aafb-45b2-8f6c-e9526fac004d"},"vehicle_type_id":"4","last_reported":1744899015,"current_range_meters":22800,"station_id":"ce4bhip2rcd13ifvqft0","pricing_plan_id":"cebpf4jnsgd1na2vs0mg"},{"bike_id":"09ed2f99-3de5-46d0-a2e0-ed554d61393f","system_id":"levelo_inurba_marseille","lat":43.31006,"lon":5.38462,"is_reserved":false,"is_disabled":false,"rental_uris":{"android":"levelo://app?vid=09ed2f99-3de5-46d0-a2e0-ed554d61393f","ios":"levelo://app?vid=09ed2f99-3de5-46d0-a2e0-ed554d61393f"},"vehicle_type_id":"4","last_reported":1744899015,"current_range_meters":22800,"station_id":"","pricing_plan_id":"cebpf4jnsgd1na2vs0mg"},{"bike_id":"db2488d1-77a1-4eb3-9b9b-b51975bfb43c","system_id":"levelo_inurba_marseille","lat":43.30156,"lon":5.37414,"is_reserved":false,"is_disabled":false,"rental_uris":{"android":"levelo://app?vid=db2488d1-77a1-4eb3-9b9b-b51975bfb43c","ios":"levelo://app?vid=db2488d1-77a1-4eb3-9b9b-b51975bfb43c"},"vehicle_type_id":"4","last_reported":1744899015,"current_range_meters":22800,"station_id":"ce4bgs92rcd13ifvqcc0","pricing_plan_id":"cebpf4jnsgd1na2vs0mg"},{"bike_id":"775ed2b5-908c-4ec4-b9ab-1de32efc1438","system_id":"levelo_inurba_marseille","lat":43.26227,"lon":5.40448,"is_reserved":false,"is_disabled":false,"rental_uris":{"android":"levelo://app?vid=775ed2b5-908c-4ec4-b9ab-1de32efc1438","ios":"levelo://app?vid=775ed2b5-908c-4ec4-b9ab-1de32efc1438"},"vehicle_type_id":"4","last_reported":1744899015,"current_range_meters":22800,"station_id":"ce4bhmh2rcd13ifvqgmg","pricing_plan_id":"cebpf4jnsgd1na2vs0mg"},{"bike_id":"afb26675-d64f-4a05-8a87-4b7eeb2fc573","system_id":"levelo_inurba_marseille","lat":43.292853,"lon":5.368325,"is_reserved":false,"is_disabled":false,"rental_uris":{"android":"levelo://app?vid=afb26675-d64f-4a05-8a87-4b7eeb2fc573","ios":"levelo://app?vid=afb26675-d64f-4a05-8a87-4b7eeb2fc573"},"vehicle_type_id":"4","last_reported":1744899015,"current_range_meters":22800,"station_id":"ce4bgkh2rcd13ifvqbl0","pricing_plan_id":"cebpf4jnsgd1na2vs0mg"},{"bike_id":"6c621d73-fe6e-46df-a37f-69e88ac70dc5","system_id":"levelo_inurba_marseille","lat":43.30459,"lon":5.37912,"is_reserved":false,"is_disabled":false,"rental_uris":{"android":"levelo://app?vid=6c621d73-fe6e-46df-a37f-69e88ac70dc5","ios":"levelo://app?vid=6c621d73-fe6e-46df-a37f-69e88ac70dc5"},"vehicle_type_id":"4","last_reported":1744899015,"current_range_meters":22800,"station_id":"ce4bgup2rcd13ifvqcn0","pricing_plan_id":"cebpf4jnsgd1na2vs0mg"},{"bike_id":"e8b66dfc-dd1c-44c2-8320-cd181aac4333","system_id":"levelo_inurba_marseille","lat":43.300591,"lon":5.386642,"is_reserved":false,"is_disabled":false,"rental_uris":{"android":"levelo://app?vid=e8b66dfc-dd1c-44c2-8320-cd181aac4333","ios":"levelo://app?vid=e8b66dfc-dd1c-44c2-8320-cd181aac4333"},"vehicle_type_id":"4","last_reported":1744899015,"current_range_meters":22800,"station_id":"ce4bgg92rcd13ifvqb30","pricing_plan_id":"cebpf4jnsgd1na2vs0mg"},{"bike_id":"f2a84e19-dc8b-4064-9e48-df96fa35fef1","system_id":"levelo_inurba_marseille","lat":43.29783,"lon":5.39341,"is_reserved":false,"is_disabled":false,"rental_uris":{"android":"levelo://app?vid=f2a84e19-dc8b-4064-9e48-df96fa35fef1","ios":"levelo://app?vid=f2a84e19-dc8b-4064-9e48-df96fa35fef1"},"vehicle_type_id":"4","last_reported":1744899015,"current_range_meters":22800,"station_id":"chh1huq6cuj3fo74tm60","pricing_plan_id":"cebpf4jnsgd1na2vs0mg"},{"bike_id":"d05b7cc4-f88b-4d02-ae6c-c344f22c0e5c","system_id":"levelo_inurba_marseille","lat":43.29775,"lon":5.36544,"is_reserved":false,"is_disabled":false,"rental_uris":{"android":"levelo://app?vid=d05b7cc4-f88b-4d02-ae6c-c344f22c0e5c","ios":"levelo://app?vid=d05b7cc4-f88b-4d02-ae6c-c344f22c0e5c"},"vehicle_type_id":"4","last_reported":1744899015,"current_range_meters":23200,"station_id":"","pricing_plan_id":"cebpf4jnsgd1na2vs0mg"},{"bike_id":"3fbc96ad-40f5-4f66-a347-82640cb94161","system_id":"levelo_inurba_marseille","lat":43.30121,"lon":5.39875,"is_reserved":false,"is_disabled":false,"rental_uris":{"android":"levelo://app?vid=3fbc96ad-40f5-4f66-a347-82640cb94161","ios":"levelo://app?vid=3fbc96ad-40f5-4f66-a347-82640cb94161"},"vehicle_type_id":"4","last_reported":1744899015,"current_range_meters":22800,"station_id":"ce4bh0h2rcd13ifvqd40","pricing_plan_id":"cebpf4jnsgd1na2vs0mg"},{"bike_id":"fa9cdeda-6db2-4283-95d4-e85b12db2a09","system_id":"levelo_inurba_marseille","lat":43.297123,"lon":5.37703,"is_reserved":false,"is_disabled":false,"rental_uris":{"android":"levelo://app?vid=fa9cdeda-6db2-4283-95d4-e85b12db2a09","ios":"levelo://app?vid=fa9cdeda-6db2-4283-95d4-e85b12db2a09"},"vehicle_type_id":"4","last_reported":1744899015,"current_range_meters":23200,"station_id":"ce4bgkh2rcd13ifvqbl0","pricing_plan_id":"cebpf4jnsgd1na2vs0mg"},{"bike_id":"7d1b0b4b-e95b-4533-8309-734860489786","system_id":"levelo_inurba_marseille","lat":43.27524,"lon":5.41124,"is_reserved":false,"is_disabled":false,"rental_uris":{"android":"levelo://app?vid=7d1b0b4b-e95b-4533-8309-734860489786","ios":"levelo://app?vid=7d1b0b4b-e95b-4533-8309-734860489786"},"vehicle_type_id":"4","last_reported":1744899015,"current_range_meters":23200,"station_id":"","pricing_plan_id":"cebpf4jnsgd1na2vs0mg"},{"bike_id":"9eb6a99a-3a7d-482d-9100-7bb5a94c2b9f","system_id":"levelo_inurba_marseille","lat":43.26065,"lon":5.39397,"is_reserved":false,"is_disabled":false,"rental_uris":{"android":"levelo://app?vid=9eb6a99a-3a7d-482d-9100-7bb5a94c2b9f","ios":"levelo://app?vid=9eb6a99a-3a7d-482d-9100-7bb5a94c2b9f"},"vehicle_type_id":"4","last_reported":1744899015,"current_range_meters":23200,"station_id":"ce4bhh92rcd13ifvqfj0","pricing_plan_id":"cebpf4jnsgd1na2vs0mg"},{"bike_id":"24213b37-b766-4d9c-a174-f6bf34920497","system_id":"levelo_inurba_marseille","lat":43.28469,"lon":5.384178,"is_reserved":false,"is_disabled":false,"rental_uris":{"android":"levelo://app?vid=24213b37-b766-4d9c-a174-f6bf34920497","ios":"levelo://app?vid=24213b37-b766-4d9c-a174-f6bf34920497"},"vehicle_type_id":"4","last_reported":1744899015,"current_range_meters":23200,"station_id":"ce4bh512rcd13ifvqe3g","pricing_plan_id":"cebpf4jnsgd1na2vs0mg"},{"bike_id":"7e9fbd33-cfb6-44a6-96fc-1f60d0c215f7","system_id":"levelo_inurba_marseille","lat":43.3235,"lon":5.36751,"is_reserved":false,"is_disabled":false,"rental_uris":{"android":"levelo://app?vid=7e9fbd33-cfb6-44a6-96fc-1f60d0c215f7","ios":"levelo://app?vid=7e9fbd33-cfb6-44a6-96fc-1f60d0c215f7"},"vehicle_type_id":"4","last_reported":1744899015,"current_range_meters":23200,"station_id":"ce4bhsh2rcd13ifvqi2g","pricing_plan_id":"cebpf4jnsgd1na2vs0mg"},{"bike_id":"9f67a883-257e-4721-9b74-3e94384bceef","system_id":"levelo_inurba_marseille","lat":43.298694,"lon":5.397342,"is_reserved":false,"is_disabled":false,"rental_uris":{"android":"levelo://app?vid=9f67a883-257e-4721-9b74-3e94384bceef","ios":"levelo://app?vid=9f67a883-257e-4721-9b74-3e94384bceef"},"vehicle_type_id":"4","last_reported":1744899015,"current_range_meters":23200,"station_id":"ce4bh0h2rcd13ifvqd50","pricing_plan_id":"cebpf4jnsgd1na2vs0mg"},{"bike_id":"ae1111c6-a6eb-49f4-b3d4-8325287d85e1","system_id":"levelo_inurba_marseille","lat":43.24542,"lon":5.39519,"is_reserved":false,"is_disabled":false,"rental_uris":{"android":"levelo://app?vid=ae1111c6-a6eb-49f4-b3d4-8325287d85e1","ios":"levelo://app?vid=ae1111c6-a6eb-49f4-b3d4-8325287d85e1"},"vehicle_type_id":"4","last_reported":1744899015,"current_range_meters":23200,"station_id":"ce4bhlp2rcd13ifvqgjg","pricing_plan_id":"cebpf4jnsgd1na2vs0mg"},{"bike_id":"0a9e59fe-0fff-454f-9a11-7e322ea69ba5","system_id":"levelo_inurba_marseille","lat":43.29175,"lon":5.37154,"is_reserved":false,"is_disabled":false,"rental_uris":{"android":"levelo://app?vid=0a9e59fe-0fff-454f-9a11-7e322ea69ba5","ios":"levelo://app?vid=0a9e59fe-0fff-454f-9a11-7e322ea69ba5"},"vehicle_type_id":"4","last_reported":1744899015,"current_range_meters":23200,"station_id":"ce4bha92rcd13ifvqeh0","pricing_plan_id":"cebpf4jnsgd1na2vs0mg"},{"bike_id":"8ea2237f-83ea-4547-994f-b4e446b2b67b","system_id":"levelo_inurba_marseille","lat":43.29859,"lon":5.36293,"is_reserved":false,"is_disabled":false,"rental_uris":{"android":"levelo://app?vid=8ea2237f-83ea-4547-994f-b4e446b2b67b","ios":"levelo://app?vid=8ea2237f-83ea-4547-994f-b4e446b2b67b"},"vehicle_type_id":"4","last_reported":1744899015,"current_range_meters":23200,"station_id":"ce4bgpp2rcd13ifvqc3g","pricing_plan_id":"cebpf4jnsgd1na2vs0mg"},{"bike_id":"15d2b07a-d4be-4825-ab77-0781f7e2ff82","system_id":"levelo_inurba_marseille","lat":43.28467,"lon":5.3588,"is_reserved":false,"is_disabled":false,"rental_uris":{"android":"levelo://app?vid=15d2b07a-d4be-4825-ab77-0781f7e2ff82","ios":"levelo://app?vid=15d2b07a-d4be-4825-ab77-0781f7e2ff82"},"vehicle_type_id":"4","last_reported":1744899015,"current_range_meters":24000,"station_id":"ce4bhah2rcd13ifvqei0","pricing_plan_id":"cebpf4jnsgd1na2vs0mg"},{"bike_id":"f1f30861-2e48-4970-9f7d-33998edd71f6","system_id":"levelo_inurba_marseille","lat":43.29576,"lon":5.36736,"is_reserved":false,"is_disabled":false,"rental_uris":{"android":"levelo://app?vid=f1f30861-2e48-4970-9f7d-33998edd71f6","ios":"levelo://app?vid=f1f30861-2e48-4970-9f7d-33998edd71f6"},"vehicle_type_id":"4","last_reported":1744899015,"current_range_meters":24000,"station_id":"ce4bgph2rcd13ifvqc2g","pricing_plan_id":"cebpf4jnsgd1na2vs0mg"},{"bike_id":"de759f1d-4a1e-4e12-93ca-1a5827ce7413","system_id":"levelo_inurba_marseille","lat":43.29048,"lon":5.3996,"is_reserved":false,"is_disabled":false,"rental_uris":{"android":"levelo://app?vid=de759f1d-4a1e-4e12-93ca-1a5827ce7413","ios":"levelo://app?vid=de759f1d-4a1e-4e12-93ca-1a5827ce7413"},"vehicle_type_id":"4","last_reported":1744899015,"current_range_meters":24000,"station_id":"ce4bh392rcd13ifvqdm0","pricing_plan_id":"cebpf4jnsgd1na2vs0mg"},{"bike_id":"4c0c8837-fb19-45d8-b725-c8c956a4bea5","system_id":"levelo_inurba_marseille","lat":43.31069,"lon":5.38342,"is_reserved":false,"is_disabled":false,"rental_uris":{"android":"levelo://app?vid=4c0c8837-fb19-45d8-b725-c8c956a4bea5","ios":"levelo://app?vid=4c0c8837-fb19-45d8-b725-c8c956a4bea5"},"vehicle_type_id":"4","last_reported":1744899015,"current_range_meters":24000,"station_id":"ce4bgv92rcd13ifvqcr0","pricing_plan_id":"cebpf4jnsgd1na2vs0mg"},{"bike_id":"8a733f44-48e5-4212-b46d-eb3064e4bc7d","system_id":"levelo_inurba_marseille","lat":43.27376,"lon":5.36258,"is_reserved":false,"is_disabled":false,"rental_uris":{"android":"levelo://app?vid=8a733f44-48e5-4212-b46d-eb3064e4bc7d","ios":"levelo://app?vid=8a733f44-48e5-4212-b46d-eb3064e4bc7d"},"vehicle_type_id":"4","last_reported":1744899015,"current_range_meters":24000,"station_id":"ce4bhbh2rcd13ifvqeo0","pricing_plan_id":"cebpf4jnsgd1na2vs0mg"},{"bike_id":"379dee3f-34cd-468c-aca0-cf546e557097","system_id":"levelo_inurba_marseille","lat":43.26573,"lon":5.39044,"is_reserved":false,"is_disabled":false,"rental_uris":{"android":"levelo://app?vid=379dee3f-34cd-468c-aca0-cf546e557097","ios":"levelo://app?vid=379dee3f-34cd-468c-aca0-cf546e557097"},"vehicle_type_id":"4","last_reported":1744899015,"current_range_meters":24000,"station_id":"ce4bhe12rcd13ifvqf30","pricing_plan_id":"cebpf4jnsgd1na2vs0mg"},{"bike_id":"17de6571-3c1c-4621-995b-d445cb9c6f14","system_id":"levelo_inurba_marseille","lat":43.21189,"lon":5.35079,"is_reserved":false,"is_disabled":false,"rental_uris":{"android":"levelo://app?vid=17de6571-3c1c-4621-995b-d445cb9c6f14","ios":"levelo://app?vid=17de6571-3c1c-4621-995b-d445cb9c6f14"},"vehicle_type_id":"4","last_reported":1744899015,"current_range_meters":24000,"station_id":"st_cvj6sg6p6f1abm77japg","pricing_plan_id":"cebpf4jnsgd1na2vs0mg"},{"bike_id":"3992c02e-05a5-44d6-aea6-8dced05e5119","system_id":"levelo_inurba_marseille","lat":43.27435,"lon":5.39423,"is_reserved":false,"is_disabled":false,"rental_uris":{"android":"levelo://app?vid=3992c02e-05a5-44d6-aea6-8dced05e5119","ios":"levelo://app?vid=3992c02e-05a5-44d6-aea6-8dced05e5119"},"vehicle_type_id":"4","last_reported":1744899015,"current_range_meters":24000,"station_id":"ce4bhdp2rcd13ifvqf20","pricing_plan_id":"cebpf4jnsgd1na2vs0mg"},{"bike_id":"7a597853-937c-4204-b8b9-87d3c6b4e8ef","system_id":"levelo_inurba_marseille","lat":43.24174,"lon":5.36397,"is_reserved":false,"is_disabled":false,"rental_uris":{"android":"levelo://app?vid=7a597853-937c-4204-b8b9-87d3c6b4e8ef","ios":"levelo://app?vid=7a597853-937c-4204-b8b9-87d3c6b4e8ef"},"vehicle_type_id":"4","last_reported":1744899015,"current_range_meters":24000,"station_id":"cpo36qri1sfpv3e86is0","pricing_plan_id":"cebpf4jnsgd1na2vs0mg"},{"bike_id":"33203d26-945b-4a55-92a5-97548cc35c7f","system_id":"levelo_inurba_marseille","lat":43.30138,"lon":5.38101,"is_reserved":false,"is_disabled":false,"rental_uris":{"android":"levelo://app?vid=33203d26-945b-4a55-92a5-97548cc35c7f","ios":"levelo://app?vid=33203d26-945b-4a55-92a5-97548cc35c7f"},"vehicle_type_id":"4","last_reported":1744899015,"current_range_meters":24000,"station_id":"ce4bgjp2rcd13ifvqbh0","pricing_plan_id":"cebpf4jnsgd1na2vs0mg"},{"bike_id":"a3cb3541-e34e-4e91-96bd-3d2be11ba3ea","system_id":"levelo_inurba_marseille","lat":43.30495,"lon":5.37904,"is_reserved":false,"is_disabled":false,"rental_uris":{"android":"levelo://app?vid=a3cb3541-e34e-4e91-96bd-3d2be11ba3ea","ios":"levelo://app?vid=a3cb3541-e34e-4e91-96bd-3d2be11ba3ea"},"vehicle_type_id":"4","last_reported":1744899015,"current_range_meters":24000,"station_id":"ce4bgup2rcd13ifvqcn0","pricing_plan_id":"cebpf4jnsgd1na2vs0mg"},{"bike_id":"470e016f-59dd-4b4e-a396-679b57dcd0f3","system_id":"levelo_inurba_marseille","lat":43.30542,"lon":5.36558,"is_reserved":false,"is_disabled":false,"rental_uris":{"android":"levelo://app?vid=470e016f-59dd-4b4e-a396-679b57dcd0f3","ios":"levelo://app?vid=470e016f-59dd-4b4e-a396-679b57dcd0f3"},"vehicle_type_id":"4","last_reported":1744899015,"current_range_meters":24000,"station_id":"ce4bgs12rcd13ifvqcag","pricing_plan_id":"cebpf4jnsgd1na2vs0mg"},{"bike_id":"ede48029-e8b6-4aa0-af1f-17eac8fd1017","system_id":"levelo_inurba_marseille","lat":43.29043,"lon":5.38653,"is_reserved":false,"is_disabled":false,"rental_uris":{"android":"levelo://app?vid=ede48029-e8b6-4aa0-af1f-17eac8fd1017","ios":"levelo://app?vid=ede48029-e8b6-4aa0-af1f-17eac8fd1017"},"vehicle_type_id":"4","last_reported":1744899015,"current_range_meters":24400,"station_id":"ce4bh4p2rcd13ifvqe0g","pricing_plan_id":"cebpf4jnsgd1na2vs0mg"},{"bike_id":"3abb744f-5548-4c83-8815-64d455b24952","system_id":"levelo_inurba_marseille","lat":43.305237,"lon":5.367081,"is_reserved":false,"is_disabled":false,"rental_uris":{"android":"levelo://app?vid=3abb744f-5548-4c83-8815-64d455b24952","ios":"levelo://app?vid=3abb744f-5548-4c83-8815-64d455b24952"},"vehicle_type_id":"4","last_reported":1744899015,"current_range_meters":24400,"station_id":"ce4bgrp2rcd13ifvqc9g","pricing_plan_id":"cebpf4jnsgd1na2vs0mg"},{"bike_id":"3962686f-e3fb-4279-b87e-8cd7eac4b71b","system_id":"levelo_inurba_marseille","lat":43.30104,"lon":5.39079,"is_reserved":false,"is_disabled":false,"rental_uris":{"android":"levelo://app?vid=3962686f-e3fb-4279-b87e-8cd7eac4b71b","ios":"levelo://app?vid=3962686f-e3fb-4279-b87e-8cd7eac4b71b"},"vehicle_type_id":"4","last_reported":1744899015,"current_range_meters":24400,"station_id":"ce4bh192rcd13ifvqdb0","pricing_plan_id":"cebpf4jnsgd1na2vs0mg"},{"bike_id":"23e93189-2181-494b-b5ba-8c97cf29f544","system_id":"levelo_inurba_marseille","lat":43.28703,"lon":5.39975,"is_reserved":false,"is_disabled":false,"rental_uris":{"android":"levelo://app?vid=23e93189-2181-494b-b5ba-8c97cf29f544","ios":"levelo://app?vid=23e93189-2181-494b-b5ba-8c97cf29f544"},"vehicle_type_id":"4","last_reported":1744899015,"current_range_meters":24000,"station_id":"ce4bho92rcd13ifvqh3g","pricing_plan_id":"cebpf4jnsgd1na2vs0mg"},{"bike_id":"6c17aa15-d0c2-4aaa-b286-0a0a4d7ba48f","system_id":"levelo_inurba_marseille","lat":43.29287,"lon":5.3845,"is_reserved":false,"is_disabled":false,"rental_uris":{"android":"levelo://app?vid=6c17aa15-d0c2-4aaa-b286-0a0a4d7ba48f","ios":"levelo://app?vid=6c17aa15-d0c2-4aaa-b286-0a0a4d7ba48f"},"vehicle_type_id":"4","last_reported":1744899015,"current_range_meters":24400,"station_id":"ce4bh692rcd13ifvqea0","pricing_plan_id":"cebpf4jnsgd1na2vs0mg"},{"bike_id":"644852b0-6467-4c02-9eb6-1e92eb858b0a","system_id":"levelo_inurba_marseille","lat":43.29897,"lon":5.43668,"is_reserved":false,"is_disabled":false,"rental_uris":{"android":"levelo://app?vid=644852b0-6467-4c02-9eb6-1e92eb858b0a","ios":"levelo://app?vid=644852b0-6467-4c02-9eb6-1e92eb858b0a"},"vehicle_type_id":"4","last_reported":1744899015,"current_range_meters":24400,"station_id":"ce4bhpp2rcd13ifvqhfg","pricing_plan_id":"cebpf4jnsgd1na2vs0mg"},{"bike_id":"cea6fef1-eeeb-45a4-943f-c32bad00a2e4","system_id":"levelo_inurba_marseille","lat":43.32345,"lon":5.38867,"is_reserved":false,"is_disabled":false,"rental_uris":{"android":"levelo://app?vid=cea6fef1-eeeb-45a4-943f-c32bad00a2e4","ios":"levelo://app?vid=cea6fef1-eeeb-45a4-943f-c32bad00a2e4"},"vehicle_type_id":"4","last_reported":1744899015,"current_range_meters":24400,"station_id":"ce4bhqp2rcd13ifvqhog","pricing_plan_id":"cebpf4jnsgd1na2vs0mg"},{"bike_id":"3c37d3ec-c1f3-47c3-9356-b25b0d14152b","system_id":"levelo_inurba_marseille","lat":43.28615,"lon":5.37066,"is_reserved":false,"is_disabled":false,"rental_uris":{"android":"levelo://app?vid=3c37d3ec-c1f3-47c3-9356-b25b0d14152b","ios":"levelo://app?vid=3c37d3ec-c1f3-47c3-9356-b25b0d14152b"},"vehicle_type_id":"4","last_reported":1744899015,"current_range_meters":24400,"station_id":"ce4bht12rcd13ifvqi60","pricing_plan_id":"cebpf4jnsgd1na2vs0mg"},{"bike_id":"ea6f3156-6bf9-480d-b5a4-e86741095d10","system_id":"levelo_inurba_marseille","lat":43.30459,"lon":5.37895,"is_reserved":false,"is_disabled":false,"rental_uris":{"android":"levelo://app?vid=ea6f3156-6bf9-480d-b5a4-e86741095d10","ios":"levelo://app?vid=ea6f3156-6bf9-480d-b5a4-e86741095d10"},"vehicle_type_id":"4","last_reported":1744899015,"current_range_meters":24400,"station_id":"ce4bgup2rcd13ifvqcn0","pricing_plan_id":"cebpf4jnsgd1na2vs0mg"},{"bike_id":"c344fd9e-6b5f-4ac7-89ed-dbe4ff8abdce","system_id":"levelo_inurba_marseille","lat":43.33728,"lon":5.39187,"is_reserved":false,"is_disabled":false,"rental_uris":{"android":"levelo://app?vid=c344fd9e-6b5f-4ac7-89ed-dbe4ff8abdce","ios":"levelo://app?vid=c344fd9e-6b5f-4ac7-89ed-dbe4ff8abdce"},"vehicle_type_id":"4","last_reported":1744899015,"current_range_meters":24400,"station_id":"ce4bhr92rcd13ifvqhsg","pricing_plan_id":"cebpf4jnsgd1na2vs0mg"},{"bike_id":"ed71bc1c-33c9-4aad-b76c-adcf199af1cb","system_id":"levelo_inurba_marseille","lat":43.29715,"lon":5.36613,"is_reserved":false,"is_disabled":false,"rental_uris":{"android":"levelo://app?vid=ed71bc1c-33c9-4aad-b76c-adcf199af1cb","ios":"levelo://app?vid=ed71bc1c-33c9-4aad-b76c-adcf199af1cb"},"vehicle_type_id":"4","last_reported":1744899015,"current_range_meters":24400,"station_id":"ce4bgn12rcd13ifvqbt0","pricing_plan_id":"cebpf4jnsgd1na2vs0mg"},{"bike_id":"cc57b88c-ecb4-4caf-96f3-2be5e8ab0e99","system_id":"levelo_inurba_marseille","lat":43.30542,"lon":5.36539,"is_reserved":false,"is_disabled":false,"rental_uris":{"android":"levelo://app?vid=cc57b88c-ecb4-4caf-96f3-2be5e8ab0e99","ios":"levelo://app?vid=cc57b88c-ecb4-4caf-96f3-2be5e8ab0e99"},"vehicle_type_id":"4","last_reported":1744899015,"current_range_meters":24400,"station_id":"ce4bgs12rcd13ifvqcag","pricing_plan_id":"cebpf4jnsgd1na2vs0mg"},{"bike_id":"0de085aa-eaca-41bf-995e-a71e092726c7","system_id":"levelo_inurba_marseille","lat":43.29977,"lon":5.38496,"is_reserved":false,"is_disabled":false,"rental_uris":{"android":"levelo://app?vid=0de085aa-eaca-41bf-995e-a71e092726c7","ios":"levelo://app?vid=0de085aa-eaca-41bf-995e-a71e092726c7"},"vehicle_type_id":"4","last_reported":1744899015,"current_range_meters":24800,"station_id":"ce4bgj92rcd13ifvqbd0","pricing_plan_id":"cebpf4jnsgd1na2vs0mg"},{"bike_id":"ce03ad46-9270-40bd-95e3-665a24df5431","system_id":"levelo_inurba_marseille","lat":43.30482,"lon":5.37912,"is_reserved":false,"is_disabled":false,"rental_uris":{"android":"levelo://app?vid=ce03ad46-9270-40bd-95e3-665a24df5431","ios":"levelo://app?vid=ce03ad46-9270-40bd-95e3-665a24df5431"},"vehicle_type_id":"4","last_reported":1744899015,"current_range_meters":24800,"station_id":"ce4bgup2rcd13ifvqcn0","pricing_plan_id":"cebpf4jnsgd1na2vs0mg"},