{"last_updated":1728850147,"ttl":60,"version":"2.2","data":{"bikes":[{"bike_id":"2a632a08-3fd9-4642-a9d8-42d817856126","system_id":"levelo_inurba_marseille","lat":43.24393,"lon":5.37059,"is_reserved":false,"is_disabled":false,"rental_uris":{"android":"levelo://app?vid=2a632a08-3fd9-4642-a9d8-42d817856126","ios":"levelo://app?vid=2a632a08-3fd9-4642-a9d8-42d817856126"},"vehicle_type_id":"4","last_reported":1728850147,"current_range_meters":30800,"station_id":"ce4bhhh2rcd13ifvqfk0","pricing_plan_id":"cebpf4jnsgd1na2vs0mg"},{"bike_id":"65f2e9e8-8927-465e-a2e8-cfabd2b0d4ae","system_id":"levelo_inurba_marseille","lat":43.31535,"lon":5.38031,"is_reserved":false,"is_disabled":false,"rental_uris":{"android":"levelo://app?vid=65f2e9e8-8927-465e-a2e8-cfabd2b0d4ae","ios":"levelo://app?vid=65f2e9e8-8927-465e-a2e8-cfabd2b0d4ae"},"vehicle_type_id":"4","last_reported":1728850147,"current_range_meters":13600,"station_id":"ce4bhsp2rcd13ifvqi50","pricing_plan_id":"cebpf4jnsgd1na2vs0mg"},{"bike_id":"c1f09556-86e4-40bb-943c-8e616c1cf21f","system_id":"levelo_inurba_marseille","lat":43.2842,"lon":5.37513,"is_reserved":false,"is_disabled":false,"rental_uris":{"android":"levelo://app?vid=c1f09556-86e4-40bb-943c-8e616c1cf21f","ios":"levelo://app?vid=c1f09556-86e4-40bb-943c-8e616c1cf21f"},"vehicle_type_id":"4","last_reported":1728850147,"current_range_meters":4000,"station_id":"ce4bh412rcd13ifvqds0","pricing_plan_id":"cebpf4jnsgd1na2vs0mg"},{"bike_id":"c9e415a7-b966-4ae4-91a4-b51e2f841692","system_id":"levelo_inurba_marseille","lat":43.28721,"lon":5.37941,"is_reserved":false,"is_disabled":false,"rental_uris":{"android":"levelo://app?vid=c9e415a7-b966-4ae4-91a4-b51e2f841692","ios":"levelo://app?vid=c9e415a7-b966-4ae4-91a4-b51e2f841692"},"vehicle_type_id":"4","last_reported":1728850147,"current_range_meters":17200,"station_id":"ce4bh9p2rcd13ifvqec0","pricing_plan_id":"cebpf4jnsgd1na2vs0mg"},{"bike_id":"480c36bc-dd66-41df-b09a-76735c76211b","system_id":"levelo_inurba_marseille","lat":43.27998,"lon":5.4166,"is_reserved":false,"is_disabled":false,"rental_uris":{"android":"levelo://app?vid=480c36bc-dd66-41df-b09a-76735c76211b","ios":"levelo://app?vid=480c36bc-dd66-41df-b09a-76735c76211b"},"vehicle_type_id":"4","last_reported":1728850147,"current_range_meters":34800,"station_id":"ce4bho12rcd13ifvqh1g","pricing_plan_id":"cebpf4jnsgd1na2vs0mg"},{"bike_id":"d9b629b0-e23d-4e1d-ab01-060732d693c4","system_id":"levelo_inurba_marseille","lat":43.29984,"lon":5.37402,"is_reserved":false,"is_disabled":false,"rental_uris":{"android":"levelo://app?vid=d9b629b0-e23d-4e1d-ab01-060732d693c4","ios":"levelo://app?vid=d9b629b0-e23d-4e1d-ab01-060732d693c4"},"vehicle_type_id":"4","last_reported":1728850147,"current_range_meters":9200,"station_id":"","pricing_plan_id":"cebpf4jnsgd1na2vs0mg"},{"bike_id":"2cd9817e-e70d-4d6c-a792-7cadd096c515","system_id":"levelo_inurba_marseille","lat":43.30352,"lon":5.41876,"is_reserved":false,"is_disabled":false,"rental_uris":{"android":"levelo://app?vid=2cd9817e-e70d-4d6c-a792-7cadd096c515","ios":"levelo://app?vid=2cd9817e-e70d-4d6c-a792-7cadd096c515"},"vehicle_type_id":"4","last_reported":1728850147,"current_range_meters":6400,"station_id":"ce4bhop2rcd13ifvqh7g","pricing_plan_id":"cebpf4jnsgd1na2vs0mg"},{"bike_id":"bd501995-e26b-4ea3-a4bd-91688e96e9ec","system_id":"levelo_inurba_marseille","lat":43.28444,"lon":5.39189,"is_reserved":false,"is_disabled":false,"rental_uris":{"android":"levelo://app?vid=bd501995-e26b-4ea3-a4bd-91688e96e9ec","ios":"levelo://app?vid=bd501995-e26b-4ea3-a4bd-91688e96e9ec"},"vehicle_type_id":"4","last_reported":1728850147,"current_range_meters":17200,"station_id":"ce4bhoh2rcd13ifvqh5g","pricing_plan_id":"cebpf4jnsgd1na2vs0mg"},{"bike_id":"d5904edc-115e-41fa-8710-b55e98f606fc","system_id":"levelo_inurba_marseille","lat":43.31166,"lon":5.38717,"is_reserved":false,"is_disabled":false,"rental_uris":{"android":"levelo://app?vid=d5904edc-115e-41fa-8710-b55e98f606fc","ios":"levelo://app?vid=d5904edc-115e-41fa-8710-b55e98f606fc"},"vehicle_type_id":"4","last_reported":1728850147,"current_range_meters":15200,"station_id":"ce4bgv12rcd13ifvqcp0","pricing_plan_id":"cebpf4jnsgd1na2vs0mg"},{"bike_id":"2c10af63-08f4-40bf-83a2-1890160187a6","system_id":"levelo_inurba_marseille","lat":43.29895,"lon":5.43662,"is_reserved":false,"is_disabled":false,"rental_uris":{"android":"levelo://app?vid=2c10af63-08f4-40bf-83a2-1890160187a6","ios":"levelo://app?vid=2c10af63-08f4-40bf-83a2-1890160187a6"},"vehicle_type_id":"4","last_reported":1728850147,"current_range_meters":32000,"station_id":"ce4bhpp2rcd13ifvqhfg","pricing_plan_id":"cebpf4jnsgd1na2vs0mg"},{"bike_id":"b14311b7-7ef8-475e-ba72-6ab8436a82e5","system_id":"levelo_inurba_marseille","lat":43.2962,"lon":5.38683,"is_reserved":false,"is_disabled":false,"rental_uris":{"android":"levelo://app?vid=b14311b7-7ef8-475e-ba72-6ab8436a82e5","ios":"levelo://app?vid=b14311b7-7ef8-475e-ba72-6ab8436a82e5"},"vehicle_type_id":"4","last_reported":1728850147,"current_range_meters":18000,"station_id":"ce4bh3p2rcd13ifvqdp0","pricing_plan_id":"cebpf4jnsgd1na2vs0mg"},{"bike_id":"c1526f14-0f53-47fd-bc6e-2dc8711b4bf6","system_id":"levelo_inurba_marseille","lat":43.29898,"lon":5.43663,"is_reserved":false,"is_disabled":false,"rental_uris":{"android":"levelo://app?vid=c1526f14-0f53-47fd-bc6e-2dc8711b4bf6","ios":"levelo://app?vid=c1526f14-0f53-47fd-bc6e-2dc8711b4bf6"},"vehicle_type_id":"4","last_reported":1728850147,"current_range_meters":28400,"station_id":"ce4bhpp2rcd13ifvqhfg","pricing_plan_id":"cebpf4jnsgd1na2vs0mg"},{"bike_id":"1577fecb-cfb2-4506-83a8-2cd8ebbde5be","system_id":"levelo_inurba_marseille","lat":43.29,"lon":5.37832,"is_reserved":false,"is_disabled":false,"rental_uris":{"android":"levelo://app?vid=1577fecb-cfb2-4506-83a8-2cd8ebbde5be","ios":"levelo://app?vid=1577fecb-cfb2-4506-83a8-2cd8ebbde5be"},"vehicle_type_id":"4","last_reported":1728850147,"current_range_meters":4800,"station_id":"","pricing_plan_id":"cebpf4jnsgd1na2vs0mg"},{"bike_id":"4c1576ae-28e2-4124-a07c-795b62b50f5c","system_id":"levelo_inurba_marseille","lat":43.28922,"lon":5.38412,"is_reserved":false,"is_disabled":false,"rental_uris":{"android":"levelo://app?vid=4c1576ae-28e2-4124-a07c-795b62b50f5c","ios":"levelo://app?vid=4c1576ae-28e2-4124-a07c-795b62b50f5c"},"vehicle_type_id":"4","last_reported":1728850147,"current_range_meters":22400,"station_id":"ce4bh612rcd13ifvqe6g","pricing_plan_id":"cebpf4jnsgd1na2vs0mg"},{"bike_id":"06966271-aa40-4ae0-8856-e4cdbbdcc3f1","system_id":"levelo_inurba_marseille","lat":43.28665,"lon":5.36353,"is_reserved":false,"is_disabled":false,"rental_uris":{"android":"levelo://app?vid=06966271-aa40-4ae0-8856-e4cdbbdcc3f1","ios":"levelo://app?vid=06966271-aa40-4ae0-8856-e4cdbbdcc3f1"},"vehicle_type_id":"4","last_reported":1728850147,"current_range_meters":39200,"station_id":"ce4bhah2rcd13ifvqej0","pricing_plan_id":"cebpf4jnsgd1na2vs0mg"},{"bike_id":"1f64b17a-3fb4-4912-89b7-85c505501aee","system_id":"levelo_inurba_marseille","lat":43.29526,"lon":5.39403,"is_reserved":false,"is_disabled":false,"rental_uris":{"android":"levelo://app?vid=1f64b17a-3fb4-4912-89b7-85c505501aee","ios":"levelo://app?vid=1f64b17a-3fb4-4912-89b7-85c505501aee"},"vehicle_type_id":"4","last_reported":1728850147,"current_range_meters":37600,"station_id":"ce4bh292rcd13ifvqdf0","pricing_plan_id":"cebpf4jnsgd1na2vs0mg"},{"bike_id":"64f7ad20-be86-4d5d-88c6-762ada53b6b1","system_id":"levelo_inurba_marseille","lat":43.29259,"lon":5.40909,"is_reserved":false,"is_disabled":false,"rental_uris":{"android":"levelo://app?vid=64f7ad20-be86-4d5d-88c6-762ada53b6b1","ios":"levelo://app?vid=64f7ad20-be86-4d5d-88c6-762ada53b6b1"},"vehicle_type_id":"4","last_reported":1728850147,"current_range_meters":36000,"station_id":"ce4bh192rcd13ifvqdc0","pricing_plan_id":"cebpf4jnsgd1na2vs0mg"},{"bike_id":"c2afc5cc-d6ec-4846-84e3-272fc830f3b0","system_id":"levelo_inurba_marseille","lat":43.269522,"lon":5.386237,"is_reserved":false,"is_disabled":false,"rental_uris":{"android":"levelo://app?vid=c2afc5cc-d6ec-4846-84e3-272fc830f3b0","ios":"levelo://app?vid=c2afc5cc-d6ec-4846-84e3-272fc830f3b0"},"vehicle_type_id":"4","last_reported":1728850147,"current_range_meters":34000,"station_id":"ce4bhh92rcd13ifvqfh0","pricing_plan_id":"cebpf4jnsgd1na2vs0mg"},{"bike_id":"6b2daff3-9851-4dff-9081-e0ec010599e4","system_id":"levelo_inurba_marseille","lat":43.314515,"lon":5.37384,"is_reserved":false,"is_disabled":false,"rental_uris":{"android":"levelo://app?vid=6b2daff3-9851-4dff-9081-e0ec010599e4","ios":"levelo://app?vid=6b2daff3-9851-4dff-9081-e0ec010599e4"},"vehicle_type_id":"4","last_reported":1728850147,"current_range_meters":30800,"station_id":"","pricing_plan_id":"cebpf4jnsgd1na2vs0mg"},{"bike_id":"3c822ecd-c349-4358-955d-935167de7c4d","system_id":"levelo_inurba_marseille","lat":43.27178,"lon":5.4099,"is_reserved":false,"is_disabled":false,"rental_uris":{"android":"levelo://app?vid=3c822ecd-c349-4358-955d-935167de7c4d","ios":"levelo://app?vid=3c822ecd-c349-4358-955d-935167de7c4d"},"vehicle_type_id":"4","last_reported":1728850147,"current_range_meters":9600,"station_id":"ce4bhl12rcd13ifvqgf0","pricing_plan_id":"cebpf4jnsgd1na2vs0mg"},{"bike_id":"73253a8f-e5dc-4264-99b1-3ab44f156d3b","system_id":"levelo_inurba_marseille","lat":43.28417,"lon":5.37513,"is_reserved":false,"is_disabled":false,"rental_uris":{"android":"levelo://app?vid=73253a8f-e5dc-4264-99b1-3ab44f156d3b","ios":"levelo://app?vid=73253a8f-e5dc-4264-99b1-3ab44f156d3b"},"vehicle_type_id":"4","last_reported":1728850147,"current_range_meters":38800,"station_id":"ce4bh412rcd13ifvqds0","pricing_plan_id":"cebpf4jnsgd1na2vs0mg"},{"bike_id":"06bd846f-1a8a-42c7-a68c-452b45147310","system_id":"levelo_inurba_marseille","lat":43.29534,"lon":5.38544,"is_reserved":false,"is_disabled":false,"rental_uris":{"android":"levelo://app?vid=06bd846f-1a8a-42c7-a68c-452b45147310","ios":"levelo://app?vid=06bd846f-1a8a-42c7-a68c-452b45147310"},"vehicle_type_id":"4","last_reported":1728850147,"current_range_meters":34800,"station_id":"ce4bgih2rcd13ifvqba0","pricing_plan_id":"cebpf4jnsgd1na2vs0mg"},{"bike_id":"add7d886-ba2c-4f86-b410-9db7771f2460","system_id":"levelo_inurba_marseille","lat":43.26215,"lon":5.37441,"is_reserved":false,"is_disabled":false,"rental_uris":{"android":"levelo://app?vid=add7d886-ba2c-4f86-b410-9db7771f2460","ios":"levelo://app?vid=add7d886-ba2c-4f86-b410-9db7771f2460"},"vehicle_type_id":"4","last_reported":1728850147,"current_range_meters":12000,"station_id":"ce4bhgp2rcd13ifvqfc0","pricing_plan_id":"cebpf4jnsgd1na2vs0mg"},{"bike_id":"0b9ac74a-86ac-4709-9bf1-fecee604d340","system_id":"levelo_inurba_marseille","lat":43.30139,"lon":5.39864,"is_reserved":false,"is_disabled":false,"rental_uris":{"android":"levelo://app?vid=0b9ac74a-86ac-4709-9bf1-fecee604d340","ios":"levelo://app?vid=0b9ac74a-86ac-4709-9bf1-fecee604d340"},"vehicle_type_id":"4","last_reported":1728850147,"current_range_meters":5600,"station_id":"ce4bh0h2rcd13ifvqd40","pricing_plan_id":"cebpf4jnsgd1na2vs0mg"},{"bike_id":"500a76a1-1ed1-40ac-a566-15bac915b4f9","system_id":"levelo_inurba_marseille","lat":43.24654,"lon":5.38897,"is_reserved":false,"is_disabled":false,"rental_uris":{"android":"levelo://app?vid=500a76a1-1ed1-40ac-a566-15bac915b4f9","ios":"levelo://app?vid=500a76a1-1ed1-40ac-a566-15bac915b4f9"},"vehicle_type_id":"4","last_reported":1728850147,"current_range_meters":18800,"station_id":"ce4bhg12rcd13ifvqf60","pricing_plan_id":"cebpf4jnsgd1na2vs0mg"},{"bike_id":"fc85d26f-374a-4e4c-8d65-4b319b6d3ab3","system_id":"levelo_inurba_marseille","lat":43.29306,"lon":5.37462,"is_reserved":false,"is_disabled":false,"rental_uris":{"android":"levelo://app?vid=fc85d26f-374a-4e4c-8d65-4b319b6d3ab3","ios":"levelo://app?vid=fc85d26f-374a-4e4c-8d65-4b319b6d3ab3"},"vehicle_type_id":"4","last_reported":1728850147,"current_range_meters":34000,"station_id":"ce4bgi12rcd13ifvqb70","pricing_plan_id":"cebpf4jnsgd1na2vs0mg"},{"bike_id":"7bfca5b2-1ddd-4e5d-b9fc-19e6379d40a0","system_id":"levelo_inurba_marseille","lat":43.2806,"lon":5.40989,"is_reserved":false,"is_disabled":false,"rental_uris":{"android":"levelo://app?vid=7bfca5b2-1ddd-4e5d-b9fc-19e6379d40a0","ios":"levelo://app?vid=7bfca5b2-1ddd-4e5d-b9fc-19e6379d40a0"},"vehicle_type_id":"4","last_reported":1728850147,"current_range_meters":30800,"station_id":"","pricing_plan_id":"cebpf4jnsgd1na2vs0mg"},{"bike_id":"a9f025de-7fbb-467d-8b40-db2fd10475e7","system_id":"levelo_inurba_marseille","lat":43.28106,"lon":5.37839,"is_reserved":false,"is_disabled":false,"rental_uris":{"android":"levelo://app?vid=a9f025de-7fbb-467d-8b40-db2fd10475e7","ios":"levelo://app?vid=a9f025de-7fbb-467d-8b40-db2fd10475e7"},"vehicle_type_id":"4","last_reported":1728850147,"current_range_meters":30800,"station_id":"ce4bha12rcd13ifvqee0","pricing_plan_id":"cebpf4jnsgd1na2vs0mg"},{"bike_id":"7cfda0b3-e596-4607-b8bc-c4138cf4b09b","system_id":"levelo_inurba_marseille","lat":43.29257,"lon":5.38436,"is_reserved":false,"is_disabled":false,"rental_uris":{"android":"levelo://app?vid=7cfda0b3-e596-4607-b8bc-c4138cf4b09b","ios":"levelo://app?vid=7cfda0b3-e596-4607-b8bc-c4138cf4b09b"},"vehicle_type_id":"4","last_reported":1728850147,"current_range_meters":38800,"station_id":"ce4bh692rcd13ifvqea0","pricing_plan_id":"cebpf4jnsgd1na2vs0mg"},{"bike_id":"41a0ce93-8d2a-4b77-8ac8-acd497f8c5c4","system_id":"levelo_inurba_marseille","lat":43.2963,"lon":5.40603,"is_reserved":false,"is_disabled":false,"rental_uris":{"android":"levelo://app?vid=41a0ce93-8d2a-4b77-8ac8-acd497f8c5c4","ios":"levelo://app?vid=41a0ce93-8d2a-4b77-8ac8-acd497f8c5c4"},"vehicle_type_id":"4","last_reported":1728850147,"current_range_meters":33600,"station_id":"ce4bh0h2rcd13ifvqd60","pricing_plan_id":"cebpf4jnsgd1na2vs0mg"},{"bike_id":"3e1d519a-b734-45ec-9710-57ae2f604c35","system_id":"levelo_inurba_marseille","lat":43.28943,"lon":5.39631,"is_reserved":false,"is_disabled":false,"rental_uris":{"android":"levelo://app?vid=3e1d519a-b734-45ec-9710-57ae2f604c35","ios":"levelo://app?vid=3e1d519a-b734-45ec-9710-57ae2f604c35"},"vehicle_type_id":"4","last_reported":1728850147,"current_range_meters":38000,"station_id":"ce4bh3h2rcd13ifvqdn0","pricing_plan_id":"cebpf4jnsgd1na2vs0mg"},{"bike_id":"124bcadb-0047-4081-821e-eec9c7c733b7","system_id":"levelo_inurba_marseille","lat":43.3361,"lon":5.41035,"is_reserved":false,"is_disabled":false,"rental_uris":{"android":"levelo://app?vid=124bcadb-0047-4081-821e-eec9c7c733b7","ios":"levelo://app?vid=124bcadb-0047-4081-821e-eec9c7c733b7"},"vehicle_type_id":"4","last_reported":1728850147,"current_range_meters":16000,"station_id":"ce4bhqh2rcd13ifvqhmg","pricing_plan_id":"cebpf4jnsgd1na2vs0mg"},{"bike_id":"e7453d71-f51b-4853-a981-08fe3aa8100e","system_id":"levelo_inurba_marseille","lat":43.29844,"lon":5.36276,"is_reserved":false,"is_disabled":false,"rental_uris":{"android":"levelo://app?vid=e7453d71-f51b-4853-a981-08fe3aa8100e","ios":"levelo://app?vid=e7453d71-f51b-4853-a981-08fe3aa8100e"},"vehicle_type_id":"4","last_reported":1728850147,"current_range_meters":22800,"station_id":"ce4bgpp2rcd13ifvqc3g","pricing_plan_id":"cebpf4jnsgd1na2vs0mg"},{"bike_id":"f6c59829-1925-4c6c-8dbb-dc20c448d38a","system_id":"levelo_inurba_marseille","lat":43.29611,"lon":5.37736,"is_reserved":false,"is_disabled":false,"rental_uris":{"android":"levelo://app?vid=f6c59829-1925-4c6c-8dbb-dc20c448d38a","ios":"levelo://app?vid=f6c59829-1925-4c6c-8dbb-dc20c448d38a"},"vehicle_type_id":"4","last_reported":1728850147,"current_range_meters":38400,"station_id":"ce4bgi92rcd13ifvqb90","pricing_plan_id":"cebpf4jnsgd1na2vs0mg"},{"bike_id":"4456a4b0-7a03-479c-ba22-41450d791558","system_id":"levelo_inurba_marseille","lat":43.28355,"lon":5.38096,"is_reserved":false,"is_disabled":false,"rental_uris":{"android":"levelo://app?vid=4456a4b0-7a03-479c-ba22-41450d791558","ios":"levelo://app?vid=4456a4b0-7a03-479c-ba22-41450d791558"},"vehicle_type_id":"4","last_reported":1728850147,"current_range_meters":24000,"station_id":"ce4bh412rcd13ifvqdr0","pricing_plan_id":"cebpf4jnsgd1na2vs0mg"},{"bike_id":"cb0fa5b9-00ee-48fc-9ffa-599816c760e3","system_id":"levelo_inurba_marseille","lat":43.28108,"lon":5.37842,"is_reserved":false,"is_disabled":false,"rental_uris":{"android":"levelo://app?vid=cb0fa5b9-00ee-48fc-9ffa-599816c760e3","ios":"levelo://app?vid=cb0fa5b9-00ee-48fc-9ffa-599816c760e3"},"vehicle_type_id":"4","last_reported":1728850147,"current_range_meters":38800,"station_id":"ce4bha12rcd13ifvqee0","pricing_plan_id":"cebpf4jnsgd1na2vs0mg"},{"bike_id":"0a9f94b7-fe6d-4de8-b6fd-3225ceae69fc","system_id":"levelo_inurba_marseille","lat":43.28978,"lon":5.37821,"is_reserved":false,"is_disabled":false,"rental_uris":{"android":"levelo://app?vid=0a9f94b7-fe6d-4de8-b6fd-3225ceae69fc","ios":"levelo://app?vid=0a9f94b7-fe6d-4de8-b6fd-3225ceae69fc"},"vehicle_type_id":"4","last_reported":1728850147,"current_range_meters":38800,"station_id":"ce4bh9p2rcd13ifvqed0","pricing_plan_id":"cebpf4jnsgd1na2vs0mg"},{"bike_id":"91126898-d9aa-4637-b3e3-caaa451f390c","system_id":"levelo_inurba_marseille","lat":43.29791,"lon":5.39345,"is_reserved":false,"is_disabled":false,"rental_uris":{"android":"levelo://app?vid=91126898-d9aa-4637-b3e3-caaa451f390c","ios":"levelo://app?vid=91126898-d9aa-4637-b3e3-caaa451f390c"},"vehicle_type_id":"4","last_reported":1728850147,"current_range_meters":38800,"station_id":"chh1huq6cuj3fo74tm60","pricing_plan_id":"cebpf4jnsgd1na2vs0mg"},{"bike_id":"27613ba2-d435-45cc-ada9-193c892101c6","system_id":"levelo_inurba_marseille","lat":43.28372,"lon":5.38632,"is_reserved":false,"is_disabled":false,"rental_uris":{"android":"levelo://app?vid=27613ba2-d435-45cc-ada9-193c892101c6","ios":"levelo://app?vid=27613ba2-d435-45cc-ada9-193c892101c6"},"vehicle_type_id":"4","last_reported":1728850147,"current_range_meters":38800,"station_id":"ce4bh492rcd13ifvqdvg","pricing_plan_id":"cebpf4jnsgd1na2vs0mg"},{"bike_id":"a2ac4f24-86ed-48e3-86d0-598518a899a4","system_id":"levelo_inurba_marseille","lat":43.29875,"lon":5.39741,"is_reserved":false,"is_disabled":false,"rental_uris":{"android":"levelo://app?vid=a2ac4f24-86ed-48e3-86d0-598518a899a4","ios":"levelo://app?vid=a2ac4f24-86ed-48e3-86d0-598518a899a4"},"vehicle_type_id":"4","last_reported":1728850147,"current_range_meters":3600,"station_id":"ce4bh0h2rcd13ifvqd50","pricing_plan_id":"cebpf4jnsgd1na2vs0mg"},{"bike_id":"0df78cbb-1921-43c2-a640-252f457a08f2","system_id":"levelo_inurba_marseille","lat":43.2986,"lon":5.39752,"is_reserved":false,"is_disabled":false,"rental_uris":{"android":"levelo://app?vid=0df78cbb-1921-43c2-a640-252f457a08f2","ios":"levelo://app?vid=0df78cbb-1921-43c2-a640-252f457a08f2"},"vehicle_type_id":"4","last_reported":1728850147,"current_range_meters":34800,"station_id":"ce4bh0h2rcd13ifvqd50","pricing_plan_id":"cebpf4jnsgd1na2vs0mg"},{"bike_id":"cf060c54-b385-4999-9625-2ef3b6a18227","system_id":"levelo_inurba_marseille","lat":43.31072,"lon":5.38349,"is_reserved":false,"is_disabled":false,"rental_uris":{"android":"levelo://app?vid=cf060c54-b385-4999-9625-2ef3b6a18227","ios":"levelo://app?vid=cf060c54-b385-4999-9625-2ef3b6a18227"},"vehicle_type_id":"4","last_reported":1728850147,"current_range_meters":38800,"station_id":"ce4bgv92rcd13ifvqcr0","pricing_plan_id":"cebpf4jnsgd1na2vs0mg"},{"bike_id":"a691dc80-0475-4a96-ab4d-61d3faa64db9","system_id":"levelo_inurba_marseille","lat":43.29532,"lon":5.38544,"is_reserved":false,"is_disabled":false,"rental_uris":{"android":"levelo://app?vid=a691dc80-0475-4a96-ab4d-61d3faa64db9","ios":"levelo://app?vid=a691dc80-0475-4a96-ab4d-61d3faa64db9"},"vehicle_type_id":"4","last_reported":1728850147,"current_range_meters":12400,"station_id":"ce4bgih2rcd13ifvqba0","pricing_plan_id":"cebpf4jnsgd1na2vs0mg"},{"bike_id":"b3ee3615-bb58-435b-bf01-876eec8c4eec","system_id":"levelo_inurba_marseille","lat":43.29875,"lon":5.39729,"is_reserved":false,"is_disabled":false,"rental_uris":{"android":"levelo://app?vid=b3ee3615-bb58-435b-bf01-876eec8c4eec","ios":"levelo://app?vid=b3ee3615-bb58-435b-bf01-876eec8c4eec"},"vehicle_type_id":"4","last_reported":1728850147,"current_range_meters":32400,"station_id":"ce4bh0h2rcd13ifvqd50","pricing_plan_id":"cebpf4jnsgd1na2vs0mg"},{"bike_id":"60029347-7ab0-4a9c-9077-5096f4b226a5","system_id":"levelo_inurba_marseille","lat":43.24388,"lon":5.37061,"is_reserved":false,"is_disabled":false,"rental_uris":{"android":"levelo://app?vid=60029347-7ab0-4a9c-9077-5096f4b226a5","ios":"levelo://app?vid=60029347-7ab0-4a9c-9077-5096f4b226a5"},"vehicle_type_id":"4","last_reported":1728850147,"current_range_meters":37600,"station_id":"ce4bhhh2rcd13ifvqfk0","pricing_plan_id":"cebpf4jnsgd1na2vs0mg"},{"bike_id":"dc40a090-e957-4e81-9461-22da13153f93","system_id":"levelo_inurba_marseille","lat":43.24997,"lon":5.3893,"is_reserved":false,"is_disabled":false,"rental_uris":{"android":"levelo://app?vid=dc40a090-e957-4e81-9461-22da13153f93","ios":"levelo://app?vid=dc40a090-e957-4e81-9461-22da13153f93"},"vehicle_type_id":"4","last_reported":1728850147,"current_range_meters":38800,"station_id":"ce4bhgp2rcd13ifvqfd0","pricing_plan_id":"cebpf4jnsgd1na2vs0mg"},{"bike_id":"3988a4b3-30e1-4c8a-9413-c1ea4baf16d3","system_id":"levelo_inurba_marseille","lat":43.30138,"lon":5.3742,"is_reserved":false,"is_disabled":false,"rental_uris":{"android":"levelo://app?vid=3988a4b3-30e1-4c8a-9413-c1ea4baf16d3","ios":"levelo://app?vid=3988a4b3-30e1-4c8a-9413-c1ea4baf16d3"},"vehicle_type_id":"4","last_reported":1728850147,"current_range_meters":19600,"station_id":"ce4bgs92rcd13ifvqcc0","pricing_plan_id":"cebpf4jnsgd1na2vs0mg"},{"bike_id":"df7aad52-8d96-4731-9608-3eed53902e1e","system_id":"levelo_inurba_marseille","lat":43.3095,"lon":5.39048,"is_reserved":false,"is_disabled":false,"rental_uris":{"android":"levelo://app?vid=df7aad52-8d96-4731-9608-3eed53902e1e","ios":"levelo://app?vid=df7aad52-8d96-4731-9608-3eed53902e1e"},"vehicle_type_id":"4","last_reported":1728850147,"current_range_meters":38800,"station_id":"ce4bgup2rcd13ifvqco0","pricing_plan_id":"cebpf4jnsgd1na2vs0mg"},{"bike_id":"4b25fcea-d5b6-4f7b-a654-6ee3e22b0dfe","system_id":"levelo_inurba_marseille","lat":43.3229,"lon":5.38276,"is_reserved":false,"is_disabled":false,"rental_uris":{"android":"levelo://app?vid=4b25fcea-d5b6-4f7b-a654-6ee3e22b0dfe","ios":"levelo://app?vid=4b25fcea-d5b6-4f7b-a654-6ee3e22b0dfe"},"vehicle_type_id":"4","last_reported":1728850147,"current_range_meters":30000,"station_id":"ce4bhr12rcd13ifvqhqg","pricing_plan_id":"cebpf4jnsgd1na2vs0mg"},{"bike_id":"26ef0f82-778d-44d7-ad89-5daefc08a1a4","system_id":"levelo_inurba_marseille","lat":43.31452,"lon":5.37382,"is_reserved":false,"is_disabled":false,"rental_uris":{"android":"levelo://app?vid=26ef0f82-778d-44d7-ad89-5daefc08a1a4","ios":"levelo://app?vid=26ef0f82-778d-44d7-ad89-5daefc08a1a4"},"vehicle_type_id":"4","last_reported":1728850147,"current_range_meters":19600,"station_id":"","pricing_plan_id":"cebpf4jnsgd1na2vs0mg"},{"bike_id":"bf994896-4e33-4fd2-850e-19f20bc7bb36","system_id":"levelo_inurba_marseille","lat":43.28412,"lon":5.37519,"is_reserved":false,"is_disabled":false,"rental_uris":{"android":"levelo://app?vid=bf994896-4e33-4fd2-850e-19f20bc7bb36","ios":"levelo://app?vid=bf994896-4e33-4fd2-850e-19f20bc7bb36"},"vehicle_type_id":"4","last_reported":1728850147,"current_range_meters":38800,"station_id":"ce4bh412rcd13ifvqds0","pricing_plan_id":"cebpf4jnsgd1na2vs0mg"},{"bike_id":"0ccf2962-031c-4287-9cd7-f5ca10901747","system_id":"levelo_inurba_marseille","lat":43.30883,"lon":5.39638,"is_reserved":false,"is_disabled":false,"rental_uris":{"android":"levelo://app?vid=0ccf2962-031c-4287-9cd7-f5ca10901747","ios":"levelo://app?vid=0ccf2962-031c-4287-9cd7-f5ca10901747"},"vehicle_type_id":"4","last_reported":1728850147,"current_range_meters":38800,"station_id":"ce4bh012rcd13ifvqcv0","pricing_plan_id":"cebpf4jnsgd1na2vs0mg"},{"bike_id":"39096ca6-099c-47eb-911b-3253550b0d73","system_id":"levelo_inurba_marseille","lat":43.23962,"lon":5.36624,"is_reserved":false,"is_disabled":false,"rental_uris":{"android":"levelo://app?vid=39096ca6-099c-47eb-911b-3253550b0d73","ios":"levelo://app?vid=39096ca6-099c-47eb-911b-3253550b0d73"},"vehicle_type_id":"4","last_reported":1728850147,"current_range_meters":38800,"station_id":"ce4bhi12rcd13ifvqfp0","pricing_plan_id":"cebpf4jnsgd1na2vs0mg"},{"bike_id":"5bd974c5-0032-4e59-8cbe-1cc3b135d8cb","system_id":"levelo_inurba_marseille","lat":43.28729,"lon":5.36091,"is_reserved":false,"is_disabled":false,"rental_uris":{"android":"levelo://app?vid=5bd974c5-0032-4e59-8cbe-1cc3b135d8cb","ios":"levelo://app?vid=5bd974c5-0032-4e59-8cbe-1cc3b135d8cb"},"vehicle_type_id":"4","last_reported":1728850147,"current_range_meters":38800,"station_id":"cki0cbj6b192h4jlfktg","pricing_plan_id":"cebpf4jnsgd1na2vs0mg"},{"bike_id":"25ed2710-8c35-44e6-81fd-8fc7cf6b54a8","system_id":"levelo_inurba_marseille","lat":43.274948,"lon":5.424466,"is_reserved":false,"is_disabled":false,"rental_uris":{"android":"levelo://app?vid=25ed2710-8c35-44e6-81fd-8fc7cf6b54a8","ios":"levelo://app?vid=25ed2710-8c35-44e6-81fd-8fc7cf6b54a8"},"vehicle_type_id":"4","last_reported":1728850147,"current_range_meters":20000,"station_id":"ce4bhn92rcd13ifvqgrg","pricing_plan_id":"cebpf4jnsgd1na2vs0mg"},{"bike_id":"b9b18d1e-08b0-4d2d-ae4b-c6ff6e5bb0fe","system_id":"levelo_inurba_marseille","lat":43.29641,"lon":5.3727,"is_reserved":false,"is_disabled":false,"rental_uris":{"android":"levelo://app?vid=b9b18d1e-08b0-4d2d-ae4b-c6ff6e5bb0fe","ios":"levelo://app?vid=b9b18d1e-08b0-4d2d-ae4b-c6ff6e5bb0fe"},"vehicle_type_id":"4","last_reported":1728850147,"current_range_meters":15200,"station_id":"ce4bgk12rcd13ifvqbj0","pricing_plan_id":"cebpf4jnsgd1na2vs0mg"},{"bike_id":"3bf45488-58d4-458e-8f71-b90cf5356b98","system_id":"levelo_inurba_marseille","lat":43.30088,"lon":5.39079,"is_reserved":false,"is_disabled":false,"rental_uris":{"android":"levelo://app?vid=3bf45488-58d4-458e-8f71-b90cf5356b98","ios":"levelo://app?vid=3bf45488-58d4-458e-8f71-b90cf5356b98"},"vehicle_type_id":"4","last_reported":1728850147,"current_range_meters":8400,"station_id":"ce4bh192rcd13ifvqdb0","pricing_plan_id":"cebpf4jnsgd1na2vs0mg"},{"bike_id":"6ddfc66b-734e-434e-a7f7-fa40e9aa954e","system_id":"levelo_inurba_marseille","lat":43.29788,"lon":5.39356,"is_reserved":false,"is_disabled":false,"rental_uris":{"android":"levelo://app?vid=6ddfc66b-734e-434e-a7f7-fa40e9aa954e","ios":"levelo://app?vid=6ddfc66b-734e-434e-a7f7-fa40e9aa954e"},"vehicle_type_id":"4","last_reported":1728850147,"current_range_meters":9200,"station_id":"chh1huq6cuj3fo74tm60","pricing_plan_id":"cebpf4jnsgd1na2vs0mg"},{"bike_id":"9d853b61-04ab-4dae-ba10-7118ed6a9763","system_id":"levelo_inurba_marseille","lat":43.3014,"lon":5.38784,"is_reserved":false,"is_disabled":false,"rental_uris":{"android":"levelo://app?vid=9d853b61-04ab-4dae-ba10-7118ed6a9763","ios":"levelo://app?vid=9d853b61-04ab-4dae-ba10-7118ed6a9763"},"vehicle_type_id":"4","last_reported":1728850147,"current_range_meters":22400,"station_id":"ce4bghh2rcd13ifvqb60","pricing_plan_id":"cebpf4jnsgd1na2vs0mg"},{"bike_id":"26e17979-e227-4224-a529-6170c31c8d09","system_id":"levelo_inurba_marseille","lat":43.29522,"lon":5.39405,"is_reserved":false,"is_disabled":false,"rental_uris":{"android":"levelo://app?vid=26e17979-e227-4224-a529-6170c31c8d09","ios":"levelo://app?vid=26e17979-e227-4224-a529-6170c31c8d09"},"vehicle_type_id":"4","last_reported":1728850147,"current_range_meters":13600,"station_id":"ce4bh292rcd13ifvqdf0","pricing_plan_id":"cebpf4jnsgd1na2vs0mg"},{"bike_id":"64d319f2-164b-4ef6-a30c-055db2ee446a","system_id":"levelo_inurba_marseille","lat":43.24066,"lon":5.37746,"is_reserved":false,"is_disabled":false,"rental_uris":{"android":"levelo://app?vid=64d319f2-164b-4ef6-a30c-055db2ee446a","ios":"levelo://app?vid=64d319f2-164b-4ef6-a30c-055db2ee446a"},"vehicle_type_id":"4","last_reported":1728850147,"current_range_meters":16800,"station_id":"ce4bhnp2rcd13ifvqgvg","pricing_plan_id":"cebpf4jnsgd1na2vs0mg"},{"bike_id":"744d7d46-a030-452d-827a-600610e2a098","system_id":"levelo_inurba_marseille","lat":43.23181,"lon":5.39993,"is_reserved":false,"is_disabled":false,"rental_uris":{"android":"levelo://app?vid=744d7d46-a030-452d-827a-600610e2a098","ios":"levelo://app?vid=744d7d46-a030-452d-827a-600610e2a098"},"vehicle_type_id":"4","last_reported":1728850147,"current_range_meters":32400,"station_id":"ce4bhn12rcd13ifvqgqg","pricing_plan_id":"cebpf4jnsgd1na2vs0mg"},{"bike_id":"1d7c8514-3b2e-4dcc-b5aa-a4976a99ad56","system_id":"levelo_inurba_marseille","lat":43.3085,"lon":5.40265,"is_reserved":false,"is_disabled":false,"rental_uris":{"android":"levelo://app?vid=1d7c8514-3b2e-4dcc-b5aa-a4976a99ad56","ios":"levelo://app?vid=1d7c8514-3b2e-4dcc-b5aa-a4976a99ad56"},"vehicle_type_id":"4","last_reported":1728850147,"current_range_meters":33200,"station_id":"ce4bh512rcd13ifvqe3g","pricing_plan_id":"cebpf4jnsgd1na2vs0mg"},{"bike_id":"2b9d5ece-2a9d-4b1a-9617-6ea2b2ec85b6","system_id":"levelo_inurba_marseille","lat":43.28105,"lon":5.37842,"is_reserved":false,"is_disabled":false,"rental_uris":{"android":"levelo://app?vid=2b9d5ece-2a9d-4b1a-9617-6ea2b2ec85b6","ios":"levelo://app?vid=2b9d5ece-2a9d-4b1a-9617-6ea2b2ec85b6"},"vehicle_type_id":"4","last_reported":1728850147,"current_range_meters":32800,"station_id":"ce4bha12rcd13ifvqee0","pricing_plan_id":"cebpf4jnsgd1na2vs0mg"},{"bike_id":"d04415fa-8238-4ffd-aa80-a12eb9fac1bf","system_id":"levelo_inurba_marseille","lat":43.23154,"lon":5.43715,"is_reserved":false,"is_disabled":false,"rental_uris":{"android":"levelo://app?vid=d04415fa-8238-4ffd-aa80-a12eb9fac1bf","ios":"levelo://app?vid=d04415fa-8238-4ffd-aa80-a12eb9fac1bf"},"vehicle_type_id":"4","last_reported":1728850147,"current_range_meters":12000,"station_id":"ce4bhmp2rcd13ifvqgog","pricing_plan_id":"cebpf4jnsgd1na2vs0mg"},{"bike_id":"5e5f7a3b-041e-4657-b33d-6d761579747d","system_id":"levelo_inurba_marseille","lat":43.33024,"lon":5.39043,"is_reserved":false,"is_disabled":false,"rental_uris":{"android":"levelo://app?vid=5e5f7a3b-041e-4657-b33d-6d761579747d","ios":"levelo://app?vid=5e5f7a3b-041e-4657-b33d-6d761579747d"},"vehicle_type_id":"4","last_reported":1728850147,"current_range_meters":10000,"station_id":"ce4bhr92rcd13ifvqhrg","pricing_plan_id":"cebpf4jnsgd1na2vs0mg"},{"bike_id":"b5c582a8-95a1-4e1f-9296-8a8d7fdd00c0","system_id":"levelo_inurba_marseille","lat":43.29287,"lon":5.4013,"is_reserved":false,"is_disabled":false,"rental_uris":{"android":"levelo://app?vid=b5c582a8-95a1-4e1f-9296-8a8d7fdd00c0","ios":"levelo://app?vid=b5c582a8-95a1-4e1f-9296-8a8d7fdd00c0"},"vehicle_type_id":"4","last_reported":1728850147,"current_range_meters":32000,"station_id":"ce4bh312rcd13ifvqdk0","pricing_plan_id":"cebpf4jnsgd1na2vs0mg"},{"bike_id":"66b7a16e-6796-4981-b35e-3f2cc868af25","system_id":"levelo_inurba_marseille","lat":43.30778,"lon":5.37656,"is_reserved":false,"is_disabled":false,"rental_uris":{"android":"levelo://app?vid=66b7a16e-6796-4981-b35e-3f2cc868af25","ios":"levelo://app?vid=66b7a16e-6796-4981-b35e-3f2cc868af25"},"vehicle_type_id":"4","last_reported":1728850147,"current_range_meters":25200,"station_id":"ce4bgv92rcd13ifvqcq0","pricing_plan_id":"cebpf4jnsgd1na2vs0mg"},{"bike_id":"d36a8747-7e1c-419d-b75f-08f0664b79e7","system_id":"levelo_inurba_marseille","lat":43.31168,"lon":5.38715,"is_reserved":false,"is_disabled":false,"rental_uris":{"android":"levelo://app?vid=d36a8747-7e1c-419d-b75f-08f0664b79e7","ios":"levelo://app?vid=d36a8747-7e1c-419d-b75f-08f0664b79e7"},"vehicle_type_id":"4","last_reported":1728850147,"current_range_meters":39200,"station_id":"ce4bgv12rcd13ifvqcp0","pricing_plan_id":"cebpf4jnsgd1na2vs0mg"},{"bike_id":"a8e39a7f-4f5a-4c0d-8f7f-565bc7eaef1d","system_id":"levelo_inurba_marseille","lat":43.25113,"lon":5.4032,"is_reserved":false,"is_disabled":false,"rental_uris":{"android":"levelo://app?vid=a8e39a7f-4f5a-4c0d-8f7f-565bc7eaef1d","ios":"levelo://app?vid=a8e39a7f-4f5a-4c0d-8f7f-565bc7eaef1d"},"vehicle_type_id":"4","last_reported":1728850147,"current_range_meters":22000,"station_id":"ce4bhlh2rcd13ifvqgig","pricing_plan_id":"cebpf4jnsgd1na2vs0mg"},{"bike_id":"466d4845-9254-4363-a8ce-b6ce0466a8a6","system_id":"levelo_inurba_marseille","lat":43.26681,"lon":5.38271,"is_reserved":false,"is_disabled":false,"rental_uris":{"android":"levelo://app?vid=466d4845-9254-4363-a8ce-b6ce0466a8a6","ios":"levelo://app?vid=466d4845-9254-4363-a8ce-b6ce0466a8a6"},"vehicle_type_id":"4","last_reported":1728850147,"current_range_meters":20000,"station_id":"ce4bhg92rcd13ifvqf90","pricing_plan_id":"cebpf4jnsgd1na2vs0mg"},{"bike_id":"fcd7499d-953e-490c-881b-5e9ac436b014","system_id":"levelo_inurba_marseille","lat":43.29021,"lon":5.38645,"is_reserved":false,"is_disabled":false,"rental_uris":{"android":"levelo://app?vid=fcd7499d-953e-490c-881b-5e9ac436b014","ios":"levelo://app?vid=fcd7499d-953e-490c-881b-5e9ac436b014"},"vehicle_type_id":"4","last_reported":1728850147,"current_range_meters":38800,"station_id":"ce4bh4p2rcd13ifvqe0g","pricing_plan_id":"cebpf4jnsgd1na2vs0mg"},{"bike_id":"35fde30b-18f1-40d2-a58a-67be506fd58d","system_id":"levelo_inurba_marseille","lat":43.27812,"lon":5.40706,"is_reserved":false,"is_disabled":false,"rental_uris":{"android":"levelo://app?vid=35fde30b-18f1-40d2-a58a-67be506fd58d","ios":"levelo://app?vid=35fde30b-18f1-40d2-a58a-67be506fd58d"},"vehicle_type_id":"4","last_reported":1728850147,"current_range_meters":29600,"station_id":"ce4bhnh2rcd13ifvqgtg","pricing_plan_id":"cebpf4jnsgd1na2vs0mg"},{"bike_id":"c370b456-efe8-4bdb-ac9f-5e11062046ae","system_id":"levelo_inurba_marseille","lat":43.26198,"lon":5.37451,"is_reserved":false,"is_disabled":false,"rental_uris":{"android":"levelo://app?vid=c370b456-efe8-4bdb-ac9f-5e11062046ae","ios":"levelo://app?vid=c370b456-efe8-4bdb-ac9f-5e11062046ae"},"vehicle_type_id":"4","last_reported":1728850147,"current_range_meters":30400,"station_id":"ce4bhgp2rcd13ifvqfc0","pricing_plan_id":"cebpf4jnsgd1na2vs0mg"},{"bike_id":"c074db94-e0ff-49df-afe2-4cd4fb4d2847","system_id":"levelo_inurba_marseille","lat":43.24186,"lon":5.39736,"is_reserved":false,"is_disabled":false,"rental_uris":{"android":"levelo://app?vid=c074db94-e0ff-49df-afe2-4cd4fb4d2847","ios":"levelo://app?vid=c074db94-e0ff-49df-afe2-4cd4fb4d2847"},"vehicle_type_id":"4","last_reported":1728850147,"current_range_meters":24800,"station_id":"ce4bhn12rcd13ifvqgpg","pricing_plan_id":"cebpf4jnsgd1na2vs0mg"},{"bike_id":"4886de9b-7d8b-431f-a4eb-cd765d28b62e","system_id":"levelo_inurba_marseille","lat":43.29024,"lon":5.38127,"is_reserved":false,"is_disabled":false,"rental_uris":{"android":"levelo://app?vid=4886de9b-7d8b-431f-a4eb-cd765d28b62e","ios":"levelo://app?vid=4886de9b-7d8b-431f-a4eb-cd765d28b62e"},"vehicle_type_id":"4","last_reported":1728850147,"current_range_meters":38800,"station_id":"ce4bh4p2rcd13ifvqe1g","pricing_plan_id":"cebpf4jnsgd1na2vs0mg"},{"bike_id":"5f929bf7-7967-40d7-b778-c7a2b30d5f8f","system_id":"levelo_inurba_marseille","lat":43.2481,"lon":5.37465,"is_reserved":false,"is_disabled":false,"rental_uris":{"android":"levelo://app?vid=5f929bf7-7967-40d7-b778-c7a2b30d5f8f","ios":"levelo://app?vid=5f929bf7-7967-40d7-b778-c7a2b30d5f8f"},"vehicle_type_id":"4","last_reported":1728850147,"current_range_meters":15200,"station_id":"ce4bhgh2rcd13ifvqfb0","pricing_plan_id":"cebpf4jnsgd1na2vs0mg"},{"bike_id":"5807b78d-00a5-4af6-b7a4-ec73100a9f48","system_id":"levelo_inurba_marseille","lat":43.28408,"lon":5.37522,"is_reserved":false,"is_disabled":false,"rental_uris":{"android":"levelo://app?vid=5807b78d-00a5-4af6-b7a4-ec73100a9f48","ios":"levelo://app?vid=5807b78d-00a5-4af6-b7a4-ec73100a9f48"},"vehicle_type_id":"4","last_reported":1728850147,"current_range_meters":38800,"station_id":"ce4bh412rcd13ifvqds0","pricing_plan_id":"cebpf4jnsgd1na2vs0mg"},{"bike_id":"eccffdca-8ae3-4d1b-8411-c1751546085f","system_id":"levelo_inurba_marseille","lat":43.25855,"lon":5.39907,"is_reserved":false,"is_disabled":false,"rental_uris":{"android":"levelo://app?vid=eccffdca-8ae3-4d1b-8411-c1751546085f","ios":"levelo://app?vid=eccffdca-8ae3-4d1b-8411-c1751546085f"},"vehicle_type_id":"4","last_reported":1728850147,"current_range_meters":31200,"station_id":"ce4bhl92rcd13ifvqghg","pricing_plan_id":"cebpf4jnsgd1na2vs0mg"},{"bike_id":"9d671549-67ad-4eb0-ace0-50f59d8a0c79","system_id":"levelo_inurba_marseille","lat":43.31109,"lon":5.38064,"is_reserved":false,"is_disabled":false,"rental_uris":{"android":"levelo://app?vid=9d671549-67ad-4eb0-ace0-50f59d8a0c79","ios":"levelo://app?vid=9d671549-67ad-4eb0-ace0-50f59d8a0c79"},"vehicle_type_id":"4","last_reported":1728850147,"current_range_meters":22800,"station_id":"ce4bgt92rcd13ifvqcf0","pricing_plan_id":"cebpf4jnsgd1na2vs0mg"},{"bike_id":"d6fe3ccf-2b59-44fa-a0aa-a81cea70046b","system_id":"levelo_inurba_marseille","lat":43.24669,"lon":5.38169,"is_reserved":false,"is_disabled":false,"rental_uris":{"android":"levelo://app?vid=d6fe3ccf-2b59-44fa-a0aa-a81cea70046b","ios":"levelo://app?vid=d6fe3ccf-2b59-44fa-a0aa-a81cea70046b"},"vehicle_type_id":"4","last_reported":1728850147,"current_range_meters":2000,"station_id":"ce4bhih2rcd13ifvqfr0","pricing_plan_id":"cebpf4jnsgd1na2vs0mg"},{"bike_id":"5c639a26-5c91-4b8b-9329-66026ae8437d","system_id":"levelo_inurba_marseille","lat":43.24666,"lon":5.3817,"is_reserved":false,"is_disabled":false,"rental_uris":{"android":"levelo://app?vid=5c639a26-5c91-4b8b-9329-66026ae8437d","ios":"levelo://app?vid=5c639a26-5c91-4b8b-9329-66026ae8437d"},"vehicle_type_id":"4","last_reported":1728850147,"current_range_meters":33600,"station_id":"ce4bhih2rcd13ifvqfr0","pricing_plan_id":"cebpf4jnsgd1na2vs0mg"},{"bike_id":"0a26fd4e-2b9e-420e-ba94-771eedb3f87f","system_id":"levelo_inurba_marseille","lat":43.3249,"lon":5.36556,"is_reserved":false,"is_disabled":false,"rental_uris":{"android":"levelo://app?vid=0a26fd4e-2b9e-420e-ba94-771eedb3f87f","ios":"levelo://app?vid=0a26fd4e-2b9e-420e-ba94-771eedb3f87f"},"vehicle_type_id":"4","last_reported":1728850147,"current_range_meters":35200,"station_id":"ce4bhs12rcd13ifvqhvg","pricing_plan_id":"cebpf4jnsgd1na2vs0mg"},{"bike_id":"3f6ccd2a-c95b-4a9e-af4c-297fbace2f14","system_id":"levelo_inurba_marseille","lat":43.26677,"lon":5.38267,"is_reserved":false,"is_disabled":false,"rental_uris":{"android":"levelo://app?vid=3f6ccd2a-c95b-4a9e-af4c-297fbace2f14","ios":"levelo://app?vid=3f6ccd2a-c95b-4a9e-af4c-297fbace2f14"},"vehicle_type_id":"4","last_reported":1728850147,"current_range_meters":8000,"station_id":"ce4bhg92rcd13ifvqf90","pricing_plan_id":"cebpf4jnsgd1na2vs0mg"},{"bike_id":"00bc3eec-6367-49cf-a034-725d08e1c6b6","system_id":"levelo_inurba_marseille","lat":43.25816,"lon":5.39438,"is_reserved":false,"is_disabled":false,"rental_uris":{"android":"levelo://app?vid=00bc3eec-6367-49cf-a034-725d08e1c6b6","ios":"levelo://app?vid=00bc3eec-6367-49cf-a034-725d08e1c6b6"},"vehicle_type_id":"4","last_reported":1728850147,"current_range_meters":16800,"station_id":"ce4bhip2rcd13ifvqft0","pricing_plan_id":"cebpf4jnsgd1na2vs0mg"},{"bike_id":"e894094d-0cec-4822-9162-c154b2467b0b","system_id":"levelo_inurba_marseille","lat":43.28931,"lon":5.39629,"is_reserved":false,"is_disabled":false,"rental_uris":{"android":"levelo://app?vid=e894094d-0cec-4822-9162-c154b2467b0b","ios":"levelo://app?vid=e894094d-0cec-4822-9162-c154b2467b0b"},"vehicle_type_id":"4","last_reported":1728850147,"current_range_meters":9200,"station_id":"ce4bh3h2rcd13ifvqdn0","pricing_plan_id":"cebpf4jnsgd1na2vs0mg"},{"bike_id":"99e083d6-0a57-49b9-a4c4-5d347875ba02","system_id":"levelo_inurba_marseille","lat":43.29264,"lon":5.409,"is_reserved":false,"is_disabled":false,"rental_uris":{"android":"levelo://app?vid=99e083d6-0a57-49b9-a4c4-5d347875ba02","ios":"levelo://app?vid=99e083d6-0a57-49b9-a4c4-5d347875ba02"},"vehicle_type_id":"4","last_reported":1728850147,"current_range_meters":6800,"station_id":"ce4bh192rcd13ifvqdc0","pricing_plan_id":"cebpf4jnsgd1na2vs0mg"},{"bike_id":"7867d19b-7146-4800-9a5f-6d7683a89477","system_id":"levelo_inurba_marseille","lat":43.255005,"lon":5.376487,"is_reserved":false,"is_disabled":false,"rental_uris":{"android":"levelo://app?vid=7867d19b-7146-4800-9a5f-6d7683a89477","ios":"levelo://app?vid=7867d19b-7146-4800-9a5f-6d7683a89477"},"vehicle_type_id":"4","last_reported":1728850147,"current_range_meters":38000,"station_id":"ce4bhh12rcd13ifvqff0","pricing_plan_id":"cebpf4jnsgd1na2vs0mg"},{"bike_id":"66c9a963-8b9d-417f-b817-8b024026116d","system_id":"levelo_inurba_marseille","lat":43.30598,"lon":5.37215,"is_reserved":false,"is_disabled":false,"rental_uris":{"android":"levelo://app?vid=66c9a963-8b9d-417f-b817-8b024026116d","ios":"levelo://app?vid=66c9a963-8b9d-417f-b817-8b024026116d"},"vehicle_type_id":"4","last_reported":1728850147,"current_range_meters":27600,"station_id":"ce4bgqh2rcd13ifvqc4g","pricing_plan_id":"cebpf4jnsgd1na2vs0mg"},{"bike_id":"b7c37ac6-8b08-4acb-8d86-8cdb738cf50f","system_id":"levelo_inurba_marseille","lat":43.29876,"lon":5.39738,"is_reserved":false,"is_disabled":false,"rental_uris":{"android":"levelo://app?vid=b7c37ac6-8b08-4acb-8d86-8cdb738cf50f","ios":"levelo://app?vid=b7c37ac6-8b08-4acb-8d86-8cdb738cf50f"},"vehicle_type_id":"4","last_reported":1728850147,"current_range_meters":20000,"station_id":"ce4bh0h2rcd13ifvqd50","pricing_plan_id":"cebpf4jnsgd1na2vs0mg"},{"bike_id":"f2aed05e-e968-4827-be28-6f2bbbd590f5","system_id":"levelo_inurba_marseille","lat":43.29932,"lon":5.36553,"is_reserved":false,"is_disabled":false,"rental_uris":{"android":"levelo://app?vid=f2aed05e-e968-4827-be28-6f2bbbd590f5","ios":"levelo://app?vid=f2aed05e-e968-4827-be28-6f2bbbd590f5"},"vehicle_type_id":"4","last_reported":1728850147,"current_range_meters":38400,"station_id":"ce4bgm92rcd13ifvqbr0","pricing_plan_id":"cebpf4jnsgd1na2vs0mg"},{"bike_id":"1ab1653a-0889-48f4-a397-d929d1dee61f","system_id":"levelo_inurba_marseille","lat":43.30465,"lon":5.37899,"is_reserved":false,"is_disabled":false,"rental_uris":{"android":"levelo://app?vid=1ab1653a-0889-48f4-a397-d929d1dee61f","ios":"levelo://app?vid=1ab1653a-0889-48f4-a397-d929d1dee61f"},"vehicle_type_id":"4","last_reported":1728850147,"current_range_meters":38800,"station_id":"ce4bgup2rcd13ifvqcn0","pricing_plan_id":"cebpf4jnsgd1na2vs0mg"},{"bike_id":"96124732-5d93-4162-958b-d7533f5930fa","system_id":"levelo_inurba_marseille","lat":43.28417,"lon":5.37513,"is_reserved":false,"is_disabled":false,"rental_uris":{"android":"levelo://app?vid=96124732-5d93-4162-958b-d7533f5930fa","ios":"levelo://app?vid=96124732-5d93-4162-958b-d7533f5930fa"},"vehicle_type_id":"4","last_reported":1728850147,"current_range_meters":38800,"station_id":"ce4bh412rcd13ifvqds0","pricing_plan_id":"cebpf4jnsgd1na2vs0mg"},{"bike_id":"42cede74-d141-4d6b-a790-a30a9d0f6f40","system_id":"levelo_inurba_marseille","lat":43.31895,"lon":5.40747,"is_reserved":false,"is_disabled":false,"rental_uris":{"android":"levelo://app?vid=42cede74-d141-4d6b-a790-a30a9d0f6f40","ios":"levelo://app?vid=42cede74-d141-4d6b-a790-a30a9d0f6f40"},"vehicle_type_id":"4","last_reported":1728850147,"current_range_meters":23200,"station_id":"ce4bhq12rcd13ifvqhig","pricing_plan_id":"cebpf4jnsgd1na2vs0mg"},{"bike_id":"549d6d74-2989-4262-84f7-d0467c6c02f7","system_id":"levelo_inurba_marseille","lat":43.29897,"lon":5.43669,"is_reserved":false,"is_disabled":false,"rental_uris":{"android":"levelo://app?vid=549d6d74-2989-4262-84f7-d0467c6c02f7","ios":"levelo://app?vid=549d6d74-2989-4262-84f7-d0467c6c02f7"},"vehicle_type_id":"4","last_reported":1728850147,"current_range_meters":16800,"station_id":"ce4bhpp2rcd13ifvqhfg","pricing_plan_id":"cebpf4jnsgd1na2vs0mg"},{"bike_id":"721accb7-e17c-495b-a4c2-eba17e48b5d7","system_id":"levelo_inurba_marseille","lat":43.30591,"lon":5.39363,"is_reserved":false,"is_disabled":false,"rental_uris":{"android":"levelo://app?vid=721accb7-e17c-495b-a4c2-eba17e48b5d7","ios":"levelo://app?vid=721accb7-e17c-495b-a4c2-eba17e48b5d7"},"vehicle_type_id":"4","last_reported":1728850147,"current_range_meters":20400,"station_id":"ce4bh0p2rcd13ifvqd80","pricing_plan_id":"cebpf4jnsgd1na2vs0mg"},{"bike_id":"0128855f-56cf-43ef-ac71-6da6d183781e","system_id":"levelo_inurba_marseille","lat":43.30204,"lon":5.39463,"is_reserved":false,"is_disabled":false,"rental_uris":{"android":"levelo://app?vid=0128855f-56cf-43ef-ac71-6da6d183781e","ios":"levelo://app?vid=0128855f-56cf-43ef-ac71-6da6d183781e"},"vehicle_type_id":"4","last_reported":1728850147,"current_range_meters":7200,"station_id":"ce4bh0p2rcd13ifvqd70","pricing_plan_id":"cebpf4jnsgd1na2vs0mg"},{"bike_id":"402e2b18-2493-4b09-a5dd-0f549fefaf7a","system_id":"levelo_inurba_marseille","lat":43.241399,"lon":5.364293,"is_reserved":false,"is_disabled":false,"rental_uris":{"android":"levelo://app?vid=402e2b18-2493-4b09-a5dd-0f549fefaf7a","ios":"levelo://app?vid=402e2b18-2493-4b09-a5dd-0f549fefaf7a"},"vehicle_type_id":"4","last_reported":1728850147,"current_range_meters":39200,"station_id":"cpo36qri1sfpv3e86is0","pricing_plan_id":"cebpf4jnsgd1na2vs0mg"},{"bike_id":"86f622d8-25af-4828-be66-dd2949a95229","system_id":"levelo_inurba_marseille","lat":43.3133,"lon":5.39699,"is_reserved":false,"is_disabled":false,"rental_uris":{"android":"levelo://app?vid=86f622d8-25af-4828-be66-dd2949a95229","ios":"levelo://app?vid=86f622d8-25af-4828-be66-dd2949a95229"},"vehicle_type_id":"4","last_reported":1728850147,"current_range_meters":38400,"station_id":"ce4bgvp2rcd13ifvqcu0","pricing_plan_id":"cebpf4jnsgd1na2vs0mg"},{"bike_id":"2d5278d7-3129-4eeb-9158-5fbe8076e59b","system_id":"levelo_inurba_marseille","lat":43.28856,"lon":5.39309,"is_reserved":false,"is_disabled":false,"rental_uris":{"android":"levelo://app?vid=2d5278d7-3129-4eeb-9158-5fbe8076e59b","ios":"levelo://app?vid=2d5278d7-3129-4eeb-9158-5fbe8076e59b"},"vehicle_type_id":"4","last_reported":1728850147,"current_range_meters":38800,"station_id":"ce4bh2p2rcd13ifvqdi0","pricing_plan_id":"cebpf4jnsgd1na2vs0mg"},{"bike_id":"c01dd0c7-c31d-44db-9164-5c942f667933","system_id":"levelo_inurba_marseille","lat":43.28856,"lon":5.39313,"is_reserved":false,"is_disabled":false,"rental_uris":{"android":"levelo://app?vid=c01dd0c7-c31d-44db-9164-5c942f667933","ios":"levelo://app?vid=c01dd0c7-c31d-44db-9164-5c942f667933"},"vehicle_type_id":"4","last_reported":1728850147,"current_range_meters":20800,"station_id":"ce4bh2p2rcd13ifvqdi0","pricing_plan_id":"cebpf4jnsgd1na2vs0mg"},{"bike_id":"7563807c-d27a-4161-8a5f-4b0cb3141228","system_id":"levelo_inurba_marseille","lat":43.33731,"lon":5.3918,"is_reserved":false,"is_disabled":false,"rental_uris":{"android":"levelo://app?vid=7563807c-d27a-4161-8a5f-4b0cb3141228","ios":"levelo://app?vid=7563807c-d27a-4161-8a5f-4b0cb3141228"},"vehicle_type_id":"4","last_reported":1728850147,"current_range_meters":38800,"station_id":"ce4bhr92rcd13ifvqhsg","pricing_plan_id":"cebpf4jnsgd1na2vs0mg"},{"bike_id":"5bc9b78b-9615-45c0-a888-79c429dfa74a","system_id":"levelo_inurba_marseille","lat":43.33729,"lon":5.39195,"is_reserved":false,"is_disabled":false,"rental_uris":{"android":"levelo://app?vid=5bc9b78b-9615-45c0-a888-79c429dfa74a","ios":"levelo://app?vid=5bc9b78b-9615-45c0-a888-79c429dfa74a"},"vehicle_type_id":"4","last_reported":1728850147,"current_range_meters":16000,"station_id":"ce4bhr92rcd13ifvqhsg","pricing_plan_id":"cebpf4jnsgd1na2vs0mg"},{"bike_id":"d78c27bf-97c1-420b-82fb-48ca2bea5d28","system_id":"levelo_inurba_marseille","lat":43.26198,"lon":5.37939,"is_reserved":false,"is_disabled":false,"rental_uris":{"android":"levelo://app?vid=d78c27bf-97c1-420b-82fb-48ca2bea5d28","ios":"levelo://app?vid=d78c27bf-97c1-420b-82fb-48ca2bea5d28"},"vehicle_type_id":"4","last_reported":1728850147,"current_range_meters":9200,"station_id":"ce4bhjp2rcd13ifvqg90","pricing_plan_id":"cebpf4jnsgd1na2vs0mg"},{"bike_id":"38f07ed5-0c99-48e1-abbf-f4d75869169c","system_id":"levelo_inurba_marseille","lat":43.28837,"lon":5.39317,"is_reserved":false,"is_disabled":false,"rental_uris":{"android":"levelo://app?vid=38f07ed5-0c99-48e1-abbf-f4d75869169c","ios":"levelo://app?vid=38f07ed5-0c99-48e1-abbf-f4d75869169c"},"vehicle_type_id":"4","last_reported":1728850147,"current_range_meters":38800,"station_id":"ce4bh2p2rcd13ifvqdi0","pricing_plan_id":"cebpf4jnsgd1na2vs0mg"},{"bike_id":"ea01ec7a-7c0c-4b8e-ac56-3690f2c189a3","system_id":"levelo_inurba_marseille","lat":43.26489,"lon":5.39542,"is_reserved":false,"is_disabled":false,"rental_uris":{"android":"levelo://app?vid=ea01ec7a-7c0c-4b8e-ac56-3690f2c189a3","ios":"levelo://app?vid=ea01ec7a-7c0c-4b8e-ac56-3690f2c189a3"},"vehicle_type_id":"4","last_reported":1728850147,"current_range_meters":38400,"station_id":"ce4bhi12rcd13ifvqfq0","pricing_plan_id":"cebpf4jnsgd1na2vs0mg"},{"bike_id":"24ddde74-3313-452c-a8e1-c554fbc08b52","system_id":"levelo_inurba_marseille","lat":43.24662,"lon":5.38173,"is_reserved":false,"is_disabled":false,"rental_uris":{"android":"levelo://app?vid=24ddde74-3313-452c-a8e1-c554fbc08b52","ios":"levelo://app?vid=24ddde74-3313-452c-a8e1-c554fbc08b52"},"vehicle_type_id":"4","last_reported":1728850147,"current_range_meters":28000,"station_id":"ce4bhih2rcd13ifvqfr0","pricing_plan_id":"cebpf4jnsgd1na2vs0mg"},{"bike_id":"45569ff7-7084-4ba3-868c-e6a316b5486d","system_id":"levelo_inurba_marseille","lat":43.29189,"lon":5.39313,"is_reserved":false,"is_disabled":false,"rental_uris":{"android":"levelo://app?vid=45569ff7-7084-4ba3-868c-e6a316b5486d","ios":"levelo://app?vid=45569ff7-7084-4ba3-868c-e6a316b5486d"},"vehicle_type_id":"4","last_reported":1728850147,"current_range_meters":24400,"station_id":"ce4bh192rcd13ifvqdd0","pricing_plan_id":"cebpf4jnsgd1na2vs0mg"},{"bike_id":"23c71265-8147-4a84-9997-56c91275e075","system_id":"levelo_inurba_marseille","lat":43.27904,"lon":5.38012,"is_reserved":false,"is_disabled":false,"rental_uris":{"android":"levelo://app?vid=23c71265-8147-4a84-9997-56c91275e075","ios":"levelo://app?vid=23c71265-8147-4a84-9997-56c91275e075"},"vehicle_type_id":"4","last_reported":1728850147,"current_range_meters":6000,"station_id":"ce4bhf92rcd13ifvqf50","pricing_plan_id":"cebpf4jnsgd1na2vs0mg"},{"bike_id":"0a8ba62f-6ca0-406a-939a-600d3aef1ef5","system_id":"levelo_inurba_marseille","lat":43.29415,"lon":5.38607,"is_reserved":false,"is_disabled":false,"rental_uris":{"android":"levelo://app?vid=0a8ba62f-6ca0-406a-939a-600d3aef1ef5","ios":"levelo://app?vid=0a8ba62f-6ca0-406a-939a-600d3aef1ef5"},"vehicle_type_id":"4","last_reported":1728850147,"current_range_meters":38800,"station_id":"ce4bh2h2rcd13ifvqdh0","pricing_plan_id":"cebpf4jnsgd1na2vs0mg"},{"bike_id":"729b5747-2745-44f4-8e45-767e543cac8a","system_id":"levelo_inurba_marseille","lat":43.33034,"lon":5.38936,"is_reserved":false,"is_disabled":false,"rental_uris":{"android":"levelo://app?vid=729b5747-2745-44f4-8e45-767e543cac8a","ios":"levelo://app?vid=729b5747-2745-44f4-8e45-767e543cac8a"},"vehicle_type_id":"4","last_reported":1728850147,"current_range_meters":36400,"station_id":"","pricing_plan_id":"cebpf4jnsgd1na2vs0mg"},{"bike_id":"2aefec87-76db-4148-be79-3093f38525b3","system_id":"levelo_inurba_marseille","lat":43.29906,"lon":5.37459,"is_reserved":false,"is_disabled":false,"rental_uris":{"android":"levelo://app?vid=2aefec87-76db-4148-be79-3093f38525b3","ios":"levelo://app?vid=2aefec87-76db-4148-be79-3093f38525b3"},"vehicle_type_id":"4","last_reported":1728850147,"current_range_meters":28800,"station_id":"ce4bgjh2rcd13ifvqbg0","pricing_plan_id":"cebpf4jnsgd1na2vs0mg"},{"bike_id":"6a98afc1-6dae-40c7-a24c-079a1265e2b9","system_id":"levelo_inurba_marseille","lat":43.2681,"lon":5.40273,"is_reserved":false,"is_disabled":false,"rental_uris":{"android":"levelo://app?vid=6a98afc1-6dae-40c7-a24c-079a1265e2b9","ios":"levelo://app?vid=6a98afc1-6dae-40c7-a24c-079a1265e2b9"},"vehicle_type_id":"4","last_reported":1728850147,"current_range_meters":25200,"station_id":"ce501612rcd8frsf0b60","pricing_plan_id":"cebpf4jnsgd1na2vs0mg"},{"bike_id":"91f6673b-90a8-411d-99db-7565c73ddd0e","system_id":"levelo_inurba_marseille","lat":43.33023,"lon":5.39042,"is_reserved":false,"is_disabled":false,"rental_uris":{"android":"levelo://app?vid=91f6673b-90a8-411d-99db-7565c73ddd0e","ios":"levelo://app?vid=91f6673b-90a8-411d-99db-7565c73ddd0e"},"vehicle_type_id":"4","last_reported":1728850147,"current_range_meters":26800,"station_id":"ce4bhr92rcd13ifvqhrg","pricing_plan_id":"cebpf4jnsgd1na2vs0mg"},{"bike_id":"62b35810-2788-484a-8c4e-b06cc56a6d95","system_id":"levelo_inurba_marseille","lat":43.28455,"lon":5.3589,"is_reserved":false,"is_disabled":false,"rental_uris":{"android":"levelo://app?vid=62b35810-2788-484a-8c4e-b06cc56a6d95","ios":"levelo://app?vid=62b35810-2788-484a-8c4e-b06cc56a6d95"},"vehicle_type_id":"4","last_reported":1728850147,"current_range_meters":4400,"station_id":"ce4bhah2rcd13ifvqei0","pricing_plan_id":"cebpf4jnsgd1na2vs0mg"},{"bike_id":"afea3eb7-9a7f-47fd-bfb9-8123997f3fda","system_id":"levelo_inurba_marseille","lat":43.29021,"lon":5.38639,"is_reserved":false,"is_disabled":false,"rental_uris":{"android":"levelo://app?vid=afea3eb7-9a7f-47fd-bfb9-8123997f3fda","ios":"levelo://app?vid=afea3eb7-9a7f-47fd-bfb9-8123997f3fda"},"vehicle_type_id":"4","last_reported":1728850147,"current_range_meters":39200,"station_id":"ce4bh4p2rcd13ifvqe0g","pricing_plan_id":"cebpf4jnsgd1na2vs0mg"},{"bike_id":"731e188b-6905-450f-bc90-b79536156775","system_id":"levelo_inurba_marseille","lat":43.30948,"lon":5.3904,"is_reserved":false,"is_disabled":false,"rental_uris":{"android":"levelo://app?vid=731e188b-6905-450f-bc90-b79536156775","ios":"levelo://app?vid=731e188b-6905-450f-bc90-b79536156775"},"vehicle_type_id":"4","last_reported":1728850147,"current_range_meters":19600,"station_id":"ce4bgup2rcd13ifvqco0","pricing_plan_id":"cebpf4jnsgd1na2vs0mg"},{"bike_id":"cca9e306-dfac-4770-8b90-8c428560eac8","system_id":"levelo_inurba_marseille","lat":43.29446,"lon":5.39749,"is_reserved":false,"is_disabled":false,"rental_uris":{"android":"levelo://app?vid=cca9e306-dfac-4770-8b90-8c428560eac8","ios":"levelo://app?vid=cca9e306-dfac-4770-8b90-8c428560eac8"},"vehicle_type_id":"4","last_reported":1728850147,"current_range_meters":18000,"station_id":"ce4bh3h2rcd13ifvqdo0","pricing_plan_id":"cebpf4jnsgd1na2vs0mg"},{"bike_id":"dc82ed02-331a-41ef-a548-b054919d66d3","system_id":"levelo_inurba_marseille","lat":43.24179,"lon":5.3973,"is_reserved":false,"is_disabled":false,"rental_uris":{"android":"levelo://app?vid=dc82ed02-331a-41ef-a548-b054919d66d3","ios":"levelo://app?vid=dc82ed02-331a-41ef-a548-b054919d66d3"},"vehicle_type_id":"4","last_reported":1728850147,"current_range_meters":2800,"station_id":"ce4bhn12rcd13ifvqgpg","pricing_plan_id":"cebpf4jnsgd1na2vs0mg"},{"bike_id":"6f7399da-6330-407f-b021-d53846382c0f","system_id":"levelo_inurba_marseille","lat":43.25001,"lon":5.38928,"is_reserved":false,"is_disabled":false,"rental_uris":{"android":"levelo://app?vid=6f7399da-6330-407f-b021-d53846382c0f","ios":"levelo://app?vid=6f7399da-6330-407f-b021-d53846382c0f"},"vehicle_type_id":"4","last_reported":1728850147,"current_range_meters":22000,"station_id":"ce4bhgp2rcd13ifvqfd0","pricing_plan_id":"cebpf4jnsgd1na2vs0mg"},{"bike_id":"2ab423a0-58a0-4125-b3de-29c6611f5114","system_id":"levelo_inurba_marseille","lat":43.25086,"lon":5.39519,"is_reserved":false,"is_disabled":false,"rental_uris":{"android":"levelo://app?vid=2ab423a0-58a0-4125-b3de-29c6611f5114","ios":"levelo://app?vid=2ab423a0-58a0-4125-b3de-29c6611f5114"},"vehicle_type_id":"4","last_reported":1728850147,"current_range_meters":38800,"station_id":"ce4bhm12rcd13ifvqgkg","pricing_plan_id":"cebpf4jnsgd1na2vs0mg"},{"bike_id":"1f535ebf-e182-4b2e-b9aa-c39959f8ac74","system_id":"levelo_inurba_marseille","lat":43.289357,"lon":5.396365,"is_reserved":false,"is_disabled":false,"rental_uris":{"android":"levelo://app?vid=1f535ebf-e182-4b2e-b9aa-c39959f8ac74","ios":"levelo://app?vid=1f535ebf-e182-4b2e-b9aa-c39959f8ac74"},"vehicle_type_id":"4","last_reported":1728850147,"current_range_meters":38800,"station_id":"ce4bh3h2rcd13ifvqdn0","pricing_plan_id":"cebpf4jnsgd1na2vs0mg"},{"bike_id":"07d73340-7ed3-4a41-8206-1cf8e2855908","system_id":"levelo_inurba_marseille","lat":43.29449,"lon":5.39744,"is_reserved":false,"is_disabled":false,"rental_uris":{"android":"levelo://app?vid=07d73340-7ed3-4a41-8206-1cf8e2855908","ios":"levelo://app?vid=07d73340-7ed3-4a41-8206-1cf8e2855908"},"vehicle_type_id":"4","last_reported":1728850147,"current_range_meters":27200,"station_id":"ce4bh3h2rcd13ifvqdo0","pricing_plan_id":"cebpf4jnsgd1na2vs0mg"},{"bike_id":"2e456db8-1a5f-41a3-b523-53ecee8f12dc","system_id":"levelo_inurba_marseille","lat":43.30596,"lon":5.37213,"is_reserved":false,"is_disabled":false,"rental_uris":{"android":"levelo://app?vid=2e456db8-1a5f-41a3-b523-53ecee8f12dc","ios":"levelo://app?vid=2e456db8-1a5f-41a3-b523-53ecee8f12dc"},"vehicle_type_id":"4","last_reported":1728850147,"current_range_meters":38800,"station_id":"ce4bgqh2rcd13ifvqc4g","pricing_plan_id":"cebpf4jnsgd1na2vs0mg"},{"bike_id":"699451ba-dba1-4cc7-b931-20482fc283a8","system_id":"levelo_inurba_marseille","lat":43.30649,"lon":5.40088,"is_reserved":false,"is_disabled":false,"rental_uris":{"android":"levelo://app?vid=699451ba-dba1-4cc7-b931-20482fc283a8","ios":"levelo://app?vid=699451ba-dba1-4cc7-b931-20482fc283a8"},"vehicle_type_id":"4","last_reported":1728850147,"current_range_meters":32800,"station_id":"ce4bh112rcd13ifvqda0","pricing_plan_id":"cebpf4jnsgd1na2vs0mg"},{"bike_id":"1b8c6c6d-1fe9-48ef-81fc-2e3864db520f","system_id":"levelo_inurba_marseille","lat":43.29557,"lon":5.42298,"is_reserved":false,"is_disabled":false,"rental_uris":{"android":"levelo://app?vid=1b8c6c6d-1fe9-48ef-81fc-2e3864db520f","ios":"levelo://app?vid=1b8c6c6d-1fe9-48ef-81fc-2e3864db520f"},"vehicle_type_id":"4","last_reported":1728850147,"current_range_meters":38400,"station_id":"ce4bhph2rcd13ifvqhdg","pricing_plan_id":"cebpf4jnsgd1na2vs0mg"},{"bike_id":"debe48d7-7243-499e-96d3-0b5e1402766d","system_id":"levelo_inurba_marseille","lat":43.29191,"lon":5.35804,"is_reserved":false,"is_disabled":false,"rental_uris":{"android":"levelo://app?vid=debe48d7-7243-499e-96d3-0b5e1402766d","ios":"levelo://app?vid=debe48d7-7243-499e-96d3-0b5e1402766d"},"vehicle_type_id":"4","last_reported":1728850147,"current_range_meters":12400,"station_id":"ce4bhb12rcd13ifvqel0","pricing_plan_id":"cebpf4jnsgd1na2vs0mg"},{"bike_id":"ca888b5b-f95e-4ccd-b158-a1e69abb200b","system_id":"levelo_inurba_marseille","lat":43.29024,"lon":5.38645,"is_reserved":false,"is_disabled":false,"rental_uris":{"android":"levelo://app?vid=ca888b5b-f95e-4ccd-b158-a1e69abb200b","ios":"levelo://app?vid=ca888b5b-f95e-4ccd-b158-a1e69abb200b"},"vehicle_type_id":"4","last_reported":1728850147,"current_range_meters":12400,"station_id":"ce4bh4p2rcd13ifvqe0g","pricing_plan_id":"cebpf4jnsgd1na2vs0mg"},{"bike_id":"6079e7aa-0ee6-4d31-aa0e-861f57578c9f","system_id":"levelo_inurba_marseille","lat":43.28925,"lon":5.36401,"is_reserved":false,"is_disabled":false,"rental_uris":{"android":"levelo://app?vid=6079e7aa-0ee6-4d31-aa0e-861f57578c9f","ios":"levelo://app?vid=6079e7aa-0ee6-4d31-aa0e-861f57578c9f"},"vehicle_type_id":"4","last_reported":1728850147,"current_range_meters":38800,"station_id":"ce4bhc92rcd13ifvqetg","pricing_plan_id":"cebpf4jnsgd1na2vs0mg"},{"bike_id":"d7ed9a21-0e85-466b-84e2-bc5a3810ccb9","system_id":"levelo_inurba_marseille","lat":43.28416,"lon":5.37526,"is_reserved":false,"is_disabled":false,"rental_uris":{"android":"levelo://app?vid=d7ed9a21-0e85-466b-84e2-bc5a3810ccb9","ios":"levelo://app?vid=d7ed9a21-0e85-466b-84e2-bc5a3810ccb9"},"vehicle_type_id":"4","last_reported":1728850147,"current_range_meters":8000,"station_id":"ce4bh412rcd13ifvqds0","pricing_plan_id":"cebpf4jnsgd1na2vs0mg"},{"bike_id":"ec2f5956-0bd0-4154-8f53-b28cdc549918","system_id":"levelo_inurba_marseille","lat":43.32366,"lon":5.38886,"is_reserved":false,"is_disabled":false,"rental_uris":{"android":"levelo://app?vid=ec2f5956-0bd0-4154-8f53-b28cdc549918","ios":"levelo://app?vid=ec2f5956-0bd0-4154-8f53-b28cdc549918"},"vehicle_type_id":"4","last_reported":1728850147,"current_range_meters":6800,"station_id":"ce4bhqp2rcd13ifvqhog","pricing_plan_id":"cebpf4jnsgd1na2vs0mg"},{"bike_id":"a9d5587c-1809-4b1f-a195-4d440a10f784","system_id":"levelo_inurba_marseille","lat":43.2953,"lon":5.38549,"is_reserved":false,"is_disabled":false,"rental_uris":{"android":"levelo://app?vid=a9d5587c-1809-4b1f-a195-4d440a10f784","ios":"levelo://app?vid=a9d5587c-1809-4b1f-a195-4d440a10f784"},"vehicle_type_id":"4","last_reported":1728850147,"current_range_meters":30800,"station_id":"ce4bgih2rcd13ifvqba0","pricing_plan_id":"cebpf4jnsgd1na2vs0mg"},{"bike_id":"c5e1c5f0-4d0d-43b4-a5ce-bda7a5679e5e","system_id":"levelo_inurba_marseille","lat":43.30937,"lon":5.40142,"is_reserved":false,"is_disabled":false,"rental_uris":{"android":"levelo://app?vid=c5e1c5f0-4d0d-43b4-a5ce-bda7a5679e5e","ios":"levelo://app?vid=c5e1c5f0-4d0d-43b4-a5ce-bda7a5679e5e"},"vehicle_type_id":"4","last_reported":1728850147,"current_range_meters":18000,"station_id":"ce4bgvp2rcd13ifvqct0","pricing_plan_id":"cebpf4jnsgd1na2vs0mg"},{"bike_id":"27e30b31-ae65-40a7-9382-c3f316db6b2b","system_id":"levelo_inurba_marseille","lat":43.31075,"lon":5.38361,"is_reserved":false,"is_disabled":false,"rental_uris":{"android":"levelo://app?vid=27e30b31-ae65-40a7-9382-c3f316db6b2b","ios":"levelo://app?vid=27e30b31-ae65-40a7-9382-c3f316db6b2b"},"vehicle_type_id":"4","last_reported":1728850147,"current_range_meters":38800,"station_id":"ce4bgv92rcd13ifvqcr0","pricing_plan_id":"cebpf4jnsgd1na2vs0mg"},{"bike_id":"7c095d3c-604a-4602-b927-64e3a8b70e01","system_id":"levelo_inurba_marseille","lat":43.29032,"lon":5.37567,"is_reserved":false,"is_disabled":false,"rental_uris":{"android":"levelo://app?vid=7c095d3c-604a-4602-b927-64e3a8b70e01","ios":"levelo://app?vid=7c095d3c-604a-4602-b927-64e3a8b70e01"},"vehicle_type_id":"4","last_reported":1728850147,"current_range_meters":33600,"station_id":"ce4bh692rcd13ifvqe90","pricing_plan_id":"cebpf4jnsgd1na2vs0mg"},{"bike_id":"cdde71fa-933f-47ef-8a23-39142a076aea","system_id":"levelo_inurba_marseille","lat":43.29548,"lon":5.42296,"is_reserved":false,"is_disabled":false,"rental_uris":{"android":"levelo://app?vid=cdde71fa-933f-47ef-8a23-39142a076aea","ios":"levelo://app?vid=cdde71fa-933f-47ef-8a23-39142a076aea"},"vehicle_type_id":"4","last_reported":1728850147,"current_range_meters":38800,"station_id":"ce4bhph2rcd13ifvqhdg","pricing_plan_id":"cebpf4jnsgd1na2vs0mg"},{"bike_id":"aae33064-4853-4bd5-9ae9-1d2a4ee45368","system_id":"levelo_inurba_marseille","lat":43.24169,"lon":5.36402,"is_reserved":false,"is_disabled":false,"rental_uris":{"android":"levelo://app?vid=aae33064-4853-4bd5-9ae9-1d2a4ee45368","ios":"levelo://app?vid=aae33064-4853-4bd5-9ae9-1d2a4ee45368"},"vehicle_type_id":"4","last_reported":1728850147,"current_range_meters":34000,"station_id":"cpo36qri1sfpv3e86is0","pricing_plan_id":"cebpf4jnsgd1na2vs0mg"},{"bike_id":"b5cae436-31ab-4555-b7a4-4b20b76ab266","system_id":"levelo_inurba_marseille","lat":43.25835,"lon":5.39954,"is_reserved":false,"is_disabled":false,"rental_uris":{"android":"levelo://app?vid=b5cae436-31ab-4555-b7a4-4b20b76ab266","ios":"levelo://app?vid=b5cae436-31ab-4555-b7a4-4b20b76ab266"},"vehicle_type_id":"4","last_reported":1728850147,"current_range_meters":11200,"station_id":"ce4bhkp2rcd13ifvqgd0","pricing_plan_id":"cebpf4jnsgd1na2vs0mg"},{"bike_id":"c6404aaf-3bb5-4720-a1ff-7bac104adc53","system_id":"levelo_inurba_marseille","lat":43.31265,"lon":5.40172,"is_reserved":false,"is_disabled":false,"rental_uris":{"android":"levelo://app?vid=c6404aaf-3bb5-4720-a1ff-7bac104adc53","ios":"levelo://app?vid=c6404aaf-3bb5-4720-a1ff-7bac104adc53"},"vehicle_type_id":"4","last_reported":1728850147,"current_range_meters":28000,"station_id":"ce4bh092rcd13ifvqd30","pricing_plan_id":"cebpf4jnsgd1na2vs0mg"},{"bike_id":"9d478290-d007-4292-bc2e-170e50b123b0","system_id":"levelo_inurba_marseille","lat":43.28712,"lon":5.37944,"is_reserved":false,"is_disabled":false,"rental_uris":{"android":"levelo://app?vid=9d478290-d007-4292-bc2e-170e50b123b0","ios":"levelo://app?vid=9d478290-d007-4292-bc2e-170e50b123b0"},"vehicle_type_id":"4","last_reported":1728850147,"current_range_meters":38800,"station_id":"ce4bh9p2rcd13ifvqec0","pricing_plan_id":"cebpf4jnsgd1na2vs0mg"},{"bike_id":"2a6776f7-8fbb-471b-b4bd-1e393ab401a3","system_id":"levelo_inurba_marseille","lat":43.2952,"lon":5.39407,"is_reserved":false,"is_disabled":false,"rental_uris":{"android":"levelo://app?vid=2a6776f7-8fbb-471b-b4bd-1e393ab401a3","ios":"levelo://app?vid=2a6776f7-8fbb-471b-b4bd-1e393ab401a3"},"vehicle_type_id":"4","last_reported":1728850147,"current_range_meters":38800,"station_id":"ce4bh292rcd13ifvqdf0","pricing_plan_id":"cebpf4jnsgd1na2vs0mg"},{"bike_id":"d25140cc-e8b2-4d8f-a8c2-7ddcc355039b","system_id":"levelo_inurba_marseille","lat":43.31177,"lon":5.38715,"is_reserved":false,"is_disabled":false,"rental_uris":{"android":"levelo://app?vid=d25140cc-e8b2-4d8f-a8c2-7ddcc355039b","ios":"levelo://app?vid=d25140cc-e8b2-4d8f-a8c2-7ddcc355039b"},"vehicle_type_id":"4","last_reported":1728850147,"current_range_meters":14000,"station_id":"ce4bgv12rcd13ifvqcp0","pricing_plan_id":"cebpf4jnsgd1na2vs0mg"},{"bike_id":"aad69708-28ac-43e6-945e-619f5a7c6bfd","system_id":"levelo_inurba_marseille","lat":43.33781,"lon":5.37443,"is_reserved":false,"is_disabled":false,"rental_uris":{"android":"levelo://app?vid=aad69708-28ac-43e6-945e-619f5a7c6bfd","ios":"levelo://app?vid=aad69708-28ac-43e6-945e-619f5a7c6bfd"},"vehicle_type_id":"4","last_reported":1728850147,"current_range_meters":32400,"station_id":"","pricing_plan_id":"cebpf4jnsgd1na2vs0mg"},{"bike_id":"ce666276-9867-42a9-ac83-fe792af6c036","system_id":"levelo_inurba_marseille","lat":43.28715,"lon":5.37388,"is_reserved":false,"is_disabled":false,"rental_uris":{"android":"levelo://app?vid=ce666276-9867-42a9-ac83-fe792af6c036","ios":"levelo://app?vid=ce666276-9867-42a9-ac83-fe792af6c036"},"vehicle_type_id":"4","last_reported":1728850147,"current_range_meters":38800,"station_id":"ce4bh3p2rcd13ifvqdq0","pricing_plan_id":"cebpf4jnsgd1na2vs0mg"},{"bike_id":"841293c7-ec56-4989-8c5a-c737371ba188","system_id":"levelo_inurba_marseille","lat":43.29978,"lon":5.38494,"is_reserved":false,"is_disabled":false,"rental_uris":{"android":"levelo://app?vid=841293c7-ec56-4989-8c5a-c737371ba188","ios":"levelo://app?vid=841293c7-ec56-4989-8c5a-c737371ba188"},"vehicle_type_id":"4","last_reported":1728850147,"current_range_meters":38400,"station_id":"ce4bgj92rcd13ifvqbd0","pricing_plan_id":"cebpf4jnsgd1na2vs0mg"},{"bike_id":"1434b983-f7f2-4952-9578-3b4de6cb87c7","system_id":"levelo_inurba_marseille","lat":43.28413,"lon":5.3752,"is_reserved":false,"is_disabled":false,"rental_uris":{"android":"levelo://app?vid=1434b983-f7f2-4952-9578-3b4de6cb87c7","ios":"levelo://app?vid=1434b983-f7f2-4952-9578-3b4de6cb87c7"},"vehicle_type_id":"4","last_reported":1728850147,"current_range_meters":26000,"station_id":"ce4bh412rcd13ifvqds0","pricing_plan_id":"cebpf4jnsgd1na2vs0mg"},{"bike_id":"a5a12f32-6d03-4bc1-a4d6-e85fc191b1c3","system_id":"levelo_inurba_marseille","lat":43.32486,"lon":5.36572,"is_reserved":false,"is_disabled":false,"rental_uris":{"android":"levelo://app?vid=a5a12f32-6d03-4bc1-a4d6-e85fc191b1c3","ios":"levelo://app?vid=a5a12f32-6d03-4bc1-a4d6-e85fc191b1c3"},"vehicle_type_id":"4","last_reported":1728850147,"current_range_meters":14800,"station_id":"ce4bhs12rcd13ifvqhvg","pricing_plan_id":"cebpf4jnsgd1na2vs0mg"},{"bike_id":"92ffd6bd-fff3-48de-962d-2fccf89bc6a0","system_id":"levelo_inurba_marseille","lat":43.301462,"lon":5.380795,"is_reserved":false,"is_disabled":false,"rental_uris":{"android":"levelo://app?vid=92ffd6bd-fff3-48de-962d-2fccf89bc6a0","ios":"levelo://app?vid=92ffd6bd-fff3-48de-962d-2fccf89bc6a0"},"vehicle_type_id":"4","last_reported":1728850147,"current_range_meters":16000,"station_id":"ce4bh412rcd13ifvqdr0","pricing_plan_id":"cebpf4jnsgd1na2vs0mg"},{"bike_id":"4784da5a-1039-4a03-9d72-2f14d1e78933","system_id":"levelo_inurba_marseille","lat":43.29254,"lon":5.38448,"is_reserved":false,"is_disabled":false,"rental_uris":{"android":"levelo://app?vid=4784da5a-1039-4a03-9d72-2f14d1e78933","ios":"levelo://app?vid=4784da5a-1039-4a03-9d72-2f14d1e78933"},"vehicle_type_id":"4","last_reported":1728850147,"current_range_meters":27200,"station_id":"ce4bh692rcd13ifvqea0","pricing_plan_id":"cebpf4jnsgd1na2vs0mg"},{"bike_id":"d8fedf47-a563-433a-905f-afad50f6dc0c","system_id":"levelo_inurba_marseille","lat":43.30886,"lon":5.39662,"is_reserved":false,"is_disabled":false,"rental_uris":{"android":"levelo://app?vid=d8fedf47-a563-433a-905f-afad50f6dc0c","ios":"levelo://app?vid=d8fedf47-a563-433a-905f-afad50f6dc0c"},"vehicle_type_id":"4","last_reported":1728850147,"current_range_meters":12800,"station_id":"ce4bh012rcd13ifvqcv0","pricing_plan_id":"cebpf4jnsgd1na2vs0mg"},{"bike_id":"aa89d08a-5963-4b35-9285-53c0ad4f999f","system_id":"levelo_inurba_marseille","lat":43.24077,"lon":5.37761,"is_reserved":false,"is_disabled":false,"rental_uris":{"android":"levelo://app?vid=aa89d08a-5963-4b35-9285-53c0ad4f999f","ios":"levelo://app?vid=aa89d08a-5963-4b35-9285-53c0ad4f999f"},"vehicle_type_id":"4","last_reported":1728850147,"current_range_meters":22800,"station_id":"ce4bhnp2rcd13ifvqgvg","pricing_plan_id":"cebpf4jnsgd1na2vs0mg"},{"bike_id":"96dead0d-2dfd-4594-8b56-f4562f0a3f62","system_id":"levelo_inurba_marseille","lat":43.28722,"lon":5.37927,"is_reserved":false,"is_disabled":false,"rental_uris":{"android":"levelo://app?vid=96dead0d-2dfd-4594-8b56-f4562f0a3f62","ios":"levelo://app?vid=96dead0d-2dfd-4594-8b56-f4562f0a3f62"},"vehicle_type_id":"4","last_reported":1728850147,"current_range_meters":38800,"station_id":"ce4bh9p2rcd13ifvqec0","pricing_plan_id":"cebpf4jnsgd1na2vs0mg"},{"bike_id":"ddacf8d8-b58c-4afb-a942-bf393d2b0809","system_id":"levelo_inurba_marseille","lat":43.31683,"lon":5.4048,"is_reserved":false,"is_disabled":false,"rental_uris":{"android":"levelo://app?vid=ddacf8d8-b58c-4afb-a942-bf393d2b0809","ios":"levelo://app?vid=ddacf8d8-b58c-4afb-a942-bf393d2b0809"},"vehicle_type_id":"4","last_reported":1728850147,"current_range_meters":19600,"station_id":"ce4bh012rcd13ifvqd00","pricing_plan_id":"cebpf4jnsgd1na2vs0mg"},{"bike_id":"cca7b7b4-32ea-44b5-9202-6772bbe95850","system_id":"levelo_inurba_marseille","lat":43.30127,"lon":5.39865,"is_reserved":false,"is_disabled":false,"rental_uris":{"android":"levelo://app?vid=cca7b7b4-32ea-44b5-9202-6772bbe95850","ios":"levelo://app?vid=cca7b7b4-32ea-44b5-9202-6772bbe95850"},"vehicle_type_id":"4","last_reported":1728850147,"current_range_meters":24400,"station_id":"ce4bh0h2rcd13ifvqd40","pricing_plan_id":"cebpf4jnsgd1na2vs0mg"},{"bike_id":"3f70e44b-f618-4ac7-94a7-2f19f9425572","system_id":"levelo_inurba_marseille","lat":43.289368,"lon":5.364488,"is_reserved":false,"is_disabled":false,"rental_uris":{"android":"levelo://app?vid=3f70e44b-f618-4ac7-94a7-2f19f9425572","ios":"levelo://app?vid=3f70e44b-f618-4ac7-94a7-2f19f9425572"},"vehicle_type_id":"4","last_reported":1728850147,"current_range_meters":6000,"station_id":"ce4bhc92rcd13ifvqetg","pricing_plan_id":"cebpf4jnsgd1na2vs0mg"},{"bike_id":"27311a75-ebb6-43d6-9fb5-f3ba72a10e0e","system_id":"levelo_inurba_marseille","lat":43.299,"lon":5.4367,"is_reserved":false,"is_disabled":false,"rental_uris":{"android":"levelo://app?vid=27311a75-ebb6-43d6-9fb5-f3ba72a10e0e","ios":"levelo://app?vid=27311a75-ebb6-43d6-9fb5-f3ba72a10e0e"},"vehicle_type_id":"4","last_reported":1728850147,"current_range_meters":17200,"station_id":"ce4bhpp2rcd13ifvqhfg","pricing_plan_id":"cebpf4jnsgd1na2vs0mg"},{"bike_id":"69abce81-e3c9-4d48-a484-abbd68ce60ce","system_id":"levelo_inurba_marseille","lat":43.31714,"lon":5.37726,"is_reserved":false,"is_disabled":false,"rental_uris":{"android":"levelo://app?vid=69abce81-e3c9-4d48-a484-abbd68ce60ce","ios":"levelo://app?vid=69abce81-e3c9-4d48-a484-abbd68ce60ce"},"vehicle_type_id":"4","last_reported":1728850147,"current_range_meters":14000,"station_id":"ce4bgth2rcd13ifvqch0","pricing_plan_id":"cebpf4jnsgd1na2vs0mg"},{"bike_id":"9b8b60d3-4254-4126-9986-1282f961db32","system_id":"levelo_inurba_marseille","lat":43.27939,"lon":5.41041,"is_reserved":false,"is_disabled":false,"rental_uris":{"android":"levelo://app?vid=9b8b60d3-4254-4126-9986-1282f961db32","ios":"levelo://app?vid=9b8b60d3-4254-4126-9986-1282f961db32"},"vehicle_type_id":"4","last_reported":1728850147,"current_range_meters":3600,"station_id":"ce4bhnp2rcd13ifvqh0g","pricing_plan_id":"cebpf4jnsgd1na2vs0mg"},{"bike_id":"d9ca6657-5c38-4668-9364-91a7b0db84ca","system_id":"levelo_inurba_marseille","lat":43.29578,"lon":5.39975,"is_reserved":false,"is_disabled":false,"rental_uris":{"android":"levelo://app?vid=d9ca6657-5c38-4668-9364-91a7b0db84ca","ios":"levelo://app?vid=d9ca6657-5c38-4668-9364-91a7b0db84ca"},"vehicle_type_id":"4","last_reported":1728850147,"current_range_meters":28400,"station_id":"ce4bh312rcd13ifvqdj0","pricing_plan_id":"cebpf4jnsgd1na2vs0mg"},{"bike_id":"c946666b-a4a8-4403-b3ba-558df179e65c","system_id":"levelo_inurba_marseille","lat":43.27992,"lon":5.4166,"is_reserved":false,"is_disabled":false,"rental_uris":{"android":"levelo://app?vid=c946666b-a4a8-4403-b3ba-558df179e65c","ios":"levelo://app?vid=c946666b-a4a8-4403-b3ba-558df179e65c"},"vehicle_type_id":"4","last_reported":1728850147,"current_range_meters":36800,"station_id":"ce4bho12rcd13ifvqh1g","pricing_plan_id":"cebpf4jnsgd1na2vs0mg"},{"bike_id":"3a98c1b2-ae1c-487c-bdee-b42b4cfae7b2","system_id":"levelo_inurba_marseille","lat":43.33027,"lon":5.39041,"is_reserved":false,"is_disabled":false,"rental_uris":{"android":"levelo://app?vid=3a98c1b2-ae1c-487c-bdee-b42b4cfae7b2","ios":"levelo://app?vid=3a98c1b2-ae1c-487c-bdee-b42b4cfae7b2"},"vehicle_type_id":"4","last_reported":1728850147,"current_range_meters":38800,"station_id":"ce4bhr92rcd13ifvqhrg","pricing_plan_id":"cebpf4jnsgd1na2vs0mg"},{"bike_id":"d57d8f5d-3ba8-4252-893a-5a9f4134007c","system_id":"levelo_inurba_marseille","lat":43.28852,"lon":5.39316,"is_reserved":false,"is_disabled":false,"rental_uris":{"android":"levelo://app?vid=d57d8f5d-3ba8-4252-893a-5a9f4134007c","ios":"levelo://app?vid=d57d8f5d-3ba8-4252-893a-5a9f4134007c"},"vehicle_type_id":"4","last_reported":1728850147,"current_range_meters":38800,"station_id":"ce4bh2p2rcd13ifvqdi0","pricing_plan_id":"cebpf4jnsgd1na2vs0mg"},{"bike_id":"3da8380e-f0e2-4dc4-920f-90d2e3f6e9e7","system_id":"levelo_inurba_marseille","lat":43.28711,"lon":5.37388,"is_reserved":false,"is_disabled":false,"rental_uris":{"android":"levelo://app?vid=3da8380e-f0e2-4dc4-920f-90d2e3f6e9e7","ios":"levelo://app?vid=3da8380e-f0e2-4dc4-920f-90d2e3f6e9e7"},"vehicle_type_id":"4","last_reported":1728850147,"current_range_meters":39200,"station_id":"ce4bh3p2rcd13ifvqdq0","pricing_plan_id":"cebpf4jnsgd1na2vs0mg"},{"bike_id":"cba59919-95e6-42ff-83c9-6bcf45674d60","system_id":"levelo_inurba_marseille","lat":43.32336,"lon":5.38328,"is_reserved":false,"is_disabled":false,"rental_uris":{"android":"levelo://app?vid=cba59919-95e6-42ff-83c9-6bcf45674d60","ios":"levelo://app?vid=cba59919-95e6-42ff-83c9-6bcf45674d60"},"vehicle_type_id":"4","last_reported":1728850147,"current_range_meters":38400,"station_id":"","pricing_plan_id":"cebpf4jnsgd1na2vs0mg"},{"bike_id":"46563269-f762-482b-8339-c78216b1c25c","system_id":"levelo_inurba_marseille","lat":43.30641,"lon":5.40092,"is_reserved":false,"is_disabled":false,"rental_uris":{"android":"levelo://app?vid=46563269-f762-482b-8339-c78216b1c25c","ios":"levelo://app?vid=46563269-f762-482b-8339-c78216b1c25c"},"vehicle_type_id":"4","last_reported":1728850147,"current_range_meters":32800,"station_id":"ce4bh112rcd13ifvqda0","pricing_plan_id":"cebpf4jnsgd1na2vs0mg"},{"bike_id":"7bb8dd42-ccfa-4f59-a616-58fbc5c89801","system_id":"levelo_inurba_marseille","lat":43.30551,"lon":5.38424,"is_reserved":false,"is_disabled":false,"rental_uris":{"android":"levelo://app?vid=7bb8dd42-ccfa-4f59-a616-58fbc5c89801","ios":"levelo://app?vid=7bb8dd42-ccfa-4f59-a616-58fbc5c89801"},"vehicle_type_id":"4","last_reported":1728850147,"current_range_meters":27200,"station_id":"ce4bgg92rcd13ifvqb30","pricing_plan_id":"cebpf4jnsgd1na2vs0mg"},{"bike_id":"54aec1fc-f8f8-49b7-aa52-6ef4f1bdaf2a","system_id":"levelo_inurba_marseille","lat":43.24391,"lon":5.37064,"is_reserved":false,"is_disabled":false,"rental_uris":{"android":"levelo://app?vid=54aec1fc-f8f8-49b7-aa52-6ef4f1bdaf2a","ios":"levelo://app?vid=54aec1fc-f8f8-49b7-aa52-6ef4f1bdaf2a"},"vehicle_type_id":"4","last_reported":1728850147,"current_range_meters":19600,"station_id":"ce4bhhh2rcd13ifvqfk0","pricing_plan_id":"cebpf4jnsgd1na2vs0mg"},{"bike_id":"ad41db7a-7733-4b9d-8d6f-b9a0f6781c05","system_id":"levelo_inurba_marseille","lat":43.24388,"lon":5.37059,"is_reserved":false,"is_disabled":false,"rental_uris":{"android":"levelo://app?vid=ad41db7a-7733-4b9d-8d6f-b9a0f6781c05","ios":"levelo://app?vid=ad41db7a-7733-4b9d-8d6f-b9a0f6781c05"},"vehicle_type_id":"4","last_reported":1728850147,"current_range_meters":39200,"station_id":"ce4bhhh2rcd13ifvqfk0","pricing_plan_id":"cebpf4jnsgd1na2vs0mg"},{"bike_id":"8b2312cf-0c04-492c-8611-453b5ad89ee3","system_id":"levelo_inurba_marseille","lat":43.30947,"lon":5.39038,"is_reserved":false,"is_disabled":false,"rental_uris":{"android":"levelo://app?vid=8b2312cf-0c04-492c-8611-453b5ad89ee3","ios":"levelo://app?vid=8b2312cf-0c04-492c-8611-453b5ad89ee3"},"vehicle_type_id":"4","last_reported":1728850147,"current_range_meters":6400,"station_id":"ce4bgup2rcd13ifvqco0","pricing_plan_id":"cebpf4jnsgd1na2vs0mg"},{"bike_id":"f1b6db91-da41-4ba0-b69e-cfce75d0e0cf","system_id":"levelo_inurba_marseille","lat":43.290521,"lon":5.359192,"is_reserved":false,"is_disabled":false,"rental_uris":{"android":"levelo://app?vid=f1b6db91-da41-4ba0-b69e-cfce75d0e0cf","ios":"levelo://app?vid=f1b6db91-da41-4ba0-b69e-cfce75d0e0cf"},"vehicle_type_id":"4","last_reported":1728850147,"current_range_meters":32800,"station_id":"ce4bha92rcd13ifvqeg0","pricing_plan_id":"cebpf4jnsgd1na2vs0mg"},{"bike_id":"d8c3bb1b-bf1b-4a6d-a3ff-06b4ac3f276d","system_id":"levelo_inurba_marseille","lat":43.24649,"lon":5.38894,"is_reserved":false,"is_disabled":false,"rental_uris":{"android":"levelo://app?vid=d8c3bb1b-bf1b-4a6d-a3ff-06b4ac3f276d","ios":"levelo://app?vid=d8c3bb1b-bf1b-4a6d-a3ff-06b4ac3f276d"},"vehicle_type_id":"4","last_reported":1728850147,"current_range_meters":39200,"station_id":"ce4bhg12rcd13ifvqf60","pricing_plan_id":"cebpf4jnsgd1na2vs0mg"},{"bike_id":"93b27a53-ca87-42cc-a558-985f0164192b","system_id":"levelo_inurba_marseille","lat":43.29663,"lon":5.40015,"is_reserved":false,"is_disabled":false,"rental_uris":{"android":"levelo://app?vid=93b27a53-ca87-42cc-a558-985f0164192b","ios":"levelo://app?vid=93b27a53-ca87-42cc-a558-985f0164192b"},"vehicle_type_id":"4","last_reported":1728850147,"current_range_meters":8000,"station_id":"","pricing_plan_id":"cebpf4jnsgd1na2vs0mg"},{"bike_id":"22e71f40-a7be-4fde-9aa4-a147cca0125e","system_id":"levelo_inurba_marseille","lat":43.284637,"lon":5.384205,"is_reserved":false,"is_disabled":false,"rental_uris":{"android":"levelo://app?vid=22e71f40-a7be-4fde-9aa4-a147cca0125e","ios":"levelo://app?vid=22e71f40-a7be-4fde-9aa4-a147cca0125e"},"vehicle_type_id":"4","last_reported":1728850147,"current_range_meters":16400,"station_id":"ce4bh512rcd13ifvqe3g","pricing_plan_id":"cebpf4jnsgd1na2vs0mg"},{"bike_id":"7c6576e7-f018-4e6a-bd50-27df25daddf9","system_id":"levelo_inurba_marseille","lat":43.28411,"lon":5.37522,"is_reserved":false,"is_disabled":false,"rental_uris":{"android":"levelo://app?vid=7c6576e7-f018-4e6a-bd50-27df25daddf9","ios":"levelo://app?vid=7c6576e7-f018-4e6a-bd50-27df25daddf9"},"vehicle_type_id":"4","last_reported":1728850147,"current_range_meters":38800,"station_id":"ce4bh412rcd13ifvqds0","pricing_plan_id":"cebpf4jnsgd1na2vs0mg"},{"bike_id":"eb594d84-8eb9-4e53-893a-402ca3dcfe9c","system_id":"levelo_inurba_marseille","lat":43.32484,"lon":5.36586,"is_reserved":false,"is_disabled":false,"rental_uris":{"android":"levelo://app?vid=eb594d84-8eb9-4e53-893a-402ca3dcfe9c","ios":"levelo://app?vid=eb594d84-8eb9-4e53-893a-402ca3dcfe9c"},"vehicle_type_id":"4","last_reported":1728850147,"current_range_meters":39200,"station_id":"ce4bhs12rcd13ifvqhvg","pricing_plan_id":"cebpf4jnsgd1na2vs0mg"},{"bike_id":"f38d0416-45e4-4b72-b8ba-e99de53a981a","system_id":"levelo_inurba_marseille","lat":43.27938,"lon":5.41047,"is_reserved":false,"is_disabled":false,"rental_uris":{"android":"levelo://app?vid=f38d0416-45e4-4b72-b8ba-e99de53a981a","ios":"levelo://app?vid=f38d0416-45e4-4b72-b8ba-e99de53a981a"},"vehicle_type_id":"4","last_reported":1728850147,"current_range_meters":8400,"station_id":"ce4bhnp2rcd13ifvqh0g","pricing_plan_id":"cebpf4jnsgd1na2vs0mg"},{"bike_id":"eacb8f02-0363-43b8-8a18-f2c834b889a5","system_id":"levelo_inurba_marseille","lat":43.31703,"lon":5.37735,"is_reserved":false,"is_disabled":false,"rental_uris":{"android":"levelo://app?vid=eacb8f02-0363-43b8-8a18-f2c834b889a5","ios":"levelo://app?vid=eacb8f02-0363-43b8-8a18-f2c834b889a5"},"vehicle_type_id":"4","last_reported":1728850147,"current_range_meters":16800,"station_id":"ce4bgth2rcd13ifvqch0","pricing_plan_id":"cebpf4jnsgd1na2vs0mg"},{"bike_id":"2152ad7a-4d85-4f41-895d-ff8dea9cfef2","system_id":"levelo_inurba_marseille","lat":43.28422,"lon":5.37515,"is_reserved":false,"is_disabled":false,"rental_uris":{"android":"levelo://app?vid=2152ad7a-4d85-4f41-895d-ff8dea9cfef2","ios":"levelo://app?vid=2152ad7a-4d85-4f41-895d-ff8dea9cfef2"},"vehicle_type_id":"4","last_reported":1728850147,"current_range_meters":3200,"station_id":"ce4bh412rcd13ifvqds0","pricing_plan_id":"cebpf4jnsgd1na2vs0mg"},{"bike_id":"76751032-0e19-4dbe-b869-55e11dad3f8e","system_id":"levelo_inurba_marseille","lat":43.28079,"lon":5.39663,"is_reserved":false,"is_disabled":false,"rental_uris":{"android":"levelo://app?vid=76751032-0e19-4dbe-b869-55e11dad3f8e","ios":"levelo://app?vid=76751032-0e19-4dbe-b869-55e11dad3f8e"},"vehicle_type_id":"4","last_reported":1728850147,"current_range_meters":27600,"station_id":"ce4bho12rcd13ifvqh2g","pricing_plan_id":"cebpf4jnsgd1na2vs0mg"},{"bike_id":"adf7f252-dbc1-459a-8043-ad1f1eca0157","system_id":"levelo_inurba_marseille","lat":43.33731,"lon":5.39181,"is_reserved":false,"is_disabled":false,"rental_uris":{"android":"levelo://app?vid=adf7f252-dbc1-459a-8043-ad1f1eca0157","ios":"levelo://app?vid=adf7f252-dbc1-459a-8043-ad1f1eca0157"},"vehicle_type_id":"4","last_reported":1728850147,"current_range_meters":33200,"station_id":"ce4bhr92rcd13ifvqhsg","pricing_plan_id":"cebpf4jnsgd1na2vs0mg"},{"bike_id":"536fc84a-bf94-4efa-93da-562619ab5bda","system_id":"levelo_inurba_marseille","lat":43.290331,"lon":5.386461,"is_reserved":false,"is_disabled":false,"rental_uris":{"android":"levelo://app?vid=536fc84a-bf94-4efa-93da-562619ab5bda","ios":"levelo://app?vid=536fc84a-bf94-4efa-93da-562619ab5bda"},"vehicle_type_id":"4","last_reported":1728850147,"current_range_meters":35600,"station_id":"ce4bh4p2rcd13ifvqe0g","pricing_plan_id":"cebpf4jnsgd1na2vs0mg"},{"bike_id":"6c7c615c-2d26-4047-8380-ca99e9efd048","system_id":"levelo_inurba_marseille","lat":43.26225,"lon":5.37926,"is_reserved":false,"is_disabled":false,"rental_uris":{"android":"levelo://app?vid=6c7c615c-2d26-4047-8380-ca99e9efd048","ios":"levelo://app?vid=6c7c615c-2d26-4047-8380-ca99e9efd048"},"vehicle_type_id":"4","last_reported":1728850147,"current_range_meters":38800,"station_id":"ce4bhjp2rcd13ifvqg90","pricing_plan_id":"cebpf4jnsgd1na2vs0mg"},{"bike_id":"310c580c-81aa-47f8-affb-af34652cd9f9","system_id":"levelo_inurba_marseille","lat":43.26203,"lon":5.37932,"is_reserved":false,"is_disabled":false,"rental_uris":{"android":"levelo://app?vid=310c580c-81aa-47f8-affb-af34652cd9f9","ios":"levelo://app?vid=310c580c-81aa-47f8-affb-af34652cd9f9"},"vehicle_type_id":"4","last_reported":1728850147,"current_range_meters":10800,"station_id":"ce4bhjp2rcd13ifvqg90","pricing_plan_id":"cebpf4jnsgd1na2vs0mg"},{"bike_id":"3daa78f9-0489-402c-8c96-8ef40ec5c302","system_id":"levelo_inurba_marseille","lat":43.24809,"lon":5.37455,"is_reserved":false,"is_disabled":false,"rental_uris":{"android":"levelo://app?vid=3daa78f9-0489-402c-8c96-8ef40ec5c302","ios":"levelo://app?vid=3daa78f9-0489-402c-8c96-8ef40ec5c302"},"vehicle_type_id":"4","last_reported":1728850147,"current_range_meters":11600,"station_id":"ce4bhgh2rcd13ifvqfb0","pricing_plan_id":"cebpf4jnsgd1na2vs0mg"},{"bike_id":"66c63c24-4f48-41ab-b018-90614f1475eb","system_id":"levelo_inurba_marseille","lat":43.286966,"lon":5.373952,"is_reserved":false,"is_disabled":false,"rental_uris":{"android":"levelo://app?vid=66c63c24-4f48-41ab-b018-90614f1475eb","ios":"levelo://app?vid=66c63c24-4f48-41ab-b018-90614f1475eb"},"vehicle_type_id":"4","last_reported":1728850147,"current_range_meters":38800,"station_id":"ce4bh3p2rcd13ifvqdq0","pricing_plan_id":"cebpf4jnsgd1na2vs0mg"},{"bike_id":"0fe37e89-fefc-4545-8187-5b1fdd7e5f70","system_id":"levelo_inurba_marseille","lat":43.31892,"lon":5.39403,"is_reserved":false,"is_disabled":false,"rental_uris":{"android":"levelo://app?vid=0fe37e89-fefc-4545-8187-5b1fdd7e5f70","ios":"levelo://app?vid=0fe37e89-fefc-4545-8187-5b1fdd7e5f70"},"vehicle_type_id":"4","last_reported":1728850147,"current_range_meters":8000,"station_id":"","pricing_plan_id":"cebpf4jnsgd1na2vs0mg"},{"bike_id":"9d960984-c801-496e-bb50-c485ac295345","system_id":"levelo_inurba_marseille","lat":43.30356,"lon":5.41888,"is_reserved":false,"is_disabled":false,"rental_uris":{"android":"levelo://app?vid=9d960984-c801-496e-bb50-c485ac295345","ios":"levelo://app?vid=9d960984-c801-496e-bb50-c485ac295345"},"vehicle_type_id":"4","last_reported":1728850147,"current_range_meters":25600,"station_id":"ce4bhop2rcd13ifvqh7g","pricing_plan_id":"cebpf4jnsgd1na2vs0mg"},{"bike_id":"0b183f77-87b5-4247-9d11-d2af73c0bd02","system_id":"levelo_inurba_marseille","lat":43.29025,"lon":5.38145,"is_reserved":false,"is_disabled":false,"rental_uris":{"android":"levelo://app?vid=0b183f77-87b5-4247-9d11-d2af73c0bd02","ios":"levelo://app?vid=0b183f77-87b5-4247-9d11-d2af73c0bd02"},"vehicle_type_id":"4","last_reported":1728850147,"current_range_meters":38800,"station_id":"ce4bh4p2rcd13ifvqe1g","pricing_plan_id":"cebpf4jnsgd1na2vs0mg"},{"bike_id":"74172043-6c91-45ac-973b-3b17700682e3","system_id":"levelo_inurba_marseille","lat":43.27209,"lon":5.3918,"is_reserved":false,"is_disabled":false,"rental_uris":{"android":"levelo://app?vid=74172043-6c91-45ac-973b-3b17700682e3","ios":"levelo://app?vid=74172043-6c91-45ac-973b-3b17700682e3"},"vehicle_type_id":"4","last_reported":1728850147,"current_range_meters":38800,"station_id":"ce4bhhp2rcd13ifvqfm0","pricing_plan_id":"cebpf4jnsgd1na2vs0mg"},{"bike_id":"2f19d9b2-60a0-45bf-bf48-04c9ce231242","system_id":"levelo_inurba_marseille","lat":43.25573,"lon":5.38235,"is_reserved":false,"is_disabled":false,"rental_uris":{"android":"levelo://app?vid=2f19d9b2-60a0-45bf-bf48-04c9ce231242","ios":"levelo://app?vid=2f19d9b2-60a0-45bf-bf48-04c9ce231242"},"vehicle_type_id":"4","last_reported":1728850147,"current_range_meters":6800,"station_id":"ce4bhih2rcd13ifvqfs0","pricing_plan_id":"cebpf4jnsgd1na2vs0mg"},{"bike_id":"868d20e3-b7ed-416b-b0e0-7d5ba26216f7","system_id":"levelo_inurba_marseille","lat":43.31711,"lon":5.43703,"is_reserved":false,"is_disabled":false,"rental_uris":{"android":"levelo://app?vid=868d20e3-b7ed-416b-b0e0-7d5ba26216f7","ios":"levelo://app?vid=868d20e3-b7ed-416b-b0e0-7d5ba26216f7"},"vehicle_type_id":"4","last_reported":1728850147,"current_range_meters":38800,"station_id":"ce4bhp92rcd13ifvqhcg","pricing_plan_id":"cebpf4jnsgd1na2vs0mg"},{"bike_id":"c2f3f461-bd3f-41e8-830c-238b45415c00","system_id":"levelo_inurba_marseille","lat":43.29777,"lon":5.39337,"is_reserved":false,"is_disabled":false,"rental_uris":{"android":"levelo://app?vid=c2f3f461-bd3f-41e8-830c-238b45415c00","ios":"levelo://app?vid=c2f3f461-bd3f-41e8-830c-238b45415c00"},"vehicle_type_id":"4","last_reported":1728850147,"current_range_meters":10800,"station_id":"chh1huq6cuj3fo74tm60","pricing_plan_id":"cebpf4jnsgd1na2vs0mg"},{"bike_id":"b04c2adb-608e-4822-9cd7-0e4eeaf393de","system_id":"levelo_inurba_marseille","lat":43.29071,"lon":5.37175,"is_reserved":false,"is_disabled":false,"rental_uris":{"android":"levelo://app?vid=b04c2adb-608e-4822-9cd7-0e4eeaf393de","ios":"levelo://app?vid=b04c2adb-608e-4822-9cd7-0e4eeaf393de"},"vehicle_type_id":"4","last_reported":1728850147,"current_range_meters":38800,"station_id":"ce4bh5p2rcd13ifvqe4g","pricing_plan_id":"cebpf4jnsgd1na2vs0mg"},{"bike_id":"3a0fc980-9019-4985-8829-4fa11d6b9776","system_id":"levelo_inurba_marseille","lat":43.29296,"lon":5.37464,"is_reserved":false,"is_disabled":false,"rental_uris":{"android":"levelo://app?vid=3a0fc980-9019-4985-8829-4fa11d6b9776","ios":"levelo://app?vid=3a0fc980-9019-4985-8829-4fa11d6b9776"},"vehicle_type_id":"4","last_reported":1728850147,"current_range_meters":8000,"station_id":"ce4bgi12rcd13ifvqb70","pricing_plan_id":"cebpf4jnsgd1na2vs0mg"},{"bike_id":"99222104-04be-4636-8222-4586012a9f49","system_id":"levelo_inurba_marseille","lat":43.33724,"lon":5.39186,"is_reserved":false,"is_disabled":false,"rental_uris":{"android":"levelo://app?vid=99222104-04be-4636-8222-4586012a9f49","ios":"levelo://app?vid=99222104-04be-4636-8222-4586012a9f49"},"vehicle_type_id":"4","last_reported":1728850147,"current_range_meters":11200,"station_id":"ce4bhr92rcd13ifvqhsg","pricing_plan_id":"cebpf4jnsgd1na2vs0mg"},{"bike_id":"2e6d013b-f51d-4c22-aaf8-bd7e7024fa3a","system_id":"levelo_inurba_marseille","lat":43.29528,"lon":5.38549,"is_reserved":false,"is_disabled":false,"rental_uris":{"android":"levelo://app?vid=2e6d013b-f51d-4c22-aaf8-bd7e7024fa3a","ios":"levelo://app?vid=2e6d013b-f51d-4c22-aaf8-bd7e7024fa3a"},"vehicle_type_id":"4","last_reported":1728850147,"current_range_meters":38800,"station_id":"ce4bgih2rcd13ifvqba0","pricing_plan_id":"cebpf4jnsgd1na2vs0mg"},{"bike_id":"fd7ea476-67ff-46e6-b360-e5721ddb6111","system_id":"levelo_inurba_marseille","lat":43.28356,"lon":5.38111,"is_reserved":false,"is_disabled":false,"rental_uris":{"android":"levelo://app?vid=fd7ea476-67ff-46e6-b360-e5721ddb6111","ios":"levelo://app?vid=fd7ea476-67ff-46e6-b360-e5721ddb6111"},"vehicle_type_id":"4","last_reported":1728850147,"current_range_meters":19600,"station_id":"ce4bh412rcd13ifvqdr0","pricing_plan_id":"cebpf4jnsgd1na2vs0mg"},{"bike_id":"9817715c-5c44-4f6b-a16d-7800214c7c56","system_id":"levelo_inurba_marseille","lat":43.28925,"lon":5.36393,"is_reserved":false,"is_disabled":false,"rental_uris":{"android":"levelo://app?vid=9817715c-5c44-4f6b-a16d-7800214c7c56","ios":"levelo://app?vid=9817715c-5c44-4f6b-a16d-7800214c7c56"},"vehicle_type_id":"4","last_reported":1728850147,"current_range_meters":39200,"station_id":"ce4bhc92rcd13ifvqetg","pricing_plan_id":"cebpf4jnsgd1na2vs0mg"},{"bike_id":"95e9e971-3e88-4f5b-9ad4-570ab64ac80f","system_id":"levelo_inurba_marseille","lat":43.2894,"lon":5.36637,"is_reserved":false,"is_disabled":false,"rental_uris":{"android":"levelo://app?vid=95e9e971-3e88-4f5b-9ad4-570ab64ac80f","ios":"levelo://app?vid=95e9e971-3e88-4f5b-9ad4-570ab64ac80f"},"vehicle_type_id":"4","last_reported":1728850147,"current_range_meters":38800,"station_id":"ce4bhap2rcd13ifvqek0","pricing_plan_id":"cebpf4jnsgd1na2vs0mg"},{"bike_id":"600a6ea5-5c70-4f25-9b57-c621b8210681","system_id":"levelo_inurba_marseille","lat":43.32658,"lon":5.40993,"is_reserved":false,"is_disabled":false,"rental_uris":{"android":"levelo://app?vid=600a6ea5-5c70-4f25-9b57-c621b8210681","ios":"levelo://app?vid=600a6ea5-5c70-4f25-9b57-c621b8210681"},"vehicle_type_id":"4","last_reported":1728850147,"current_range_meters":27200,"station_id":"ce4bhpp2rcd13ifvqhgg","pricing_plan_id":"cebpf4jnsgd1na2vs0mg"},{"bike_id":"dd7df90f-c6b5-41c8-8bb2-86ec9c1efa3a","system_id":"levelo_inurba_marseille","lat":43.29111,"lon":5.3814,"is_reserved":false,"is_disabled":false,"rental_uris":{"android":"levelo://app?vid=dd7df90f-c6b5-41c8-8bb2-86ec9c1efa3a","ios":"levelo://app?vid=dd7df90f-c6b5-41c8-8bb2-86ec9c1efa3a"},"vehicle_type_id":"4","last_reported":1728850147,"current_range_meters":27600,"station_id":"ce4bh512rcd13ifvqe2g","pricing_plan_id":"cebpf4jnsgd1na2vs0mg"},{"bike_id":"d9176fa4-cbed-4c81-bb91-58c6a2a85fde","system_id":"levelo_inurba_marseille","lat":43.30936,"lon":5.40144,"is_reserved":false,"is_disabled":false,"rental_uris":{"android":"levelo://app?vid=d9176fa4-cbed-4c81-bb91-58c6a2a85fde","ios":"levelo://app?vid=d9176fa4-cbed-4c81-bb91-58c6a2a85fde"},"vehicle_type_id":"4","last_reported":1728850147,"current_range_meters":6800,"station_id":"ce4bgvp2rcd13ifvqct0","pricing_plan_id":"cebpf4jnsgd1na2vs0mg"},{"bike_id":"f931fb09-ec8e-42fa-9ae1-2048c8e7cf99","system_id":"levelo_inurba_marseille","lat":43.3169,"lon":5.40476,"is_reserved":false,"is_disabled":false,"rental_uris":{"android":"levelo://app?vid=f931fb09-ec8e-42fa-9ae1-2048c8e7cf99","ios":"levelo://app?vid=f931fb09-ec8e-42fa-9ae1-2048c8e7cf99"},"vehicle_type_id":"4","last_reported":1728850147,"current_range_meters":32800,"station_id":"ce4bh012rcd13ifvqd00","pricing_plan_id":"cebpf4jnsgd1na2vs0mg"},{"bike_id":"088a0174-53ec-442e-ab81-f4302b9d8850","system_id":"levelo_inurba_marseille","lat":43.29514,"lon":5.39048,"is_reserved":false,"is_disabled":false,"rental_uris":{"android":"levelo://app?vid=088a0174-53ec-442e-ab81-f4302b9d8850","ios":"levelo://app?vid=088a0174-53ec-442e-ab81-f4302b9d8850"},"vehicle_type_id":"4","last_reported":1728850147,"current_range_meters":38800,"station_id":"ce4bh3p2rcd13ifvqdp0","pricing_plan_id":"cebpf4jnsgd1na2vs0mg"},{"bike_id":"3122f27a-4934-4059-9f27-2c4fb57077eb","system_id":"levelo_inurba_marseille","lat":43.23054,"lon":5.3549,"is_reserved":false,"is_disabled":false,"rental_uris":{"android":"levelo://app?vid=3122f27a-4934-4059-9f27-2c4fb57077eb","ios":"levelo://app?vid=3122f27a-4934-4059-9f27-2c4fb57077eb"},"vehicle_type_id":"4","last_reported":1728850147,"current_range_meters":8400,"station_id":"cpo3342slgdg3j2ifvpg","pricing_plan_id":"cebpf4jnsgd1na2vs0mg"},{"bike_id":"2dfd2474-296a-4df8-9ab8-eb269e26bf46","system_id":"levelo_inurba_marseille","lat":43.29277,"lon":5.40128,"is_reserved":false,"is_disabled":false,"rental_uris":{"android":"levelo://app?vid=2dfd2474-296a-4df8-9ab8-eb269e26bf46","ios":"levelo://app?vid=2dfd2474-296a-4df8-9ab8-eb269e26bf46"},"vehicle_type_id":"4","last_reported":1728850147,"current_range_meters":38400,"station_id":"ce4bh312rcd13ifvqdk0","pricing_plan_id":"cebpf4jnsgd1na2vs0mg"},{"bike_id":"f62456f3-3174-4fe7-a50c-99f25f180de5","system_id":"levelo_inurba_marseille","lat":43.2439,"lon":5.37059,"is_reserved":false,"is_disabled":false,"rental_uris":{"android":"levelo://app?vid=f62456f3-3174-4fe7-a50c-99f25f180de5","ios":"levelo://app?vid=f62456f3-3174-4fe7-a50c-99f25f180de5"},"vehicle_type_id":"4","last_reported":1728850147,"current_range_meters":39200,"station_id":"ce4bhhh2rcd13ifvqfk0","pricing_plan_id":"cebpf4jnsgd1na2vs0mg"},{"bike_id":"0d512a2a-a410-4f99-b379-70cda1d2c3af","system_id":"levelo_inurba_marseille","lat":43.29284,"lon":5.40122,"is_reserved":false,"is_disabled":false,"rental_uris":{"android":"levelo://app?vid=0d512a2a-a410-4f99-b379-70cda1d2c3af","ios":"levelo://app?vid=0d512a2a-a410-4f99-b379-70cda1d2c3af"},"vehicle_type_id":"4","last_reported":1728850147,"current_range_meters":38800,"station_id":"ce4bh312rcd13ifvqdk0","pricing_plan_id":"cebpf4jnsgd1na2vs0mg"},{"bike_id":"3c25dded-f8d5-4193-a336-9fad641c4aac","system_id":"levelo_inurba_marseille","lat":43.33752,"lon":5.3748,"is_reserved":false,"is_disabled":false,"rental_uris":{"android":"levelo://app?vid=3c25dded-f8d5-4193-a336-9fad641c4aac","ios":"levelo://app?vid=3c25dded-f8d5-4193-a336-9fad641c4aac"},"vehicle_type_id":"4","last_reported":1728850147,"current_range_meters":28400,"station_id":"","pricing_plan_id":"cebpf4jnsgd1na2vs0mg"},{"bike_id":"4bb48a2c-dd6c-4fe7-a1ed-8d36f6811794","system_id":"levelo_inurba_marseille","lat":43.289315,"lon":5.366325,"is_reserved":false,"is_disabled":false,"rental_uris":{"android":"levelo://app?vid=4bb48a2c-dd6c-4fe7-a1ed-8d36f6811794","ios":"levelo://app?vid=4bb48a2c-dd6c-4fe7-a1ed-8d36f6811794"},"vehicle_type_id":"4","last_reported":1728850147,"current_range_meters":27600,"station_id":"ce4bhap2rcd13ifvqek0","pricing_plan_id":"cebpf4jnsgd1na2vs0mg"},{"bike_id":"a8da941b-9ccb-417b-bfc3-04a05b79f770","system_id":"levelo_inurba_marseille","lat":43.30144,"lon":5.39864,"is_reserved":false,"is_disabled":false,"rental_uris":{"android":"levelo://app?vid=a8da941b-9ccb-417b-bfc3-04a05b79f770","ios":"levelo://app?vid=a8da941b-9ccb-417b-bfc3-04a05b79f770"},"vehicle_type_id":"4","last_reported":1728850147,"current_range_meters":27600,"station_id":"ce4bh0h2rcd13ifvqd40","pricing_plan_id":"cebpf4jnsgd1na2vs0mg"},{"bike_id":"74e65579-367c-4742-9ace-a1145f3456c1","system_id":"levelo_inurba_marseille","lat":43.29418,"lon":5.38625,"is_reserved":false,"is_disabled":false,"rental_uris":{"android":"levelo://app?vid=74e65579-367c-4742-9ace-a1145f3456c1","ios":"levelo://app?vid=74e65579-367c-4742-9ace-a1145f3456c1"},"vehicle_type_id":"4","last_reported":1728850147,"current_range_meters":38800,"station_id":"ce4bh2h2rcd13ifvqdh0","pricing_plan_id":"cebpf4jnsgd1na2vs0mg"},{"bike_id":"eebef120-d51d-43b1-b905-d02a4f6d4edf","system_id":"levelo_inurba_marseille","lat":43.2952,"lon":5.39038,"is_reserved":false,"is_disabled":false,"rental_uris":{"android":"levelo://app?vid=eebef120-d51d-43b1-b905-d02a4f6d4edf","ios":"levelo://app?vid=eebef120-d51d-43b1-b905-d02a4f6d4edf"},"vehicle_type_id":"4","last_reported":1728850147,"current_range_meters":38800,"station_id":"ce4bh3p2rcd13ifvqdp0","pricing_plan_id":"cebpf4jnsgd1na2vs0mg"},{"bike_id":"8b8eb10f-c6ed-4fd7-8807-dca3f6657bf3","system_id":"levelo_inurba_marseille","lat":43.28411,"lon":5.37517,"is_reserved":false,"is_disabled":false,"rental_uris":{"android":"levelo://app?vid=8b8eb10f-c6ed-4fd7-8807-dca3f6657bf3","ios":"levelo://app?vid=8b8eb10f-c6ed-4fd7-8807-dca3f6657bf3"},"vehicle_type_id":"4","last_reported":1728850147,"current_range_meters":25200,"station_id":"ce4bh412rcd13ifvqds0","pricing_plan_id":"cebpf4jnsgd1na2vs0mg"},{"bike_id":"5b905ead-f92e-4bf2-b575-45170a367ceb","system_id":"levelo_inurba_marseille","lat":43.2885,"lon":5.39323,"is_reserved":false,"is_disabled":false,"rental_uris":{"android":"levelo://app?vid=5b905ead-f92e-4bf2-b575-45170a367ceb","ios":"levelo://app?vid=5b905ead-f92e-4bf2-b575-45170a367ceb"},"vehicle_type_id":"4","last_reported":1728850147,"current_range_meters":21600,"station_id":"ce4bh2p2rcd13ifvqdi0","pricing_plan_id":"cebpf4jnsgd1na2vs0mg"},{"bike_id":"e4bf96c4-3879-4b6d-a8a1-df4176369f62","system_id":"levelo_inurba_marseille","lat":43.30319,"lon":5.39696,"is_reserved":false,"is_disabled":false,"rental_uris":{"android":"levelo://app?vid=e4bf96c4-3879-4b6d-a8a1-df4176369f62","ios":"levelo://app?vid=e4bf96c4-3879-4b6d-a8a1-df4176369f62"},"vehicle_type_id":"4","last_reported":1728850147,"current_range_meters":36000,"station_id":"ce4bh092rcd13ifvqd20","pricing_plan_id":"cebpf4jnsgd1na2vs0mg"},{"bike_id":"db511e36-b954-4d5e-bcc7-5321d5a984d9","system_id":"levelo_inurba_marseille","lat":43.26059,"lon":5.39401,"is_reserved":false,"is_disabled":false,"rental_uris":{"android":"levelo://app?vid=db511e36-b954-4d5e-bcc7-5321d5a984d9","ios":"levelo://app?vid=db511e36-b954-4d5e-bcc7-5321d5a984d9"},"vehicle_type_id":"4","last_reported":1728850147,"current_range_meters":10000,"station_id":"ce4bhh92rcd13ifvqfj0","pricing_plan_id":"cebpf4jnsgd1na2vs0mg"},{"bike_id":"7c22f2fd-d034-416c-856a-4809f00da034","system_id":"levelo_inurba_marseille","lat":43.31534,"lon":5.38041,"is_reserved":false,"is_disabled":false,"rental_uris":{"android":"levelo://app?vid=7c22f2fd-d034-416c-856a-4809f00da034","ios":"levelo://app?vid=7c22f2fd-d034-416c-856a-4809f00da034"},"vehicle_type_id":"4","last_reported":1728850147,"current_range_meters":36000,"station_id":"ce4bhsp2rcd13ifvqi50","pricing_plan_id":"cebpf4jnsgd1na2vs0mg"},{"bike_id":"eb5c50f7-c000-49cd-aa67-ef3a15795f07","system_id":"levelo_inurba_marseille","lat":43.239672,"lon":5.366236,"is_reserved":false,"is_disabled":false,"rental_uris":{"android":"levelo://app?vid=eb5c50f7-c000-49cd-aa67-ef3a15795f07","ios":"levelo://app?vid=eb5c50f7-c000-49cd-aa67-ef3a15795f07"},"vehicle_type_id":"4","last_reported":1728850147,"current_range_meters":38800,"station_id":"ce4bhi12rcd13ifvqfp0","pricing_plan_id":"cebpf4jnsgd1na2vs0mg"},