{"last_updated":1748027249,"ttl":60,"version":"2.2","data":{"bikes":[{"bike_id":"c0b9fd4f-e181-46ce-b0bf-f5119973334f","system_id":"levelo_inurba_marseille","lat":43.33771,"lon":5.37424,"is_reserved":false,"is_disabled":true,"rental_uris":{"android":"levelo://app?vid=c0b9fd4f-e181-46ce-b0bf-f5119973334f","ios":"levelo://app?vid=c0b9fd4f-e181-46ce-b0bf-f5119973334f"},"vehicle_type_id":"4","last_reported":1748027249,"current_range_meters":0,"station_id":"","pricing_plan_id":"cebpf4jnsgd1na2vs0mg"},{"bike_id":"4f6114cc-4649-4bbc-9e10-25a71779e860","system_id":"levelo_inurba_marseille","lat":43.26799,"lon":5.38374,"is_reserved":false,"is_disabled":true,"rental_uris":{"android":"levelo://app?vid=4f6114cc-4649-4bbc-9e10-25a71779e860","ios":"levelo://app?vid=4f6114cc-4649-4bbc-9e10-25a71779e860"},"vehicle_type_id":"4","last_reported":1748027249,"current_range_meters":0,"station_id":"","pricing_plan_id":"cebpf4jnsgd1na2vs0mg"},{"bike_id":"d4150556-b601-4cc0-b77e-49c2d38938cf","system_id":"levelo_inurba_marseille","lat":43.28863,"lon":5.45512,"is_reserved":false,"is_disabled":true,"rental_uris":{"android":"levelo://app?vid=d4150556-b601-4cc0-b77e-49c2d38938cf","ios":"levelo://app?vid=d4150556-b601-4cc0-b77e-49c2d38938cf"},"vehicle_type_id":"4","last_reported":1748027249,"current_range_meters":0,"station_id":"","pricing_plan_id":"cebpf4jnsgd1na2vs0mg"},{"bike_id":"e8162579-a5ad-485f-ad83-fec8a2ebe7e1","system_id":"levelo_inurba_marseille","lat":43.26825,"lon":5.3912,"is_reserved":false,"is_disabled":true,"rental_uris":{"android":"levelo://app?vid=e8162579-a5ad-485f-ad83-fec8a2ebe7e1","ios":"levelo://app?vid=e8162579-a5ad-485f-ad83-fec8a2ebe7e1"},"vehicle_type_id":"4","last_reported":1748027249,"current_range_meters":0,"station_id":"","pricing_plan_id":"cebpf4jnsgd1na2vs0mg"},{"bike_id":"0f6a4443-323a-4dd0-af8a-e0ff958d0dfa","system_id":"levelo_inurba_marseille","lat":43.3291,"lon":5.36744,"is_reserved":false,"is_disabled":true,"rental_uris":{"android":"levelo://app?vid=0f6a4443-323a-4dd0-af8a-e0ff958d0dfa","ios":"levelo://app?vid=0f6a4443-323a-4dd0-af8a-e0ff958d0dfa"},"vehicle_type_id":"4","last_reported":1748027249,"current_range_meters":0,"station_id":"","pricing_plan_id":"cebpf4jnsgd1na2vs0mg"},{"bike_id":"b44ae63a-d0be-4da0-b9de-9d2677302ed4","system_id":"levelo_inurba_marseille","lat":43.25021,"lon":5.39069,"is_reserved":false,"is_disabled":true,"rental_uris":{"android":"levelo://app?vid=b44ae63a-d0be-4da0-b9de-9d2677302ed4","ios":"levelo://app?vid=b44ae63a-d0be-4da0-b9de-9d2677302ed4"},"vehicle_type_id":"4","last_reported":1748027249,"current_range_meters":0,"station_id":"","pricing_plan_id":"cebpf4jnsgd1na2vs0mg"},{"bike_id":"c4b55004-c014-4bfa-a092-f7c7649b87ca","system_id":"levelo_inurba_marseille","lat":43.2629,"lon":5.39297,"is_reserved":false,"is_disabled":true,"rental_uris":{"android":"levelo://app?vid=c4b55004-c014-4bfa-a092-f7c7649b87ca","ios":"levelo://app?vid=c4b55004-c014-4bfa-a092-f7c7649b87ca"},"vehicle_type_id":"4","last_reported":1748027249,"current_range_meters":0,"station_id":"","pricing_plan_id":"cebpf4jnsgd1na2vs0mg"},{"bike_id":"a9d86a3e-ff61-4b3c-b1d6-cb137b96f17c","system_id":"levelo_inurba_marseille","lat":43.288906,"lon":5.430471,"is_reserved":false,"is_disabled":true,"rental_uris":{"android":"levelo://app?vid=a9d86a3e-ff61-4b3c-b1d6-cb137b96f17c","ios":"levelo://app?vid=a9d86a3e-ff61-4b3c-b1d6-cb137b96f17c"},"vehicle_type_id":"4","last_reported":1748027249,"current_range_meters":0,"station_id":"","pricing_plan_id":"cebpf4jnsgd1na2vs0mg"},{"bike_id":"15dcdbbd-a41e-43eb-9ed6-26ec15ce7a50","system_id":"levelo_inurba_marseille","lat":43.21414,"lon":5.34119,"is_reserved":false,"is_disabled":true,"rental_uris":{"android":"levelo://app?vid=15dcdbbd-a41e-43eb-9ed6-26ec15ce7a50","ios":"levelo://app?vid=15dcdbbd-a41e-43eb-9ed6-26ec15ce7a50"},"vehicle_type_id":"4","last_reported":1748027249,"current_range_meters":0,"station_id":"","pricing_plan_id":"cebpf4jnsgd1na2vs0mg"},{"bike_id":"e9dd3aa4-b5e7-4480-926d-d7f537719bfa","system_id":"levelo_inurba_marseille","lat":43.230331,"lon":5.401847,"is_reserved":false,"is_disabled":true,"rental_uris":{"android":"levelo://app?vid=e9dd3aa4-b5e7-4480-926d-d7f537719bfa","ios":"levelo://app?vid=e9dd3aa4-b5e7-4480-926d-d7f537719bfa"},"vehicle_type_id":"4","last_reported":1748027249,"current_range_meters":0,"station_id":"","pricing_plan_id":"cebpf4jnsgd1na2vs0mg"},{"bike_id":"8d14435c-b0c5-4c51-a2ff-119b0dab61d8","system_id":"levelo_inurba_marseille","lat":43.29526,"lon":5.38548,"is_reserved":false,"is_disabled":true,"rental_uris":{"android":"levelo://app?vid=8d14435c-b0c5-4c51-a2ff-119b0dab61d8","ios":"levelo://app?vid=8d14435c-b0c5-4c51-a2ff-119b0dab61d8"},"vehicle_type_id":"4","last_reported":1748027249,"current_range_meters":0,"station_id":"ce4bgih2rcd13ifvqba0","pricing_plan_id":"cebpf4jnsgd1na2vs0mg"},{"bike_id":"8550f758-3449-46e4-b806-5a73d101b3b5","system_id":"levelo_inurba_marseille","lat":43.31707,"lon":5.37755,"is_reserved":false,"is_disabled":true,"rental_uris":{"android":"levelo://app?vid=8550f758-3449-46e4-b806-5a73d101b3b5","ios":"levelo://app?vid=8550f758-3449-46e4-b806-5a73d101b3b5"},"vehicle_type_id":"4","last_reported":1748027249,"current_range_meters":0,"station_id":"ce4bgth2rcd13ifvqch0","pricing_plan_id":"cebpf4jnsgd1na2vs0mg"},{"bike_id":"ad253dab-1b2d-4d4a-a289-70fd7c7ca3d0","system_id":"levelo_inurba_marseille","lat":43.30933,"lon":5.40156,"is_reserved":false,"is_disabled":true,"rental_uris":{"android":"levelo://app?vid=ad253dab-1b2d-4d4a-a289-70fd7c7ca3d0","ios":"levelo://app?vid=ad253dab-1b2d-4d4a-a289-70fd7c7ca3d0"},"vehicle_type_id":"4","last_reported":1748027249,"current_range_meters":0,"station_id":"ce4bgvp2rcd13ifvqct0","pricing_plan_id":"cebpf4jnsgd1na2vs0mg"},{"bike_id":"16fc555e-44fe-4734-8cbd-01b7dc8cd3e3","system_id":"levelo_inurba_marseille","lat":43.31658,"lon":5.40498,"is_reserved":false,"is_disabled":true,"rental_uris":{"android":"levelo://app?vid=16fc555e-44fe-4734-8cbd-01b7dc8cd3e3","ios":"levelo://app?vid=16fc555e-44fe-4734-8cbd-01b7dc8cd3e3"},"vehicle_type_id":"4","last_reported":1748027249,"current_range_meters":0,"station_id":"ce4bh012rcd13ifvqd00","pricing_plan_id":"cebpf4jnsgd1na2vs0mg"},{"bike_id":"86748e7d-b8e0-4b56-a9c1-74d954e1cce4","system_id":"levelo_inurba_marseille","lat":43.2867,"lon":5.38662,"is_reserved":false,"is_disabled":true,"rental_uris":{"android":"levelo://app?vid=86748e7d-b8e0-4b56-a9c1-74d954e1cce4","ios":"levelo://app?vid=86748e7d-b8e0-4b56-a9c1-74d954e1cce4"},"vehicle_type_id":"4","last_reported":1748027249,"current_range_meters":0,"station_id":"ce4bh492rcd13ifvqdug","pricing_plan_id":"cebpf4jnsgd1na2vs0mg"},{"bike_id":"2eb78aba-f500-41b2-895d-11fefc154a26","system_id":"levelo_inurba_marseille","lat":43.28101,"lon":5.37837,"is_reserved":false,"is_disabled":true,"rental_uris":{"android":"levelo://app?vid=2eb78aba-f500-41b2-895d-11fefc154a26","ios":"levelo://app?vid=2eb78aba-f500-41b2-895d-11fefc154a26"},"vehicle_type_id":"4","last_reported":1748027249,"current_range_meters":0,"station_id":"ce4bha12rcd13ifvqee0","pricing_plan_id":"cebpf4jnsgd1na2vs0mg"},{"bike_id":"b2b1f7e5-9643-43dc-8567-37da359cab34","system_id":"levelo_inurba_marseille","lat":43.27913,"lon":5.395865,"is_reserved":false,"is_disabled":true,"rental_uris":{"android":"levelo://app?vid=b2b1f7e5-9643-43dc-8567-37da359cab34","ios":"levelo://app?vid=b2b1f7e5-9643-43dc-8567-37da359cab34"},"vehicle_type_id":"4","last_reported":1748027249,"current_range_meters":0,"station_id":"ce4bhf92rcd13ifvqf40","pricing_plan_id":"cebpf4jnsgd1na2vs0mg"},{"bike_id":"27d29ccb-743b-4ad2-bbc4-7177a0f1b5e5","system_id":"levelo_inurba_marseille","lat":43.26035,"lon":5.37545,"is_reserved":false,"is_disabled":true,"rental_uris":{"android":"levelo://app?vid=27d29ccb-743b-4ad2-bbc4-7177a0f1b5e5","ios":"levelo://app?vid=27d29ccb-743b-4ad2-bbc4-7177a0f1b5e5"},"vehicle_type_id":"4","last_reported":1748027249,"current_range_meters":0,"station_id":"ce4bhgh2rcd13ifvqfa0","pricing_plan_id":"cebpf4jnsgd1na2vs0mg"},{"bike_id":"100cc0c6-a769-4671-8fc4-915d1c9ddbe0","system_id":"levelo_inurba_marseille","lat":43.2731,"lon":5.39078,"is_reserved":false,"is_disabled":true,"rental_uris":{"android":"levelo://app?vid=100cc0c6-a769-4671-8fc4-915d1c9ddbe0","ios":"levelo://app?vid=100cc0c6-a769-4671-8fc4-915d1c9ddbe0"},"vehicle_type_id":"4","last_reported":1748027249,"current_range_meters":0,"station_id":"ce4bhgp2rcd13ifvqfe0","pricing_plan_id":"cebpf4jnsgd1na2vs0mg"},{"bike_id":"32c0a92c-ef27-4c4d-8f24-e0106542916e","system_id":"levelo_inurba_marseille","lat":43.27313,"lon":5.39118,"is_reserved":false,"is_disabled":true,"rental_uris":{"android":"levelo://app?vid=32c0a92c-ef27-4c4d-8f24-e0106542916e","ios":"levelo://app?vid=32c0a92c-ef27-4c4d-8f24-e0106542916e"},"vehicle_type_id":"4","last_reported":1748027249,"current_range_meters":0,"station_id":"ce4bhgp2rcd13ifvqfe0","pricing_plan_id":"cebpf4jnsgd1na2vs0mg"},{"bike_id":"8e0bd30d-55cd-44b6-ab77-c2c7900a65f0","system_id":"levelo_inurba_marseille","lat":43.27218,"lon":5.39144,"is_reserved":false,"is_disabled":true,"rental_uris":{"android":"levelo://app?vid=8e0bd30d-55cd-44b6-ab77-c2c7900a65f0","ios":"levelo://app?vid=8e0bd30d-55cd-44b6-ab77-c2c7900a65f0"},"vehicle_type_id":"4","last_reported":1748027249,"current_range_meters":0,"station_id":"ce4bhhp2rcd13ifvqfm0","pricing_plan_id":"cebpf4jnsgd1na2vs0mg"},{"bike_id":"d5556f10-9fe8-4eda-adea-5894176576cd","system_id":"levelo_inurba_marseille","lat":43.27216,"lon":5.39183,"is_reserved":false,"is_disabled":true,"rental_uris":{"android":"levelo://app?vid=d5556f10-9fe8-4eda-adea-5894176576cd","ios":"levelo://app?vid=d5556f10-9fe8-4eda-adea-5894176576cd"},"vehicle_type_id":"4","last_reported":1748027249,"current_range_meters":0,"station_id":"ce4bhhp2rcd13ifvqfm0","pricing_plan_id":"cebpf4jnsgd1na2vs0mg"},{"bike_id":"4b81e971-e774-4c57-8b2d-9dc884fc33bb","system_id":"levelo_inurba_marseille","lat":43.27825,"lon":5.39209,"is_reserved":false,"is_disabled":true,"rental_uris":{"android":"levelo://app?vid=4b81e971-e774-4c57-8b2d-9dc884fc33bb","ios":"levelo://app?vid=4b81e971-e774-4c57-8b2d-9dc884fc33bb"},"vehicle_type_id":"4","last_reported":1748027249,"current_range_meters":0,"station_id":"ce4bhjp2rcd13ifvqga0","pricing_plan_id":"cebpf4jnsgd1na2vs0mg"},{"bike_id":"bdfe31a2-4f89-49e7-a036-c566f08fc011","system_id":"levelo_inurba_marseille","lat":43.27069,"lon":5.40249,"is_reserved":false,"is_disabled":true,"rental_uris":{"android":"levelo://app?vid=bdfe31a2-4f89-49e7-a036-c566f08fc011","ios":"levelo://app?vid=bdfe31a2-4f89-49e7-a036-c566f08fc011"},"vehicle_type_id":"4","last_reported":1748027249,"current_range_meters":0,"station_id":"ce4bhk92rcd13ifvqgc0","pricing_plan_id":"cebpf4jnsgd1na2vs0mg"},{"bike_id":"66725247-f4d1-4ef5-9914-8b04f53528bb","system_id":"levelo_inurba_marseille","lat":43.25109,"lon":5.40321,"is_reserved":false,"is_disabled":true,"rental_uris":{"android":"levelo://app?vid=66725247-f4d1-4ef5-9914-8b04f53528bb","ios":"levelo://app?vid=66725247-f4d1-4ef5-9914-8b04f53528bb"},"vehicle_type_id":"4","last_reported":1748027249,"current_range_meters":0,"station_id":"ce4bhlh2rcd13ifvqgig","pricing_plan_id":"cebpf4jnsgd1na2vs0mg"},{"bike_id":"c88cd536-5384-4654-9fc9-07ecdadb95d6","system_id":"levelo_inurba_marseille","lat":43.28124,"lon":5.42678,"is_reserved":false,"is_disabled":true,"rental_uris":{"android":"levelo://app?vid=c88cd536-5384-4654-9fc9-07ecdadb95d6","ios":"levelo://app?vid=c88cd536-5384-4654-9fc9-07ecdadb95d6"},"vehicle_type_id":"4","last_reported":1748027249,"current_range_meters":0,"station_id":"ce4bhnh2rcd13ifvqgug","pricing_plan_id":"cebpf4jnsgd1na2vs0mg"},{"bike_id":"35da9e7d-355f-430d-8bdb-7c5fc244477e","system_id":"levelo_inurba_marseille","lat":43.28157,"lon":5.42639,"is_reserved":false,"is_disabled":true,"rental_uris":{"android":"levelo://app?vid=35da9e7d-355f-430d-8bdb-7c5fc244477e","ios":"levelo://app?vid=35da9e7d-355f-430d-8bdb-7c5fc244477e"},"vehicle_type_id":"4","last_reported":1748027249,"current_range_meters":0,"station_id":"ce4bhnh2rcd13ifvqgug","pricing_plan_id":"cebpf4jnsgd1na2vs0mg"},{"bike_id":"fed22d71-0a64-45c8-97c1-5a4ced8f0302","system_id":"levelo_inurba_marseille","lat":43.217546,"lon":5.346056,"is_reserved":false,"is_disabled":true,"rental_uris":{"android":"levelo://app?vid=fed22d71-0a64-45c8-97c1-5a4ced8f0302","ios":"levelo://app?vid=fed22d71-0a64-45c8-97c1-5a4ced8f0302"},"vehicle_type_id":"4","last_reported":1748027249,"current_range_meters":0,"station_id":"st_cvj6r9ubvosntc0bgbag","pricing_plan_id":"cebpf4jnsgd1na2vs0mg"},{"bike_id":"116a4869-7c18-440e-9f25-f6a822eab1a3","system_id":"levelo_inurba_marseille","lat":43.307955,"lon":5.381535,"is_reserved":false,"is_disabled":true,"rental_uris":{"android":"levelo://app?vid=116a4869-7c18-440e-9f25-f6a822eab1a3","ios":"levelo://app?vid=116a4869-7c18-440e-9f25-f6a822eab1a3"},"vehicle_type_id":"4","last_reported":1748027249,"current_range_meters":400,"station_id":"ce4bgt12rcd13ifvqce0","pricing_plan_id":"cebpf4jnsgd1na2vs0mg"},{"bike_id":"35744f37-8fd2-4108-967b-3b65cf9c8517","system_id":"levelo_inurba_marseille","lat":43.298039,"lon":5.380821,"is_reserved":false,"is_disabled":true,"rental_uris":{"android":"levelo://app?vid=35744f37-8fd2-4108-967b-3b65cf9c8517","ios":"levelo://app?vid=35744f37-8fd2-4108-967b-3b65cf9c8517"},"vehicle_type_id":"4","last_reported":1748027249,"current_range_meters":400,"station_id":"ce4bh092rcd13ifvqd20","pricing_plan_id":"cebpf4jnsgd1na2vs0mg"},{"bike_id":"93f64131-74b5-4210-b5ec-ba63b35476a7","system_id":"levelo_inurba_marseille","lat":43.292677,"lon":5.384473,"is_reserved":false,"is_disabled":true,"rental_uris":{"android":"levelo://app?vid=93f64131-74b5-4210-b5ec-ba63b35476a7","ios":"levelo://app?vid=93f64131-74b5-4210-b5ec-ba63b35476a7"},"vehicle_type_id":"4","last_reported":1748027249,"current_range_meters":400,"station_id":"ce4bh692rcd13ifvqea0","pricing_plan_id":"cebpf4jnsgd1na2vs0mg"},{"bike_id":"d110f5b9-3d08-4a8e-9575-2f38ee4ca930","system_id":"levelo_inurba_marseille","lat":43.29555,"lon":5.42278,"is_reserved":false,"is_disabled":true,"rental_uris":{"android":"levelo://app?vid=d110f5b9-3d08-4a8e-9575-2f38ee4ca930","ios":"levelo://app?vid=d110f5b9-3d08-4a8e-9575-2f38ee4ca930"},"vehicle_type_id":"4","last_reported":1748027249,"current_range_meters":400,"station_id":"ce4bhph2rcd13ifvqhdg","pricing_plan_id":"cebpf4jnsgd1na2vs0mg"},{"bike_id":"c10089a1-a1f6-4df8-9e1c-2a6c3b10c038","system_id":"levelo_inurba_marseille","lat":43.21721,"lon":5.34633,"is_reserved":false,"is_disabled":true,"rental_uris":{"android":"levelo://app?vid=c10089a1-a1f6-4df8-9e1c-2a6c3b10c038","ios":"levelo://app?vid=c10089a1-a1f6-4df8-9e1c-2a6c3b10c038"},"vehicle_type_id":"4","last_reported":1748027249,"current_range_meters":400,"station_id":"st_cvj6r9ubvosntc0bgbag","pricing_plan_id":"cebpf4jnsgd1na2vs0mg"},{"bike_id":"3eb3bab7-6a7c-465c-921c-e096889494c5","system_id":"levelo_inurba_marseille","lat":43.30647,"lon":5.40111,"is_reserved":false,"is_disabled":true,"rental_uris":{"android":"levelo://app?vid=3eb3bab7-6a7c-465c-921c-e096889494c5","ios":"levelo://app?vid=3eb3bab7-6a7c-465c-921c-e096889494c5"},"vehicle_type_id":"4","last_reported":1748027249,"current_range_meters":1200,"station_id":"ce4bh112rcd13ifvqda0","pricing_plan_id":"cebpf4jnsgd1na2vs0mg"},{"bike_id":"ff5bc685-168d-4360-8290-73e6a383c823","system_id":"levelo_inurba_marseille","lat":43.28406,"lon":5.37519,"is_reserved":false,"is_disabled":true,"rental_uris":{"android":"levelo://app?vid=ff5bc685-168d-4360-8290-73e6a383c823","ios":"levelo://app?vid=ff5bc685-168d-4360-8290-73e6a383c823"},"vehicle_type_id":"4","last_reported":1748027249,"current_range_meters":1200,"station_id":"ce4bh412rcd13ifvqds0","pricing_plan_id":"cebpf4jnsgd1na2vs0mg"},{"bike_id":"5d84ba18-0f83-4763-b48a-a6c21fb4dc86","system_id":"levelo_inurba_marseille","lat":43.284101,"lon":5.375031,"is_reserved":false,"is_disabled":true,"rental_uris":{"android":"levelo://app?vid=5d84ba18-0f83-4763-b48a-a6c21fb4dc86","ios":"levelo://app?vid=5d84ba18-0f83-4763-b48a-a6c21fb4dc86"},"vehicle_type_id":"4","last_reported":1748027249,"current_range_meters":1200,"station_id":"ce4bh412rcd13ifvqds0","pricing_plan_id":"cebpf4jnsgd1na2vs0mg"},{"bike_id":"2bc82808-b2b4-400b-9ed6-7df8296cfb57","system_id":"levelo_inurba_marseille","lat":43.292676,"lon":5.387839,"is_reserved":false,"is_disabled":true,"rental_uris":{"android":"levelo://app?vid=2bc82808-b2b4-400b-9ed6-7df8296cfb57","ios":"levelo://app?vid=2bc82808-b2b4-400b-9ed6-7df8296cfb57"},"vehicle_type_id":"4","last_reported":1748027249,"current_range_meters":1200,"station_id":"ce4bh692rcd13ifvqea0","pricing_plan_id":"cebpf4jnsgd1na2vs0mg"},{"bike_id":"d8b74a30-819e-4b50-bb8a-aaa77cfb3b00","system_id":"levelo_inurba_marseille","lat":43.273104,"lon":5.391107,"is_reserved":false,"is_disabled":true,"rental_uris":{"android":"levelo://app?vid=d8b74a30-819e-4b50-bb8a-aaa77cfb3b00","ios":"levelo://app?vid=d8b74a30-819e-4b50-bb8a-aaa77cfb3b00"},"vehicle_type_id":"4","last_reported":1748027249,"current_range_meters":1200,"station_id":"ce4bhgp2rcd13ifvqfe0","pricing_plan_id":"cebpf4jnsgd1na2vs0mg"},{"bike_id":"4c8479a8-b692-46e2-ba6f-cf364f3bb743","system_id":"levelo_inurba_marseille","lat":43.26944,"lon":5.38643,"is_reserved":false,"is_disabled":true,"rental_uris":{"android":"levelo://app?vid=4c8479a8-b692-46e2-ba6f-cf364f3bb743","ios":"levelo://app?vid=4c8479a8-b692-46e2-ba6f-cf364f3bb743"},"vehicle_type_id":"4","last_reported":1748027249,"current_range_meters":1200,"station_id":"ce4bhh92rcd13ifvqfh0","pricing_plan_id":"cebpf4jnsgd1na2vs0mg"},{"bike_id":"dea94bae-0219-4b6d-bdb8-7a77b2ca5afd","system_id":"levelo_inurba_marseille","lat":43.26954,"lon":5.40273,"is_reserved":false,"is_disabled":true,"rental_uris":{"android":"levelo://app?vid=dea94bae-0219-4b6d-bdb8-7a77b2ca5afd","ios":"levelo://app?vid=dea94bae-0219-4b6d-bdb8-7a77b2ca5afd"},"vehicle_type_id":"4","last_reported":1748027249,"current_range_meters":1200,"station_id":"cjm6bp8fraef2m0cb0m0","pricing_plan_id":"cebpf4jnsgd1na2vs0mg"},{"bike_id":"a0a2d567-9db1-4ddb-a531-1e60cbaa7a7c","system_id":"levelo_inurba_marseille","lat":43.21754,"lon":5.34596,"is_reserved":false,"is_disabled":true,"rental_uris":{"android":"levelo://app?vid=a0a2d567-9db1-4ddb-a531-1e60cbaa7a7c","ios":"levelo://app?vid=a0a2d567-9db1-4ddb-a531-1e60cbaa7a7c"},"vehicle_type_id":"4","last_reported":1748027249,"current_range_meters":1200,"station_id":"st_cvj6r9ubvosntc0bgbag","pricing_plan_id":"cebpf4jnsgd1na2vs0mg"},{"bike_id":"24c903b0-f77d-4d7e-8c59-28f230305f93","system_id":"levelo_inurba_marseille","lat":43.248086,"lon":5.374581,"is_reserved":false,"is_disabled":true,"rental_uris":{"android":"levelo://app?vid=24c903b0-f77d-4d7e-8c59-28f230305f93","ios":"levelo://app?vid=24c903b0-f77d-4d7e-8c59-28f230305f93"},"vehicle_type_id":"4","last_reported":1748027249,"current_range_meters":1600,"station_id":"","pricing_plan_id":"cebpf4jnsgd1na2vs0mg"},{"bike_id":"a14f1140-6a04-46c1-a2ba-a2ca3eac54e8","system_id":"levelo_inurba_marseille","lat":43.30147,"lon":5.38071,"is_reserved":false,"is_disabled":true,"rental_uris":{"android":"levelo://app?vid=a14f1140-6a04-46c1-a2ba-a2ca3eac54e8","ios":"levelo://app?vid=a14f1140-6a04-46c1-a2ba-a2ca3eac54e8"},"vehicle_type_id":"4","last_reported":1748027249,"current_range_meters":1600,"station_id":"ce4bgjp2rcd13ifvqbh0","pricing_plan_id":"cebpf4jnsgd1na2vs0mg"},{"bike_id":"0a8b3937-bce2-4119-b41e-637dd5929e99","system_id":"levelo_inurba_marseille","lat":43.28721,"lon":5.37939,"is_reserved":false,"is_disabled":true,"rental_uris":{"android":"levelo://app?vid=0a8b3937-bce2-4119-b41e-637dd5929e99","ios":"levelo://app?vid=0a8b3937-bce2-4119-b41e-637dd5929e99"},"vehicle_type_id":"4","last_reported":1748027249,"current_range_meters":1600,"station_id":"ce4bh9p2rcd13ifvqec0","pricing_plan_id":"cebpf4jnsgd1na2vs0mg"},{"bike_id":"834929db-5904-4e2d-902c-644c681b1d75","system_id":"levelo_inurba_marseille","lat":43.28986,"lon":5.37826,"is_reserved":false,"is_disabled":true,"rental_uris":{"android":"levelo://app?vid=834929db-5904-4e2d-902c-644c681b1d75","ios":"levelo://app?vid=834929db-5904-4e2d-902c-644c681b1d75"},"vehicle_type_id":"4","last_reported":1748027249,"current_range_meters":1600,"station_id":"ce4bh9p2rcd13ifvqed0","pricing_plan_id":"cebpf4jnsgd1na2vs0mg"},{"bike_id":"f5cbb4b0-513e-4566-90a5-6ac1b4fbf49e","system_id":"levelo_inurba_marseille","lat":43.2761,"lon":5.36116,"is_reserved":false,"is_disabled":true,"rental_uris":{"android":"levelo://app?vid=f5cbb4b0-513e-4566-90a5-6ac1b4fbf49e","ios":"levelo://app?vid=f5cbb4b0-513e-4566-90a5-6ac1b4fbf49e"},"vehicle_type_id":"4","last_reported":1748027249,"current_range_meters":2000,"station_id":"ce4bgj92rcd13ifvqbe0","pricing_plan_id":"cebpf4jnsgd1na2vs0mg"},{"bike_id":"e92b3276-f4ee-4d0c-8b4c-2b3f3025ff0d","system_id":"levelo_inurba_marseille","lat":43.2942,"lon":5.38621,"is_reserved":false,"is_disabled":true,"rental_uris":{"android":"levelo://app?vid=e92b3276-f4ee-4d0c-8b4c-2b3f3025ff0d","ios":"levelo://app?vid=e92b3276-f4ee-4d0c-8b4c-2b3f3025ff0d"},"vehicle_type_id":"4","last_reported":1748027249,"current_range_meters":2000,"station_id":"ce4bh2h2rcd13ifvqdh0","pricing_plan_id":"cebpf4jnsgd1na2vs0mg"},{"bike_id":"82aaa6a9-d068-4356-8f0d-888c20d1b2de","system_id":"levelo_inurba_marseille","lat":43.28675,"lon":5.38661,"is_reserved":false,"is_disabled":false,"rental_uris":{"android":"levelo://app?vid=82aaa6a9-d068-4356-8f0d-888c20d1b2de","ios":"levelo://app?vid=82aaa6a9-d068-4356-8f0d-888c20d1b2de"},"vehicle_type_id":"4","last_reported":1748027249,"current_range_meters":2000,"station_id":"ce4bh492rcd13ifvqdug","pricing_plan_id":"cebpf4jnsgd1na2vs0mg"},{"bike_id":"7cd8d47c-00db-45f6-842a-f307d7eb88e1","system_id":"levelo_inurba_marseille","lat":43.29259,"lon":5.38447,"is_reserved":false,"is_disabled":true,"rental_uris":{"android":"levelo://app?vid=7cd8d47c-00db-45f6-842a-f307d7eb88e1","ios":"levelo://app?vid=7cd8d47c-00db-45f6-842a-f307d7eb88e1"},"vehicle_type_id":"4","last_reported":1748027249,"current_range_meters":2000,"station_id":"ce4bh692rcd13ifvqea0","pricing_plan_id":"cebpf4jnsgd1na2vs0mg"},{"bike_id":"c3c7ae58-40dc-49fe-91c8-045c830c98b8","system_id":"levelo_inurba_marseille","lat":43.31944,"lon":5.44954,"is_reserved":false,"is_disabled":false,"rental_uris":{"android":"levelo://app?vid=c3c7ae58-40dc-49fe-91c8-045c830c98b8","ios":"levelo://app?vid=c3c7ae58-40dc-49fe-91c8-045c830c98b8"},"vehicle_type_id":"4","last_reported":1748027249,"current_range_meters":2800,"station_id":"","pricing_plan_id":"cebpf4jnsgd1na2vs0mg"},{"bike_id":"c775e3b8-01f9-4728-bcb0-853c454e92f0","system_id":"levelo_inurba_marseille","lat":43.29275,"lon":5.36841,"is_reserved":false,"is_disabled":false,"rental_uris":{"android":"levelo://app?vid=c775e3b8-01f9-4728-bcb0-853c454e92f0","ios":"levelo://app?vid=c775e3b8-01f9-4728-bcb0-853c454e92f0"},"vehicle_type_id":"4","last_reported":1748027249,"current_range_meters":2800,"station_id":"ce4bhbp2rcd13ifvqesg","pricing_plan_id":"cebpf4jnsgd1na2vs0mg"},{"bike_id":"eb4b9894-98fd-45ec-94c5-c8a2c123e3f5","system_id":"levelo_inurba_marseille","lat":43.29559,"lon":5.42293,"is_reserved":false,"is_disabled":false,"rental_uris":{"android":"levelo://app?vid=eb4b9894-98fd-45ec-94c5-c8a2c123e3f5","ios":"levelo://app?vid=eb4b9894-98fd-45ec-94c5-c8a2c123e3f5"},"vehicle_type_id":"4","last_reported":1748027249,"current_range_meters":2800,"station_id":"ce4bhph2rcd13ifvqhdg","pricing_plan_id":"cebpf4jnsgd1na2vs0mg"},{"bike_id":"23fb8594-598e-4ccf-a210-b3f3c9e81a6a","system_id":"levelo_inurba_marseille","lat":43.291937,"lon":5.357673,"is_reserved":false,"is_disabled":false,"rental_uris":{"android":"levelo://app?vid=23fb8594-598e-4ccf-a210-b3f3c9e81a6a","ios":"levelo://app?vid=23fb8594-598e-4ccf-a210-b3f3c9e81a6a"},"vehicle_type_id":"4","last_reported":1748027249,"current_range_meters":3200,"station_id":"ce4bgh92rcd13ifvqb40","pricing_plan_id":"cebpf4jnsgd1na2vs0mg"},{"bike_id":"eab1c04f-54b5-4052-9da6-db9b78f7f80d","system_id":"levelo_inurba_marseille","lat":43.2649,"lon":5.39541,"is_reserved":false,"is_disabled":false,"rental_uris":{"android":"levelo://app?vid=eab1c04f-54b5-4052-9da6-db9b78f7f80d","ios":"levelo://app?vid=eab1c04f-54b5-4052-9da6-db9b78f7f80d"},"vehicle_type_id":"4","last_reported":1748027249,"current_range_meters":3200,"station_id":"ce4bhi12rcd13ifvqfq0","pricing_plan_id":"cebpf4jnsgd1na2vs0mg"},{"bike_id":"02af05ed-e631-47e0-b8b7-9c4dacf45aed","system_id":"levelo_inurba_marseille","lat":43.32289,"lon":5.38277,"is_reserved":false,"is_disabled":false,"rental_uris":{"android":"levelo://app?vid=02af05ed-e631-47e0-b8b7-9c4dacf45aed","ios":"levelo://app?vid=02af05ed-e631-47e0-b8b7-9c4dacf45aed"},"vehicle_type_id":"4","last_reported":1748027249,"current_range_meters":3200,"station_id":"ce4bhr12rcd13ifvqhqg","pricing_plan_id":"cebpf4jnsgd1na2vs0mg"},{"bike_id":"6a7ff0f7-2eb3-43dc-ace3-4e4d15c5b23e","system_id":"levelo_inurba_marseille","lat":43.33724,"lon":5.39193,"is_reserved":false,"is_disabled":false,"rental_uris":{"android":"levelo://app?vid=6a7ff0f7-2eb3-43dc-ace3-4e4d15c5b23e","ios":"levelo://app?vid=6a7ff0f7-2eb3-43dc-ace3-4e4d15c5b23e"},"vehicle_type_id":"4","last_reported":1748027249,"current_range_meters":3200,"station_id":"ce4bhr92rcd13ifvqhsg","pricing_plan_id":"cebpf4jnsgd1na2vs0mg"},{"bike_id":"5dc7fea5-2a02-4c7d-a634-33feda377898","system_id":"levelo_inurba_marseille","lat":43.26937,"lon":5.40254,"is_reserved":false,"is_disabled":false,"rental_uris":{"android":"levelo://app?vid=5dc7fea5-2a02-4c7d-a634-33feda377898","ios":"levelo://app?vid=5dc7fea5-2a02-4c7d-a634-33feda377898"},"vehicle_type_id":"4","last_reported":1748027249,"current_range_meters":3200,"station_id":"cjm6bp8fraef2m0cb0m0","pricing_plan_id":"cebpf4jnsgd1na2vs0mg"},{"bike_id":"3fe3d6c4-138a-47df-b6b4-e6f19e8f7d46","system_id":"levelo_inurba_marseille","lat":43.21404,"lon":5.34125,"is_reserved":false,"is_disabled":false,"rental_uris":{"android":"levelo://app?vid=3fe3d6c4-138a-47df-b6b4-e6f19e8f7d46","ios":"levelo://app?vid=3fe3d6c4-138a-47df-b6b4-e6f19e8f7d46"},"vehicle_type_id":"4","last_reported":1748027249,"current_range_meters":3600,"station_id":"","pricing_plan_id":"cebpf4jnsgd1na2vs0mg"},{"bike_id":"cbe3b5ca-238f-41a6-bb94-a8eb61fe04ae","system_id":"levelo_inurba_marseille","lat":43.29917,"lon":5.38503,"is_reserved":false,"is_disabled":false,"rental_uris":{"android":"levelo://app?vid=cbe3b5ca-238f-41a6-bb94-a8eb61fe04ae","ios":"levelo://app?vid=cbe3b5ca-238f-41a6-bb94-a8eb61fe04ae"},"vehicle_type_id":"4","last_reported":1748027249,"current_range_meters":3600,"station_id":"ce4bgj92rcd13ifvqbd0","pricing_plan_id":"cebpf4jnsgd1na2vs0mg"},{"bike_id":"13b2130d-9ac4-4a50-bde6-60fbc2ea911d","system_id":"levelo_inurba_marseille","lat":43.26503,"lon":5.39539,"is_reserved":false,"is_disabled":false,"rental_uris":{"android":"levelo://app?vid=13b2130d-9ac4-4a50-bde6-60fbc2ea911d","ios":"levelo://app?vid=13b2130d-9ac4-4a50-bde6-60fbc2ea911d"},"vehicle_type_id":"4","last_reported":1748027249,"current_range_meters":3600,"station_id":"ce4bhi12rcd13ifvqfq0","pricing_plan_id":"cebpf4jnsgd1na2vs0mg"},{"bike_id":"06a184de-77af-4ee5-ad92-0a94374b8a47","system_id":"levelo_inurba_marseille","lat":43.32002,"lon":5.38161,"is_reserved":false,"is_disabled":false,"rental_uris":{"android":"levelo://app?vid=06a184de-77af-4ee5-ad92-0a94374b8a47","ios":"levelo://app?vid=06a184de-77af-4ee5-ad92-0a94374b8a47"},"vehicle_type_id":"4","last_reported":1748027249,"current_range_meters":3600,"station_id":"ce4bhr12rcd13ifvqhpg","pricing_plan_id":"cebpf4jnsgd1na2vs0mg"},{"bike_id":"eff77c2f-b733-4ef2-87c2-2f70da4d311e","system_id":"levelo_inurba_marseille","lat":43.23196,"lon":5.35547,"is_reserved":false,"is_disabled":false,"rental_uris":{"android":"levelo://app?vid=eff77c2f-b733-4ef2-87c2-2f70da4d311e","ios":"levelo://app?vid=eff77c2f-b733-4ef2-87c2-2f70da4d311e"},"vehicle_type_id":"4","last_reported":1748027249,"current_range_meters":3600,"station_id":"ce4bhu92rcd13ifvqi70","pricing_plan_id":"cebpf4jnsgd1na2vs0mg"},{"bike_id":"0da1da0a-9bf1-4dbe-a8f3-fc3c5620e60e","system_id":"levelo_inurba_marseille","lat":43.31967,"lon":5.38057,"is_reserved":false,"is_disabled":false,"rental_uris":{"android":"levelo://app?vid=0da1da0a-9bf1-4dbe-a8f3-fc3c5620e60e","ios":"levelo://app?vid=0da1da0a-9bf1-4dbe-a8f3-fc3c5620e60e"},"vehicle_type_id":"4","last_reported":1748027249,"current_range_meters":4000,"station_id":"","pricing_plan_id":"cebpf4jnsgd1na2vs0mg"},{"bike_id":"663fc025-6fc1-4004-895e-f0f1709c8797","system_id":"levelo_inurba_marseille","lat":43.29675,"lon":5.36878,"is_reserved":false,"is_disabled":false,"rental_uris":{"android":"levelo://app?vid=663fc025-6fc1-4004-895e-f0f1709c8797","ios":"levelo://app?vid=663fc025-6fc1-4004-895e-f0f1709c8797"},"vehicle_type_id":"4","last_reported":1748027249,"current_range_meters":4000,"station_id":"","pricing_plan_id":"cebpf4jnsgd1na2vs0mg"},{"bike_id":"ad4d8099-03a6-43ca-966f-189fb83ff678","system_id":"levelo_inurba_marseille","lat":43.3129,"lon":5.37404,"is_reserved":false,"is_disabled":false,"rental_uris":{"android":"levelo://app?vid=ad4d8099-03a6-43ca-966f-189fb83ff678","ios":"levelo://app?vid=ad4d8099-03a6-43ca-966f-189fb83ff678"},"vehicle_type_id":"4","last_reported":1748027249,"current_range_meters":4000,"station_id":"","pricing_plan_id":"cebpf4jnsgd1na2vs0mg"},{"bike_id":"f9fb40c0-1fcd-48cb-8e26-3f2dc0fb2451","system_id":"levelo_inurba_marseille","lat":43.33751,"lon":5.37509,"is_reserved":false,"is_disabled":false,"rental_uris":{"android":"levelo://app?vid=f9fb40c0-1fcd-48cb-8e26-3f2dc0fb2451","ios":"levelo://app?vid=f9fb40c0-1fcd-48cb-8e26-3f2dc0fb2451"},"vehicle_type_id":"4","last_reported":1748027249,"current_range_meters":4000,"station_id":"","pricing_plan_id":"cebpf4jnsgd1na2vs0mg"},{"bike_id":"62c02fe6-0216-4330-9215-672c559e1935","system_id":"levelo_inurba_marseille","lat":43.29707,"lon":5.377,"is_reserved":false,"is_disabled":false,"rental_uris":{"android":"levelo://app?vid=62c02fe6-0216-4330-9215-672c559e1935","ios":"levelo://app?vid=62c02fe6-0216-4330-9215-672c559e1935"},"vehicle_type_id":"4","last_reported":1748027249,"current_range_meters":4000,"station_id":"ce4bgkh2rcd13ifvqbl0","pricing_plan_id":"cebpf4jnsgd1na2vs0mg"},{"bike_id":"bf2d7173-e79d-490d-afb7-08b6b85cb610","system_id":"levelo_inurba_marseille","lat":43.2923,"lon":5.36072,"is_reserved":false,"is_disabled":false,"rental_uris":{"android":"levelo://app?vid=bf2d7173-e79d-490d-afb7-08b6b85cb610","ios":"levelo://app?vid=bf2d7173-e79d-490d-afb7-08b6b85cb610"},"vehicle_type_id":"4","last_reported":1748027249,"current_range_meters":4000,"station_id":"ce4bhbh2rcd13ifvqeqg","pricing_plan_id":"cebpf4jnsgd1na2vs0mg"},{"bike_id":"87d12c44-2692-481c-b415-ec131d15b09d","system_id":"levelo_inurba_marseille","lat":43.27917,"lon":5.39579,"is_reserved":false,"is_disabled":false,"rental_uris":{"android":"levelo://app?vid=87d12c44-2692-481c-b415-ec131d15b09d","ios":"levelo://app?vid=87d12c44-2692-481c-b415-ec131d15b09d"},"vehicle_type_id":"4","last_reported":1748027249,"current_range_meters":4000,"station_id":"ce4bhf92rcd13ifvqf40","pricing_plan_id":"cebpf4jnsgd1na2vs0mg"},{"bike_id":"66656a32-e5d1-4f55-9990-1d66253dd64f","system_id":"levelo_inurba_marseille","lat":43.27215,"lon":5.39179,"is_reserved":false,"is_disabled":false,"rental_uris":{"android":"levelo://app?vid=66656a32-e5d1-4f55-9990-1d66253dd64f","ios":"levelo://app?vid=66656a32-e5d1-4f55-9990-1d66253dd64f"},"vehicle_type_id":"4","last_reported":1748027249,"current_range_meters":4000,"station_id":"ce4bhhp2rcd13ifvqfm0","pricing_plan_id":"cebpf4jnsgd1na2vs0mg"},{"bike_id":"80481db6-5092-4fdb-a834-5b16c330428d","system_id":"levelo_inurba_marseille","lat":43.28147,"lon":5.42658,"is_reserved":false,"is_disabled":false,"rental_uris":{"android":"levelo://app?vid=80481db6-5092-4fdb-a834-5b16c330428d","ios":"levelo://app?vid=80481db6-5092-4fdb-a834-5b16c330428d"},"vehicle_type_id":"4","last_reported":1748027249,"current_range_meters":4000,"station_id":"ce4bhnh2rcd13ifvqgug","pricing_plan_id":"cebpf4jnsgd1na2vs0mg"},{"bike_id":"763e4257-7355-4741-8f63-1069c560b88e","system_id":"levelo_inurba_marseille","lat":43.25499,"lon":5.37647,"is_reserved":false,"is_disabled":false,"rental_uris":{"android":"levelo://app?vid=763e4257-7355-4741-8f63-1069c560b88e","ios":"levelo://app?vid=763e4257-7355-4741-8f63-1069c560b88e"},"vehicle_type_id":"4","last_reported":1748027249,"current_range_meters":4400,"station_id":"ce4bhh12rcd13ifvqff0","pricing_plan_id":"cebpf4jnsgd1na2vs0mg"},{"bike_id":"df9a372e-f360-4249-b510-21a29330ff54","system_id":"levelo_inurba_marseille","lat":43.27211,"lon":5.39189,"is_reserved":false,"is_disabled":false,"rental_uris":{"android":"levelo://app?vid=df9a372e-f360-4249-b510-21a29330ff54","ios":"levelo://app?vid=df9a372e-f360-4249-b510-21a29330ff54"},"vehicle_type_id":"4","last_reported":1748027249,"current_range_meters":4400,"station_id":"ce4bhhp2rcd13ifvqfm0","pricing_plan_id":"cebpf4jnsgd1na2vs0mg"},{"bike_id":"5ec14d0e-46b9-4858-a749-8034228116ef","system_id":"levelo_inurba_marseille","lat":43.25865,"lon":5.39905,"is_reserved":false,"is_disabled":false,"rental_uris":{"android":"levelo://app?vid=5ec14d0e-46b9-4858-a749-8034228116ef","ios":"levelo://app?vid=5ec14d0e-46b9-4858-a749-8034228116ef"},"vehicle_type_id":"4","last_reported":1748027249,"current_range_meters":4400,"station_id":"ce4bhl92rcd13ifvqghg","pricing_plan_id":"cebpf4jnsgd1na2vs0mg"},{"bike_id":"8ee8034e-974a-4887-b95c-c5fff0e0a2d3","system_id":"levelo_inurba_marseille","lat":43.30326,"lon":5.40443,"is_reserved":false,"is_disabled":false,"rental_uris":{"android":"levelo://app?vid=8ee8034e-974a-4887-b95c-c5fff0e0a2d3","ios":"levelo://app?vid=8ee8034e-974a-4887-b95c-c5fff0e0a2d3"},"vehicle_type_id":"4","last_reported":1748027249,"current_range_meters":4800,"station_id":"ce4bh012rcd13ifvqd10","pricing_plan_id":"cebpf4jnsgd1na2vs0mg"},{"bike_id":"ada9b8d7-20ba-448f-bc74-58b475f73048","system_id":"levelo_inurba_marseille","lat":43.25497,"lon":5.37649,"is_reserved":false,"is_disabled":false,"rental_uris":{"android":"levelo://app?vid=ada9b8d7-20ba-448f-bc74-58b475f73048","ios":"levelo://app?vid=ada9b8d7-20ba-448f-bc74-58b475f73048"},"vehicle_type_id":"4","last_reported":1748027249,"current_range_meters":4800,"station_id":"ce4bhh12rcd13ifvqff0","pricing_plan_id":"cebpf4jnsgd1na2vs0mg"},{"bike_id":"27653dcd-dec9-4f13-b172-8968c20c1725","system_id":"levelo_inurba_marseille","lat":43.238534,"lon":5.430956,"is_reserved":false,"is_disabled":false,"rental_uris":{"android":"levelo://app?vid=27653dcd-dec9-4f13-b172-8968c20c1725","ios":"levelo://app?vid=27653dcd-dec9-4f13-b172-8968c20c1725"},"vehicle_type_id":"4","last_reported":1748027249,"current_range_meters":5600,"station_id":"","pricing_plan_id":"cebpf4jnsgd1na2vs0mg"},{"bike_id":"994141d8-8bad-410f-8c68-5aba0da2d08a","system_id":"levelo_inurba_marseille","lat":43.27625,"lon":5.3612,"is_reserved":false,"is_disabled":false,"rental_uris":{"android":"levelo://app?vid=994141d8-8bad-410f-8c68-5aba0da2d08a","ios":"levelo://app?vid=994141d8-8bad-410f-8c68-5aba0da2d08a"},"vehicle_type_id":"4","last_reported":1748027249,"current_range_meters":5600,"station_id":"ce4bgj92rcd13ifvqbe0","pricing_plan_id":"cebpf4jnsgd1na2vs0mg"},{"bike_id":"0b0ffbc3-fc96-4c1b-9968-19fb08ec54ef","system_id":"levelo_inurba_marseille","lat":43.27426,"lon":5.39424,"is_reserved":false,"is_disabled":false,"rental_uris":{"android":"levelo://app?vid=0b0ffbc3-fc96-4c1b-9968-19fb08ec54ef","ios":"levelo://app?vid=0b0ffbc3-fc96-4c1b-9968-19fb08ec54ef"},"vehicle_type_id":"4","last_reported":1748027249,"current_range_meters":5600,"station_id":"ce4bhdp2rcd13ifvqf20","pricing_plan_id":"cebpf4jnsgd1na2vs0mg"},{"bike_id":"3c721735-3ee7-462b-ae42-e0d07bfefcc6","system_id":"levelo_inurba_marseille","lat":43.273222,"lon":5.390774,"is_reserved":false,"is_disabled":false,"rental_uris":{"android":"levelo://app?vid=3c721735-3ee7-462b-ae42-e0d07bfefcc6","ios":"levelo://app?vid=3c721735-3ee7-462b-ae42-e0d07bfefcc6"},"vehicle_type_id":"4","last_reported":1748027249,"current_range_meters":5600,"station_id":"ce4bhgp2rcd13ifvqfe0","pricing_plan_id":"cebpf4jnsgd1na2vs0mg"},{"bike_id":"2beacbd4-9ba8-4aa5-99c8-d3c30bd9fb89","system_id":"levelo_inurba_marseille","lat":43.28005,"lon":5.40011,"is_reserved":false,"is_disabled":false,"rental_uris":{"android":"levelo://app?vid=2beacbd4-9ba8-4aa5-99c8-d3c30bd9fb89","ios":"levelo://app?vid=2beacbd4-9ba8-4aa5-99c8-d3c30bd9fb89"},"vehicle_type_id":"4","last_reported":1748027249,"current_range_meters":5600,"station_id":"ce4bho92rcd13ifvqh4g","pricing_plan_id":"cebpf4jnsgd1na2vs0mg"},{"bike_id":"288184ea-8a0a-4691-95bf-fd7aea14a92d","system_id":"levelo_inurba_marseille","lat":43.28402,"lon":5.3752,"is_reserved":false,"is_disabled":false,"rental_uris":{"android":"levelo://app?vid=288184ea-8a0a-4691-95bf-fd7aea14a92d","ios":"levelo://app?vid=288184ea-8a0a-4691-95bf-fd7aea14a92d"},"vehicle_type_id":"4","last_reported":1748027249,"current_range_meters":6000,"station_id":"ce4bh412rcd13ifvqds0","pricing_plan_id":"cebpf4jnsgd1na2vs0mg"},{"bike_id":"6df3ddc8-1018-416a-a929-9bf22a851a08","system_id":"levelo_inurba_marseille","lat":43.254957,"lon":5.376451,"is_reserved":false,"is_disabled":false,"rental_uris":{"android":"levelo://app?vid=6df3ddc8-1018-416a-a929-9bf22a851a08","ios":"levelo://app?vid=6df3ddc8-1018-416a-a929-9bf22a851a08"},"vehicle_type_id":"4","last_reported":1748027249,"current_range_meters":6000,"station_id":"ce4bhh12rcd13ifvqff0","pricing_plan_id":"cebpf4jnsgd1na2vs0mg"},{"bike_id":"6401dc59-33c5-4ea8-9fd9-58a0ceb2f6ad","system_id":"levelo_inurba_marseille","lat":43.27229,"lon":5.39195,"is_reserved":false,"is_disabled":false,"rental_uris":{"android":"levelo://app?vid=6401dc59-33c5-4ea8-9fd9-58a0ceb2f6ad","ios":"levelo://app?vid=6401dc59-33c5-4ea8-9fd9-58a0ceb2f6ad"},"vehicle_type_id":"4","last_reported":1748027249,"current_range_meters":6000,"station_id":"ce4bhhp2rcd13ifvqfm0","pricing_plan_id":"cebpf4jnsgd1na2vs0mg"},{"bike_id":"d9a0f01b-fda8-4ae1-a3af-6ca4afa98529","system_id":"levelo_inurba_marseille","lat":43.26522,"lon":5.39545,"is_reserved":false,"is_disabled":false,"rental_uris":{"android":"levelo://app?vid=d9a0f01b-fda8-4ae1-a3af-6ca4afa98529","ios":"levelo://app?vid=d9a0f01b-fda8-4ae1-a3af-6ca4afa98529"},"vehicle_type_id":"4","last_reported":1748027249,"current_range_meters":6000,"station_id":"ce4bhi12rcd13ifvqfq0","pricing_plan_id":"cebpf4jnsgd1na2vs0mg"},{"bike_id":"b3602979-436e-45e3-9b6a-acfe34836bb3","system_id":"levelo_inurba_marseille","lat":43.28159,"lon":5.42633,"is_reserved":false,"is_disabled":false,"rental_uris":{"android":"levelo://app?vid=b3602979-436e-45e3-9b6a-acfe34836bb3","ios":"levelo://app?vid=b3602979-436e-45e3-9b6a-acfe34836bb3"},"vehicle_type_id":"4","last_reported":1748027249,"current_range_meters":6000,"station_id":"ce4bhnh2rcd13ifvqgug","pricing_plan_id":"cebpf4jnsgd1na2vs0mg"},{"bike_id":"93a344e6-8243-4070-bf43-270634e364fe","system_id":"levelo_inurba_marseille","lat":43.27984,"lon":5.40046,"is_reserved":false,"is_disabled":false,"rental_uris":{"android":"levelo://app?vid=93a344e6-8243-4070-bf43-270634e364fe","ios":"levelo://app?vid=93a344e6-8243-4070-bf43-270634e364fe"},"vehicle_type_id":"4","last_reported":1748027249,"current_range_meters":6000,"station_id":"ce4bho92rcd13ifvqh4g","pricing_plan_id":"cebpf4jnsgd1na2vs0mg"},{"bike_id":"b26d73fb-78c1-4ee4-9c58-2037b09c28a1","system_id":"levelo_inurba_marseille","lat":43.26945,"lon":5.40243,"is_reserved":false,"is_disabled":false,"rental_uris":{"android":"levelo://app?vid=b26d73fb-78c1-4ee4-9c58-2037b09c28a1","ios":"levelo://app?vid=b26d73fb-78c1-4ee4-9c58-2037b09c28a1"},"vehicle_type_id":"4","last_reported":1748027249,"current_range_meters":6000,"station_id":"cjm6bp8fraef2m0cb0m0","pricing_plan_id":"cebpf4jnsgd1na2vs0mg"},{"bike_id":"31110881-d64f-45f8-9810-bbf84a002836","system_id":"levelo_inurba_marseille","lat":43.28321,"lon":5.46117,"is_reserved":false,"is_disabled":false,"rental_uris":{"android":"levelo://app?vid=31110881-d64f-45f8-9810-bbf84a002836","ios":"levelo://app?vid=31110881-d64f-45f8-9810-bbf84a002836"},"vehicle_type_id":"4","last_reported":1748027249,"current_range_meters":6400,"station_id":"","pricing_plan_id":"cebpf4jnsgd1na2vs0mg"},{"bike_id":"c139e568-30e4-4816-a4d0-47133acc2e30","system_id":"levelo_inurba_marseille","lat":43.31222,"lon":5.36791,"is_reserved":false,"is_disabled":false,"rental_uris":{"android":"levelo://app?vid=c139e568-30e4-4816-a4d0-47133acc2e30","ios":"levelo://app?vid=c139e568-30e4-4816-a4d0-47133acc2e30"},"vehicle_type_id":"4","last_reported":1748027249,"current_range_meters":6400,"station_id":"","pricing_plan_id":"cebpf4jnsgd1na2vs0mg"},{"bike_id":"b467c801-3c96-4bf4-844a-0f59d968e4ee","system_id":"levelo_inurba_marseille","lat":43.21758,"lon":5.34603,"is_reserved":false,"is_disabled":false,"rental_uris":{"android":"levelo://app?vid=b467c801-3c96-4bf4-844a-0f59d968e4ee","ios":"levelo://app?vid=b467c801-3c96-4bf4-844a-0f59d968e4ee"},"vehicle_type_id":"4","last_reported":1748027249,"current_range_meters":6400,"station_id":"","pricing_plan_id":"cebpf4jnsgd1na2vs0mg"},{"bike_id":"d256c6a4-d35b-4c32-b7db-2bac8ab63b70","system_id":"levelo_inurba_marseille","lat":43.23201,"lon":5.3555,"is_reserved":false,"is_disabled":false,"rental_uris":{"android":"levelo://app?vid=d256c6a4-d35b-4c32-b7db-2bac8ab63b70","ios":"levelo://app?vid=d256c6a4-d35b-4c32-b7db-2bac8ab63b70"},"vehicle_type_id":"4","last_reported":1748027249,"current_range_meters":6400,"station_id":"ce4bhu92rcd13ifvqi70","pricing_plan_id":"cebpf4jnsgd1na2vs0mg"},{"bike_id":"6237efe6-e96f-450b-a659-4a0752e223dd","system_id":"levelo_inurba_marseille","lat":43.26932,"lon":5.40265,"is_reserved":false,"is_disabled":false,"rental_uris":{"android":"levelo://app?vid=6237efe6-e96f-450b-a659-4a0752e223dd","ios":"levelo://app?vid=6237efe6-e96f-450b-a659-4a0752e223dd"},"vehicle_type_id":"4","last_reported":1748027249,"current_range_meters":6400,"station_id":"cjm6bp8fraef2m0cb0m0","pricing_plan_id":"cebpf4jnsgd1na2vs0mg"},{"bike_id":"bc409db9-8a12-4d53-bab4-001367099efe","system_id":"levelo_inurba_marseille","lat":43.26942,"lon":5.40248,"is_reserved":false,"is_disabled":false,"rental_uris":{"android":"levelo://app?vid=bc409db9-8a12-4d53-bab4-001367099efe","ios":"levelo://app?vid=bc409db9-8a12-4d53-bab4-001367099efe"},"vehicle_type_id":"4","last_reported":1748027249,"current_range_meters":6400,"station_id":"cjm6bp8fraef2m0cb0m0","pricing_plan_id":"cebpf4jnsgd1na2vs0mg"},{"bike_id":"950cad50-4e47-43b4-ba8e-d97ac6386634","system_id":"levelo_inurba_marseille","lat":43.255774,"lon":5.382209,"is_reserved":false,"is_disabled":false,"rental_uris":{"android":"levelo://app?vid=950cad50-4e47-43b4-ba8e-d97ac6386634","ios":"levelo://app?vid=950cad50-4e47-43b4-ba8e-d97ac6386634"},"vehicle_type_id":"4","last_reported":1748027249,"current_range_meters":6800,"station_id":"","pricing_plan_id":"cebpf4jnsgd1na2vs0mg"},{"bike_id":"0981d069-1aab-472a-a997-f8b676a1a5b9","system_id":"levelo_inurba_marseille","lat":43.30464,"lon":5.37904,"is_reserved":false,"is_disabled":false,"rental_uris":{"android":"levelo://app?vid=0981d069-1aab-472a-a997-f8b676a1a5b9","ios":"levelo://app?vid=0981d069-1aab-472a-a997-f8b676a1a5b9"},"vehicle_type_id":"4","last_reported":1748027249,"current_range_meters":6800,"station_id":"ce4bgup2rcd13ifvqcn0","pricing_plan_id":"cebpf4jnsgd1na2vs0mg"},{"bike_id":"c85674ec-e7f9-401e-a064-7a8aef2a83b5","system_id":"levelo_inurba_marseille","lat":43.273777,"lon":5.362652,"is_reserved":false,"is_disabled":false,"rental_uris":{"android":"levelo://app?vid=c85674ec-e7f9-401e-a064-7a8aef2a83b5","ios":"levelo://app?vid=c85674ec-e7f9-401e-a064-7a8aef2a83b5"},"vehicle_type_id":"4","last_reported":1748027249,"current_range_meters":6800,"station_id":"ce4bhbh2rcd13ifvqeo0","pricing_plan_id":"cebpf4jnsgd1na2vs0mg"},{"bike_id":"ff9ed5d3-5809-498d-b57a-7d5f4c64884c","system_id":"levelo_inurba_marseille","lat":43.27206,"lon":5.39175,"is_reserved":false,"is_disabled":false,"rental_uris":{"android":"levelo://app?vid=ff9ed5d3-5809-498d-b57a-7d5f4c64884c","ios":"levelo://app?vid=ff9ed5d3-5809-498d-b57a-7d5f4c64884c"},"vehicle_type_id":"4","last_reported":1748027249,"current_range_meters":6800,"station_id":"ce4bhhp2rcd13ifvqfm0","pricing_plan_id":"cebpf4jnsgd1na2vs0mg"},{"bike_id":"90c667ab-28e0-43bd-a854-060ba0f89c0a","system_id":"levelo_inurba_marseille","lat":43.25581,"lon":5.38242,"is_reserved":false,"is_disabled":false,"rental_uris":{"android":"levelo://app?vid=90c667ab-28e0-43bd-a854-060ba0f89c0a","ios":"levelo://app?vid=90c667ab-28e0-43bd-a854-060ba0f89c0a"},"vehicle_type_id":"4","last_reported":1748027249,"current_range_meters":6800,"station_id":"ce4bhih2rcd13ifvqfs0","pricing_plan_id":"cebpf4jnsgd1na2vs0mg"},{"bike_id":"7dfdfdc8-9c79-46b6-9a4b-924773b53f29","system_id":"levelo_inurba_marseille","lat":43.268621,"lon":5.391666,"is_reserved":false,"is_disabled":false,"rental_uris":{"android":"levelo://app?vid=7dfdfdc8-9c79-46b6-9a4b-924773b53f29","ios":"levelo://app?vid=7dfdfdc8-9c79-46b6-9a4b-924773b53f29"},"vehicle_type_id":"4","last_reported":1748027249,"current_range_meters":7200,"station_id":"","pricing_plan_id":"cebpf4jnsgd1na2vs0mg"},{"bike_id":"b4baac40-ec59-445a-9fc9-cd4356edf61e","system_id":"levelo_inurba_marseille","lat":43.26243,"lon":5.40501,"is_reserved":false,"is_disabled":false,"rental_uris":{"android":"levelo://app?vid=b4baac40-ec59-445a-9fc9-cd4356edf61e","ios":"levelo://app?vid=b4baac40-ec59-445a-9fc9-cd4356edf61e"},"vehicle_type_id":"4","last_reported":1748027249,"current_range_meters":7200,"station_id":"","pricing_plan_id":"cebpf4jnsgd1na2vs0mg"},{"bike_id":"7cf69e3f-4e47-493e-b746-806ae0b0e04f","system_id":"levelo_inurba_marseille","lat":43.29931,"lon":5.36539,"is_reserved":false,"is_disabled":false,"rental_uris":{"android":"levelo://app?vid=7cf69e3f-4e47-493e-b746-806ae0b0e04f","ios":"levelo://app?vid=7cf69e3f-4e47-493e-b746-806ae0b0e04f"},"vehicle_type_id":"4","last_reported":1748027249,"current_range_meters":7200,"station_id":"ce4bgm92rcd13ifvqbr0","pricing_plan_id":"cebpf4jnsgd1na2vs0mg"},{"bike_id":"8f2916e8-d10c-4a05-8b2b-ebe68ba16b36","system_id":"levelo_inurba_marseille","lat":43.26673,"lon":5.38293,"is_reserved":false,"is_disabled":false,"rental_uris":{"android":"levelo://app?vid=8f2916e8-d10c-4a05-8b2b-ebe68ba16b36","ios":"levelo://app?vid=8f2916e8-d10c-4a05-8b2b-ebe68ba16b36"},"vehicle_type_id":"4","last_reported":1748027249,"current_range_meters":7200,"station_id":"ce4bhg92rcd13ifvqf90","pricing_plan_id":"cebpf4jnsgd1na2vs0mg"},{"bike_id":"606dc978-f022-4e2b-92ed-cad7d1f3dcad","system_id":"levelo_inurba_marseille","lat":43.26685,"lon":5.38268,"is_reserved":false,"is_disabled":false,"rental_uris":{"android":"levelo://app?vid=606dc978-f022-4e2b-92ed-cad7d1f3dcad","ios":"levelo://app?vid=606dc978-f022-4e2b-92ed-cad7d1f3dcad"},"vehicle_type_id":"4","last_reported":1748027249,"current_range_meters":7200,"station_id":"ce4bhg92rcd13ifvqf90","pricing_plan_id":"cebpf4jnsgd1na2vs0mg"},{"bike_id":"f964d8b1-0b91-46ab-9d80-ebd4c26a8b6f","system_id":"levelo_inurba_marseille","lat":43.27243,"lon":5.39132,"is_reserved":false,"is_disabled":false,"rental_uris":{"android":"levelo://app?vid=f964d8b1-0b91-46ab-9d80-ebd4c26a8b6f","ios":"levelo://app?vid=f964d8b1-0b91-46ab-9d80-ebd4c26a8b6f"},"vehicle_type_id":"4","last_reported":1748027249,"current_range_meters":7200,"station_id":"ce4bhhp2rcd13ifvqfm0","pricing_plan_id":"cebpf4jnsgd1na2vs0mg"},{"bike_id":"2ce3d4c5-3e80-4db2-a77a-8ecfeae04f07","system_id":"levelo_inurba_marseille","lat":43.272593,"lon":5.390843,"is_reserved":false,"is_disabled":false,"rental_uris":{"android":"levelo://app?vid=2ce3d4c5-3e80-4db2-a77a-8ecfeae04f07","ios":"levelo://app?vid=2ce3d4c5-3e80-4db2-a77a-8ecfeae04f07"},"vehicle_type_id":"4","last_reported":1748027249,"current_range_meters":7200,"station_id":"ce4bhhp2rcd13ifvqfm0","pricing_plan_id":"cebpf4jnsgd1na2vs0mg"},{"bike_id":"642cb7b7-e7c4-4185-b975-0e4bd47c9f56","system_id":"levelo_inurba_marseille","lat":43.25582,"lon":5.38233,"is_reserved":false,"is_disabled":false,"rental_uris":{"android":"levelo://app?vid=642cb7b7-e7c4-4185-b975-0e4bd47c9f56","ios":"levelo://app?vid=642cb7b7-e7c4-4185-b975-0e4bd47c9f56"},"vehicle_type_id":"4","last_reported":1748027249,"current_range_meters":7200,"station_id":"ce4bhih2rcd13ifvqfs0","pricing_plan_id":"cebpf4jnsgd1na2vs0mg"},{"bike_id":"8c38ab61-8ea9-4e3e-9697-0822377b54c2","system_id":"levelo_inurba_marseille","lat":43.25866,"lon":5.39901,"is_reserved":false,"is_disabled":false,"rental_uris":{"android":"levelo://app?vid=8c38ab61-8ea9-4e3e-9697-0822377b54c2","ios":"levelo://app?vid=8c38ab61-8ea9-4e3e-9697-0822377b54c2"},"vehicle_type_id":"4","last_reported":1748027249,"current_range_meters":7200,"station_id":"ce4bhl92rcd13ifvqghg","pricing_plan_id":"cebpf4jnsgd1na2vs0mg"},{"bike_id":"e250da42-8b61-4a73-8ff4-ac2e965c5b87","system_id":"levelo_inurba_marseille","lat":43.2586,"lon":5.39904,"is_reserved":false,"is_disabled":false,"rental_uris":{"android":"levelo://app?vid=e250da42-8b61-4a73-8ff4-ac2e965c5b87","ios":"levelo://app?vid=e250da42-8b61-4a73-8ff4-ac2e965c5b87"},"vehicle_type_id":"4","last_reported":1748027249,"current_range_meters":7200,"station_id":"ce4bhl92rcd13ifvqghg","pricing_plan_id":"cebpf4jnsgd1na2vs0mg"},{"bike_id":"1f93c8ee-2186-42f9-a6f7-69ae5eb9a072","system_id":"levelo_inurba_marseille","lat":43.28607,"lon":5.37063,"is_reserved":false,"is_disabled":false,"rental_uris":{"android":"levelo://app?vid=1f93c8ee-2186-42f9-a6f7-69ae5eb9a072","ios":"levelo://app?vid=1f93c8ee-2186-42f9-a6f7-69ae5eb9a072"},"vehicle_type_id":"4","last_reported":1748027249,"current_range_meters":7200,"station_id":"ce4bht12rcd13ifvqi60","pricing_plan_id":"cebpf4jnsgd1na2vs0mg"},{"bike_id":"ae5118b2-34b2-4d6c-8f2f-5ec3cd71528f","system_id":"levelo_inurba_marseille","lat":43.23198,"lon":5.35545,"is_reserved":false,"is_disabled":false,"rental_uris":{"android":"levelo://app?vid=ae5118b2-34b2-4d6c-8f2f-5ec3cd71528f","ios":"levelo://app?vid=ae5118b2-34b2-4d6c-8f2f-5ec3cd71528f"},"vehicle_type_id":"4","last_reported":1748027249,"current_range_meters":7200,"station_id":"ce4bhu92rcd13ifvqi70","pricing_plan_id":"cebpf4jnsgd1na2vs0mg"},{"bike_id":"30d49d23-f08a-4506-b918-c39e5ce750b9","system_id":"levelo_inurba_marseille","lat":43.26822,"lon":5.40231,"is_reserved":false,"is_disabled":false,"rental_uris":{"android":"levelo://app?vid=30d49d23-f08a-4506-b918-c39e5ce750b9","ios":"levelo://app?vid=30d49d23-f08a-4506-b918-c39e5ce750b9"},"vehicle_type_id":"4","last_reported":1748027249,"current_range_meters":7200,"station_id":"ce501612rcd8frsf0b60","pricing_plan_id":"cebpf4jnsgd1na2vs0mg"},{"bike_id":"6eac4826-6c71-4cd3-a404-229c1deee238","system_id":"levelo_inurba_marseille","lat":43.26933,"lon":5.40274,"is_reserved":false,"is_disabled":false,"rental_uris":{"android":"levelo://app?vid=6eac4826-6c71-4cd3-a404-229c1deee238","ios":"levelo://app?vid=6eac4826-6c71-4cd3-a404-229c1deee238"},"vehicle_type_id":"4","last_reported":1748027249,"current_range_meters":7200,"station_id":"cjm6bp8fraef2m0cb0m0","pricing_plan_id":"cebpf4jnsgd1na2vs0mg"},{"bike_id":"2ac58fa5-8197-4eff-a115-23fe49e74316","system_id":"levelo_inurba_marseille","lat":43.22934,"lon":5.35408,"is_reserved":false,"is_disabled":false,"rental_uris":{"android":"levelo://app?vid=2ac58fa5-8197-4eff-a115-23fe49e74316","ios":"levelo://app?vid=2ac58fa5-8197-4eff-a115-23fe49e74316"},"vehicle_type_id":"4","last_reported":1748027249,"current_range_meters":7200,"station_id":"cpo3532slgdg3j2ikp40","pricing_plan_id":"cebpf4jnsgd1na2vs0mg"},{"bike_id":"ef3c4886-d9f4-4c03-81f9-f922060fbfdb","system_id":"levelo_inurba_marseille","lat":43.27272,"lon":5.39038,"is_reserved":false,"is_disabled":false,"rental_uris":{"android":"levelo://app?vid=ef3c4886-d9f4-4c03-81f9-f922060fbfdb","ios":"levelo://app?vid=ef3c4886-d9f4-4c03-81f9-f922060fbfdb"},"vehicle_type_id":"4","last_reported":1748027249,"current_range_meters":8000,"station_id":"","pricing_plan_id":"cebpf4jnsgd1na2vs0mg"},{"bike_id":"c761ee84-2d9d-4da3-a10d-38ed1074b620","system_id":"levelo_inurba_marseille","lat":43.310022,"lon":5.375304,"is_reserved":false,"is_disabled":false,"rental_uris":{"android":"levelo://app?vid=c761ee84-2d9d-4da3-a10d-38ed1074b620","ios":"levelo://app?vid=c761ee84-2d9d-4da3-a10d-38ed1074b620"},"vehicle_type_id":"4","last_reported":1748027249,"current_range_meters":8000,"station_id":"","pricing_plan_id":"cebpf4jnsgd1na2vs0mg"},{"bike_id":"9f2731ba-0dee-427b-bb12-8a981a4ce170","system_id":"levelo_inurba_marseille","lat":43.30299,"lon":5.39208,"is_reserved":false,"is_disabled":false,"rental_uris":{"android":"levelo://app?vid=9f2731ba-0dee-427b-bb12-8a981a4ce170","ios":"levelo://app?vid=9f2731ba-0dee-427b-bb12-8a981a4ce170"},"vehicle_type_id":"4","last_reported":1748027249,"current_range_meters":8000,"station_id":"ce4bgkh2rcd13ifvqbk0","pricing_plan_id":"cebpf4jnsgd1na2vs0mg"},{"bike_id":"9f7f7a67-9446-430f-adca-750a5275a823","system_id":"levelo_inurba_marseille","lat":43.2838,"lon":5.38622,"is_reserved":false,"is_disabled":false,"rental_uris":{"android":"levelo://app?vid=9f7f7a67-9446-430f-adca-750a5275a823","ios":"levelo://app?vid=9f7f7a67-9446-430f-adca-750a5275a823"},"vehicle_type_id":"4","last_reported":1748027249,"current_range_meters":8000,"station_id":"ce4bh492rcd13ifvqdvg","pricing_plan_id":"cebpf4jnsgd1na2vs0mg"},{"bike_id":"c3000da3-01cc-4927-a7d8-aa0ca813507b","system_id":"levelo_inurba_marseille","lat":43.274218,"lon":5.394198,"is_reserved":false,"is_disabled":false,"rental_uris":{"android":"levelo://app?vid=c3000da3-01cc-4927-a7d8-aa0ca813507b","ios":"levelo://app?vid=c3000da3-01cc-4927-a7d8-aa0ca813507b"},"vehicle_type_id":"4","last_reported":1748027249,"current_range_meters":8000,"station_id":"ce4bhdp2rcd13ifvqf20","pricing_plan_id":"cebpf4jnsgd1na2vs0mg"},{"bike_id":"55baf057-7b54-4dbc-b181-48215a82e70a","system_id":"levelo_inurba_marseille","lat":43.24806,"lon":5.37455,"is_reserved":false,"is_disabled":false,"rental_uris":{"android":"levelo://app?vid=55baf057-7b54-4dbc-b181-48215a82e70a","ios":"levelo://app?vid=55baf057-7b54-4dbc-b181-48215a82e70a"},"vehicle_type_id":"4","last_reported":1748027249,"current_range_meters":8000,"station_id":"ce4bhgh2rcd13ifvqfb0","pricing_plan_id":"cebpf4jnsgd1na2vs0mg"},{"bike_id":"769c3939-f275-406f-a98a-62526338776d","system_id":"levelo_inurba_marseille","lat":43.27331,"lon":5.39113,"is_reserved":false,"is_disabled":false,"rental_uris":{"android":"levelo://app?vid=769c3939-f275-406f-a98a-62526338776d","ios":"levelo://app?vid=769c3939-f275-406f-a98a-62526338776d"},"vehicle_type_id":"4","last_reported":1748027249,"current_range_meters":8000,"station_id":"ce4bhgp2rcd13ifvqfe0","pricing_plan_id":"cebpf4jnsgd1na2vs0mg"},{"bike_id":"880f78e1-46e2-477a-82fa-92ebdf272e1c","system_id":"levelo_inurba_marseille","lat":43.280792,"lon":5.396662,"is_reserved":false,"is_disabled":false,"rental_uris":{"android":"levelo://app?vid=880f78e1-46e2-477a-82fa-92ebdf272e1c","ios":"levelo://app?vid=880f78e1-46e2-477a-82fa-92ebdf272e1c"},"vehicle_type_id":"4","last_reported":1748027249,"current_range_meters":8000,"station_id":"ce4bho12rcd13ifvqh2g","pricing_plan_id":"cebpf4jnsgd1na2vs0mg"},{"bike_id":"025730a1-3559-474f-887d-ec599ae24b9f","system_id":"levelo_inurba_marseille","lat":43.26979,"lon":5.40221,"is_reserved":false,"is_disabled":false,"rental_uris":{"android":"levelo://app?vid=025730a1-3559-474f-887d-ec599ae24b9f","ios":"levelo://app?vid=025730a1-3559-474f-887d-ec599ae24b9f"},"vehicle_type_id":"4","last_reported":1748027249,"current_range_meters":8000,"station_id":"cjm6bp8fraef2m0cb0m0","pricing_plan_id":"cebpf4jnsgd1na2vs0mg"},{"bike_id":"e2d341e1-0789-46d1-be25-3abcb6af9d9e","system_id":"levelo_inurba_marseille","lat":43.22952,"lon":5.35415,"is_reserved":false,"is_disabled":false,"rental_uris":{"android":"levelo://app?vid=e2d341e1-0789-46d1-be25-3abcb6af9d9e","ios":"levelo://app?vid=e2d341e1-0789-46d1-be25-3abcb6af9d9e"},"vehicle_type_id":"4","last_reported":1748027249,"current_range_meters":8000,"station_id":"cpo3532slgdg3j2ikp40","pricing_plan_id":"cebpf4jnsgd1na2vs0mg"},{"bike_id":"afdf90c6-5b9d-4aaf-ae57-9e04bcff99b4","system_id":"levelo_inurba_marseille","lat":43.29737,"lon":5.38006,"is_reserved":false,"is_disabled":false,"rental_uris":{"android":"levelo://app?vid=afdf90c6-5b9d-4aaf-ae57-9e04bcff99b4","ios":"levelo://app?vid=afdf90c6-5b9d-4aaf-ae57-9e04bcff99b4"},"vehicle_type_id":"4","last_reported":1748027249,"current_range_meters":8400,"station_id":"","pricing_plan_id":"cebpf4jnsgd1na2vs0mg"},{"bike_id":"01ddaa1a-eb5e-48a6-afd1-086e21b7bd9f","system_id":"levelo_inurba_marseille","lat":43.2933,"lon":5.41158,"is_reserved":false,"is_disabled":false,"rental_uris":{"android":"levelo://app?vid=01ddaa1a-eb5e-48a6-afd1-086e21b7bd9f","ios":"levelo://app?vid=01ddaa1a-eb5e-48a6-afd1-086e21b7bd9f"},"vehicle_type_id":"4","last_reported":1748027249,"current_range_meters":8400,"station_id":"","pricing_plan_id":"cebpf4jnsgd1na2vs0mg"},{"bike_id":"65a8775f-932b-4704-b8e4-c4fcaf2a8a57","system_id":"levelo_inurba_marseille","lat":43.26779,"lon":5.39416,"is_reserved":false,"is_disabled":false,"rental_uris":{"android":"levelo://app?vid=65a8775f-932b-4704-b8e4-c4fcaf2a8a57","ios":"levelo://app?vid=65a8775f-932b-4704-b8e4-c4fcaf2a8a57"},"vehicle_type_id":"4","last_reported":1748027249,"current_range_meters":8400,"station_id":"ce4bhh12rcd13ifvqfg0","pricing_plan_id":"cebpf4jnsgd1na2vs0mg"},{"bike_id":"2c7e17ce-ab08-4c34-9ba9-2835558e90ee","system_id":"levelo_inurba_marseille","lat":43.26507,"lon":5.39542,"is_reserved":false,"is_disabled":false,"rental_uris":{"android":"levelo://app?vid=2c7e17ce-ab08-4c34-9ba9-2835558e90ee","ios":"levelo://app?vid=2c7e17ce-ab08-4c34-9ba9-2835558e90ee"},"vehicle_type_id":"4","last_reported":1748027249,"current_range_meters":8400,"station_id":"ce4bhi12rcd13ifvqfq0","pricing_plan_id":"cebpf4jnsgd1na2vs0mg"},{"bike_id":"d28e2290-37b9-4bea-8560-37df42d1a9d5","system_id":"levelo_inurba_marseille","lat":43.29558,"lon":5.42274,"is_reserved":false,"is_disabled":false,"rental_uris":{"android":"levelo://app?vid=d28e2290-37b9-4bea-8560-37df42d1a9d5","ios":"levelo://app?vid=d28e2290-37b9-4bea-8560-37df42d1a9d5"},"vehicle_type_id":"4","last_reported":1748027249,"current_range_meters":8400,"station_id":"ce4bhph2rcd13ifvqhdg","pricing_plan_id":"cebpf4jnsgd1na2vs0mg"},{"bike_id":"900926bd-c178-4fb1-9ad6-ba459192fc5c","system_id":"levelo_inurba_marseille","lat":43.241668,"lon":5.363972,"is_reserved":false,"is_disabled":false,"rental_uris":{"android":"levelo://app?vid=900926bd-c178-4fb1-9ad6-ba459192fc5c","ios":"levelo://app?vid=900926bd-c178-4fb1-9ad6-ba459192fc5c"},"vehicle_type_id":"4","last_reported":1748027249,"current_range_meters":8400,"station_id":"cpo36qri1sfpv3e86is0","pricing_plan_id":"cebpf4jnsgd1na2vs0mg"},{"bike_id":"68bfc4cb-61ab-43c3-ab88-17645cafe6e7","system_id":"levelo_inurba_marseille","lat":43.31765,"lon":5.37596,"is_reserved":false,"is_disabled":false,"rental_uris":{"android":"levelo://app?vid=68bfc4cb-61ab-43c3-ab88-17645cafe6e7","ios":"levelo://app?vid=68bfc4cb-61ab-43c3-ab88-17645cafe6e7"},"vehicle_type_id":"4","last_reported":1748027249,"current_range_meters":8800,"station_id":"","pricing_plan_id":"cebpf4jnsgd1na2vs0mg"},{"bike_id":"7f29492b-a3af-4c58-b984-c86bf23715a7","system_id":"levelo_inurba_marseille","lat":43.301425,"lon":5.387687,"is_reserved":false,"is_disabled":false,"rental_uris":{"android":"levelo://app?vid=7f29492b-a3af-4c58-b984-c86bf23715a7","ios":"levelo://app?vid=7f29492b-a3af-4c58-b984-c86bf23715a7"},"vehicle_type_id":"4","last_reported":1748027249,"current_range_meters":8800,"station_id":"","pricing_plan_id":"cebpf4jnsgd1na2vs0mg"},{"bike_id":"3845c37a-9777-43da-ab01-47dcaae0f8f9","system_id":"levelo_inurba_marseille","lat":43.30952,"lon":5.39024,"is_reserved":false,"is_disabled":false,"rental_uris":{"android":"levelo://app?vid=3845c37a-9777-43da-ab01-47dcaae0f8f9","ios":"levelo://app?vid=3845c37a-9777-43da-ab01-47dcaae0f8f9"},"vehicle_type_id":"4","last_reported":1748027249,"current_range_meters":8800,"station_id":"ce4bgup2rcd13ifvqco0","pricing_plan_id":"cebpf4jnsgd1na2vs0mg"},{"bike_id":"f668f759-4403-44fc-845f-b34411f8aa89","system_id":"levelo_inurba_marseille","lat":43.27375,"lon":5.36254,"is_reserved":false,"is_disabled":false,"rental_uris":{"android":"levelo://app?vid=f668f759-4403-44fc-845f-b34411f8aa89","ios":"levelo://app?vid=f668f759-4403-44fc-845f-b34411f8aa89"},"vehicle_type_id":"4","last_reported":1748027249,"current_range_meters":8800,"station_id":"ce4bhbh2rcd13ifvqeo0","pricing_plan_id":"cebpf4jnsgd1na2vs0mg"},{"bike_id":"41f67551-cf24-41a4-9125-c5852e36dce4","system_id":"levelo_inurba_marseille","lat":43.2511,"lon":5.40324,"is_reserved":false,"is_disabled":false,"rental_uris":{"android":"levelo://app?vid=41f67551-cf24-41a4-9125-c5852e36dce4","ios":"levelo://app?vid=41f67551-cf24-41a4-9125-c5852e36dce4"},"vehicle_type_id":"4","last_reported":1748027249,"current_range_meters":8800,"station_id":"ce4bhlh2rcd13ifvqgig","pricing_plan_id":"cebpf4jnsgd1na2vs0mg"},{"bike_id":"e3e19b90-9823-4b53-b8a7-4c599b3176c2","system_id":"levelo_inurba_marseille","lat":43.25123,"lon":5.40333,"is_reserved":false,"is_disabled":false,"rental_uris":{"android":"levelo://app?vid=e3e19b90-9823-4b53-b8a7-4c599b3176c2","ios":"levelo://app?vid=e3e19b90-9823-4b53-b8a7-4c599b3176c2"},"vehicle_type_id":"4","last_reported":1748027249,"current_range_meters":8800,"station_id":"ce4bhlh2rcd13ifvqgig","pricing_plan_id":"cebpf4jnsgd1na2vs0mg"},{"bike_id":"780d44ea-9dfa-4892-93ef-998d12415c0d","system_id":"levelo_inurba_marseille","lat":43.26918,"lon":5.40281,"is_reserved":false,"is_disabled":false,"rental_uris":{"android":"levelo://app?vid=780d44ea-9dfa-4892-93ef-998d12415c0d","ios":"levelo://app?vid=780d44ea-9dfa-4892-93ef-998d12415c0d"},"vehicle_type_id":"4","last_reported":1748027249,"current_range_meters":8800,"station_id":"cjm6bp8fraef2m0cb0m0","pricing_plan_id":"cebpf4jnsgd1na2vs0mg"},{"bike_id":"d212ad20-625e-4ecb-8914-e8f325b78175","system_id":"levelo_inurba_marseille","lat":43.26955,"lon":5.40246,"is_reserved":false,"is_disabled":false,"rental_uris":{"android":"levelo://app?vid=d212ad20-625e-4ecb-8914-e8f325b78175","ios":"levelo://app?vid=d212ad20-625e-4ecb-8914-e8f325b78175"},"vehicle_type_id":"4","last_reported":1748027249,"current_range_meters":8800,"station_id":"cjm6bp8fraef2m0cb0m0","pricing_plan_id":"cebpf4jnsgd1na2vs0mg"},{"bike_id":"2d5f7454-a4a6-4e8b-9495-8d6b94c61ba5","system_id":"levelo_inurba_marseille","lat":43.22942,"lon":5.35375,"is_reserved":false,"is_disabled":false,"rental_uris":{"android":"levelo://app?vid=2d5f7454-a4a6-4e8b-9495-8d6b94c61ba5","ios":"levelo://app?vid=2d5f7454-a4a6-4e8b-9495-8d6b94c61ba5"},"vehicle_type_id":"4","last_reported":1748027249,"current_range_meters":8800,"station_id":"cpo3532slgdg3j2ikp40","pricing_plan_id":"cebpf4jnsgd1na2vs0mg"},{"bike_id":"d7a5dcff-f6a0-41d9-a5b8-91c3beff9538","system_id":"levelo_inurba_marseille","lat":43.29624,"lon":5.37721,"is_reserved":false,"is_disabled":false,"rental_uris":{"android":"levelo://app?vid=d7a5dcff-f6a0-41d9-a5b8-91c3beff9538","ios":"levelo://app?vid=d7a5dcff-f6a0-41d9-a5b8-91c3beff9538"},"vehicle_type_id":"4","last_reported":1748027249,"current_range_meters":9200,"station_id":"ce4bgi92rcd13ifvqb90","pricing_plan_id":"cebpf4jnsgd1na2vs0mg"},{"bike_id":"911e433d-ffb3-49a9-af1a-0483c0cb232b","system_id":"levelo_inurba_marseille","lat":43.29418,"lon":5.38622,"is_reserved":false,"is_disabled":false,"rental_uris":{"android":"levelo://app?vid=911e433d-ffb3-49a9-af1a-0483c0cb232b","ios":"levelo://app?vid=911e433d-ffb3-49a9-af1a-0483c0cb232b"},"vehicle_type_id":"4","last_reported":1748027249,"current_range_meters":9200,"station_id":"ce4bh2h2rcd13ifvqdh0","pricing_plan_id":"cebpf4jnsgd1na2vs0mg"},{"bike_id":"9239dd73-7ba3-4460-b117-4aca574b33de","system_id":"levelo_inurba_marseille","lat":43.29194,"lon":5.35795,"is_reserved":false,"is_disabled":false,"rental_uris":{"android":"levelo://app?vid=9239dd73-7ba3-4460-b117-4aca574b33de","ios":"levelo://app?vid=9239dd73-7ba3-4460-b117-4aca574b33de"},"vehicle_type_id":"4","last_reported":1748027249,"current_range_meters":9200,"station_id":"ce4bhb12rcd13ifvqel0","pricing_plan_id":"cebpf4jnsgd1na2vs0mg"},{"bike_id":"61a3955e-e6a0-4d27-ad88-582cd4713a0b","system_id":"levelo_inurba_marseille","lat":43.27911,"lon":5.39588,"is_reserved":false,"is_disabled":false,"rental_uris":{"android":"levelo://app?vid=61a3955e-e6a0-4d27-ad88-582cd4713a0b","ios":"levelo://app?vid=61a3955e-e6a0-4d27-ad88-582cd4713a0b"},"vehicle_type_id":"4","last_reported":1748027249,"current_range_meters":9200,"station_id":"ce4bhf92rcd13ifvqf40","pricing_plan_id":"cebpf4jnsgd1na2vs0mg"},{"bike_id":"9cd22fed-04c4-474a-9727-f7f9467c9f14","system_id":"levelo_inurba_marseille","lat":43.26033,"lon":5.37567,"is_reserved":false,"is_disabled":false,"rental_uris":{"android":"levelo://app?vid=9cd22fed-04c4-474a-9727-f7f9467c9f14","ios":"levelo://app?vid=9cd22fed-04c4-474a-9727-f7f9467c9f14"},"vehicle_type_id":"4","last_reported":1748027249,"current_range_meters":9200,"station_id":"ce4bhgh2rcd13ifvqfa0","pricing_plan_id":"cebpf4jnsgd1na2vs0mg"},{"bike_id":"08ee356c-5e7f-411a-92fa-743c60587785","system_id":"levelo_inurba_marseille","lat":43.26014,"lon":5.37564,"is_reserved":false,"is_disabled":false,"rental_uris":{"android":"levelo://app?vid=08ee356c-5e7f-411a-92fa-743c60587785","ios":"levelo://app?vid=08ee356c-5e7f-411a-92fa-743c60587785"},"vehicle_type_id":"4","last_reported":1748027249,"current_range_meters":9200,"station_id":"ce4bhgh2rcd13ifvqfa0","pricing_plan_id":"cebpf4jnsgd1na2vs0mg"},{"bike_id":"047bcc36-8f80-4f8d-afe5-2d46516a2bf9","system_id":"levelo_inurba_marseille","lat":43.27215,"lon":5.3917,"is_reserved":false,"is_disabled":false,"rental_uris":{"android":"levelo://app?vid=047bcc36-8f80-4f8d-afe5-2d46516a2bf9","ios":"levelo://app?vid=047bcc36-8f80-4f8d-afe5-2d46516a2bf9"},"vehicle_type_id":"4","last_reported":1748027249,"current_range_meters":9200,"station_id":"ce4bhhp2rcd13ifvqfm0","pricing_plan_id":"cebpf4jnsgd1na2vs0mg"},{"bike_id":"e71ba7ce-5eff-4f6a-b40a-60f16c2835ff","system_id":"levelo_inurba_marseille","lat":43.2512,"lon":5.40298,"is_reserved":false,"is_disabled":false,"rental_uris":{"android":"levelo://app?vid=e71ba7ce-5eff-4f6a-b40a-60f16c2835ff","ios":"levelo://app?vid=e71ba7ce-5eff-4f6a-b40a-60f16c2835ff"},"vehicle_type_id":"4","last_reported":1748027249,"current_range_meters":9200,"station_id":"ce4bhlh2rcd13ifvqgig","pricing_plan_id":"cebpf4jnsgd1na2vs0mg"},{"bike_id":"3872a2da-d0b1-4f6c-b9f0-c92c52dfe7dd","system_id":"levelo_inurba_marseille","lat":43.28156,"lon":5.42637,"is_reserved":false,"is_disabled":false,"rental_uris":{"android":"levelo://app?vid=3872a2da-d0b1-4f6c-b9f0-c92c52dfe7dd","ios":"levelo://app?vid=3872a2da-d0b1-4f6c-b9f0-c92c52dfe7dd"},"vehicle_type_id":"4","last_reported":1748027249,"current_range_meters":9200,"station_id":"ce4bhnh2rcd13ifvqgug","pricing_plan_id":"cebpf4jnsgd1na2vs0mg"},{"bike_id":"738fff00-ec93-48d3-b466-a89b19a1baa0","system_id":"levelo_inurba_marseille","lat":43.29558,"lon":5.42283,"is_reserved":false,"is_disabled":false,"rental_uris":{"android":"levelo://app?vid=738fff00-ec93-48d3-b466-a89b19a1baa0","ios":"levelo://app?vid=738fff00-ec93-48d3-b466-a89b19a1baa0"},"vehicle_type_id":"4","last_reported":1748027249,"current_range_meters":9200,"station_id":"ce4bhph2rcd13ifvqhdg","pricing_plan_id":"cebpf4jnsgd1na2vs0mg"},{"bike_id":"4525f9a3-55f1-43a7-ae74-1a1c22f30cac","system_id":"levelo_inurba_marseille","lat":43.32107,"lon":5.36769,"is_reserved":false,"is_disabled":false,"rental_uris":{"android":"levelo://app?vid=4525f9a3-55f1-43a7-ae74-1a1c22f30cac","ios":"levelo://app?vid=4525f9a3-55f1-43a7-ae74-1a1c22f30cac"},"vehicle_type_id":"4","last_reported":1748027249,"current_range_meters":9200,"station_id":"ce4bhrh2rcd13ifvqhug","pricing_plan_id":"cebpf4jnsgd1na2vs0mg"},{"bike_id":"daae10b3-e7e4-4f86-acfe-64dfa90decee","system_id":"levelo_inurba_marseille","lat":43.31177,"lon":5.38728,"is_reserved":false,"is_disabled":false,"rental_uris":{"android":"levelo://app?vid=daae10b3-e7e4-4f86-acfe-64dfa90decee","ios":"levelo://app?vid=daae10b3-e7e4-4f86-acfe-64dfa90decee"},"vehicle_type_id":"4","last_reported":1748027249,"current_range_meters":9600,"station_id":"ce4bgv12rcd13ifvqcp0","pricing_plan_id":"cebpf4jnsgd1na2vs0mg"},{"bike_id":"184f75ea-8f05-41e9-ae2e-73a14a455931","system_id":"levelo_inurba_marseille","lat":43.29427,"lon":5.38629,"is_reserved":false,"is_disabled":false,"rental_uris":{"android":"levelo://app?vid=184f75ea-8f05-41e9-ae2e-73a14a455931","ios":"levelo://app?vid=184f75ea-8f05-41e9-ae2e-73a14a455931"},"vehicle_type_id":"4","last_reported":1748027249,"current_range_meters":9600,"station_id":"ce4bh2h2rcd13ifvqdh0","pricing_plan_id":"cebpf4jnsgd1na2vs0mg"},{"bike_id":"2a348a82-6798-4b5b-b549-2bdc68bff4e9","system_id":"levelo_inurba_marseille","lat":43.28458,"lon":5.35893,"is_reserved":false,"is_disabled":false,"rental_uris":{"android":"levelo://app?vid=2a348a82-6798-4b5b-b549-2bdc68bff4e9","ios":"levelo://app?vid=2a348a82-6798-4b5b-b549-2bdc68bff4e9"},"vehicle_type_id":"4","last_reported":1748027249,"current_range_meters":9600,"station_id":"ce4bhah2rcd13ifvqei0","pricing_plan_id":"cebpf4jnsgd1na2vs0mg"},{"bike_id":"8d77960c-f917-491c-9bf4-17d9573b4153","system_id":"levelo_inurba_marseille","lat":43.248053,"lon":5.374535,"is_reserved":false,"is_disabled":false,"rental_uris":{"android":"levelo://app?vid=8d77960c-f917-491c-9bf4-17d9573b4153","ios":"levelo://app?vid=8d77960c-f917-491c-9bf4-17d9573b4153"},"vehicle_type_id":"4","last_reported":1748027249,"current_range_meters":9600,"station_id":"ce4bhgh2rcd13ifvqfb0","pricing_plan_id":"cebpf4jnsgd1na2vs0mg"},{"bike_id":"81fb952a-7301-42d2-8bc0-023094dec725","system_id":"levelo_inurba_marseille","lat":43.27246,"lon":5.39166,"is_reserved":false,"is_disabled":false,"rental_uris":{"android":"levelo://app?vid=81fb952a-7301-42d2-8bc0-023094dec725","ios":"levelo://app?vid=81fb952a-7301-42d2-8bc0-023094dec725"},"vehicle_type_id":"4","last_reported":1748027249,"current_range_meters":9600,"station_id":"ce4bhhp2rcd13ifvqfm0","pricing_plan_id":"cebpf4jnsgd1na2vs0mg"},{"bike_id":"9b5eb54d-a325-4fc8-8363-9bf2ad1b6b48","system_id":"levelo_inurba_marseille","lat":43.27206,"lon":5.39175,"is_reserved":false,"is_disabled":false,"rental_uris":{"android":"levelo://app?vid=9b5eb54d-a325-4fc8-8363-9bf2ad1b6b48","ios":"levelo://app?vid=9b5eb54d-a325-4fc8-8363-9bf2ad1b6b48"},"vehicle_type_id":"4","last_reported":1748027249,"current_range_meters":9600,"station_id":"ce4bhhp2rcd13ifvqfm0","pricing_plan_id":"cebpf4jnsgd1na2vs0mg"},{"bike_id":"25a4c9e9-5c16-4ca3-9ff5-615136c9df82","system_id":"levelo_inurba_marseille","lat":43.27998,"lon":5.40016,"is_reserved":false,"is_disabled":false,"rental_uris":{"android":"levelo://app?vid=25a4c9e9-5c16-4ca3-9ff5-615136c9df82","ios":"levelo://app?vid=25a4c9e9-5c16-4ca3-9ff5-615136c9df82"},"vehicle_type_id":"4","last_reported":1748027249,"current_range_meters":9600,"station_id":"ce4bho92rcd13ifvqh4g","pricing_plan_id":"cebpf4jnsgd1na2vs0mg"},{"bike_id":"99fe176b-79a4-4a32-b7c7-b7a8cf79298c","system_id":"levelo_inurba_marseille","lat":43.23063,"lon":5.35497,"is_reserved":false,"is_disabled":false,"rental_uris":{"android":"levelo://app?vid=99fe176b-79a4-4a32-b7c7-b7a8cf79298c","ios":"levelo://app?vid=99fe176b-79a4-4a32-b7c7-b7a8cf79298c"},"vehicle_type_id":"4","last_reported":1748027249,"current_range_meters":9600,"station_id":"cpo3342slgdg3j2ifvpg","pricing_plan_id":"cebpf4jnsgd1na2vs0mg"},{"bike_id":"e738a4e4-91f0-4000-960c-7019cf587860","system_id":"levelo_inurba_marseille","lat":43.31554,"lon":5.387473,"is_reserved":false,"is_disabled":false,"rental_uris":{"android":"levelo://app?vid=e738a4e4-91f0-4000-960c-7019cf587860","ios":"levelo://app?vid=e738a4e4-91f0-4000-960c-7019cf587860"},"vehicle_type_id":"4","last_reported":1748027249,"current_range_meters":10000,"station_id":"","pricing_plan_id":"cebpf4jnsgd1na2vs0mg"},{"bike_id":"d9149ce8-e0db-4056-bb25-487c72e1c02e","system_id":"levelo_inurba_marseille","lat":43.2985,"lon":5.36286,"is_reserved":false,"is_disabled":false,"rental_uris":{"android":"levelo://app?vid=d9149ce8-e0db-4056-bb25-487c72e1c02e","ios":"levelo://app?vid=d9149ce8-e0db-4056-bb25-487c72e1c02e"},"vehicle_type_id":"4","last_reported":1748027249,"current_range_meters":10000,"station_id":"ce4bgpp2rcd13ifvqc3g","pricing_plan_id":"cebpf4jnsgd1na2vs0mg"},{"bike_id":"c0696c7e-6615-4b89-b2cb-c121e62cc3ca","system_id":"levelo_inurba_marseille","lat":43.31689,"lon":5.4048,"is_reserved":false,"is_disabled":false,"rental_uris":{"android":"levelo://app?vid=c0696c7e-6615-4b89-b2cb-c121e62cc3ca","ios":"levelo://app?vid=c0696c7e-6615-4b89-b2cb-c121e62cc3ca"},"vehicle_type_id":"4","last_reported":1748027249,"current_range_meters":10000,"station_id":"ce4bh012rcd13ifvqd00","pricing_plan_id":"cebpf4jnsgd1na2vs0mg"},{"bike_id":"d48a6802-aa62-465e-a085-53347a24a36a","system_id":"levelo_inurba_marseille","lat":43.2942,"lon":5.38627,"is_reserved":false,"is_disabled":false,"rental_uris":{"android":"levelo://app?vid=d48a6802-aa62-465e-a085-53347a24a36a","ios":"levelo://app?vid=d48a6802-aa62-465e-a085-53347a24a36a"},"vehicle_type_id":"4","last_reported":1748027249,"current_range_meters":10000,"station_id":"ce4bh2h2rcd13ifvqdh0","pricing_plan_id":"cebpf4jnsgd1na2vs0mg"},{"bike_id":"fead304d-8a75-47c8-9a48-ac8af3a41971","system_id":"levelo_inurba_marseille","lat":43.27301,"lon":5.39107,"is_reserved":false,"is_disabled":false,"rental_uris":{"android":"levelo://app?vid=fead304d-8a75-47c8-9a48-ac8af3a41971","ios":"levelo://app?vid=fead304d-8a75-47c8-9a48-ac8af3a41971"},"vehicle_type_id":"4","last_reported":1748027249,"current_range_meters":10000,"station_id":"ce4bhgp2rcd13ifvqfe0","pricing_plan_id":"cebpf4jnsgd1na2vs0mg"},{"bike_id":"292ceeea-c5db-4f1f-a0ab-7ba5b07f505e","system_id":"levelo_inurba_marseille","lat":43.26947,"lon":5.38633,"is_reserved":false,"is_disabled":false,"rental_uris":{"android":"levelo://app?vid=292ceeea-c5db-4f1f-a0ab-7ba5b07f505e","ios":"levelo://app?vid=292ceeea-c5db-4f1f-a0ab-7ba5b07f505e"},"vehicle_type_id":"4","last_reported":1748027249,"current_range_meters":10000,"station_id":"ce4bhh92rcd13ifvqfh0","pricing_plan_id":"cebpf4jnsgd1na2vs0mg"},{"bike_id":"00c352d7-53db-43a7-8257-0054b2e31cf1","system_id":"levelo_inurba_marseille","lat":43.246644,"lon":5.381759,"is_reserved":false,"is_disabled":false,"rental_uris":{"android":"levelo://app?vid=00c352d7-53db-43a7-8257-0054b2e31cf1","ios":"levelo://app?vid=00c352d7-53db-43a7-8257-0054b2e31cf1"},"vehicle_type_id":"4","last_reported":1748027249,"current_range_meters":10000,"station_id":"ce4bhih2rcd13ifvqfr0","pricing_plan_id":"cebpf4jnsgd1na2vs0mg"},{"bike_id":"f6b3b099-ab25-481f-9586-62d397aaedc0","system_id":"levelo_inurba_marseille","lat":43.3155,"lon":5.38764,"is_reserved":false,"is_disabled":false,"rental_uris":{"android":"levelo://app?vid=f6b3b099-ab25-481f-9586-62d397aaedc0","ios":"levelo://app?vid=f6b3b099-ab25-481f-9586-62d397aaedc0"},"vehicle_type_id":"4","last_reported":1748027249,"current_range_meters":10800,"station_id":"","pricing_plan_id":"cebpf4jnsgd1na2vs0mg"},{"bike_id":"48560656-172b-4927-a7d6-158805b32484","system_id":"levelo_inurba_marseille","lat":43.299713,"lon":5.384871,"is_reserved":false,"is_disabled":false,"rental_uris":{"android":"levelo://app?vid=48560656-172b-4927-a7d6-158805b32484","ios":"levelo://app?vid=48560656-172b-4927-a7d6-158805b32484"},"vehicle_type_id":"4","last_reported":1748027249,"current_range_meters":10800,"station_id":"ce4bgj92rcd13ifvqbd0","pricing_plan_id":"cebpf4jnsgd1na2vs0mg"},{"bike_id":"4c60312d-12ed-4820-8c9a-2e684a1fe96b","system_id":"levelo_inurba_marseille","lat":43.31323,"lon":5.39697,"is_reserved":false,"is_disabled":false,"rental_uris":{"android":"levelo://app?vid=4c60312d-12ed-4820-8c9a-2e684a1fe96b","ios":"levelo://app?vid=4c60312d-12ed-4820-8c9a-2e684a1fe96b"},"vehicle_type_id":"4","last_reported":1748027249,"current_range_meters":10800,"station_id":"ce4bgvp2rcd13ifvqcu0","pricing_plan_id":"cebpf4jnsgd1na2vs0mg"},{"bike_id":"28136e2a-e870-4f8d-8186-41229211cab4","system_id":"levelo_inurba_marseille","lat":43.29189,"lon":5.35845,"is_reserved":false,"is_disabled":false,"rental_uris":{"android":"levelo://app?vid=28136e2a-e870-4f8d-8186-41229211cab4","ios":"levelo://app?vid=28136e2a-e870-4f8d-8186-41229211cab4"},"vehicle_type_id":"4","last_reported":1748027249,"current_range_meters":10800,"station_id":"ce4bhb12rcd13ifvqel0","pricing_plan_id":"cebpf4jnsgd1na2vs0mg"},{"bike_id":"e4a0a7aa-315e-4665-830a-a4989c0bc72b","system_id":"levelo_inurba_marseille","lat":43.27321,"lon":5.39133,"is_reserved":false,"is_disabled":false,"rental_uris":{"android":"levelo://app?vid=e4a0a7aa-315e-4665-830a-a4989c0bc72b","ios":"levelo://app?vid=e4a0a7aa-315e-4665-830a-a4989c0bc72b"},"vehicle_type_id":"4","last_reported":1748027249,"current_range_meters":10800,"station_id":"ce4bhgp2rcd13ifvqfe0","pricing_plan_id":"cebpf4jnsgd1na2vs0mg"},{"bike_id":"9ecdc04a-9bb3-4f09-aab1-1d6c3e4b305c","system_id":"levelo_inurba_marseille","lat":43.267818,"lon":5.394196,"is_reserved":false,"is_disabled":false,"rental_uris":{"android":"levelo://app?vid=9ecdc04a-9bb3-4f09-aab1-1d6c3e4b305c","ios":"levelo://app?vid=9ecdc04a-9bb3-4f09-aab1-1d6c3e4b305c"},"vehicle_type_id":"4","last_reported":1748027249,"current_range_meters":10800,"station_id":"ce4bhh12rcd13ifvqfg0","pricing_plan_id":"cebpf4jnsgd1na2vs0mg"},{"bike_id":"37ede679-426e-4ba8-bc4a-9d0736ab1431","system_id":"levelo_inurba_marseille","lat":43.26955,"lon":5.38624,"is_reserved":false,"is_disabled":false,"rental_uris":{"android":"levelo://app?vid=37ede679-426e-4ba8-bc4a-9d0736ab1431","ios":"levelo://app?vid=37ede679-426e-4ba8-bc4a-9d0736ab1431"},"vehicle_type_id":"4","last_reported":1748027249,"current_range_meters":10800,"station_id":"ce4bhh92rcd13ifvqfh0","pricing_plan_id":"cebpf4jnsgd1na2vs0mg"},{"bike_id":"cc70f990-8eb4-4f0f-bafd-a98518bebb80","system_id":"levelo_inurba_marseille","lat":43.26496,"lon":5.39548,"is_reserved":false,"is_disabled":false,"rental_uris":{"android":"levelo://app?vid=cc70f990-8eb4-4f0f-bafd-a98518bebb80","ios":"levelo://app?vid=cc70f990-8eb4-4f0f-bafd-a98518bebb80"},"vehicle_type_id":"4","last_reported":1748027249,"current_range_meters":10800,"station_id":"ce4bhi12rcd13ifvqfq0","pricing_plan_id":"cebpf4jnsgd1na2vs0mg"},{"bike_id":"f3e24f25-b1fb-431b-b679-572ef457e775","system_id":"levelo_inurba_marseille","lat":43.29896,"lon":5.43693,"is_reserved":false,"is_disabled":false,"rental_uris":{"android":"levelo://app?vid=f3e24f25-b1fb-431b-b679-572ef457e775","ios":"levelo://app?vid=f3e24f25-b1fb-431b-b679-572ef457e775"},"vehicle_type_id":"4","last_reported":1748027249,"current_range_meters":10800,"station_id":"ce4bhpp2rcd13ifvqhfg","pricing_plan_id":"cebpf4jnsgd1na2vs0mg"},{"bike_id":"bf662ae0-26e4-4bb7-9f9e-d0df53c116b8","system_id":"levelo_inurba_marseille","lat":43.23197,"lon":5.35559,"is_reserved":false,"is_disabled":false,"rental_uris":{"android":"levelo://app?vid=bf662ae0-26e4-4bb7-9f9e-d0df53c116b8","ios":"levelo://app?vid=bf662ae0-26e4-4bb7-9f9e-d0df53c116b8"},"vehicle_type_id":"4","last_reported":1748027249,"current_range_meters":10800,"station_id":"ce4bhu92rcd13ifvqi70","pricing_plan_id":"cebpf4jnsgd1na2vs0mg"},{"bike_id":"1e164eaf-2ffb-4814-9442-b43f6b5c9f80","system_id":"levelo_inurba_marseille","lat":43.24164,"lon":5.36402,"is_reserved":false,"is_disabled":false,"rental_uris":{"android":"levelo://app?vid=1e164eaf-2ffb-4814-9442-b43f6b5c9f80","ios":"levelo://app?vid=1e164eaf-2ffb-4814-9442-b43f6b5c9f80"},"vehicle_type_id":"4","last_reported":1748027249,"current_range_meters":10800,"station_id":"cpo36qri1sfpv3e86is0","pricing_plan_id":"cebpf4jnsgd1na2vs0mg"},{"bike_id":"daa6762e-b22c-4716-ae74-03156983cf8e","system_id":"levelo_inurba_marseille","lat":43.29314,"lon":5.37175,"is_reserved":false,"is_disabled":false,"rental_uris":{"android":"levelo://app?vid=daa6762e-b22c-4716-ae74-03156983cf8e","ios":"levelo://app?vid=daa6762e-b22c-4716-ae74-03156983cf8e"},"vehicle_type_id":"4","last_reported":1748027249,"current_range_meters":11200,"station_id":"ce4bgh92rcd13ifvqb40","pricing_plan_id":"cebpf4jnsgd1na2vs0mg"},{"bike_id":"7509ad32-5c0f-4570-b31f-1e2fdf1eb306","system_id":"levelo_inurba_marseille","lat":43.29375,"lon":5.37834,"is_reserved":false,"is_disabled":false,"rental_uris":{"android":"levelo://app?vid=7509ad32-5c0f-4570-b31f-1e2fdf1eb306","ios":"levelo://app?vid=7509ad32-5c0f-4570-b31f-1e2fdf1eb306"},"vehicle_type_id":"4","last_reported":1748027249,"current_range_meters":11200,"station_id":"ce4bgjh2rcd13ifvqbf0","pricing_plan_id":"cebpf4jnsgd1na2vs0mg"},{"bike_id":"b5117238-fc2b-4a22-9f5f-70dd72767c80","system_id":"levelo_inurba_marseille","lat":43.27976,"lon":5.38737,"is_reserved":false,"is_disabled":false,"rental_uris":{"android":"levelo://app?vid=b5117238-fc2b-4a22-9f5f-70dd72767c80","ios":"levelo://app?vid=b5117238-fc2b-4a22-9f5f-70dd72767c80"},"vehicle_type_id":"4","last_reported":1748027249,"current_range_meters":11200,"station_id":"ce4bhg12rcd13ifvqf80","pricing_plan_id":"cebpf4jnsgd1na2vs0mg"},{"bike_id":"2eade79b-0917-4c66-8514-04249621d42b","system_id":"levelo_inurba_marseille","lat":43.25583,"lon":5.38238,"is_reserved":false,"is_disabled":false,"rental_uris":{"android":"levelo://app?vid=2eade79b-0917-4c66-8514-04249621d42b","ios":"levelo://app?vid=2eade79b-0917-4c66-8514-04249621d42b"},"vehicle_type_id":"4","last_reported":1748027249,"current_range_meters":11200,"station_id":"ce4bhih2rcd13ifvqfs0","pricing_plan_id":"cebpf4jnsgd1na2vs0mg"},{"bike_id":"2ea50577-1176-467c-8d1f-ce07d6571fb8","system_id":"levelo_inurba_marseille","lat":43.23188,"lon":5.35547,"is_reserved":false,"is_disabled":false,"rental_uris":{"android":"levelo://app?vid=2ea50577-1176-467c-8d1f-ce07d6571fb8","ios":"levelo://app?vid=2ea50577-1176-467c-8d1f-ce07d6571fb8"},"vehicle_type_id":"4","last_reported":1748027249,"current_range_meters":11200,"station_id":"ce4bhu92rcd13ifvqi70","pricing_plan_id":"cebpf4jnsgd1na2vs0mg"},{"bike_id":"fa529a29-8d21-4f13-9783-e1708a99c344","system_id":"levelo_inurba_marseille","lat":43.246516,"lon":5.388955,"is_reserved":false,"is_disabled":false,"rental_uris":{"android":"levelo://app?vid=fa529a29-8d21-4f13-9783-e1708a99c344","ios":"levelo://app?vid=fa529a29-8d21-4f13-9783-e1708a99c344"},"vehicle_type_id":"4","last_reported":1748027249,"current_range_meters":11600,"station_id":"ce4bhlh2rcd13ifvqgig","pricing_plan_id":"cebpf4jnsgd1na2vs0mg"},{"bike_id":"98c698e5-f785-40b1-9912-9175b478257b","system_id":"levelo_inurba_marseille","lat":43.29545,"lon":5.42259,"is_reserved":false,"is_disabled":false,"rental_uris":{"android":"levelo://app?vid=98c698e5-f785-40b1-9912-9175b478257b","ios":"levelo://app?vid=98c698e5-f785-40b1-9912-9175b478257b"},"vehicle_type_id":"4","last_reported":1748027249,"current_range_meters":11600,"station_id":"ce4bhph2rcd13ifvqhdg","pricing_plan_id":"cebpf4jnsgd1na2vs0mg"},{"bike_id":"daccbc4d-8ecd-4cba-87d5-99ec3cd0a4bb","system_id":"levelo_inurba_marseille","lat":43.3136,"lon":5.38482,"is_reserved":false,"is_disabled":false,"rental_uris":{"android":"levelo://app?vid=daccbc4d-8ecd-4cba-87d5-99ec3cd0a4bb","ios":"levelo://app?vid=daccbc4d-8ecd-4cba-87d5-99ec3cd0a4bb"},"vehicle_type_id":"4","last_reported":1748027249,"current_range_meters":12000,"station_id":"ce4bgt92rcd13ifvqcf0","pricing_plan_id":"cebpf4jnsgd1na2vs0mg"},{"bike_id":"68f61495-5af6-4bba-bad6-a3b62099db75","system_id":"levelo_inurba_marseille","lat":43.25497,"lon":5.37647,"is_reserved":false,"is_disabled":false,"rental_uris":{"android":"levelo://app?vid=68f61495-5af6-4bba-bad6-a3b62099db75","ios":"levelo://app?vid=68f61495-5af6-4bba-bad6-a3b62099db75"},"vehicle_type_id":"4","last_reported":1748027249,"current_range_meters":12000,"station_id":"ce4bhh12rcd13ifvqff0","pricing_plan_id":"cebpf4jnsgd1na2vs0mg"},{"bike_id":"696c80fb-e509-4c23-bbb4-b574cb708527","system_id":"levelo_inurba_marseille","lat":43.26478,"lon":5.39558,"is_reserved":false,"is_disabled":false,"rental_uris":{"android":"levelo://app?vid=696c80fb-e509-4c23-bbb4-b574cb708527","ios":"levelo://app?vid=696c80fb-e509-4c23-bbb4-b574cb708527"},"vehicle_type_id":"4","last_reported":1748027249,"current_range_meters":12000,"station_id":"ce4bhi12rcd13ifvqfq0","pricing_plan_id":"cebpf4jnsgd1na2vs0mg"},{"bike_id":"3af1902c-c1d0-49b2-ab59-6dd7ff411dd2","system_id":"levelo_inurba_marseille","lat":43.25873,"lon":5.39911,"is_reserved":false,"is_disabled":false,"rental_uris":{"android":"levelo://app?vid=3af1902c-c1d0-49b2-ab59-6dd7ff411dd2","ios":"levelo://app?vid=3af1902c-c1d0-49b2-ab59-6dd7ff411dd2"},"vehicle_type_id":"4","last_reported":1748027249,"current_range_meters":12000,"station_id":"ce4bhl92rcd13ifvqghg","pricing_plan_id":"cebpf4jnsgd1na2vs0mg"},{"bike_id":"0282a88d-c57b-4872-b6a7-2200f367906f","system_id":"levelo_inurba_marseille","lat":43.30209,"lon":5.39462,"is_reserved":false,"is_disabled":false,"rental_uris":{"android":"levelo://app?vid=0282a88d-c57b-4872-b6a7-2200f367906f","ios":"levelo://app?vid=0282a88d-c57b-4872-b6a7-2200f367906f"},"vehicle_type_id":"4","last_reported":1748027249,"current_range_meters":12400,"station_id":"ce4bh0p2rcd13ifvqd70","pricing_plan_id":"cebpf4jnsgd1na2vs0mg"},{"bike_id":"e0249d42-45d3-4a96-9cd0-6e67be3b5e95","system_id":"levelo_inurba_marseille","lat":43.29514,"lon":5.39032,"is_reserved":false,"is_disabled":false,"rental_uris":{"android":"levelo://app?vid=e0249d42-45d3-4a96-9cd0-6e67be3b5e95","ios":"levelo://app?vid=e0249d42-45d3-4a96-9cd0-6e67be3b5e95"},"vehicle_type_id":"4","last_reported":1748027249,"current_range_meters":12400,"station_id":"ce4bh3p2rcd13ifvqdp0","pricing_plan_id":"cebpf4jnsgd1na2vs0mg"},{"bike_id":"25959238-6d91-4494-9c9f-3c02caacfa35","system_id":"levelo_inurba_marseille","lat":43.246266,"lon":5.388226,"is_reserved":false,"is_disabled":false,"rental_uris":{"android":"levelo://app?vid=25959238-6d91-4494-9c9f-3c02caacfa35","ios":"levelo://app?vid=25959238-6d91-4494-9c9f-3c02caacfa35"},"vehicle_type_id":"4","last_reported":1748027249,"current_range_meters":12400,"station_id":"ce4bhg12rcd13ifvqf60","pricing_plan_id":"cebpf4jnsgd1na2vs0mg"},{"bike_id":"59f10329-c5ed-4b9e-9c35-ad3f68156a4a","system_id":"levelo_inurba_marseille","lat":43.24815,"lon":5.37449,"is_reserved":false,"is_disabled":false,"rental_uris":{"android":"levelo://app?vid=59f10329-c5ed-4b9e-9c35-ad3f68156a4a","ios":"levelo://app?vid=59f10329-c5ed-4b9e-9c35-ad3f68156a4a"},"vehicle_type_id":"4","last_reported":1748027249,"current_range_meters":12400,"station_id":"ce4bhgh2rcd13ifvqfb0","pricing_plan_id":"cebpf4jnsgd1na2vs0mg"},{"bike_id":"f7fb37e9-6d37-418b-bc63-07ece04a4034","system_id":"levelo_inurba_marseille","lat":43.26957,"lon":5.40234,"is_reserved":false,"is_disabled":false,"rental_uris":{"android":"levelo://app?vid=f7fb37e9-6d37-418b-bc63-07ece04a4034","ios":"levelo://app?vid=f7fb37e9-6d37-418b-bc63-07ece04a4034"},"vehicle_type_id":"4","last_reported":1748027249,"current_range_meters":12400,"station_id":"cjm6bp8fraef2m0cb0m0","pricing_plan_id":"cebpf4jnsgd1na2vs0mg"},{"bike_id":"b22999e2-6404-48b5-9a3f-cef80f15c4d1","system_id":"levelo_inurba_marseille","lat":43.31699,"lon":5.40465,"is_reserved":false,"is_disabled":false,"rental_uris":{"android":"levelo://app?vid=b22999e2-6404-48b5-9a3f-cef80f15c4d1","ios":"levelo://app?vid=b22999e2-6404-48b5-9a3f-cef80f15c4d1"},"vehicle_type_id":"4","last_reported":1748027249,"current_range_meters":12800,"station_id":"ce4bh012rcd13ifvqd00","pricing_plan_id":"cebpf4jnsgd1na2vs0mg"},{"bike_id":"3ea3bc21-cd3b-4d1a-b564-e781cc2cbc88","system_id":"levelo_inurba_marseille","lat":43.288641,"lon":5.358472,"is_reserved":false,"is_disabled":false,"rental_uris":{"android":"levelo://app?vid=3ea3bc21-cd3b-4d1a-b564-e781cc2cbc88","ios":"levelo://app?vid=3ea3bc21-cd3b-4d1a-b564-e781cc2cbc88"},"vehicle_type_id":"4","last_reported":1748027249,"current_range_meters":12800,"station_id":"ce4bhb12rcd13ifvqem0","pricing_plan_id":"cebpf4jnsgd1na2vs0mg"},{"bike_id":"26a26ae3-ce78-4fa5-bc70-366fdbe3e551","system_id":"levelo_inurba_marseille","lat":43.2481,"lon":5.37458,"is_reserved":false,"is_disabled":false,"rental_uris":{"android":"levelo://app?vid=26a26ae3-ce78-4fa5-bc70-366fdbe3e551","ios":"levelo://app?vid=26a26ae3-ce78-4fa5-bc70-366fdbe3e551"},"vehicle_type_id":"4","last_reported":1748027249,"current_range_meters":12800,"station_id":"ce4bhgh2rcd13ifvqfb0","pricing_plan_id":"cebpf4jnsgd1na2vs0mg"},{"bike_id":"3da04a3a-16dd-46bd-a906-a6561bf763a8","system_id":"levelo_inurba_marseille","lat":43.32975,"lon":5.39397,"is_reserved":false,"is_disabled":false,"rental_uris":{"android":"levelo://app?vid=3da04a3a-16dd-46bd-a906-a6561bf763a8","ios":"levelo://app?vid=3da04a3a-16dd-46bd-a906-a6561bf763a8"},"vehicle_type_id":"4","last_reported":1748027249,"current_range_meters":13600,"station_id":"","pricing_plan_id":"cebpf4jnsgd1na2vs0mg"},{"bike_id":"45d7f273-9799-4c23-a4fd-fb29dfe3281f","system_id":"levelo_inurba_marseille","lat":43.30329,"lon":5.40421,"is_reserved":false,"is_disabled":false,"rental_uris":{"android":"levelo://app?vid=45d7f273-9799-4c23-a4fd-fb29dfe3281f","ios":"levelo://app?vid=45d7f273-9799-4c23-a4fd-fb29dfe3281f"},"vehicle_type_id":"4","last_reported":1748027249,"current_range_meters":13600,"station_id":"ce4bh012rcd13ifvqd10","pricing_plan_id":"cebpf4jnsgd1na2vs0mg"},{"bike_id":"8dfbb6e8-da64-4eba-844e-6fc5279c43bb","system_id":"levelo_inurba_marseille","lat":43.30092,"lon":5.39073,"is_reserved":false,"is_disabled":false,"rental_uris":{"android":"levelo://app?vid=8dfbb6e8-da64-4eba-844e-6fc5279c43bb","ios":"levelo://app?vid=8dfbb6e8-da64-4eba-844e-6fc5279c43bb"},"vehicle_type_id":"4","last_reported":1748027249,"current_range_meters":13600,"station_id":"ce4bh192rcd13ifvqdb0","pricing_plan_id":"cebpf4jnsgd1na2vs0mg"},{"bike_id":"f81a6b16-59c3-47e0-a01e-5f3900846eff","system_id":"levelo_inurba_marseille","lat":43.29426,"lon":5.3862,"is_reserved":false,"is_disabled":false,"rental_uris":{"android":"levelo://app?vid=f81a6b16-59c3-47e0-a01e-5f3900846eff","ios":"levelo://app?vid=f81a6b16-59c3-47e0-a01e-5f3900846eff"},"vehicle_type_id":"4","last_reported":1748027249,"current_range_meters":13600,"station_id":"ce4bh2h2rcd13ifvqdh0","pricing_plan_id":"cebpf4jnsgd1na2vs0mg"},{"bike_id":"b3779267-b441-4f19-ba14-fb5d6e2ab3c1","system_id":"levelo_inurba_marseille","lat":43.25002,"lon":5.38938,"is_reserved":false,"is_disabled":false,"rental_uris":{"android":"levelo://app?vid=b3779267-b441-4f19-ba14-fb5d6e2ab3c1","ios":"levelo://app?vid=b3779267-b441-4f19-ba14-fb5d6e2ab3c1"},"vehicle_type_id":"4","last_reported":1748027249,"current_range_meters":13600,"station_id":"ce4bhgp2rcd13ifvqfd0","pricing_plan_id":"cebpf4jnsgd1na2vs0mg"},{"bike_id":"b71301c4-2d18-4d2e-826b-0f7dcea3cdc3","system_id":"levelo_inurba_marseille","lat":43.26495,"lon":5.39552,"is_reserved":false,"is_disabled":false,"rental_uris":{"android":"levelo://app?vid=b71301c4-2d18-4d2e-826b-0f7dcea3cdc3","ios":"levelo://app?vid=b71301c4-2d18-4d2e-826b-0f7dcea3cdc3"},"vehicle_type_id":"4","last_reported":1748027249,"current_range_meters":13600,"station_id":"ce4bhi12rcd13ifvqfq0","pricing_plan_id":"cebpf4jnsgd1na2vs0mg"},{"bike_id":"087c1591-f73c-4240-8cb5-0cd674a35e08","system_id":"levelo_inurba_marseille","lat":43.28154,"lon":5.42638,"is_reserved":false,"is_disabled":false,"rental_uris":{"android":"levelo://app?vid=087c1591-f73c-4240-8cb5-0cd674a35e08","ios":"levelo://app?vid=087c1591-f73c-4240-8cb5-0cd674a35e08"},"vehicle_type_id":"4","last_reported":1748027249,"current_range_meters":13600,"station_id":"ce4bhnh2rcd13ifvqgug","pricing_plan_id":"cebpf4jnsgd1na2vs0mg"},{"bike_id":"f443420b-aafc-4be8-a6ca-c35a189bd41c","system_id":"levelo_inurba_marseille","lat":43.33029,"lon":5.39041,"is_reserved":false,"is_disabled":false,"rental_uris":{"android":"levelo://app?vid=f443420b-aafc-4be8-a6ca-c35a189bd41c","ios":"levelo://app?vid=f443420b-aafc-4be8-a6ca-c35a189bd41c"},"vehicle_type_id":"4","last_reported":1748027249,"current_range_meters":13600,"station_id":"ce4bhr92rcd13ifvqhrg","pricing_plan_id":"cebpf4jnsgd1na2vs0mg"},{"bike_id":"5d8669ee-519a-46d1-8690-61e217d35f3d","system_id":"levelo_inurba_marseille","lat":43.30273,"lon":5.37718,"is_reserved":false,"is_disabled":false,"rental_uris":{"android":"levelo://app?vid=5d8669ee-519a-46d1-8690-61e217d35f3d","ios":"levelo://app?vid=5d8669ee-519a-46d1-8690-61e217d35f3d"},"vehicle_type_id":"4","last_reported":1748027249,"current_range_meters":14000,"station_id":"ce4bguh2rcd13ifvqcj0","pricing_plan_id":"cebpf4jnsgd1na2vs0mg"},{"bike_id":"887db284-2b25-47f9-8bf9-46d7d8b2c380","system_id":"levelo_inurba_marseille","lat":43.27321,"lon":5.39083,"is_reserved":false,"is_disabled":false,"rental_uris":{"android":"levelo://app?vid=887db284-2b25-47f9-8bf9-46d7d8b2c380","ios":"levelo://app?vid=887db284-2b25-47f9-8bf9-46d7d8b2c380"},"vehicle_type_id":"4","last_reported":1748027249,"current_range_meters":14000,"station_id":"ce4bhgp2rcd13ifvqfe0","pricing_plan_id":"cebpf4jnsgd1na2vs0mg"},{"bike_id":"c202cab2-0147-4caa-aa3c-554f5f1207ed","system_id":"levelo_inurba_marseille","lat":43.25867,"lon":5.39898,"is_reserved":false,"is_disabled":false,"rental_uris":{"android":"levelo://app?vid=c202cab2-0147-4caa-aa3c-554f5f1207ed","ios":"levelo://app?vid=c202cab2-0147-4caa-aa3c-554f5f1207ed"},"vehicle_type_id":"4","last_reported":1748027249,"current_range_meters":14000,"station_id":"ce4bhl92rcd13ifvqghg","pricing_plan_id":"cebpf4jnsgd1na2vs0mg"},{"bike_id":"44b877dd-395a-4afc-8cfc-8878d50bff99","system_id":"levelo_inurba_marseille","lat":43.25859,"lon":5.3991,"is_reserved":false,"is_disabled":false,"rental_uris":{"android":"levelo://app?vid=44b877dd-395a-4afc-8cfc-8878d50bff99","ios":"levelo://app?vid=44b877dd-395a-4afc-8cfc-8878d50bff99"},"vehicle_type_id":"4","last_reported":1748027249,"current_range_meters":14000,"station_id":"ce4bhl92rcd13ifvqghg","pricing_plan_id":"cebpf4jnsgd1na2vs0mg"},{"bike_id":"293d61e5-2bb1-407f-9e33-e203d0ecedbf","system_id":"levelo_inurba_marseille","lat":43.27999,"lon":5.40008,"is_reserved":false,"is_disabled":false,"rental_uris":{"android":"levelo://app?vid=293d61e5-2bb1-407f-9e33-e203d0ecedbf","ios":"levelo://app?vid=293d61e5-2bb1-407f-9e33-e203d0ecedbf"},"vehicle_type_id":"4","last_reported":1748027249,"current_range_meters":14000,"station_id":"ce4bho92rcd13ifvqh4g","pricing_plan_id":"cebpf4jnsgd1na2vs0mg"},{"bike_id":"b959a865-fc01-4964-9b1d-7e25b047370d","system_id":"levelo_inurba_marseille","lat":43.23184,"lon":5.35544,"is_reserved":false,"is_disabled":false,"rental_uris":{"android":"levelo://app?vid=b959a865-fc01-4964-9b1d-7e25b047370d","ios":"levelo://app?vid=b959a865-fc01-4964-9b1d-7e25b047370d"},"vehicle_type_id":"4","last_reported":1748027249,"current_range_meters":14000,"station_id":"ce4bhu92rcd13ifvqi70","pricing_plan_id":"cebpf4jnsgd1na2vs0mg"},{"bike_id":"8bf531c8-63c9-4599-a836-ffb8cfe6db01","system_id":"levelo_inurba_marseille","lat":43.2416,"lon":5.36402,"is_reserved":false,"is_disabled":false,"rental_uris":{"android":"levelo://app?vid=8bf531c8-63c9-4599-a836-ffb8cfe6db01","ios":"levelo://app?vid=8bf531c8-63c9-4599-a836-ffb8cfe6db01"},"vehicle_type_id":"4","last_reported":1748027249,"current_range_meters":14000,"station_id":"cpo36qri1sfpv3e86is0","pricing_plan_id":"cebpf4jnsgd1na2vs0mg"},{"bike_id":"fc8c72ad-ca61-42c6-ae90-f61b57e45328","system_id":"levelo_inurba_marseille","lat":43.279042,"lon":5.418699,"is_reserved":false,"is_disabled":false,"rental_uris":{"android":"levelo://app?vid=fc8c72ad-ca61-42c6-ae90-f61b57e45328","ios":"levelo://app?vid=fc8c72ad-ca61-42c6-ae90-f61b57e45328"},"vehicle_type_id":"4","last_reported":1748027249,"current_range_meters":14400,"station_id":"","pricing_plan_id":"cebpf4jnsgd1na2vs0mg"},{"bike_id":"87623d0e-8041-4b7d-8062-c17d8c565c51","system_id":"levelo_inurba_marseille","lat":43.29927,"lon":5.37596,"is_reserved":false,"is_disabled":false,"rental_uris":{"android":"levelo://app?vid=87623d0e-8041-4b7d-8062-c17d8c565c51","ios":"levelo://app?vid=87623d0e-8041-4b7d-8062-c17d8c565c51"},"vehicle_type_id":"4","last_reported":1748027249,"current_range_meters":14400,"station_id":"","pricing_plan_id":"cebpf4jnsgd1na2vs0mg"},{"bike_id":"e0c890fd-be77-4ffb-840b-a9ec936fb36e","system_id":"levelo_inurba_marseille","lat":43.29546,"lon":5.42292,"is_reserved":false,"is_disabled":false,"rental_uris":{"android":"levelo://app?vid=e0c890fd-be77-4ffb-840b-a9ec936fb36e","ios":"levelo://app?vid=e0c890fd-be77-4ffb-840b-a9ec936fb36e"},"vehicle_type_id":"4","last_reported":1748027249,"current_range_meters":14400,"station_id":"ce4bhph2rcd13ifvqhdg","pricing_plan_id":"cebpf4jnsgd1na2vs0mg"},{"bike_id":"9ccad3be-124b-404a-8025-12f91dc2764e","system_id":"levelo_inurba_marseille","lat":43.26942,"lon":5.40238,"is_reserved":false,"is_disabled":false,"rental_uris":{"android":"levelo://app?vid=9ccad3be-124b-404a-8025-12f91dc2764e","ios":"levelo://app?vid=9ccad3be-124b-404a-8025-12f91dc2764e"},"vehicle_type_id":"4","last_reported":1748027249,"current_range_meters":14400,"station_id":"cjm6bp8fraef2m0cb0m0","pricing_plan_id":"cebpf4jnsgd1na2vs0mg"},{"bike_id":"75e91607-f093-41b1-947a-69b62fe724b6","system_id":"levelo_inurba_marseille","lat":43.34736,"lon":5.34459,"is_reserved":false,"is_disabled":false,"rental_uris":{"android":"levelo://app?vid=75e91607-f093-41b1-947a-69b62fe724b6","ios":"levelo://app?vid=75e91607-f093-41b1-947a-69b62fe724b6"},"vehicle_type_id":"4","last_reported":1748027249,"current_range_meters":14800,"station_id":"","pricing_plan_id":"cebpf4jnsgd1na2vs0mg"},{"bike_id":"675964fc-fa1e-4388-aa84-2347db014248","system_id":"levelo_inurba_marseille","lat":43.30592,"lon":5.37216,"is_reserved":false,"is_disabled":false,"rental_uris":{"android":"levelo://app?vid=675964fc-fa1e-4388-aa84-2347db014248","ios":"levelo://app?vid=675964fc-fa1e-4388-aa84-2347db014248"},"vehicle_type_id":"4","last_reported":1748027249,"current_range_meters":14800,"station_id":"","pricing_plan_id":"cebpf4jnsgd1na2vs0mg"},{"bike_id":"70d5fc4b-5863-4691-a222-4ad1f7385466","system_id":"levelo_inurba_marseille","lat":43.29267,"lon":5.38444,"is_reserved":false,"is_disabled":false,"rental_uris":{"android":"levelo://app?vid=70d5fc4b-5863-4691-a222-4ad1f7385466","ios":"levelo://app?vid=70d5fc4b-5863-4691-a222-4ad1f7385466"},"vehicle_type_id":"4","last_reported":1748027249,"current_range_meters":14800,"station_id":"ce4bh692rcd13ifvqea0","pricing_plan_id":"cebpf4jnsgd1na2vs0mg"},{"bike_id":"29d23aa8-549b-4e0a-84f1-5154882d2f1a","system_id":"levelo_inurba_marseille","lat":43.27323,"lon":5.39103,"is_reserved":false,"is_disabled":false,"rental_uris":{"android":"levelo://app?vid=29d23aa8-549b-4e0a-84f1-5154882d2f1a","ios":"levelo://app?vid=29d23aa8-549b-4e0a-84f1-5154882d2f1a"},"vehicle_type_id":"4","last_reported":1748027249,"current_range_meters":14800,"station_id":"ce4bhgp2rcd13ifvqfe0","pricing_plan_id":"cebpf4jnsgd1na2vs0mg"},{"bike_id":"95f97224-1616-448e-aaab-7642fd82bbb8","system_id":"levelo_inurba_marseille","lat":43.26802,"lon":5.39417,"is_reserved":false,"is_disabled":false,"rental_uris":{"android":"levelo://app?vid=95f97224-1616-448e-aaab-7642fd82bbb8","ios":"levelo://app?vid=95f97224-1616-448e-aaab-7642fd82bbb8"},"vehicle_type_id":"4","last_reported":1748027249,"current_range_meters":14800,"station_id":"ce4bhh12rcd13ifvqfg0","pricing_plan_id":"cebpf4jnsgd1na2vs0mg"},{"bike_id":"a34d964a-2bb2-49a8-85bd-baed48c39661","system_id":"levelo_inurba_marseille","lat":43.26785,"lon":5.39413,"is_reserved":false,"is_disabled":false,"rental_uris":{"android":"levelo://app?vid=a34d964a-2bb2-49a8-85bd-baed48c39661","ios":"levelo://app?vid=a34d964a-2bb2-49a8-85bd-baed48c39661"},"vehicle_type_id":"4","last_reported":1748027249,"current_range_meters":14800,"station_id":"ce4bhh12rcd13ifvqfg0","pricing_plan_id":"cebpf4jnsgd1na2vs0mg"},{"bike_id":"71c515d3-c7fd-4bc7-b6c5-776cef3fe5f6","system_id":"levelo_inurba_marseille","lat":43.26926,"lon":5.40283,"is_reserved":false,"is_disabled":false,"rental_uris":{"android":"levelo://app?vid=71c515d3-c7fd-4bc7-b6c5-776cef3fe5f6","ios":"levelo://app?vid=71c515d3-c7fd-4bc7-b6c5-776cef3fe5f6"},