{"last_updated":1716372473,"ttl":30,"version":"2.2","data":{"bikes":[{"bike_id":"ee9fe16f-7721-4aca-8caa-7862dd8a874f","system_id":"levelo_inurba_marseille","lat":43.313391,"lon":5.36706,"is_reserved":false,"is_disabled":false,"rental_uris":{"android":"levelo://app?vid=ee9fe16f-7721-4aca-8caa-7862dd8a874f","ios":"levelo://app?vid=ee9fe16f-7721-4aca-8caa-7862dd8a874f"},"vehicle_type_id":"4","last_reported":1716372473,"current_range_meters":14400,"station_id":"ce4bgr92rcd13ifvqc6g","pricing_plan_id":"cebpf4jnsgd1na2vs0mg"},{"bike_id":"3934434b-eaf9-4b25-9d6e-fdc82d4e6ae3","system_id":"levelo_inurba_marseille","lat":43.313391,"lon":5.36706,"is_reserved":false,"is_disabled":false,"rental_uris":{"android":"levelo://app?vid=3934434b-eaf9-4b25-9d6e-fdc82d4e6ae3","ios":"levelo://app?vid=3934434b-eaf9-4b25-9d6e-fdc82d4e6ae3"},"vehicle_type_id":"4","last_reported":1716372473,"current_range_meters":16000,"station_id":"ce4bgr92rcd13ifvqc6g","pricing_plan_id":"cebpf4jnsgd1na2vs0mg"},{"bike_id":"e0955ada-47d6-4b00-9abd-81adbdbcb55e","system_id":"levelo_inurba_marseille","lat":43.313391,"lon":5.36706,"is_reserved":false,"is_disabled":false,"rental_uris":{"android":"levelo://app?vid=e0955ada-47d6-4b00-9abd-81adbdbcb55e","ios":"levelo://app?vid=e0955ada-47d6-4b00-9abd-81adbdbcb55e"},"vehicle_type_id":"4","last_reported":1716372473,"current_range_meters":22800,"station_id":"ce4bgr92rcd13ifvqc6g","pricing_plan_id":"cebpf4jnsgd1na2vs0mg"},{"bike_id":"9aa1d10b-c06f-4ecc-a329-11a69bdf49bd","system_id":"levelo_inurba_marseille","lat":43.313391,"lon":5.36706,"is_reserved":false,"is_disabled":false,"rental_uris":{"android":"levelo://app?vid=9aa1d10b-c06f-4ecc-a329-11a69bdf49bd","ios":"levelo://app?vid=9aa1d10b-c06f-4ecc-a329-11a69bdf49bd"},"vehicle_type_id":"4","last_reported":1716372473,"current_range_meters":20000,"station_id":"ce4bgr92rcd13ifvqc6g","pricing_plan_id":"cebpf4jnsgd1na2vs0mg"},{"bike_id":"4a502427-484d-4979-a131-b72728327006","system_id":"levelo_inurba_marseille","lat":43.312239,"lon":5.368562,"is_reserved":false,"is_disabled":false,"rental_uris":{"android":"levelo://app?vid=4a502427-484d-4979-a131-b72728327006","ios":"levelo://app?vid=4a502427-484d-4979-a131-b72728327006"},"vehicle_type_id":"4","last_reported":1716372473,"current_range_meters":27200,"station_id":"ce4bgl92rcd13ifvqbq0","pricing_plan_id":"cebpf4jnsgd1na2vs0mg"},{"bike_id":"517927e8-e96d-4081-b808-c5b3505b861c","system_id":"levelo_inurba_marseille","lat":43.312239,"lon":5.368562,"is_reserved":false,"is_disabled":false,"rental_uris":{"android":"levelo://app?vid=517927e8-e96d-4081-b808-c5b3505b861c","ios":"levelo://app?vid=517927e8-e96d-4081-b808-c5b3505b861c"},"vehicle_type_id":"4","last_reported":1716372473,"current_range_meters":24400,"station_id":"ce4bgl92rcd13ifvqbq0","pricing_plan_id":"cebpf4jnsgd1na2vs0mg"},{"bike_id":"2231d279-d74d-4cbc-b2bc-020360eca62c","system_id":"levelo_inurba_marseille","lat":43.312239,"lon":5.368562,"is_reserved":false,"is_disabled":false,"rental_uris":{"android":"levelo://app?vid=2231d279-d74d-4cbc-b2bc-020360eca62c","ios":"levelo://app?vid=2231d279-d74d-4cbc-b2bc-020360eca62c"},"vehicle_type_id":"4","last_reported":1716372473,"current_range_meters":8400,"station_id":"ce4bgl92rcd13ifvqbq0","pricing_plan_id":"cebpf4jnsgd1na2vs0mg"},{"bike_id":"a8c20095-91c4-4a02-b697-77c8c1d98c7f","system_id":"levelo_inurba_marseille","lat":43.312239,"lon":5.368562,"is_reserved":false,"is_disabled":false,"rental_uris":{"android":"levelo://app?vid=a8c20095-91c4-4a02-b697-77c8c1d98c7f","ios":"levelo://app?vid=a8c20095-91c4-4a02-b697-77c8c1d98c7f"},"vehicle_type_id":"4","last_reported":1716372473,"current_range_meters":24400,"station_id":"ce4bgl92rcd13ifvqbq0","pricing_plan_id":"cebpf4jnsgd1na2vs0mg"},{"bike_id":"5ded0cf5-eb2a-4be2-8408-495d0e4c149a","system_id":"levelo_inurba_marseille","lat":43.30916,"lon":5.36857,"is_reserved":false,"is_disabled":false,"rental_uris":{"android":"levelo://app?vid=5ded0cf5-eb2a-4be2-8408-495d0e4c149a","ios":"levelo://app?vid=5ded0cf5-eb2a-4be2-8408-495d0e4c149a"},"vehicle_type_id":"4","last_reported":1716372473,"current_range_meters":31200,"station_id":"ce4bgn92rcd13ifvqbvg","pricing_plan_id":"cebpf4jnsgd1na2vs0mg"},{"bike_id":"97e77ef8-174f-42c9-9664-13157aa42bb4","system_id":"levelo_inurba_marseille","lat":43.30912,"lon":5.36853,"is_reserved":false,"is_disabled":false,"rental_uris":{"android":"levelo://app?vid=97e77ef8-174f-42c9-9664-13157aa42bb4","ios":"levelo://app?vid=97e77ef8-174f-42c9-9664-13157aa42bb4"},"vehicle_type_id":"4","last_reported":1716372473,"current_range_meters":27200,"station_id":"ce4bgn92rcd13ifvqbvg","pricing_plan_id":"cebpf4jnsgd1na2vs0mg"},{"bike_id":"b6fba3ee-4708-4a89-96fc-1eeb5cc3e414","system_id":"levelo_inurba_marseille","lat":43.309076,"lon":5.368465,"is_reserved":false,"is_disabled":false,"rental_uris":{"android":"levelo://app?vid=b6fba3ee-4708-4a89-96fc-1eeb5cc3e414","ios":"levelo://app?vid=b6fba3ee-4708-4a89-96fc-1eeb5cc3e414"},"vehicle_type_id":"4","last_reported":1716372473,"current_range_meters":19600,"station_id":"ce4bgn92rcd13ifvqbvg","pricing_plan_id":"cebpf4jnsgd1na2vs0mg"},{"bike_id":"d1f10794-3e24-4749-8ef8-bc79eadd4c32","system_id":"levelo_inurba_marseille","lat":43.309076,"lon":5.368465,"is_reserved":false,"is_disabled":false,"rental_uris":{"android":"levelo://app?vid=d1f10794-3e24-4749-8ef8-bc79eadd4c32","ios":"levelo://app?vid=d1f10794-3e24-4749-8ef8-bc79eadd4c32"},"vehicle_type_id":"4","last_reported":1716372473,"current_range_meters":9600,"station_id":"ce4bgn92rcd13ifvqbvg","pricing_plan_id":"cebpf4jnsgd1na2vs0mg"},{"bike_id":"dd3be9f4-054a-4b86-ab3b-cd40cdd9fbfe","system_id":"levelo_inurba_marseille","lat":43.30901,"lon":5.3686,"is_reserved":false,"is_disabled":false,"rental_uris":{"android":"levelo://app?vid=dd3be9f4-054a-4b86-ab3b-cd40cdd9fbfe","ios":"levelo://app?vid=dd3be9f4-054a-4b86-ab3b-cd40cdd9fbfe"},"vehicle_type_id":"4","last_reported":1716372473,"current_range_meters":15200,"station_id":"ce4bgn92rcd13ifvqbvg","pricing_plan_id":"cebpf4jnsgd1na2vs0mg"},{"bike_id":"1d77238b-bc0b-45f9-8f52-a552538556ce","system_id":"levelo_inurba_marseille","lat":43.314811,"lon":5.373103,"is_reserved":false,"is_disabled":false,"rental_uris":{"android":"levelo://app?vid=1d77238b-bc0b-45f9-8f52-a552538556ce","ios":"levelo://app?vid=1d77238b-bc0b-45f9-8f52-a552538556ce"},"vehicle_type_id":"4","last_reported":1716372473,"current_range_meters":29600,"station_id":"ce4bgt12rcd13ifvqcd0","pricing_plan_id":"cebpf4jnsgd1na2vs0mg"},{"bike_id":"553bae54-f5ea-4d99-a563-475ae08c5555","system_id":"levelo_inurba_marseille","lat":43.314811,"lon":5.373103,"is_reserved":false,"is_disabled":false,"rental_uris":{"android":"levelo://app?vid=553bae54-f5ea-4d99-a563-475ae08c5555","ios":"levelo://app?vid=553bae54-f5ea-4d99-a563-475ae08c5555"},"vehicle_type_id":"4","last_reported":1716372473,"current_range_meters":30400,"station_id":"ce4bgt12rcd13ifvqcd0","pricing_plan_id":"cebpf4jnsgd1na2vs0mg"},{"bike_id":"e78b9ec7-3092-4626-a339-6d3d2596b877","system_id":"levelo_inurba_marseille","lat":43.314811,"lon":5.373103,"is_reserved":false,"is_disabled":false,"rental_uris":{"android":"levelo://app?vid=e78b9ec7-3092-4626-a339-6d3d2596b877","ios":"levelo://app?vid=e78b9ec7-3092-4626-a339-6d3d2596b877"},"vehicle_type_id":"4","last_reported":1716372473,"current_range_meters":27200,"station_id":"ce4bgt12rcd13ifvqcd0","pricing_plan_id":"cebpf4jnsgd1na2vs0mg"},{"bike_id":"1a031bc1-2bb4-46fd-a04b-5b19e82a2e4c","system_id":"levelo_inurba_marseille","lat":43.314811,"lon":5.373103,"is_reserved":false,"is_disabled":false,"rental_uris":{"android":"levelo://app?vid=1a031bc1-2bb4-46fd-a04b-5b19e82a2e4c","ios":"levelo://app?vid=1a031bc1-2bb4-46fd-a04b-5b19e82a2e4c"},"vehicle_type_id":"4","last_reported":1716372473,"current_range_meters":16400,"station_id":"ce4bgt12rcd13ifvqcd0","pricing_plan_id":"cebpf4jnsgd1na2vs0mg"},{"bike_id":"b3ea83c9-2de3-4ca4-a3be-d6f640608684","system_id":"levelo_inurba_marseille","lat":43.314811,"lon":5.373103,"is_reserved":false,"is_disabled":false,"rental_uris":{"android":"levelo://app?vid=b3ea83c9-2de3-4ca4-a3be-d6f640608684","ios":"levelo://app?vid=b3ea83c9-2de3-4ca4-a3be-d6f640608684"},"vehicle_type_id":"4","last_reported":1716372473,"current_range_meters":23200,"station_id":"ce4bgt12rcd13ifvqcd0","pricing_plan_id":"cebpf4jnsgd1na2vs0mg"},{"bike_id":"0624af99-9093-474f-9b17-353eaf9ee95d","system_id":"levelo_inurba_marseille","lat":43.314811,"lon":5.373103,"is_reserved":false,"is_disabled":false,"rental_uris":{"android":"levelo://app?vid=0624af99-9093-474f-9b17-353eaf9ee95d","ios":"levelo://app?vid=0624af99-9093-474f-9b17-353eaf9ee95d"},"vehicle_type_id":"4","last_reported":1716372473,"current_range_meters":25600,"station_id":"ce4bgt12rcd13ifvqcd0","pricing_plan_id":"cebpf4jnsgd1na2vs0mg"},{"bike_id":"a2e49eef-50fe-4251-b993-0380fc5020ad","system_id":"levelo_inurba_marseille","lat":43.314811,"lon":5.373103,"is_reserved":false,"is_disabled":false,"rental_uris":{"android":"levelo://app?vid=a2e49eef-50fe-4251-b993-0380fc5020ad","ios":"levelo://app?vid=a2e49eef-50fe-4251-b993-0380fc5020ad"},"vehicle_type_id":"4","last_reported":1716372473,"current_range_meters":12400,"station_id":"ce4bgt12rcd13ifvqcd0","pricing_plan_id":"cebpf4jnsgd1na2vs0mg"},{"bike_id":"1ce9ce67-ab36-4ab2-b897-7ab43816bf9d","system_id":"levelo_inurba_marseille","lat":43.314811,"lon":5.373103,"is_reserved":false,"is_disabled":false,"rental_uris":{"android":"levelo://app?vid=1ce9ce67-ab36-4ab2-b897-7ab43816bf9d","ios":"levelo://app?vid=1ce9ce67-ab36-4ab2-b897-7ab43816bf9d"},"vehicle_type_id":"4","last_reported":1716372473,"current_range_meters":20000,"station_id":"ce4bgt12rcd13ifvqcd0","pricing_plan_id":"cebpf4jnsgd1na2vs0mg"},{"bike_id":"ad188593-6628-48aa-ae67-4a472f6f3bf1","system_id":"levelo_inurba_marseille","lat":43.314811,"lon":5.373104,"is_reserved":false,"is_disabled":false,"rental_uris":{"android":"levelo://app?vid=ad188593-6628-48aa-ae67-4a472f6f3bf1","ios":"levelo://app?vid=ad188593-6628-48aa-ae67-4a472f6f3bf1"},"vehicle_type_id":"4","last_reported":1716372473,"current_range_meters":22000,"station_id":"ce4bgt12rcd13ifvqcd0","pricing_plan_id":"cebpf4jnsgd1na2vs0mg"},{"bike_id":"5f174f4a-f9c5-40e8-9027-cb2e27b1a6ef","system_id":"levelo_inurba_marseille","lat":43.31502,"lon":5.37306,"is_reserved":false,"is_disabled":false,"rental_uris":{"android":"levelo://app?vid=5f174f4a-f9c5-40e8-9027-cb2e27b1a6ef","ios":"levelo://app?vid=5f174f4a-f9c5-40e8-9027-cb2e27b1a6ef"},"vehicle_type_id":"4","last_reported":1716372473,"current_range_meters":0,"station_id":"ce4bgt12rcd13ifvqcd0","pricing_plan_id":"cebpf4jnsgd1na2vs0mg"},{"bike_id":"5ac721bd-bf44-4f6f-b790-6d5d4541fe56","system_id":"levelo_inurba_marseille","lat":43.309039,"lon":5.371797,"is_reserved":false,"is_disabled":false,"rental_uris":{"android":"levelo://app?vid=5ac721bd-bf44-4f6f-b790-6d5d4541fe56","ios":"levelo://app?vid=5ac721bd-bf44-4f6f-b790-6d5d4541fe56"},"vehicle_type_id":"4","last_reported":1716372473,"current_range_meters":28000,"station_id":"ce4bguh2rcd13ifvqckg","pricing_plan_id":"cebpf4jnsgd1na2vs0mg"},{"bike_id":"83dae626-57aa-4e36-b850-876e3e125826","system_id":"levelo_inurba_marseille","lat":43.309034,"lon":5.371783,"is_reserved":false,"is_disabled":false,"rental_uris":{"android":"levelo://app?vid=83dae626-57aa-4e36-b850-876e3e125826","ios":"levelo://app?vid=83dae626-57aa-4e36-b850-876e3e125826"},"vehicle_type_id":"4","last_reported":1716372473,"current_range_meters":17200,"station_id":"ce4bguh2rcd13ifvqckg","pricing_plan_id":"cebpf4jnsgd1na2vs0mg"},{"bike_id":"e4632e7a-2deb-48a7-808d-6c5307f12802","system_id":"levelo_inurba_marseille","lat":43.31672,"lon":5.3722,"is_reserved":false,"is_disabled":false,"rental_uris":{"android":"levelo://app?vid=e4632e7a-2deb-48a7-808d-6c5307f12802","ios":"levelo://app?vid=e4632e7a-2deb-48a7-808d-6c5307f12802"},"vehicle_type_id":"4","last_reported":1716372473,"current_range_meters":11200,"station_id":"","pricing_plan_id":"cebpf4jnsgd1na2vs0mg"},{"bike_id":"04a7a016-e320-421f-883f-54d76b0ae3ee","system_id":"levelo_inurba_marseille","lat":43.305714,"lon":5.365633,"is_reserved":false,"is_disabled":false,"rental_uris":{"android":"levelo://app?vid=04a7a016-e320-421f-883f-54d76b0ae3ee","ios":"levelo://app?vid=04a7a016-e320-421f-883f-54d76b0ae3ee"},"vehicle_type_id":"4","last_reported":1716372473,"current_range_meters":10800,"station_id":"ce4bgs12rcd13ifvqcag","pricing_plan_id":"cebpf4jnsgd1na2vs0mg"},{"bike_id":"344f0bea-15b5-4fbe-a5f9-929edcf104e9","system_id":"levelo_inurba_marseille","lat":43.30537,"lon":5.367345,"is_reserved":false,"is_disabled":false,"rental_uris":{"android":"levelo://app?vid=344f0bea-15b5-4fbe-a5f9-929edcf104e9","ios":"levelo://app?vid=344f0bea-15b5-4fbe-a5f9-929edcf104e9"},"vehicle_type_id":"4","last_reported":1716372473,"current_range_meters":32000,"station_id":"ce4bgrp2rcd13ifvqc9g","pricing_plan_id":"cebpf4jnsgd1na2vs0mg"},{"bike_id":"6280c3de-f266-4e4a-bf95-113924d92e60","system_id":"levelo_inurba_marseille","lat":43.30537,"lon":5.367345,"is_reserved":false,"is_disabled":false,"rental_uris":{"android":"levelo://app?vid=6280c3de-f266-4e4a-bf95-113924d92e60","ios":"levelo://app?vid=6280c3de-f266-4e4a-bf95-113924d92e60"},"vehicle_type_id":"4","last_reported":1716372473,"current_range_meters":30000,"station_id":"ce4bgrp2rcd13ifvqc9g","pricing_plan_id":"cebpf4jnsgd1na2vs0mg"},{"bike_id":"fb24e061-b30d-4605-a96e-59839a34683e","system_id":"levelo_inurba_marseille","lat":43.305368,"lon":5.367343,"is_reserved":false,"is_disabled":false,"rental_uris":{"android":"levelo://app?vid=fb24e061-b30d-4605-a96e-59839a34683e","ios":"levelo://app?vid=fb24e061-b30d-4605-a96e-59839a34683e"},"vehicle_type_id":"4","last_reported":1716372473,"current_range_meters":10400,"station_id":"ce4bgrp2rcd13ifvqc9g","pricing_plan_id":"cebpf4jnsgd1na2vs0mg"},{"bike_id":"3e930ba0-3e01-426e-bd68-a8ecaefa358b","system_id":"levelo_inurba_marseille","lat":43.305368,"lon":5.367343,"is_reserved":false,"is_disabled":false,"rental_uris":{"android":"levelo://app?vid=3e930ba0-3e01-426e-bd68-a8ecaefa358b","ios":"levelo://app?vid=3e930ba0-3e01-426e-bd68-a8ecaefa358b"},"vehicle_type_id":"4","last_reported":1716372473,"current_range_meters":32000,"station_id":"ce4bgrp2rcd13ifvqc9g","pricing_plan_id":"cebpf4jnsgd1na2vs0mg"},{"bike_id":"8fa48b44-e6d6-45d8-85e8-60c8c89891a0","system_id":"levelo_inurba_marseille","lat":43.305714,"lon":5.365633,"is_reserved":false,"is_disabled":false,"rental_uris":{"android":"levelo://app?vid=8fa48b44-e6d6-45d8-85e8-60c8c89891a0","ios":"levelo://app?vid=8fa48b44-e6d6-45d8-85e8-60c8c89891a0"},"vehicle_type_id":"4","last_reported":1716372473,"current_range_meters":26400,"station_id":"ce4bgs12rcd13ifvqcag","pricing_plan_id":"cebpf4jnsgd1na2vs0mg"},{"bike_id":"c6dadc3a-5a2c-4ca3-98e6-bf58a626cfd7","system_id":"levelo_inurba_marseille","lat":43.305706,"lon":5.365654,"is_reserved":false,"is_disabled":false,"rental_uris":{"android":"levelo://app?vid=c6dadc3a-5a2c-4ca3-98e6-bf58a626cfd7","ios":"levelo://app?vid=c6dadc3a-5a2c-4ca3-98e6-bf58a626cfd7"},"vehicle_type_id":"4","last_reported":1716372473,"current_range_meters":23600,"station_id":"ce4bgs12rcd13ifvqcag","pricing_plan_id":"cebpf4jnsgd1na2vs0mg"},{"bike_id":"7ff87de7-d970-4ecd-ad5a-fcb8b5c6c80a","system_id":"levelo_inurba_marseille","lat":43.305706,"lon":5.365654,"is_reserved":false,"is_disabled":false,"rental_uris":{"android":"levelo://app?vid=7ff87de7-d970-4ecd-ad5a-fcb8b5c6c80a","ios":"levelo://app?vid=7ff87de7-d970-4ecd-ad5a-fcb8b5c6c80a"},"vehicle_type_id":"4","last_reported":1716372473,"current_range_meters":23200,"station_id":"ce4bgs12rcd13ifvqcag","pricing_plan_id":"cebpf4jnsgd1na2vs0mg"},{"bike_id":"a364f67e-ff3d-4a35-bc67-08ddf3c4c9a6","system_id":"levelo_inurba_marseille","lat":43.305368,"lon":5.367343,"is_reserved":false,"is_disabled":false,"rental_uris":{"android":"levelo://app?vid=a364f67e-ff3d-4a35-bc67-08ddf3c4c9a6","ios":"levelo://app?vid=a364f67e-ff3d-4a35-bc67-08ddf3c4c9a6"},"vehicle_type_id":"4","last_reported":1716372473,"current_range_meters":11600,"station_id":"ce4bgrp2rcd13ifvqc9g","pricing_plan_id":"cebpf4jnsgd1na2vs0mg"},{"bike_id":"770b8a9f-4834-48c0-af9c-1143eb7a3b3e","system_id":"levelo_inurba_marseille","lat":43.305714,"lon":5.365633,"is_reserved":false,"is_disabled":false,"rental_uris":{"android":"levelo://app?vid=770b8a9f-4834-48c0-af9c-1143eb7a3b3e","ios":"levelo://app?vid=770b8a9f-4834-48c0-af9c-1143eb7a3b3e"},"vehicle_type_id":"4","last_reported":1716372473,"current_range_meters":21600,"station_id":"ce4bgs12rcd13ifvqcag","pricing_plan_id":"cebpf4jnsgd1na2vs0mg"},{"bike_id":"db926c8c-7ccc-4840-af3a-8051216b9553","system_id":"levelo_inurba_marseille","lat":43.305706,"lon":5.365654,"is_reserved":false,"is_disabled":false,"rental_uris":{"android":"levelo://app?vid=db926c8c-7ccc-4840-af3a-8051216b9553","ios":"levelo://app?vid=db926c8c-7ccc-4840-af3a-8051216b9553"},"vehicle_type_id":"4","last_reported":1716372473,"current_range_meters":31600,"station_id":"ce4bgs12rcd13ifvqcag","pricing_plan_id":"cebpf4jnsgd1na2vs0mg"},{"bike_id":"84945c6c-3052-4341-b913-90a732781e93","system_id":"levelo_inurba_marseille","lat":43.305706,"lon":5.365654,"is_reserved":false,"is_disabled":false,"rental_uris":{"android":"levelo://app?vid=84945c6c-3052-4341-b913-90a732781e93","ios":"levelo://app?vid=84945c6c-3052-4341-b913-90a732781e93"},"vehicle_type_id":"4","last_reported":1716372473,"current_range_meters":23600,"station_id":"ce4bgs12rcd13ifvqcag","pricing_plan_id":"cebpf4jnsgd1na2vs0mg"},{"bike_id":"f4565f8a-bf95-4dca-b1eb-38292822a8d2","system_id":"levelo_inurba_marseille","lat":43.305989,"lon":5.37225,"is_reserved":false,"is_disabled":false,"rental_uris":{"android":"levelo://app?vid=f4565f8a-bf95-4dca-b1eb-38292822a8d2","ios":"levelo://app?vid=f4565f8a-bf95-4dca-b1eb-38292822a8d2"},"vehicle_type_id":"4","last_reported":1716372473,"current_range_meters":23200,"station_id":"ce4bgqh2rcd13ifvqc4g","pricing_plan_id":"cebpf4jnsgd1na2vs0mg"},{"bike_id":"fe33be50-5475-43bb-83e0-06a88be1b344","system_id":"levelo_inurba_marseille","lat":43.305989,"lon":5.37225,"is_reserved":false,"is_disabled":false,"rental_uris":{"android":"levelo://app?vid=fe33be50-5475-43bb-83e0-06a88be1b344","ios":"levelo://app?vid=fe33be50-5475-43bb-83e0-06a88be1b344"},"vehicle_type_id":"4","last_reported":1716372473,"current_range_meters":30800,"station_id":"ce4bgqh2rcd13ifvqc4g","pricing_plan_id":"cebpf4jnsgd1na2vs0mg"},{"bike_id":"e095ab2e-6c3d-4f34-8815-2e301d4b5cad","system_id":"levelo_inurba_marseille","lat":43.305989,"lon":5.37225,"is_reserved":false,"is_disabled":false,"rental_uris":{"android":"levelo://app?vid=e095ab2e-6c3d-4f34-8815-2e301d4b5cad","ios":"levelo://app?vid=e095ab2e-6c3d-4f34-8815-2e301d4b5cad"},"vehicle_type_id":"4","last_reported":1716372473,"current_range_meters":26000,"station_id":"ce4bgqh2rcd13ifvqc4g","pricing_plan_id":"cebpf4jnsgd1na2vs0mg"},{"bike_id":"085f8808-1d82-4a31-a42a-8e58df7e3717","system_id":"levelo_inurba_marseille","lat":43.305989,"lon":5.37225,"is_reserved":false,"is_disabled":false,"rental_uris":{"android":"levelo://app?vid=085f8808-1d82-4a31-a42a-8e58df7e3717","ios":"levelo://app?vid=085f8808-1d82-4a31-a42a-8e58df7e3717"},"vehicle_type_id":"4","last_reported":1716372473,"current_range_meters":30000,"station_id":"ce4bgqh2rcd13ifvqc4g","pricing_plan_id":"cebpf4jnsgd1na2vs0mg"},{"bike_id":"a7d91f19-b765-445c-9058-4819caa1fff3","system_id":"levelo_inurba_marseille","lat":43.305989,"lon":5.37225,"is_reserved":false,"is_disabled":false,"rental_uris":{"android":"levelo://app?vid=a7d91f19-b765-445c-9058-4819caa1fff3","ios":"levelo://app?vid=a7d91f19-b765-445c-9058-4819caa1fff3"},"vehicle_type_id":"4","last_reported":1716372473,"current_range_meters":31600,"station_id":"ce4bgqh2rcd13ifvqc4g","pricing_plan_id":"cebpf4jnsgd1na2vs0mg"},{"bike_id":"988d8912-b5d5-4d26-93dd-ef5dddb562de","system_id":"levelo_inurba_marseille","lat":43.311131,"lon":5.377651,"is_reserved":false,"is_disabled":false,"rental_uris":{"android":"levelo://app?vid=988d8912-b5d5-4d26-93dd-ef5dddb562de","ios":"levelo://app?vid=988d8912-b5d5-4d26-93dd-ef5dddb562de"},"vehicle_type_id":"4","last_reported":1716372473,"current_range_meters":16000,"station_id":"ce4bgt92rcd13ifvqcg0","pricing_plan_id":"cebpf4jnsgd1na2vs0mg"},{"bike_id":"167fc9e0-2822-49c9-b4b6-b3fddfd79b59","system_id":"levelo_inurba_marseille","lat":43.311131,"lon":5.377651,"is_reserved":false,"is_disabled":false,"rental_uris":{"android":"levelo://app?vid=167fc9e0-2822-49c9-b4b6-b3fddfd79b59","ios":"levelo://app?vid=167fc9e0-2822-49c9-b4b6-b3fddfd79b59"},"vehicle_type_id":"4","last_reported":1716372473,"current_range_meters":20400,"station_id":"ce4bgt92rcd13ifvqcg0","pricing_plan_id":"cebpf4jnsgd1na2vs0mg"},{"bike_id":"e40a3298-5292-465a-854e-be3b57e528b5","system_id":"levelo_inurba_marseille","lat":43.311131,"lon":5.377651,"is_reserved":false,"is_disabled":false,"rental_uris":{"android":"levelo://app?vid=e40a3298-5292-465a-854e-be3b57e528b5","ios":"levelo://app?vid=e40a3298-5292-465a-854e-be3b57e528b5"},"vehicle_type_id":"4","last_reported":1716372473,"current_range_meters":27200,"station_id":"ce4bgt92rcd13ifvqcg0","pricing_plan_id":"cebpf4jnsgd1na2vs0mg"},{"bike_id":"602300f6-e536-4c0a-be31-cff6e0292d99","system_id":"levelo_inurba_marseille","lat":43.307945,"lon":5.376487,"is_reserved":false,"is_disabled":false,"rental_uris":{"android":"levelo://app?vid=602300f6-e536-4c0a-be31-cff6e0292d99","ios":"levelo://app?vid=602300f6-e536-4c0a-be31-cff6e0292d99"},"vehicle_type_id":"4","last_reported":1716372473,"current_range_meters":26400,"station_id":"ce4bgv92rcd13ifvqcq0","pricing_plan_id":"cebpf4jnsgd1na2vs0mg"},{"bike_id":"afbde016-c74e-4bad-b41b-8c427880475d","system_id":"levelo_inurba_marseille","lat":43.307945,"lon":5.376487,"is_reserved":false,"is_disabled":false,"rental_uris":{"android":"levelo://app?vid=afbde016-c74e-4bad-b41b-8c427880475d","ios":"levelo://app?vid=afbde016-c74e-4bad-b41b-8c427880475d"},"vehicle_type_id":"4","last_reported":1716372473,"current_range_meters":30400,"station_id":"ce4bgv92rcd13ifvqcq0","pricing_plan_id":"cebpf4jnsgd1na2vs0mg"},{"bike_id":"6eba2aa3-3969-40c5-90ca-4f15803411a2","system_id":"levelo_inurba_marseille","lat":43.317075,"lon":5.377367,"is_reserved":false,"is_disabled":false,"rental_uris":{"android":"levelo://app?vid=6eba2aa3-3969-40c5-90ca-4f15803411a2","ios":"levelo://app?vid=6eba2aa3-3969-40c5-90ca-4f15803411a2"},"vehicle_type_id":"4","last_reported":1716372473,"current_range_meters":29200,"station_id":"ce4bgth2rcd13ifvqch0","pricing_plan_id":"cebpf4jnsgd1na2vs0mg"},{"bike_id":"4b0cf49e-96f6-411e-88ef-47f19556355f","system_id":"levelo_inurba_marseille","lat":43.31699,"lon":5.377573,"is_reserved":false,"is_disabled":false,"rental_uris":{"android":"levelo://app?vid=4b0cf49e-96f6-411e-88ef-47f19556355f","ios":"levelo://app?vid=4b0cf49e-96f6-411e-88ef-47f19556355f"},"vehicle_type_id":"4","last_reported":1716372473,"current_range_meters":13600,"station_id":"ce4bgth2rcd13ifvqch0","pricing_plan_id":"cebpf4jnsgd1na2vs0mg"},{"bike_id":"0143afed-b0c0-40b8-a321-e309f72dd1b4","system_id":"levelo_inurba_marseille","lat":43.317075,"lon":5.377367,"is_reserved":false,"is_disabled":false,"rental_uris":{"android":"levelo://app?vid=0143afed-b0c0-40b8-a321-e309f72dd1b4","ios":"levelo://app?vid=0143afed-b0c0-40b8-a321-e309f72dd1b4"},"vehicle_type_id":"4","last_reported":1716372473,"current_range_meters":23200,"station_id":"ce4bgth2rcd13ifvqch0","pricing_plan_id":"cebpf4jnsgd1na2vs0mg"},{"bike_id":"6be75061-e0ab-4ba4-b5ce-9cba27ae2d03","system_id":"levelo_inurba_marseille","lat":43.30438,"lon":5.371607,"is_reserved":false,"is_disabled":false,"rental_uris":{"android":"levelo://app?vid=6be75061-e0ab-4ba4-b5ce-9cba27ae2d03","ios":"levelo://app?vid=6be75061-e0ab-4ba4-b5ce-9cba27ae2d03"},"vehicle_type_id":"4","last_reported":1716372473,"current_range_meters":3600,"station_id":"","pricing_plan_id":"cebpf4jnsgd1na2vs0mg"},{"bike_id":"ca4d9d61-98bc-4da3-8343-7f7247a29413","system_id":"levelo_inurba_marseille","lat":43.303046,"lon":5.368981,"is_reserved":false,"is_disabled":false,"rental_uris":{"android":"levelo://app?vid=ca4d9d61-98bc-4da3-8343-7f7247a29413","ios":"levelo://app?vid=ca4d9d61-98bc-4da3-8343-7f7247a29413"},"vehicle_type_id":"4","last_reported":1716372473,"current_range_meters":31200,"station_id":"ce4bgqh2rcd13ifvqc5g","pricing_plan_id":"cebpf4jnsgd1na2vs0mg"},{"bike_id":"23c5611a-a789-401a-8345-16bc9528f4b7","system_id":"levelo_inurba_marseille","lat":43.303046,"lon":5.368981,"is_reserved":false,"is_disabled":false,"rental_uris":{"android":"levelo://app?vid=23c5611a-a789-401a-8345-16bc9528f4b7","ios":"levelo://app?vid=23c5611a-a789-401a-8345-16bc9528f4b7"},"vehicle_type_id":"4","last_reported":1716372473,"current_range_meters":29600,"station_id":"ce4bgqh2rcd13ifvqc5g","pricing_plan_id":"cebpf4jnsgd1na2vs0mg"},{"bike_id":"4a81310e-287d-4207-8515-119fac2cde82","system_id":"levelo_inurba_marseille","lat":43.315289,"lon":5.380349,"is_reserved":false,"is_disabled":false,"rental_uris":{"android":"levelo://app?vid=4a81310e-287d-4207-8515-119fac2cde82","ios":"levelo://app?vid=4a81310e-287d-4207-8515-119fac2cde82"},"vehicle_type_id":"4","last_reported":1716372473,"current_range_meters":31200,"station_id":"ce4bhsp2rcd13ifvqi50","pricing_plan_id":"cebpf4jnsgd1na2vs0mg"},{"bike_id":"68c9b9a0-e24d-42bc-955b-4bc3d6224827","system_id":"levelo_inurba_marseille","lat":43.315293,"lon":5.380349,"is_reserved":false,"is_disabled":false,"rental_uris":{"android":"levelo://app?vid=68c9b9a0-e24d-42bc-955b-4bc3d6224827","ios":"levelo://app?vid=68c9b9a0-e24d-42bc-955b-4bc3d6224827"},"vehicle_type_id":"4","last_reported":1716372473,"current_range_meters":30000,"station_id":"ce4bhsp2rcd13ifvqi50","pricing_plan_id":"cebpf4jnsgd1na2vs0mg"},{"bike_id":"4e180187-c98b-42bb-9275-781a562d94ea","system_id":"levelo_inurba_marseille","lat":43.315358,"lon":5.380325,"is_reserved":false,"is_disabled":false,"rental_uris":{"android":"levelo://app?vid=4e180187-c98b-42bb-9275-781a562d94ea","ios":"levelo://app?vid=4e180187-c98b-42bb-9275-781a562d94ea"},"vehicle_type_id":"4","last_reported":1716372473,"current_range_meters":18000,"station_id":"ce4bhsp2rcd13ifvqi50","pricing_plan_id":"cebpf4jnsgd1na2vs0mg"},{"bike_id":"8a244b0f-47ac-462f-97c9-65e5c5e7153e","system_id":"levelo_inurba_marseille","lat":43.315293,"lon":5.380349,"is_reserved":false,"is_disabled":false,"rental_uris":{"android":"levelo://app?vid=8a244b0f-47ac-462f-97c9-65e5c5e7153e","ios":"levelo://app?vid=8a244b0f-47ac-462f-97c9-65e5c5e7153e"},"vehicle_type_id":"4","last_reported":1716372473,"current_range_meters":30000,"station_id":"ce4bhsp2rcd13ifvqi50","pricing_plan_id":"cebpf4jnsgd1na2vs0mg"},{"bike_id":"bbe0374f-3ee4-4a96-b61c-fb4dc04559b3","system_id":"levelo_inurba_marseille","lat":43.301939,"lon":5.366286,"is_reserved":false,"is_disabled":false,"rental_uris":{"android":"levelo://app?vid=bbe0374f-3ee4-4a96-b61c-fb4dc04559b3","ios":"levelo://app?vid=bbe0374f-3ee4-4a96-b61c-fb4dc04559b3"},"vehicle_type_id":"4","last_reported":1716372473,"current_range_meters":11200,"station_id":"ce4bgrh2rcd13ifvqc8g","pricing_plan_id":"cebpf4jnsgd1na2vs0mg"},{"bike_id":"aaed87ce-2033-4cef-b5d3-012cb1569cfb","system_id":"levelo_inurba_marseille","lat":43.305368,"lon":5.367343,"is_reserved":false,"is_disabled":false,"rental_uris":{"android":"levelo://app?vid=aaed87ce-2033-4cef-b5d3-012cb1569cfb","ios":"levelo://app?vid=aaed87ce-2033-4cef-b5d3-012cb1569cfb"},"vehicle_type_id":"4","last_reported":1716372473,"current_range_meters":15200,"station_id":"ce4bgrp2rcd13ifvqc9g","pricing_plan_id":"cebpf4jnsgd1na2vs0mg"},{"bike_id":"9c5fbfdc-4726-416e-81bc-f817929985a1","system_id":"levelo_inurba_marseille","lat":43.308012,"lon":5.381511,"is_reserved":false,"is_disabled":false,"rental_uris":{"android":"levelo://app?vid=9c5fbfdc-4726-416e-81bc-f817929985a1","ios":"levelo://app?vid=9c5fbfdc-4726-416e-81bc-f817929985a1"},"vehicle_type_id":"4","last_reported":1716372473,"current_range_meters":1600,"station_id":"ce4bgt12rcd13ifvqce0","pricing_plan_id":"cebpf4jnsgd1na2vs0mg"},{"bike_id":"a844ac99-b412-4579-9733-16b7300e8aad","system_id":"levelo_inurba_marseille","lat":43.308012,"lon":5.381511,"is_reserved":false,"is_disabled":false,"rental_uris":{"android":"levelo://app?vid=a844ac99-b412-4579-9733-16b7300e8aad","ios":"levelo://app?vid=a844ac99-b412-4579-9733-16b7300e8aad"},"vehicle_type_id":"4","last_reported":1716372473,"current_range_meters":31200,"station_id":"ce4bgt12rcd13ifvqce0","pricing_plan_id":"cebpf4jnsgd1na2vs0mg"},{"bike_id":"d0286b7a-1cde-4d58-98c3-c807ea36797a","system_id":"levelo_inurba_marseille","lat":43.30482,"lon":5.37905,"is_reserved":false,"is_disabled":false,"rental_uris":{"android":"levelo://app?vid=d0286b7a-1cde-4d58-98c3-c807ea36797a","ios":"levelo://app?vid=d0286b7a-1cde-4d58-98c3-c807ea36797a"},"vehicle_type_id":"4","last_reported":1716372473,"current_range_meters":10000,"station_id":"ce4bgup2rcd13ifvqcn0","pricing_plan_id":"cebpf4jnsgd1na2vs0mg"},{"bike_id":"18534687-e318-4c90-a28b-92adaa66a110","system_id":"levelo_inurba_marseille","lat":43.304606,"lon":5.379026,"is_reserved":false,"is_disabled":false,"rental_uris":{"android":"levelo://app?vid=18534687-e318-4c90-a28b-92adaa66a110","ios":"levelo://app?vid=18534687-e318-4c90-a28b-92adaa66a110"},"vehicle_type_id":"4","last_reported":1716372473,"current_range_meters":6400,"station_id":"ce4bgup2rcd13ifvqcn0","pricing_plan_id":"cebpf4jnsgd1na2vs0mg"},{"bike_id":"c2c7b0a4-d792-4a74-8b4c-bc0108162d9d","system_id":"levelo_inurba_marseille","lat":43.304606,"lon":5.379026,"is_reserved":false,"is_disabled":false,"rental_uris":{"android":"levelo://app?vid=c2c7b0a4-d792-4a74-8b4c-bc0108162d9d","ios":"levelo://app?vid=c2c7b0a4-d792-4a74-8b4c-bc0108162d9d"},"vehicle_type_id":"4","last_reported":1716372473,"current_range_meters":11600,"station_id":"ce4bgup2rcd13ifvqcn0","pricing_plan_id":"cebpf4jnsgd1na2vs0mg"},{"bike_id":"03b2d0ac-4855-463a-a2f0-be21041dc802","system_id":"levelo_inurba_marseille","lat":43.304606,"lon":5.379026,"is_reserved":false,"is_disabled":false,"rental_uris":{"android":"levelo://app?vid=03b2d0ac-4855-463a-a2f0-be21041dc802","ios":"levelo://app?vid=03b2d0ac-4855-463a-a2f0-be21041dc802"},"vehicle_type_id":"4","last_reported":1716372473,"current_range_meters":31200,"station_id":"ce4bgup2rcd13ifvqcn0","pricing_plan_id":"cebpf4jnsgd1na2vs0mg"},{"bike_id":"941dd610-9a86-481b-be73-ed0576384cc2","system_id":"levelo_inurba_marseille","lat":43.305706,"lon":5.365654,"is_reserved":false,"is_disabled":false,"rental_uris":{"android":"levelo://app?vid=941dd610-9a86-481b-be73-ed0576384cc2","ios":"levelo://app?vid=941dd610-9a86-481b-be73-ed0576384cc2"},"vehicle_type_id":"4","last_reported":1716372473,"current_range_meters":20000,"station_id":"ce4bgs12rcd13ifvqcag","pricing_plan_id":"cebpf4jnsgd1na2vs0mg"},{"bike_id":"9eacf5ae-1fa8-43e1-9052-09f7774a3419","system_id":"levelo_inurba_marseille","lat":43.304606,"lon":5.379026,"is_reserved":false,"is_disabled":false,"rental_uris":{"android":"levelo://app?vid=9eacf5ae-1fa8-43e1-9052-09f7774a3419","ios":"levelo://app?vid=9eacf5ae-1fa8-43e1-9052-09f7774a3419"},"vehicle_type_id":"4","last_reported":1716372473,"current_range_meters":17200,"station_id":"ce4bgup2rcd13ifvqcn0","pricing_plan_id":"cebpf4jnsgd1na2vs0mg"},{"bike_id":"0ef62658-81fd-48b9-88de-07795239912c","system_id":"levelo_inurba_marseille","lat":43.309076,"lon":5.368465,"is_reserved":false,"is_disabled":false,"rental_uris":{"android":"levelo://app?vid=0ef62658-81fd-48b9-88de-07795239912c","ios":"levelo://app?vid=0ef62658-81fd-48b9-88de-07795239912c"},"vehicle_type_id":"4","last_reported":1716372473,"current_range_meters":12400,"station_id":"ce4bgn92rcd13ifvqbvg","pricing_plan_id":"cebpf4jnsgd1na2vs0mg"},{"bike_id":"ef660b8c-5e72-47e2-8e6c-03f6164ac036","system_id":"levelo_inurba_marseille","lat":43.304606,"lon":5.379026,"is_reserved":false,"is_disabled":false,"rental_uris":{"android":"levelo://app?vid=ef660b8c-5e72-47e2-8e6c-03f6164ac036","ios":"levelo://app?vid=ef660b8c-5e72-47e2-8e6c-03f6164ac036"},"vehicle_type_id":"4","last_reported":1716372473,"current_range_meters":20800,"station_id":"ce4bgup2rcd13ifvqcn0","pricing_plan_id":"cebpf4jnsgd1na2vs0mg"},{"bike_id":"16091e8b-e9b0-4f4e-ad52-a9bc35ceb381","system_id":"levelo_inurba_marseille","lat":43.304606,"lon":5.379026,"is_reserved":false,"is_disabled":false,"rental_uris":{"android":"levelo://app?vid=16091e8b-e9b0-4f4e-ad52-a9bc35ceb381","ios":"levelo://app?vid=16091e8b-e9b0-4f4e-ad52-a9bc35ceb381"},"vehicle_type_id":"4","last_reported":1716372473,"current_range_meters":24800,"station_id":"ce4bgup2rcd13ifvqcn0","pricing_plan_id":"cebpf4jnsgd1na2vs0mg"},{"bike_id":"fe69845a-34eb-4ddc-85d2-9d5460dc40a4","system_id":"levelo_inurba_marseille","lat":43.324771,"lon":5.36557,"is_reserved":false,"is_disabled":false,"rental_uris":{"android":"levelo://app?vid=fe69845a-34eb-4ddc-85d2-9d5460dc40a4","ios":"levelo://app?vid=fe69845a-34eb-4ddc-85d2-9d5460dc40a4"},"vehicle_type_id":"4","last_reported":1716372473,"current_range_meters":16800,"station_id":"ce4bhs12rcd13ifvqhvg","pricing_plan_id":"cebpf4jnsgd1na2vs0mg"},{"bike_id":"bf52c0be-7200-4683-a27a-249382f55c79","system_id":"levelo_inurba_marseille","lat":43.324771,"lon":5.36557,"is_reserved":false,"is_disabled":false,"rental_uris":{"android":"levelo://app?vid=bf52c0be-7200-4683-a27a-249382f55c79","ios":"levelo://app?vid=bf52c0be-7200-4683-a27a-249382f55c79"},"vehicle_type_id":"4","last_reported":1716372473,"current_range_meters":30800,"station_id":"ce4bhs12rcd13ifvqhvg","pricing_plan_id":"cebpf4jnsgd1na2vs0mg"},{"bike_id":"3a0d8184-4cff-4288-a70a-a6eb4f4eb458","system_id":"levelo_inurba_marseille","lat":43.324771,"lon":5.36557,"is_reserved":false,"is_disabled":false,"rental_uris":{"android":"levelo://app?vid=3a0d8184-4cff-4288-a70a-a6eb4f4eb458","ios":"levelo://app?vid=3a0d8184-4cff-4288-a70a-a6eb4f4eb458"},"vehicle_type_id":"4","last_reported":1716372473,"current_range_meters":14000,"station_id":"ce4bhs12rcd13ifvqhvg","pricing_plan_id":"cebpf4jnsgd1na2vs0mg"},{"bike_id":"396bd800-b6c3-45b6-beab-61d7684fed38","system_id":"levelo_inurba_marseille","lat":43.324771,"lon":5.36557,"is_reserved":false,"is_disabled":false,"rental_uris":{"android":"levelo://app?vid=396bd800-b6c3-45b6-beab-61d7684fed38","ios":"levelo://app?vid=396bd800-b6c3-45b6-beab-61d7684fed38"},"vehicle_type_id":"4","last_reported":1716372473,"current_range_meters":10000,"station_id":"ce4bhs12rcd13ifvqhvg","pricing_plan_id":"cebpf4jnsgd1na2vs0mg"},{"bike_id":"b162afe8-0578-48e2-ac64-0aa78feb256c","system_id":"levelo_inurba_marseille","lat":43.302784,"lon":5.377158,"is_reserved":false,"is_disabled":false,"rental_uris":{"android":"levelo://app?vid=b162afe8-0578-48e2-ac64-0aa78feb256c","ios":"levelo://app?vid=b162afe8-0578-48e2-ac64-0aa78feb256c"},"vehicle_type_id":"4","last_reported":1716372473,"current_range_meters":26000,"station_id":"ce4bguh2rcd13ifvqcj0","pricing_plan_id":"cebpf4jnsgd1na2vs0mg"},{"bike_id":"11a8c295-b3f2-4404-adf2-08b00df641a7","system_id":"levelo_inurba_marseille","lat":43.310804,"lon":5.38359,"is_reserved":false,"is_disabled":false,"rental_uris":{"android":"levelo://app?vid=11a8c295-b3f2-4404-adf2-08b00df641a7","ios":"levelo://app?vid=11a8c295-b3f2-4404-adf2-08b00df641a7"},"vehicle_type_id":"4","last_reported":1716372473,"current_range_meters":15200,"station_id":"ce4bgv92rcd13ifvqcr0","pricing_plan_id":"cebpf4jnsgd1na2vs0mg"},{"bike_id":"46bb1d87-1302-4382-bf52-3710d15831a8","system_id":"levelo_inurba_marseille","lat":43.302784,"lon":5.377158,"is_reserved":false,"is_disabled":false,"rental_uris":{"android":"levelo://app?vid=46bb1d87-1302-4382-bf52-3710d15831a8","ios":"levelo://app?vid=46bb1d87-1302-4382-bf52-3710d15831a8"},"vehicle_type_id":"4","last_reported":1716372473,"current_range_meters":28000,"station_id":"ce4bguh2rcd13ifvqcj0","pricing_plan_id":"cebpf4jnsgd1na2vs0mg"},{"bike_id":"90df819b-2aed-4bcb-be50-344c4e3fb2d0","system_id":"levelo_inurba_marseille","lat":43.310804,"lon":5.38359,"is_reserved":false,"is_disabled":false,"rental_uris":{"android":"levelo://app?vid=90df819b-2aed-4bcb-be50-344c4e3fb2d0","ios":"levelo://app?vid=90df819b-2aed-4bcb-be50-344c4e3fb2d0"},"vehicle_type_id":"4","last_reported":1716372473,"current_range_meters":20800,"station_id":"ce4bgv92rcd13ifvqcr0","pricing_plan_id":"cebpf4jnsgd1na2vs0mg"},{"bike_id":"b83d0df1-2b80-493e-8146-22daa3efb27f","system_id":"levelo_inurba_marseille","lat":43.31078,"lon":5.38364,"is_reserved":false,"is_disabled":false,"rental_uris":{"android":"levelo://app?vid=b83d0df1-2b80-493e-8146-22daa3efb27f","ios":"levelo://app?vid=b83d0df1-2b80-493e-8146-22daa3efb27f"},"vehicle_type_id":"4","last_reported":1716372473,"current_range_meters":27600,"station_id":"ce4bgv92rcd13ifvqcr0","pricing_plan_id":"cebpf4jnsgd1na2vs0mg"},{"bike_id":"eb8212ed-ccae-44a6-adca-7c1919a6a61f","system_id":"levelo_inurba_marseille","lat":43.302784,"lon":5.377158,"is_reserved":false,"is_disabled":false,"rental_uris":{"android":"levelo://app?vid=eb8212ed-ccae-44a6-adca-7c1919a6a61f","ios":"levelo://app?vid=eb8212ed-ccae-44a6-adca-7c1919a6a61f"},"vehicle_type_id":"4","last_reported":1716372473,"current_range_meters":17200,"station_id":"ce4bguh2rcd13ifvqcj0","pricing_plan_id":"cebpf4jnsgd1na2vs0mg"},{"bike_id":"295db2f3-65fe-450c-b9dc-6be438638780","system_id":"levelo_inurba_marseille","lat":43.302784,"lon":5.377158,"is_reserved":false,"is_disabled":false,"rental_uris":{"android":"levelo://app?vid=295db2f3-65fe-450c-b9dc-6be438638780","ios":"levelo://app?vid=295db2f3-65fe-450c-b9dc-6be438638780"},"vehicle_type_id":"4","last_reported":1716372473,"current_range_meters":30400,"station_id":"ce4bguh2rcd13ifvqcj0","pricing_plan_id":"cebpf4jnsgd1na2vs0mg"},{"bike_id":"38214602-2e21-45f6-945e-f183415df3a2","system_id":"levelo_inurba_marseille","lat":43.302784,"lon":5.377158,"is_reserved":false,"is_disabled":false,"rental_uris":{"android":"levelo://app?vid=38214602-2e21-45f6-945e-f183415df3a2","ios":"levelo://app?vid=38214602-2e21-45f6-945e-f183415df3a2"},"vehicle_type_id":"4","last_reported":1716372473,"current_range_meters":23600,"station_id":"ce4bguh2rcd13ifvqcj0","pricing_plan_id":"cebpf4jnsgd1na2vs0mg"},{"bike_id":"26c28804-5ffe-42b5-b264-7edf4a7eb3d8","system_id":"levelo_inurba_marseille","lat":43.30143,"lon":5.37413,"is_reserved":false,"is_disabled":false,"rental_uris":{"android":"levelo://app?vid=26c28804-5ffe-42b5-b264-7edf4a7eb3d8","ios":"levelo://app?vid=26c28804-5ffe-42b5-b264-7edf4a7eb3d8"},"vehicle_type_id":"4","last_reported":1716372473,"current_range_meters":9200,"station_id":"ce4bgs92rcd13ifvqcc0","pricing_plan_id":"cebpf4jnsgd1na2vs0mg"},{"bike_id":"d826bbd2-0e4b-436a-9635-eaf35e36315b","system_id":"levelo_inurba_marseille","lat":43.30143,"lon":5.37413,"is_reserved":false,"is_disabled":false,"rental_uris":{"android":"levelo://app?vid=d826bbd2-0e4b-436a-9635-eaf35e36315b","ios":"levelo://app?vid=d826bbd2-0e4b-436a-9635-eaf35e36315b"},"vehicle_type_id":"4","last_reported":1716372473,"current_range_meters":7600,"station_id":"ce4bgs92rcd13ifvqcc0","pricing_plan_id":"cebpf4jnsgd1na2vs0mg"},{"bike_id":"f3dda29d-9a71-465e-8edd-bd7ef06555a3","system_id":"levelo_inurba_marseille","lat":43.301429,"lon":5.37413,"is_reserved":false,"is_disabled":false,"rental_uris":{"android":"levelo://app?vid=f3dda29d-9a71-465e-8edd-bd7ef06555a3","ios":"levelo://app?vid=f3dda29d-9a71-465e-8edd-bd7ef06555a3"},"vehicle_type_id":"4","last_reported":1716372473,"current_range_meters":26800,"station_id":"ce4bgs92rcd13ifvqcc0","pricing_plan_id":"cebpf4jnsgd1na2vs0mg"},{"bike_id":"f6bdef37-fe63-4b0e-af6e-9ea71759e039","system_id":"levelo_inurba_marseille","lat":43.301429,"lon":5.37413,"is_reserved":false,"is_disabled":false,"rental_uris":{"android":"levelo://app?vid=f6bdef37-fe63-4b0e-af6e-9ea71759e039","ios":"levelo://app?vid=f6bdef37-fe63-4b0e-af6e-9ea71759e039"},"vehicle_type_id":"4","last_reported":1716372473,"current_range_meters":14400,"station_id":"ce4bgs92rcd13ifvqcc0","pricing_plan_id":"cebpf4jnsgd1na2vs0mg"},{"bike_id":"6f5ada87-f1e7-403e-a314-3f6160b59639","system_id":"levelo_inurba_marseille","lat":43.30143,"lon":5.37413,"is_reserved":false,"is_disabled":false,"rental_uris":{"android":"levelo://app?vid=6f5ada87-f1e7-403e-a314-3f6160b59639","ios":"levelo://app?vid=6f5ada87-f1e7-403e-a314-3f6160b59639"},"vehicle_type_id":"4","last_reported":1716372473,"current_range_meters":31200,"station_id":"ce4bgs92rcd13ifvqcc0","pricing_plan_id":"cebpf4jnsgd1na2vs0mg"},{"bike_id":"f72762df-faac-46d6-a1a7-558c9f43680e","system_id":"levelo_inurba_marseille","lat":43.301429,"lon":5.37413,"is_reserved":false,"is_disabled":false,"rental_uris":{"android":"levelo://app?vid=f72762df-faac-46d6-a1a7-558c9f43680e","ios":"levelo://app?vid=f72762df-faac-46d6-a1a7-558c9f43680e"},"vehicle_type_id":"4","last_reported":1716372473,"current_range_meters":31600,"station_id":"ce4bgs92rcd13ifvqcc0","pricing_plan_id":"cebpf4jnsgd1na2vs0mg"},{"bike_id":"4cf53eb2-2d21-4a1d-8524-eae38f801b7a","system_id":"levelo_inurba_marseille","lat":43.3199,"lon":5.38144,"is_reserved":false,"is_disabled":false,"rental_uris":{"android":"levelo://app?vid=4cf53eb2-2d21-4a1d-8524-eae38f801b7a","ios":"levelo://app?vid=4cf53eb2-2d21-4a1d-8524-eae38f801b7a"},"vehicle_type_id":"4","last_reported":1716372473,"current_range_meters":30400,"station_id":"ce4bhr12rcd13ifvqhpg","pricing_plan_id":"cebpf4jnsgd1na2vs0mg"},{"bike_id":"49f4b792-12f8-456e-9b86-59122c5e3c03","system_id":"levelo_inurba_marseille","lat":43.31993,"lon":5.38151,"is_reserved":false,"is_disabled":false,"rental_uris":{"android":"levelo://app?vid=49f4b792-12f8-456e-9b86-59122c5e3c03","ios":"levelo://app?vid=49f4b792-12f8-456e-9b86-59122c5e3c03"},"vehicle_type_id":"4","last_reported":1716372473,"current_range_meters":31200,"station_id":"ce4bhr12rcd13ifvqhpg","pricing_plan_id":"cebpf4jnsgd1na2vs0mg"},{"bike_id":"e48fe419-3584-4256-8dd4-0563341db911","system_id":"levelo_inurba_marseille","lat":43.319935,"lon":5.381699,"is_reserved":false,"is_disabled":false,"rental_uris":{"android":"levelo://app?vid=e48fe419-3584-4256-8dd4-0563341db911","ios":"levelo://app?vid=e48fe419-3584-4256-8dd4-0563341db911"},"vehicle_type_id":"4","last_reported":1716372473,"current_range_meters":4000,"station_id":"ce4bhr12rcd13ifvqhpg","pricing_plan_id":"cebpf4jnsgd1na2vs0mg"},{"bike_id":"2474ecc6-fffb-40f3-973e-de5eef6ee631","system_id":"levelo_inurba_marseille","lat":43.319935,"lon":5.381699,"is_reserved":false,"is_disabled":false,"rental_uris":{"android":"levelo://app?vid=2474ecc6-fffb-40f3-973e-de5eef6ee631","ios":"levelo://app?vid=2474ecc6-fffb-40f3-973e-de5eef6ee631"},"vehicle_type_id":"4","last_reported":1716372473,"current_range_meters":12000,"station_id":"ce4bhr12rcd13ifvqhpg","pricing_plan_id":"cebpf4jnsgd1na2vs0mg"},{"bike_id":"c45f0ba9-f977-4e75-9dcd-968ad8756420","system_id":"levelo_inurba_marseille","lat":43.313571,"lon":5.384829,"is_reserved":false,"is_disabled":false,"rental_uris":{"android":"levelo://app?vid=c45f0ba9-f977-4e75-9dcd-968ad8756420","ios":"levelo://app?vid=c45f0ba9-f977-4e75-9dcd-968ad8756420"},"vehicle_type_id":"4","last_reported":1716372473,"current_range_meters":6000,"station_id":"ce4bgt92rcd13ifvqcf0","pricing_plan_id":"cebpf4jnsgd1na2vs0mg"},{"bike_id":"91b229d0-2b0d-44b0-809b-a3c7e6509209","system_id":"levelo_inurba_marseille","lat":43.313571,"lon":5.384829,"is_reserved":false,"is_disabled":false,"rental_uris":{"android":"levelo://app?vid=91b229d0-2b0d-44b0-809b-a3c7e6509209","ios":"levelo://app?vid=91b229d0-2b0d-44b0-809b-a3c7e6509209"},"vehicle_type_id":"4","last_reported":1716372473,"current_range_meters":20800,"station_id":"ce4bgt92rcd13ifvqcf0","pricing_plan_id":"cebpf4jnsgd1na2vs0mg"},{"bike_id":"9fac559e-25cb-41ef-b884-02bc0e3ba5fc","system_id":"levelo_inurba_marseille","lat":43.313571,"lon":5.384829,"is_reserved":false,"is_disabled":false,"rental_uris":{"android":"levelo://app?vid=9fac559e-25cb-41ef-b884-02bc0e3ba5fc","ios":"levelo://app?vid=9fac559e-25cb-41ef-b884-02bc0e3ba5fc"},"vehicle_type_id":"4","last_reported":1716372473,"current_range_meters":13200,"station_id":"ce4bgt92rcd13ifvqcf0","pricing_plan_id":"cebpf4jnsgd1na2vs0mg"},{"bike_id":"c5d6908c-03b4-4eb0-ba3a-e59424947c8a","system_id":"levelo_inurba_marseille","lat":43.313571,"lon":5.384829,"is_reserved":false,"is_disabled":false,"rental_uris":{"android":"levelo://app?vid=c5d6908c-03b4-4eb0-ba3a-e59424947c8a","ios":"levelo://app?vid=c5d6908c-03b4-4eb0-ba3a-e59424947c8a"},"vehicle_type_id":"4","last_reported":1716372473,"current_range_meters":27600,"station_id":"ce4bgt92rcd13ifvqcf0","pricing_plan_id":"cebpf4jnsgd1na2vs0mg"},{"bike_id":"48b57d23-a458-4d42-aeef-a727006bdc6c","system_id":"levelo_inurba_marseille","lat":43.313683,"lon":5.384933,"is_reserved":false,"is_disabled":false,"rental_uris":{"android":"levelo://app?vid=48b57d23-a458-4d42-aeef-a727006bdc6c","ios":"levelo://app?vid=48b57d23-a458-4d42-aeef-a727006bdc6c"},"vehicle_type_id":"4","last_reported":1716372473,"current_range_meters":14000,"station_id":"ce4bgt92rcd13ifvqcf0","pricing_plan_id":"cebpf4jnsgd1na2vs0mg"},{"bike_id":"17408771-5b78-4ac5-a517-b87bdf5577dc","system_id":"levelo_inurba_marseille","lat":43.313571,"lon":5.384829,"is_reserved":false,"is_disabled":false,"rental_uris":{"android":"levelo://app?vid=17408771-5b78-4ac5-a517-b87bdf5577dc","ios":"levelo://app?vid=17408771-5b78-4ac5-a517-b87bdf5577dc"},"vehicle_type_id":"4","last_reported":1716372473,"current_range_meters":22000,"station_id":"ce4bgt92rcd13ifvqcf0","pricing_plan_id":"cebpf4jnsgd1na2vs0mg"},{"bike_id":"d1e392c2-ad3c-432b-85d4-89e89e33df5f","system_id":"levelo_inurba_marseille","lat":43.313571,"lon":5.384829,"is_reserved":false,"is_disabled":false,"rental_uris":{"android":"levelo://app?vid=d1e392c2-ad3c-432b-85d4-89e89e33df5f","ios":"levelo://app?vid=d1e392c2-ad3c-432b-85d4-89e89e33df5f"},"vehicle_type_id":"4","last_reported":1716372473,"current_range_meters":15600,"station_id":"ce4bgt92rcd13ifvqcf0","pricing_plan_id":"cebpf4jnsgd1na2vs0mg"},{"bike_id":"a92cf4bf-ca02-419a-8b9f-bfa526087bf8","system_id":"levelo_inurba_marseille","lat":43.313571,"lon":5.384829,"is_reserved":false,"is_disabled":false,"rental_uris":{"android":"levelo://app?vid=a92cf4bf-ca02-419a-8b9f-bfa526087bf8","ios":"levelo://app?vid=a92cf4bf-ca02-419a-8b9f-bfa526087bf8"},"vehicle_type_id":"4","last_reported":1716372473,"current_range_meters":11600,"station_id":"ce4bgt92rcd13ifvqcf0","pricing_plan_id":"cebpf4jnsgd1na2vs0mg"},{"bike_id":"47c1be10-e03f-4a1d-9e37-dac57a41af34","system_id":"levelo_inurba_marseille","lat":43.313571,"lon":5.384829,"is_reserved":false,"is_disabled":false,"rental_uris":{"android":"levelo://app?vid=47c1be10-e03f-4a1d-9e37-dac57a41af34","ios":"levelo://app?vid=47c1be10-e03f-4a1d-9e37-dac57a41af34"},"vehicle_type_id":"4","last_reported":1716372473,"current_range_meters":31600,"station_id":"ce4bgt92rcd13ifvqcf0","pricing_plan_id":"cebpf4jnsgd1na2vs0mg"},{"bike_id":"be315187-7476-4985-98c2-72c4e6d6bf5a","system_id":"levelo_inurba_marseille","lat":43.313571,"lon":5.384829,"is_reserved":false,"is_disabled":false,"rental_uris":{"android":"levelo://app?vid=be315187-7476-4985-98c2-72c4e6d6bf5a","ios":"levelo://app?vid=be315187-7476-4985-98c2-72c4e6d6bf5a"},"vehicle_type_id":"4","last_reported":1716372473,"current_range_meters":12000,"station_id":"ce4bgt92rcd13ifvqcf0","pricing_plan_id":"cebpf4jnsgd1na2vs0mg"},{"bike_id":"0e5beefc-22a4-4ecb-a80a-8c42b52bed8d","system_id":"levelo_inurba_marseille","lat":43.313571,"lon":5.384829,"is_reserved":false,"is_disabled":false,"rental_uris":{"android":"levelo://app?vid=0e5beefc-22a4-4ecb-a80a-8c42b52bed8d","ios":"levelo://app?vid=0e5beefc-22a4-4ecb-a80a-8c42b52bed8d"},"vehicle_type_id":"4","last_reported":1716372473,"current_range_meters":31600,"station_id":"ce4bgt92rcd13ifvqcf0","pricing_plan_id":"cebpf4jnsgd1na2vs0mg"},{"bike_id":"2684f3ec-36c7-43ab-8c9e-ce6a6534fd63","system_id":"levelo_inurba_marseille","lat":43.292311,"lon":5.360731,"is_reserved":false,"is_disabled":false,"rental_uris":{"android":"levelo://app?vid=2684f3ec-36c7-43ab-8c9e-ce6a6534fd63","ios":"levelo://app?vid=2684f3ec-36c7-43ab-8c9e-ce6a6534fd63"},"vehicle_type_id":"4","last_reported":1716372473,"current_range_meters":30800,"station_id":"ce4bhbh2rcd13ifvqeqg","pricing_plan_id":"cebpf4jnsgd1na2vs0mg"},{"bike_id":"b713b6cc-7604-4cfd-b885-b0d94d999edc","system_id":"levelo_inurba_marseille","lat":43.313571,"lon":5.384829,"is_reserved":false,"is_disabled":false,"rental_uris":{"android":"levelo://app?vid=b713b6cc-7604-4cfd-b885-b0d94d999edc","ios":"levelo://app?vid=b713b6cc-7604-4cfd-b885-b0d94d999edc"},"vehicle_type_id":"4","last_reported":1716372473,"current_range_meters":13600,"station_id":"ce4bgt92rcd13ifvqcf0","pricing_plan_id":"cebpf4jnsgd1na2vs0mg"},{"bike_id":"69f35ab1-0eea-43a4-812b-789e3b3616d1","system_id":"levelo_inurba_marseille","lat":43.313571,"lon":5.384829,"is_reserved":false,"is_disabled":false,"rental_uris":{"android":"levelo://app?vid=69f35ab1-0eea-43a4-812b-789e3b3616d1","ios":"levelo://app?vid=69f35ab1-0eea-43a4-812b-789e3b3616d1"},"vehicle_type_id":"4","last_reported":1716372473,"current_range_meters":24800,"station_id":"ce4bgt92rcd13ifvqcf0","pricing_plan_id":"cebpf4jnsgd1na2vs0mg"},{"bike_id":"930b5ae3-9cc7-4064-817d-5562dfa0022a","system_id":"levelo_inurba_marseille","lat":43.313571,"lon":5.384829,"is_reserved":false,"is_disabled":false,"rental_uris":{"android":"levelo://app?vid=930b5ae3-9cc7-4064-817d-5562dfa0022a","ios":"levelo://app?vid=930b5ae3-9cc7-4064-817d-5562dfa0022a"},"vehicle_type_id":"4","last_reported":1716372473,"current_range_meters":11600,"station_id":"ce4bgt92rcd13ifvqcf0","pricing_plan_id":"cebpf4jnsgd1na2vs0mg"},{"bike_id":"9f9fd4d2-d735-4c8c-b6c2-f10bc07fc9bc","system_id":"levelo_inurba_marseille","lat":43.313571,"lon":5.384829,"is_reserved":false,"is_disabled":false,"rental_uris":{"android":"levelo://app?vid=9f9fd4d2-d735-4c8c-b6c2-f10bc07fc9bc","ios":"levelo://app?vid=9f9fd4d2-d735-4c8c-b6c2-f10bc07fc9bc"},"vehicle_type_id":"4","last_reported":1716372473,"current_range_meters":31600,"station_id":"ce4bgt92rcd13ifvqcf0","pricing_plan_id":"cebpf4jnsgd1na2vs0mg"},{"bike_id":"f3067d19-5d53-450b-a08c-23d4f2159a33","system_id":"levelo_inurba_marseille","lat":43.313571,"lon":5.384829,"is_reserved":false,"is_disabled":false,"rental_uris":{"android":"levelo://app?vid=f3067d19-5d53-450b-a08c-23d4f2159a33","ios":"levelo://app?vid=f3067d19-5d53-450b-a08c-23d4f2159a33"},"vehicle_type_id":"4","last_reported":1716372473,"current_range_meters":30800,"station_id":"ce4bgt92rcd13ifvqcf0","pricing_plan_id":"cebpf4jnsgd1na2vs0mg"},{"bike_id":"f1d13864-f367-454b-ad7b-e8cf0980c1e9","system_id":"levelo_inurba_marseille","lat":43.299724,"lon":5.371829,"is_reserved":false,"is_disabled":false,"rental_uris":{"android":"levelo://app?vid=f1d13864-f367-454b-ad7b-e8cf0980c1e9","ios":"levelo://app?vid=f1d13864-f367-454b-ad7b-e8cf0980c1e9"},"vehicle_type_id":"4","last_reported":1716372473,"current_range_meters":22800,"station_id":"ce4bgr92rcd13ifvqc7g","pricing_plan_id":"cebpf4jnsgd1na2vs0mg"},{"bike_id":"afee8777-6bd0-4ee6-9d28-d59130da931b","system_id":"levelo_inurba_marseille","lat":43.299724,"lon":5.371829,"is_reserved":false,"is_disabled":false,"rental_uris":{"android":"levelo://app?vid=afee8777-6bd0-4ee6-9d28-d59130da931b","ios":"levelo://app?vid=afee8777-6bd0-4ee6-9d28-d59130da931b"},"vehicle_type_id":"4","last_reported":1716372473,"current_range_meters":27200,"station_id":"ce4bgr92rcd13ifvqc7g","pricing_plan_id":"cebpf4jnsgd1na2vs0mg"},{"bike_id":"2e8a43d7-c68b-4884-99b2-80b84a2eb25d","system_id":"levelo_inurba_marseille","lat":43.299724,"lon":5.371829,"is_reserved":false,"is_disabled":false,"rental_uris":{"android":"levelo://app?vid=2e8a43d7-c68b-4884-99b2-80b84a2eb25d","ios":"levelo://app?vid=2e8a43d7-c68b-4884-99b2-80b84a2eb25d"},"vehicle_type_id":"4","last_reported":1716372473,"current_range_meters":17600,"station_id":"ce4bgr92rcd13ifvqc7g","pricing_plan_id":"cebpf4jnsgd1na2vs0mg"},{"bike_id":"87c59340-3834-4f1a-872c-981d2ee18a44","system_id":"levelo_inurba_marseille","lat":43.299724,"lon":5.371829,"is_reserved":false,"is_disabled":false,"rental_uris":{"android":"levelo://app?vid=87c59340-3834-4f1a-872c-981d2ee18a44","ios":"levelo://app?vid=87c59340-3834-4f1a-872c-981d2ee18a44"},"vehicle_type_id":"4","last_reported":1716372473,"current_range_meters":10000,"station_id":"ce4bgr92rcd13ifvqc7g","pricing_plan_id":"cebpf4jnsgd1na2vs0mg"},{"bike_id":"59c14603-e93e-4182-ae2f-a6c9d96923ac","system_id":"levelo_inurba_marseille","lat":43.299724,"lon":5.371829,"is_reserved":false,"is_disabled":false,"rental_uris":{"android":"levelo://app?vid=59c14603-e93e-4182-ae2f-a6c9d96923ac","ios":"levelo://app?vid=59c14603-e93e-4182-ae2f-a6c9d96923ac"},"vehicle_type_id":"4","last_reported":1716372473,"current_range_meters":16800,"station_id":"ce4bgr92rcd13ifvqc7g","pricing_plan_id":"cebpf4jnsgd1na2vs0mg"},{"bike_id":"8f791669-eda3-48a3-9d35-23739eaef828","system_id":"levelo_inurba_marseille","lat":43.299724,"lon":5.371829,"is_reserved":false,"is_disabled":false,"rental_uris":{"android":"levelo://app?vid=8f791669-eda3-48a3-9d35-23739eaef828","ios":"levelo://app?vid=8f791669-eda3-48a3-9d35-23739eaef828"},"vehicle_type_id":"4","last_reported":1716372473,"current_range_meters":17200,"station_id":"ce4bgr92rcd13ifvqc7g","pricing_plan_id":"cebpf4jnsgd1na2vs0mg"},{"bike_id":"c6166b6d-88e6-4a8e-be4b-c1559877f941","system_id":"levelo_inurba_marseille","lat":43.299724,"lon":5.371829,"is_reserved":false,"is_disabled":false,"rental_uris":{"android":"levelo://app?vid=c6166b6d-88e6-4a8e-be4b-c1559877f941","ios":"levelo://app?vid=c6166b6d-88e6-4a8e-be4b-c1559877f941"},"vehicle_type_id":"4","last_reported":1716372473,"current_range_meters":8400,"station_id":"ce4bgr92rcd13ifvqc7g","pricing_plan_id":"cebpf4jnsgd1na2vs0mg"},{"bike_id":"0529213d-31f9-48a6-919a-dda4ee0c562e","system_id":"levelo_inurba_marseille","lat":43.299724,"lon":5.371829,"is_reserved":false,"is_disabled":false,"rental_uris":{"android":"levelo://app?vid=0529213d-31f9-48a6-919a-dda4ee0c562e","ios":"levelo://app?vid=0529213d-31f9-48a6-919a-dda4ee0c562e"},"vehicle_type_id":"4","last_reported":1716372473,"current_range_meters":26400,"station_id":"ce4bgr92rcd13ifvqc7g","pricing_plan_id":"cebpf4jnsgd1na2vs0mg"},{"bike_id":"2cb94c7c-344f-40c1-bb10-8f8ec16f2ed0","system_id":"levelo_inurba_marseille","lat":43.305364,"lon":5.384119,"is_reserved":false,"is_disabled":false,"rental_uris":{"android":"levelo://app?vid=2cb94c7c-344f-40c1-bb10-8f8ec16f2ed0","ios":"levelo://app?vid=2cb94c7c-344f-40c1-bb10-8f8ec16f2ed0"},"vehicle_type_id":"4","last_reported":1716372473,"current_range_meters":28000,"station_id":"ce4bgg92rcd13ifvqb30","pricing_plan_id":"cebpf4jnsgd1na2vs0mg"},{"bike_id":"06304b88-5fbd-4c6d-bf67-b77b9453a614","system_id":"levelo_inurba_marseille","lat":43.298433,"lon":5.362774,"is_reserved":false,"is_disabled":false,"rental_uris":{"android":"levelo://app?vid=06304b88-5fbd-4c6d-bf67-b77b9453a614","ios":"levelo://app?vid=06304b88-5fbd-4c6d-bf67-b77b9453a614"},"vehicle_type_id":"4","last_reported":1716372473,"current_range_meters":22400,"station_id":"ce4bgpp2rcd13ifvqc3g","pricing_plan_id":"cebpf4jnsgd1na2vs0mg"},{"bike_id":"f1e3d6a9-7c78-41ec-814e-a440e9287081","system_id":"levelo_inurba_marseille","lat":43.30555,"lon":5.38413,"is_reserved":false,"is_disabled":false,"rental_uris":{"android":"levelo://app?vid=f1e3d6a9-7c78-41ec-814e-a440e9287081","ios":"levelo://app?vid=f1e3d6a9-7c78-41ec-814e-a440e9287081"},"vehicle_type_id":"4","last_reported":1716372473,"current_range_meters":27200,"station_id":"ce4bgg92rcd13ifvqb30","pricing_plan_id":"cebpf4jnsgd1na2vs0mg"},{"bike_id":"5779c037-26e5-425f-9d0f-b8d1298bb004","system_id":"levelo_inurba_marseille","lat":43.30554,"lon":5.384185,"is_reserved":false,"is_disabled":false,"rental_uris":{"android":"levelo://app?vid=5779c037-26e5-425f-9d0f-b8d1298bb004","ios":"levelo://app?vid=5779c037-26e5-425f-9d0f-b8d1298bb004"},"vehicle_type_id":"4","last_reported":1716372473,"current_range_meters":0,"station_id":"ce4bgg92rcd13ifvqb30","pricing_plan_id":"cebpf4jnsgd1na2vs0mg"},{"bike_id":"15b16474-2c58-4b21-9f07-6c877df56aa9","system_id":"levelo_inurba_marseille","lat":43.298433,"lon":5.362774,"is_reserved":false,"is_disabled":false,"rental_uris":{"android":"levelo://app?vid=15b16474-2c58-4b21-9f07-6c877df56aa9","ios":"levelo://app?vid=15b16474-2c58-4b21-9f07-6c877df56aa9"},"vehicle_type_id":"4","last_reported":1716372473,"current_range_meters":8000,"station_id":"ce4bgpp2rcd13ifvqc3g","pricing_plan_id":"cebpf4jnsgd1na2vs0mg"},{"bike_id":"6e08247a-d0b5-4a33-b955-9d66690792ff","system_id":"levelo_inurba_marseille","lat":43.298433,"lon":5.362774,"is_reserved":false,"is_disabled":false,"rental_uris":{"android":"levelo://app?vid=6e08247a-d0b5-4a33-b955-9d66690792ff","ios":"levelo://app?vid=6e08247a-d0b5-4a33-b955-9d66690792ff"},"vehicle_type_id":"4","last_reported":1716372473,"current_range_meters":10000,"station_id":"ce4bgpp2rcd13ifvqc3g","pricing_plan_id":"cebpf4jnsgd1na2vs0mg"},{"bike_id":"ebce1c3f-8faf-43c1-b0cf-328a00049575","system_id":"levelo_inurba_marseille","lat":43.298433,"lon":5.362774,"is_reserved":false,"is_disabled":false,"rental_uris":{"android":"levelo://app?vid=ebce1c3f-8faf-43c1-b0cf-328a00049575","ios":"levelo://app?vid=ebce1c3f-8faf-43c1-b0cf-328a00049575"},"vehicle_type_id":"4","last_reported":1716372473,"current_range_meters":14800,"station_id":"ce4bgpp2rcd13ifvqc3g","pricing_plan_id":"cebpf4jnsgd1na2vs0mg"},{"bike_id":"72b4dfb8-9f41-4169-88e6-bdb699c6fd3d","system_id":"levelo_inurba_marseille","lat":43.298433,"lon":5.362774,"is_reserved":false,"is_disabled":false,"rental_uris":{"android":"levelo://app?vid=72b4dfb8-9f41-4169-88e6-bdb699c6fd3d","ios":"levelo://app?vid=72b4dfb8-9f41-4169-88e6-bdb699c6fd3d"},"vehicle_type_id":"4","last_reported":1716372473,"current_range_meters":31200,"station_id":"ce4bgpp2rcd13ifvqc3g","pricing_plan_id":"cebpf4jnsgd1na2vs0mg"},{"bike_id":"27f70bcf-ad1c-4a3f-8757-5e6f13d59b51","system_id":"levelo_inurba_marseille","lat":43.298433,"lon":5.362774,"is_reserved":false,"is_disabled":false,"rental_uris":{"android":"levelo://app?vid=27f70bcf-ad1c-4a3f-8757-5e6f13d59b51","ios":"levelo://app?vid=27f70bcf-ad1c-4a3f-8757-5e6f13d59b51"},"vehicle_type_id":"4","last_reported":1716372473,"current_range_meters":23600,"station_id":"ce4bgpp2rcd13ifvqc3g","pricing_plan_id":"cebpf4jnsgd1na2vs0mg"},{"bike_id":"16032b27-b0ba-4b2e-a5d2-3cdb12b5b545","system_id":"levelo_inurba_marseille","lat":43.298433,"lon":5.362774,"is_reserved":false,"is_disabled":false,"rental_uris":{"android":"levelo://app?vid=16032b27-b0ba-4b2e-a5d2-3cdb12b5b545","ios":"levelo://app?vid=16032b27-b0ba-4b2e-a5d2-3cdb12b5b545"},"vehicle_type_id":"4","last_reported":1716372473,"current_range_meters":16800,"station_id":"ce4bgpp2rcd13ifvqc3g","pricing_plan_id":"cebpf4jnsgd1na2vs0mg"},{"bike_id":"220272c5-243a-4fbb-8b22-f6cc243c64d0","system_id":"levelo_inurba_marseille","lat":43.299243,"lon":5.37481,"is_reserved":false,"is_disabled":false,"rental_uris":{"android":"levelo://app?vid=220272c5-243a-4fbb-8b22-f6cc243c64d0","ios":"levelo://app?vid=220272c5-243a-4fbb-8b22-f6cc243c64d0"},"vehicle_type_id":"4","last_reported":1716372473,"current_range_meters":24800,"station_id":"ce4bgjh2rcd13ifvqbg0","pricing_plan_id":"cebpf4jnsgd1na2vs0mg"},{"bike_id":"13a98d93-9dc6-4671-b4e0-63976d751503","system_id":"levelo_inurba_marseille","lat":43.298433,"lon":5.362774,"is_reserved":false,"is_disabled":false,"rental_uris":{"android":"levelo://app?vid=13a98d93-9dc6-4671-b4e0-63976d751503","ios":"levelo://app?vid=13a98d93-9dc6-4671-b4e0-63976d751503"},"vehicle_type_id":"4","last_reported":1716372473,"current_range_meters":14800,"station_id":"ce4bgpp2rcd13ifvqc3g","pricing_plan_id":"cebpf4jnsgd1na2vs0mg"},{"bike_id":"98eef38d-3fe2-493d-b45f-da4389b287fd","system_id":"levelo_inurba_marseille","lat":43.298433,"lon":5.362774,"is_reserved":false,"is_disabled":false,"rental_uris":{"android":"levelo://app?vid=98eef38d-3fe2-493d-b45f-da4389b287fd","ios":"levelo://app?vid=98eef38d-3fe2-493d-b45f-da4389b287fd"},"vehicle_type_id":"4","last_reported":1716372473,"current_range_meters":7600,"station_id":"ce4bgpp2rcd13ifvqc3g","pricing_plan_id":"cebpf4jnsgd1na2vs0mg"},{"bike_id":"c813d56d-9a7a-48d8-a9a2-72ba188e1b1b","system_id":"levelo_inurba_marseille","lat":43.298433,"lon":5.362774,"is_reserved":false,"is_disabled":false,"rental_uris":{"android":"levelo://app?vid=c813d56d-9a7a-48d8-a9a2-72ba188e1b1b","ios":"levelo://app?vid=c813d56d-9a7a-48d8-a9a2-72ba188e1b1b"},"vehicle_type_id":"4","last_reported":1716372473,"current_range_meters":14000,"station_id":"ce4bgpp2rcd13ifvqc3g","pricing_plan_id":"cebpf4jnsgd1na2vs0mg"},{"bike_id":"5f961c89-9dde-4c97-bfbf-abc7537f9efd","system_id":"levelo_inurba_marseille","lat":43.298433,"lon":5.362774,"is_reserved":false,"is_disabled":false,"rental_uris":{"android":"levelo://app?vid=5f961c89-9dde-4c97-bfbf-abc7537f9efd","ios":"levelo://app?vid=5f961c89-9dde-4c97-bfbf-abc7537f9efd"},"vehicle_type_id":"4","last_reported":1716372473,"current_range_meters":22400,"station_id":"ce4bgpp2rcd13ifvqc3g","pricing_plan_id":"cebpf4jnsgd1na2vs0mg"},{"bike_id":"dd10cb14-da0a-412d-a492-29d0eed18ee4","system_id":"levelo_inurba_marseille","lat":43.298433,"lon":5.362774,"is_reserved":false,"is_disabled":false,"rental_uris":{"android":"levelo://app?vid=dd10cb14-da0a-412d-a492-29d0eed18ee4","ios":"levelo://app?vid=dd10cb14-da0a-412d-a492-29d0eed18ee4"},"vehicle_type_id":"4","last_reported":1716372473,"current_range_meters":13200,"station_id":"ce4bgpp2rcd13ifvqc3g","pricing_plan_id":"cebpf4jnsgd1na2vs0mg"},{"bike_id":"3b5163a8-8d27-46ec-92ea-4188a80667a4","system_id":"levelo_inurba_marseille","lat":43.298433,"lon":5.362774,"is_reserved":false,"is_disabled":false,"rental_uris":{"android":"levelo://app?vid=3b5163a8-8d27-46ec-92ea-4188a80667a4","ios":"levelo://app?vid=3b5163a8-8d27-46ec-92ea-4188a80667a4"},"vehicle_type_id":"4","last_reported":1716372473,"current_range_meters":22000,"station_id":"ce4bgpp2rcd13ifvqc3g","pricing_plan_id":"cebpf4jnsgd1na2vs0mg"},{"bike_id":"ec218ec7-d8eb-4809-b594-d99e51993bde","system_id":"levelo_inurba_marseille","lat":43.298433,"lon":5.362774,"is_reserved":false,"is_disabled":false,"rental_uris":{"android":"levelo://app?vid=ec218ec7-d8eb-4809-b594-d99e51993bde","ios":"levelo://app?vid=ec218ec7-d8eb-4809-b594-d99e51993bde"},"vehicle_type_id":"4","last_reported":1716372473,"current_range_meters":14000,"station_id":"ce4bgpp2rcd13ifvqc3g","pricing_plan_id":"cebpf4jnsgd1na2vs0mg"},{"bike_id":"4d0d8db5-6329-4899-8ee3-02197bbbbc4f","system_id":"levelo_inurba_marseille","lat":43.298433,"lon":5.362774,"is_reserved":false,"is_disabled":false,"rental_uris":{"android":"levelo://app?vid=4d0d8db5-6329-4899-8ee3-02197bbbbc4f","ios":"levelo://app?vid=4d0d8db5-6329-4899-8ee3-02197bbbbc4f"},"vehicle_type_id":"4","last_reported":1716372473,"current_range_meters":9200,"station_id":"ce4bgpp2rcd13ifvqc3g","pricing_plan_id":"cebpf4jnsgd1na2vs0mg"},{"bike_id":"d94c4734-d4ce-4544-a90d-f426836ba600","system_id":"levelo_inurba_marseille","lat":43.298433,"lon":5.362774,"is_reserved":false,"is_disabled":false,"rental_uris":{"android":"levelo://app?vid=d94c4734-d4ce-4544-a90d-f426836ba600","ios":"levelo://app?vid=d94c4734-d4ce-4544-a90d-f426836ba600"},"vehicle_type_id":"4","last_reported":1716372473,"current_range_meters":28000,"station_id":"ce4bgpp2rcd13ifvqc3g","pricing_plan_id":"cebpf4jnsgd1na2vs0mg"},{"bike_id":"8c94a5f4-1b5e-49c7-8eb1-9abb6bc99180","system_id":"levelo_inurba_marseille","lat":43.299243,"lon":5.37481,"is_reserved":false,"is_disabled":false,"rental_uris":{"android":"levelo://app?vid=8c94a5f4-1b5e-49c7-8eb1-9abb6bc99180","ios":"levelo://app?vid=8c94a5f4-1b5e-49c7-8eb1-9abb6bc99180"},"vehicle_type_id":"4","last_reported":1716372473,"current_range_meters":6000,"station_id":"ce4bgjh2rcd13ifvqbg0","pricing_plan_id":"cebpf4jnsgd1na2vs0mg"},{"bike_id":"5350b805-7b80-49e2-b32a-b3b49d5d9d7e","system_id":"levelo_inurba_marseille","lat":43.31173,"lon":5.38709,"is_reserved":false,"is_disabled":false,"rental_uris":{"android":"levelo://app?vid=5350b805-7b80-49e2-b32a-b3b49d5d9d7e","ios":"levelo://app?vid=5350b805-7b80-49e2-b32a-b3b49d5d9d7e"},"vehicle_type_id":"4","last_reported":1716372473,"current_range_meters":18000,"station_id":"ce4bgv12rcd13ifvqcp0","pricing_plan_id":"cebpf4jnsgd1na2vs0mg"},{"bike_id":"ec0372b7-4a51-4db1-90da-b22ee8d5b203","system_id":"levelo_inurba_marseille","lat":43.298354,"lon":5.362704,"is_reserved":false,"is_disabled":false,"rental_uris":{"android":"levelo://app?vid=ec0372b7-4a51-4db1-90da-b22ee8d5b203","ios":"levelo://app?vid=ec0372b7-4a51-4db1-90da-b22ee8d5b203"},"vehicle_type_id":"4","last_reported":1716372473,"current_range_meters":29600,"station_id":"","pricing_plan_id":"cebpf4jnsgd1na2vs0mg"},{"bike_id":"c0e97d69-5634-4e6b-8395-3e87ef8c54c1","system_id":"levelo_inurba_marseille","lat":43.299243,"lon":5.37481,"is_reserved":false,"is_disabled":false,"rental_uris":{"android":"levelo://app?vid=c0e97d69-5634-4e6b-8395-3e87ef8c54c1","ios":"levelo://app?vid=c0e97d69-5634-4e6b-8395-3e87ef8c54c1"},"vehicle_type_id":"4","last_reported":1716372473,"current_range_meters":17600,"station_id":"ce4bgjh2rcd13ifvqbg0","pricing_plan_id":"cebpf4jnsgd1na2vs0mg"},{"bike_id":"767efec1-b6b1-4c83-9a82-be4ff82653fc","system_id":"levelo_inurba_marseille","lat":43.31172,"lon":5.38713,"is_reserved":false,"is_disabled":false,"rental_uris":{"android":"levelo://app?vid=767efec1-b6b1-4c83-9a82-be4ff82653fc","ios":"levelo://app?vid=767efec1-b6b1-4c83-9a82-be4ff82653fc"},"vehicle_type_id":"4","last_reported":1716372473,"current_range_meters":12800,"station_id":"ce4bgv12rcd13ifvqcp0","pricing_plan_id":"cebpf4jnsgd1na2vs0mg"},{"bike_id":"219687b9-edf6-4100-81e1-5ab47691aaad","system_id":"levelo_inurba_marseille","lat":43.311722,"lon":5.387247,"is_reserved":false,"is_disabled":false,"rental_uris":{"android":"levelo://app?vid=219687b9-edf6-4100-81e1-5ab47691aaad","ios":"levelo://app?vid=219687b9-edf6-4100-81e1-5ab47691aaad"},"vehicle_type_id":"4","last_reported":1716372473,"current_range_meters":20000,"station_id":"ce4bgv12rcd13ifvqcp0","pricing_plan_id":"cebpf4jnsgd1na2vs0mg"},{"bike_id":"e57dbccb-5e9c-481f-aeeb-1cbd33930863","system_id":"levelo_inurba_marseille","lat":43.31173,"lon":5.38718,"is_reserved":false,"is_disabled":false,"rental_uris":{"android":"levelo://app?vid=e57dbccb-5e9c-481f-aeeb-1cbd33930863","ios":"levelo://app?vid=e57dbccb-5e9c-481f-aeeb-1cbd33930863"},"vehicle_type_id":"4","last_reported":1716372473,"current_range_meters":20400,"station_id":"ce4bgv12rcd13ifvqcp0","pricing_plan_id":"cebpf4jnsgd1na2vs0mg"},{"bike_id":"d6b686c6-f59c-4554-8bf8-31d803599f26","system_id":"levelo_inurba_marseille","lat":43.31181,"lon":5.38719,"is_reserved":false,"is_disabled":false,"rental_uris":{"android":"levelo://app?vid=d6b686c6-f59c-4554-8bf8-31d803599f26","ios":"levelo://app?vid=d6b686c6-f59c-4554-8bf8-31d803599f26"},"vehicle_type_id":"4","last_reported":1716372473,"current_range_meters":27200,"station_id":"ce4bgv12rcd13ifvqcp0","pricing_plan_id":"cebpf4jnsgd1na2vs0mg"},{"bike_id":"b97d8e8a-bfe3-4bef-b43a-43601d0bd437","system_id":"levelo_inurba_marseille","lat":43.311722,"lon":5.387247,"is_reserved":false,"is_disabled":false,"rental_uris":{"android":"levelo://app?vid=b97d8e8a-bfe3-4bef-b43a-43601d0bd437","ios":"levelo://app?vid=b97d8e8a-bfe3-4bef-b43a-43601d0bd437"},"vehicle_type_id":"4","last_reported":1716372473,"current_range_meters":26000,"station_id":"ce4bgv12rcd13ifvqcp0","pricing_plan_id":"cebpf4jnsgd1na2vs0mg"},{"bike_id":"aacb6290-08db-46a9-8f72-8f5b9cfb51ee","system_id":"levelo_inurba_marseille","lat":43.311722,"lon":5.387247,"is_reserved":false,"is_disabled":false,"rental_uris":{"android":"levelo://app?vid=aacb6290-08db-46a9-8f72-8f5b9cfb51ee","ios":"levelo://app?vid=aacb6290-08db-46a9-8f72-8f5b9cfb51ee"},"vehicle_type_id":"4","last_reported":1716372473,"current_range_meters":0,"station_id":"ce4bgv12rcd13ifvqcp0","pricing_plan_id":"cebpf4jnsgd1na2vs0mg"},{"bike_id":"da906676-82e8-47b2-a05c-39e8482b5cda","system_id":"levelo_inurba_marseille","lat":43.31173,"lon":5.38725,"is_reserved":false,"is_disabled":false,"rental_uris":{"android":"levelo://app?vid=da906676-82e8-47b2-a05c-39e8482b5cda","ios":"levelo://app?vid=da906676-82e8-47b2-a05c-39e8482b5cda"},"vehicle_type_id":"4","last_reported":1716372473,"current_range_meters":11200,"station_id":"ce4bgv12rcd13ifvqcp0","pricing_plan_id":"cebpf4jnsgd1na2vs0mg"},{"bike_id":"ed492a4e-944e-43b3-bd26-4581a8e6f7a8","system_id":"levelo_inurba_marseille","lat":43.297794,"lon":5.370888,"is_reserved":false,"is_disabled":false,"rental_uris":{"android":"levelo://app?vid=ed492a4e-944e-43b3-bd26-4581a8e6f7a8","ios":"levelo://app?vid=ed492a4e-944e-43b3-bd26-4581a8e6f7a8"},"vehicle_type_id":"4","last_reported":1716372473,"current_range_meters":29600,"station_id":"ce4bgop2rcd13ifvqc1g","pricing_plan_id":"cebpf4jnsgd1na2vs0mg"},{"bike_id":"4db12bb2-047c-428a-addf-22fa2d72f822","system_id":"levelo_inurba_marseille","lat":43.297774,"lon":5.370875,"is_reserved":false,"is_disabled":false,"rental_uris":{"android":"levelo://app?vid=4db12bb2-047c-428a-addf-22fa2d72f822","ios":"levelo://app?vid=4db12bb2-047c-428a-addf-22fa2d72f822"},"vehicle_type_id":"4","last_reported":1716372473,"current_range_meters":30400,"station_id":"ce4bgop2rcd13ifvqc1g","pricing_plan_id":"cebpf4jnsgd1na2vs0mg"},{"bike_id":"0a6b6ab5-9a1e-4b1b-bda9-ba2b274980bc","system_id":"levelo_inurba_marseille","lat":43.297794,"lon":5.370888,"is_reserved":false,"is_disabled":false,"rental_uris":{"android":"levelo://app?vid=0a6b6ab5-9a1e-4b1b-bda9-ba2b274980bc","ios":"levelo://app?vid=0a6b6ab5-9a1e-4b1b-bda9-ba2b274980bc"},"vehicle_type_id":"4","last_reported":1716372473,"current_range_meters":30800,"station_id":"ce4bgop2rcd13ifvqc1g","pricing_plan_id":"cebpf4jnsgd1na2vs0mg"},{"bike_id":"a799e030-73c6-46f1-b919-bf1958a4e8f1","system_id":"levelo_inurba_marseille","lat":43.29781,"lon":5.37109,"is_reserved":false,"is_disabled":false,"rental_uris":{"android":"levelo://app?vid=a799e030-73c6-46f1-b919-bf1958a4e8f1","ios":"levelo://app?vid=a799e030-73c6-46f1-b919-bf1958a4e8f1"},"vehicle_type_id":"4","last_reported":1716372473,"current_range_meters":7600,"station_id":"ce4bgop2rcd13ifvqc1g","pricing_plan_id":"cebpf4jnsgd1na2vs0mg"},{"bike_id":"b9d45281-4dbf-4eca-900b-9d571208cdd9","system_id":"levelo_inurba_marseille","lat":43.322872,"lon":5.382756,"is_reserved":false,"is_disabled":false,"rental_uris":{"android":"levelo://app?vid=b9d45281-4dbf-4eca-900b-9d571208cdd9","ios":"levelo://app?vid=b9d45281-4dbf-4eca-900b-9d571208cdd9"},"vehicle_type_id":"4","last_reported":1716372473,"current_range_meters":26000,"station_id":"ce4bhr12rcd13ifvqhqg","pricing_plan_id":"cebpf4jnsgd1na2vs0mg"},{"bike_id":"c80557a8-f268-4024-bafc-c0eed9e504c0","system_id":"levelo_inurba_marseille","lat":43.322872,"lon":5.382756,"is_reserved":false,"is_disabled":false,"rental_uris":{"android":"levelo://app?vid=c80557a8-f268-4024-bafc-c0eed9e504c0","ios":"levelo://app?vid=c80557a8-f268-4024-bafc-c0eed9e504c0"},"vehicle_type_id":"4","last_reported":1716372473,"current_range_meters":22000,"station_id":"ce4bhr12rcd13ifvqhqg","pricing_plan_id":"cebpf4jnsgd1na2vs0mg"},{"bike_id":"79f33001-a651-4b0f-b82e-f19ee71b8d0f","system_id":"levelo_inurba_marseille","lat":43.322872,"lon":5.382756,"is_reserved":false,"is_disabled":false,"rental_uris":{"android":"levelo://app?vid=79f33001-a651-4b0f-b82e-f19ee71b8d0f","ios":"levelo://app?vid=79f33001-a651-4b0f-b82e-f19ee71b8d0f"},"vehicle_type_id":"4","last_reported":1716372473,"current_range_meters":29600,"station_id":"ce4bhr12rcd13ifvqhqg","pricing_plan_id":"cebpf4jnsgd1na2vs0mg"},{"bike_id":"0982d07f-f6e8-472e-b4e5-da606aac46db","system_id":"levelo_inurba_marseille","lat":43.322872,"lon":5.382756,"is_reserved":false,"is_disabled":false,"rental_uris":{"android":"levelo://app?vid=0982d07f-f6e8-472e-b4e5-da606aac46db","ios":"levelo://app?vid=0982d07f-f6e8-472e-b4e5-da606aac46db"},"vehicle_type_id":"4","last_reported":1716372473,"current_range_meters":29200,"station_id":"ce4bhr12rcd13ifvqhqg","pricing_plan_id":"cebpf4jnsgd1na2vs0mg"},{"bike_id":"221c8090-c576-499d-aa1a-6505e61122f4","system_id":"levelo_inurba_marseille","lat":43.322872,"lon":5.382756,"is_reserved":false,"is_disabled":false,"rental_uris":{"android":"levelo://app?vid=221c8090-c576-499d-aa1a-6505e61122f4","ios":"levelo://app?vid=221c8090-c576-499d-aa1a-6505e61122f4"},"vehicle_type_id":"4","last_reported":1716372473,"current_range_meters":30800,"station_id":"ce4bhr12rcd13ifvqhqg","pricing_plan_id":"cebpf4jnsgd1na2vs0mg"},{"bike_id":"ab54a222-d500-4144-9d31-47e668eff20e","system_id":"levelo_inurba_marseille","lat":43.322872,"lon":5.382756,"is_reserved":false,"is_disabled":false,"rental_uris":{"android":"levelo://app?vid=ab54a222-d500-4144-9d31-47e668eff20e","ios":"levelo://app?vid=ab54a222-d500-4144-9d31-47e668eff20e"},"vehicle_type_id":"4","last_reported":1716372473,"current_range_meters":18800,"station_id":"ce4bhr12rcd13ifvqhqg","pricing_plan_id":"cebpf4jnsgd1na2vs0mg"},{"bike_id":"bf6c8638-0f09-41d3-bfd6-7799a8e0af66","system_id":"levelo_inurba_marseille","lat":43.29711,"lon":5.36614,"is_reserved":false,"is_disabled":false,"rental_uris":{"android":"levelo://app?vid=bf6c8638-0f09-41d3-bfd6-7799a8e0af66","ios":"levelo://app?vid=bf6c8638-0f09-41d3-bfd6-7799a8e0af66"},"vehicle_type_id":"4","last_reported":1716372473,"current_range_meters":6000,"station_id":"ce4bgn12rcd13ifvqbt0","pricing_plan_id":"cebpf4jnsgd1na2vs0mg"},{"bike_id":"f46d7347-23a3-4e31-8972-141d96b0b117","system_id":"levelo_inurba_marseille","lat":43.297163,"lon":5.365866,"is_reserved":false,"is_disabled":false,"rental_uris":{"android":"levelo://app?vid=f46d7347-23a3-4e31-8972-141d96b0b117","ios":"levelo://app?vid=f46d7347-23a3-4e31-8972-141d96b0b117"},"vehicle_type_id":"4","last_reported":1716372473,"current_range_meters":2400,"station_id":"ce4bgn12rcd13ifvqbt0","pricing_plan_id":"cebpf4jnsgd1na2vs0mg"},{"bike_id":"bb4e7e83-2100-4b90-9796-8d64ad54a52a","system_id":"levelo_inurba_marseille","lat":43.297163,"lon":5.365866,"is_reserved":false,"is_disabled":false,"rental_uris":{"android":"levelo://app?vid=bb4e7e83-2100-4b90-9796-8d64ad54a52a","ios":"levelo://app?vid=bb4e7e83-2100-4b90-9796-8d64ad54a52a"},"vehicle_type_id":"4","last_reported":1716372473,"current_range_meters":1200,"station_id":"ce4bgn12rcd13ifvqbt0","pricing_plan_id":"cebpf4jnsgd1na2vs0mg"},{"bike_id":"fef19b85-e841-42d1-9cad-a8ea3c9523a5","system_id":"levelo_inurba_marseille","lat":43.29851,"lon":5.37698,"is_reserved":false,"is_disabled":false,"rental_uris":{"android":"levelo://app?vid=fef19b85-e841-42d1-9cad-a8ea3c9523a5","ios":"levelo://app?vid=fef19b85-e841-42d1-9cad-a8ea3c9523a5"},"vehicle_type_id":"4","last_reported":1716372473,"current_range_meters":20800,"station_id":"","pricing_plan_id":"cebpf4jnsgd1na2vs0mg"},{"bike_id":"b0181dbd-d16d-4347-9382-b450da867146","system_id":"levelo_inurba_marseille","lat":43.29657,"lon":5.36162,"is_reserved":false,"is_disabled":false,"rental_uris":{"android":"levelo://app?vid=b0181dbd-d16d-4347-9382-b450da867146","ios":"levelo://app?vid=b0181dbd-d16d-4347-9382-b450da867146"},"vehicle_type_id":"4","last_reported":1716372473,"current_range_meters":20800,"station_id":"","pricing_plan_id":"cebpf4jnsgd1na2vs0mg"},{"bike_id":"58e2f9c9-cee4-4ae2-b651-0f22c9c2e0e5","system_id":"levelo_inurba_marseille","lat":43.29573,"lon":5.367355,"is_reserved":false,"is_disabled":false,"rental_uris":{"android":"levelo://app?vid=58e2f9c9-cee4-4ae2-b651-0f22c9c2e0e5","ios":"levelo://app?vid=58e2f9c9-cee4-4ae2-b651-0f22c9c2e0e5"},"vehicle_type_id":"4","last_reported":1716372473,"current_range_meters":8400,"station_id":"ce4bgph2rcd13ifvqc2g","pricing_plan_id":"cebpf4jnsgd1na2vs0mg"},{"bike_id":"f9ee6566-1b40-4b0b-a72d-c42b9d7bd915","system_id":"levelo_inurba_marseille","lat":43.296935,"lon":5.376544,"is_reserved":false,"is_disabled":false,"rental_uris":{"android":"levelo://app?vid=f9ee6566-1b40-4b0b-a72d-c42b9d7bd915","ios":"levelo://app?vid=f9ee6566-1b40-4b0b-a72d-c42b9d7bd915"},"vehicle_type_id":"4","last_reported":1716372473,"current_range_meters":19600,"station_id":"ce4bgkh2rcd13ifvqbl0","pricing_plan_id":"cebpf4jnsgd1na2vs0mg"},{"bike_id":"8ff80a4a-bea3-408a-8bd6-21dd3cf96ca0","system_id":"levelo_inurba_marseille","lat":43.299028,"lon":5.381509,"is_reserved":false,"is_disabled":false,"rental_uris":{"android":"levelo://app?vid=8ff80a4a-bea3-408a-8bd6-21dd3cf96ca0","ios":"levelo://app?vid=8ff80a4a-bea3-408a-8bd6-21dd3cf96ca0"},"vehicle_type_id":"4","last_reported":1716372473,"current_range_meters":26800,"station_id":"ce4bgj12rcd13ifvqbc0","pricing_plan_id":"cebpf4jnsgd1na2vs0mg"},{"bike_id":"a744afbe-fbdf-40d0-9ce9-93c2ac53413f","system_id":"levelo_inurba_marseille","lat":43.29912,"lon":5.38142,"is_reserved":false,"is_disabled":false,"rental_uris":{"android":"levelo://app?vid=a744afbe-fbdf-40d0-9ce9-93c2ac53413f","ios":"levelo://app?vid=a744afbe-fbdf-40d0-9ce9-93c2ac53413f"},"vehicle_type_id":"4","last_reported":1716372473,"current_range_meters":0,"station_id":"ce4bgj12rcd13ifvqbc0","pricing_plan_id":"cebpf4jnsgd1na2vs0mg"},{"bike_id":"ba9fcbf1-26fa-42b8-8ff6-0f238fa0436f","system_id":"levelo_inurba_marseille","lat":43.29913,"lon":5.38147,"is_reserved":false,"is_disabled":false,"rental_uris":{"android":"levelo://app?vid=ba9fcbf1-26fa-42b8-8ff6-0f238fa0436f","ios":"levelo://app?vid=ba9fcbf1-26fa-42b8-8ff6-0f238fa0436f"},"vehicle_type_id":"4","last_reported":1716372473,"current_range_meters":14000,"station_id":"ce4bgj12rcd13ifvqbc0","pricing_plan_id":"cebpf4jnsgd1na2vs0mg"},{"bike_id":"b1694b50-d5e6-45ef-8256-51a80a2a497d","system_id":"levelo_inurba_marseille","lat":43.309589,"lon":5.390258,"is_reserved":false,"is_disabled":false,"rental_uris":{"android":"levelo://app?vid=b1694b50-d5e6-45ef-8256-51a80a2a497d","ios":"levelo://app?vid=b1694b50-d5e6-45ef-8256-51a80a2a497d"},"vehicle_type_id":"4","last_reported":1716372473,"current_range_meters":31200,"station_id":"ce4bgup2rcd13ifvqco0","pricing_plan_id":"cebpf4jnsgd1na2vs0mg"},{"bike_id":"8229016e-7167-4459-9f01-6ba8bcfa4371","system_id":"levelo_inurba_marseille","lat":43.29909,"lon":5.38155,"is_reserved":false,"is_disabled":false,"rental_uris":{"android":"levelo://app?vid=8229016e-7167-4459-9f01-6ba8bcfa4371","ios":"levelo://app?vid=8229016e-7167-4459-9f01-6ba8bcfa4371"},"vehicle_type_id":"4","last_reported":1716372473,"current_range_meters":800,"station_id":"ce4bgj12rcd13ifvqbc0","pricing_plan_id":"cebpf4jnsgd1na2vs0mg"},{"bike_id":"7c80f5f7-85f6-4416-9b4c-3f1bb9d09223","system_id":"levelo_inurba_marseille","lat":43.309589,"lon":5.390258,"is_reserved":false,"is_disabled":false,"rental_uris":{"android":"levelo://app?vid=7c80f5f7-85f6-4416-9b4c-3f1bb9d09223","ios":"levelo://app?vid=7c80f5f7-85f6-4416-9b4c-3f1bb9d09223"},"vehicle_type_id":"4","last_reported":1716372473,"current_range_meters":20000,"station_id":"ce4bgup2rcd13ifvqco0","pricing_plan_id":"cebpf4jnsgd1na2vs0mg"},{"bike_id":"649334d3-e042-4d86-967f-ec87f23b0956","system_id":"levelo_inurba_marseille","lat":43.309589,"lon":5.390258,"is_reserved":false,"is_disabled":false,"rental_uris":{"android":"levelo://app?vid=649334d3-e042-4d86-967f-ec87f23b0956","ios":"levelo://app?vid=649334d3-e042-4d86-967f-ec87f23b0956"},"vehicle_type_id":"4","last_reported":1716372473,"current_range_meters":31600,"station_id":"ce4bgup2rcd13ifvqco0","pricing_plan_id":"cebpf4jnsgd1na2vs0mg"},{"bike_id":"b06b2e70-5b62-4e33-b114-88f2892ed4bc","system_id":"levelo_inurba_marseille","lat":43.317557,"lon":5.390173,"is_reserved":false,"is_disabled":false,"rental_uris":{"android":"levelo://app?vid=b06b2e70-5b62-4e33-b114-88f2892ed4bc","ios":"levelo://app?vid=b06b2e70-5b62-4e33-b114-88f2892ed4bc"},"vehicle_type_id":"4","last_reported":1716372473,"current_range_meters":2800,"station_id":"ce4bhqp2rcd13ifvqhng","pricing_plan_id":"cebpf4jnsgd1na2vs0mg"},{"bike_id":"d5b6d22c-6c21-4e02-8745-f8fe2795ecda","system_id":"levelo_inurba_marseille","lat":43.317557,"lon":5.390173,"is_reserved":false,"is_disabled":false,"rental_uris":{"android":"levelo://app?vid=d5b6d22c-6c21-4e02-8745-f8fe2795ecda","ios":"levelo://app?vid=d5b6d22c-6c21-4e02-8745-f8fe2795ecda"},"vehicle_type_id":"4","last_reported":1716372473,"current_range_meters":26800,"station_id":"ce4bhqp2rcd13ifvqhng","pricing_plan_id":"cebpf4jnsgd1na2vs0mg"},{"bike_id":"737c7612-69d6-4304-8034-314c393c0038","system_id":"levelo_inurba_marseille","lat":43.309589,"lon":5.390258,"is_reserved":false,"is_disabled":false,"rental_uris":{"android":"levelo://app?vid=737c7612-69d6-4304-8034-314c393c0038","ios":"levelo://app?vid=737c7612-69d6-4304-8034-314c393c0038"},"vehicle_type_id":"4","last_reported":1716372473,"current_range_meters":18800,"station_id":"ce4bgup2rcd13ifvqco0","pricing_plan_id":"cebpf4jnsgd1na2vs0mg"},{"bike_id":"55af34dd-1a5f-40ff-a46b-bde576f988a4","system_id":"levelo_inurba_marseille","lat":43.309589,"lon":5.390258,"is_reserved":false,"is_disabled":false,"rental_uris":{"android":"levelo://app?vid=55af34dd-1a5f-40ff-a46b-bde576f988a4","ios":"levelo://app?vid=55af34dd-1a5f-40ff-a46b-bde576f988a4"},"vehicle_type_id":"4","last_reported":1716372473,"current_range_meters":26800,"station_id":"ce4bgup2rcd13ifvqco0","pricing_plan_id":"cebpf4jnsgd1na2vs0mg"},{"bike_id":"ecec3b0a-0eec-42d5-9565-2b44e8e28f46","system_id":"levelo_inurba_marseille","lat":43.309589,"lon":5.390258,"is_reserved":false,"is_disabled":false,"rental_uris":{"android":"levelo://app?vid=ecec3b0a-0eec-42d5-9565-2b44e8e28f46","ios":"levelo://app?vid=ecec3b0a-0eec-42d5-9565-2b44e8e28f46"},"vehicle_type_id":"4","last_reported":1716372473,"current_range_meters":28000,"station_id":"ce4bgup2rcd13ifvqco0","pricing_plan_id":"cebpf4jnsgd1na2vs0mg"},{"bike_id":"ede2e377-4caa-449a-9c13-ce4754d9006a","system_id":"levelo_inurba_marseille","lat":43.309589,"lon":5.390258,"is_reserved":false,"is_disabled":false,"rental_uris":{"android":"levelo://app?vid=ede2e377-4caa-449a-9c13-ce4754d9006a","ios":"levelo://app?vid=ede2e377-4caa-449a-9c13-ce4754d9006a"},"vehicle_type_id":"4","last_reported":1716372473,"current_range_meters":17600,"station_id":"ce4bgup2rcd13ifvqco0","pricing_plan_id":"cebpf4jnsgd1na2vs0mg"},{"bike_id":"9c4374f6-da04-4666-85df-bbf9507ca7db","system_id":"levelo_inurba_marseille","lat":43.299025,"lon":5.38154,"is_reserved":false,"is_disabled":false,"rental_uris":{"android":"levelo://app?vid=9c4374f6-da04-4666-85df-bbf9507ca7db","ios":"levelo://app?vid=9c4374f6-da04-4666-85df-bbf9507ca7db"},"vehicle_type_id":"4","last_reported":1716372473,"current_range_meters":31600,"station_id":"ce4bgj12rcd13ifvqbc0","pricing_plan_id":"cebpf4jnsgd1na2vs0mg"},{"bike_id":"ad9fce6c-d343-43b5-8b66-890f88499c06","system_id":"levelo_inurba_marseille","lat":43.309589,"lon":5.390258,"is_reserved":false,"is_disabled":false,"rental_uris":{"android":"levelo://app?vid=ad9fce6c-d343-43b5-8b66-890f88499c06","ios":"levelo://app?vid=ad9fce6c-d343-43b5-8b66-890f88499c06"},"vehicle_type_id":"4","last_reported":1716372473,"current_range_meters":30800,"station_id":"ce4bgup2rcd13ifvqco0","pricing_plan_id":"cebpf4jnsgd1na2vs0mg"},{"bike_id":"9dd97292-ea15-4930-bbeb-21930d61dd1d","system_id":"levelo_inurba_marseille","lat":43.309589,"lon":5.390258,"is_reserved":false,"is_disabled":false,"rental_uris":{"android":"levelo://app?vid=9dd97292-ea15-4930-bbeb-21930d61dd1d","ios":"levelo://app?vid=9dd97292-ea15-4930-bbeb-21930d61dd1d"},"vehicle_type_id":"4","last_reported":1716372473,"current_range_meters":26000,"station_id":"ce4bgup2rcd13ifvqco0","pricing_plan_id":"cebpf4jnsgd1na2vs0mg"},{"bike_id":"63166e31-699f-4c1f-af9a-b7c815dabd26","system_id":"levelo_inurba_marseille","lat":43.309589,"lon":5.390258,"is_reserved":false,"is_disabled":false,"rental_uris":{"android":"levelo://app?vid=63166e31-699f-4c1f-af9a-b7c815dabd26","ios":"levelo://app?vid=63166e31-699f-4c1f-af9a-b7c815dabd26"},"vehicle_type_id":"4","last_reported":1716372473,"current_range_meters":18800,"station_id":"ce4bgup2rcd13ifvqco0","pricing_plan_id":"cebpf4jnsgd1na2vs0mg"},{"bike_id":"bf2a2525-125a-439a-8fbe-bbf009ac3492","system_id":"levelo_inurba_marseille","lat":43.309589,"lon":5.390258,"is_reserved":false,"is_disabled":false,"rental_uris":{"android":"levelo://app?vid=bf2a2525-125a-439a-8fbe-bbf009ac3492","ios":"levelo://app?vid=bf2a2525-125a-439a-8fbe-bbf009ac3492"},"vehicle_type_id":"4","last_reported":1716372473,"current_range_meters":15200,"station_id":"ce4bgup2rcd13ifvqco0","pricing_plan_id":"cebpf4jnsgd1na2vs0mg"},{"bike_id":"2b67d847-9a7a-490c-9ebd-c5a496cf445f","system_id":"levelo_inurba_marseille","lat":43.309589,"lon":5.390258,"is_reserved":false,"is_disabled":false,"rental_uris":{"android":"levelo://app?vid=2b67d847-9a7a-490c-9ebd-c5a496cf445f","ios":"levelo://app?vid=2b67d847-9a7a-490c-9ebd-c5a496cf445f"},"vehicle_type_id":"4","last_reported":1716372473,"current_range_meters":18400,"station_id":"ce4bgup2rcd13ifvqco0","pricing_plan_id":"cebpf4jnsgd1na2vs0mg"},{"bike_id":"0d0d61b3-c844-41d3-a5e9-84acaff374f1","system_id":"levelo_inurba_marseille","lat":43.309589,"lon":5.390258,"is_reserved":false,"is_disabled":false,"rental_uris":{"android":"levelo://app?vid=0d0d61b3-c844-41d3-a5e9-84acaff374f1","ios":"levelo://app?vid=0d0d61b3-c844-41d3-a5e9-84acaff374f1"},"vehicle_type_id":"4","last_reported":1716372473,"current_range_meters":22800,"station_id":"ce4bgup2rcd13ifvqco0","pricing_plan_id":"cebpf4jnsgd1na2vs0mg"},{"bike_id":"8f168aa2-4949-4667-bc63-8a2fc2096419","system_id":"levelo_inurba_marseille","lat":43.309589,"lon":5.390258,"is_reserved":false,"is_disabled":false,"rental_uris":{"android":"levelo://app?vid=8f168aa2-4949-4667-bc63-8a2fc2096419","ios":"levelo://app?vid=8f168aa2-4949-4667-bc63-8a2fc2096419"},"vehicle_type_id":"4","last_reported":1716372473,"current_range_meters":26400,"station_id":"ce4bgup2rcd13ifvqco0","pricing_plan_id":"cebpf4jnsgd1na2vs0mg"},{"bike_id":"39571b6e-09ec-4a26-baea-3f357091eeb2","system_id":"levelo_inurba_marseille","lat":43.309589,"lon":5.390258,"is_reserved":false,"is_disabled":false,"rental_uris":{"android":"levelo://app?vid=39571b6e-09ec-4a26-baea-3f357091eeb2","ios":"levelo://app?vid=39571b6e-09ec-4a26-baea-3f357091eeb2"},"vehicle_type_id":"4","last_reported":1716372473,"current_range_meters":18400,"station_id":"ce4bgup2rcd13ifvqco0","pricing_plan_id":"cebpf4jnsgd1na2vs0mg"},{"bike_id":"df54bf07-0345-462d-bf7a-db8c78cd3c86","system_id":"levelo_inurba_marseille","lat":43.309589,"lon":5.390258,"is_reserved":false,"is_disabled":false,"rental_uris":{"android":"levelo://app?vid=df54bf07-0345-462d-bf7a-db8c78cd3c86","ios":"levelo://app?vid=df54bf07-0345-462d-bf7a-db8c78cd3c86"},"vehicle_type_id":"4","last_reported":1716372473,"current_range_meters":26800,"station_id":"ce4bgup2rcd13ifvqco0","pricing_plan_id":"cebpf4jnsgd1na2vs0mg"},{"bike_id":"911996f3-c94f-40e9-9b81-1b4d997e3946","system_id":"levelo_inurba_marseille","lat":43.309589,"lon":5.390258,"is_reserved":false,"is_disabled":false,"rental_uris":{"android":"levelo://app?vid=911996f3-c94f-40e9-9b81-1b4d997e3946","ios":"levelo://app?vid=911996f3-c94f-40e9-9b81-1b4d997e3946"},"vehicle_type_id":"4","last_reported":1716372473,"current_range_meters":14400,"station_id":"ce4bgup2rcd13ifvqco0","pricing_plan_id":"cebpf4jnsgd1na2vs0mg"},{"bike_id":"ddae5bec-914d-45ca-9098-75de24688417","system_id":"levelo_inurba_marseille","lat":43.309589,"lon":5.390258,"is_reserved":false,"is_disabled":false,"rental_uris":{"android":"levelo://app?vid=ddae5bec-914d-45ca-9098-75de24688417","ios":"levelo://app?vid=ddae5bec-914d-45ca-9098-75de24688417"},"vehicle_type_id":"4","last_reported":1716372473,"current_range_meters":18000,"station_id":"ce4bgup2rcd13ifvqco0","pricing_plan_id":"cebpf4jnsgd1na2vs0mg"},{"bike_id":"8ec6aa53-589a-4fbf-ba79-ecc0c7065c72","system_id":"levelo_inurba_marseille","lat":43.309589,"lon":5.390258,"is_reserved":false,"is_disabled":false,"rental_uris":{"android":"levelo://app?vid=8ec6aa53-589a-4fbf-ba79-ecc0c7065c72","ios":"levelo://app?vid=8ec6aa53-589a-4fbf-ba79-ecc0c7065c72"},"vehicle_type_id":"4","last_reported":1716372473,"current_range_meters":22000,"station_id":"ce4bgup2rcd13ifvqco0","pricing_plan_id":"cebpf4jnsgd1na2vs0mg"},{"bike_id":"65f56551-d7f6-4f23-887e-f08bd72f559e","system_id":"levelo_inurba_marseille","lat":43.317557,"lon":5.390173,"is_reserved":false,"is_disabled":false,"rental_uris":{"android":"levelo://app?vid=65f56551-d7f6-4f23-887e-f08bd72f559e","ios":"levelo://app?vid=65f56551-d7f6-4f23-887e-f08bd72f559e"},"vehicle_type_id":"4","last_reported":1716372473,"current_range_meters":10400,"station_id":"ce4bhqp2rcd13ifvqhng","pricing_plan_id":"cebpf4jnsgd1na2vs0mg"},{"bike_id":"f6b706d0-ed90-4cbe-9331-459116b70a7f","system_id":"levelo_inurba_marseille","lat":43.317557,"lon":5.390173,"is_reserved":false,"is_disabled":false,"rental_uris":{"android":"levelo://app?vid=f6b706d0-ed90-4cbe-9331-459116b70a7f","ios":"levelo://app?vid=f6b706d0-ed90-4cbe-9331-459116b70a7f"},"vehicle_type_id":"4","last_reported":1716372473,"current_range_meters":21600,"station_id":"ce4bhqp2rcd13ifvqhng","pricing_plan_id":"cebpf4jnsgd1na2vs0mg"},{"bike_id":"d6050203-3534-4945-87cd-61f4421b8f82","system_id":"levelo_inurba_marseille","lat":43.317557,"lon":5.390173,"is_reserved":false,"is_disabled":false,"rental_uris":{"android":"levelo://app?vid=d6050203-3534-4945-87cd-61f4421b8f82","ios":"levelo://app?vid=d6050203-3534-4945-87cd-61f4421b8f82"},"vehicle_type_id":"4","last_reported":1716372473,"current_range_meters":26400,"station_id":"ce4bhqp2rcd13ifvqhng","pricing_plan_id":"cebpf4jnsgd1na2vs0mg"},{"bike_id":"1fea0efc-f54a-4d56-9f1f-4b64ac22e5d3","system_id":"levelo_inurba_marseille","lat":43.317557,"lon":5.390173,"is_reserved":false,"is_disabled":false,"rental_uris":{"android":"levelo://app?vid=1fea0efc-f54a-4d56-9f1f-4b64ac22e5d3","ios":"levelo://app?vid=1fea0efc-f54a-4d56-9f1f-4b64ac22e5d3"},"vehicle_type_id":"4","last_reported":1716372473,"current_range_meters":29200,"station_id":"ce4bhqp2rcd13ifvqhng","pricing_plan_id":"cebpf4jnsgd1na2vs0mg"},{"bike_id":"72e424ab-563d-44ae-8501-a092ed558a04","system_id":"levelo_inurba_marseille","lat":43.317557,"lon":5.390173,"is_reserved":false,"is_disabled":false,"rental_uris":{"android":"levelo://app?vid=72e424ab-563d-44ae-8501-a092ed558a04","ios":"levelo://app?vid=72e424ab-563d-44ae-8501-a092ed558a04"},"vehicle_type_id":"4","last_reported":1716372473,"current_range_meters":29200,"station_id":"ce4bhqp2rcd13ifvqhng","pricing_plan_id":"cebpf4jnsgd1na2vs0mg"},{"bike_id":"50aff1eb-e189-4b4e-8f37-8c7292be1587","system_id":"levelo_inurba_marseille","lat":43.317557,"lon":5.390173,"is_reserved":false,"is_disabled":false,"rental_uris":{"android":"levelo://app?vid=50aff1eb-e189-4b4e-8f37-8c7292be1587","ios":"levelo://app?vid=50aff1eb-e189-4b4e-8f37-8c7292be1587"},"vehicle_type_id":"4","last_reported":1716372473,"current_range_meters":30400,"station_id":"ce4bhqp2rcd13ifvqhng","pricing_plan_id":"cebpf4jnsgd1na2vs0mg"},{"bike_id":"3b052f81-c77d-419d-ad84-83831bb925e8","system_id":"levelo_inurba_marseille","lat":43.317557,"lon":5.390173,"is_reserved":false,"is_disabled":false,"rental_uris":{"android":"levelo://app?vid=3b052f81-c77d-419d-ad84-83831bb925e8","ios":"levelo://app?vid=3b052f81-c77d-419d-ad84-83831bb925e8"},"vehicle_type_id":"4","last_reported":1716372473,"current_range_meters":12000,"station_id":"ce4bhqp2rcd13ifvqhng","pricing_plan_id":"cebpf4jnsgd1na2vs0mg"},{"bike_id":"3922fd02-16f5-4355-89a3-f36acb0e5ba6","system_id":"levelo_inurba_marseille","lat":43.298037,"lon":5.381066,"is_reserved":false,"is_disabled":false,"rental_uris":{"android":"levelo://app?vid=3922fd02-16f5-4355-89a3-f36acb0e5ba6","ios":"levelo://app?vid=3922fd02-16f5-4355-89a3-f36acb0e5ba6"},"vehicle_type_id":"4","last_reported":1716372473,"current_range_meters":17200,"station_id":"ce4bgip2rcd13ifvqbb0","pricing_plan_id":"cebpf4jnsgd1na2vs0mg"},{"bike_id":"5aaa75cb-a52e-4aa0-a36e-ab70756c8d41","system_id":"levelo_inurba_marseille","lat":43.298037,"lon":5.381066,"is_reserved":false,"is_disabled":false,"rental_uris":{"android":"levelo://app?vid=5aaa75cb-a52e-4aa0-a36e-ab70756c8d41","ios":"levelo://app?vid=5aaa75cb-a52e-4aa0-a36e-ab70756c8d41"},"vehicle_type_id":"4","last_reported":1716372473,"current_range_meters":6800,"station_id":"ce4bgip2rcd13ifvqbb0","pricing_plan_id":"cebpf4jnsgd1na2vs0mg"},{"bike_id":"b0987d9e-cb1d-43fc-bc25-0eb333224779","system_id":"levelo_inurba_marseille","lat":43.29569,"lon":5.37517,"is_reserved":false,"is_disabled":false,"rental_uris":{"android":"levelo://app?vid=b0987d9e-cb1d-43fc-bc25-0eb333224779","ios":"levelo://app?vid=b0987d9e-cb1d-43fc-bc25-0eb333224779"},"vehicle_type_id":"4","last_reported":1716372473,"current_range_meters":13200,"station_id":"ce4bgh92rcd13ifvqb50","pricing_plan_id":"cebpf4jnsgd1na2vs0mg"},{"bike_id":"33b7e7f3-af11-4ee8-b697-a82c9a53d3e0","system_id":"levelo_inurba_marseille","lat":43.296263,"lon":5.377094,"is_reserved":false,"is_disabled":false,"rental_uris":{"android":"levelo://app?vid=33b7e7f3-af11-4ee8-b697-a82c9a53d3e0","ios":"levelo://app?vid=33b7e7f3-af11-4ee8-b697-a82c9a53d3e0"},"vehicle_type_id":"4","last_reported":1716372473,"current_range_meters":22000,"station_id":"ce4bgi92rcd13ifvqb90","pricing_plan_id":"cebpf4jnsgd1na2vs0mg"},{"bike_id":"69f70c83-7c08-4039-a624-f6a8a48d7dd5","system_id":"levelo_inurba_marseille","lat":43.297056,"lon":5.3794,"is_reserved":false,"is_disabled":false,"rental_uris":{"android":"levelo://app?vid=69f70c83-7c08-4039-a624-f6a8a48d7dd5","ios":"levelo://app?vid=69f70c83-7c08-4039-a624-f6a8a48d7dd5"},"vehicle_type_id":"4","last_reported":1716372473,"current_range_meters":25600,"station_id":"","pricing_plan_id":"cebpf4jnsgd1na2vs0mg"},{"bike_id":"ecf4559b-5ccb-4e2b-be01-b5edea2728ff","system_id":"levelo_inurba_marseille","lat":43.299707,"lon":5.384859,"is_reserved":false,"is_disabled":false,"rental_uris":{"android":"levelo://app?vid=ecf4559b-5ccb-4e2b-be01-b5edea2728ff","ios":"levelo://app?vid=ecf4559b-5ccb-4e2b-be01-b5edea2728ff"},"vehicle_type_id":"4","last_reported":1716372473,"current_range_meters":7200,"station_id":"ce4bgj92rcd13ifvqbd0","pricing_plan_id":"cebpf4jnsgd1na2vs0mg"},{"bike_id":"dfc13bda-871b-4836-9511-8bdcb5112b26","system_id":"levelo_inurba_marseille","lat":43.299707,"lon":5.384859,"is_reserved":false,"is_disabled":false,"rental_uris":{"android":"levelo://app?vid=dfc13bda-871b-4836-9511-8bdcb5112b26","ios":"levelo://app?vid=dfc13bda-871b-4836-9511-8bdcb5112b26"},"vehicle_type_id":"4","last_reported":1716372473,"current_range_meters":4000,"station_id":"ce4bgj92rcd13ifvqbd0","pricing_plan_id":"cebpf4jnsgd1na2vs0mg"},{"bike_id":"d014cf3e-048b-41f0-8f75-4b7171a47831","system_id":"levelo_inurba_marseille","lat":43.299707,"lon":5.384859,"is_reserved":false,"is_disabled":false,"rental_uris":{"android":"levelo://app?vid=d014cf3e-048b-41f0-8f75-4b7171a47831","ios":"levelo://app?vid=d014cf3e-048b-41f0-8f75-4b7171a47831"},"vehicle_type_id":"4","last_reported":1716372473,"current_range_meters":30800,"station_id":"ce4bgj92rcd13ifvqbd0","pricing_plan_id":"cebpf4jnsgd1na2vs0mg"},{"bike_id":"a293dab1-c973-4947-966a-f423bb8a9ca3","system_id":"levelo_inurba_marseille","lat":43.299707,"lon":5.384859,"is_reserved":false,"is_disabled":false,"rental_uris":{"android":"levelo://app?vid=a293dab1-c973-4947-966a-f423bb8a9ca3","ios":"levelo://app?vid=a293dab1-c973-4947-966a-f423bb8a9ca3"},"vehicle_type_id":"4","last_reported":1716372473,"current_range_meters":16000,"station_id":"ce4bgj92rcd13ifvqbd0","pricing_plan_id":"cebpf4jnsgd1na2vs0mg"},{"bike_id":"5b485da7-5db3-4855-8ba1-7cf0c5d5a9dc","system_id":"levelo_inurba_marseille","lat":43.295279,"lon":5.375048,"is_reserved":false,"is_disabled":false,"rental_uris":{"android":"levelo://app?vid=5b485da7-5db3-4855-8ba1-7cf0c5d5a9dc","ios":"levelo://app?vid=5b485da7-5db3-4855-8ba1-7cf0c5d5a9dc"},"vehicle_type_id":"4","last_reported":1716372473,"current_range_meters":19600,"station_id":"ce4bgkp2rcd13ifvqbmg","pricing_plan_id":"cebpf4jnsgd1na2vs0mg"},{"bike_id":"78252e3e-8eff-4ccb-a142-6526e4cc39f4","system_id":"levelo_inurba_marseille","lat":43.30089,"lon":5.38729,"is_reserved":false,"is_disabled":false,"rental_uris":{"android":"levelo://app?vid=78252e3e-8eff-4ccb-a142-6526e4cc39f4","ios":"levelo://app?vid=78252e3e-8eff-4ccb-a142-6526e4cc39f4"},"vehicle_type_id":"4","last_reported":1716372473,"current_range_meters":12400,"station_id":"","pricing_plan_id":"cebpf4jnsgd1na2vs0mg"},{"bike_id":"455bd087-2875-4e0b-876a-15d31e34b7b0","system_id":"levelo_inurba_marseille","lat":43.299707,"lon":5.384859,"is_reserved":false,"is_disabled":false,"rental_uris":{"android":"levelo://app?vid=455bd087-2875-4e0b-876a-15d31e34b7b0","ios":"levelo://app?vid=455bd087-2875-4e0b-876a-15d31e34b7b0"},"vehicle_type_id":"4","last_reported":1716372473,"current_range_meters":5600,"station_id":"ce4bgj92rcd13ifvqbd0","pricing_plan_id":"cebpf4jnsgd1na2vs0mg"},{"bike_id":"dc000d47-ae94-4cff-afff-57e63a78996c","system_id":"levelo_inurba_marseille","lat":43.30282,"lon":5.38935,"is_reserved":false,"is_disabled":false,"rental_uris":{"android":"levelo://app?vid=dc000d47-ae94-4cff-afff-57e63a78996c","ios":"levelo://app?vid=dc000d47-ae94-4cff-afff-57e63a78996c"},"vehicle_type_id":"4","last_reported":1716372473,"current_range_meters":18000,"station_id":"","pricing_plan_id":"cebpf4jnsgd1na2vs0mg"},{"bike_id":"382bf0bd-afc9-4bb6-94d7-874bdad5c089","system_id":"levelo_inurba_marseille","lat":43.32364,"lon":5.38878,"is_reserved":false,"is_disabled":false,"rental_uris":{"android":"levelo://app?vid=382bf0bd-afc9-4bb6-94d7-874bdad5c089","ios":"levelo://app?vid=382bf0bd-afc9-4bb6-94d7-874bdad5c089"},"vehicle_type_id":"4","last_reported":1716372473,"current_range_meters":800,"station_id":"ce4bhqp2rcd13ifvqhog","pricing_plan_id":"cebpf4jnsgd1na2vs0mg"},{"bike_id":"77b472bf-e85f-45af-9689-0d90f669967e","system_id":"levelo_inurba_marseille","lat":43.32367,"lon":5.38886,"is_reserved":false,"is_disabled":false,"rental_uris":{"android":"levelo://app?vid=77b472bf-e85f-45af-9689-0d90f669967e","ios":"levelo://app?vid=77b472bf-e85f-45af-9689-0d90f669967e"},"vehicle_type_id":"4","last_reported":1716372473,"current_range_meters":24800,"station_id":"ce4bhqp2rcd13ifvqhog","pricing_plan_id":"cebpf4jnsgd1na2vs0mg"},{"bike_id":"44bc996b-c216-44a5-83e4-517cc1a70aa4","system_id":"levelo_inurba_marseille","lat":43.32367,"lon":5.38889,"is_reserved":false,"is_disabled":false,"rental_uris":{"android":"levelo://app?vid=44bc996b-c216-44a5-83e4-517cc1a70aa4","ios":"levelo://app?vid=44bc996b-c216-44a5-83e4-517cc1a70aa4"},"vehicle_type_id":"4","last_reported":1716372473,"current_range_meters":22400,"station_id":"ce4bhqp2rcd13ifvqhog","pricing_plan_id":"cebpf4jnsgd1na2vs0mg"},{"bike_id":"9d87bc41-13bf-48f0-a880-e78a4fd591a4","system_id":"levelo_inurba_marseille","lat":43.32367,"lon":5.388836,"is_reserved":false,"is_disabled":false,"rental_uris":{"android":"levelo://app?vid=9d87bc41-13bf-48f0-a880-e78a4fd591a4","ios":"levelo://app?vid=9d87bc41-13bf-48f0-a880-e78a4fd591a4"},"vehicle_type_id":"4","last_reported":1716372473,"current_range_meters":23200,"station_id":"ce4bhqp2rcd13ifvqhog","pricing_plan_id":"cebpf4jnsgd1na2vs0mg"},{"bike_id":"844bf992-e95b-47a4-9f07-db0cf6c17976","system_id":"levelo_inurba_marseille","lat":43.295796,"lon":5.380578,"is_reserved":false,"is_disabled":false,"rental_uris":{"android":"levelo://app?vid=844bf992-e95b-47a4-9f07-db0cf6c17976","ios":"levelo://app?vid=844bf992-e95b-47a4-9f07-db0cf6c17976"},"vehicle_type_id":"4","last_reported":1716372473,"current_range_meters":10400,"station_id":"ce4bgl12rcd13ifvqbo0","pricing_plan_id":"cebpf4jnsgd1na2vs0mg"},{"bike_id":"02a41fc6-5542-42e9-bbde-3dcd0a99bb03","system_id":"levelo_inurba_marseille","lat":43.29602,"lon":5.381084,"is_reserved":false,"is_disabled":false,"rental_uris":{"android":"levelo://app?vid=02a41fc6-5542-42e9-bbde-3dcd0a99bb03","ios":"levelo://app?vid=02a41fc6-5542-42e9-bbde-3dcd0a99bb03"},"vehicle_type_id":"4","last_reported":1716372473,"current_range_meters":12000,"station_id":"ce4bgl12rcd13ifvqbo0","pricing_plan_id":"cebpf4jnsgd1na2vs0mg"},