{"last_updated":1728738790,"ttl":60,"version":"2.2","data":{"bikes":[{"bike_id":"a90cfefd-ccd4-4d2f-906c-f11429f46878","system_id":"levelo_inurba_marseille","lat":43.30376,"lon":5.3647,"is_reserved":false,"is_disabled":false,"rental_uris":{"android":"levelo://app?vid=a90cfefd-ccd4-4d2f-906c-f11429f46878","ios":"levelo://app?vid=a90cfefd-ccd4-4d2f-906c-f11429f46878"},"vehicle_type_id":"4","last_reported":1728738791,"current_range_meters":4400,"station_id":"","pricing_plan_id":"cebpf4jnsgd1na2vs0mg"},{"bike_id":"a88cc3d5-4214-4799-a463-c01d33dbb23e","system_id":"levelo_inurba_marseille","lat":43.25008,"lon":5.38912,"is_reserved":false,"is_disabled":false,"rental_uris":{"android":"levelo://app?vid=a88cc3d5-4214-4799-a463-c01d33dbb23e","ios":"levelo://app?vid=a88cc3d5-4214-4799-a463-c01d33dbb23e"},"vehicle_type_id":"4","last_reported":1728738791,"current_range_meters":22400,"station_id":"ce4bhgp2rcd13ifvqfd0","pricing_plan_id":"cebpf4jnsgd1na2vs0mg"},{"bike_id":"55272860-12f2-4310-9956-57d656cd236c","system_id":"levelo_inurba_marseille","lat":43.24164,"lon":5.3639,"is_reserved":false,"is_disabled":false,"rental_uris":{"android":"levelo://app?vid=55272860-12f2-4310-9956-57d656cd236c","ios":"levelo://app?vid=55272860-12f2-4310-9956-57d656cd236c"},"vehicle_type_id":"4","last_reported":1728738791,"current_range_meters":2000,"station_id":"cpo36qri1sfpv3e86is0","pricing_plan_id":"cebpf4jnsgd1na2vs0mg"},{"bike_id":"41d25287-4b37-411e-bf32-c50b85920a03","system_id":"levelo_inurba_marseille","lat":43.30521,"lon":5.36691,"is_reserved":false,"is_disabled":false,"rental_uris":{"android":"levelo://app?vid=41d25287-4b37-411e-bf32-c50b85920a03","ios":"levelo://app?vid=41d25287-4b37-411e-bf32-c50b85920a03"},"vehicle_type_id":"4","last_reported":1728738791,"current_range_meters":38800,"station_id":"ce4bgs12rcd13ifvqcag","pricing_plan_id":"cebpf4jnsgd1na2vs0mg"},{"bike_id":"cad7e911-f64c-4462-86d4-3f95e2945c24","system_id":"levelo_inurba_marseille","lat":43.26492,"lon":5.39555,"is_reserved":false,"is_disabled":false,"rental_uris":{"android":"levelo://app?vid=cad7e911-f64c-4462-86d4-3f95e2945c24","ios":"levelo://app?vid=cad7e911-f64c-4462-86d4-3f95e2945c24"},"vehicle_type_id":"4","last_reported":1728738791,"current_range_meters":28000,"station_id":"ce4bhi12rcd13ifvqfq0","pricing_plan_id":"cebpf4jnsgd1na2vs0mg"},{"bike_id":"38eda0d1-5ce6-4010-9d58-af0c4b4806fc","system_id":"levelo_inurba_marseille","lat":43.27172,"lon":5.40995,"is_reserved":false,"is_disabled":false,"rental_uris":{"android":"levelo://app?vid=38eda0d1-5ce6-4010-9d58-af0c4b4806fc","ios":"levelo://app?vid=38eda0d1-5ce6-4010-9d58-af0c4b4806fc"},"vehicle_type_id":"4","last_reported":1728738791,"current_range_meters":38800,"station_id":"ce4bhl12rcd13ifvqgf0","pricing_plan_id":"cebpf4jnsgd1na2vs0mg"},{"bike_id":"a454b5b5-be05-4908-a3b4-b7ae4d25d31c","system_id":"levelo_inurba_marseille","lat":43.2756,"lon":5.38411,"is_reserved":false,"is_disabled":false,"rental_uris":{"android":"levelo://app?vid=a454b5b5-be05-4908-a3b4-b7ae4d25d31c","ios":"levelo://app?vid=a454b5b5-be05-4908-a3b4-b7ae4d25d31c"},"vehicle_type_id":"4","last_reported":1728738791,"current_range_meters":800,"station_id":"ce4bhh92rcd13ifvqfi0","pricing_plan_id":"cebpf4jnsgd1na2vs0mg"},{"bike_id":"b1734afa-3fdc-4c9e-a758-3cfed06a0567","system_id":"levelo_inurba_marseille","lat":43.28467,"lon":5.38556,"is_reserved":false,"is_disabled":false,"rental_uris":{"android":"levelo://app?vid=b1734afa-3fdc-4c9e-a758-3cfed06a0567","ios":"levelo://app?vid=b1734afa-3fdc-4c9e-a758-3cfed06a0567"},"vehicle_type_id":"4","last_reported":1728738791,"current_range_meters":38000,"station_id":"ce4bh8p2rcd13ifvqeb0","pricing_plan_id":"cebpf4jnsgd1na2vs0mg"},{"bike_id":"51dd5005-a195-4642-bd5f-8cbea71cb3b3","system_id":"levelo_inurba_marseille","lat":43.22929,"lon":5.35376,"is_reserved":false,"is_disabled":false,"rental_uris":{"android":"levelo://app?vid=51dd5005-a195-4642-bd5f-8cbea71cb3b3","ios":"levelo://app?vid=51dd5005-a195-4642-bd5f-8cbea71cb3b3"},"vehicle_type_id":"4","last_reported":1728738791,"current_range_meters":36400,"station_id":"cpo3532slgdg3j2ikp40","pricing_plan_id":"cebpf4jnsgd1na2vs0mg"},{"bike_id":"0a26d300-a352-4da5-b387-be8d90f859a7","system_id":"levelo_inurba_marseille","lat":43.30598,"lon":5.37211,"is_reserved":false,"is_disabled":false,"rental_uris":{"android":"levelo://app?vid=0a26d300-a352-4da5-b387-be8d90f859a7","ios":"levelo://app?vid=0a26d300-a352-4da5-b387-be8d90f859a7"},"vehicle_type_id":"4","last_reported":1728738791,"current_range_meters":9600,"station_id":"ce4bgqh2rcd13ifvqc4g","pricing_plan_id":"cebpf4jnsgd1na2vs0mg"},{"bike_id":"593c355d-b955-4a97-9ed8-d02901527bce","system_id":"levelo_inurba_marseille","lat":43.27322,"lon":5.39069,"is_reserved":false,"is_disabled":false,"rental_uris":{"android":"levelo://app?vid=593c355d-b955-4a97-9ed8-d02901527bce","ios":"levelo://app?vid=593c355d-b955-4a97-9ed8-d02901527bce"},"vehicle_type_id":"4","last_reported":1728738791,"current_range_meters":16800,"station_id":"ce4bhgp2rcd13ifvqfe0","pricing_plan_id":"cebpf4jnsgd1na2vs0mg"},{"bike_id":"5420eae6-4132-47a9-a773-34ac971138c3","system_id":"levelo_inurba_marseille","lat":43.32113,"lon":5.36777,"is_reserved":false,"is_disabled":false,"rental_uris":{"android":"levelo://app?vid=5420eae6-4132-47a9-a773-34ac971138c3","ios":"levelo://app?vid=5420eae6-4132-47a9-a773-34ac971138c3"},"vehicle_type_id":"4","last_reported":1728738791,"current_range_meters":2000,"station_id":"ce4bhrh2rcd13ifvqhug","pricing_plan_id":"cebpf4jnsgd1na2vs0mg"},{"bike_id":"683e3e26-2253-42a1-9371-b110cdd0be8f","system_id":"levelo_inurba_marseille","lat":43.29623,"lon":5.37148,"is_reserved":false,"is_disabled":false,"rental_uris":{"android":"levelo://app?vid=683e3e26-2253-42a1-9371-b110cdd0be8f","ios":"levelo://app?vid=683e3e26-2253-42a1-9371-b110cdd0be8f"},"vehicle_type_id":"4","last_reported":1728738791,"current_range_meters":9600,"station_id":"ce4bgnh2rcd13ifvqc0g","pricing_plan_id":"cebpf4jnsgd1na2vs0mg"},{"bike_id":"b474cc28-429d-4bf6-a453-cfd8e447da8a","system_id":"levelo_inurba_marseille","lat":43.33728,"lon":5.39172,"is_reserved":false,"is_disabled":false,"rental_uris":{"android":"levelo://app?vid=b474cc28-429d-4bf6-a453-cfd8e447da8a","ios":"levelo://app?vid=b474cc28-429d-4bf6-a453-cfd8e447da8a"},"vehicle_type_id":"4","last_reported":1728738791,"current_range_meters":36800,"station_id":"ce4bhr92rcd13ifvqhsg","pricing_plan_id":"cebpf4jnsgd1na2vs0mg"},{"bike_id":"4f1ac9db-36fd-4126-b3cc-b859636a6a29","system_id":"levelo_inurba_marseille","lat":43.22929,"lon":5.35377,"is_reserved":false,"is_disabled":false,"rental_uris":{"android":"levelo://app?vid=4f1ac9db-36fd-4126-b3cc-b859636a6a29","ios":"levelo://app?vid=4f1ac9db-36fd-4126-b3cc-b859636a6a29"},"vehicle_type_id":"4","last_reported":1728738791,"current_range_meters":37600,"station_id":"cpo3532slgdg3j2ikp40","pricing_plan_id":"cebpf4jnsgd1na2vs0mg"},{"bike_id":"a45475cd-aa4f-4963-af06-9a3043ddfae5","system_id":"levelo_inurba_marseille","lat":43.29254,"lon":5.40906,"is_reserved":false,"is_disabled":false,"rental_uris":{"android":"levelo://app?vid=a45475cd-aa4f-4963-af06-9a3043ddfae5","ios":"levelo://app?vid=a45475cd-aa4f-4963-af06-9a3043ddfae5"},"vehicle_type_id":"4","last_reported":1728738791,"current_range_meters":36800,"station_id":"ce4bh192rcd13ifvqdc0","pricing_plan_id":"cebpf4jnsgd1na2vs0mg"},{"bike_id":"76a7aa55-6b43-4db3-be1d-f34667277aab","system_id":"levelo_inurba_marseille","lat":43.3199,"lon":5.38148,"is_reserved":false,"is_disabled":false,"rental_uris":{"android":"levelo://app?vid=76a7aa55-6b43-4db3-be1d-f34667277aab","ios":"levelo://app?vid=76a7aa55-6b43-4db3-be1d-f34667277aab"},"vehicle_type_id":"4","last_reported":1728738791,"current_range_meters":24800,"station_id":"ce4bhr12rcd13ifvqhpg","pricing_plan_id":"cebpf4jnsgd1na2vs0mg"},{"bike_id":"7076e8c3-7362-494a-b6b6-fc4cf7042710","system_id":"levelo_inurba_marseille","lat":43.27954,"lon":5.39944,"is_reserved":false,"is_disabled":false,"rental_uris":{"android":"levelo://app?vid=7076e8c3-7362-494a-b6b6-fc4cf7042710","ios":"levelo://app?vid=7076e8c3-7362-494a-b6b6-fc4cf7042710"},"vehicle_type_id":"4","last_reported":1728738791,"current_range_meters":30400,"station_id":"ce4bgjh2rcd13ifvqbf0","pricing_plan_id":"cebpf4jnsgd1na2vs0mg"},{"bike_id":"5478a3d2-c2ee-4a89-aa83-e762ee9240f8","system_id":"levelo_inurba_marseille","lat":43.26944,"lon":5.40244,"is_reserved":false,"is_disabled":false,"rental_uris":{"android":"levelo://app?vid=5478a3d2-c2ee-4a89-aa83-e762ee9240f8","ios":"levelo://app?vid=5478a3d2-c2ee-4a89-aa83-e762ee9240f8"},"vehicle_type_id":"4","last_reported":1728738791,"current_range_meters":32800,"station_id":"cjm6bp8fraef2m0cb0m0","pricing_plan_id":"cebpf4jnsgd1na2vs0mg"},{"bike_id":"af965d61-9088-4807-915b-ea32923e4324","system_id":"levelo_inurba_marseille","lat":43.29719,"lon":5.377,"is_reserved":false,"is_disabled":false,"rental_uris":{"android":"levelo://app?vid=af965d61-9088-4807-915b-ea32923e4324","ios":"levelo://app?vid=af965d61-9088-4807-915b-ea32923e4324"},"vehicle_type_id":"4","last_reported":1728738791,"current_range_meters":38000,"station_id":"ce4bgkh2rcd13ifvqbl0","pricing_plan_id":"cebpf4jnsgd1na2vs0mg"},{"bike_id":"4949921b-1e1c-4e83-86e3-dbc9a805602c","system_id":"levelo_inurba_marseille","lat":43.23195,"lon":5.35558,"is_reserved":false,"is_disabled":false,"rental_uris":{"android":"levelo://app?vid=4949921b-1e1c-4e83-86e3-dbc9a805602c","ios":"levelo://app?vid=4949921b-1e1c-4e83-86e3-dbc9a805602c"},"vehicle_type_id":"4","last_reported":1728738791,"current_range_meters":11600,"station_id":"ce4bhu92rcd13ifvqi70","pricing_plan_id":"cebpf4jnsgd1na2vs0mg"},{"bike_id":"d522a82d-5638-4ca1-910b-2d42b991ee72","system_id":"levelo_inurba_marseille","lat":43.30138,"lon":5.37422,"is_reserved":false,"is_disabled":false,"rental_uris":{"android":"levelo://app?vid=d522a82d-5638-4ca1-910b-2d42b991ee72","ios":"levelo://app?vid=d522a82d-5638-4ca1-910b-2d42b991ee72"},"vehicle_type_id":"4","last_reported":1728738791,"current_range_meters":38800,"station_id":"ce4bgs92rcd13ifvqcc0","pricing_plan_id":"cebpf4jnsgd1na2vs0mg"},{"bike_id":"c5c33660-077d-4f97-b2f0-40691ac09116","system_id":"levelo_inurba_marseille","lat":43.24392,"lon":5.37058,"is_reserved":false,"is_disabled":false,"rental_uris":{"android":"levelo://app?vid=c5c33660-077d-4f97-b2f0-40691ac09116","ios":"levelo://app?vid=c5c33660-077d-4f97-b2f0-40691ac09116"},"vehicle_type_id":"4","last_reported":1728738791,"current_range_meters":37600,"station_id":"ce4bhhh2rcd13ifvqfk0","pricing_plan_id":"cebpf4jnsgd1na2vs0mg"},{"bike_id":"931d1f9c-4cb2-40a2-a856-914a1c55fcf3","system_id":"levelo_inurba_marseille","lat":43.24565,"lon":5.41659,"is_reserved":false,"is_disabled":false,"rental_uris":{"android":"levelo://app?vid=931d1f9c-4cb2-40a2-a856-914a1c55fcf3","ios":"levelo://app?vid=931d1f9c-4cb2-40a2-a856-914a1c55fcf3"},"vehicle_type_id":"4","last_reported":1728738791,"current_range_meters":11600,"station_id":"","pricing_plan_id":"cebpf4jnsgd1na2vs0mg"},{"bike_id":"5a86c784-356a-4dc3-ab27-bbea9ceaf281","system_id":"levelo_inurba_marseille","lat":43.28473,"lon":5.38542,"is_reserved":false,"is_disabled":false,"rental_uris":{"android":"levelo://app?vid=5a86c784-356a-4dc3-ab27-bbea9ceaf281","ios":"levelo://app?vid=5a86c784-356a-4dc3-ab27-bbea9ceaf281"},"vehicle_type_id":"4","last_reported":1728738791,"current_range_meters":10000,"station_id":"ce4bh8p2rcd13ifvqeb0","pricing_plan_id":"cebpf4jnsgd1na2vs0mg"},{"bike_id":"6c03e1b4-de58-4fe9-8bd4-63bfebb0cee7","system_id":"levelo_inurba_marseille","lat":43.24178,"lon":5.39726,"is_reserved":false,"is_disabled":false,"rental_uris":{"android":"levelo://app?vid=6c03e1b4-de58-4fe9-8bd4-63bfebb0cee7","ios":"levelo://app?vid=6c03e1b4-de58-4fe9-8bd4-63bfebb0cee7"},"vehicle_type_id":"4","last_reported":1728738791,"current_range_meters":8800,"station_id":"ce4bhn12rcd13ifvqgpg","pricing_plan_id":"cebpf4jnsgd1na2vs0mg"},{"bike_id":"3e60b11f-d675-430d-9979-c4e64a7c6c68","system_id":"levelo_inurba_marseille","lat":43.29627,"lon":5.37155,"is_reserved":false,"is_disabled":false,"rental_uris":{"android":"levelo://app?vid=3e60b11f-d675-430d-9979-c4e64a7c6c68","ios":"levelo://app?vid=3e60b11f-d675-430d-9979-c4e64a7c6c68"},"vehicle_type_id":"4","last_reported":1728738791,"current_range_meters":25600,"station_id":"ce4bgnh2rcd13ifvqc0g","pricing_plan_id":"cebpf4jnsgd1na2vs0mg"},{"bike_id":"f3fd7e8d-fb76-488d-adcc-262a5d30ad02","system_id":"levelo_inurba_marseille","lat":43.29576,"lon":5.37524,"is_reserved":false,"is_disabled":false,"rental_uris":{"android":"levelo://app?vid=f3fd7e8d-fb76-488d-adcc-262a5d30ad02","ios":"levelo://app?vid=f3fd7e8d-fb76-488d-adcc-262a5d30ad02"},"vehicle_type_id":"4","last_reported":1728738791,"current_range_meters":32800,"station_id":"ce4bgh92rcd13ifvqb50","pricing_plan_id":"cebpf4jnsgd1na2vs0mg"},{"bike_id":"5a0daead-4b27-4455-ab06-a7ed457983e1","system_id":"levelo_inurba_marseille","lat":43.28104,"lon":5.37845,"is_reserved":false,"is_disabled":false,"rental_uris":{"android":"levelo://app?vid=5a0daead-4b27-4455-ab06-a7ed457983e1","ios":"levelo://app?vid=5a0daead-4b27-4455-ab06-a7ed457983e1"},"vehicle_type_id":"4","last_reported":1728738791,"current_range_meters":22400,"station_id":"ce4bha12rcd13ifvqee0","pricing_plan_id":"cebpf4jnsgd1na2vs0mg"},{"bike_id":"d4c646fb-3b4a-44c5-a8b6-123075b6f0f7","system_id":"levelo_inurba_marseille","lat":43.27562,"lon":5.38396,"is_reserved":false,"is_disabled":false,"rental_uris":{"android":"levelo://app?vid=d4c646fb-3b4a-44c5-a8b6-123075b6f0f7","ios":"levelo://app?vid=d4c646fb-3b4a-44c5-a8b6-123075b6f0f7"},"vehicle_type_id":"4","last_reported":1728738791,"current_range_meters":2000,"station_id":"ce4bhh92rcd13ifvqfi0","pricing_plan_id":"cebpf4jnsgd1na2vs0mg"},{"bike_id":"16451e5d-97d1-468f-b8f8-9f1bdd7b01c1","system_id":"levelo_inurba_marseille","lat":43.2985,"lon":5.36285,"is_reserved":false,"is_disabled":false,"rental_uris":{"android":"levelo://app?vid=16451e5d-97d1-468f-b8f8-9f1bdd7b01c1","ios":"levelo://app?vid=16451e5d-97d1-468f-b8f8-9f1bdd7b01c1"},"vehicle_type_id":"4","last_reported":1728738791,"current_range_meters":39200,"station_id":"ce4bgpp2rcd13ifvqc3g","pricing_plan_id":"cebpf4jnsgd1na2vs0mg"},{"bike_id":"67e2ca0d-f496-4249-8796-e3a4468d15ed","system_id":"levelo_inurba_marseille","lat":43.32324,"lon":5.40606,"is_reserved":false,"is_disabled":false,"rental_uris":{"android":"levelo://app?vid=67e2ca0d-f496-4249-8796-e3a4468d15ed","ios":"levelo://app?vid=67e2ca0d-f496-4249-8796-e3a4468d15ed"},"vehicle_type_id":"4","last_reported":1728738791,"current_range_meters":26800,"station_id":"ce4bhq92rcd13ifvqhjg","pricing_plan_id":"cebpf4jnsgd1na2vs0mg"},{"bike_id":"631afeb3-ff24-4869-b570-0bf0c9ce47b0","system_id":"levelo_inurba_marseille","lat":43.31658,"lon":5.38946,"is_reserved":false,"is_disabled":false,"rental_uris":{"android":"levelo://app?vid=631afeb3-ff24-4869-b570-0bf0c9ce47b0","ios":"levelo://app?vid=631afeb3-ff24-4869-b570-0bf0c9ce47b0"},"vehicle_type_id":"4","last_reported":1728738791,"current_range_meters":18000,"station_id":"","pricing_plan_id":"cebpf4jnsgd1na2vs0mg"},{"bike_id":"a343ef2a-9dab-4dfa-aae7-81033db70aac","system_id":"levelo_inurba_marseille","lat":43.23183,"lon":5.39983,"is_reserved":false,"is_disabled":false,"rental_uris":{"android":"levelo://app?vid=a343ef2a-9dab-4dfa-aae7-81033db70aac","ios":"levelo://app?vid=a343ef2a-9dab-4dfa-aae7-81033db70aac"},"vehicle_type_id":"4","last_reported":1728738791,"current_range_meters":16000,"station_id":"ce4bhn12rcd13ifvqgqg","pricing_plan_id":"cebpf4jnsgd1na2vs0mg"},{"bike_id":"49c41bb9-fcb9-4cba-a2b2-c49e201e8795","system_id":"levelo_inurba_marseille","lat":43.29612,"lon":5.3772,"is_reserved":false,"is_disabled":false,"rental_uris":{"android":"levelo://app?vid=49c41bb9-fcb9-4cba-a2b2-c49e201e8795","ios":"levelo://app?vid=49c41bb9-fcb9-4cba-a2b2-c49e201e8795"},"vehicle_type_id":"4","last_reported":1728738791,"current_range_meters":8000,"station_id":"ce4bgi92rcd13ifvqb90","pricing_plan_id":"cebpf4jnsgd1na2vs0mg"},{"bike_id":"d9adbd03-1c6e-41d0-a8a4-df7672214af1","system_id":"levelo_inurba_marseille","lat":43.24385,"lon":5.37059,"is_reserved":false,"is_disabled":false,"rental_uris":{"android":"levelo://app?vid=d9adbd03-1c6e-41d0-a8a4-df7672214af1","ios":"levelo://app?vid=d9adbd03-1c6e-41d0-a8a4-df7672214af1"},"vehicle_type_id":"4","last_reported":1728738791,"current_range_meters":1200,"station_id":"ce4bhhh2rcd13ifvqfk0","pricing_plan_id":"cebpf4jnsgd1na2vs0mg"},{"bike_id":"dd6cfad1-89a3-4374-8c56-1d91e357d47f","system_id":"levelo_inurba_marseille","lat":43.27321,"lon":5.39085,"is_reserved":false,"is_disabled":false,"rental_uris":{"android":"levelo://app?vid=dd6cfad1-89a3-4374-8c56-1d91e357d47f","ios":"levelo://app?vid=dd6cfad1-89a3-4374-8c56-1d91e357d47f"},"vehicle_type_id":"4","last_reported":1728738791,"current_range_meters":36400,"station_id":"ce4bhgp2rcd13ifvqfe0","pricing_plan_id":"cebpf4jnsgd1na2vs0mg"},{"bike_id":"d8d592ab-70ce-4c1c-8768-c6cb80d85111","system_id":"levelo_inurba_marseille","lat":43.29614,"lon":5.37743,"is_reserved":false,"is_disabled":false,"rental_uris":{"android":"levelo://app?vid=d8d592ab-70ce-4c1c-8768-c6cb80d85111","ios":"levelo://app?vid=d8d592ab-70ce-4c1c-8768-c6cb80d85111"},"vehicle_type_id":"4","last_reported":1728738791,"current_range_meters":32000,"station_id":"ce4bgi92rcd13ifvqb90","pricing_plan_id":"cebpf4jnsgd1na2vs0mg"},{"bike_id":"b9b408ea-4a19-426a-bb92-4c6271c77bd9","system_id":"levelo_inurba_marseille","lat":43.30297,"lon":5.39208,"is_reserved":false,"is_disabled":false,"rental_uris":{"android":"levelo://app?vid=b9b408ea-4a19-426a-bb92-4c6271c77bd9","ios":"levelo://app?vid=b9b408ea-4a19-426a-bb92-4c6271c77bd9"},"vehicle_type_id":"4","last_reported":1728738791,"current_range_meters":29600,"station_id":"ce4bgkh2rcd13ifvqbk0","pricing_plan_id":"cebpf4jnsgd1na2vs0mg"},{"bike_id":"04e8a7e5-910c-4fbf-8629-ede43a0c3bb8","system_id":"levelo_inurba_marseille","lat":43.26784,"lon":5.39417,"is_reserved":false,"is_disabled":false,"rental_uris":{"android":"levelo://app?vid=04e8a7e5-910c-4fbf-8629-ede43a0c3bb8","ios":"levelo://app?vid=04e8a7e5-910c-4fbf-8629-ede43a0c3bb8"},"vehicle_type_id":"4","last_reported":1728738791,"current_range_meters":38000,"station_id":"ce4bhh12rcd13ifvqfg0","pricing_plan_id":"cebpf4jnsgd1na2vs0mg"},{"bike_id":"9068dbe5-1c10-4b3a-996d-a4057b8950c1","system_id":"levelo_inurba_marseille","lat":43.29615,"lon":5.37725,"is_reserved":false,"is_disabled":false,"rental_uris":{"android":"levelo://app?vid=9068dbe5-1c10-4b3a-996d-a4057b8950c1","ios":"levelo://app?vid=9068dbe5-1c10-4b3a-996d-a4057b8950c1"},"vehicle_type_id":"4","last_reported":1728738791,"current_range_meters":12800,"station_id":"ce4bgi92rcd13ifvqb90","pricing_plan_id":"cebpf4jnsgd1na2vs0mg"},{"bike_id":"851d29bb-dfef-4b3b-b9e6-d79f9e5b9fc1","system_id":"levelo_inurba_marseille","lat":43.25583,"lon":5.38228,"is_reserved":false,"is_disabled":false,"rental_uris":{"android":"levelo://app?vid=851d29bb-dfef-4b3b-b9e6-d79f9e5b9fc1","ios":"levelo://app?vid=851d29bb-dfef-4b3b-b9e6-d79f9e5b9fc1"},"vehicle_type_id":"4","last_reported":1728738791,"current_range_meters":38000,"station_id":"ce4bhih2rcd13ifvqfs0","pricing_plan_id":"cebpf4jnsgd1na2vs0mg"},{"bike_id":"3b195a7e-0527-4252-be9b-2801c7504f35","system_id":"levelo_inurba_marseille","lat":43.29025,"lon":5.38126,"is_reserved":false,"is_disabled":false,"rental_uris":{"android":"levelo://app?vid=3b195a7e-0527-4252-be9b-2801c7504f35","ios":"levelo://app?vid=3b195a7e-0527-4252-be9b-2801c7504f35"},"vehicle_type_id":"4","last_reported":1728738791,"current_range_meters":16400,"station_id":"ce4bh4p2rcd13ifvqe1g","pricing_plan_id":"cebpf4jnsgd1na2vs0mg"},{"bike_id":"902efc74-15ea-40be-860a-1090b35ccdce","system_id":"levelo_inurba_marseille","lat":43.306035,"lon":5.372059,"is_reserved":false,"is_disabled":false,"rental_uris":{"android":"levelo://app?vid=902efc74-15ea-40be-860a-1090b35ccdce","ios":"levelo://app?vid=902efc74-15ea-40be-860a-1090b35ccdce"},"vehicle_type_id":"4","last_reported":1728738791,"current_range_meters":32400,"station_id":"ce4bgqh2rcd13ifvqc4g","pricing_plan_id":"cebpf4jnsgd1na2vs0mg"},{"bike_id":"35eb4c1c-05f0-4eb0-8f1c-9272d14abf2f","system_id":"levelo_inurba_marseille","lat":43.305402,"lon":5.365313,"is_reserved":false,"is_disabled":false,"rental_uris":{"android":"levelo://app?vid=35eb4c1c-05f0-4eb0-8f1c-9272d14abf2f","ios":"levelo://app?vid=35eb4c1c-05f0-4eb0-8f1c-9272d14abf2f"},"vehicle_type_id":"4","last_reported":1728738791,"current_range_meters":28400,"station_id":"ce4bgs12rcd13ifvqcag","pricing_plan_id":"cebpf4jnsgd1na2vs0mg"},{"bike_id":"86851483-6460-4f2a-8d92-b3b47e5c55aa","system_id":"levelo_inurba_marseille","lat":43.23957,"lon":5.36631,"is_reserved":false,"is_disabled":false,"rental_uris":{"android":"levelo://app?vid=86851483-6460-4f2a-8d92-b3b47e5c55aa","ios":"levelo://app?vid=86851483-6460-4f2a-8d92-b3b47e5c55aa"},"vehicle_type_id":"4","last_reported":1728738791,"current_range_meters":38800,"station_id":"ce4bhi12rcd13ifvqfp0","pricing_plan_id":"cebpf4jnsgd1na2vs0mg"},{"bike_id":"b0053ffe-f958-403e-959e-f1927f2b62ca","system_id":"levelo_inurba_marseille","lat":43.30306,"lon":5.39211,"is_reserved":false,"is_disabled":false,"rental_uris":{"android":"levelo://app?vid=b0053ffe-f958-403e-959e-f1927f2b62ca","ios":"levelo://app?vid=b0053ffe-f958-403e-959e-f1927f2b62ca"},"vehicle_type_id":"4","last_reported":1728738791,"current_range_meters":3200,"station_id":"ce4bgkh2rcd13ifvqbk0","pricing_plan_id":"cebpf4jnsgd1na2vs0mg"},{"bike_id":"900d410e-a263-4441-80a1-af67345a66d2","system_id":"levelo_inurba_marseille","lat":43.2439,"lon":5.37066,"is_reserved":false,"is_disabled":false,"rental_uris":{"android":"levelo://app?vid=900d410e-a263-4441-80a1-af67345a66d2","ios":"levelo://app?vid=900d410e-a263-4441-80a1-af67345a66d2"},"vehicle_type_id":"4","last_reported":1728738791,"current_range_meters":24400,"station_id":"ce4bhhh2rcd13ifvqfk0","pricing_plan_id":"cebpf4jnsgd1na2vs0mg"},{"bike_id":"e956184b-e68f-4b8d-9429-1e2e49ed1fe7","system_id":"levelo_inurba_marseille","lat":43.30541,"lon":5.36527,"is_reserved":false,"is_disabled":false,"rental_uris":{"android":"levelo://app?vid=e956184b-e68f-4b8d-9429-1e2e49ed1fe7","ios":"levelo://app?vid=e956184b-e68f-4b8d-9429-1e2e49ed1fe7"},"vehicle_type_id":"4","last_reported":1728738791,"current_range_meters":9600,"station_id":"ce4bgs12rcd13ifvqcag","pricing_plan_id":"cebpf4jnsgd1na2vs0mg"},{"bike_id":"93cf6e6a-b59b-4d63-9a00-c25bf3ea1f05","system_id":"levelo_inurba_marseille","lat":43.29894,"lon":5.43656,"is_reserved":false,"is_disabled":false,"rental_uris":{"android":"levelo://app?vid=93cf6e6a-b59b-4d63-9a00-c25bf3ea1f05","ios":"levelo://app?vid=93cf6e6a-b59b-4d63-9a00-c25bf3ea1f05"},"vehicle_type_id":"4","last_reported":1728738791,"current_range_meters":38800,"station_id":"ce4bhpp2rcd13ifvqhfg","pricing_plan_id":"cebpf4jnsgd1na2vs0mg"},{"bike_id":"2645dd95-f2ac-4d49-a415-fda69686c1c1","system_id":"levelo_inurba_marseille","lat":43.31708,"lon":5.37727,"is_reserved":false,"is_disabled":false,"rental_uris":{"android":"levelo://app?vid=2645dd95-f2ac-4d49-a415-fda69686c1c1","ios":"levelo://app?vid=2645dd95-f2ac-4d49-a415-fda69686c1c1"},"vehicle_type_id":"4","last_reported":1728738791,"current_range_meters":24800,"station_id":"ce4bgth2rcd13ifvqch0","pricing_plan_id":"cebpf4jnsgd1na2vs0mg"},{"bike_id":"98dca0ce-e9cb-4a6a-82ee-19798b468f41","system_id":"levelo_inurba_marseille","lat":43.29026,"lon":5.3755,"is_reserved":false,"is_disabled":false,"rental_uris":{"android":"levelo://app?vid=98dca0ce-e9cb-4a6a-82ee-19798b468f41","ios":"levelo://app?vid=98dca0ce-e9cb-4a6a-82ee-19798b468f41"},"vehicle_type_id":"4","last_reported":1728738791,"current_range_meters":25600,"station_id":"ce4bh692rcd13ifvqe90","pricing_plan_id":"cebpf4jnsgd1na2vs0mg"},{"bike_id":"7376e100-f99c-4994-b111-b71dd69a0542","system_id":"levelo_inurba_marseille","lat":43.24389,"lon":5.37063,"is_reserved":false,"is_disabled":false,"rental_uris":{"android":"levelo://app?vid=7376e100-f99c-4994-b111-b71dd69a0542","ios":"levelo://app?vid=7376e100-f99c-4994-b111-b71dd69a0542"},"vehicle_type_id":"4","last_reported":1728738791,"current_range_meters":20000,"station_id":"ce4bhhh2rcd13ifvqfk0","pricing_plan_id":"cebpf4jnsgd1na2vs0mg"},{"bike_id":"ee3d77b2-c4c3-417a-8170-d8edb7edeab8","system_id":"levelo_inurba_marseille","lat":43.22928,"lon":5.35379,"is_reserved":false,"is_disabled":false,"rental_uris":{"android":"levelo://app?vid=ee3d77b2-c4c3-417a-8170-d8edb7edeab8","ios":"levelo://app?vid=ee3d77b2-c4c3-417a-8170-d8edb7edeab8"},"vehicle_type_id":"4","last_reported":1728738791,"current_range_meters":12400,"station_id":"cpo3532slgdg3j2ikp40","pricing_plan_id":"cebpf4jnsgd1na2vs0mg"},{"bike_id":"46547545-8bae-494b-a5d0-75a4ee39d473","system_id":"levelo_inurba_marseille","lat":43.30148,"lon":5.37417,"is_reserved":false,"is_disabled":false,"rental_uris":{"android":"levelo://app?vid=46547545-8bae-494b-a5d0-75a4ee39d473","ios":"levelo://app?vid=46547545-8bae-494b-a5d0-75a4ee39d473"},"vehicle_type_id":"4","last_reported":1728738791,"current_range_meters":38800,"station_id":"ce4bgs92rcd13ifvqcc0","pricing_plan_id":"cebpf4jnsgd1na2vs0mg"},{"bike_id":"b27220ce-643c-4cda-b1cf-ddebfd37a8aa","system_id":"levelo_inurba_marseille","lat":43.23183,"lon":5.39975,"is_reserved":false,"is_disabled":false,"rental_uris":{"android":"levelo://app?vid=b27220ce-643c-4cda-b1cf-ddebfd37a8aa","ios":"levelo://app?vid=b27220ce-643c-4cda-b1cf-ddebfd37a8aa"},"vehicle_type_id":"4","last_reported":1728738791,"current_range_meters":38800,"station_id":"ce4bhn12rcd13ifvqgqg","pricing_plan_id":"cebpf4jnsgd1na2vs0mg"},{"bike_id":"59337b9f-8c74-4938-b5cf-c56f4c4b2077","system_id":"levelo_inurba_marseille","lat":43.24806,"lon":5.37454,"is_reserved":false,"is_disabled":false,"rental_uris":{"android":"levelo://app?vid=59337b9f-8c74-4938-b5cf-c56f4c4b2077","ios":"levelo://app?vid=59337b9f-8c74-4938-b5cf-c56f4c4b2077"},"vehicle_type_id":"4","last_reported":1728738791,"current_range_meters":22800,"station_id":"ce4bhgh2rcd13ifvqfb0","pricing_plan_id":"cebpf4jnsgd1na2vs0mg"},{"bike_id":"20afb377-c5dc-4dc7-a1c9-49f237323e01","system_id":"levelo_inurba_marseille","lat":43.31116,"lon":5.37781,"is_reserved":false,"is_disabled":false,"rental_uris":{"android":"levelo://app?vid=20afb377-c5dc-4dc7-a1c9-49f237323e01","ios":"levelo://app?vid=20afb377-c5dc-4dc7-a1c9-49f237323e01"},"vehicle_type_id":"4","last_reported":1728738791,"current_range_meters":24400,"station_id":"ce4bgt92rcd13ifvqcg0","pricing_plan_id":"cebpf4jnsgd1na2vs0mg"},{"bike_id":"f11dd3a8-5519-4777-bf19-29f18439bc4d","system_id":"levelo_inurba_marseille","lat":43.24165,"lon":5.36392,"is_reserved":false,"is_disabled":false,"rental_uris":{"android":"levelo://app?vid=f11dd3a8-5519-4777-bf19-29f18439bc4d","ios":"levelo://app?vid=f11dd3a8-5519-4777-bf19-29f18439bc4d"},"vehicle_type_id":"4","last_reported":1728738791,"current_range_meters":31200,"station_id":"cpo36qri1sfpv3e86is0","pricing_plan_id":"cebpf4jnsgd1na2vs0mg"},{"bike_id":"c4a4baf8-e465-4f75-84a3-178cbd57a164","system_id":"levelo_inurba_marseille","lat":43.30943,"lon":5.38627,"is_reserved":false,"is_disabled":false,"rental_uris":{"android":"levelo://app?vid=c4a4baf8-e465-4f75-84a3-178cbd57a164","ios":"levelo://app?vid=c4a4baf8-e465-4f75-84a3-178cbd57a164"},"vehicle_type_id":"4","last_reported":1728738791,"current_range_meters":5600,"station_id":"","pricing_plan_id":"cebpf4jnsgd1na2vs0mg"},{"bike_id":"d6d69a6a-e75c-411a-a2c7-cf3a2055f4ed","system_id":"levelo_inurba_marseille","lat":43.26054,"lon":5.3939,"is_reserved":false,"is_disabled":false,"rental_uris":{"android":"levelo://app?vid=d6d69a6a-e75c-411a-a2c7-cf3a2055f4ed","ios":"levelo://app?vid=d6d69a6a-e75c-411a-a2c7-cf3a2055f4ed"},"vehicle_type_id":"4","last_reported":1728738791,"current_range_meters":10000,"station_id":"ce4bhh92rcd13ifvqfj0","pricing_plan_id":"cebpf4jnsgd1na2vs0mg"},{"bike_id":"5d1080d2-a0c7-4bfb-9ae5-b78c18130ee8","system_id":"levelo_inurba_marseille","lat":43.29164,"lon":5.37155,"is_reserved":false,"is_disabled":false,"rental_uris":{"android":"levelo://app?vid=5d1080d2-a0c7-4bfb-9ae5-b78c18130ee8","ios":"levelo://app?vid=5d1080d2-a0c7-4bfb-9ae5-b78c18130ee8"},"vehicle_type_id":"4","last_reported":1728738791,"current_range_meters":32000,"station_id":"ce4bha92rcd13ifvqeh0","pricing_plan_id":"cebpf4jnsgd1na2vs0mg"},{"bike_id":"aed2777a-4f8a-4d24-802a-93026f052e7d","system_id":"levelo_inurba_marseille","lat":43.25578,"lon":5.38229,"is_reserved":false,"is_disabled":false,"rental_uris":{"android":"levelo://app?vid=aed2777a-4f8a-4d24-802a-93026f052e7d","ios":"levelo://app?vid=aed2777a-4f8a-4d24-802a-93026f052e7d"},"vehicle_type_id":"4","last_reported":1728738791,"current_range_meters":29600,"station_id":"ce4bhih2rcd13ifvqfs0","pricing_plan_id":"cebpf4jnsgd1na2vs0mg"},{"bike_id":"5dbc7dcc-9d48-4fd7-8ea7-69f4e7ca2466","system_id":"levelo_inurba_marseille","lat":43.26551,"lon":5.37286,"is_reserved":false,"is_disabled":false,"rental_uris":{"android":"levelo://app?vid=5dbc7dcc-9d48-4fd7-8ea7-69f4e7ca2466","ios":"levelo://app?vid=5dbc7dcc-9d48-4fd7-8ea7-69f4e7ca2466"},"vehicle_type_id":"4","last_reported":1728738791,"current_range_meters":38800,"station_id":"ce4bhg12rcd13ifvqf70","pricing_plan_id":"cebpf4jnsgd1na2vs0mg"},{"bike_id":"149e83d7-9dcc-4ede-9aee-f1b734bfc952","system_id":"levelo_inurba_marseille","lat":43.22933,"lon":5.35374,"is_reserved":false,"is_disabled":false,"rental_uris":{"android":"levelo://app?vid=149e83d7-9dcc-4ede-9aee-f1b734bfc952","ios":"levelo://app?vid=149e83d7-9dcc-4ede-9aee-f1b734bfc952"},"vehicle_type_id":"4","last_reported":1728738791,"current_range_meters":20000,"station_id":"cpo3532slgdg3j2ikp40","pricing_plan_id":"cebpf4jnsgd1na2vs0mg"},{"bike_id":"caac0ae9-97a5-4abe-bfc2-b67d3e720f3d","system_id":"levelo_inurba_marseille","lat":43.2962,"lon":5.3717,"is_reserved":false,"is_disabled":false,"rental_uris":{"android":"levelo://app?vid=caac0ae9-97a5-4abe-bfc2-b67d3e720f3d","ios":"levelo://app?vid=caac0ae9-97a5-4abe-bfc2-b67d3e720f3d"},"vehicle_type_id":"4","last_reported":1728738791,"current_range_meters":29600,"station_id":"ce4bgnh2rcd13ifvqc0g","pricing_plan_id":"cebpf4jnsgd1na2vs0mg"},{"bike_id":"ca12bb5f-447d-4992-9636-965932f6e919","system_id":"levelo_inurba_marseille","lat":43.3014,"lon":5.37414,"is_reserved":false,"is_disabled":false,"rental_uris":{"android":"levelo://app?vid=ca12bb5f-447d-4992-9636-965932f6e919","ios":"levelo://app?vid=ca12bb5f-447d-4992-9636-965932f6e919"},"vehicle_type_id":"4","last_reported":1728738791,"current_range_meters":24800,"station_id":"ce4bgs92rcd13ifvqcc0","pricing_plan_id":"cebpf4jnsgd1na2vs0mg"},{"bike_id":"7dd42284-e179-4049-899a-e668b4099b9d","system_id":"levelo_inurba_marseille","lat":43.31207,"lon":5.387082,"is_reserved":false,"is_disabled":false,"rental_uris":{"android":"levelo://app?vid=7dd42284-e179-4049-899a-e668b4099b9d","ios":"levelo://app?vid=7dd42284-e179-4049-899a-e668b4099b9d"},"vehicle_type_id":"4","last_reported":1728738791,"current_range_meters":20800,"station_id":"ce4bgv12rcd13ifvqcp0","pricing_plan_id":"cebpf4jnsgd1na2vs0mg"},{"bike_id":"5e2e70bb-50f2-4df4-bca5-6ec65e4e48a1","system_id":"levelo_inurba_marseille","lat":43.29622,"lon":5.37151,"is_reserved":false,"is_disabled":false,"rental_uris":{"android":"levelo://app?vid=5e2e70bb-50f2-4df4-bca5-6ec65e4e48a1","ios":"levelo://app?vid=5e2e70bb-50f2-4df4-bca5-6ec65e4e48a1"},"vehicle_type_id":"4","last_reported":1728738791,"current_range_meters":18000,"station_id":"ce4bgnh2rcd13ifvqc0g","pricing_plan_id":"cebpf4jnsgd1na2vs0mg"},{"bike_id":"aacde02a-7350-4bdf-8d7f-4d20585f2f4a","system_id":"levelo_inurba_marseille","lat":43.31224,"lon":5.36861,"is_reserved":false,"is_disabled":false,"rental_uris":{"android":"levelo://app?vid=aacde02a-7350-4bdf-8d7f-4d20585f2f4a","ios":"levelo://app?vid=aacde02a-7350-4bdf-8d7f-4d20585f2f4a"},"vehicle_type_id":"4","last_reported":1728738791,"current_range_meters":24400,"station_id":"ce4bgl92rcd13ifvqbq0","pricing_plan_id":"cebpf4jnsgd1na2vs0mg"},{"bike_id":"65ecdb47-6ce1-4b03-b02a-17a7a77482b1","system_id":"levelo_inurba_marseille","lat":43.23193,"lon":5.35544,"is_reserved":false,"is_disabled":false,"rental_uris":{"android":"levelo://app?vid=65ecdb47-6ce1-4b03-b02a-17a7a77482b1","ios":"levelo://app?vid=65ecdb47-6ce1-4b03-b02a-17a7a77482b1"},"vehicle_type_id":"4","last_reported":1728738791,"current_range_meters":18800,"station_id":"ce4bhu92rcd13ifvqi70","pricing_plan_id":"cebpf4jnsgd1na2vs0mg"},{"bike_id":"07823f6f-1876-4299-b493-90b677093c1b","system_id":"levelo_inurba_marseille","lat":43.27996,"lon":5.41664,"is_reserved":false,"is_disabled":false,"rental_uris":{"android":"levelo://app?vid=07823f6f-1876-4299-b493-90b677093c1b","ios":"levelo://app?vid=07823f6f-1876-4299-b493-90b677093c1b"},"vehicle_type_id":"4","last_reported":1728738791,"current_range_meters":20000,"station_id":"ce4bho12rcd13ifvqh1g","pricing_plan_id":"cebpf4jnsgd1na2vs0mg"},{"bike_id":"cfa51ee1-23b5-4168-b386-93c6f0f88c6c","system_id":"levelo_inurba_marseille","lat":43.25002,"lon":5.38919,"is_reserved":false,"is_disabled":false,"rental_uris":{"android":"levelo://app?vid=cfa51ee1-23b5-4168-b386-93c6f0f88c6c","ios":"levelo://app?vid=cfa51ee1-23b5-4168-b386-93c6f0f88c6c"},"vehicle_type_id":"4","last_reported":1728738791,"current_range_meters":24400,"station_id":"ce4bhgp2rcd13ifvqfd0","pricing_plan_id":"cebpf4jnsgd1na2vs0mg"},{"bike_id":"b36d68ce-c26e-4951-bdeb-00517eaef08e","system_id":"levelo_inurba_marseille","lat":43.29226,"lon":5.36067,"is_reserved":false,"is_disabled":false,"rental_uris":{"android":"levelo://app?vid=b36d68ce-c26e-4951-bdeb-00517eaef08e","ios":"levelo://app?vid=b36d68ce-c26e-4951-bdeb-00517eaef08e"},"vehicle_type_id":"4","last_reported":1728738791,"current_range_meters":18800,"station_id":"ce4bhbh2rcd13ifvqeqg","pricing_plan_id":"cebpf4jnsgd1na2vs0mg"},{"bike_id":"fe499ee7-6375-4ecd-b57e-a932fe0f65cf","system_id":"levelo_inurba_marseille","lat":43.33717,"lon":5.39189,"is_reserved":false,"is_disabled":false,"rental_uris":{"android":"levelo://app?vid=fe499ee7-6375-4ecd-b57e-a932fe0f65cf","ios":"levelo://app?vid=fe499ee7-6375-4ecd-b57e-a932fe0f65cf"},"vehicle_type_id":"4","last_reported":1728738791,"current_range_meters":14800,"station_id":"ce4bhr92rcd13ifvqhsg","pricing_plan_id":"cebpf4jnsgd1na2vs0mg"},{"bike_id":"2bf1b10b-4bb3-4b73-a8d5-b26b8759c85f","system_id":"levelo_inurba_marseille","lat":43.27827,"lon":5.39201,"is_reserved":false,"is_disabled":false,"rental_uris":{"android":"levelo://app?vid=2bf1b10b-4bb3-4b73-a8d5-b26b8759c85f","ios":"levelo://app?vid=2bf1b10b-4bb3-4b73-a8d5-b26b8759c85f"},"vehicle_type_id":"4","last_reported":1728738791,"current_range_meters":9600,"station_id":"ce4bhjp2rcd13ifvqga0","pricing_plan_id":"cebpf4jnsgd1na2vs0mg"},{"bike_id":"fa2d3e60-0ce9-4a8e-a16c-b0e8d0a0e106","system_id":"levelo_inurba_marseille","lat":43.30886,"lon":5.37197,"is_reserved":false,"is_disabled":false,"rental_uris":{"android":"levelo://app?vid=fa2d3e60-0ce9-4a8e-a16c-b0e8d0a0e106","ios":"levelo://app?vid=fa2d3e60-0ce9-4a8e-a16c-b0e8d0a0e106"},"vehicle_type_id":"4","last_reported":1728738791,"current_range_meters":29600,"station_id":"ce4bguh2rcd13ifvqckg","pricing_plan_id":"cebpf4jnsgd1na2vs0mg"},{"bike_id":"411ca67e-2d2b-4638-a37b-bb7c1a0babfe","system_id":"levelo_inurba_marseille","lat":43.2928,"lon":5.3745,"is_reserved":false,"is_disabled":false,"rental_uris":{"android":"levelo://app?vid=411ca67e-2d2b-4638-a37b-bb7c1a0babfe","ios":"levelo://app?vid=411ca67e-2d2b-4638-a37b-bb7c1a0babfe"},"vehicle_type_id":"4","last_reported":1728738791,"current_range_meters":27200,"station_id":"ce4bgi12rcd13ifvqb70","pricing_plan_id":"cebpf4jnsgd1na2vs0mg"},{"bike_id":"0363c092-2c66-4d7c-ae9d-a76fbb24df72","system_id":"levelo_inurba_marseille","lat":43.24388,"lon":5.37063,"is_reserved":false,"is_disabled":false,"rental_uris":{"android":"levelo://app?vid=0363c092-2c66-4d7c-ae9d-a76fbb24df72","ios":"levelo://app?vid=0363c092-2c66-4d7c-ae9d-a76fbb24df72"},"vehicle_type_id":"4","last_reported":1728738791,"current_range_meters":28800,"station_id":"ce4bhhh2rcd13ifvqfk0","pricing_plan_id":"cebpf4jnsgd1na2vs0mg"},{"bike_id":"21a0bf9a-ea81-46c6-a037-f66b80d386a3","system_id":"levelo_inurba_marseille","lat":43.230613,"lon":5.3549,"is_reserved":false,"is_disabled":false,"rental_uris":{"android":"levelo://app?vid=21a0bf9a-ea81-46c6-a037-f66b80d386a3","ios":"levelo://app?vid=21a0bf9a-ea81-46c6-a037-f66b80d386a3"},"vehicle_type_id":"4","last_reported":1728738791,"current_range_meters":22800,"station_id":"cpo3342slgdg3j2ifvpg","pricing_plan_id":"cebpf4jnsgd1na2vs0mg"},{"bike_id":"7787ce38-9b4f-481d-8098-0096fcef44b3","system_id":"levelo_inurba_marseille","lat":43.28545,"lon":5.40032,"is_reserved":false,"is_disabled":false,"rental_uris":{"android":"levelo://app?vid=7787ce38-9b4f-481d-8098-0096fcef44b3","ios":"levelo://app?vid=7787ce38-9b4f-481d-8098-0096fcef44b3"},"vehicle_type_id":"4","last_reported":1728738791,"current_range_meters":38800,"station_id":"ce4bgvp2rcd13ifvqct0","pricing_plan_id":"cebpf4jnsgd1na2vs0mg"},{"bike_id":"ad9508a3-6339-4b15-ad7f-7867f29affe1","system_id":"levelo_inurba_marseille","lat":43.23967,"lon":5.36626,"is_reserved":false,"is_disabled":false,"rental_uris":{"android":"levelo://app?vid=ad9508a3-6339-4b15-ad7f-7867f29affe1","ios":"levelo://app?vid=ad9508a3-6339-4b15-ad7f-7867f29affe1"},"vehicle_type_id":"4","last_reported":1728738791,"current_range_meters":29600,"station_id":"ce4bhi12rcd13ifvqfp0","pricing_plan_id":"cebpf4jnsgd1na2vs0mg"},{"bike_id":"71aee1c1-ff35-4976-80dd-f32550c151ac","system_id":"levelo_inurba_marseille","lat":43.23186,"lon":5.39986,"is_reserved":false,"is_disabled":false,"rental_uris":{"android":"levelo://app?vid=71aee1c1-ff35-4976-80dd-f32550c151ac","ios":"levelo://app?vid=71aee1c1-ff35-4976-80dd-f32550c151ac"},"vehicle_type_id":"4","last_reported":1728738791,"current_range_meters":4400,"station_id":"ce4bhn12rcd13ifvqgqg","pricing_plan_id":"cebpf4jnsgd1na2vs0mg"},{"bike_id":"759ce870-3bc5-4a2e-a8c9-bec4e8008e45","system_id":"levelo_inurba_marseille","lat":43.337444,"lon":5.374475,"is_reserved":false,"is_disabled":false,"rental_uris":{"android":"levelo://app?vid=759ce870-3bc5-4a2e-a8c9-bec4e8008e45","ios":"levelo://app?vid=759ce870-3bc5-4a2e-a8c9-bec4e8008e45"},"vehicle_type_id":"4","last_reported":1728738791,"current_range_meters":27600,"station_id":"","pricing_plan_id":"cebpf4jnsgd1na2vs0mg"},{"bike_id":"9662c834-e814-444b-97f5-74cee922c4fd","system_id":"levelo_inurba_marseille","lat":43.23964,"lon":5.3663,"is_reserved":false,"is_disabled":false,"rental_uris":{"android":"levelo://app?vid=9662c834-e814-444b-97f5-74cee922c4fd","ios":"levelo://app?vid=9662c834-e814-444b-97f5-74cee922c4fd"},"vehicle_type_id":"4","last_reported":1728738791,"current_range_meters":38000,"station_id":"ce4bhi12rcd13ifvqfp0","pricing_plan_id":"cebpf4jnsgd1na2vs0mg"},{"bike_id":"e2b853a5-8b42-4ffe-8220-a2d85a881e19","system_id":"levelo_inurba_marseille","lat":43.2706,"lon":5.40259,"is_reserved":false,"is_disabled":false,"rental_uris":{"android":"levelo://app?vid=e2b853a5-8b42-4ffe-8220-a2d85a881e19","ios":"levelo://app?vid=e2b853a5-8b42-4ffe-8220-a2d85a881e19"},"vehicle_type_id":"4","last_reported":1728738791,"current_range_meters":27200,"station_id":"ce4bhk92rcd13ifvqgc0","pricing_plan_id":"cebpf4jnsgd1na2vs0mg"},{"bike_id":"628b70e0-70d2-4a50-bd81-f02589a5a65c","system_id":"levelo_inurba_marseille","lat":43.29217,"lon":5.37166,"is_reserved":false,"is_disabled":false,"rental_uris":{"android":"levelo://app?vid=628b70e0-70d2-4a50-bd81-f02589a5a65c","ios":"levelo://app?vid=628b70e0-70d2-4a50-bd81-f02589a5a65c"},"vehicle_type_id":"4","last_reported":1728738791,"current_range_meters":8800,"station_id":"","pricing_plan_id":"cebpf4jnsgd1na2vs0mg"},{"bike_id":"cf4b5640-5369-4cd3-acbf-dcbb079f5ab5","system_id":"levelo_inurba_marseille","lat":43.2721,"lon":5.39182,"is_reserved":false,"is_disabled":false,"rental_uris":{"android":"levelo://app?vid=cf4b5640-5369-4cd3-acbf-dcbb079f5ab5","ios":"levelo://app?vid=cf4b5640-5369-4cd3-acbf-dcbb079f5ab5"},"vehicle_type_id":"4","last_reported":1728738791,"current_range_meters":16800,"station_id":"ce4bhhp2rcd13ifvqfm0","pricing_plan_id":"cebpf4jnsgd1na2vs0mg"},{"bike_id":"37260897-2869-4b67-b68b-17af335d61b4","system_id":"levelo_inurba_marseille","lat":43.31708,"lon":5.43709,"is_reserved":false,"is_disabled":false,"rental_uris":{"android":"levelo://app?vid=37260897-2869-4b67-b68b-17af335d61b4","ios":"levelo://app?vid=37260897-2869-4b67-b68b-17af335d61b4"},"vehicle_type_id":"4","last_reported":1728738791,"current_range_meters":24800,"station_id":"ce4bhp92rcd13ifvqhcg","pricing_plan_id":"cebpf4jnsgd1na2vs0mg"},{"bike_id":"2773f3a6-5956-406a-b834-7fcb1f517d99","system_id":"levelo_inurba_marseille","lat":43.306,"lon":5.37216,"is_reserved":false,"is_disabled":false,"rental_uris":{"android":"levelo://app?vid=2773f3a6-5956-406a-b834-7fcb1f517d99","ios":"levelo://app?vid=2773f3a6-5956-406a-b834-7fcb1f517d99"},"vehicle_type_id":"4","last_reported":1728738791,"current_range_meters":37600,"station_id":"ce4bgqh2rcd13ifvqc4g","pricing_plan_id":"cebpf4jnsgd1na2vs0mg"},{"bike_id":"ebf284ec-9120-4f21-bc95-653b79297f19","system_id":"levelo_inurba_marseille","lat":43.28466,"lon":5.35877,"is_reserved":false,"is_disabled":false,"rental_uris":{"android":"levelo://app?vid=ebf284ec-9120-4f21-bc95-653b79297f19","ios":"levelo://app?vid=ebf284ec-9120-4f21-bc95-653b79297f19"},"vehicle_type_id":"4","last_reported":1728738791,"current_range_meters":2000,"station_id":"ce4bhah2rcd13ifvqei0","pricing_plan_id":"cebpf4jnsgd1na2vs0mg"},{"bike_id":"33905e16-b829-47f3-bbd5-a9ef675e1298","system_id":"levelo_inurba_marseille","lat":43.29366,"lon":5.37845,"is_reserved":false,"is_disabled":false,"rental_uris":{"android":"levelo://app?vid=33905e16-b829-47f3-bbd5-a9ef675e1298","ios":"levelo://app?vid=33905e16-b829-47f3-bbd5-a9ef675e1298"},"vehicle_type_id":"4","last_reported":1728738791,"current_range_meters":8800,"station_id":"ce4bgjh2rcd13ifvqbf0","pricing_plan_id":"cebpf4jnsgd1na2vs0mg"},{"bike_id":"fe25d603-3165-4a16-8202-9dfe10cd677f","system_id":"levelo_inurba_marseille","lat":43.32654,"lon":5.40994,"is_reserved":false,"is_disabled":false,"rental_uris":{"android":"levelo://app?vid=fe25d603-3165-4a16-8202-9dfe10cd677f","ios":"levelo://app?vid=fe25d603-3165-4a16-8202-9dfe10cd677f"},"vehicle_type_id":"4","last_reported":1728738791,"current_range_meters":17200,"station_id":"ce4bhpp2rcd13ifvqhgg","pricing_plan_id":"cebpf4jnsgd1na2vs0mg"},{"bike_id":"322a5e12-a7da-48cc-b71f-d61dc2471339","system_id":"levelo_inurba_marseille","lat":43.30791,"lon":5.38149,"is_reserved":false,"is_disabled":false,"rental_uris":{"android":"levelo://app?vid=322a5e12-a7da-48cc-b71f-d61dc2471339","ios":"levelo://app?vid=322a5e12-a7da-48cc-b71f-d61dc2471339"},"vehicle_type_id":"4","last_reported":1728738791,"current_range_meters":24400,"station_id":"ce4bgt92rcd13ifvqcf0","pricing_plan_id":"cebpf4jnsgd1na2vs0mg"},{"bike_id":"14898b84-f051-4ba9-aa31-3b554bf1895b","system_id":"levelo_inurba_marseille","lat":43.24168,"lon":5.36396,"is_reserved":false,"is_disabled":false,"rental_uris":{"android":"levelo://app?vid=14898b84-f051-4ba9-aa31-3b554bf1895b","ios":"levelo://app?vid=14898b84-f051-4ba9-aa31-3b554bf1895b"},"vehicle_type_id":"4","last_reported":1728738791,"current_range_meters":31200,"station_id":"cpo36qri1sfpv3e86is0","pricing_plan_id":"cebpf4jnsgd1na2vs0mg"},{"bike_id":"fd301c4f-88d0-470b-8444-02e732c4a052","system_id":"levelo_inurba_marseille","lat":43.24964,"lon":5.38105,"is_reserved":false,"is_disabled":false,"rental_uris":{"android":"levelo://app?vid=fd301c4f-88d0-470b-8444-02e732c4a052","ios":"levelo://app?vid=fd301c4f-88d0-470b-8444-02e732c4a052"},"vehicle_type_id":"4","last_reported":1728738791,"current_range_meters":28000,"station_id":"","pricing_plan_id":"cebpf4jnsgd1na2vs0mg"},{"bike_id":"7b32f775-9182-482a-a6e2-7bb209a08464","system_id":"levelo_inurba_marseille","lat":43.26769,"lon":5.39453,"is_reserved":false,"is_disabled":false,"rental_uris":{"android":"levelo://app?vid=7b32f775-9182-482a-a6e2-7bb209a08464","ios":"levelo://app?vid=7b32f775-9182-482a-a6e2-7bb209a08464"},"vehicle_type_id":"4","last_reported":1728738791,"current_range_meters":32800,"station_id":"ce4bhh12rcd13ifvqfg0","pricing_plan_id":"cebpf4jnsgd1na2vs0mg"},{"bike_id":"9e4174ef-4812-48ff-a87f-baa27d9fccc4","system_id":"levelo_inurba_marseille","lat":43.32344,"lon":5.40627,"is_reserved":false,"is_disabled":false,"rental_uris":{"android":"levelo://app?vid=9e4174ef-4812-48ff-a87f-baa27d9fccc4","ios":"levelo://app?vid=9e4174ef-4812-48ff-a87f-baa27d9fccc4"},"vehicle_type_id":"4","last_reported":1728738791,"current_range_meters":28400,"station_id":"ce4bhq92rcd13ifvqhjg","pricing_plan_id":"cebpf4jnsgd1na2vs0mg"},{"bike_id":"ff68b789-7173-415f-860f-fb58c1b9d01d","system_id":"levelo_inurba_marseille","lat":43.22928,"lon":5.35375,"is_reserved":false,"is_disabled":false,"rental_uris":{"android":"levelo://app?vid=ff68b789-7173-415f-860f-fb58c1b9d01d","ios":"levelo://app?vid=ff68b789-7173-415f-860f-fb58c1b9d01d"},"vehicle_type_id":"4","last_reported":1728738791,"current_range_meters":26800,"station_id":"cpo3532slgdg3j2ikp40","pricing_plan_id":"cebpf4jnsgd1na2vs0mg"},{"bike_id":"f2ec553b-f583-4634-bf60-a39b93078fc1","system_id":"levelo_inurba_marseille","lat":43.24393,"lon":5.37063,"is_reserved":false,"is_disabled":false,"rental_uris":{"android":"levelo://app?vid=f2ec553b-f583-4634-bf60-a39b93078fc1","ios":"levelo://app?vid=f2ec553b-f583-4634-bf60-a39b93078fc1"},"vehicle_type_id":"4","last_reported":1728738791,"current_range_meters":28000,"station_id":"ce4bhhh2rcd13ifvqfk0","pricing_plan_id":"cebpf4jnsgd1na2vs0mg"},{"bike_id":"92c1af36-5649-40f5-84ed-a7b062884571","system_id":"levelo_inurba_marseille","lat":43.23963,"lon":5.36639,"is_reserved":false,"is_disabled":false,"rental_uris":{"android":"levelo://app?vid=92c1af36-5649-40f5-84ed-a7b062884571","ios":"levelo://app?vid=92c1af36-5649-40f5-84ed-a7b062884571"},"vehicle_type_id":"4","last_reported":1728738791,"current_range_meters":34000,"station_id":"ce4bhi12rcd13ifvqfp0","pricing_plan_id":"cebpf4jnsgd1na2vs0mg"},{"bike_id":"6cb5b02c-2401-484a-8b7d-b4d2106d6b08","system_id":"levelo_inurba_marseille","lat":43.23193,"lon":5.35554,"is_reserved":false,"is_disabled":false,"rental_uris":{"android":"levelo://app?vid=6cb5b02c-2401-484a-8b7d-b4d2106d6b08","ios":"levelo://app?vid=6cb5b02c-2401-484a-8b7d-b4d2106d6b08"},"vehicle_type_id":"4","last_reported":1728738791,"current_range_meters":31200,"station_id":"ce4bhu92rcd13ifvqi70","pricing_plan_id":"cebpf4jnsgd1na2vs0mg"},{"bike_id":"4494e39d-64b5-4300-8faf-88e6768d68c4","system_id":"levelo_inurba_marseille","lat":43.31758,"lon":5.39015,"is_reserved":false,"is_disabled":false,"rental_uris":{"android":"levelo://app?vid=4494e39d-64b5-4300-8faf-88e6768d68c4","ios":"levelo://app?vid=4494e39d-64b5-4300-8faf-88e6768d68c4"},"vehicle_type_id":"4","last_reported":1728738791,"current_range_meters":38400,"station_id":"ce4bhqp2rcd13ifvqhng","pricing_plan_id":"cebpf4jnsgd1na2vs0mg"},{"bike_id":"c88cdfb0-4bf9-4a8c-8ce2-b63c2598193b","system_id":"levelo_inurba_marseille","lat":43.29586,"lon":5.36737,"is_reserved":false,"is_disabled":false,"rental_uris":{"android":"levelo://app?vid=c88cdfb0-4bf9-4a8c-8ce2-b63c2598193b","ios":"levelo://app?vid=c88cdfb0-4bf9-4a8c-8ce2-b63c2598193b"},"vehicle_type_id":"4","last_reported":1728738791,"current_range_meters":37600,"station_id":"ce4bgph2rcd13ifvqc2g","pricing_plan_id":"cebpf4jnsgd1na2vs0mg"},{"bike_id":"22165ed5-9126-4a67-906d-3d6a89556060","system_id":"levelo_inurba_marseille","lat":43.26556,"lon":5.37282,"is_reserved":false,"is_disabled":false,"rental_uris":{"android":"levelo://app?vid=22165ed5-9126-4a67-906d-3d6a89556060","ios":"levelo://app?vid=22165ed5-9126-4a67-906d-3d6a89556060"},"vehicle_type_id":"4","last_reported":1728738791,"current_range_meters":14800,"station_id":"ce4bhg12rcd13ifvqf70","pricing_plan_id":"cebpf4jnsgd1na2vs0mg"},{"bike_id":"4578cbcd-1475-481f-8934-a1a04748ab51","system_id":"levelo_inurba_marseille","lat":43.30598,"lon":5.3722,"is_reserved":false,"is_disabled":false,"rental_uris":{"android":"levelo://app?vid=4578cbcd-1475-481f-8934-a1a04748ab51","ios":"levelo://app?vid=4578cbcd-1475-481f-8934-a1a04748ab51"},"vehicle_type_id":"4","last_reported":1728738791,"current_range_meters":38800,"station_id":"ce4bgqh2rcd13ifvqc4g","pricing_plan_id":"cebpf4jnsgd1na2vs0mg"},{"bike_id":"89ddf9de-48fa-47ed-bab3-2b9e527b9e03","system_id":"levelo_inurba_marseille","lat":43.30644,"lon":5.40098,"is_reserved":false,"is_disabled":false,"rental_uris":{"android":"levelo://app?vid=89ddf9de-48fa-47ed-bab3-2b9e527b9e03","ios":"levelo://app?vid=89ddf9de-48fa-47ed-bab3-2b9e527b9e03"},"vehicle_type_id":"4","last_reported":1728738791,"current_range_meters":8400,"station_id":"ce4bh112rcd13ifvqda0","pricing_plan_id":"cebpf4jnsgd1na2vs0mg"},{"bike_id":"057af1bc-3f81-4246-abf3-ae1321ff7978","system_id":"levelo_inurba_marseille","lat":43.26798,"lon":5.39429,"is_reserved":false,"is_disabled":false,"rental_uris":{"android":"levelo://app?vid=057af1bc-3f81-4246-abf3-ae1321ff7978","ios":"levelo://app?vid=057af1bc-3f81-4246-abf3-ae1321ff7978"},"vehicle_type_id":"4","last_reported":1728738791,"current_range_meters":38800,"station_id":"ce4bhh12rcd13ifvqfg0","pricing_plan_id":"cebpf4jnsgd1na2vs0mg"},{"bike_id":"eac4e8f1-ac84-4048-ad4c-5213afa836f2","system_id":"levelo_inurba_marseille","lat":43.27133,"lon":5.40011,"is_reserved":false,"is_disabled":false,"rental_uris":{"android":"levelo://app?vid=eac4e8f1-ac84-4048-ad4c-5213afa836f2","ios":"levelo://app?vid=eac4e8f1-ac84-4048-ad4c-5213afa836f2"},"vehicle_type_id":"4","last_reported":1728738791,"current_range_meters":24800,"station_id":"","pricing_plan_id":"cebpf4jnsgd1na2vs0mg"},{"bike_id":"abab01e4-c925-494f-9254-26c33a93bd55","system_id":"levelo_inurba_marseille","lat":43.2678,"lon":5.39425,"is_reserved":false,"is_disabled":false,"rental_uris":{"android":"levelo://app?vid=abab01e4-c925-494f-9254-26c33a93bd55","ios":"levelo://app?vid=abab01e4-c925-494f-9254-26c33a93bd55"},"vehicle_type_id":"4","last_reported":1728738791,"current_range_meters":38800,"station_id":"ce4bhh12rcd13ifvqfg0","pricing_plan_id":"cebpf4jnsgd1na2vs0mg"},{"bike_id":"accb871e-a6d6-4416-b0e7-cca548384eeb","system_id":"levelo_inurba_marseille","lat":43.26552,"lon":5.37282,"is_reserved":false,"is_disabled":false,"rental_uris":{"android":"levelo://app?vid=accb871e-a6d6-4416-b0e7-cca548384eeb","ios":"levelo://app?vid=accb871e-a6d6-4416-b0e7-cca548384eeb"},"vehicle_type_id":"4","last_reported":1728738791,"current_range_meters":37600,"station_id":"ce4bhg12rcd13ifvqf70","pricing_plan_id":"cebpf4jnsgd1na2vs0mg"},{"bike_id":"cd5c9988-d11f-4f9b-8f8b-8a95a899a0dd","system_id":"levelo_inurba_marseille","lat":43.24072,"lon":5.37758,"is_reserved":false,"is_disabled":false,"rental_uris":{"android":"levelo://app?vid=cd5c9988-d11f-4f9b-8f8b-8a95a899a0dd","ios":"levelo://app?vid=cd5c9988-d11f-4f9b-8f8b-8a95a899a0dd"},"vehicle_type_id":"4","last_reported":1728738791,"current_range_meters":26000,"station_id":"ce4bhnp2rcd13ifvqgvg","pricing_plan_id":"cebpf4jnsgd1na2vs0mg"},{"bike_id":"b7a0265e-c8cb-4b30-8055-a863fc5c0b84","system_id":"levelo_inurba_marseille","lat":43.31685,"lon":5.40464,"is_reserved":false,"is_disabled":false,"rental_uris":{"android":"levelo://app?vid=b7a0265e-c8cb-4b30-8055-a863fc5c0b84","ios":"levelo://app?vid=b7a0265e-c8cb-4b30-8055-a863fc5c0b84"},"vehicle_type_id":"4","last_reported":1728738791,"current_range_meters":39200,"station_id":"ce4bh012rcd13ifvqd00","pricing_plan_id":"cebpf4jnsgd1na2vs0mg"},{"bike_id":"ed6f5853-c281-4213-8ebc-213791edfd0a","system_id":"levelo_inurba_marseille","lat":43.24387,"lon":5.37062,"is_reserved":false,"is_disabled":false,"rental_uris":{"android":"levelo://app?vid=ed6f5853-c281-4213-8ebc-213791edfd0a","ios":"levelo://app?vid=ed6f5853-c281-4213-8ebc-213791edfd0a"},"vehicle_type_id":"4","last_reported":1728738791,"current_range_meters":36800,"station_id":"ce4bhhh2rcd13ifvqfk0","pricing_plan_id":"cebpf4jnsgd1na2vs0mg"},{"bike_id":"9cbbff18-83fb-4d12-bfb3-a4760ae7047c","system_id":"levelo_inurba_marseille","lat":43.25862,"lon":5.39898,"is_reserved":false,"is_disabled":false,"rental_uris":{"android":"levelo://app?vid=9cbbff18-83fb-4d12-bfb3-a4760ae7047c","ios":"levelo://app?vid=9cbbff18-83fb-4d12-bfb3-a4760ae7047c"},"vehicle_type_id":"4","last_reported":1728738791,"current_range_meters":27200,"station_id":"ce4bhl92rcd13ifvqghg","pricing_plan_id":"cebpf4jnsgd1na2vs0mg"},{"bike_id":"cc0db80a-6908-46ef-a30b-99fde0e175c1","system_id":"levelo_inurba_marseille","lat":43.278071,"lon":5.407136,"is_reserved":false,"is_disabled":false,"rental_uris":{"android":"levelo://app?vid=cc0db80a-6908-46ef-a30b-99fde0e175c1","ios":"levelo://app?vid=cc0db80a-6908-46ef-a30b-99fde0e175c1"},"vehicle_type_id":"4","last_reported":1728738791,"current_range_meters":18000,"station_id":"ce4bhnh2rcd13ifvqgtg","pricing_plan_id":"cebpf4jnsgd1na2vs0mg"},{"bike_id":"3acffbf8-ad43-4766-979c-2e955a670032","system_id":"levelo_inurba_marseille","lat":43.27211,"lon":5.39181,"is_reserved":false,"is_disabled":false,"rental_uris":{"android":"levelo://app?vid=3acffbf8-ad43-4766-979c-2e955a670032","ios":"levelo://app?vid=3acffbf8-ad43-4766-979c-2e955a670032"},"vehicle_type_id":"4","last_reported":1728738791,"current_range_meters":24800,"station_id":"ce4bhhp2rcd13ifvqfm0","pricing_plan_id":"cebpf4jnsgd1na2vs0mg"},{"bike_id":"7bac7836-a75a-491f-98e0-0ff022602dac","system_id":"levelo_inurba_marseille","lat":43.2962,"lon":5.37171,"is_reserved":false,"is_disabled":false,"rental_uris":{"android":"levelo://app?vid=7bac7836-a75a-491f-98e0-0ff022602dac","ios":"levelo://app?vid=7bac7836-a75a-491f-98e0-0ff022602dac"},"vehicle_type_id":"4","last_reported":1728738791,"current_range_meters":14800,"station_id":"ce4bgnh2rcd13ifvqc0g","pricing_plan_id":"cebpf4jnsgd1na2vs0mg"},{"bike_id":"b933402b-d1ca-49a8-bbf7-fb19281d941c","system_id":"levelo_inurba_marseille","lat":43.23198,"lon":5.35554,"is_reserved":false,"is_disabled":false,"rental_uris":{"android":"levelo://app?vid=b933402b-d1ca-49a8-bbf7-fb19281d941c","ios":"levelo://app?vid=b933402b-d1ca-49a8-bbf7-fb19281d941c"},"vehicle_type_id":"4","last_reported":1728738791,"current_range_meters":20800,"station_id":"ce4bhu92rcd13ifvqi70","pricing_plan_id":"cebpf4jnsgd1na2vs0mg"},{"bike_id":"68a48546-28ec-4218-a008-021a1ba46359","system_id":"levelo_inurba_marseille","lat":43.25585,"lon":5.38222,"is_reserved":false,"is_disabled":false,"rental_uris":{"android":"levelo://app?vid=68a48546-28ec-4218-a008-021a1ba46359","ios":"levelo://app?vid=68a48546-28ec-4218-a008-021a1ba46359"},"vehicle_type_id":"4","last_reported":1728738791,"current_range_meters":38000,"station_id":"ce4bhih2rcd13ifvqfs0","pricing_plan_id":"cebpf4jnsgd1na2vs0mg"},{"bike_id":"cce3e12e-7fc3-41dd-8c76-2326c52a9e7b","system_id":"levelo_inurba_marseille","lat":43.30534,"lon":5.36532,"is_reserved":false,"is_disabled":false,"rental_uris":{"android":"levelo://app?vid=cce3e12e-7fc3-41dd-8c76-2326c52a9e7b","ios":"levelo://app?vid=cce3e12e-7fc3-41dd-8c76-2326c52a9e7b"},"vehicle_type_id":"4","last_reported":1728738791,"current_range_meters":38800,"station_id":"ce4bgs12rcd13ifvqcag","pricing_plan_id":"cebpf4jnsgd1na2vs0mg"},{"bike_id":"deb5b84f-b7ea-4a3b-98eb-503b72a798ab","system_id":"levelo_inurba_marseille","lat":43.32294,"lon":5.38267,"is_reserved":false,"is_disabled":false,"rental_uris":{"android":"levelo://app?vid=deb5b84f-b7ea-4a3b-98eb-503b72a798ab","ios":"levelo://app?vid=deb5b84f-b7ea-4a3b-98eb-503b72a798ab"},"vehicle_type_id":"4","last_reported":1728738791,"current_range_meters":38000,"station_id":"ce4bhr12rcd13ifvqhqg","pricing_plan_id":"cebpf4jnsgd1na2vs0mg"},{"bike_id":"e65b8001-bcf6-4783-8947-94f17ae77743","system_id":"levelo_inurba_marseille","lat":43.29574,"lon":5.37529,"is_reserved":false,"is_disabled":false,"rental_uris":{"android":"levelo://app?vid=e65b8001-bcf6-4783-8947-94f17ae77743","ios":"levelo://app?vid=e65b8001-bcf6-4783-8947-94f17ae77743"},"vehicle_type_id":"4","last_reported":1728738791,"current_range_meters":38000,"station_id":"ce4bgh92rcd13ifvqb50","pricing_plan_id":"cebpf4jnsgd1na2vs0mg"},{"bike_id":"179aa7f0-030f-4930-a1e5-b752ea6a4669","system_id":"levelo_inurba_marseille","lat":43.29565,"lon":5.37524,"is_reserved":false,"is_disabled":false,"rental_uris":{"android":"levelo://app?vid=179aa7f0-030f-4930-a1e5-b752ea6a4669","ios":"levelo://app?vid=179aa7f0-030f-4930-a1e5-b752ea6a4669"},"vehicle_type_id":"4","last_reported":1728738791,"current_range_meters":38800,"station_id":"ce4bgh92rcd13ifvqb50","pricing_plan_id":"cebpf4jnsgd1na2vs0mg"},{"bike_id":"8ab1940c-c2b4-4ac0-affc-7653522f6e0f","system_id":"levelo_inurba_marseille","lat":43.30136,"lon":5.37417,"is_reserved":false,"is_disabled":false,"rental_uris":{"android":"levelo://app?vid=8ab1940c-c2b4-4ac0-affc-7653522f6e0f","ios":"levelo://app?vid=8ab1940c-c2b4-4ac0-affc-7653522f6e0f"},"vehicle_type_id":"4","last_reported":1728738791,"current_range_meters":37600,"station_id":"ce4bgs92rcd13ifvqcc0","pricing_plan_id":"cebpf4jnsgd1na2vs0mg"},{"bike_id":"a7679d09-f23a-4e16-afdc-3b43016c132c","system_id":"levelo_inurba_marseille","lat":43.30517,"lon":5.36713,"is_reserved":false,"is_disabled":false,"rental_uris":{"android":"levelo://app?vid=a7679d09-f23a-4e16-afdc-3b43016c132c","ios":"levelo://app?vid=a7679d09-f23a-4e16-afdc-3b43016c132c"},"vehicle_type_id":"4","last_reported":1728738791,"current_range_meters":19600,"station_id":"ce4bgrp2rcd13ifvqc9g","pricing_plan_id":"cebpf4jnsgd1na2vs0mg"},{"bike_id":"9a04d036-a91a-4363-8c36-7234d03b663b","system_id":"levelo_inurba_marseille","lat":43.27966,"lon":5.38714,"is_reserved":false,"is_disabled":false,"rental_uris":{"android":"levelo://app?vid=9a04d036-a91a-4363-8c36-7234d03b663b","ios":"levelo://app?vid=9a04d036-a91a-4363-8c36-7234d03b663b"},"vehicle_type_id":"4","last_reported":1728738791,"current_range_meters":33600,"station_id":"ce4bhg12rcd13ifvqf80","pricing_plan_id":"cebpf4jnsgd1na2vs0mg"},{"bike_id":"6ee52b8b-fb0d-426c-a3a6-7082318fe434","system_id":"levelo_inurba_marseille","lat":43.2957,"lon":5.37515,"is_reserved":false,"is_disabled":false,"rental_uris":{"android":"levelo://app?vid=6ee52b8b-fb0d-426c-a3a6-7082318fe434","ios":"levelo://app?vid=6ee52b8b-fb0d-426c-a3a6-7082318fe434"},"vehicle_type_id":"4","last_reported":1728738791,"current_range_meters":12800,"station_id":"ce4bgh92rcd13ifvqb50","pricing_plan_id":"cebpf4jnsgd1na2vs0mg"},{"bike_id":"589dd4ec-acc5-4408-b90f-ee2d74610402","system_id":"levelo_inurba_marseille","lat":43.29024,"lon":5.3865,"is_reserved":false,"is_disabled":false,"rental_uris":{"android":"levelo://app?vid=589dd4ec-acc5-4408-b90f-ee2d74610402","ios":"levelo://app?vid=589dd4ec-acc5-4408-b90f-ee2d74610402"},"vehicle_type_id":"4","last_reported":1728738791,"current_range_meters":17600,"station_id":"ce4bh4p2rcd13ifvqe0g","pricing_plan_id":"cebpf4jnsgd1na2vs0mg"},{"bike_id":"484a4c63-4ef1-4433-b27a-9a9ca5ad2f9a","system_id":"levelo_inurba_marseille","lat":43.22929,"lon":5.35378,"is_reserved":false,"is_disabled":false,"rental_uris":{"android":"levelo://app?vid=484a4c63-4ef1-4433-b27a-9a9ca5ad2f9a","ios":"levelo://app?vid=484a4c63-4ef1-4433-b27a-9a9ca5ad2f9a"},"vehicle_type_id":"4","last_reported":1728738791,"current_range_meters":10000,"station_id":"cpo3532slgdg3j2ikp40","pricing_plan_id":"cebpf4jnsgd1na2vs0mg"},{"bike_id":"d8644448-7698-4ba5-ba37-f6083176f920","system_id":"levelo_inurba_marseille","lat":43.25585,"lon":5.38242,"is_reserved":false,"is_disabled":false,"rental_uris":{"android":"levelo://app?vid=d8644448-7698-4ba5-ba37-f6083176f920","ios":"levelo://app?vid=d8644448-7698-4ba5-ba37-f6083176f920"},"vehicle_type_id":"4","last_reported":1728738791,"current_range_meters":26000,"station_id":"ce4bhih2rcd13ifvqfs0","pricing_plan_id":"cebpf4jnsgd1na2vs0mg"},{"bike_id":"7ab4c1c3-2154-4847-931b-d72417194db0","system_id":"levelo_inurba_marseille","lat":43.30189,"lon":5.36632,"is_reserved":false,"is_disabled":false,"rental_uris":{"android":"levelo://app?vid=7ab4c1c3-2154-4847-931b-d72417194db0","ios":"levelo://app?vid=7ab4c1c3-2154-4847-931b-d72417194db0"},"vehicle_type_id":"4","last_reported":1728738791,"current_range_meters":38800,"station_id":"ce4bgrh2rcd13ifvqc8g","pricing_plan_id":"cebpf4jnsgd1na2vs0mg"},{"bike_id":"e6336660-e5d0-4336-aab6-9e2081b4b551","system_id":"levelo_inurba_marseille","lat":43.33719,"lon":5.392,"is_reserved":false,"is_disabled":false,"rental_uris":{"android":"levelo://app?vid=e6336660-e5d0-4336-aab6-9e2081b4b551","ios":"levelo://app?vid=e6336660-e5d0-4336-aab6-9e2081b4b551"},"vehicle_type_id":"4","last_reported":1728738791,"current_range_meters":24000,"station_id":"ce4bhr92rcd13ifvqhsg","pricing_plan_id":"cebpf4jnsgd1na2vs0mg"},{"bike_id":"ab47664c-0450-4138-b005-9b8e1b8810bd","system_id":"levelo_inurba_marseille","lat":43.29578,"lon":5.36739,"is_reserved":false,"is_disabled":false,"rental_uris":{"android":"levelo://app?vid=ab47664c-0450-4138-b005-9b8e1b8810bd","ios":"levelo://app?vid=ab47664c-0450-4138-b005-9b8e1b8810bd"},"vehicle_type_id":"4","last_reported":1728738791,"current_range_meters":39200,"station_id":"ce4bgph2rcd13ifvqc2g","pricing_plan_id":"cebpf4jnsgd1na2vs0mg"},{"bike_id":"efe82192-bd85-47ef-8a17-25dad9ec5e82","system_id":"levelo_inurba_marseille","lat":43.262,"lon":5.37921,"is_reserved":false,"is_disabled":false,"rental_uris":{"android":"levelo://app?vid=efe82192-bd85-47ef-8a17-25dad9ec5e82","ios":"levelo://app?vid=efe82192-bd85-47ef-8a17-25dad9ec5e82"},"vehicle_type_id":"4","last_reported":1728738791,"current_range_meters":39200,"station_id":"ce4bhjp2rcd13ifvqg90","pricing_plan_id":"cebpf4jnsgd1na2vs0mg"},{"bike_id":"65173d1c-6a56-4492-9dae-595c92911ce4","system_id":"levelo_inurba_marseille","lat":43.25004,"lon":5.38914,"is_reserved":false,"is_disabled":false,"rental_uris":{"android":"levelo://app?vid=65173d1c-6a56-4492-9dae-595c92911ce4","ios":"levelo://app?vid=65173d1c-6a56-4492-9dae-595c92911ce4"},"vehicle_type_id":"4","last_reported":1728738791,"current_range_meters":9600,"station_id":"ce4bhgp2rcd13ifvqfd0","pricing_plan_id":"cebpf4jnsgd1na2vs0mg"},{"bike_id":"c7932ebc-40c2-41af-92e1-9d5f28b5738a","system_id":"levelo_inurba_marseille","lat":43.23188,"lon":5.39974,"is_reserved":false,"is_disabled":false,"rental_uris":{"android":"levelo://app?vid=c7932ebc-40c2-41af-92e1-9d5f28b5738a","ios":"levelo://app?vid=c7932ebc-40c2-41af-92e1-9d5f28b5738a"},"vehicle_type_id":"4","last_reported":1728738791,"current_range_meters":6800,"station_id":"ce4bhn12rcd13ifvqgqg","pricing_plan_id":"cebpf4jnsgd1na2vs0mg"},{"bike_id":"8d6bf4d8-a002-49f7-91ad-b4f1d96a1a91","system_id":"levelo_inurba_marseille","lat":43.31712,"lon":5.37742,"is_reserved":false,"is_disabled":false,"rental_uris":{"android":"levelo://app?vid=8d6bf4d8-a002-49f7-91ad-b4f1d96a1a91","ios":"levelo://app?vid=8d6bf4d8-a002-49f7-91ad-b4f1d96a1a91"},"vehicle_type_id":"4","last_reported":1728738791,"current_range_meters":3200,"station_id":"ce4bgth2rcd13ifvqch0","pricing_plan_id":"cebpf4jnsgd1na2vs0mg"},{"bike_id":"9ec7c6a9-9a00-4990-806a-48c53daefdf5","system_id":"levelo_inurba_marseille","lat":43.29264,"lon":5.38437,"is_reserved":false,"is_disabled":false,"rental_uris":{"android":"levelo://app?vid=9ec7c6a9-9a00-4990-806a-48c53daefdf5","ios":"levelo://app?vid=9ec7c6a9-9a00-4990-806a-48c53daefdf5"},"vehicle_type_id":"4","last_reported":1728738791,"current_range_meters":800,"station_id":"ce4bh692rcd13ifvqea0","pricing_plan_id":"cebpf4jnsgd1na2vs0mg"},{"bike_id":"55582e1e-1cd8-4e96-933c-025471d1c473","system_id":"levelo_inurba_marseille","lat":43.26931,"lon":5.3892,"is_reserved":false,"is_disabled":false,"rental_uris":{"android":"levelo://app?vid=55582e1e-1cd8-4e96-933c-025471d1c473","ios":"levelo://app?vid=55582e1e-1cd8-4e96-933c-025471d1c473"},"vehicle_type_id":"4","last_reported":1728738791,"current_range_meters":11200,"station_id":"ce4bhhh2rcd13ifvqfl0","pricing_plan_id":"cebpf4jnsgd1na2vs0mg"},{"bike_id":"827f06d8-ce2f-46a5-96e7-1ae5a8b2316d","system_id":"levelo_inurba_marseille","lat":43.27558,"lon":5.38409,"is_reserved":false,"is_disabled":false,"rental_uris":{"android":"levelo://app?vid=827f06d8-ce2f-46a5-96e7-1ae5a8b2316d","ios":"levelo://app?vid=827f06d8-ce2f-46a5-96e7-1ae5a8b2316d"},"vehicle_type_id":"4","last_reported":1728738791,"current_range_meters":26000,"station_id":"ce4bhh92rcd13ifvqfi0","pricing_plan_id":"cebpf4jnsgd1na2vs0mg"},{"bike_id":"5b9f2409-af94-4530-bdcb-ef3b7e257a37","system_id":"levelo_inurba_marseille","lat":43.31994,"lon":5.38143,"is_reserved":false,"is_disabled":false,"rental_uris":{"android":"levelo://app?vid=5b9f2409-af94-4530-bdcb-ef3b7e257a37","ios":"levelo://app?vid=5b9f2409-af94-4530-bdcb-ef3b7e257a37"},"vehicle_type_id":"4","last_reported":1728738791,"current_range_meters":37600,"station_id":"ce4bhr12rcd13ifvqhpg","pricing_plan_id":"cebpf4jnsgd1na2vs0mg"},{"bike_id":"b9673350-718c-453b-aa01-08b797151e2b","system_id":"levelo_inurba_marseille","lat":43.29623,"lon":5.37715,"is_reserved":false,"is_disabled":false,"rental_uris":{"android":"levelo://app?vid=b9673350-718c-453b-aa01-08b797151e2b","ios":"levelo://app?vid=b9673350-718c-453b-aa01-08b797151e2b"},"vehicle_type_id":"4","last_reported":1728738791,"current_range_meters":37600,"station_id":"ce4bgi92rcd13ifvqb90","pricing_plan_id":"cebpf4jnsgd1na2vs0mg"},{"bike_id":"2048addd-0890-4eae-9165-30dc3d60cb91","system_id":"levelo_inurba_marseille","lat":43.28612,"lon":5.35098,"is_reserved":false,"is_disabled":false,"rental_uris":{"android":"levelo://app?vid=2048addd-0890-4eae-9165-30dc3d60cb91","ios":"levelo://app?vid=2048addd-0890-4eae-9165-30dc3d60cb91"},"vehicle_type_id":"4","last_reported":1728738791,"current_range_meters":36800,"station_id":"ce4bhch2rcd13ifvqeug","pricing_plan_id":"cebpf4jnsgd1na2vs0mg"},{"bike_id":"4642cdd6-1516-4113-a4e3-3b2fe1912255","system_id":"levelo_inurba_marseille","lat":43.29575,"lon":5.37521,"is_reserved":false,"is_disabled":false,"rental_uris":{"android":"levelo://app?vid=4642cdd6-1516-4113-a4e3-3b2fe1912255","ios":"levelo://app?vid=4642cdd6-1516-4113-a4e3-3b2fe1912255"},"vehicle_type_id":"4","last_reported":1728738791,"current_range_meters":38800,"station_id":"ce4bgh92rcd13ifvqb50","pricing_plan_id":"cebpf4jnsgd1na2vs0mg"},{"bike_id":"ae810b3b-d65f-48bf-bb34-40c842f7dc45","system_id":"levelo_inurba_marseille","lat":43.29631,"lon":5.37714,"is_reserved":false,"is_disabled":false,"rental_uris":{"android":"levelo://app?vid=ae810b3b-d65f-48bf-bb34-40c842f7dc45","ios":"levelo://app?vid=ae810b3b-d65f-48bf-bb34-40c842f7dc45"},"vehicle_type_id":"4","last_reported":1728738791,"current_range_meters":24800,"station_id":"ce4bgi92rcd13ifvqb90","pricing_plan_id":"cebpf4jnsgd1na2vs0mg"},{"bike_id":"3e5a3962-c6be-4850-9d7f-9b5a4d5455ec","system_id":"levelo_inurba_marseille","lat":43.31993,"lon":5.38142,"is_reserved":false,"is_disabled":false,"rental_uris":{"android":"levelo://app?vid=3e5a3962-c6be-4850-9d7f-9b5a4d5455ec","ios":"levelo://app?vid=3e5a3962-c6be-4850-9d7f-9b5a4d5455ec"},"vehicle_type_id":"4","last_reported":1728738791,"current_range_meters":29600,"station_id":"ce4bhr12rcd13ifvqhpg","pricing_plan_id":"cebpf4jnsgd1na2vs0mg"},{"bike_id":"b25409bc-df4d-476a-893e-c6a5838692b2","system_id":"levelo_inurba_marseille","lat":43.23195,"lon":5.35553,"is_reserved":false,"is_disabled":false,"rental_uris":{"android":"levelo://app?vid=b25409bc-df4d-476a-893e-c6a5838692b2","ios":"levelo://app?vid=b25409bc-df4d-476a-893e-c6a5838692b2"},"vehicle_type_id":"4","last_reported":1728738791,"current_range_meters":38800,"station_id":"ce4bhu92rcd13ifvqi70","pricing_plan_id":"cebpf4jnsgd1na2vs0mg"},{"bike_id":"379d6363-9152-4e84-bd42-6ec02dd02b54","system_id":"levelo_inurba_marseille","lat":43.31992,"lon":5.38146,"is_reserved":false,"is_disabled":false,"rental_uris":{"android":"levelo://app?vid=379d6363-9152-4e84-bd42-6ec02dd02b54","ios":"levelo://app?vid=379d6363-9152-4e84-bd42-6ec02dd02b54"},"vehicle_type_id":"4","last_reported":1728738791,"current_range_meters":37600,"station_id":"ce4bhr12rcd13ifvqhpg","pricing_plan_id":"cebpf4jnsgd1na2vs0mg"},{"bike_id":"8fb2b431-bcb9-46ba-80fb-e26e84592fc5","system_id":"levelo_inurba_marseille","lat":43.23188,"lon":5.35556,"is_reserved":false,"is_disabled":false,"rental_uris":{"android":"levelo://app?vid=8fb2b431-bcb9-46ba-80fb-e26e84592fc5","ios":"levelo://app?vid=8fb2b431-bcb9-46ba-80fb-e26e84592fc5"},"vehicle_type_id":"4","last_reported":1728738791,"current_range_meters":31200,"station_id":"ce4bhu92rcd13ifvqi70","pricing_plan_id":"cebpf4jnsgd1na2vs0mg"},{"bike_id":"a1d70c5f-f4ba-475f-b1b0-bddf9ce1b86b","system_id":"levelo_inurba_marseille","lat":43.29621,"lon":5.37152,"is_reserved":false,"is_disabled":false,"rental_uris":{"android":"levelo://app?vid=a1d70c5f-f4ba-475f-b1b0-bddf9ce1b86b","ios":"levelo://app?vid=a1d70c5f-f4ba-475f-b1b0-bddf9ce1b86b"},"vehicle_type_id":"4","last_reported":1728738791,"current_range_meters":16800,"station_id":"ce4bgnh2rcd13ifvqc0g","pricing_plan_id":"cebpf4jnsgd1na2vs0mg"},{"bike_id":"fa2a3aac-54f6-4821-a272-44d9b44dc0eb","system_id":"levelo_inurba_marseille","lat":43.23152,"lon":5.43701,"is_reserved":false,"is_disabled":false,"rental_uris":{"android":"levelo://app?vid=fa2a3aac-54f6-4821-a272-44d9b44dc0eb","ios":"levelo://app?vid=fa2a3aac-54f6-4821-a272-44d9b44dc0eb"},"vehicle_type_id":"4","last_reported":1728738791,"current_range_meters":25600,"station_id":"ce4bhmp2rcd13ifvqgog","pricing_plan_id":"cebpf4jnsgd1na2vs0mg"},{"bike_id":"e2f25126-29b7-4581-a4fe-9e458716fb1d","system_id":"levelo_inurba_marseille","lat":43.23955,"lon":5.36635,"is_reserved":false,"is_disabled":false,"rental_uris":{"android":"levelo://app?vid=e2f25126-29b7-4581-a4fe-9e458716fb1d","ios":"levelo://app?vid=e2f25126-29b7-4581-a4fe-9e458716fb1d"},"vehicle_type_id":"4","last_reported":1728738791,"current_range_meters":28400,"station_id":"ce4bhi12rcd13ifvqfp0","pricing_plan_id":"cebpf4jnsgd1na2vs0mg"},{"bike_id":"386afdab-5ca5-4bd2-984e-31a0a109f099","system_id":"levelo_inurba_marseille","lat":43.3014,"lon":5.37419,"is_reserved":false,"is_disabled":false,"rental_uris":{"android":"levelo://app?vid=386afdab-5ca5-4bd2-984e-31a0a109f099","ios":"levelo://app?vid=386afdab-5ca5-4bd2-984e-31a0a109f099"},"vehicle_type_id":"4","last_reported":1728738791,"current_range_meters":39200,"station_id":"ce4bgs92rcd13ifvqcc0","pricing_plan_id":"cebpf4jnsgd1na2vs0mg"},{"bike_id":"8dc8b5c8-f938-440d-b2c2-9a921dbd5488","system_id":"levelo_inurba_marseille","lat":43.26933,"lon":5.38911,"is_reserved":false,"is_disabled":false,"rental_uris":{"android":"levelo://app?vid=8dc8b5c8-f938-440d-b2c2-9a921dbd5488","ios":"levelo://app?vid=8dc8b5c8-f938-440d-b2c2-9a921dbd5488"},"vehicle_type_id":"4","last_reported":1728738791,"current_range_meters":38800,"station_id":"ce4bhhh2rcd13ifvqfl0","pricing_plan_id":"cebpf4jnsgd1na2vs0mg"},{"bike_id":"f9b31a72-0759-4f0a-8294-8811e9be3eae","system_id":"levelo_inurba_marseille","lat":43.29619,"lon":5.37723,"is_reserved":false,"is_disabled":false,"rental_uris":{"android":"levelo://app?vid=f9b31a72-0759-4f0a-8294-8811e9be3eae","ios":"levelo://app?vid=f9b31a72-0759-4f0a-8294-8811e9be3eae"},"vehicle_type_id":"4","last_reported":1728738791,"current_range_meters":30800,"station_id":"ce4bgi92rcd13ifvqb90","pricing_plan_id":"cebpf4jnsgd1na2vs0mg"},{"bike_id":"212023d1-fc7c-44f4-baf0-ec17ee91abdc","system_id":"levelo_inurba_marseille","lat":43.296151,"lon":5.377294,"is_reserved":false,"is_disabled":false,"rental_uris":{"android":"levelo://app?vid=212023d1-fc7c-44f4-baf0-ec17ee91abdc","ios":"levelo://app?vid=212023d1-fc7c-44f4-baf0-ec17ee91abdc"},"vehicle_type_id":"4","last_reported":1728738791,"current_range_meters":38000,"station_id":"ce4bgi92rcd13ifvqb90","pricing_plan_id":"cebpf4jnsgd1na2vs0mg"},{"bike_id":"dc9f9cea-ad2f-4298-9e59-4f4eac07ed0d","system_id":"levelo_inurba_marseille","lat":43.28695,"lon":5.37377,"is_reserved":false,"is_disabled":false,"rental_uris":{"android":"levelo://app?vid=dc9f9cea-ad2f-4298-9e59-4f4eac07ed0d","ios":"levelo://app?vid=dc9f9cea-ad2f-4298-9e59-4f4eac07ed0d"},"vehicle_type_id":"4","last_reported":1728738791,"current_range_meters":38400,"station_id":"ce4bh3p2rcd13ifvqdq0","pricing_plan_id":"cebpf4jnsgd1na2vs0mg"},{"bike_id":"a50e685b-3d89-4a09-8e5c-198fe006f41f","system_id":"levelo_inurba_marseille","lat":43.3171,"lon":5.43703,"is_reserved":false,"is_disabled":false,"rental_uris":{"android":"levelo://app?vid=a50e685b-3d89-4a09-8e5c-198fe006f41f","ios":"levelo://app?vid=a50e685b-3d89-4a09-8e5c-198fe006f41f"},"vehicle_type_id":"4","last_reported":1728738791,"current_range_meters":28400,"station_id":"ce4bhp92rcd13ifvqhcg","pricing_plan_id":"cebpf4jnsgd1na2vs0mg"},{"bike_id":"b3b2de45-6e13-4551-8667-b0149c47447a","system_id":"levelo_inurba_marseille","lat":43.23156,"lon":5.437,"is_reserved":false,"is_disabled":false,"rental_uris":{"android":"levelo://app?vid=b3b2de45-6e13-4551-8667-b0149c47447a","ios":"levelo://app?vid=b3b2de45-6e13-4551-8667-b0149c47447a"},"vehicle_type_id":"4","last_reported":1728738791,"current_range_meters":20800,"station_id":"ce4bhmp2rcd13ifvqgog","pricing_plan_id":"cebpf4jnsgd1na2vs0mg"},{"bike_id":"6529a589-59ee-4171-bc70-f73526dbba41","system_id":"levelo_inurba_marseille","lat":43.2961,"lon":5.37719,"is_reserved":false,"is_disabled":false,"rental_uris":{"android":"levelo://app?vid=6529a589-59ee-4171-bc70-f73526dbba41","ios":"levelo://app?vid=6529a589-59ee-4171-bc70-f73526dbba41"},"vehicle_type_id":"4","last_reported":1728738791,"current_range_meters":35600,"station_id":"ce4bgi92rcd13ifvqb90","pricing_plan_id":"cebpf4jnsgd1na2vs0mg"},{"bike_id":"64d3378c-e0ea-4570-8db3-f47dc1281eb5","system_id":"levelo_inurba_marseille","lat":43.24803,"lon":5.3745,"is_reserved":false,"is_disabled":false,"rental_uris":{"android":"levelo://app?vid=64d3378c-e0ea-4570-8db3-f47dc1281eb5","ios":"levelo://app?vid=64d3378c-e0ea-4570-8db3-f47dc1281eb5"},"vehicle_type_id":"4","last_reported":1728738791,"current_range_meters":10000,"station_id":"ce4bhgh2rcd13ifvqfb0","pricing_plan_id":"cebpf4jnsgd1na2vs0mg"},{"bike_id":"f49e2ac5-1b7e-432a-a7f7-e068048a75b0","system_id":"levelo_inurba_marseille","lat":43.284882,"lon":5.385516,"is_reserved":false,"is_disabled":false,"rental_uris":{"android":"levelo://app?vid=f49e2ac5-1b7e-432a-a7f7-e068048a75b0","ios":"levelo://app?vid=f49e2ac5-1b7e-432a-a7f7-e068048a75b0"},"vehicle_type_id":"4","last_reported":1728738791,"current_range_meters":38000,"station_id":"ce4bh8p2rcd13ifvqeb0","pricing_plan_id":"cebpf4jnsgd1na2vs0mg"},{"bike_id":"c3214ad5-6c98-4a44-931f-b79669a3af9e","system_id":"levelo_inurba_marseille","lat":43.23189,"lon":5.39979,"is_reserved":false,"is_disabled":false,"rental_uris":{"android":"levelo://app?vid=c3214ad5-6c98-4a44-931f-b79669a3af9e","ios":"levelo://app?vid=c3214ad5-6c98-4a44-931f-b79669a3af9e"},"vehicle_type_id":"4","last_reported":1728738791,"current_range_meters":27200,"station_id":"ce4bhn12rcd13ifvqgqg","pricing_plan_id":"cebpf4jnsgd1na2vs0mg"},{"bike_id":"7e5dff7c-5c8d-4cf6-b259-8b15591f4207","system_id":"levelo_inurba_marseille","lat":43.29616,"lon":5.37719,"is_reserved":false,"is_disabled":false,"rental_uris":{"android":"levelo://app?vid=7e5dff7c-5c8d-4cf6-b259-8b15591f4207","ios":"levelo://app?vid=7e5dff7c-5c8d-4cf6-b259-8b15591f4207"},"vehicle_type_id":"4","last_reported":1728738791,"current_range_meters":28000,"station_id":"ce4bgi92rcd13ifvqb90","pricing_plan_id":"cebpf4jnsgd1na2vs0mg"},{"bike_id":"1506cd8e-af44-453c-add3-c6941dda8bde","system_id":"levelo_inurba_marseille","lat":43.29533,"lon":5.38544,"is_reserved":false,"is_disabled":false,"rental_uris":{"android":"levelo://app?vid=1506cd8e-af44-453c-add3-c6941dda8bde","ios":"levelo://app?vid=1506cd8e-af44-453c-add3-c6941dda8bde"},"vehicle_type_id":"4","last_reported":1728738791,"current_range_meters":27200,"station_id":"ce4bgih2rcd13ifvqba0","pricing_plan_id":"cebpf4jnsgd1na2vs0mg"},{"bike_id":"19e0e40e-63be-4804-b3b8-2787230e9bca","system_id":"levelo_inurba_marseille","lat":43.29626,"lon":5.37174,"is_reserved":false,"is_disabled":false,"rental_uris":{"android":"levelo://app?vid=19e0e40e-63be-4804-b3b8-2787230e9bca","ios":"levelo://app?vid=19e0e40e-63be-4804-b3b8-2787230e9bca"},"vehicle_type_id":"4","last_reported":1728738791,"current_range_meters":38800,"station_id":"ce4bgnh2rcd13ifvqc0g","pricing_plan_id":"cebpf4jnsgd1na2vs0mg"},{"bike_id":"32f38e17-8f39-4a4a-80bd-feac0bc7b127","system_id":"levelo_inurba_marseille","lat":43.26953,"lon":5.38627,"is_reserved":false,"is_disabled":false,"rental_uris":{"android":"levelo://app?vid=32f38e17-8f39-4a4a-80bd-feac0bc7b127","ios":"levelo://app?vid=32f38e17-8f39-4a4a-80bd-feac0bc7b127"},"vehicle_type_id":"4","last_reported":1728738791,"current_range_meters":39200,"station_id":"ce4bhh92rcd13ifvqfh0","pricing_plan_id":"cebpf4jnsgd1na2vs0mg"},{"bike_id":"a3b990e1-d55b-440c-9480-31946d2d9e8e","system_id":"levelo_inurba_marseille","lat":43.29782,"lon":5.37098,"is_reserved":false,"is_disabled":false,"rental_uris":{"android":"levelo://app?vid=a3b990e1-d55b-440c-9480-31946d2d9e8e","ios":"levelo://app?vid=a3b990e1-d55b-440c-9480-31946d2d9e8e"},"vehicle_type_id":"4","last_reported":1728738791,"current_range_meters":38000,"station_id":"ce4bgop2rcd13ifvqc1g","pricing_plan_id":"cebpf4jnsgd1na2vs0mg"},{"bike_id":"5e4d1d45-c1e1-4856-9b7a-645348748a90","system_id":"levelo_inurba_marseille","lat":43.29375,"lon":5.3784,"is_reserved":false,"is_disabled":false,"rental_uris":{"android":"levelo://app?vid=5e4d1d45-c1e1-4856-9b7a-645348748a90","ios":"levelo://app?vid=5e4d1d45-c1e1-4856-9b7a-645348748a90"},"vehicle_type_id":"4","last_reported":1728738791,"current_range_meters":36800,"station_id":"ce4bgjh2rcd13ifvqbf0","pricing_plan_id":"cebpf4jnsgd1na2vs0mg"},{"bike_id":"483c63aa-0fc8-4f62-8281-9c4e5dcc3c87","system_id":"levelo_inurba_marseille","lat":43.27995,"lon":5.40006,"is_reserved":false,"is_disabled":false,"rental_uris":{"android":"levelo://app?vid=483c63aa-0fc8-4f62-8281-9c4e5dcc3c87","ios":"levelo://app?vid=483c63aa-0fc8-4f62-8281-9c4e5dcc3c87"},"vehicle_type_id":"4","last_reported":1728738791,"current_range_meters":28000,"station_id":"ce4bho92rcd13ifvqh4g","pricing_plan_id":"cebpf4jnsgd1na2vs0mg"},{"bike_id":"4f8e4e88-3d7b-4dbb-99a8-76c577f50f2d","system_id":"levelo_inurba_marseille","lat":43.30542,"lon":5.36524,"is_reserved":false,"is_disabled":false,"rental_uris":{"android":"levelo://app?vid=4f8e4e88-3d7b-4dbb-99a8-76c577f50f2d","ios":"levelo://app?vid=4f8e4e88-3d7b-4dbb-99a8-76c577f50f2d"},"vehicle_type_id":"4","last_reported":1728738791,"current_range_meters":31200,"station_id":"ce4bgs12rcd13ifvqcag","pricing_plan_id":"cebpf4jnsgd1na2vs0mg"},{"bike_id":"b08c9ad8-76eb-4831-8134-b261ecca4625","system_id":"levelo_inurba_marseille","lat":43.3043,"lon":5.39745,"is_reserved":false,"is_disabled":false,"rental_uris":{"android":"levelo://app?vid=b08c9ad8-76eb-4831-8134-b261ecca4625","ios":"levelo://app?vid=b08c9ad8-76eb-4831-8134-b261ecca4625"},"vehicle_type_id":"4","last_reported":1728738791,"current_range_meters":16000,"station_id":"ce4bh092rcd13ifvqd20","pricing_plan_id":"cebpf4jnsgd1na2vs0mg"},{"bike_id":"c200c17d-7c78-4d6c-b25f-f691e2bd33c2","system_id":"levelo_inurba_marseille","lat":43.278122,"lon":5.407141,"is_reserved":false,"is_disabled":false,"rental_uris":{"android":"levelo://app?vid=c200c17d-7c78-4d6c-b25f-f691e2bd33c2","ios":"levelo://app?vid=c200c17d-7c78-4d6c-b25f-f691e2bd33c2"},"vehicle_type_id":"4","last_reported":1728738791,"current_range_meters":30000,"station_id":"ce4bhnh2rcd13ifvqgtg","pricing_plan_id":"cebpf4jnsgd1na2vs0mg"},{"bike_id":"284fdfc0-63a6-4d32-890e-0c60783171c2","system_id":"levelo_inurba_marseille","lat":43.28859,"lon":5.39306,"is_reserved":false,"is_disabled":false,"rental_uris":{"android":"levelo://app?vid=284fdfc0-63a6-4d32-890e-0c60783171c2","ios":"levelo://app?vid=284fdfc0-63a6-4d32-890e-0c60783171c2"},"vehicle_type_id":"4","last_reported":1728738791,"current_range_meters":10800,"station_id":"ce4bh2p2rcd13ifvqdi0","pricing_plan_id":"cebpf4jnsgd1na2vs0mg"},{"bike_id":"c5161752-a4e2-454f-8fb8-26d44c035df3","system_id":"levelo_inurba_marseille","lat":43.26205,"lon":5.37921,"is_reserved":false,"is_disabled":false,"rental_uris":{"android":"levelo://app?vid=c5161752-a4e2-454f-8fb8-26d44c035df3","ios":"levelo://app?vid=c5161752-a4e2-454f-8fb8-26d44c035df3"},"vehicle_type_id":"4","last_reported":1728738791,"current_range_meters":28400,"station_id":"ce4bhjp2rcd13ifvqg90","pricing_plan_id":"cebpf4jnsgd1na2vs0mg"},{"bike_id":"bfd553b8-f090-4a6a-9aa9-cf863efe5395","system_id":"levelo_inurba_marseille","lat":43.31687,"lon":5.40475,"is_reserved":false,"is_disabled":false,"rental_uris":{"android":"levelo://app?vid=bfd553b8-f090-4a6a-9aa9-cf863efe5395","ios":"levelo://app?vid=bfd553b8-f090-4a6a-9aa9-cf863efe5395"},"vehicle_type_id":"4","last_reported":1728738791,"current_range_meters":12000,"station_id":"ce4bh012rcd13ifvqd00","pricing_plan_id":"cebpf4jnsgd1na2vs0mg"},{"bike_id":"092b0836-7fc6-4398-a8ce-013142346652","system_id":"levelo_inurba_marseille","lat":43.29549,"lon":5.42283,"is_reserved":false,"is_disabled":false,"rental_uris":{"android":"levelo://app?vid=092b0836-7fc6-4398-a8ce-013142346652","ios":"levelo://app?vid=092b0836-7fc6-4398-a8ce-013142346652"},"vehicle_type_id":"4","last_reported":1728738791,"current_range_meters":16800,"station_id":"ce4bhph2rcd13ifvqhdg","pricing_plan_id":"cebpf4jnsgd1na2vs0mg"},{"bike_id":"0678d85e-be63-47ec-a8fa-682520a8063f","system_id":"levelo_inurba_marseille","lat":43.28718,"lon":5.36081,"is_reserved":false,"is_disabled":false,"rental_uris":{"android":"levelo://app?vid=0678d85e-be63-47ec-a8fa-682520a8063f","ios":"levelo://app?vid=0678d85e-be63-47ec-a8fa-682520a8063f"},"vehicle_type_id":"4","last_reported":1728738791,"current_range_meters":32000,"station_id":"cki0cbj6b192h4jlfktg","pricing_plan_id":"cebpf4jnsgd1na2vs0mg"},{"bike_id":"772bebc7-5a4e-4049-a77a-76f6e5a5c5c6","system_id":"levelo_inurba_marseille","lat":43.28471,"lon":5.38416,"is_reserved":false,"is_disabled":false,"rental_uris":{"android":"levelo://app?vid=772bebc7-5a4e-4049-a77a-76f6e5a5c5c6","ios":"levelo://app?vid=772bebc7-5a4e-4049-a77a-76f6e5a5c5c6"},"vehicle_type_id":"4","last_reported":1728738791,"current_range_meters":33200,"station_id":"ce4bh512rcd13ifvqe3g","pricing_plan_id":"cebpf4jnsgd1na2vs0mg"},{"bike_id":"6d9b905a-4715-4ad3-a082-161d5fcc64b2","system_id":"levelo_inurba_marseille","lat":43.3031,"lon":5.36897,"is_reserved":false,"is_disabled":false,"rental_uris":{"android":"levelo://app?vid=6d9b905a-4715-4ad3-a082-161d5fcc64b2","ios":"levelo://app?vid=6d9b905a-4715-4ad3-a082-161d5fcc64b2"},"vehicle_type_id":"4","last_reported":1728738791,"current_range_meters":34000,"station_id":"ce4bgqh2rcd13ifvqc5g","pricing_plan_id":"cebpf4jnsgd1na2vs0mg"},{"bike_id":"8f5ac828-8925-4526-9cfa-f8205da27bb2","system_id":"levelo_inurba_marseille","lat":43.23188,"lon":5.35547,"is_reserved":false,"is_disabled":false,"rental_uris":{"android":"levelo://app?vid=8f5ac828-8925-4526-9cfa-f8205da27bb2","ios":"levelo://app?vid=8f5ac828-8925-4526-9cfa-f8205da27bb2"},"vehicle_type_id":"4","last_reported":1728738791,"current_range_meters":32800,"station_id":"ce4bhu92rcd13ifvqi70","pricing_plan_id":"cebpf4jnsgd1na2vs0mg"},{"bike_id":"c9ac7238-0b2c-40e0-a106-260f91f01c7e","system_id":"levelo_inurba_marseille","lat":43.30263,"lon":5.37719,"is_reserved":false,"is_disabled":false,"rental_uris":{"android":"levelo://app?vid=c9ac7238-0b2c-40e0-a106-260f91f01c7e","ios":"levelo://app?vid=c9ac7238-0b2c-40e0-a106-260f91f01c7e"},"vehicle_type_id":"4","last_reported":1728738791,"current_range_meters":30800,"station_id":"ce4bguh2rcd13ifvqcj0","pricing_plan_id":"cebpf4jnsgd1na2vs0mg"},{"bike_id":"ba683a66-bc5f-42b6-85bb-0f00dad8b260","system_id":"levelo_inurba_marseille","lat":43.26926,"lon":5.38909,"is_reserved":false,"is_disabled":false,"rental_uris":{"android":"levelo://app?vid=ba683a66-bc5f-42b6-85bb-0f00dad8b260","ios":"levelo://app?vid=ba683a66-bc5f-42b6-85bb-0f00dad8b260"},"vehicle_type_id":"4","last_reported":1728738791,"current_range_meters":39200,"station_id":"ce4bhhh2rcd13ifvqfl0","pricing_plan_id":"cebpf4jnsgd1na2vs0mg"},{"bike_id":"247429e2-e54a-4e87-97f9-657267224371","system_id":"levelo_inurba_marseille","lat":43.25506,"lon":5.37651,"is_reserved":false,"is_disabled":false,"rental_uris":{"android":"levelo://app?vid=247429e2-e54a-4e87-97f9-657267224371","ios":"levelo://app?vid=247429e2-e54a-4e87-97f9-657267224371"},"vehicle_type_id":"4","last_reported":1728738791,"current_range_meters":36400,"station_id":"ce4bhh12rcd13ifvqff0","pricing_plan_id":"cebpf4jnsgd1na2vs0mg"},{"bike_id":"dc4ed48c-9948-411b-a552-5449f72726e1","system_id":"levelo_inurba_marseille","lat":43.27813,"lon":5.40711,"is_reserved":false,"is_disabled":false,"rental_uris":{"android":"levelo://app?vid=dc4ed48c-9948-411b-a552-5449f72726e1","ios":"levelo://app?vid=dc4ed48c-9948-411b-a552-5449f72726e1"},"vehicle_type_id":"4","last_reported":1728738791,"current_range_meters":24400,"station_id":"ce4bhnh2rcd13ifvqgtg","pricing_plan_id":"cebpf4jnsgd1na2vs0mg"},{"bike_id":"aad69708-28ac-43e6-945e-619f5a7c6bfd","system_id":"levelo_inurba_marseille","lat":43.33781,"lon":5.37443,"is_reserved":false,"is_disabled":false,"rental_uris":{"android":"levelo://app?vid=aad69708-28ac-43e6-945e-619f5a7c6bfd","ios":"levelo://app?vid=aad69708-28ac-43e6-945e-619f5a7c6bfd"},"vehicle_type_id":"4","last_reported":1728738791,"current_range_meters":38000,"station_id":"","pricing_plan_id":"cebpf4jnsgd1na2vs0mg"},{"bike_id":"5f16d64a-6e79-4871-83fb-dcbb9016756d","system_id":"levelo_inurba_marseille","lat":43.2603,"lon":5.37548,"is_reserved":false,"is_disabled":false,"rental_uris":{"android":"levelo://app?vid=5f16d64a-6e79-4871-83fb-dcbb9016756d","ios":"levelo://app?vid=5f16d64a-6e79-4871-83fb-dcbb9016756d"},"vehicle_type_id":"4","last_reported":1728738791,"current_range_meters":10000,"station_id":"ce4bhgh2rcd13ifvqfa0","pricing_plan_id":"cebpf4jnsgd1na2vs0mg"},{"bike_id":"815a6c89-9015-456c-a5be-f7773bb5e264","system_id":"levelo_inurba_marseille","lat":43.29619,"lon":5.37153,"is_reserved":false,"is_disabled":false,"rental_uris":{"android":"levelo://app?vid=815a6c89-9015-456c-a5be-f7773bb5e264","ios":"levelo://app?vid=815a6c89-9015-456c-a5be-f7773bb5e264"},"vehicle_type_id":"4","last_reported":1728738791,"current_range_meters":32000,"station_id":"ce4bgnh2rcd13ifvqc0g","pricing_plan_id":"cebpf4jnsgd1na2vs0mg"},{"bike_id":"6da9c910-6f28-4d81-be0d-14a5d7c90caf","system_id":"levelo_inurba_marseille","lat":43.29982,"lon":5.37173,"is_reserved":false,"is_disabled":false,"rental_uris":{"android":"levelo://app?vid=6da9c910-6f28-4d81-be0d-14a5d7c90caf","ios":"levelo://app?vid=6da9c910-6f28-4d81-be0d-14a5d7c90caf"},"vehicle_type_id":"4","last_reported":1728738791,"current_range_meters":9200,"station_id":"ce4bgr92rcd13ifvqc7g","pricing_plan_id":"cebpf4jnsgd1na2vs0mg"},{"bike_id":"d86cc907-c6ce-4044-b204-270be9656b02","system_id":"levelo_inurba_marseille","lat":43.28922,"lon":5.36625,"is_reserved":false,"is_disabled":false,"rental_uris":{"android":"levelo://app?vid=d86cc907-c6ce-4044-b204-270be9656b02","ios":"levelo://app?vid=d86cc907-c6ce-4044-b204-270be9656b02"},"vehicle_type_id":"4","last_reported":1728738791,"current_range_meters":38000,"station_id":"ce4bhap2rcd13ifvqek0","pricing_plan_id":"cebpf4jnsgd1na2vs0mg"},{"bike_id":"51db7613-d741-4eee-9ab2-4b355384e9cc","system_id":"levelo_inurba_marseille","lat":43.287109,"lon":5.379277,"is_reserved":false,"is_disabled":false,"rental_uris":{"android":"levelo://app?vid=51db7613-d741-4eee-9ab2-4b355384e9cc","ios":"levelo://app?vid=51db7613-d741-4eee-9ab2-4b355384e9cc"},"vehicle_type_id":"4","last_reported":1728738791,"current_range_meters":21600,"station_id":"ce4bh9p2rcd13ifvqec0","pricing_plan_id":"cebpf4jnsgd1na2vs0mg"},{"bike_id":"65e3f0e4-9564-464e-af9b-959f97352d44","system_id":"levelo_inurba_marseille","lat":43.29056,"lon":5.37157,"is_reserved":false,"is_disabled":false,"rental_uris":{"android":"levelo://app?vid=65e3f0e4-9564-464e-af9b-959f97352d44","ios":"levelo://app?vid=65e3f0e4-9564-464e-af9b-959f97352d44"},"vehicle_type_id":"4","last_reported":1728738791,"current_range_meters":38400,"station_id":"ce4bh5p2rcd13ifvqe4g","pricing_plan_id":"cebpf4jnsgd1na2vs0mg"},{"bike_id":"8f26d5b4-90e8-4e01-87a6-564b6ae9185b","system_id":"levelo_inurba_marseille","lat":43.300537,"lon":5.374248,"is_reserved":false,"is_disabled":false,"rental_uris":{"android":"levelo://app?vid=8f26d5b4-90e8-4e01-87a6-564b6ae9185b","ios":"levelo://app?vid=8f26d5b4-90e8-4e01-87a6-564b6ae9185b"},"vehicle_type_id":"4","last_reported":1728738791,"current_range_meters":20000,"station_id":"ce4bgs92rcd13ifvqcc0","pricing_plan_id":"cebpf4jnsgd1na2vs0mg"},{"bike_id":"8509fa5d-c6d9-4cb2-b4b1-4f2065b2666e","system_id":"levelo_inurba_marseille","lat":43.2834,"lon":5.410551,"is_reserved":false,"is_disabled":false,"rental_uris":{"android":"levelo://app?vid=8509fa5d-c6d9-4cb2-b4b1-4f2065b2666e","ios":"levelo://app?vid=8509fa5d-c6d9-4cb2-b4b1-4f2065b2666e"},"vehicle_type_id":"4","last_reported":1728738791,"current_range_meters":4400,"station_id":"","pricing_plan_id":"cebpf4jnsgd1na2vs0mg"},{"bike_id":"c81fe518-cf00-4b26-a3a2-c118bd055894","system_id":"levelo_inurba_marseille","lat":43.24387,"lon":5.37056,"is_reserved":false,"is_disabled":false,"rental_uris":{"android":"levelo://app?vid=c81fe518-cf00-4b26-a3a2-c118bd055894","ios":"levelo://app?vid=c81fe518-cf00-4b26-a3a2-c118bd055894"},"vehicle_type_id":"4","last_reported":1728738791,"current_range_meters":23200,"station_id":"ce4bhhh2rcd13ifvqfk0","pricing_plan_id":"cebpf4jnsgd1na2vs0mg"},{"bike_id":"c2156c9b-de5c-402c-bbbf-eb110ef4c880","system_id":"levelo_inurba_marseille","lat":43.25581,"lon":5.38231,"is_reserved":false,"is_disabled":false,"rental_uris":{"android":"levelo://app?vid=c2156c9b-de5c-402c-bbbf-eb110ef4c880","ios":"levelo://app?vid=c2156c9b-de5c-402c-bbbf-eb110ef4c880"},"vehicle_type_id":"4","last_reported":1728738791,"current_range_meters":7200,"station_id":"ce4bhih2rcd13ifvqfs0","pricing_plan_id":"cebpf4jnsgd1na2vs0mg"},{"bike_id":"e075c0a3-4437-4850-a2ce-3dadd21e2288","system_id":"levelo_inurba_marseille","lat":43.24387,"lon":5.37065,"is_reserved":false,"is_disabled":false,"rental_uris":{"android":"levelo://app?vid=e075c0a3-4437-4850-a2ce-3dadd21e2288","ios":"levelo://app?vid=e075c0a3-4437-4850-a2ce-3dadd21e2288"},"vehicle_type_id":"4","last_reported":1728738791,"current_range_meters":27600,"station_id":"ce4bhhh2rcd13ifvqfk0","pricing_plan_id":"cebpf4jnsgd1na2vs0mg"},{"bike_id":"15554b25-b36a-4d42-bcbc-b4bb1381fc06","system_id":"levelo_inurba_marseille","lat":43.28473,"lon":5.38416,"is_reserved":false,"is_disabled":false,"rental_uris":{"android":"levelo://app?vid=15554b25-b36a-4d42-bcbc-b4bb1381fc06","ios":"levelo://app?vid=15554b25-b36a-4d42-bcbc-b4bb1381fc06"},"vehicle_type_id":"4","last_reported":1728738791,"current_range_meters":23200,"station_id":"ce4bh512rcd13ifvqe3g","pricing_plan_id":"cebpf4jnsgd1na2vs0mg"},{"bike_id":"56940520-2c0f-4c8e-a95e-3ce4a2ec9191","system_id":"levelo_inurba_marseille","lat":43.23194,"lon":5.35551,"is_reserved":false,"is_disabled":false,"rental_uris":{"android":"levelo://app?vid=56940520-2c0f-4c8e-a95e-3ce4a2ec9191","ios":"levelo://app?vid=56940520-2c0f-4c8e-a95e-3ce4a2ec9191"},"vehicle_type_id":"4","last_reported":1728738791,"current_range_meters":10000,"station_id":"ce4bhu92rcd13ifvqi70","pricing_plan_id":"cebpf4jnsgd1na2vs0mg"},{"bike_id":"895d853d-31c2-4754-a7e6-d25da7504b6a","system_id":"levelo_inurba_marseille","lat":43.24177,"lon":5.39725,"is_reserved":false,"is_disabled":false,"rental_uris":{"android":"levelo://app?vid=895d853d-31c2-4754-a7e6-d25da7504b6a","ios":"levelo://app?vid=895d853d-31c2-4754-a7e6-d25da7504b6a"},"vehicle_type_id":"4","last_reported":1728738791,"current_range_meters":32800,"station_id":"ce4bhn12rcd13ifvqgpg","pricing_plan_id":"cebpf4jnsgd1na2vs0mg"},{"bike_id":"27311a75-ebb6-43d6-9fb5-f3ba72a10e0e","system_id":"levelo_inurba_marseille","lat":43.2989,"lon":5.4366,"is_reserved":false,"is_disabled":false,"rental_uris":{"android":"levelo://app?vid=27311a75-ebb6-43d6-9fb5-f3ba72a10e0e","ios":"levelo://app?vid=27311a75-ebb6-43d6-9fb5-f3ba72a10e0e"},"vehicle_type_id":"4","last_reported":1728738791,"current_range_meters":24000,"station_id":"ce4bhpp2rcd13ifvqhfg","pricing_plan_id":"cebpf4jnsgd1na2vs0mg"},{"bike_id":"fe1875d6-b5e8-483b-a09f-676a4c068cfc","system_id":"levelo_inurba_marseille","lat":43.31695,"lon":5.40449,"is_reserved":false,"is_disabled":false,"rental_uris":{"android":"levelo://app?vid=fe1875d6-b5e8-483b-a09f-676a4c068cfc","ios":"levelo://app?vid=fe1875d6-b5e8-483b-a09f-676a4c068cfc"},"vehicle_type_id":"4","last_reported":1728738791,"current_range_meters":8800,"station_id":"ce4bh012rcd13ifvqd00","pricing_plan_id":"cebpf4jnsgd1na2vs0mg"},{"bike_id":"6d9df09d-d75b-4bd5-95b7-d1ac21001917","system_id":"levelo_inurba_marseille","lat":43.27804,"lon":5.40714,"is_reserved":false,"is_disabled":false,"rental_uris":{"android":"levelo://app?vid=6d9df09d-d75b-4bd5-95b7-d1ac21001917","ios":"levelo://app?vid=6d9df09d-d75b-4bd5-95b7-d1ac21001917"},"vehicle_type_id":"4","last_reported":1728738791,"current_range_meters":38800,"station_id":"ce4bhnh2rcd13ifvqgtg","pricing_plan_id":"cebpf4jnsgd1na2vs0mg"},{"bike_id":"07cfd4fd-4c9f-4a22-98d2-86f13933e51d","system_id":"levelo_inurba_marseille","lat":43.29552,"lon":5.42302,"is_reserved":false,"is_disabled":false,"rental_uris":{"android":"levelo://app?vid=07cfd4fd-4c9f-4a22-98d2-86f13933e51d","ios":"levelo://app?vid=07cfd4fd-4c9f-4a22-98d2-86f13933e51d"},"vehicle_type_id":"4","last_reported":1728738791,"current_range_meters":9600,"station_id":"ce4bhph2rcd13ifvqhdg","pricing_plan_id":"cebpf4jnsgd1na2vs0mg"},{"bike_id":"3041ad6b-3573-4384-9709-e1e192abea4f","system_id":"levelo_inurba_marseille","lat":43.28006,"lon":5.4001,"is_reserved":false,"is_disabled":false,"rental_uris":{"android":"levelo://app?vid=3041ad6b-3573-4384-9709-e1e192abea4f","ios":"levelo://app?vid=3041ad6b-3573-4384-9709-e1e192abea4f"},"vehicle_type_id":"4","last_reported":1728738791,"current_range_meters":36000,"station_id":"ce4bho92rcd13ifvqh4g","pricing_plan_id":"cebpf4jnsgd1na2vs0mg"},{"bike_id":"9aeefaa1-039e-45ae-87cb-caae5a9d1902","system_id":"levelo_inurba_marseille","lat":43.31223,"lon":5.36856,"is_reserved":false,"is_disabled":false,"rental_uris":{"android":"levelo://app?vid=9aeefaa1-039e-45ae-87cb-caae5a9d1902","ios":"levelo://app?vid=9aeefaa1-039e-45ae-87cb-caae5a9d1902"},"vehicle_type_id":"4","last_reported":1728738791,"current_range_meters":38800,"station_id":"ce4bgl92rcd13ifvqbq0","pricing_plan_id":"cebpf4jnsgd1na2vs0mg"},{"bike_id":"a174c585-c322-46e0-acd3-7da7768d5771","system_id":"levelo_inurba_marseille","lat":43.295166,"lon":5.42253,"is_reserved":false,"is_disabled":false,"rental_uris":{"android":"levelo://app?vid=a174c585-c322-46e0-acd3-7da7768d5771","ios":"levelo://app?vid=a174c585-c322-46e0-acd3-7da7768d5771"},"vehicle_type_id":"4","last_reported":1728738791,"current_range_meters":30400,"station_id":"ce4bhph2rcd13ifvqhdg","pricing_plan_id":"cebpf4jnsgd1na2vs0mg"},{"bike_id":"596a3c28-051e-4ed8-abc1-4251f4e9fe00","system_id":"levelo_inurba_marseille","lat":43.25813,"lon":5.39425,"is_reserved":false,"is_disabled":false,"rental_uris":{"android":"levelo://app?vid=596a3c28-051e-4ed8-abc1-4251f4e9fe00","ios":"levelo://app?vid=596a3c28-051e-4ed8-abc1-4251f4e9fe00"},"vehicle_type_id":"4","last_reported":1728738791,"current_range_meters":22000,"station_id":"ce4bhip2rcd13ifvqft0","pricing_plan_id":"cebpf4jnsgd1na2vs0mg"},{"bike_id":"046b4021-8e5d-430a-a9ac-420e19eaab79","system_id":"levelo_inurba_marseille","lat":43.3053,"lon":5.36539,"is_reserved":false,"is_disabled":false,"rental_uris":{"android":"levelo://app?vid=046b4021-8e5d-430a-a9ac-420e19eaab79","ios":"levelo://app?vid=046b4021-8e5d-430a-a9ac-420e19eaab79"},"vehicle_type_id":"4","last_reported":1728738791,"current_range_meters":39200,"station_id":"ce4bgs12rcd13ifvqcag","pricing_plan_id":"cebpf4jnsgd1na2vs0mg"},{"bike_id":"f0aa32d8-4ddd-496a-9571-e8bae9de7c44","system_id":"levelo_inurba_marseille","lat":43.27155,"lon":5.38593,"is_reserved":false,"is_disabled":false,"rental_uris":{"android":"levelo://app?vid=f0aa32d8-4ddd-496a-9571-e8bae9de7c44","ios":"levelo://app?vid=f0aa32d8-4ddd-496a-9571-e8bae9de7c44"},"vehicle_type_id":"4","last_reported":1728738791,"current_range_meters":15200,"station_id":"","pricing_plan_id":"cebpf4jnsgd1na2vs0mg"},{"bike_id":"3b2e55c3-662a-40b8-9774-1a39486344eb","system_id":"levelo_inurba_marseille","lat":43.32535,"lon":5.41448,"is_reserved":false,"is_disabled":false,"rental_uris":{"android":"levelo://app?vid=3b2e55c3-662a-40b8-9774-1a39486344eb","ios":"levelo://app?vid=3b2e55c3-662a-40b8-9774-1a39486344eb"},"vehicle_type_id":"4","last_reported":1728738791,"current_range_meters":5600,"station_id":"ce4bhq12rcd13ifvqhhg","pricing_plan_id":"cebpf4jnsgd1na2vs0mg"},{"bike_id":"a524f857-a6d9-41c1-a758-b0ae0cec463d","system_id":"levelo_inurba_marseille","lat":43.28852,"lon":5.35857,"is_reserved":false,"is_disabled":false,"rental_uris":{"android":"levelo://app?vid=a524f857-a6d9-41c1-a758-b0ae0cec463d","ios":"levelo://app?vid=a524f857-a6d9-41c1-a758-b0ae0cec463d"},"vehicle_type_id":"4","last_reported":1728738791,"current_range_meters":9600,"station_id":"ce4bhb12rcd13ifvqem0","pricing_plan_id":"cebpf4jnsgd1na2vs0mg"},{"bike_id":"7b8b9ab6-4bfa-4231-b390-c586e03f722b","system_id":"levelo_inurba_marseille","lat":43.25864,"lon":5.39905,"is_reserved":false,"is_disabled":false,"rental_uris":{"android":"levelo://app?vid=7b8b9ab6-4bfa-4231-b390-c586e03f722b","ios":"levelo://app?vid=7b8b9ab6-4bfa-4231-b390-c586e03f722b"},"vehicle_type_id":"4","last_reported":1728738791,"current_range_meters":32000,"station_id":"ce4bhl92rcd13ifvqghg","pricing_plan_id":"cebpf4jnsgd1na2vs0mg"},{"bike_id":"3d99cfee-6423-4f9e-b86f-7e100a0262ee","system_id":"levelo_inurba_marseille","lat":43.30308,"lon":5.36898,"is_reserved":false,"is_disabled":false,"rental_uris":{"android":"levelo://app?vid=3d99cfee-6423-4f9e-b86f-7e100a0262ee","ios":"levelo://app?vid=3d99cfee-6423-4f9e-b86f-7e100a0262ee"},"vehicle_type_id":"4","last_reported":1728738791,"current_range_meters":15200,"station_id":"ce4bgqh2rcd13ifvqc5g","pricing_plan_id":"cebpf4jnsgd1na2vs0mg"},{"bike_id":"72fa6445-d318-4eab-b98f-eb6a89d5c773","system_id":"levelo_inurba_marseille","lat":43.31707,"lon":5.43701,"is_reserved":false,"is_disabled":false,"rental_uris":{"android":"levelo://app?vid=72fa6445-d318-4eab-b98f-eb6a89d5c773","ios":"levelo://app?vid=72fa6445-d318-4eab-b98f-eb6a89d5c773"},"vehicle_type_id":"4","last_reported":1728738791,"current_range_meters":9200,"station_id":"ce4bhp92rcd13ifvqhcg","pricing_plan_id":"cebpf4jnsgd1na2vs0mg"},{"bike_id":"238e03cb-2d0f-490f-b701-2b47aa7b8da9","system_id":"levelo_inurba_marseille","lat":43.29617,"lon":5.37712,"is_reserved":false,"is_disabled":false,"rental_uris":{"android":"levelo://app?vid=238e03cb-2d0f-490f-b701-2b47aa7b8da9","ios":"levelo://app?vid=238e03cb-2d0f-490f-b701-2b47aa7b8da9"},"vehicle_type_id":"4","last_reported":1728738791,"current_range_meters":37600,"station_id":"ce4bgi92rcd13ifvqb90","pricing_plan_id":"cebpf4jnsgd1na2vs0mg"},{"bike_id":"ed3283e1-f33d-4064-9c21-30dfa73ca494","system_id":"levelo_inurba_marseille","lat":43.25505,"lon":5.3765,"is_reserved":false,"is_disabled":false,"rental_uris":{"android":"levelo://app?vid=ed3283e1-f33d-4064-9c21-30dfa73ca494","ios":"levelo://app?vid=ed3283e1-f33d-4064-9c21-30dfa73ca494"},"vehicle_type_id":"4","last_reported":1728738791,"current_range_meters":30400,"station_id":"ce4bhh12rcd13ifvqff0","pricing_plan_id":"cebpf4jnsgd1na2vs0mg"},{"bike_id":"cff696eb-07a6-409d-8ecb-d3b16b93fff1","system_id":"levelo_inurba_marseille","lat":43.297076,"lon":5.377305,"is_reserved":false,"is_disabled":false,"rental_uris":{"android":"levelo://app?vid=cff696eb-07a6-409d-8ecb-d3b16b93fff1","ios":"levelo://app?vid=cff696eb-07a6-409d-8ecb-d3b16b93fff1"},"vehicle_type_id":"4","last_reported":1728738791,"current_range_meters":16000,"station_id":"ce4bgkh2rcd13ifvqbl0","pricing_plan_id":"cebpf4jnsgd1na2vs0mg"},