{"last_updated":1769588309,"ttl":60,"version":"2.2","data":{"bikes":[{"bike_id":"4182a78b-f81a-4339-a5bf-fd0c809cb67c","system_id":"levelo_inurba_marseille","lat":43.2417,"lon":5.36436,"is_reserved":false,"is_disabled":false,"rental_uris":{"android":"levelo://app?vid=4182a78b-f81a-4339-a5bf-fd0c809cb67c","ios":"levelo://app?vid=4182a78b-f81a-4339-a5bf-fd0c809cb67c"},"vehicle_type_id":"4","last_reported":1769588309,"current_range_meters":2800,"station_id":"cpo36qri1sfpv3e86is0","pricing_plan_id":"cebpf4jnsgd1na2vs0mg"},{"bike_id":"9c0f94c4-b37c-40bf-80a5-dff27d73ee95","system_id":"levelo_inurba_marseille","lat":43.26557,"lon":5.39021,"is_reserved":false,"is_disabled":false,"rental_uris":{"android":"levelo://app?vid=9c0f94c4-b37c-40bf-80a5-dff27d73ee95","ios":"levelo://app?vid=9c0f94c4-b37c-40bf-80a5-dff27d73ee95"},"vehicle_type_id":"4","last_reported":1769588309,"current_range_meters":2800,"station_id":"ce4bhe12rcd13ifvqf30","pricing_plan_id":"cebpf4jnsgd1na2vs0mg"},{"bike_id":"1874eda8-a3c3-49b6-9412-f0fc01cc3854","system_id":"levelo_inurba_marseille","lat":43.32358,"lon":5.36749,"is_reserved":false,"is_disabled":false,"rental_uris":{"android":"levelo://app?vid=1874eda8-a3c3-49b6-9412-f0fc01cc3854","ios":"levelo://app?vid=1874eda8-a3c3-49b6-9412-f0fc01cc3854"},"vehicle_type_id":"4","last_reported":1769588309,"current_range_meters":2800,"station_id":"ce4bhsh2rcd13ifvqi2g","pricing_plan_id":"cebpf4jnsgd1na2vs0mg"},{"bike_id":"91d870a4-4a3d-4749-b0c2-ad130846435a","system_id":"levelo_inurba_marseille","lat":43.313586,"lon":5.36695,"is_reserved":false,"is_disabled":false,"rental_uris":{"android":"levelo://app?vid=91d870a4-4a3d-4749-b0c2-ad130846435a","ios":"levelo://app?vid=91d870a4-4a3d-4749-b0c2-ad130846435a"},"vehicle_type_id":"4","last_reported":1769588309,"current_range_meters":2800,"station_id":"ce4bgr92rcd13ifvqc6g","pricing_plan_id":"cebpf4jnsgd1na2vs0mg"},{"bike_id":"c4331a36-6999-42e2-9488-7f8c2c2dfef1","system_id":"levelo_inurba_marseille","lat":43.3079,"lon":5.40503,"is_reserved":false,"is_disabled":false,"rental_uris":{"android":"levelo://app?vid=c4331a36-6999-42e2-9488-7f8c2c2dfef1","ios":"levelo://app?vid=c4331a36-6999-42e2-9488-7f8c2c2dfef1"},"vehicle_type_id":"4","last_reported":1769588309,"current_range_meters":2800,"station_id":"","pricing_plan_id":"cebpf4jnsgd1na2vs0mg"},{"bike_id":"2fc66d18-b1c2-4fda-b8ff-b43cd0b673f2","system_id":"levelo_inurba_marseille","lat":43.2621,"lon":5.37443,"is_reserved":false,"is_disabled":false,"rental_uris":{"android":"levelo://app?vid=2fc66d18-b1c2-4fda-b8ff-b43cd0b673f2","ios":"levelo://app?vid=2fc66d18-b1c2-4fda-b8ff-b43cd0b673f2"},"vehicle_type_id":"4","last_reported":1769588309,"current_range_meters":2800,"station_id":"ce4bhgp2rcd13ifvqfc0","pricing_plan_id":"cebpf4jnsgd1na2vs0mg"},{"bike_id":"542c4194-0cbb-46a2-81b1-a944e64c63f6","system_id":"levelo_inurba_marseille","lat":43.27182,"lon":5.409977,"is_reserved":false,"is_disabled":false,"rental_uris":{"android":"levelo://app?vid=542c4194-0cbb-46a2-81b1-a944e64c63f6","ios":"levelo://app?vid=542c4194-0cbb-46a2-81b1-a944e64c63f6"},"vehicle_type_id":"4","last_reported":1769588309,"current_range_meters":2800,"station_id":"ce4bhl12rcd13ifvqgf0","pricing_plan_id":"cebpf4jnsgd1na2vs0mg"},{"bike_id":"853ada66-45ab-4932-b7a3-b4a8d19a78df","system_id":"levelo_inurba_marseille","lat":43.289785,"lon":5.378455,"is_reserved":false,"is_disabled":true,"rental_uris":{"android":"levelo://app?vid=853ada66-45ab-4932-b7a3-b4a8d19a78df","ios":"levelo://app?vid=853ada66-45ab-4932-b7a3-b4a8d19a78df"},"vehicle_type_id":"4","last_reported":1769588309,"current_range_meters":2800,"station_id":"ce4bh9p2rcd13ifvqed0","pricing_plan_id":"cebpf4jnsgd1na2vs0mg"},{"bike_id":"50975ff8-ef5b-48ef-9a63-788455e79d9e","system_id":"levelo_inurba_marseille","lat":43.30176,"lon":5.3662,"is_reserved":false,"is_disabled":false,"rental_uris":{"android":"levelo://app?vid=50975ff8-ef5b-48ef-9a63-788455e79d9e","ios":"levelo://app?vid=50975ff8-ef5b-48ef-9a63-788455e79d9e"},"vehicle_type_id":"4","last_reported":1769588309,"current_range_meters":2800,"station_id":"ce4bgrh2rcd13ifvqc8g","pricing_plan_id":"cebpf4jnsgd1na2vs0mg"},{"bike_id":"3068b6de-22ec-4bb7-bd70-ef84189d5ccf","system_id":"levelo_inurba_marseille","lat":43.24167,"lon":5.36373,"is_reserved":false,"is_disabled":false,"rental_uris":{"android":"levelo://app?vid=3068b6de-22ec-4bb7-bd70-ef84189d5ccf","ios":"levelo://app?vid=3068b6de-22ec-4bb7-bd70-ef84189d5ccf"},"vehicle_type_id":"4","last_reported":1769588309,"current_range_meters":2800,"station_id":"cpo36qri1sfpv3e86is0","pricing_plan_id":"cebpf4jnsgd1na2vs0mg"},{"bike_id":"67319617-e363-454c-971c-619a05701ccc","system_id":"levelo_inurba_marseille","lat":43.30906,"lon":5.40338,"is_reserved":false,"is_disabled":true,"rental_uris":{"android":"levelo://app?vid=67319617-e363-454c-971c-619a05701ccc","ios":"levelo://app?vid=67319617-e363-454c-971c-619a05701ccc"},"vehicle_type_id":"4","last_reported":1769588309,"current_range_meters":3200,"station_id":"","pricing_plan_id":"cebpf4jnsgd1na2vs0mg"},{"bike_id":"4563cd4a-14be-4cd2-962a-8eb9b6992943","system_id":"levelo_inurba_marseille","lat":43.231893,"lon":5.355581,"is_reserved":false,"is_disabled":false,"rental_uris":{"android":"levelo://app?vid=4563cd4a-14be-4cd2-962a-8eb9b6992943","ios":"levelo://app?vid=4563cd4a-14be-4cd2-962a-8eb9b6992943"},"vehicle_type_id":"4","last_reported":1769588309,"current_range_meters":3200,"station_id":"ce4bhu92rcd13ifvqi70","pricing_plan_id":"cebpf4jnsgd1na2vs0mg"},{"bike_id":"54b86318-8ccc-4987-bf0e-1eb7138b9e11","system_id":"levelo_inurba_marseille","lat":43.288504,"lon":5.393167,"is_reserved":false,"is_disabled":false,"rental_uris":{"android":"levelo://app?vid=54b86318-8ccc-4987-bf0e-1eb7138b9e11","ios":"levelo://app?vid=54b86318-8ccc-4987-bf0e-1eb7138b9e11"},"vehicle_type_id":"4","last_reported":1769588309,"current_range_meters":3200,"station_id":"ce4bh2p2rcd13ifvqdi0","pricing_plan_id":"cebpf4jnsgd1na2vs0mg"},{"bike_id":"ebb420da-9f91-41a5-8e07-8ddc17ac8d79","system_id":"levelo_inurba_marseille","lat":43.27987,"lon":5.41665,"is_reserved":false,"is_disabled":false,"rental_uris":{"android":"levelo://app?vid=ebb420da-9f91-41a5-8e07-8ddc17ac8d79","ios":"levelo://app?vid=ebb420da-9f91-41a5-8e07-8ddc17ac8d79"},"vehicle_type_id":"4","last_reported":1769588309,"current_range_meters":3200,"station_id":"ce4bho12rcd13ifvqh1g","pricing_plan_id":"cebpf4jnsgd1na2vs0mg"},{"bike_id":"a83f5791-59c7-436f-8788-c65eeb6f2942","system_id":"levelo_inurba_marseille","lat":43.30418,"lon":5.37933,"is_reserved":false,"is_disabled":false,"rental_uris":{"android":"levelo://app?vid=a83f5791-59c7-436f-8788-c65eeb6f2942","ios":"levelo://app?vid=a83f5791-59c7-436f-8788-c65eeb6f2942"},"vehicle_type_id":"4","last_reported":1769588309,"current_range_meters":3200,"station_id":"ce4bgup2rcd13ifvqcn0","pricing_plan_id":"cebpf4jnsgd1na2vs0mg"},{"bike_id":"553f7ec8-0556-4b19-a60a-b39852dc6c80","system_id":"levelo_inurba_marseille","lat":43.28452,"lon":5.39161,"is_reserved":false,"is_disabled":false,"rental_uris":{"android":"levelo://app?vid=553f7ec8-0556-4b19-a60a-b39852dc6c80","ios":"levelo://app?vid=553f7ec8-0556-4b19-a60a-b39852dc6c80"},"vehicle_type_id":"4","last_reported":1769588309,"current_range_meters":3200,"station_id":"ce4bhoh2rcd13ifvqh5g","pricing_plan_id":"cebpf4jnsgd1na2vs0mg"},{"bike_id":"77514be3-9c13-4e38-b4c1-db0efc6faf22","system_id":"levelo_inurba_marseille","lat":43.27202,"lon":5.39183,"is_reserved":false,"is_disabled":false,"rental_uris":{"android":"levelo://app?vid=77514be3-9c13-4e38-b4c1-db0efc6faf22","ios":"levelo://app?vid=77514be3-9c13-4e38-b4c1-db0efc6faf22"},"vehicle_type_id":"4","last_reported":1769588309,"current_range_meters":3200,"station_id":"ce4bhhp2rcd13ifvqfm0","pricing_plan_id":"cebpf4jnsgd1na2vs0mg"},{"bike_id":"e9aed180-356a-49da-8206-27bae2ebd2e6","system_id":"levelo_inurba_marseille","lat":43.29259,"lon":5.384436,"is_reserved":false,"is_disabled":false,"rental_uris":{"android":"levelo://app?vid=e9aed180-356a-49da-8206-27bae2ebd2e6","ios":"levelo://app?vid=e9aed180-356a-49da-8206-27bae2ebd2e6"},"vehicle_type_id":"4","last_reported":1769588309,"current_range_meters":3200,"station_id":"ce4bh692rcd13ifvqea0","pricing_plan_id":"cebpf4jnsgd1na2vs0mg"},{"bike_id":"6ac96556-6ad3-4c3d-8563-42abd5f8aae5","system_id":"levelo_inurba_marseille","lat":43.31053,"lon":5.37181,"is_reserved":false,"is_disabled":false,"rental_uris":{"android":"levelo://app?vid=6ac96556-6ad3-4c3d-8563-42abd5f8aae5","ios":"levelo://app?vid=6ac96556-6ad3-4c3d-8563-42abd5f8aae5"},"vehicle_type_id":"4","last_reported":1769588309,"current_range_meters":3600,"station_id":"st_d4kl2rp97mjs73e7tdfg","pricing_plan_id":"cebpf4jnsgd1na2vs0mg"},{"bike_id":"20dec68e-6511-4a92-96ce-570e7790c243","system_id":"levelo_inurba_marseille","lat":43.30543,"lon":5.36715,"is_reserved":false,"is_disabled":false,"rental_uris":{"android":"levelo://app?vid=20dec68e-6511-4a92-96ce-570e7790c243","ios":"levelo://app?vid=20dec68e-6511-4a92-96ce-570e7790c243"},"vehicle_type_id":"4","last_reported":1769588309,"current_range_meters":3600,"station_id":"ce4bgrp2rcd13ifvqc9g","pricing_plan_id":"cebpf4jnsgd1na2vs0mg"},{"bike_id":"a292f842-fade-4625-acd6-566197709a87","system_id":"levelo_inurba_marseille","lat":43.31342,"lon":5.36715,"is_reserved":false,"is_disabled":false,"rental_uris":{"android":"levelo://app?vid=a292f842-fade-4625-acd6-566197709a87","ios":"levelo://app?vid=a292f842-fade-4625-acd6-566197709a87"},"vehicle_type_id":"4","last_reported":1769588309,"current_range_meters":3600,"station_id":"ce4bgr92rcd13ifvqc6g","pricing_plan_id":"cebpf4jnsgd1na2vs0mg"},{"bike_id":"e1120862-e77d-472e-b5c8-670c3df22cb9","system_id":"levelo_inurba_marseille","lat":43.240685,"lon":5.377682,"is_reserved":false,"is_disabled":false,"rental_uris":{"android":"levelo://app?vid=e1120862-e77d-472e-b5c8-670c3df22cb9","ios":"levelo://app?vid=e1120862-e77d-472e-b5c8-670c3df22cb9"},"vehicle_type_id":"4","last_reported":1769588309,"current_range_meters":3600,"station_id":"ce4bhnp2rcd13ifvqgvg","pricing_plan_id":"cebpf4jnsgd1na2vs0mg"},{"bike_id":"29aa5aa3-c04d-4a4a-9381-86a1ba9e5e8a","system_id":"levelo_inurba_marseille","lat":43.26548,"lon":5.37286,"is_reserved":false,"is_disabled":false,"rental_uris":{"android":"levelo://app?vid=29aa5aa3-c04d-4a4a-9381-86a1ba9e5e8a","ios":"levelo://app?vid=29aa5aa3-c04d-4a4a-9381-86a1ba9e5e8a"},"vehicle_type_id":"4","last_reported":1769588309,"current_range_meters":3600,"station_id":"ce4bhg12rcd13ifvqf70","pricing_plan_id":"cebpf4jnsgd1na2vs0mg"},{"bike_id":"719075ca-0fc5-46e5-a7a9-99e73984d012","system_id":"levelo_inurba_marseille","lat":43.33517,"lon":5.37484,"is_reserved":false,"is_disabled":false,"rental_uris":{"android":"levelo://app?vid=719075ca-0fc5-46e5-a7a9-99e73984d012","ios":"levelo://app?vid=719075ca-0fc5-46e5-a7a9-99e73984d012"},"vehicle_type_id":"4","last_reported":1769588309,"current_range_meters":3600,"station_id":"st_d46tts09ee8s73dlu43g","pricing_plan_id":"cebpf4jnsgd1na2vs0mg"},{"bike_id":"9d3e3713-b1f5-4f31-b786-ecd7f8f5227c","system_id":"levelo_inurba_marseille","lat":43.286095,"lon":5.370628,"is_reserved":false,"is_disabled":false,"rental_uris":{"android":"levelo://app?vid=9d3e3713-b1f5-4f31-b786-ecd7f8f5227c","ios":"levelo://app?vid=9d3e3713-b1f5-4f31-b786-ecd7f8f5227c"},"vehicle_type_id":"4","last_reported":1769588309,"current_range_meters":3600,"station_id":"ce4bht12rcd13ifvqi60","pricing_plan_id":"cebpf4jnsgd1na2vs0mg"},{"bike_id":"99dae5f1-83c9-4208-a53a-2a2a21e9a1a8","system_id":"levelo_inurba_marseille","lat":43.30652,"lon":5.40101,"is_reserved":false,"is_disabled":false,"rental_uris":{"android":"levelo://app?vid=99dae5f1-83c9-4208-a53a-2a2a21e9a1a8","ios":"levelo://app?vid=99dae5f1-83c9-4208-a53a-2a2a21e9a1a8"},"vehicle_type_id":"4","last_reported":1769588309,"current_range_meters":3600,"station_id":"ce4bh112rcd13ifvqda0","pricing_plan_id":"cebpf4jnsgd1na2vs0mg"},{"bike_id":"aef48c2d-4e9e-44fa-b69a-17199407ac19","system_id":"levelo_inurba_marseille","lat":43.28475,"lon":5.48393,"is_reserved":false,"is_disabled":false,"rental_uris":{"android":"levelo://app?vid=aef48c2d-4e9e-44fa-b69a-17199407ac19","ios":"levelo://app?vid=aef48c2d-4e9e-44fa-b69a-17199407ac19"},"vehicle_type_id":"4","last_reported":1769588309,"current_range_meters":3600,"station_id":"st_d3svhcjqgbts73a3dn0g","pricing_plan_id":"cebpf4jnsgd1na2vs0mg"},{"bike_id":"3a2d87db-bfaf-4d94-ac8d-2d5ed67ff4c0","system_id":"levelo_inurba_marseille","lat":43.26931,"lon":5.38921,"is_reserved":false,"is_disabled":false,"rental_uris":{"android":"levelo://app?vid=3a2d87db-bfaf-4d94-ac8d-2d5ed67ff4c0","ios":"levelo://app?vid=3a2d87db-bfaf-4d94-ac8d-2d5ed67ff4c0"},"vehicle_type_id":"4","last_reported":1769588309,"current_range_meters":3600,"station_id":"ce4bhhh2rcd13ifvqfl0","pricing_plan_id":"cebpf4jnsgd1na2vs0mg"},{"bike_id":"a4197ac1-f17c-4dde-8532-d7c6e6881287","system_id":"levelo_inurba_marseille","lat":43.23188,"lon":5.35567,"is_reserved":false,"is_disabled":false,"rental_uris":{"android":"levelo://app?vid=a4197ac1-f17c-4dde-8532-d7c6e6881287","ios":"levelo://app?vid=a4197ac1-f17c-4dde-8532-d7c6e6881287"},"vehicle_type_id":"4","last_reported":1769588309,"current_range_meters":4000,"station_id":"ce4bhu92rcd13ifvqi70","pricing_plan_id":"cebpf4jnsgd1na2vs0mg"},{"bike_id":"13572e35-2aa0-4de4-8fc0-3a452362e536","system_id":"levelo_inurba_marseille","lat":43.28619,"lon":5.35122,"is_reserved":false,"is_disabled":false,"rental_uris":{"android":"levelo://app?vid=13572e35-2aa0-4de4-8fc0-3a452362e536","ios":"levelo://app?vid=13572e35-2aa0-4de4-8fc0-3a452362e536"},"vehicle_type_id":"4","last_reported":1769588309,"current_range_meters":4000,"station_id":"ce4bhch2rcd13ifvqeug","pricing_plan_id":"cebpf4jnsgd1na2vs0mg"},{"bike_id":"c9464cc3-b9e7-4a79-ac5b-920c70321169","system_id":"levelo_inurba_marseille","lat":43.26948,"lon":5.38631,"is_reserved":false,"is_disabled":false,"rental_uris":{"android":"levelo://app?vid=c9464cc3-b9e7-4a79-ac5b-920c70321169","ios":"levelo://app?vid=c9464cc3-b9e7-4a79-ac5b-920c70321169"},"vehicle_type_id":"4","last_reported":1769588309,"current_range_meters":4000,"station_id":"ce4bhh92rcd13ifvqfh0","pricing_plan_id":"cebpf4jnsgd1na2vs0mg"},{"bike_id":"57fb607a-1675-4949-b5ac-f704081964d9","system_id":"levelo_inurba_marseille","lat":43.28725,"lon":5.36091,"is_reserved":false,"is_disabled":false,"rental_uris":{"android":"levelo://app?vid=57fb607a-1675-4949-b5ac-f704081964d9","ios":"levelo://app?vid=57fb607a-1675-4949-b5ac-f704081964d9"},"vehicle_type_id":"4","last_reported":1769588309,"current_range_meters":4000,"station_id":"cki0cbj6b192h4jlfktg","pricing_plan_id":"cebpf4jnsgd1na2vs0mg"},{"bike_id":"210d34b3-637d-4a3a-93be-c748d1fe37e1","system_id":"levelo_inurba_marseille","lat":43.24632,"lon":5.43157,"is_reserved":false,"is_disabled":false,"rental_uris":{"android":"levelo://app?vid=210d34b3-637d-4a3a-93be-c748d1fe37e1","ios":"levelo://app?vid=210d34b3-637d-4a3a-93be-c748d1fe37e1"},"vehicle_type_id":"4","last_reported":1769588309,"current_range_meters":4000,"station_id":"st_d2m6c4gdas8pm72e190g","pricing_plan_id":"cebpf4jnsgd1na2vs0mg"},{"bike_id":"e01e12df-208f-43ee-99bf-5376acaa42bf","system_id":"levelo_inurba_marseille","lat":43.28859,"lon":5.42521,"is_reserved":false,"is_disabled":false,"rental_uris":{"android":"levelo://app?vid=e01e12df-208f-43ee-99bf-5376acaa42bf","ios":"levelo://app?vid=e01e12df-208f-43ee-99bf-5376acaa42bf"},"vehicle_type_id":"4","last_reported":1769588309,"current_range_meters":4000,"station_id":"st_d3b462108ojc7389ooeg","pricing_plan_id":"cebpf4jnsgd1na2vs0mg"},{"bike_id":"9bcda961-27cd-4075-b93d-da48aacaa36e","system_id":"levelo_inurba_marseille","lat":43.26678,"lon":5.3826,"is_reserved":false,"is_disabled":false,"rental_uris":{"android":"levelo://app?vid=9bcda961-27cd-4075-b93d-da48aacaa36e","ios":"levelo://app?vid=9bcda961-27cd-4075-b93d-da48aacaa36e"},"vehicle_type_id":"4","last_reported":1769588309,"current_range_meters":4000,"station_id":"ce4bhg92rcd13ifvqf90","pricing_plan_id":"cebpf4jnsgd1na2vs0mg"},{"bike_id":"0f33de9f-b903-4f52-827c-ef41501ce5d2","system_id":"levelo_inurba_marseille","lat":43.309499,"lon":5.390399,"is_reserved":false,"is_disabled":false,"rental_uris":{"android":"levelo://app?vid=0f33de9f-b903-4f52-827c-ef41501ce5d2","ios":"levelo://app?vid=0f33de9f-b903-4f52-827c-ef41501ce5d2"},"vehicle_type_id":"4","last_reported":1769588309,"current_range_meters":4000,"station_id":"ce4bgup2rcd13ifvqco0","pricing_plan_id":"cebpf4jnsgd1na2vs0mg"},{"bike_id":"39350a48-f834-464d-8079-ceeb3934f5ef","system_id":"levelo_inurba_marseille","lat":43.24542,"lon":5.39524,"is_reserved":false,"is_disabled":false,"rental_uris":{"android":"levelo://app?vid=39350a48-f834-464d-8079-ceeb3934f5ef","ios":"levelo://app?vid=39350a48-f834-464d-8079-ceeb3934f5ef"},"vehicle_type_id":"4","last_reported":1769588309,"current_range_meters":4000,"station_id":"ce4bhlp2rcd13ifvqgjg","pricing_plan_id":"cebpf4jnsgd1na2vs0mg"},{"bike_id":"b1c835b9-d1b0-4420-b1bf-6cfd071e73dc","system_id":"levelo_inurba_marseille","lat":43.248048,"lon":5.374453,"is_reserved":false,"is_disabled":false,"rental_uris":{"android":"levelo://app?vid=b1c835b9-d1b0-4420-b1bf-6cfd071e73dc","ios":"levelo://app?vid=b1c835b9-d1b0-4420-b1bf-6cfd071e73dc"},"vehicle_type_id":"4","last_reported":1769588309,"current_range_meters":4400,"station_id":"ce4bhgh2rcd13ifvqfb0","pricing_plan_id":"cebpf4jnsgd1na2vs0mg"},{"bike_id":"a3951293-9c0a-44f5-ba95-d7309dbd4917","system_id":"levelo_inurba_marseille","lat":43.31227,"lon":5.36847,"is_reserved":false,"is_disabled":false,"rental_uris":{"android":"levelo://app?vid=a3951293-9c0a-44f5-ba95-d7309dbd4917","ios":"levelo://app?vid=a3951293-9c0a-44f5-ba95-d7309dbd4917"},"vehicle_type_id":"4","last_reported":1769588309,"current_range_meters":4400,"station_id":"ce4bgl92rcd13ifvqbq0","pricing_plan_id":"cebpf4jnsgd1na2vs0mg"},{"bike_id":"61880ac2-f997-4832-8d0d-3d1f8617cb44","system_id":"levelo_inurba_marseille","lat":43.24472,"lon":5.42545,"is_reserved":false,"is_disabled":false,"rental_uris":{"android":"levelo://app?vid=61880ac2-f997-4832-8d0d-3d1f8617cb44","ios":"levelo://app?vid=61880ac2-f997-4832-8d0d-3d1f8617cb44"},"vehicle_type_id":"4","last_reported":1769588309,"current_range_meters":4400,"station_id":"st_d4a3vfp97mjs738cd8kg","pricing_plan_id":"cebpf4jnsgd1na2vs0mg"},{"bike_id":"f1b03366-527e-4fdf-b113-3b680074a995","system_id":"levelo_inurba_marseille","lat":43.262,"lon":5.37931,"is_reserved":false,"is_disabled":false,"rental_uris":{"android":"levelo://app?vid=f1b03366-527e-4fdf-b113-3b680074a995","ios":"levelo://app?vid=f1b03366-527e-4fdf-b113-3b680074a995"},"vehicle_type_id":"4","last_reported":1769588309,"current_range_meters":4400,"station_id":"ce4bhjp2rcd13ifvqg90","pricing_plan_id":"cebpf4jnsgd1na2vs0mg"},{"bike_id":"f3544f90-eda9-4d96-b075-a00170153337","system_id":"levelo_inurba_marseille","lat":43.24078,"lon":5.37756,"is_reserved":false,"is_disabled":false,"rental_uris":{"android":"levelo://app?vid=f3544f90-eda9-4d96-b075-a00170153337","ios":"levelo://app?vid=f3544f90-eda9-4d96-b075-a00170153337"},"vehicle_type_id":"4","last_reported":1769588309,"current_range_meters":4400,"station_id":"ce4bhnp2rcd13ifvqgvg","pricing_plan_id":"cebpf4jnsgd1na2vs0mg"},{"bike_id":"f9ea31d4-f00f-4e36-894b-729d6fe9e90e","system_id":"levelo_inurba_marseille","lat":43.31493,"lon":5.37318,"is_reserved":false,"is_disabled":false,"rental_uris":{"android":"levelo://app?vid=f9ea31d4-f00f-4e36-894b-729d6fe9e90e","ios":"levelo://app?vid=f9ea31d4-f00f-4e36-894b-729d6fe9e90e"},"vehicle_type_id":"4","last_reported":1769588309,"current_range_meters":4400,"station_id":"ce4bgt12rcd13ifvqcd0","pricing_plan_id":"cebpf4jnsgd1na2vs0mg"},{"bike_id":"b1d411da-d9de-417f-9943-4d5aa9df36ed","system_id":"levelo_inurba_marseille","lat":43.29587,"lon":5.3927,"is_reserved":false,"is_disabled":false,"rental_uris":{"android":"levelo://app?vid=b1d411da-d9de-417f-9943-4d5aa9df36ed","ios":"levelo://app?vid=b1d411da-d9de-417f-9943-4d5aa9df36ed"},"vehicle_type_id":"4","last_reported":1769588309,"current_range_meters":4400,"station_id":"","pricing_plan_id":"cebpf4jnsgd1na2vs0mg"},{"bike_id":"75d2a814-35e0-427a-8ba5-89be662763fe","system_id":"levelo_inurba_marseille","lat":43.26955,"lon":5.3863,"is_reserved":false,"is_disabled":false,"rental_uris":{"android":"levelo://app?vid=75d2a814-35e0-427a-8ba5-89be662763fe","ios":"levelo://app?vid=75d2a814-35e0-427a-8ba5-89be662763fe"},"vehicle_type_id":"4","last_reported":1769588309,"current_range_meters":4400,"station_id":"ce4bhh92rcd13ifvqfh0","pricing_plan_id":"cebpf4jnsgd1na2vs0mg"},{"bike_id":"5b1328e1-725c-435f-9cc2-db91a5108ba5","system_id":"levelo_inurba_marseille","lat":43.24999,"lon":5.38942,"is_reserved":false,"is_disabled":false,"rental_uris":{"android":"levelo://app?vid=5b1328e1-725c-435f-9cc2-db91a5108ba5","ios":"levelo://app?vid=5b1328e1-725c-435f-9cc2-db91a5108ba5"},"vehicle_type_id":"4","last_reported":1769588309,"current_range_meters":4400,"station_id":"ce4bhgp2rcd13ifvqfd0","pricing_plan_id":"cebpf4jnsgd1na2vs0mg"},{"bike_id":"13412fd6-fcc8-4592-8f33-a77ca55d2b61","system_id":"levelo_inurba_marseille","lat":43.31072,"lon":5.38736,"is_reserved":false,"is_disabled":false,"rental_uris":{"android":"levelo://app?vid=13412fd6-fcc8-4592-8f33-a77ca55d2b61","ios":"levelo://app?vid=13412fd6-fcc8-4592-8f33-a77ca55d2b61"},"vehicle_type_id":"4","last_reported":1769588309,"current_range_meters":4800,"station_id":"","pricing_plan_id":"cebpf4jnsgd1na2vs0mg"},{"bike_id":"9381fd80-ecdc-4343-8355-1f4e601fa674","system_id":"levelo_inurba_marseille","lat":43.31365,"lon":5.38499,"is_reserved":false,"is_disabled":false,"rental_uris":{"android":"levelo://app?vid=9381fd80-ecdc-4343-8355-1f4e601fa674","ios":"levelo://app?vid=9381fd80-ecdc-4343-8355-1f4e601fa674"},"vehicle_type_id":"4","last_reported":1769588309,"current_range_meters":4800,"station_id":"ce4bgt92rcd13ifvqcf0","pricing_plan_id":"cebpf4jnsgd1na2vs0mg"},{"bike_id":"788e910f-d40e-4149-ba0e-022f0f5a7574","system_id":"levelo_inurba_marseille","lat":43.245426,"lon":5.395215,"is_reserved":false,"is_disabled":false,"rental_uris":{"android":"levelo://app?vid=788e910f-d40e-4149-ba0e-022f0f5a7574","ios":"levelo://app?vid=788e910f-d40e-4149-ba0e-022f0f5a7574"},"vehicle_type_id":"4","last_reported":1769588309,"current_range_meters":4800,"station_id":"ce4bhlp2rcd13ifvqgjg","pricing_plan_id":"cebpf4jnsgd1na2vs0mg"},{"bike_id":"71356222-e5c5-4365-b84a-c5d9e6a66d49","system_id":"levelo_inurba_marseille","lat":43.3174,"lon":5.39053,"is_reserved":false,"is_disabled":false,"rental_uris":{"android":"levelo://app?vid=71356222-e5c5-4365-b84a-c5d9e6a66d49","ios":"levelo://app?vid=71356222-e5c5-4365-b84a-c5d9e6a66d49"},"vehicle_type_id":"4","last_reported":1769588309,"current_range_meters":4800,"station_id":"ce4bhqp2rcd13ifvqhng","pricing_plan_id":"cebpf4jnsgd1na2vs0mg"},{"bike_id":"e014a755-cee4-43d7-9daa-9518f7401fae","system_id":"levelo_inurba_marseille","lat":43.29624,"lon":5.37736,"is_reserved":false,"is_disabled":false,"rental_uris":{"android":"levelo://app?vid=e014a755-cee4-43d7-9daa-9518f7401fae","ios":"levelo://app?vid=e014a755-cee4-43d7-9daa-9518f7401fae"},"vehicle_type_id":"4","last_reported":1769588309,"current_range_meters":4800,"station_id":"ce4bgi92rcd13ifvqb90","pricing_plan_id":"cebpf4jnsgd1na2vs0mg"},{"bike_id":"51f12955-85fa-488e-a5a3-3568ec645218","system_id":"levelo_inurba_marseille","lat":43.23164,"lon":5.43711,"is_reserved":false,"is_disabled":false,"rental_uris":{"android":"levelo://app?vid=51f12955-85fa-488e-a5a3-3568ec645218","ios":"levelo://app?vid=51f12955-85fa-488e-a5a3-3568ec645218"},"vehicle_type_id":"4","last_reported":1769588309,"current_range_meters":4800,"station_id":"ce4bhmp2rcd13ifvqgog","pricing_plan_id":"cebpf4jnsgd1na2vs0mg"},{"bike_id":"eecccbdc-fa36-4ec4-840a-7ab5bf03ecb1","system_id":"levelo_inurba_marseille","lat":43.286996,"lon":5.399815,"is_reserved":false,"is_disabled":false,"rental_uris":{"android":"levelo://app?vid=eecccbdc-fa36-4ec4-840a-7ab5bf03ecb1","ios":"levelo://app?vid=eecccbdc-fa36-4ec4-840a-7ab5bf03ecb1"},"vehicle_type_id":"4","last_reported":1769588309,"current_range_meters":4800,"station_id":"ce4bho92rcd13ifvqh3g","pricing_plan_id":"cebpf4jnsgd1na2vs0mg"},{"bike_id":"7d9982a5-bc45-4237-abe2-f8a80718bcf2","system_id":"levelo_inurba_marseille","lat":43.33161,"lon":5.37708,"is_reserved":false,"is_disabled":false,"rental_uris":{"android":"levelo://app?vid=7d9982a5-bc45-4237-abe2-f8a80718bcf2","ios":"levelo://app?vid=7d9982a5-bc45-4237-abe2-f8a80718bcf2"},"vehicle_type_id":"4","last_reported":1769588309,"current_range_meters":4800,"station_id":"st_d46cu089ee8s73dldbu0","pricing_plan_id":"cebpf4jnsgd1na2vs0mg"},{"bike_id":"4b3417a6-1f1f-4163-87a9-5c0d16767f2a","system_id":"levelo_inurba_marseille","lat":43.28492,"lon":5.48435,"is_reserved":false,"is_disabled":false,"rental_uris":{"android":"levelo://app?vid=4b3417a6-1f1f-4163-87a9-5c0d16767f2a","ios":"levelo://app?vid=4b3417a6-1f1f-4163-87a9-5c0d16767f2a"},"vehicle_type_id":"4","last_reported":1769588309,"current_range_meters":4800,"station_id":"st_d3svhcjqgbts73a3dn0g","pricing_plan_id":"cebpf4jnsgd1na2vs0mg"},{"bike_id":"f93a5d82-8fac-4391-829a-1be585dc684b","system_id":"levelo_inurba_marseille","lat":43.29034,"lon":5.39975,"is_reserved":false,"is_disabled":false,"rental_uris":{"android":"levelo://app?vid=f93a5d82-8fac-4391-829a-1be585dc684b","ios":"levelo://app?vid=f93a5d82-8fac-4391-829a-1be585dc684b"},"vehicle_type_id":"4","last_reported":1769588309,"current_range_meters":4800,"station_id":"ce4bh392rcd13ifvqdm0","pricing_plan_id":"cebpf4jnsgd1na2vs0mg"},{"bike_id":"78aa4272-c4e4-4137-8530-4c40847f1cd9","system_id":"levelo_inurba_marseille","lat":43.30542,"lon":5.36704,"is_reserved":false,"is_disabled":false,"rental_uris":{"android":"levelo://app?vid=78aa4272-c4e4-4137-8530-4c40847f1cd9","ios":"levelo://app?vid=78aa4272-c4e4-4137-8530-4c40847f1cd9"},"vehicle_type_id":"4","last_reported":1769588309,"current_range_meters":4800,"station_id":"ce4bgrp2rcd13ifvqc9g","pricing_plan_id":"cebpf4jnsgd1na2vs0mg"},{"bike_id":"caf214c6-f51e-422f-a150-65a2d01f29fe","system_id":"levelo_inurba_marseille","lat":43.332622,"lon":5.366179,"is_reserved":false,"is_disabled":false,"rental_uris":{"android":"levelo://app?vid=caf214c6-f51e-422f-a150-65a2d01f29fe","ios":"levelo://app?vid=caf214c6-f51e-422f-a150-65a2d01f29fe"},"vehicle_type_id":"4","last_reported":1769588309,"current_range_meters":4800,"station_id":"","pricing_plan_id":"cebpf4jnsgd1na2vs0mg"},{"bike_id":"4854dc84-dcec-4dbc-9c00-a6f61a1c1439","system_id":"levelo_inurba_marseille","lat":43.29933,"lon":5.36558,"is_reserved":false,"is_disabled":false,"rental_uris":{"android":"levelo://app?vid=4854dc84-dcec-4dbc-9c00-a6f61a1c1439","ios":"levelo://app?vid=4854dc84-dcec-4dbc-9c00-a6f61a1c1439"},"vehicle_type_id":"4","last_reported":1769588309,"current_range_meters":5600,"station_id":"ce4bgm92rcd13ifvqbr0","pricing_plan_id":"cebpf4jnsgd1na2vs0mg"},{"bike_id":"c12c50c5-4661-4028-98cc-5a9a858f8e4a","system_id":"levelo_inurba_marseille","lat":43.285065,"lon":5.384379,"is_reserved":false,"is_disabled":false,"rental_uris":{"android":"levelo://app?vid=c12c50c5-4661-4028-98cc-5a9a858f8e4a","ios":"levelo://app?vid=c12c50c5-4661-4028-98cc-5a9a858f8e4a"},"vehicle_type_id":"4","last_reported":1769588309,"current_range_meters":5600,"station_id":"ce4bh512rcd13ifvqe3g","pricing_plan_id":"cebpf4jnsgd1na2vs0mg"},{"bike_id":"51b8f39f-e87e-4327-a9b7-dad481cf0cba","system_id":"levelo_inurba_marseille","lat":43.23777,"lon":5.3663,"is_reserved":false,"is_disabled":false,"rental_uris":{"android":"levelo://app?vid=51b8f39f-e87e-4327-a9b7-dad481cf0cba","ios":"levelo://app?vid=51b8f39f-e87e-4327-a9b7-dad481cf0cba"},"vehicle_type_id":"4","last_reported":1769588309,"current_range_meters":5600,"station_id":"st_d3nk18o9ro0c73en2l3g","pricing_plan_id":"cebpf4jnsgd1na2vs0mg"},{"bike_id":"175e5f71-fbb3-4254-8434-f47a57e9bda6","system_id":"levelo_inurba_marseille","lat":43.23142,"lon":5.43723,"is_reserved":false,"is_disabled":false,"rental_uris":{"android":"levelo://app?vid=175e5f71-fbb3-4254-8434-f47a57e9bda6","ios":"levelo://app?vid=175e5f71-fbb3-4254-8434-f47a57e9bda6"},"vehicle_type_id":"4","last_reported":1769588309,"current_range_meters":5600,"station_id":"ce4bhmp2rcd13ifvqgog","pricing_plan_id":"cebpf4jnsgd1na2vs0mg"},{"bike_id":"8daea874-6378-4664-a8a0-600241f931cc","system_id":"levelo_inurba_marseille","lat":43.23782,"lon":5.36643,"is_reserved":false,"is_disabled":false,"rental_uris":{"android":"levelo://app?vid=8daea874-6378-4664-a8a0-600241f931cc","ios":"levelo://app?vid=8daea874-6378-4664-a8a0-600241f931cc"},"vehicle_type_id":"4","last_reported":1769588309,"current_range_meters":5600,"station_id":"st_d3nk18o9ro0c73en2l3g","pricing_plan_id":"cebpf4jnsgd1na2vs0mg"},{"bike_id":"773a0794-9608-48d0-ac87-744f6b7bca0d","system_id":"levelo_inurba_marseille","lat":43.22564,"lon":5.41629,"is_reserved":false,"is_disabled":false,"rental_uris":{"android":"levelo://app?vid=773a0794-9608-48d0-ac87-744f6b7bca0d","ios":"levelo://app?vid=773a0794-9608-48d0-ac87-744f6b7bca0d"},"vehicle_type_id":"4","last_reported":1769588309,"current_range_meters":5600,"station_id":"st_d2o4gvlbi1j2169b742g","pricing_plan_id":"cebpf4jnsgd1na2vs0mg"},{"bike_id":"38939492-5112-461d-8788-f383260a8286","system_id":"levelo_inurba_marseille","lat":43.33164,"lon":5.37677,"is_reserved":false,"is_disabled":false,"rental_uris":{"android":"levelo://app?vid=38939492-5112-461d-8788-f383260a8286","ios":"levelo://app?vid=38939492-5112-461d-8788-f383260a8286"},"vehicle_type_id":"4","last_reported":1769588309,"current_range_meters":5600,"station_id":"st_d46cu089ee8s73dldbu0","pricing_plan_id":"cebpf4jnsgd1na2vs0mg"},{"bike_id":"db91af1c-8610-46d2-8811-cba210a8ff4f","system_id":"levelo_inurba_marseille","lat":43.33279,"lon":5.37963,"is_reserved":false,"is_disabled":false,"rental_uris":{"android":"levelo://app?vid=db91af1c-8610-46d2-8811-cba210a8ff4f","ios":"levelo://app?vid=db91af1c-8610-46d2-8811-cba210a8ff4f"},"vehicle_type_id":"4","last_reported":1769588309,"current_range_meters":5600,"station_id":"","pricing_plan_id":"cebpf4jnsgd1na2vs0mg"},{"bike_id":"26aafa14-d805-4a60-9b61-27f331c6323e","system_id":"levelo_inurba_marseille","lat":43.27366,"lon":5.36259,"is_reserved":false,"is_disabled":false,"rental_uris":{"android":"levelo://app?vid=26aafa14-d805-4a60-9b61-27f331c6323e","ios":"levelo://app?vid=26aafa14-d805-4a60-9b61-27f331c6323e"},"vehicle_type_id":"4","last_reported":1769588309,"current_range_meters":5600,"station_id":"ce4bhbh2rcd13ifvqeo0","pricing_plan_id":"cebpf4jnsgd1na2vs0mg"},{"bike_id":"2e77998e-c517-4f35-8821-169fc0fea54e","system_id":"levelo_inurba_marseille","lat":43.23179,"lon":5.35561,"is_reserved":false,"is_disabled":false,"rental_uris":{"android":"levelo://app?vid=2e77998e-c517-4f35-8821-169fc0fea54e","ios":"levelo://app?vid=2e77998e-c517-4f35-8821-169fc0fea54e"},"vehicle_type_id":"4","last_reported":1769588309,"current_range_meters":5600,"station_id":"ce4bhu92rcd13ifvqi70","pricing_plan_id":"cebpf4jnsgd1na2vs0mg"},{"bike_id":"11c0b822-ed21-4cc4-ae23-9767ba2abb5a","system_id":"levelo_inurba_marseille","lat":43.30547,"lon":5.36533,"is_reserved":false,"is_disabled":false,"rental_uris":{"android":"levelo://app?vid=11c0b822-ed21-4cc4-ae23-9767ba2abb5a","ios":"levelo://app?vid=11c0b822-ed21-4cc4-ae23-9767ba2abb5a"},"vehicle_type_id":"4","last_reported":1769588309,"current_range_meters":6000,"station_id":"ce4bgs12rcd13ifvqcag","pricing_plan_id":"cebpf4jnsgd1na2vs0mg"},{"bike_id":"8a225959-9028-4e8e-bb41-43f7382c386a","system_id":"levelo_inurba_marseille","lat":43.25417,"lon":5.39575,"is_reserved":false,"is_disabled":false,"rental_uris":{"android":"levelo://app?vid=8a225959-9028-4e8e-bb41-43f7382c386a","ios":"levelo://app?vid=8a225959-9028-4e8e-bb41-43f7382c386a"},"vehicle_type_id":"4","last_reported":1769588309,"current_range_meters":6000,"station_id":"","pricing_plan_id":"cebpf4jnsgd1na2vs0mg"},{"bike_id":"730f088c-00d8-4b8f-a391-1a0afdcd34ad","system_id":"levelo_inurba_marseille","lat":43.25927,"lon":5.40866,"is_reserved":false,"is_disabled":false,"rental_uris":{"android":"levelo://app?vid=730f088c-00d8-4b8f-a391-1a0afdcd34ad","ios":"levelo://app?vid=730f088c-00d8-4b8f-a391-1a0afdcd34ad"},"vehicle_type_id":"4","last_reported":1769588309,"current_range_meters":6000,"station_id":"ce4bhm92rcd13ifvqglg","pricing_plan_id":"cebpf4jnsgd1na2vs0mg"},{"bike_id":"eeec3323-1eab-4171-a774-187bc3a536e5","system_id":"levelo_inurba_marseille","lat":43.2995,"lon":5.365087,"is_reserved":false,"is_disabled":false,"rental_uris":{"android":"levelo://app?vid=eeec3323-1eab-4171-a774-187bc3a536e5","ios":"levelo://app?vid=eeec3323-1eab-4171-a774-187bc3a536e5"},"vehicle_type_id":"4","last_reported":1769588309,"current_range_meters":6000,"station_id":"","pricing_plan_id":"cebpf4jnsgd1na2vs0mg"},{"bike_id":"d2c4eb74-42b0-4647-9a1a-00c8b86dfe4c","system_id":"levelo_inurba_marseille","lat":43.25823,"lon":5.39434,"is_reserved":false,"is_disabled":false,"rental_uris":{"android":"levelo://app?vid=d2c4eb74-42b0-4647-9a1a-00c8b86dfe4c","ios":"levelo://app?vid=d2c4eb74-42b0-4647-9a1a-00c8b86dfe4c"},"vehicle_type_id":"4","last_reported":1769588309,"current_range_meters":6000,"station_id":"ce4bhip2rcd13ifvqft0","pricing_plan_id":"cebpf4jnsgd1na2vs0mg"},{"bike_id":"fcab2187-722c-47c3-bd9b-060a8b766a7c","system_id":"levelo_inurba_marseille","lat":43.2406,"lon":5.37726,"is_reserved":false,"is_disabled":true,"rental_uris":{"android":"levelo://app?vid=fcab2187-722c-47c3-bd9b-060a8b766a7c","ios":"levelo://app?vid=fcab2187-722c-47c3-bd9b-060a8b766a7c"},"vehicle_type_id":"4","last_reported":1769588309,"current_range_meters":6000,"station_id":"ce4bhnp2rcd13ifvqgvg","pricing_plan_id":"cebpf4jnsgd1na2vs0mg"},{"bike_id":"21ba2119-db74-43aa-b8cc-a48471daa57f","system_id":"levelo_inurba_marseille","lat":43.26063,"lon":5.39398,"is_reserved":false,"is_disabled":false,"rental_uris":{"android":"levelo://app?vid=21ba2119-db74-43aa-b8cc-a48471daa57f","ios":"levelo://app?vid=21ba2119-db74-43aa-b8cc-a48471daa57f"},"vehicle_type_id":"4","last_reported":1769588309,"current_range_meters":6000,"station_id":"ce4bhh92rcd13ifvqfj0","pricing_plan_id":"cebpf4jnsgd1na2vs0mg"},{"bike_id":"958b43fb-8c80-4692-977b-3f50e641a707","system_id":"levelo_inurba_marseille","lat":43.25933,"lon":5.40923,"is_reserved":false,"is_disabled":false,"rental_uris":{"android":"levelo://app?vid=958b43fb-8c80-4692-977b-3f50e641a707","ios":"levelo://app?vid=958b43fb-8c80-4692-977b-3f50e641a707"},"vehicle_type_id":"4","last_reported":1769588309,"current_range_meters":6000,"station_id":"ce4bhm92rcd13ifvqglg","pricing_plan_id":"cebpf4jnsgd1na2vs0mg"},{"bike_id":"ec6cd7cd-b5d0-46e7-a3c8-0526c2ec4592","system_id":"levelo_inurba_marseille","lat":43.28425,"lon":5.34988,"is_reserved":false,"is_disabled":false,"rental_uris":{"android":"levelo://app?vid=ec6cd7cd-b5d0-46e7-a3c8-0526c2ec4592","ios":"levelo://app?vid=ec6cd7cd-b5d0-46e7-a3c8-0526c2ec4592"},"vehicle_type_id":"4","last_reported":1769588309,"current_range_meters":6000,"station_id":"ce4bhbh2rcd13ifvqepg","pricing_plan_id":"cebpf4jnsgd1na2vs0mg"},{"bike_id":"5629f77c-efd7-418d-a053-3ace41b8a029","system_id":"levelo_inurba_marseille","lat":43.282707,"lon":5.350702,"is_reserved":false,"is_disabled":false,"rental_uris":{"android":"levelo://app?vid=5629f77c-efd7-418d-a053-3ace41b8a029","ios":"levelo://app?vid=5629f77c-efd7-418d-a053-3ace41b8a029"},"vehicle_type_id":"4","last_reported":1769588309,"current_range_meters":6000,"station_id":"","pricing_plan_id":"cebpf4jnsgd1na2vs0mg"},{"bike_id":"ecdc277d-4154-4fee-bbb8-fdea143bb654","system_id":"levelo_inurba_marseille","lat":43.31689,"lon":5.4045,"is_reserved":false,"is_disabled":true,"rental_uris":{"android":"levelo://app?vid=ecdc277d-4154-4fee-bbb8-fdea143bb654","ios":"levelo://app?vid=ecdc277d-4154-4fee-bbb8-fdea143bb654"},"vehicle_type_id":"4","last_reported":1769588309,"current_range_meters":6000,"station_id":"ce4bh012rcd13ifvqd00","pricing_plan_id":"cebpf4jnsgd1na2vs0mg"},{"bike_id":"0e3e56a8-c028-4a2f-88ed-6334be577f88","system_id":"levelo_inurba_marseille","lat":43.23152,"lon":5.43719,"is_reserved":false,"is_disabled":false,"rental_uris":{"android":"levelo://app?vid=0e3e56a8-c028-4a2f-88ed-6334be577f88","ios":"levelo://app?vid=0e3e56a8-c028-4a2f-88ed-6334be577f88"},"vehicle_type_id":"4","last_reported":1769588309,"current_range_meters":6000,"station_id":"ce4bhmp2rcd13ifvqgog","pricing_plan_id":"cebpf4jnsgd1na2vs0mg"},{"bike_id":"66b53d6a-3c00-42ec-b9d6-c6c8259b1a95","system_id":"levelo_inurba_marseille","lat":43.337444,"lon":5.374475,"is_reserved":false,"is_disabled":false,"rental_uris":{"android":"levelo://app?vid=66b53d6a-3c00-42ec-b9d6-c6c8259b1a95","ios":"levelo://app?vid=66b53d6a-3c00-42ec-b9d6-c6c8259b1a95"},"vehicle_type_id":"4","last_reported":1769588309,"current_range_meters":6000,"station_id":"","pricing_plan_id":"cebpf4jnsgd1na2vs0mg"},{"bike_id":"db310099-e410-46db-8f42-7b76b3ec64f2","system_id":"levelo_inurba_marseille","lat":43.25825,"lon":5.39434,"is_reserved":false,"is_disabled":false,"rental_uris":{"android":"levelo://app?vid=db310099-e410-46db-8f42-7b76b3ec64f2","ios":"levelo://app?vid=db310099-e410-46db-8f42-7b76b3ec64f2"},"vehicle_type_id":"4","last_reported":1769588309,"current_range_meters":6000,"station_id":"ce4bhip2rcd13ifvqft0","pricing_plan_id":"cebpf4jnsgd1na2vs0mg"},{"bike_id":"5ec5e39e-3ed1-40f6-847f-e3215d6e9aa5","system_id":"levelo_inurba_marseille","lat":43.28406,"lon":5.3499,"is_reserved":false,"is_disabled":false,"rental_uris":{"android":"levelo://app?vid=5ec5e39e-3ed1-40f6-847f-e3215d6e9aa5","ios":"levelo://app?vid=5ec5e39e-3ed1-40f6-847f-e3215d6e9aa5"},"vehicle_type_id":"4","last_reported":1769588309,"current_range_meters":6000,"station_id":"ce4bhbh2rcd13ifvqepg","pricing_plan_id":"cebpf4jnsgd1na2vs0mg"},{"bike_id":"3bc5eb93-5e52-4f30-bca7-1c72bb708566","system_id":"levelo_inurba_marseille","lat":43.30875,"lon":5.37217,"is_reserved":false,"is_disabled":false,"rental_uris":{"android":"levelo://app?vid=3bc5eb93-5e52-4f30-bca7-1c72bb708566","ios":"levelo://app?vid=3bc5eb93-5e52-4f30-bca7-1c72bb708566"},"vehicle_type_id":"4","last_reported":1769588309,"current_range_meters":6400,"station_id":"ce4bguh2rcd13ifvqckg","pricing_plan_id":"cebpf4jnsgd1na2vs0mg"},{"bike_id":"0c2d8717-4f04-4375-8c56-d1054f76569d","system_id":"levelo_inurba_marseille","lat":43.2668,"lon":5.38274,"is_reserved":false,"is_disabled":false,"rental_uris":{"android":"levelo://app?vid=0c2d8717-4f04-4375-8c56-d1054f76569d","ios":"levelo://app?vid=0c2d8717-4f04-4375-8c56-d1054f76569d"},"vehicle_type_id":"4","last_reported":1769588309,"current_range_meters":6400,"station_id":"ce4bhg92rcd13ifvqf90","pricing_plan_id":"cebpf4jnsgd1na2vs0mg"},{"bike_id":"d89cf35e-ea72-4be0-abab-d87970f6484a","system_id":"levelo_inurba_marseille","lat":43.30542,"lon":5.36523,"is_reserved":false,"is_disabled":false,"rental_uris":{"android":"levelo://app?vid=d89cf35e-ea72-4be0-abab-d87970f6484a","ios":"levelo://app?vid=d89cf35e-ea72-4be0-abab-d87970f6484a"},"vehicle_type_id":"4","last_reported":1769588309,"current_range_meters":6400,"station_id":"ce4bgs12rcd13ifvqcag","pricing_plan_id":"cebpf4jnsgd1na2vs0mg"},{"bike_id":"b15feef3-6d7c-44a8-8028-53c3fba47a9a","system_id":"levelo_inurba_marseille","lat":43.27328,"lon":5.39091,"is_reserved":false,"is_disabled":false,"rental_uris":{"android":"levelo://app?vid=b15feef3-6d7c-44a8-8028-53c3fba47a9a","ios":"levelo://app?vid=b15feef3-6d7c-44a8-8028-53c3fba47a9a"},"vehicle_type_id":"4","last_reported":1769588309,"current_range_meters":6400,"station_id":"ce4bhgp2rcd13ifvqfe0","pricing_plan_id":"cebpf4jnsgd1na2vs0mg"},{"bike_id":"832ba7eb-1c35-43cb-be63-61f58639df63","system_id":"levelo_inurba_marseille","lat":43.32345,"lon":5.36726,"is_reserved":false,"is_disabled":false,"rental_uris":{"android":"levelo://app?vid=832ba7eb-1c35-43cb-be63-61f58639df63","ios":"levelo://app?vid=832ba7eb-1c35-43cb-be63-61f58639df63"},"vehicle_type_id":"4","last_reported":1769588309,"current_range_meters":6400,"station_id":"ce4bhsh2rcd13ifvqi2g","pricing_plan_id":"cebpf4jnsgd1na2vs0mg"},{"bike_id":"bd3b0a67-2084-4ca5-8e9b-9b93b601cec9","system_id":"levelo_inurba_marseille","lat":43.23191,"lon":5.39983,"is_reserved":false,"is_disabled":false,"rental_uris":{"android":"levelo://app?vid=bd3b0a67-2084-4ca5-8e9b-9b93b601cec9","ios":"levelo://app?vid=bd3b0a67-2084-4ca5-8e9b-9b93b601cec9"},"vehicle_type_id":"4","last_reported":1769588309,"current_range_meters":6400,"station_id":"ce4bhn12rcd13ifvqgqg","pricing_plan_id":"cebpf4jnsgd1na2vs0mg"},{"bike_id":"82a6b099-0577-4798-9a60-21fb38c2bbb7","system_id":"levelo_inurba_marseille","lat":43.29816,"lon":5.44082,"is_reserved":false,"is_disabled":false,"rental_uris":{"android":"levelo://app?vid=82a6b099-0577-4798-9a60-21fb38c2bbb7","ios":"levelo://app?vid=82a6b099-0577-4798-9a60-21fb38c2bbb7"},"vehicle_type_id":"4","last_reported":1769588309,"current_range_meters":6800,"station_id":"st_d3jp68qikq2c7381ktn0","pricing_plan_id":"cebpf4jnsgd1na2vs0mg"},{"bike_id":"5b705ed1-b0f1-403e-b536-a8d7310a5d03","system_id":"levelo_inurba_marseille","lat":43.296398,"lon":5.405953,"is_reserved":false,"is_disabled":false,"rental_uris":{"android":"levelo://app?vid=5b705ed1-b0f1-403e-b536-a8d7310a5d03","ios":"levelo://app?vid=5b705ed1-b0f1-403e-b536-a8d7310a5d03"},"vehicle_type_id":"4","last_reported":1769588309,"current_range_meters":6800,"station_id":"ce4bh0h2rcd13ifvqd60","pricing_plan_id":"cebpf4jnsgd1na2vs0mg"},{"bike_id":"70e6e4b1-7efc-43fa-b416-14145ad2c461","system_id":"levelo_inurba_marseille","lat":43.27796,"lon":5.40719,"is_reserved":false,"is_disabled":false,"rental_uris":{"android":"levelo://app?vid=70e6e4b1-7efc-43fa-b416-14145ad2c461","ios":"levelo://app?vid=70e6e4b1-7efc-43fa-b416-14145ad2c461"},"vehicle_type_id":"4","last_reported":1769588309,"current_range_meters":6800,"station_id":"ce4bhnh2rcd13ifvqgtg","pricing_plan_id":"cebpf4jnsgd1na2vs0mg"},{"bike_id":"3f2aa41d-c383-46ab-8819-d330a3a97ead","system_id":"levelo_inurba_marseille","lat":43.24078,"lon":5.37761,"is_reserved":false,"is_disabled":false,"rental_uris":{"android":"levelo://app?vid=3f2aa41d-c383-46ab-8819-d330a3a97ead","ios":"levelo://app?vid=3f2aa41d-c383-46ab-8819-d330a3a97ead"},"vehicle_type_id":"4","last_reported":1769588309,"current_range_meters":6800,"station_id":"ce4bhnp2rcd13ifvqgvg","pricing_plan_id":"cebpf4jnsgd1na2vs0mg"},{"bike_id":"fef0ac19-3717-486a-8ad8-52521edc6528","system_id":"levelo_inurba_marseille","lat":43.25583,"lon":5.38232,"is_reserved":false,"is_disabled":false,"rental_uris":{"android":"levelo://app?vid=fef0ac19-3717-486a-8ad8-52521edc6528","ios":"levelo://app?vid=fef0ac19-3717-486a-8ad8-52521edc6528"},"vehicle_type_id":"4","last_reported":1769588309,"current_range_meters":6800,"station_id":"ce4bhih2rcd13ifvqfs0","pricing_plan_id":"cebpf4jnsgd1na2vs0mg"},{"bike_id":"63dc15a4-721e-4373-abbf-a95cac1a8859","system_id":"levelo_inurba_marseille","lat":43.26921,"lon":5.4025,"is_reserved":false,"is_disabled":false,"rental_uris":{"android":"levelo://app?vid=63dc15a4-721e-4373-abbf-a95cac1a8859","ios":"levelo://app?vid=63dc15a4-721e-4373-abbf-a95cac1a8859"},"vehicle_type_id":"4","last_reported":1769588309,"current_range_meters":6800,"station_id":"cjm6bp8fraef2m0cb0m0","pricing_plan_id":"cebpf4jnsgd1na2vs0mg"},{"bike_id":"37898724-93a0-4c37-b4d2-86862ecb9561","system_id":"levelo_inurba_marseille","lat":43.24389,"lon":5.37073,"is_reserved":false,"is_disabled":false,"rental_uris":{"android":"levelo://app?vid=37898724-93a0-4c37-b4d2-86862ecb9561","ios":"levelo://app?vid=37898724-93a0-4c37-b4d2-86862ecb9561"},"vehicle_type_id":"4","last_reported":1769588309,"current_range_meters":6800,"station_id":"ce4bhhh2rcd13ifvqfk0","pricing_plan_id":"cebpf4jnsgd1na2vs0mg"},{"bike_id":"1ad2e393-a92c-4f9d-816f-005ca727b14e","system_id":"levelo_inurba_marseille","lat":43.231471,"lon":5.437273,"is_reserved":false,"is_disabled":false,"rental_uris":{"android":"levelo://app?vid=1ad2e393-a92c-4f9d-816f-005ca727b14e","ios":"levelo://app?vid=1ad2e393-a92c-4f9d-816f-005ca727b14e"},"vehicle_type_id":"4","last_reported":1769588309,"current_range_meters":6800,"station_id":"ce4bhmp2rcd13ifvqgog","pricing_plan_id":"cebpf4jnsgd1na2vs0mg"},{"bike_id":"0e2af928-1823-41b4-be10-9ab8609a9a2e","system_id":"levelo_inurba_marseille","lat":43.24166,"lon":5.36416,"is_reserved":false,"is_disabled":false,"rental_uris":{"android":"levelo://app?vid=0e2af928-1823-41b4-be10-9ab8609a9a2e","ios":"levelo://app?vid=0e2af928-1823-41b4-be10-9ab8609a9a2e"},"vehicle_type_id":"4","last_reported":1769588309,"current_range_meters":6800,"station_id":"cpo36qri1sfpv3e86is0","pricing_plan_id":"cebpf4jnsgd1na2vs0mg"},{"bike_id":"81fef906-e459-4704-b7bd-13ca2e6b9c5d","system_id":"levelo_inurba_marseille","lat":43.25569,"lon":5.38248,"is_reserved":false,"is_disabled":false,"rental_uris":{"android":"levelo://app?vid=81fef906-e459-4704-b7bd-13ca2e6b9c5d","ios":"levelo://app?vid=81fef906-e459-4704-b7bd-13ca2e6b9c5d"},"vehicle_type_id":"4","last_reported":1769588309,"current_range_meters":6800,"station_id":"ce4bhih2rcd13ifvqfs0","pricing_plan_id":"cebpf4jnsgd1na2vs0mg"},{"bike_id":"67175935-f2b0-4959-ba76-732eb99a2a60","system_id":"levelo_inurba_marseille","lat":43.28107,"lon":5.37843,"is_reserved":false,"is_disabled":false,"rental_uris":{"android":"levelo://app?vid=67175935-f2b0-4959-ba76-732eb99a2a60","ios":"levelo://app?vid=67175935-f2b0-4959-ba76-732eb99a2a60"},"vehicle_type_id":"4","last_reported":1769588309,"current_range_meters":6800,"station_id":"ce4bha12rcd13ifvqee0","pricing_plan_id":"cebpf4jnsgd1na2vs0mg"},{"bike_id":"8de525a9-5bd3-43a9-9291-a02ed36bbc58","system_id":"levelo_inurba_marseille","lat":43.3316,"lon":5.37718,"is_reserved":false,"is_disabled":false,"rental_uris":{"android":"levelo://app?vid=8de525a9-5bd3-43a9-9291-a02ed36bbc58","ios":"levelo://app?vid=8de525a9-5bd3-43a9-9291-a02ed36bbc58"},"vehicle_type_id":"4","last_reported":1769588309,"current_range_meters":6800,"station_id":"st_d46cu089ee8s73dldbu0","pricing_plan_id":"cebpf4jnsgd1na2vs0mg"},{"bike_id":"55815b43-85cf-40ff-97dd-1477d8dcbf09","system_id":"levelo_inurba_marseille","lat":43.23144,"lon":5.43717,"is_reserved":false,"is_disabled":false,"rental_uris":{"android":"levelo://app?vid=55815b43-85cf-40ff-97dd-1477d8dcbf09","ios":"levelo://app?vid=55815b43-85cf-40ff-97dd-1477d8dcbf09"},"vehicle_type_id":"4","last_reported":1769588309,"current_range_meters":6800,"station_id":"ce4bhmp2rcd13ifvqgog","pricing_plan_id":"cebpf4jnsgd1na2vs0mg"},{"bike_id":"43cdc93d-f3f2-47d5-9737-990cb5438b9e","system_id":"levelo_inurba_marseille","lat":43.33164,"lon":5.37733,"is_reserved":false,"is_disabled":false,"rental_uris":{"android":"levelo://app?vid=43cdc93d-f3f2-47d5-9737-990cb5438b9e","ios":"levelo://app?vid=43cdc93d-f3f2-47d5-9737-990cb5438b9e"},"vehicle_type_id":"4","last_reported":1769588309,"current_range_meters":6800,"station_id":"st_d46cu089ee8s73dldbu0","pricing_plan_id":"cebpf4jnsgd1na2vs0mg"},{"bike_id":"415343c8-f4d1-4c58-85d1-0233c1b521d9","system_id":"levelo_inurba_marseille","lat":43.26676,"lon":5.38298,"is_reserved":false,"is_disabled":false,"rental_uris":{"android":"levelo://app?vid=415343c8-f4d1-4c58-85d1-0233c1b521d9","ios":"levelo://app?vid=415343c8-f4d1-4c58-85d1-0233c1b521d9"},"vehicle_type_id":"4","last_reported":1769588309,"current_range_meters":6800,"station_id":"ce4bhg92rcd13ifvqf90","pricing_plan_id":"cebpf4jnsgd1na2vs0mg"},{"bike_id":"5432d7a0-1700-4fbb-98da-e9587b56686e","system_id":"levelo_inurba_marseille","lat":43.276,"lon":5.36133,"is_reserved":false,"is_disabled":false,"rental_uris":{"android":"levelo://app?vid=5432d7a0-1700-4fbb-98da-e9587b56686e","ios":"levelo://app?vid=5432d7a0-1700-4fbb-98da-e9587b56686e"},"vehicle_type_id":"4","last_reported":1769588309,"current_range_meters":7200,"station_id":"ce4bgj92rcd13ifvqbe0","pricing_plan_id":"cebpf4jnsgd1na2vs0mg"},{"bike_id":"8dc448db-0f01-45e0-bf4d-2b7b1363db90","system_id":"levelo_inurba_marseille","lat":43.31489,"lon":5.37311,"is_reserved":false,"is_disabled":true,"rental_uris":{"android":"levelo://app?vid=8dc448db-0f01-45e0-bf4d-2b7b1363db90","ios":"levelo://app?vid=8dc448db-0f01-45e0-bf4d-2b7b1363db90"},"vehicle_type_id":"4","last_reported":1769588309,"current_range_meters":7200,"station_id":"ce4bgt12rcd13ifvqcd0","pricing_plan_id":"cebpf4jnsgd1na2vs0mg"},{"bike_id":"2b025830-a75f-4dd0-9345-1f4a2853b8f8","system_id":"levelo_inurba_marseille","lat":43.32355,"lon":5.3673,"is_reserved":false,"is_disabled":false,"rental_uris":{"android":"levelo://app?vid=2b025830-a75f-4dd0-9345-1f4a2853b8f8","ios":"levelo://app?vid=2b025830-a75f-4dd0-9345-1f4a2853b8f8"},"vehicle_type_id":"4","last_reported":1769588309,"current_range_meters":7200,"station_id":"ce4bhsh2rcd13ifvqi2g","pricing_plan_id":"cebpf4jnsgd1na2vs0mg"},{"bike_id":"d6f39e75-dc9f-4ba9-bbb4-c7d3ad379682","system_id":"levelo_inurba_marseille","lat":43.29708,"lon":5.3769,"is_reserved":false,"is_disabled":false,"rental_uris":{"android":"levelo://app?vid=d6f39e75-dc9f-4ba9-bbb4-c7d3ad379682","ios":"levelo://app?vid=d6f39e75-dc9f-4ba9-bbb4-c7d3ad379682"},"vehicle_type_id":"4","last_reported":1769588309,"current_range_meters":7200,"station_id":"ce4bgkh2rcd13ifvqbl0","pricing_plan_id":"cebpf4jnsgd1na2vs0mg"},{"bike_id":"c9026cf3-bc60-41ac-ba3f-4fdf4bcb4586","system_id":"levelo_inurba_marseille","lat":43.25331,"lon":5.42175,"is_reserved":false,"is_disabled":false,"rental_uris":{"android":"levelo://app?vid=c9026cf3-bc60-41ac-ba3f-4fdf4bcb4586","ios":"levelo://app?vid=c9026cf3-bc60-41ac-ba3f-4fdf4bcb4586"},"vehicle_type_id":"4","last_reported":1769588309,"current_range_meters":7200,"station_id":"st_d2m65c5bi1j21697t3ng","pricing_plan_id":"cebpf4jnsgd1na2vs0mg"},{"bike_id":"701b1f82-872b-404a-b1b9-c04d698fc931","system_id":"levelo_inurba_marseille","lat":43.28987,"lon":5.35637,"is_reserved":false,"is_disabled":true,"rental_uris":{"android":"levelo://app?vid=701b1f82-872b-404a-b1b9-c04d698fc931","ios":"levelo://app?vid=701b1f82-872b-404a-b1b9-c04d698fc931"},"vehicle_type_id":"4","last_reported":1769588309,"current_range_meters":7200,"station_id":"ce4bhb92rcd13ifvqen0","pricing_plan_id":"cebpf4jnsgd1na2vs0mg"},{"bike_id":"83fc51a6-33d8-4514-8bb6-691df6dd60b4","system_id":"levelo_inurba_marseille","lat":43.30093,"lon":5.43124,"is_reserved":false,"is_disabled":false,"rental_uris":{"android":"levelo://app?vid=83fc51a6-33d8-4514-8bb6-691df6dd60b4","ios":"levelo://app?vid=83fc51a6-33d8-4514-8bb6-691df6dd60b4"},"vehicle_type_id":"4","last_reported":1769588309,"current_range_meters":7200,"station_id":"st_d3js3co5814s73ftftug","pricing_plan_id":"cebpf4jnsgd1na2vs0mg"},{"bike_id":"1f27925c-ff25-4870-9c4e-ac24412cf67a","system_id":"levelo_inurba_marseille","lat":43.30068,"lon":5.37671,"is_reserved":false,"is_disabled":false,"rental_uris":{"android":"levelo://app?vid=1f27925c-ff25-4870-9c4e-ac24412cf67a","ios":"levelo://app?vid=1f27925c-ff25-4870-9c4e-ac24412cf67a"},"vehicle_type_id":"4","last_reported":1769588309,"current_range_meters":7200,"station_id":"","pricing_plan_id":"cebpf4jnsgd1na2vs0mg"},{"bike_id":"2e4b5a78-8d5f-49ab-a32c-da3979878386","system_id":"levelo_inurba_marseille","lat":43.25483,"lon":5.37649,"is_reserved":false,"is_disabled":false,"rental_uris":{"android":"levelo://app?vid=2e4b5a78-8d5f-49ab-a32c-da3979878386","ios":"levelo://app?vid=2e4b5a78-8d5f-49ab-a32c-da3979878386"},"vehicle_type_id":"4","last_reported":1769588309,"current_range_meters":7200,"station_id":"ce4bhh12rcd13ifvqff0","pricing_plan_id":"cebpf4jnsgd1na2vs0mg"},{"bike_id":"69015cf3-bc6b-446f-9be5-f6f422a1478d","system_id":"levelo_inurba_marseille","lat":43.28869,"lon":5.42526,"is_reserved":false,"is_disabled":false,"rental_uris":{"android":"levelo://app?vid=69015cf3-bc6b-446f-9be5-f6f422a1478d","ios":"levelo://app?vid=69015cf3-bc6b-446f-9be5-f6f422a1478d"},"vehicle_type_id":"4","last_reported":1769588309,"current_range_meters":7200,"station_id":"st_d3b462108ojc7389ooeg","pricing_plan_id":"cebpf4jnsgd1na2vs0mg"},{"bike_id":"dd025a3b-8d88-4cc7-98ea-d46d5c91c806","system_id":"levelo_inurba_marseille","lat":43.271944,"lon":5.409888,"is_reserved":false,"is_disabled":false,"rental_uris":{"android":"levelo://app?vid=dd025a3b-8d88-4cc7-98ea-d46d5c91c806","ios":"levelo://app?vid=dd025a3b-8d88-4cc7-98ea-d46d5c91c806"},"vehicle_type_id":"4","last_reported":1769588309,"current_range_meters":7200,"station_id":"ce4bhl12rcd13ifvqgf0","pricing_plan_id":"cebpf4jnsgd1na2vs0mg"},{"bike_id":"42f8414b-aac3-4531-a10a-d65bb6862d25","system_id":"levelo_inurba_marseille","lat":43.2534,"lon":5.42209,"is_reserved":false,"is_disabled":false,"rental_uris":{"android":"levelo://app?vid=42f8414b-aac3-4531-a10a-d65bb6862d25","ios":"levelo://app?vid=42f8414b-aac3-4531-a10a-d65bb6862d25"},"vehicle_type_id":"4","last_reported":1769588309,"current_range_meters":7200,"station_id":"st_d2m65c5bi1j21697t3ng","pricing_plan_id":"cebpf4jnsgd1na2vs0mg"},{"bike_id":"5d05d531-ebc5-422e-a94d-fab2e789248e","system_id":"levelo_inurba_marseille","lat":43.2509,"lon":5.39513,"is_reserved":false,"is_disabled":false,"rental_uris":{"android":"levelo://app?vid=5d05d531-ebc5-422e-a94d-fab2e789248e","ios":"levelo://app?vid=5d05d531-ebc5-422e-a94d-fab2e789248e"},"vehicle_type_id":"4","last_reported":1769588309,"current_range_meters":8000,"station_id":"ce4bhm12rcd13ifvqgkg","pricing_plan_id":"cebpf4jnsgd1na2vs0mg"},{"bike_id":"72089be9-38d6-423c-b54b-444cdb64406b","system_id":"levelo_inurba_marseille","lat":43.28411,"lon":5.34988,"is_reserved":false,"is_disabled":false,"rental_uris":{"android":"levelo://app?vid=72089be9-38d6-423c-b54b-444cdb64406b","ios":"levelo://app?vid=72089be9-38d6-423c-b54b-444cdb64406b"},"vehicle_type_id":"4","last_reported":1769588309,"current_range_meters":8000,"station_id":"ce4bhbh2rcd13ifvqepg","pricing_plan_id":"cebpf4jnsgd1na2vs0mg"},{"bike_id":"396ec683-e6cb-4075-8fab-ea51d545abde","system_id":"levelo_inurba_marseille","lat":43.2706,"lon":5.40275,"is_reserved":false,"is_disabled":false,"rental_uris":{"android":"levelo://app?vid=396ec683-e6cb-4075-8fab-ea51d545abde","ios":"levelo://app?vid=396ec683-e6cb-4075-8fab-ea51d545abde"},"vehicle_type_id":"4","last_reported":1769588309,"current_range_meters":8000,"station_id":"ce4bhk92rcd13ifvqgc0","pricing_plan_id":"cebpf4jnsgd1na2vs0mg"},{"bike_id":"215d9242-cc67-4957-98e5-94a2159c71f8","system_id":"levelo_inurba_marseille","lat":43.32356,"lon":5.36737,"is_reserved":false,"is_disabled":false,"rental_uris":{"android":"levelo://app?vid=215d9242-cc67-4957-98e5-94a2159c71f8","ios":"levelo://app?vid=215d9242-cc67-4957-98e5-94a2159c71f8"},"vehicle_type_id":"4","last_reported":1769588309,"current_range_meters":8000,"station_id":"ce4bhsh2rcd13ifvqi2g","pricing_plan_id":"cebpf4jnsgd1na2vs0mg"},{"bike_id":"a8bb1413-c00e-4733-889d-5d7e76a39ec8","system_id":"levelo_inurba_marseille","lat":43.2707,"lon":5.38288,"is_reserved":false,"is_disabled":false,"rental_uris":{"android":"levelo://app?vid=a8bb1413-c00e-4733-889d-5d7e76a39ec8","ios":"levelo://app?vid=a8bb1413-c00e-4733-889d-5d7e76a39ec8"},"vehicle_type_id":"4","last_reported":1769588309,"current_range_meters":8000,"station_id":"st_d3n2fo6cfp8s73cte1j0","pricing_plan_id":"cebpf4jnsgd1na2vs0mg"},{"bike_id":"2bcdbb6d-4166-46e3-b40e-b7f8fafb723d","system_id":"levelo_inurba_marseille","lat":43.29053,"lon":5.39925,"is_reserved":false,"is_disabled":false,"rental_uris":{"android":"levelo://app?vid=2bcdbb6d-4166-46e3-b40e-b7f8fafb723d","ios":"levelo://app?vid=2bcdbb6d-4166-46e3-b40e-b7f8fafb723d"},"vehicle_type_id":"4","last_reported":1769588309,"current_range_meters":8000,"station_id":"ce4bh392rcd13ifvqdm0","pricing_plan_id":"cebpf4jnsgd1na2vs0mg"},{"bike_id":"60c02f49-2adf-4424-ade8-9c6070d15506","system_id":"levelo_inurba_marseille","lat":43.25009,"lon":5.38924,"is_reserved":false,"is_disabled":false,"rental_uris":{"android":"levelo://app?vid=60c02f49-2adf-4424-ade8-9c6070d15506","ios":"levelo://app?vid=60c02f49-2adf-4424-ade8-9c6070d15506"},"vehicle_type_id":"4","last_reported":1769588309,"current_range_meters":8000,"station_id":"ce4bhgp2rcd13ifvqfd0","pricing_plan_id":"cebpf4jnsgd1na2vs0mg"},{"bike_id":"d75d722c-1278-467f-b25c-2eec7b30ce3e","system_id":"levelo_inurba_marseille","lat":43.29711,"lon":5.37703,"is_reserved":false,"is_disabled":false,"rental_uris":{"android":"levelo://app?vid=d75d722c-1278-467f-b25c-2eec7b30ce3e","ios":"levelo://app?vid=d75d722c-1278-467f-b25c-2eec7b30ce3e"},"vehicle_type_id":"4","last_reported":1769588309,"current_range_meters":8000,"station_id":"ce4bgkh2rcd13ifvqbl0","pricing_plan_id":"cebpf4jnsgd1na2vs0mg"},{"bike_id":"0e67fe98-9108-433b-9434-394fc2106387","system_id":"levelo_inurba_marseille","lat":43.24633,"lon":5.43148,"is_reserved":false,"is_disabled":false,"rental_uris":{"android":"levelo://app?vid=0e67fe98-9108-433b-9434-394fc2106387","ios":"levelo://app?vid=0e67fe98-9108-433b-9434-394fc2106387"},"vehicle_type_id":"4","last_reported":1769588309,"current_range_meters":8000,"station_id":"st_d2m6c4gdas8pm72e190g","pricing_plan_id":"cebpf4jnsgd1na2vs0mg"},{"bike_id":"7685a49c-8aa3-4105-b6c4-9b0fdec5d0f8","system_id":"levelo_inurba_marseille","lat":43.31499,"lon":5.37237,"is_reserved":false,"is_disabled":false,"rental_uris":{"android":"levelo://app?vid=7685a49c-8aa3-4105-b6c4-9b0fdec5d0f8","ios":"levelo://app?vid=7685a49c-8aa3-4105-b6c4-9b0fdec5d0f8"},"vehicle_type_id":"4","last_reported":1769588309,"current_range_meters":8000,"station_id":"","pricing_plan_id":"cebpf4jnsgd1na2vs0mg"},{"bike_id":"dca56683-484c-4cbd-a002-b9a1d5c6aa4e","system_id":"levelo_inurba_marseille","lat":43.337682,"lon":5.374371,"is_reserved":false,"is_disabled":false,"rental_uris":{"android":"levelo://app?vid=dca56683-484c-4cbd-a002-b9a1d5c6aa4e","ios":"levelo://app?vid=dca56683-484c-4cbd-a002-b9a1d5c6aa4e"},"vehicle_type_id":"4","last_reported":1769588309,"current_range_meters":8000,"station_id":"","pricing_plan_id":"cebpf4jnsgd1na2vs0mg"},{"bike_id":"41c91ad2-73b9-4699-b23d-1b5a65edd284","system_id":"levelo_inurba_marseille","lat":43.335359,"lon":5.374656,"is_reserved":false,"is_disabled":false,"rental_uris":{"android":"levelo://app?vid=41c91ad2-73b9-4699-b23d-1b5a65edd284","ios":"levelo://app?vid=41c91ad2-73b9-4699-b23d-1b5a65edd284"},"vehicle_type_id":"4","last_reported":1769588309,"current_range_meters":8000,"station_id":"","pricing_plan_id":"cebpf4jnsgd1na2vs0mg"},{"bike_id":"46811941-3c77-4e43-8b7a-4ca16cd49201","system_id":"levelo_inurba_marseille","lat":43.304293,"lon":5.397423,"is_reserved":false,"is_disabled":false,"rental_uris":{"android":"levelo://app?vid=46811941-3c77-4e43-8b7a-4ca16cd49201","ios":"levelo://app?vid=46811941-3c77-4e43-8b7a-4ca16cd49201"},"vehicle_type_id":"4","last_reported":1769588309,"current_range_meters":8000,"station_id":"ce4bgjp2rcd13ifvqbh0","pricing_plan_id":"cebpf4jnsgd1na2vs0mg"},{"bike_id":"c6c829a3-9a24-4361-bd05-061508fb311d","system_id":"levelo_inurba_marseille","lat":43.30307,"lon":5.36899,"is_reserved":false,"is_disabled":false,"rental_uris":{"android":"levelo://app?vid=c6c829a3-9a24-4361-bd05-061508fb311d","ios":"levelo://app?vid=c6c829a3-9a24-4361-bd05-061508fb311d"},"vehicle_type_id":"4","last_reported":1769588309,"current_range_meters":8400,"station_id":"ce4bgqh2rcd13ifvqc5g","pricing_plan_id":"cebpf4jnsgd1na2vs0mg"},{"bike_id":"9b2f527d-d05e-4b3d-98b5-f84c2874ffe8","system_id":"levelo_inurba_marseille","lat":43.29592,"lon":5.38118,"is_reserved":false,"is_disabled":false,"rental_uris":{"android":"levelo://app?vid=9b2f527d-d05e-4b3d-98b5-f84c2874ffe8","ios":"levelo://app?vid=9b2f527d-d05e-4b3d-98b5-f84c2874ffe8"},"vehicle_type_id":"4","last_reported":1769588309,"current_range_meters":8400,"station_id":"ce4bgl12rcd13ifvqbo0","pricing_plan_id":"cebpf4jnsgd1na2vs0mg"},{"bike_id":"8f81f246-6d5d-41c6-a914-40ca18e88edd","system_id":"levelo_inurba_marseille","lat":43.33202,"lon":5.40226,"is_reserved":false,"is_disabled":false,"rental_uris":{"android":"levelo://app?vid=8f81f246-6d5d-41c6-a914-40ca18e88edd","ios":"levelo://app?vid=8f81f246-6d5d-41c6-a914-40ca18e88edd"},"vehicle_type_id":"4","last_reported":1769588309,"current_range_meters":8400,"station_id":"","pricing_plan_id":"cebpf4jnsgd1na2vs0mg"},{"bike_id":"c4afb074-53a0-4d44-b5f4-69a59fdc18cd","system_id":"levelo_inurba_marseille","lat":43.24167,"lon":5.36425,"is_reserved":false,"is_disabled":false,"rental_uris":{"android":"levelo://app?vid=c4afb074-53a0-4d44-b5f4-69a59fdc18cd","ios":"levelo://app?vid=c4afb074-53a0-4d44-b5f4-69a59fdc18cd"},"vehicle_type_id":"4","last_reported":1769588309,"current_range_meters":8400,"station_id":"cpo36qri1sfpv3e86is0","pricing_plan_id":"cebpf4jnsgd1na2vs0mg"},{"bike_id":"6afd1bf9-06fa-4549-8233-265757e3d715","system_id":"levelo_inurba_marseille","lat":43.29981,"lon":5.37203,"is_reserved":false,"is_disabled":false,"rental_uris":{"android":"levelo://app?vid=6afd1bf9-06fa-4549-8233-265757e3d715","ios":"levelo://app?vid=6afd1bf9-06fa-4549-8233-265757e3d715"},"vehicle_type_id":"4","last_reported":1769588309,"current_range_meters":8400,"station_id":"ce4bgr92rcd13ifvqc7g","pricing_plan_id":"cebpf4jnsgd1na2vs0mg"},{"bike_id":"7c70a630-f080-4d65-8f79-af323dbedc62","system_id":"levelo_inurba_marseille","lat":43.3012,"lon":5.43081,"is_reserved":false,"is_disabled":false,"rental_uris":{"android":"levelo://app?vid=7c70a630-f080-4d65-8f79-af323dbedc62","ios":"levelo://app?vid=7c70a630-f080-4d65-8f79-af323dbedc62"},"vehicle_type_id":"4","last_reported":1769588309,"current_range_meters":8400,"station_id":"st_d3js3co5814s73ftftug","pricing_plan_id":"cebpf4jnsgd1na2vs0mg"},{"bike_id":"234f7311-25dc-4b55-a0cb-d05382a81de7","system_id":"levelo_inurba_marseille","lat":43.30284,"lon":5.36898,"is_reserved":false,"is_disabled":false,"rental_uris":{"android":"levelo://app?vid=234f7311-25dc-4b55-a0cb-d05382a81de7","ios":"levelo://app?vid=234f7311-25dc-4b55-a0cb-d05382a81de7"},"vehicle_type_id":"4","last_reported":1769588309,"current_range_meters":8400,"station_id":"ce4bgqh2rcd13ifvqc5g","pricing_plan_id":"cebpf4jnsgd1na2vs0mg"},{"bike_id":"edcf7268-9037-4d86-a040-f29b3b6258a5","system_id":"levelo_inurba_marseille","lat":43.324835,"lon":5.365634,"is_reserved":false,"is_disabled":false,"rental_uris":{"android":"levelo://app?vid=edcf7268-9037-4d86-a040-f29b3b6258a5","ios":"levelo://app?vid=edcf7268-9037-4d86-a040-f29b3b6258a5"},"vehicle_type_id":"4","last_reported":1769588309,"current_range_meters":8400,"station_id":"ce4bhs12rcd13ifvqhvg","pricing_plan_id":"cebpf4jnsgd1na2vs0mg"},{"bike_id":"c00d1abe-f6f3-4677-9b5b-65f2d4348ca7","system_id":"levelo_inurba_marseille","lat":43.23188,"lon":5.35589,"is_reserved":false,"is_disabled":false,"rental_uris":{"android":"levelo://app?vid=c00d1abe-f6f3-4677-9b5b-65f2d4348ca7","ios":"levelo://app?vid=c00d1abe-f6f3-4677-9b5b-65f2d4348ca7"},"vehicle_type_id":"4","last_reported":1769588309,"current_range_meters":8400,"station_id":"ce4bhu92rcd13ifvqi70","pricing_plan_id":"cebpf4jnsgd1na2vs0mg"},{"bike_id":"1d6b32ed-dde8-4831-851e-66657d346ed1","system_id":"levelo_inurba_marseille","lat":43.31332,"lon":5.3671,"is_reserved":false,"is_disabled":false,"rental_uris":{"android":"levelo://app?vid=1d6b32ed-dde8-4831-851e-66657d346ed1","ios":"levelo://app?vid=1d6b32ed-dde8-4831-851e-66657d346ed1"},"vehicle_type_id":"4","last_reported":1769588309,"current_range_meters":8400,"station_id":"ce4bgr92rcd13ifvqc6g","pricing_plan_id":"cebpf4jnsgd1na2vs0mg"},{"bike_id":"1ffbda22-e3ce-449b-8cf2-1a8499f4ffd7","system_id":"levelo_inurba_marseille","lat":43.26952,"lon":5.3864,"is_reserved":false,"is_disabled":true,"rental_uris":{"android":"levelo://app?vid=1ffbda22-e3ce-449b-8cf2-1a8499f4ffd7","ios":"levelo://app?vid=1ffbda22-e3ce-449b-8cf2-1a8499f4ffd7"},"vehicle_type_id":"4","last_reported":1769588309,"current_range_meters":8400,"station_id":"ce4bhh92rcd13ifvqfh0","pricing_plan_id":"cebpf4jnsgd1na2vs0mg"},{"bike_id":"452f769f-adc3-4ad7-809e-fe7e6a116547","system_id":"levelo_inurba_marseille","lat":43.2957,"lon":5.37514,"is_reserved":false,"is_disabled":false,"rental_uris":{"android":"levelo://app?vid=452f769f-adc3-4ad7-809e-fe7e6a116547","ios":"levelo://app?vid=452f769f-adc3-4ad7-809e-fe7e6a116547"},"vehicle_type_id":"4","last_reported":1769588309,"current_range_meters":8400,"station_id":"ce4bgh92rcd13ifvqb50","pricing_plan_id":"cebpf4jnsgd1na2vs0mg"},{"bike_id":"c5845baf-9f1a-482b-a6a9-83c61113307a","system_id":"levelo_inurba_marseille","lat":43.23033,"lon":5.35503,"is_reserved":false,"is_disabled":false,"rental_uris":{"android":"levelo://app?vid=c5845baf-9f1a-482b-a6a9-83c61113307a","ios":"levelo://app?vid=c5845baf-9f1a-482b-a6a9-83c61113307a"},"vehicle_type_id":"4","last_reported":1769588309,"current_range_meters":8400,"station_id":"cpo3342slgdg3j2ifvpg","pricing_plan_id":"cebpf4jnsgd1na2vs0mg"},{"bike_id":"637b9777-0add-457f-8d9a-f4a28f2e8516","system_id":"levelo_inurba_marseille","lat":43.279929,"lon":5.400286,"is_reserved":false,"is_disabled":true,"rental_uris":{"android":"levelo://app?vid=637b9777-0add-457f-8d9a-f4a28f2e8516","ios":"levelo://app?vid=637b9777-0add-457f-8d9a-f4a28f2e8516"},"vehicle_type_id":"4","last_reported":1769588309,"current_range_meters":8400,"station_id":"ce4bho92rcd13ifvqh4g","pricing_plan_id":"cebpf4jnsgd1na2vs0mg"},{"bike_id":"a5e8b64b-2cd9-4b53-aad1-5ebeb26b79dd","system_id":"levelo_inurba_marseille","lat":43.24079,"lon":5.37751,"is_reserved":false,"is_disabled":false,"rental_uris":{"android":"levelo://app?vid=a5e8b64b-2cd9-4b53-aad1-5ebeb26b79dd","ios":"levelo://app?vid=a5e8b64b-2cd9-4b53-aad1-5ebeb26b79dd"},"vehicle_type_id":"4","last_reported":1769588309,"current_range_meters":8400,"station_id":"ce4bhnp2rcd13ifvqgvg","pricing_plan_id":"cebpf4jnsgd1na2vs0mg"},{"bike_id":"69a8705c-622c-4687-befc-0e95f406c55e","system_id":"levelo_inurba_marseille","lat":43.22556,"lon":5.41631,"is_reserved":false,"is_disabled":false,"rental_uris":{"android":"levelo://app?vid=69a8705c-622c-4687-befc-0e95f406c55e","ios":"levelo://app?vid=69a8705c-622c-4687-befc-0e95f406c55e"},"vehicle_type_id":"4","last_reported":1769588309,"current_range_meters":8800,"station_id":"st_d2o4gvlbi1j2169b742g","pricing_plan_id":"cebpf4jnsgd1na2vs0mg"},{"bike_id":"b45c8d2c-8d88-4cef-8b61-a19c2da1c61e","system_id":"levelo_inurba_marseille","lat":43.33542,"lon":5.37473,"is_reserved":false,"is_disabled":false,"rental_uris":{"android":"levelo://app?vid=b45c8d2c-8d88-4cef-8b61-a19c2da1c61e","ios":"levelo://app?vid=b45c8d2c-8d88-4cef-8b61-a19c2da1c61e"},"vehicle_type_id":"4","last_reported":1769588309,"current_range_meters":8800,"station_id":"st_d46tts09ee8s73dlu43g","pricing_plan_id":"cebpf4jnsgd1na2vs0mg"},{"bike_id":"e67fc9ad-980c-4bee-9cef-9478c6435fce","system_id":"levelo_inurba_marseille","lat":43.27942,"lon":5.4106,"is_reserved":false,"is_disabled":true,"rental_uris":{"android":"levelo://app?vid=e67fc9ad-980c-4bee-9cef-9478c6435fce","ios":"levelo://app?vid=e67fc9ad-980c-4bee-9cef-9478c6435fce"},"vehicle_type_id":"4","last_reported":1769588309,"current_range_meters":8800,"station_id":"ce4bhnp2rcd13ifvqh0g","pricing_plan_id":"cebpf4jnsgd1na2vs0mg"},{"bike_id":"2fdd7372-7a1a-41fc-b3d0-637003fe8700","system_id":"levelo_inurba_marseille","lat":43.26207,"lon":5.3793,"is_reserved":false,"is_disabled":false,"rental_uris":{"android":"levelo://app?vid=2fdd7372-7a1a-41fc-b3d0-637003fe8700","ios":"levelo://app?vid=2fdd7372-7a1a-41fc-b3d0-637003fe8700"},"vehicle_type_id":"4","last_reported":1769588309,"current_range_meters":8800,"station_id":"ce4bhjp2rcd13ifvqg90","pricing_plan_id":"cebpf4jnsgd1na2vs0mg"},{"bike_id":"c9b53918-0f4d-4f3e-8651-99e3b74c1b5b","system_id":"levelo_inurba_marseille","lat":43.30542,"lon":5.36555,"is_reserved":false,"is_disabled":false,"rental_uris":{"android":"levelo://app?vid=c9b53918-0f4d-4f3e-8651-99e3b74c1b5b","ios":"levelo://app?vid=c9b53918-0f4d-4f3e-8651-99e3b74c1b5b"},"vehicle_type_id":"4","last_reported":1769588309,"current_range_meters":8800,"station_id":"ce4bgs12rcd13ifvqcag","pricing_plan_id":"cebpf4jnsgd1na2vs0mg"},{"bike_id":"a097c751-bb29-4ebe-bc02-881e85889070","system_id":"levelo_inurba_marseille","lat":43.28869,"lon":5.42519,"is_reserved":false,"is_disabled":false,"rental_uris":{"android":"levelo://app?vid=a097c751-bb29-4ebe-bc02-881e85889070","ios":"levelo://app?vid=a097c751-bb29-4ebe-bc02-881e85889070"},"vehicle_type_id":"4","last_reported":1769588309,"current_range_meters":8800,"station_id":"st_d3b462108ojc7389ooeg","pricing_plan_id":"cebpf4jnsgd1na2vs0mg"},{"bike_id":"7914e119-1614-4899-81d3-c50cda4c6e7a","system_id":"levelo_inurba_marseille","lat":43.2314,"lon":5.43713,"is_reserved":false,"is_disabled":false,"rental_uris":{"android":"levelo://app?vid=7914e119-1614-4899-81d3-c50cda4c6e7a","ios":"levelo://app?vid=7914e119-1614-4899-81d3-c50cda4c6e7a"},"vehicle_type_id":"4","last_reported":1769588309,"current_range_meters":8800,"station_id":"ce4bhmp2rcd13ifvqgog","pricing_plan_id":"cebpf4jnsgd1na2vs0mg"},{"bike_id":"cb244530-27d3-443c-b788-0340e0e04b1c","system_id":"levelo_inurba_marseille","lat":43.33162,"lon":5.37693,"is_reserved":false,"is_disabled":false,"rental_uris":{"android":"levelo://app?vid=cb244530-27d3-443c-b788-0340e0e04b1c","ios":"levelo://app?vid=cb244530-27d3-443c-b788-0340e0e04b1c"},"vehicle_type_id":"4","last_reported":1769588309,"current_range_meters":8800,"station_id":"st_d46cu089ee8s73dldbu0","pricing_plan_id":"cebpf4jnsgd1na2vs0mg"},{"bike_id":"fd5cac91-3b82-41b2-9b97-04cacea7a2ee","system_id":"levelo_inurba_marseille","lat":43.26191,"lon":5.37457,"is_reserved":false,"is_disabled":true,"rental_uris":{"android":"levelo://app?vid=fd5cac91-3b82-41b2-9b97-04cacea7a2ee","ios":"levelo://app?vid=fd5cac91-3b82-41b2-9b97-04cacea7a2ee"},"vehicle_type_id":"4","last_reported":1769588309,"current_range_meters":8800,"station_id":"ce4bhgp2rcd13ifvqfc0","pricing_plan_id":"cebpf4jnsgd1na2vs0mg"},{"bike_id":"cd815d97-e1a1-472a-b27d-260260422901","system_id":"levelo_inurba_marseille","lat":43.28854,"lon":5.42523,"is_reserved":false,"is_disabled":false,"rental_uris":{"android":"levelo://app?vid=cd815d97-e1a1-472a-b27d-260260422901","ios":"levelo://app?vid=cd815d97-e1a1-472a-b27d-260260422901"},"vehicle_type_id":"4","last_reported":1769588309,"current_range_meters":8800,"station_id":"st_d3b462108ojc7389ooeg","pricing_plan_id":"cebpf4jnsgd1na2vs0mg"},{"bike_id":"c7e4813a-c248-4d27-817f-f64ef50a11f2","system_id":"levelo_inurba_marseille","lat":43.2593,"lon":5.40903,"is_reserved":false,"is_disabled":false,"rental_uris":{"android":"levelo://app?vid=c7e4813a-c248-4d27-817f-f64ef50a11f2","ios":"levelo://app?vid=c7e4813a-c248-4d27-817f-f64ef50a11f2"},"vehicle_type_id":"4","last_reported":1769588309,"current_range_meters":9200,"station_id":"ce4bhm92rcd13ifvqglg","pricing_plan_id":"cebpf4jnsgd1na2vs0mg"},{"bike_id":"d6347785-7f4b-4520-b64a-bf5bb0e98944","system_id":"levelo_inurba_marseille","lat":43.25016,"lon":5.38927,"is_reserved":false,"is_disabled":false,"rental_uris":{"android":"levelo://app?vid=d6347785-7f4b-4520-b64a-bf5bb0e98944","ios":"levelo://app?vid=d6347785-7f4b-4520-b64a-bf5bb0e98944"},"vehicle_type_id":"4","last_reported":1769588309,"current_range_meters":9200,"station_id":"ce4bhgp2rcd13ifvqfd0","pricing_plan_id":"cebpf4jnsgd1na2vs0mg"},{"bike_id":"4ae21097-68ff-4a44-bcb7-3e142e11d517","system_id":"levelo_inurba_marseille","lat":43.241688,"lon":5.364048,"is_reserved":false,"is_disabled":false,"rental_uris":{"android":"levelo://app?vid=4ae21097-68ff-4a44-bcb7-3e142e11d517","ios":"levelo://app?vid=4ae21097-68ff-4a44-bcb7-3e142e11d517"},"vehicle_type_id":"4","last_reported":1769588309,"current_range_meters":9200,"station_id":"cpo36qri1sfpv3e86is0","pricing_plan_id":"cebpf4jnsgd1na2vs0mg"},{"bike_id":"679ae7e7-b516-4d35-8054-2860ebdbb723","system_id":"levelo_inurba_marseille","lat":43.28038,"lon":5.36948,"is_reserved":false,"is_disabled":false,"rental_uris":{"android":"levelo://app?vid=679ae7e7-b516-4d35-8054-2860ebdbb723","ios":"levelo://app?vid=679ae7e7-b516-4d35-8054-2860ebdbb723"},"vehicle_type_id":"4","last_reported":1769588309,"current_range_meters":9200,"station_id":"ce4bha12rcd13ifvqef0","pricing_plan_id":"cebpf4jnsgd1na2vs0mg"},{"bike_id":"b96775b7-8954-4f94-990f-968813344c58","system_id":"levelo_inurba_marseille","lat":43.312666,"lon":5.37793,"is_reserved":false,"is_disabled":false,"rental_uris":{"android":"levelo://app?vid=b96775b7-8954-4f94-990f-968813344c58","ios":"levelo://app?vid=b96775b7-8954-4f94-990f-968813344c58"},"vehicle_type_id":"4","last_reported":1769588309,"current_range_meters":9200,"station_id":"","pricing_plan_id":"cebpf4jnsgd1na2vs0mg"},{"bike_id":"ec92a3d7-0aaf-40cf-9513-2fb7d35cc0c4","system_id":"levelo_inurba_marseille","lat":43.23029,"lon":5.35498,"is_reserved":false,"is_disabled":false,"rental_uris":{"android":"levelo://app?vid=ec92a3d7-0aaf-40cf-9513-2fb7d35cc0c4","ios":"levelo://app?vid=ec92a3d7-0aaf-40cf-9513-2fb7d35cc0c4"},"vehicle_type_id":"4","last_reported":1769588309,"current_range_meters":9200,"station_id":"cpo3342slgdg3j2ifvpg","pricing_plan_id":"cebpf4jnsgd1na2vs0mg"},{"bike_id":"a3a17489-cba8-4de4-bf32-67a21db74898","system_id":"levelo_inurba_marseille","lat":43.27205,"lon":5.39185,"is_reserved":false,"is_disabled":false,"rental_uris":{"android":"levelo://app?vid=a3a17489-cba8-4de4-bf32-67a21db74898","ios":"levelo://app?vid=a3a17489-cba8-4de4-bf32-67a21db74898"},"vehicle_type_id":"4","last_reported":1769588309,"current_range_meters":9200,"station_id":"ce4bhhp2rcd13ifvqfm0","pricing_plan_id":"cebpf4jnsgd1na2vs0mg"},{"bike_id":"36855e79-f7ac-4112-b45f-3779dd796963","system_id":"levelo_inurba_marseille","lat":43.30178,"lon":5.37363,"is_reserved":false,"is_disabled":false,"rental_uris":{"android":"levelo://app?vid=36855e79-f7ac-4112-b45f-3779dd796963","ios":"levelo://app?vid=36855e79-f7ac-4112-b45f-3779dd796963"},"vehicle_type_id":"4","last_reported":1769588309,"current_range_meters":9200,"station_id":"","pricing_plan_id":"cebpf4jnsgd1na2vs0mg"},{"bike_id":"2e2371e8-a9c9-4299-8c72-0c2cf10d80e0","system_id":"levelo_inurba_marseille","lat":43.30917,"lon":5.36857,"is_reserved":false,"is_disabled":false,"rental_uris":{"android":"levelo://app?vid=2e2371e8-a9c9-4299-8c72-0c2cf10d80e0","ios":"levelo://app?vid=2e2371e8-a9c9-4299-8c72-0c2cf10d80e0"},"vehicle_type_id":"4","last_reported":1769588309,"current_range_meters":9200,"station_id":"ce4bgn92rcd13ifvqbvg","pricing_plan_id":"cebpf4jnsgd1na2vs0mg"},{"bike_id":"bc230eaa-6d54-4e2d-8428-bb3463d83558","system_id":"levelo_inurba_marseille","lat":43.27308,"lon":5.39129,"is_reserved":false,"is_disabled":true,"rental_uris":{"android":"levelo://app?vid=bc230eaa-6d54-4e2d-8428-bb3463d83558","ios":"levelo://app?vid=bc230eaa-6d54-4e2d-8428-bb3463d83558"},"vehicle_type_id":"4","last_reported":1769588309,"current_range_meters":9600,"station_id":"ce4bhgp2rcd13ifvqfe0","pricing_plan_id":"cebpf4jnsgd1na2vs0mg"},{"bike_id":"d58f344c-cd0b-44a8-8dbf-ba727762a67b","system_id":"levelo_inurba_marseille","lat":43.23125,"lon":5.43747,"is_reserved":false,"is_disabled":false,"rental_uris":{"android":"levelo://app?vid=d58f344c-cd0b-44a8-8dbf-ba727762a67b","ios":"levelo://app?vid=d58f344c-cd0b-44a8-8dbf-ba727762a67b"},"vehicle_type_id":"4","last_reported":1769588309,"current_range_meters":9600,"station_id":"ce4bhmp2rcd13ifvqgog","pricing_plan_id":"cebpf4jnsgd1na2vs0mg"},{"bike_id":"29065f68-7126-4714-9ee4-88cfe04e93fc","system_id":"levelo_inurba_marseille","lat":43.28153,"lon":5.42646,"is_reserved":false,"is_disabled":false,"rental_uris":{"android":"levelo://app?vid=29065f68-7126-4714-9ee4-88cfe04e93fc","ios":"levelo://app?vid=29065f68-7126-4714-9ee4-88cfe04e93fc"},"vehicle_type_id":"4","last_reported":1769588309,"current_range_meters":9600,"station_id":"ce4bhnh2rcd13ifvqgug","pricing_plan_id":"cebpf4jnsgd1na2vs0mg"},{"bike_id":"e8f03a56-57c3-45d7-aa77-c0c99a59d5d8","system_id":"levelo_inurba_marseille","lat":43.31483,"lon":5.37304,"is_reserved":false,"is_disabled":false,"rental_uris":{"android":"levelo://app?vid=e8f03a56-57c3-45d7-aa77-c0c99a59d5d8","ios":"levelo://app?vid=e8f03a56-57c3-45d7-aa77-c0c99a59d5d8"},"vehicle_type_id":"4","last_reported":1769588309,"current_range_meters":9600,"station_id":"ce4bgt12rcd13ifvqcd0","pricing_plan_id":"cebpf4jnsgd1na2vs0mg"},{"bike_id":"4964a424-0af3-42e2-bf0b-74b0ddd1ccbc","system_id":"levelo_inurba_marseille","lat":43.25673,"lon":5.38686,"is_reserved":false,"is_disabled":false,"rental_uris":{"android":"levelo://app?vid=4964a424-0af3-42e2-bf0b-74b0ddd1ccbc","ios":"levelo://app?vid=4964a424-0af3-42e2-bf0b-74b0ddd1ccbc"},"vehicle_type_id":"4","last_reported":1769588309,"current_range_meters":9600,"station_id":"","pricing_plan_id":"cebpf4jnsgd1na2vs0mg"},{"bike_id":"44be3136-1c7c-4242-a3d1-ec5816806ff3","system_id":"levelo_inurba_marseille","lat":43.325087,"lon":5.382673,"is_reserved":false,"is_disabled":false,"rental_uris":{"android":"levelo://app?vid=44be3136-1c7c-4242-a3d1-ec5816806ff3","ios":"levelo://app?vid=44be3136-1c7c-4242-a3d1-ec5816806ff3"},"vehicle_type_id":"4","last_reported":1769588309,"current_range_meters":9600,"station_id":"st_d4asgbiv49dc73anf9m0","pricing_plan_id":"cebpf4jnsgd1na2vs0mg"},{"bike_id":"49da08f1-df70-46a0-a577-351fa673fc6a","system_id":"levelo_inurba_marseille","lat":43.33073,"lon":5.41162,"is_reserved":false,"is_disabled":false,"rental_uris":{"android":"levelo://app?vid=49da08f1-df70-46a0-a577-351fa673fc6a","ios":"levelo://app?vid=49da08f1-df70-46a0-a577-351fa673fc6a"},"vehicle_type_id":"4","last_reported":1769588309,"current_range_meters":9600,"station_id":"ce4bhqh2rcd13ifvqhmg","pricing_plan_id":"cebpf4jnsgd1na2vs0mg"},{"bike_id":"8c50cc1b-6957-4db2-9b96-76d9d37bac03","system_id":"levelo_inurba_marseille","lat":43.22564,"lon":5.4163,"is_reserved":false,"is_disabled":false,"rental_uris":{"android":"levelo://app?vid=8c50cc1b-6957-4db2-9b96-76d9d37bac03","ios":"levelo://app?vid=8c50cc1b-6957-4db2-9b96-76d9d37bac03"},"vehicle_type_id":"4","last_reported":1769588309,"current_range_meters":9600,"station_id":"st_d2o4gvlbi1j2169b742g","pricing_plan_id":"cebpf4jnsgd1na2vs0mg"},{"bike_id":"86f0ba6e-c862-4e0b-9683-b991dd2d9e44","system_id":"levelo_inurba_marseille","lat":43.2995,"lon":5.37484,"is_reserved":false,"is_disabled":false,"rental_uris":{"android":"levelo://app?vid=86f0ba6e-c862-4e0b-9683-b991dd2d9e44","ios":"levelo://app?vid=86f0ba6e-c862-4e0b-9683-b991dd2d9e44"},"vehicle_type_id":"4","last_reported":1769588309,"current_range_meters":9600,"station_id":"ce4bgjh2rcd13ifvqbg0","pricing_plan_id":"cebpf4jnsgd1na2vs0mg"},{"bike_id":"a72f3780-46e1-4a68-ba64-b12e3ddbf1f5","system_id":"levelo_inurba_marseille","lat":43.3414,"lon":5.40907,"is_reserved":false,"is_disabled":false,"rental_uris":{"android":"levelo://app?vid=a72f3780-46e1-4a68-ba64-b12e3ddbf1f5","ios":"levelo://app?vid=a72f3780-46e1-4a68-ba64-b12e3ddbf1f5"},"vehicle_type_id":"4","last_reported":1769588309,"current_range_meters":9600,"station_id":"ce4bhqh2rcd13ifvqhlg","pricing_plan_id":"cebpf4jnsgd1na2vs0mg"},{"bike_id":"7467cb27-eaf1-4da2-8e26-27fbbc086518","system_id":"levelo_inurba_marseille","lat":43.29933,"lon":5.42657,"is_reserved":false,"is_disabled":false,"rental_uris":{"android":"levelo://app?vid=7467cb27-eaf1-4da2-8e26-27fbbc086518","ios":"levelo://app?vid=7467cb27-eaf1-4da2-8e26-27fbbc086518"},"vehicle_type_id":"4","last_reported":1769588309,"current_range_meters":9600,"station_id":"","pricing_plan_id":"cebpf4jnsgd1na2vs0mg"},{"bike_id":"e52aa614-a897-4e5a-926e-b562b10310e7","system_id":"levelo_inurba_marseille","lat":43.30109,"lon":5.40199,"is_reserved":false,"is_disabled":false,"rental_uris":{"android":"levelo://app?vid=e52aa614-a897-4e5a-926e-b562b10310e7","ios":"levelo://app?vid=e52aa614-a897-4e5a-926e-b562b10310e7"},"vehicle_type_id":"4","last_reported":1769588309,"current_range_meters":9600,"station_id":"","pricing_plan_id":"cebpf4jnsgd1na2vs0mg"},{"bike_id":"8c072e3b-353a-4ad6-aa38-ac83b00c79d4","system_id":"levelo_inurba_marseille","lat":43.31327,"lon":5.38668,"is_reserved":false,"is_disabled":false,"rental_uris":{"android":"levelo://app?vid=8c072e3b-353a-4ad6-aa38-ac83b00c79d4","ios":"levelo://app?vid=8c072e3b-353a-4ad6-aa38-ac83b00c79d4"},"vehicle_type_id":"4","last_reported":1769588309,"current_range_meters":9600,"station_id":"","pricing_plan_id":"cebpf4jnsgd1na2vs0mg"},{"bike_id":"c98b11d0-0520-418d-bfc6-d6149e6ffac9","system_id":"levelo_inurba_marseille","lat":43.28458,"lon":5.48404,"is_reserved":false,"is_disabled":false,"rental_uris":{"android":"levelo://app?vid=c98b11d0-0520-418d-bfc6-d6149e6ffac9","ios":"levelo://app?vid=c98b11d0-0520-418d-bfc6-d6149e6ffac9"},"vehicle_type_id":"4","last_reported":1769588309,"current_range_meters":9600,"station_id":"st_d3svhcjqgbts73a3dn0g","pricing_plan_id":"cebpf4jnsgd1na2vs0mg"},{"bike_id":"12d18314-b173-4f53-8c34-39de8e2a6514","system_id":"levelo_inurba_marseille","lat":43.2844,"lon":5.38801,"is_reserved":false,"is_disabled":false,"rental_uris":{"android":"levelo://app?vid=12d18314-b173-4f53-8c34-39de8e2a6514","ios":"levelo://app?vid=12d18314-b173-4f53-8c34-39de8e2a6514"},"vehicle_type_id":"4","last_reported":1769588309,"current_range_meters":10000,"station_id":"","pricing_plan_id":"cebpf4jnsgd1na2vs0mg"},{"bike_id":"9806da0f-d7e9-4daf-99fc-e3fd22a4da76","system_id":"levelo_inurba_marseille","lat":43.25935,"lon":5.40881,"is_reserved":false,"is_disabled":false,"rental_uris":{"android":"levelo://app?vid=9806da0f-d7e9-4daf-99fc-e3fd22a4da76","ios":"levelo://app?vid=9806da0f-d7e9-4daf-99fc-e3fd22a4da76"},"vehicle_type_id":"4","last_reported":1769588309,"current_range_meters":10000,"station_id":"ce4bhm92rcd13ifvqglg","pricing_plan_id":"cebpf4jnsgd1na2vs0mg"},{"bike_id":"3e6599b3-80f5-4cb4-a947-9865a5671465","system_id":"levelo_inurba_marseille","lat":43.27616,"lon":5.3613,"is_reserved":false,"is_disabled":false,"rental_uris":{"android":"levelo://app?vid=3e6599b3-80f5-4cb4-a947-9865a5671465","ios":"levelo://app?vid=3e6599b3-80f5-4cb4-a947-9865a5671465"},"vehicle_type_id":"4","last_reported":1769588309,"current_range_meters":10000,"station_id":"ce4bgj92rcd13ifvqbe0","pricing_plan_id":"cebpf4jnsgd1na2vs0mg"},{"bike_id":"312472ef-ec71-4255-ba04-19d354fd64d5","system_id":"levelo_inurba_marseille","lat":43.2396,"lon":5.36625,"is_reserved":false,"is_disabled":false,"rental_uris":{"android":"levelo://app?vid=312472ef-ec71-4255-ba04-19d354fd64d5","ios":"levelo://app?vid=312472ef-ec71-4255-ba04-19d354fd64d5"},"vehicle_type_id":"4","last_reported":1769588309,"current_range_meters":10000,"station_id":"ce4bhi12rcd13ifvqfp0","pricing_plan_id":"cebpf4jnsgd1na2vs0mg"},{"bike_id":"a9d61f59-4fb7-4f9c-8f78-ddfcb7d9a59d","system_id":"levelo_inurba_marseille","lat":43.30183,"lon":5.38093,"is_reserved":false,"is_disabled":false,"rental_uris":{"android":"levelo://app?vid=a9d61f59-4fb7-4f9c-8f78-ddfcb7d9a59d","ios":"levelo://app?vid=a9d61f59-4fb7-4f9c-8f78-ddfcb7d9a59d"},"vehicle_type_id":"4","last_reported":1769588309,"current_range_meters":10000,"station_id":"ce4bgjp2rcd13ifvqbh0","pricing_plan_id":"cebpf4jnsgd1na2vs0mg"},{"bike_id":"26516155-7022-452e-98b2-f7eda9554bb7","system_id":"levelo_inurba_marseille","lat":43.2465,"lon":5.38907,"is_reserved":false,"is_disabled":false,"rental_uris":{"android":"levelo://app?vid=26516155-7022-452e-98b2-f7eda9554bb7","ios":"levelo://app?vid=26516155-7022-452e-98b2-f7eda9554bb7"},"vehicle_type_id":"4","last_reported":1769588309,"current_range_meters":10000,"station_id":"ce4bhg12rcd13ifvqf60","pricing_plan_id":"cebpf4jnsgd1na2vs0mg"},{"bike_id":"fa3935ca-5664-431b-81b3-d462965b7a2a","system_id":"levelo_inurba_marseille","lat":43.2314,"lon":5.4372,"is_reserved":false,"is_disabled":false,"rental_uris":{"android":"levelo://app?vid=fa3935ca-5664-431b-81b3-d462965b7a2a","ios":"levelo://app?vid=fa3935ca-5664-431b-81b3-d462965b7a2a"},"vehicle_type_id":"4","last_reported":1769588309,"current_range_meters":10000,"station_id":"ce4bhmp2rcd13ifvqgog","pricing_plan_id":"cebpf4jnsgd1na2vs0mg"},{"bike_id":"c07f73fb-61ca-46b5-b7a6-c22c91a3d83d","system_id":"levelo_inurba_marseille","lat":43.32455,"lon":5.36527,"is_reserved":false,"is_disabled":false,"rental_uris":{"android":"levelo://app?vid=c07f73fb-61ca-46b5-b7a6-c22c91a3d83d","ios":"levelo://app?vid=c07f73fb-61ca-46b5-b7a6-c22c91a3d83d"},"vehicle_type_id":"4","last_reported":1769588309,"current_range_meters":10000,"station_id":"ce4bhs12rcd13ifvqhvg","pricing_plan_id":"cebpf4jnsgd1na2vs0mg"},{"bike_id":"802f6e05-7249-407a-aac4-32d2041628b8","system_id":"levelo_inurba_marseille","lat":43.230534,"lon":5.354873,"is_reserved":false,"is_disabled":false,"rental_uris":{"android":"levelo://app?vid=802f6e05-7249-407a-aac4-32d2041628b8","ios":"levelo://app?vid=802f6e05-7249-407a-aac4-32d2041628b8"},"vehicle_type_id":"4","last_reported":1769588309,"current_range_meters":10000,"station_id":"cpo3342slgdg3j2ifvpg","pricing_plan_id":"cebpf4jnsgd1na2vs0mg"},{"bike_id":"2dcd229b-9a70-410f-96af-5a659ecc8110","system_id":"levelo_inurba_marseille","lat":43.24162,"lon":5.363836,"is_reserved":false,"is_disabled":false,"rental_uris":{"android":"levelo://app?vid=2dcd229b-9a70-410f-96af-5a659ecc8110","ios":"levelo://app?vid=2dcd229b-9a70-410f-96af-5a659ecc8110"},"vehicle_type_id":"4","last_reported":1769588309,"current_range_meters":10000,"station_id":"cpo36qri1sfpv3e86is0","pricing_plan_id":"cebpf4jnsgd1na2vs0mg"},{"bike_id":"c3641efd-82fa-4de2-a15a-e6b19a434bf3","system_id":"levelo_inurba_marseille","lat":43.23958,"lon":5.3666,"is_reserved":false,"is_disabled":false,"rental_uris":{"android":"levelo://app?vid=c3641efd-82fa-4de2-a15a-e6b19a434bf3","ios":"levelo://app?vid=c3641efd-82fa-4de2-a15a-e6b19a434bf3"},"vehicle_type_id":"4","last_reported":1769588309,"current_range_meters":10000,"station_id":"ce4bhi12rcd13ifvqfp0","pricing_plan_id":"cebpf4jnsgd1na2vs0mg"},{"bike_id":"0a7405ad-871c-4a38-944c-17ac55cc69b6","system_id":"levelo_inurba_marseille","lat":43.24167,"lon":5.36436,"is_reserved":false,"is_disabled":false,"rental_uris":{"android":"levelo://app?vid=0a7405ad-871c-4a38-944c-17ac55cc69b6","ios":"levelo://app?vid=0a7405ad-871c-4a38-944c-17ac55cc69b6"},"vehicle_type_id":"4","last_reported":1769588309,"current_range_meters":10000,"station_id":"cpo36qri1sfpv3e86is0","pricing_plan_id":"cebpf4jnsgd1na2vs0mg"},{"bike_id":"bc331ea4-51c7-4aaf-9b3a-77aaca0f8c6e","system_id":"levelo_inurba_marseille","lat":43.28723,"lon":5.36099,"is_reserved":false,"is_disabled":false,"rental_uris":{"android":"levelo://app?vid=bc331ea4-51c7-4aaf-9b3a-77aaca0f8c6e","ios":"levelo://app?vid=bc331ea4-51c7-4aaf-9b3a-77aaca0f8c6e"},"vehicle_type_id":"4","last_reported":1769588309,"current_range_meters":10000,"station_id":"cki0cbj6b192h4jlfktg","pricing_plan_id":"cebpf4jnsgd1na2vs0mg"},{"bike_id":"7316f60c-8b12-4f7d-9646-805365ea2132","system_id":"levelo_inurba_marseille","lat":43.24579,"lon":5.3941,"is_reserved":false,"is_disabled":false,"rental_uris":{"android":"levelo://app?vid=7316f60c-8b12-4f7d-9646-805365ea2132","ios":"levelo://app?vid=7316f60c-8b12-4f7d-9646-805365ea2132"},"vehicle_type_id":"4","last_reported":1769588309,"current_range_meters":10000,"station_id":"","pricing_plan_id":"cebpf4jnsgd1na2vs0mg"},{"bike_id":"cef89498-fbf9-4ad5-afa6-46a5eea10249","system_id":"levelo_inurba_marseille","lat":43.273349,"lon":5.409704,"is_reserved":false,"is_disabled":false,"rental_uris":{"android":"levelo://app?vid=cef89498-fbf9-4ad5-afa6-46a5eea10249","ios":"levelo://app?vid=cef89498-fbf9-4ad5-afa6-46a5eea10249"},"vehicle_type_id":"4","last_reported":1769588309,"current_range_meters":10000,"station_id":"","pricing_plan_id":"cebpf4jnsgd1na2vs0mg"},{"bike_id":"4bd6cb39-f26e-431f-9c48-bc9838a79167","system_id":"levelo_inurba_marseille","lat":43.29825,"lon":5.44072,"is_reserved":false,"is_disabled":false,"rental_uris":{"android":"levelo://app?vid=4bd6cb39-f26e-431f-9c48-bc9838a79167","ios":"levelo://app?vid=4bd6cb39-f26e-431f-9c48-bc9838a79167"},"vehicle_type_id":"4","last_reported":1769588309,"current_range_meters":10000,"station_id":"st_d3jp68qikq2c7381ktn0","pricing_plan_id":"cebpf4jnsgd1na2vs0mg"},{"bike_id":"29e658f4-2359-46f1-90c1-df0499696a70","system_id":"levelo_inurba_marseille","lat":43.301202,"lon":5.431181,"is_reserved":false,"is_disabled":false,"rental_uris":{"android":"levelo://app?vid=29e658f4-2359-46f1-90c1-df0499696a70","ios":"levelo://app?vid=29e658f4-2359-46f1-90c1-df0499696a70"},"vehicle_type_id":"4","last_reported":1769588309,"current_range_meters":10800,"station_id":"st_d3js3co5814s73ftftug","pricing_plan_id":"cebpf4jnsgd1na2vs0mg"},{"bike_id":"9530e525-99a6-44ef-9550-48c35496d598","system_id":"levelo_inurba_marseille","lat":43.33545,"lon":5.37466,"is_reserved":false,"is_disabled":false,"rental_uris":{"android":"levelo://app?vid=9530e525-99a6-44ef-9550-48c35496d598","ios":"levelo://app?vid=9530e525-99a6-44ef-9550-48c35496d598"},"vehicle_type_id":"4","last_reported":1769588309,"current_range_meters":10800,"station_id":"st_d46tts09ee8s73dlu43g","pricing_plan_id":"cebpf4jnsgd1na2vs0mg"},{"bike_id":"16199858-b735-4ef4-aea3-a073cd0a7000","system_id":"levelo_inurba_marseille","lat":43.25573,"lon":5.38258,"is_reserved":false,"is_disabled":false,"rental_uris":{"android":"levelo://app?vid=16199858-b735-4ef4-aea3-a073cd0a7000","ios":"levelo://app?vid=16199858-b735-4ef4-aea3-a073cd0a7000"},"vehicle_type_id":"4","last_reported":1769588309,"current_range_meters":10800,"station_id":"ce4bhih2rcd13ifvqfs0","pricing_plan_id":"cebpf4jnsgd1na2vs0mg"},{"bike_id":"e75defeb-08a4-4812-b60b-f3d463477cca","system_id":"levelo_inurba_marseille","lat":43.25864,"lon":5.39897,"is_reserved":false,"is_disabled":false,"rental_uris":{"android":"levelo://app?vid=e75defeb-08a4-4812-b60b-f3d463477cca","ios":"levelo://app?vid=e75defeb-08a4-4812-b60b-f3d463477cca"},"vehicle_type_id":"4","last_reported":1769588309,"current_range_meters":10800,"station_id":"ce4bhl92rcd13ifvqghg","pricing_plan_id":"cebpf4jnsgd1na2vs0mg"},{"bike_id":"541aab47-c46a-45ce-9946-ea87420fea14","system_id":"levelo_inurba_marseille","lat":43.23191,"lon":5.3997,"is_reserved":false,"is_disabled":false,"rental_uris":{"android":"levelo://app?vid=541aab47-c46a-45ce-9946-ea87420fea14","ios":"levelo://app?vid=541aab47-c46a-45ce-9946-ea87420fea14"},"vehicle_type_id":"4","last_reported":1769588309,"current_range_meters":10800,"station_id":"ce4bhn12rcd13ifvqgqg","pricing_plan_id":"cebpf4jnsgd1na2vs0mg"},{"bike_id":"982edc25-dfa9-4d3c-954a-e454025b01e5","system_id":"levelo_inurba_marseille","lat":43.31783,"lon":5.39047,"is_reserved":false,"is_disabled":false,"rental_uris":{"android":"levelo://app?vid=982edc25-dfa9-4d3c-954a-e454025b01e5","ios":"levelo://app?vid=982edc25-dfa9-4d3c-954a-e454025b01e5"},"vehicle_type_id":"4","last_reported":1769588309,"current_range_meters":10800,"station_id":"ce4bhqp2rcd13ifvqhng","pricing_plan_id":"cebpf4jnsgd1na2vs0mg"},{"bike_id":"413e274d-e9ac-4b98-bc74-21ec487b638b","system_id":"levelo_inurba_marseille","lat":43.29525,"lon":5.37508,"is_reserved":false,"is_disabled":false,"rental_uris":{"android":"levelo://app?vid=413e274d-e9ac-4b98-bc74-21ec487b638b","ios":"levelo://app?vid=413e274d-e9ac-4b98-bc74-21ec487b638b"},"vehicle_type_id":"4","last_reported":1769588309,"current_range_meters":10800,"station_id":"ce4bgkp2rcd13ifvqbmg","pricing_plan_id":"cebpf4jnsgd1na2vs0mg"},{"bike_id":"9d54a0e9-6ecd-4a99-bc7a-8ffedac2d44d","system_id":"levelo_inurba_marseille","lat":43.29037,"lon":5.39968,"is_reserved":false,"is_disabled":false,"rental_uris":{"android":"levelo://app?vid=9d54a0e9-6ecd-4a99-bc7a-8ffedac2d44d","ios":"levelo://app?vid=9d54a0e9-6ecd-4a99-bc7a-8ffedac2d44d"},"vehicle_type_id":"4","last_reported":1769588309,"current_range_meters":10800,"station_id":"ce4bh392rcd13ifvqdm0","pricing_plan_id":"cebpf4jnsgd1na2vs0mg"},{"bike_id":"e236f0a6-2e87-48ed-94ce-e49f696f4842","system_id":"levelo_inurba_marseille","lat":43.26567,"lon":5.37507,"is_reserved":false,"is_disabled":false,"rental_uris":{"android":"levelo://app?vid=e236f0a6-2e87-48ed-94ce-e49f696f4842","ios":"levelo://app?vid=e236f0a6-2e87-48ed-94ce-e49f696f4842"},"vehicle_type_id":"4","last_reported":1769588309,"current_range_meters":10800,"station_id":"","pricing_plan_id":"cebpf4jnsgd1na2vs0mg"},{"bike_id":"6c6890eb-05e5-44b7-8d4d-5528494830c4","system_id":"levelo_inurba_marseille","lat":43.289441,"lon":5.364027,"is_reserved":false,"is_disabled":true,"rental_uris":{"android":"levelo://app?vid=6c6890eb-05e5-44b7-8d4d-5528494830c4","ios":"levelo://app?vid=6c6890eb-05e5-44b7-8d4d-5528494830c4"},"vehicle_type_id":"4","last_reported":1769588309,"current_range_meters":10800,"station_id":"ce4bhc92rcd13ifvqetg","pricing_plan_id":"cebpf4jnsgd1na2vs0mg"},{"bike_id":"1ea957b9-9175-4b85-8016-a64b1d81ef6c","system_id":"levelo_inurba_marseille","lat":43.28464,"lon":5.35901,"is_reserved":false,"is_disabled":true,"rental_uris":{"android":"levelo://app?vid=1ea957b9-9175-4b85-8016-a64b1d81ef6c","ios":"levelo://app?vid=1ea957b9-9175-4b85-8016-a64b1d81ef6c"},"vehicle_type_id":"4","last_reported":1769588309,"current_range_meters":10800,"station_id":"ce4bhah2rcd13ifvqei0","pricing_plan_id":"cebpf4jnsgd1na2vs0mg"},{"bike_id":"b92fdaa2-872d-499a-a3eb-9c7148436e19","system_id":"levelo_inurba_marseille","lat":43.27621,"lon":5.3613,"is_reserved":false,"is_disabled":false,"rental_uris":{"android":"levelo://app?vid=b92fdaa2-872d-499a-a3eb-9c7148436e19","ios":"levelo://app?vid=b92fdaa2-872d-499a-a3eb-9c7148436e19"},"vehicle_type_id":"4","last_reported":1769588309,"current_range_meters":10800,"station_id":"ce4bgj92rcd13ifvqbe0","pricing_plan_id":"cebpf4jnsgd1na2vs0mg"},{"bike_id":"ba94ad88-2d86-4f15-a70c-04c6ad4ea30f","system_id":"levelo_inurba_marseille","lat":43.33168,"lon":5.37737,"is_reserved":false,"is_disabled":false,"rental_uris":{"android":"levelo://app?vid=ba94ad88-2d86-4f15-a70c-04c6ad4ea30f","ios":"levelo://app?vid=ba94ad88-2d86-4f15-a70c-04c6ad4ea30f"},"vehicle_type_id":"4","last_reported":1769588309,"current_range_meters":10800,"station_id":"st_d46cu089ee8s73dldbu0","pricing_plan_id":"cebpf4jnsgd1na2vs0mg"},{"bike_id":"79009d73-0523-4c6d-91de-5993a965a866","system_id":"levelo_inurba_marseille","lat":43.25938,"lon":5.40903,"is_reserved":false,"is_disabled":false,"rental_uris":{"android":"levelo://app?vid=79009d73-0523-4c6d-91de-5993a965a866","ios":"levelo://app?vid=79009d73-0523-4c6d-91de-5993a965a866"},"vehicle_type_id":"4","last_reported":1769588309,"current_range_meters":10800,"station_id":"ce4bhm92rcd13ifvqglg","pricing_plan_id":"cebpf4jnsgd1na2vs0mg"},{"bike_id":"9e5e1692-a1e5-4ca0-bc5a-e7d3b2e0c966","system_id":"levelo_inurba_marseille","lat":43.33539,"lon":5.37465,"is_reserved":false,"is_disabled":false,"rental_uris":{"android":"levelo://app?vid=9e5e1692-a1e5-4ca0-bc5a-e7d3b2e0c966","ios":"levelo://app?vid=9e5e1692-a1e5-4ca0-bc5a-e7d3b2e0c966"},"vehicle_type_id":"4","last_reported":1769588309,"current_range_meters":10800,"station_id":"st_d46tts09ee8s73dlu43g","pricing_plan_id":"cebpf4jnsgd1na2vs0mg"},{"bike_id":"47acf005-6293-484f-b793-dfc89f161f5e","system_id":"levelo_inurba_marseille","lat":43.29044,"lon":5.39936,"is_reserved":false,"is_disabled":false,"rental_uris":{"android":"levelo://app?vid=47acf005-6293-484f-b793-dfc89f161f5e","ios":"levelo://app?vid=47acf005-6293-484f-b793-dfc89f161f5e"},"vehicle_type_id":"4","last_reported":1769588309,"current_range_meters":10800,"station_id":"ce4bh392rcd13ifvqdm0","pricing_plan_id":"cebpf4jnsgd1na2vs0mg"},{"bike_id":"9c8f3757-faf1-45fe-85fa-b9d8831c3a5c","system_id":"levelo_inurba_marseille","lat":43.29037,"lon":5.40011,"is_reserved":false,"is_disabled":false,"rental_uris":{"android":"levelo://app?vid=9c8f3757-faf1-45fe-85fa-b9d8831c3a5c","ios":"levelo://app?vid=9c8f3757-faf1-45fe-85fa-b9d8831c3a5c"},"vehicle_type_id":"4","last_reported":1769588309,"current_range_meters":11200,"station_id":"ce4bh392rcd13ifvqdm0","pricing_plan_id":"cebpf4jnsgd1na2vs0mg"},{"bike_id":"ac2f3180-32bb-42de-b8a1-2bee9a88c29f","system_id":"levelo_inurba_marseille","lat":43.2678,"lon":5.39418,"is_reserved":false,"is_disabled":false,"rental_uris":{"android":"levelo://app?vid=ac2f3180-32bb-42de-b8a1-2bee9a88c29f","ios":"levelo://app?vid=ac2f3180-32bb-42de-b8a1-2bee9a88c29f"},"vehicle_type_id":"4","last_reported":1769588309,"current_range_meters":11200,"station_id":"ce4bhh12rcd13ifvqfg0","pricing_plan_id":"cebpf4jnsgd1na2vs0mg"},{"bike_id":"7b6d8a8b-d351-4282-bf84-c6e7865bd8af","system_id":"levelo_inurba_marseille","lat":43.24631,"lon":5.38899,"is_reserved":false,"is_disabled":false,"rental_uris":{"android":"levelo://app?vid=7b6d8a8b-d351-4282-bf84-c6e7865bd8af","ios":"levelo://app?vid=7b6d8a8b-d351-4282-bf84-c6e7865bd8af"},"vehicle_type_id":"4","last_reported":1769588309,"current_range_meters":11200,"station_id":"ce4bhg12rcd13ifvqf60","pricing_plan_id":"cebpf4jnsgd1na2vs0mg"},{"bike_id":"bb6db0b0-a7e3-42a8-992e-e2e55dc89d52","system_id":"levelo_inurba_marseille","lat":43.33161,"lon":5.37699,"is_reserved":false,"is_disabled":false,"rental_uris":{"android":"levelo://app?vid=bb6db0b0-a7e3-42a8-992e-e2e55dc89d52","ios":"levelo://app?vid=bb6db0b0-a7e3-42a8-992e-e2e55dc89d52"},"vehicle_type_id":"4","last_reported":1769588309,"current_range_meters":11200,"station_id":"st_d46cu089ee8s73dldbu0","pricing_plan_id":"cebpf4jnsgd1na2vs0mg"},{"bike_id":"7c2c1930-9506-4e01-88e5-4f549cb27a3b","system_id":"levelo_inurba_marseille","lat":43.27167,"lon":5.40997,"is_reserved":false,"is_disabled":false,"rental_uris":{"android":"levelo://app?vid=7c2c1930-9506-4e01-88e5-4f549cb27a3b","ios":"levelo://app?vid=7c2c1930-9506-4e01-88e5-4f549cb27a3b"},"vehicle_type_id":"4","last_reported":1769588309,"current_range_meters":11200,"station_id":"ce4bhl12rcd13ifvqgf0","pricing_plan_id":"cebpf4jnsgd1na2vs0mg"},{"bike_id":"11ea5605-7882-4487-a008-b5f4221886b5","system_id":"levelo_inurba_marseille","lat":43.313992,"lon":5.374145,"is_reserved":false,"is_disabled":false,"rental_uris":{"android":"levelo://app?vid=11ea5605-7882-4487-a008-b5f4221886b5","ios":"levelo://app?vid=11ea5605-7882-4487-a008-b5f4221886b5"},"vehicle_type_id":"4","last_reported":1769588309,"current_range_meters":11200,"station_id":"","pricing_plan_id":"cebpf4jnsgd1na2vs0mg"},{"bike_id":"f1ff8d0a-12c9-4236-a042-6aa2561ec6d5","system_id":"levelo_inurba_marseille","lat":43.27004,"lon":5.41423,"is_reserved":false,"is_disabled":false,"rental_uris":{"android":"levelo://app?vid=f1ff8d0a-12c9-4236-a042-6aa2561ec6d5","ios":"levelo://app?vid=f1ff8d0a-12c9-4236-a042-6aa2561ec6d5"},"vehicle_type_id":"4","last_reported":1769588309,"current_range_meters":11200,"station_id":"","pricing_plan_id":"cebpf4jnsgd1na2vs0mg"},{"bike_id":"360bd922-c036-43fc-9f95-f2099189cf17","system_id":"levelo_inurba_marseille","lat":43.250001,"lon":5.389242,"is_reserved":false,"is_disabled":false,"rental_uris":{"android":"levelo://app?vid=360bd922-c036-43fc-9f95-f2099189cf17","ios":"levelo://app?vid=360bd922-c036-43fc-9f95-f2099189cf17"},"vehicle_type_id":"4","last_reported":1769588309,"current_range_meters":11200,"station_id":"ce4bhgp2rcd13ifvqfd0","pricing_plan_id":"cebpf4jnsgd1na2vs0mg"},{"bike_id":"963c2162-d7a9-4bf4-8c9d-638ae75d44bd","system_id":"levelo_inurba_marseille","lat":43.24154,"lon":5.36408,"is_reserved":false,"is_disabled":false,"rental_uris":{"android":"levelo://app?vid=963c2162-d7a9-4bf4-8c9d-638ae75d44bd","ios":"levelo://app?vid=963c2162-d7a9-4bf4-8c9d-638ae75d44bd"},"vehicle_type_id":"4","last_reported":1769588309,"current_range_meters":11200,"station_id":"cpo36qri1sfpv3e86is0","pricing_plan_id":"cebpf4jnsgd1na2vs0mg"},{"bike_id":"2b9c2ac6-0f85-4c6a-a497-526227ec3ab8","system_id":"levelo_inurba_marseille","lat":43.246393,"lon":5.431358,"is_reserved":false,"is_disabled":false,"rental_uris":{"android":"levelo://app?vid=2b9c2ac6-0f85-4c6a-a497-526227ec3ab8","ios":"levelo://app?vid=2b9c2ac6-0f85-4c6a-a497-526227ec3ab8"},"vehicle_type_id":"4","last_reported":1769588309,"current_range_meters":11200,"station_id":"st_d2m6c4gdas8pm72e190g","pricing_plan_id":"cebpf4jnsgd1na2vs0mg"},{"bike_id":"2d655a97-bd06-49e9-b2b4-efa072ca5fda","system_id":"levelo_inurba_marseille","lat":43.3211,"lon":5.36766,"is_reserved":false,"is_disabled":false,"rental_uris":{"android":"levelo://app?vid=2d655a97-bd06-49e9-b2b4-efa072ca5fda","ios":"levelo://app?vid=2d655a97-bd06-49e9-b2b4-efa072ca5fda"},