{"last_updated":1774124059,"ttl":60,"version":"2.2","data":{"bikes":[{"bike_id":"3feb1bb9-f3c3-4a45-a6b7-0f26bdcb1196","system_id":"levelo_inurba_marseille","lat":43.34091,"lon":5.36087,"is_reserved":false,"is_disabled":false,"rental_uris":{"android":"levelo://app?vid=3feb1bb9-f3c3-4a45-a6b7-0f26bdcb1196","ios":"levelo://app?vid=3feb1bb9-f3c3-4a45-a6b7-0f26bdcb1196"},"vehicle_type_id":"4","last_reported":1774124059,"current_range_meters":2800,"station_id":"","pricing_plan_id":"cebpf4jnsgd1na2vs0mg"},{"bike_id":"b7de6bb2-33fd-4a78-8f17-d09f1d84cfb7","system_id":"levelo_inurba_marseille","lat":43.29023,"lon":5.38135,"is_reserved":false,"is_disabled":false,"rental_uris":{"android":"levelo://app?vid=b7de6bb2-33fd-4a78-8f17-d09f1d84cfb7","ios":"levelo://app?vid=b7de6bb2-33fd-4a78-8f17-d09f1d84cfb7"},"vehicle_type_id":"4","last_reported":1774124059,"current_range_meters":2800,"station_id":"ce4bh4p2rcd13ifvqe1g","pricing_plan_id":"cebpf4jnsgd1na2vs0mg"},{"bike_id":"7e3fe35a-02a8-4e9a-bafd-ecb393f71d00","system_id":"levelo_inurba_marseille","lat":43.28854,"lon":5.42541,"is_reserved":false,"is_disabled":false,"rental_uris":{"android":"levelo://app?vid=7e3fe35a-02a8-4e9a-bafd-ecb393f71d00","ios":"levelo://app?vid=7e3fe35a-02a8-4e9a-bafd-ecb393f71d00"},"vehicle_type_id":"4","last_reported":1774124059,"current_range_meters":2800,"station_id":"","pricing_plan_id":"cebpf4jnsgd1na2vs0mg"},{"bike_id":"a74ad46c-56c6-4ac2-907c-e1bf925579f7","system_id":"levelo_inurba_marseille","lat":43.28478,"lon":5.38554,"is_reserved":false,"is_disabled":false,"rental_uris":{"android":"levelo://app?vid=a74ad46c-56c6-4ac2-907c-e1bf925579f7","ios":"levelo://app?vid=a74ad46c-56c6-4ac2-907c-e1bf925579f7"},"vehicle_type_id":"4","last_reported":1774124059,"current_range_meters":2800,"station_id":"ce4bh8p2rcd13ifvqeb0","pricing_plan_id":"cebpf4jnsgd1na2vs0mg"},{"bike_id":"f0d9f2af-de26-4d1e-be2c-0316566a7e6b","system_id":"levelo_inurba_marseille","lat":43.29025,"lon":5.37568,"is_reserved":false,"is_disabled":false,"rental_uris":{"android":"levelo://app?vid=f0d9f2af-de26-4d1e-be2c-0316566a7e6b","ios":"levelo://app?vid=f0d9f2af-de26-4d1e-be2c-0316566a7e6b"},"vehicle_type_id":"4","last_reported":1774124059,"current_range_meters":2800,"station_id":"ce4bh692rcd13ifvqe90","pricing_plan_id":"cebpf4jnsgd1na2vs0mg"},{"bike_id":"29ceb06a-4df8-4e2a-9dd9-b070e185b37f","system_id":"levelo_inurba_marseille","lat":43.28491,"lon":5.48372,"is_reserved":false,"is_disabled":false,"rental_uris":{"android":"levelo://app?vid=29ceb06a-4df8-4e2a-9dd9-b070e185b37f","ios":"levelo://app?vid=29ceb06a-4df8-4e2a-9dd9-b070e185b37f"},"vehicle_type_id":"4","last_reported":1774124059,"current_range_meters":2800,"station_id":"","pricing_plan_id":"cebpf4jnsgd1na2vs0mg"},{"bike_id":"c1aedc75-779d-44ff-b273-c9cd0e5f6664","system_id":"levelo_inurba_marseille","lat":43.28028,"lon":5.36947,"is_reserved":false,"is_disabled":false,"rental_uris":{"android":"levelo://app?vid=c1aedc75-779d-44ff-b273-c9cd0e5f6664","ios":"levelo://app?vid=c1aedc75-779d-44ff-b273-c9cd0e5f6664"},"vehicle_type_id":"4","last_reported":1774124059,"current_range_meters":2800,"station_id":"ce4bha12rcd13ifvqef0","pricing_plan_id":"cebpf4jnsgd1na2vs0mg"},{"bike_id":"17d470f1-e47a-4e88-a917-6c011ef66f57","system_id":"levelo_inurba_marseille","lat":43.30299,"lon":5.3688,"is_reserved":false,"is_disabled":false,"rental_uris":{"android":"levelo://app?vid=17d470f1-e47a-4e88-a917-6c011ef66f57","ios":"levelo://app?vid=17d470f1-e47a-4e88-a917-6c011ef66f57"},"vehicle_type_id":"4","last_reported":1774124059,"current_range_meters":2800,"station_id":"ce4bgqh2rcd13ifvqc5g","pricing_plan_id":"cebpf4jnsgd1na2vs0mg"},{"bike_id":"ca592b1a-73b6-4cde-935d-20fc64aebf0e","system_id":"levelo_inurba_marseille","lat":43.29259,"lon":5.38433,"is_reserved":false,"is_disabled":false,"rental_uris":{"android":"levelo://app?vid=ca592b1a-73b6-4cde-935d-20fc64aebf0e","ios":"levelo://app?vid=ca592b1a-73b6-4cde-935d-20fc64aebf0e"},"vehicle_type_id":"4","last_reported":1774124059,"current_range_meters":2800,"station_id":"ce4bh692rcd13ifvqea0","pricing_plan_id":"cebpf4jnsgd1na2vs0mg"},{"bike_id":"c9cfc67c-4e42-4833-b4ab-11ad690d27f6","system_id":"levelo_inurba_marseille","lat":43.33019,"lon":5.39317,"is_reserved":false,"is_disabled":false,"rental_uris":{"android":"levelo://app?vid=c9cfc67c-4e42-4833-b4ab-11ad690d27f6","ios":"levelo://app?vid=c9cfc67c-4e42-4833-b4ab-11ad690d27f6"},"vehicle_type_id":"4","last_reported":1774124059,"current_range_meters":2800,"station_id":"","pricing_plan_id":"cebpf4jnsgd1na2vs0mg"},{"bike_id":"aa7a7ccd-84de-473c-b421-96e7bfc36d67","system_id":"levelo_inurba_marseille","lat":43.29815,"lon":5.38056,"is_reserved":false,"is_disabled":false,"rental_uris":{"android":"levelo://app?vid=aa7a7ccd-84de-473c-b421-96e7bfc36d67","ios":"levelo://app?vid=aa7a7ccd-84de-473c-b421-96e7bfc36d67"},"vehicle_type_id":"4","last_reported":1774124059,"current_range_meters":2800,"station_id":"ce4bgip2rcd13ifvqbb0","pricing_plan_id":"cebpf4jnsgd1na2vs0mg"},{"bike_id":"f1957105-67fd-477f-b803-562b3d3d9070","system_id":"levelo_inurba_marseille","lat":43.29293,"lon":5.37165,"is_reserved":false,"is_disabled":false,"rental_uris":{"android":"levelo://app?vid=f1957105-67fd-477f-b803-562b3d3d9070","ios":"levelo://app?vid=f1957105-67fd-477f-b803-562b3d3d9070"},"vehicle_type_id":"4","last_reported":1774124059,"current_range_meters":2800,"station_id":"ce4bgh92rcd13ifvqb40","pricing_plan_id":"cebpf4jnsgd1na2vs0mg"},{"bike_id":"51440be5-086f-4cf0-82c4-973508b05be1","system_id":"levelo_inurba_marseille","lat":43.28148,"lon":5.42637,"is_reserved":false,"is_disabled":false,"rental_uris":{"android":"levelo://app?vid=51440be5-086f-4cf0-82c4-973508b05be1","ios":"levelo://app?vid=51440be5-086f-4cf0-82c4-973508b05be1"},"vehicle_type_id":"4","last_reported":1774124059,"current_range_meters":2800,"station_id":"ce4bhnh2rcd13ifvqgug","pricing_plan_id":"cebpf4jnsgd1na2vs0mg"},{"bike_id":"d13beb39-6370-4275-bcf3-5e08790510bd","system_id":"levelo_inurba_marseille","lat":43.2852,"lon":5.44103,"is_reserved":false,"is_disabled":false,"rental_uris":{"android":"levelo://app?vid=d13beb39-6370-4275-bcf3-5e08790510bd","ios":"levelo://app?vid=d13beb39-6370-4275-bcf3-5e08790510bd"},"vehicle_type_id":"4","last_reported":1774124059,"current_range_meters":2800,"station_id":"st_d3j3df2ikq2c7380ej80","pricing_plan_id":"cebpf4jnsgd1na2vs0mg"},{"bike_id":"f2b5a9e3-d128-4c05-8cdc-93d5404396a5","system_id":"levelo_inurba_marseille","lat":43.3095,"lon":5.39027,"is_reserved":false,"is_disabled":false,"rental_uris":{"android":"levelo://app?vid=f2b5a9e3-d128-4c05-8cdc-93d5404396a5","ios":"levelo://app?vid=f2b5a9e3-d128-4c05-8cdc-93d5404396a5"},"vehicle_type_id":"4","last_reported":1774124059,"current_range_meters":2800,"station_id":"ce4bgup2rcd13ifvqco0","pricing_plan_id":"cebpf4jnsgd1na2vs0mg"},{"bike_id":"dd294a66-87da-4e03-bc5a-77135674fe0a","system_id":"levelo_inurba_marseille","lat":43.29522,"lon":5.39033,"is_reserved":false,"is_disabled":false,"rental_uris":{"android":"levelo://app?vid=dd294a66-87da-4e03-bc5a-77135674fe0a","ios":"levelo://app?vid=dd294a66-87da-4e03-bc5a-77135674fe0a"},"vehicle_type_id":"4","last_reported":1774124059,"current_range_meters":3200,"station_id":"ce4bh3p2rcd13ifvqdp0","pricing_plan_id":"cebpf4jnsgd1na2vs0mg"},{"bike_id":"a775511c-9985-4a58-8c4c-775aad7f3e36","system_id":"levelo_inurba_marseille","lat":43.29891,"lon":5.43641,"is_reserved":false,"is_disabled":false,"rental_uris":{"android":"levelo://app?vid=a775511c-9985-4a58-8c4c-775aad7f3e36","ios":"levelo://app?vid=a775511c-9985-4a58-8c4c-775aad7f3e36"},"vehicle_type_id":"4","last_reported":1774124059,"current_range_meters":3200,"station_id":"ce4bhpp2rcd13ifvqhfg","pricing_plan_id":"cebpf4jnsgd1na2vs0mg"},{"bike_id":"248539f1-1dbd-4678-b58c-e7849287fdd5","system_id":"levelo_inurba_marseille","lat":43.26368,"lon":5.4108,"is_reserved":false,"is_disabled":false,"rental_uris":{"android":"levelo://app?vid=248539f1-1dbd-4678-b58c-e7849287fdd5","ios":"levelo://app?vid=248539f1-1dbd-4678-b58c-e7849287fdd5"},"vehicle_type_id":"4","last_reported":1774124059,"current_range_meters":3200,"station_id":"st_d4e5ca6na9uc73bfl5fg","pricing_plan_id":"cebpf4jnsgd1na2vs0mg"},{"bike_id":"e2420c11-4646-4145-aa2e-baedb91a43dc","system_id":"levelo_inurba_marseille","lat":43.32352,"lon":5.36728,"is_reserved":false,"is_disabled":false,"rental_uris":{"android":"levelo://app?vid=e2420c11-4646-4145-aa2e-baedb91a43dc","ios":"levelo://app?vid=e2420c11-4646-4145-aa2e-baedb91a43dc"},"vehicle_type_id":"4","last_reported":1774124059,"current_range_meters":3200,"station_id":"ce4bhsh2rcd13ifvqi2g","pricing_plan_id":"cebpf4jnsgd1na2vs0mg"},{"bike_id":"03a74229-5ede-4cd5-9ad9-d142ed50c73e","system_id":"levelo_inurba_marseille","lat":43.24474,"lon":5.42527,"is_reserved":false,"is_disabled":false,"rental_uris":{"android":"levelo://app?vid=03a74229-5ede-4cd5-9ad9-d142ed50c73e","ios":"levelo://app?vid=03a74229-5ede-4cd5-9ad9-d142ed50c73e"},"vehicle_type_id":"4","last_reported":1774124059,"current_range_meters":3200,"station_id":"st_d4a3vfp97mjs738cd8kg","pricing_plan_id":"cebpf4jnsgd1na2vs0mg"},{"bike_id":"aac8f5b0-f705-4fd6-9df0-ced6ecfa3f4e","system_id":"levelo_inurba_marseille","lat":43.28917,"lon":5.38408,"is_reserved":false,"is_disabled":false,"rental_uris":{"android":"levelo://app?vid=aac8f5b0-f705-4fd6-9df0-ced6ecfa3f4e","ios":"levelo://app?vid=aac8f5b0-f705-4fd6-9df0-ced6ecfa3f4e"},"vehicle_type_id":"4","last_reported":1774124059,"current_range_meters":3200,"station_id":"ce4bh612rcd13ifvqe6g","pricing_plan_id":"cebpf4jnsgd1na2vs0mg"},{"bike_id":"25711bef-13f9-48fd-8f33-592148b8dc65","system_id":"levelo_inurba_marseille","lat":43.25335,"lon":5.4217,"is_reserved":false,"is_disabled":false,"rental_uris":{"android":"levelo://app?vid=25711bef-13f9-48fd-8f33-592148b8dc65","ios":"levelo://app?vid=25711bef-13f9-48fd-8f33-592148b8dc65"},"vehicle_type_id":"4","last_reported":1774124059,"current_range_meters":3200,"station_id":"st_d2m65c5bi1j21697t3ng","pricing_plan_id":"cebpf4jnsgd1na2vs0mg"},{"bike_id":"c1facf20-a5e2-4ce7-aefc-6181ebe23b3b","system_id":"levelo_inurba_marseille","lat":43.31703,"lon":5.43702,"is_reserved":false,"is_disabled":false,"rental_uris":{"android":"levelo://app?vid=c1facf20-a5e2-4ce7-aefc-6181ebe23b3b","ios":"levelo://app?vid=c1facf20-a5e2-4ce7-aefc-6181ebe23b3b"},"vehicle_type_id":"4","last_reported":1774124059,"current_range_meters":3200,"station_id":"ce4bhp92rcd13ifvqhcg","pricing_plan_id":"cebpf4jnsgd1na2vs0mg"},{"bike_id":"9b91f71d-6123-4003-9c0b-5c859ade40e3","system_id":"levelo_inurba_marseille","lat":43.27995,"lon":5.4002,"is_reserved":false,"is_disabled":false,"rental_uris":{"android":"levelo://app?vid=9b91f71d-6123-4003-9c0b-5c859ade40e3","ios":"levelo://app?vid=9b91f71d-6123-4003-9c0b-5c859ade40e3"},"vehicle_type_id":"4","last_reported":1774124059,"current_range_meters":3200,"station_id":"ce4bho92rcd13ifvqh4g","pricing_plan_id":"cebpf4jnsgd1na2vs0mg"},{"bike_id":"2f3d8a19-889a-477f-a27b-c5be68f98c4d","system_id":"levelo_inurba_marseille","lat":43.29526,"lon":5.38538,"is_reserved":false,"is_disabled":false,"rental_uris":{"android":"levelo://app?vid=2f3d8a19-889a-477f-a27b-c5be68f98c4d","ios":"levelo://app?vid=2f3d8a19-889a-477f-a27b-c5be68f98c4d"},"vehicle_type_id":"4","last_reported":1774124059,"current_range_meters":3200,"station_id":"ce4bgih2rcd13ifvqba0","pricing_plan_id":"cebpf4jnsgd1na2vs0mg"},{"bike_id":"530ae364-ab89-4acc-9624-f9cef445515a","system_id":"levelo_inurba_marseille","lat":43.28698,"lon":5.3999,"is_reserved":false,"is_disabled":false,"rental_uris":{"android":"levelo://app?vid=530ae364-ab89-4acc-9624-f9cef445515a","ios":"levelo://app?vid=530ae364-ab89-4acc-9624-f9cef445515a"},"vehicle_type_id":"4","last_reported":1774124059,"current_range_meters":3200,"station_id":"ce4bho92rcd13ifvqh3g","pricing_plan_id":"cebpf4jnsgd1na2vs0mg"},{"bike_id":"89ad46cf-ad84-4e5e-be57-87ac2cebe69c","system_id":"levelo_inurba_marseille","lat":43.2846,"lon":5.48397,"is_reserved":false,"is_disabled":false,"rental_uris":{"android":"levelo://app?vid=89ad46cf-ad84-4e5e-be57-87ac2cebe69c","ios":"levelo://app?vid=89ad46cf-ad84-4e5e-be57-87ac2cebe69c"},"vehicle_type_id":"4","last_reported":1774124059,"current_range_meters":3200,"station_id":"st_d3svhcjqgbts73a3dn0g","pricing_plan_id":"cebpf4jnsgd1na2vs0mg"},{"bike_id":"8673ee09-3aab-4756-8576-7cb354e0390d","system_id":"levelo_inurba_marseille","lat":43.29031,"lon":5.39962,"is_reserved":false,"is_disabled":false,"rental_uris":{"android":"levelo://app?vid=8673ee09-3aab-4756-8576-7cb354e0390d","ios":"levelo://app?vid=8673ee09-3aab-4756-8576-7cb354e0390d"},"vehicle_type_id":"4","last_reported":1774124059,"current_range_meters":3200,"station_id":"ce4bh392rcd13ifvqdm0","pricing_plan_id":"cebpf4jnsgd1na2vs0mg"},{"bike_id":"b8c62802-e518-4341-848a-11b6226b3c46","system_id":"levelo_inurba_marseille","lat":43.29225,"lon":5.36058,"is_reserved":false,"is_disabled":false,"rental_uris":{"android":"levelo://app?vid=b8c62802-e518-4341-848a-11b6226b3c46","ios":"levelo://app?vid=b8c62802-e518-4341-848a-11b6226b3c46"},"vehicle_type_id":"4","last_reported":1774124059,"current_range_meters":3200,"station_id":"ce4bhbh2rcd13ifvqeqg","pricing_plan_id":"cebpf4jnsgd1na2vs0mg"},{"bike_id":"0a413035-ed5b-45d2-9eb8-128bae21a87c","system_id":"levelo_inurba_marseille","lat":43.29261,"lon":5.40891,"is_reserved":false,"is_disabled":false,"rental_uris":{"android":"levelo://app?vid=0a413035-ed5b-45d2-9eb8-128bae21a87c","ios":"levelo://app?vid=0a413035-ed5b-45d2-9eb8-128bae21a87c"},"vehicle_type_id":"4","last_reported":1774124059,"current_range_meters":3200,"station_id":"ce4bh192rcd13ifvqdc0","pricing_plan_id":"cebpf4jnsgd1na2vs0mg"},{"bike_id":"6ef236e2-5dd9-4e3d-801c-190d066227ce","system_id":"levelo_inurba_marseille","lat":43.29036,"lon":5.39964,"is_reserved":false,"is_disabled":false,"rental_uris":{"android":"levelo://app?vid=6ef236e2-5dd9-4e3d-801c-190d066227ce","ios":"levelo://app?vid=6ef236e2-5dd9-4e3d-801c-190d066227ce"},"vehicle_type_id":"4","last_reported":1774124059,"current_range_meters":3200,"station_id":"ce4bh392rcd13ifvqdm0","pricing_plan_id":"cebpf4jnsgd1na2vs0mg"},{"bike_id":"a96bed03-4bc3-412a-9ef2-84e473f7d464","system_id":"levelo_inurba_marseille","lat":43.27213,"lon":5.40978,"is_reserved":false,"is_disabled":false,"rental_uris":{"android":"levelo://app?vid=a96bed03-4bc3-412a-9ef2-84e473f7d464","ios":"levelo://app?vid=a96bed03-4bc3-412a-9ef2-84e473f7d464"},"vehicle_type_id":"4","last_reported":1774124059,"current_range_meters":3200,"station_id":"ce4bhl12rcd13ifvqgf0","pricing_plan_id":"cebpf4jnsgd1na2vs0mg"},{"bike_id":"77f8a8b1-2bdb-42b0-adbe-1a8ec0f6e7dc","system_id":"levelo_inurba_marseille","lat":43.29829,"lon":5.44056,"is_reserved":false,"is_disabled":false,"rental_uris":{"android":"levelo://app?vid=77f8a8b1-2bdb-42b0-adbe-1a8ec0f6e7dc","ios":"levelo://app?vid=77f8a8b1-2bdb-42b0-adbe-1a8ec0f6e7dc"},"vehicle_type_id":"4","last_reported":1774124059,"current_range_meters":3600,"station_id":"st_d3jp68qikq2c7381ktn0","pricing_plan_id":"cebpf4jnsgd1na2vs0mg"},{"bike_id":"98967962-e0a3-406a-869e-3bcbddfb787d","system_id":"levelo_inurba_marseille","lat":43.28561,"lon":5.39504,"is_reserved":false,"is_disabled":false,"rental_uris":{"android":"levelo://app?vid=98967962-e0a3-406a-869e-3bcbddfb787d","ios":"levelo://app?vid=98967962-e0a3-406a-869e-3bcbddfb787d"},"vehicle_type_id":"4","last_reported":1774124059,"current_range_meters":3600,"station_id":"ce4bh292rcd13ifvqdg0","pricing_plan_id":"cebpf4jnsgd1na2vs0mg"},{"bike_id":"53f48266-4564-420b-96ab-d243233055dc","system_id":"levelo_inurba_marseille","lat":43.28484,"lon":5.48398,"is_reserved":false,"is_disabled":false,"rental_uris":{"android":"levelo://app?vid=53f48266-4564-420b-96ab-d243233055dc","ios":"levelo://app?vid=53f48266-4564-420b-96ab-d243233055dc"},"vehicle_type_id":"4","last_reported":1774124059,"current_range_meters":3600,"station_id":"","pricing_plan_id":"cebpf4jnsgd1na2vs0mg"},{"bike_id":"f15bd2d3-5b76-4516-83cf-607c5d5c7457","system_id":"levelo_inurba_marseille","lat":43.307955,"lon":5.381448,"is_reserved":false,"is_disabled":false,"rental_uris":{"android":"levelo://app?vid=f15bd2d3-5b76-4516-83cf-607c5d5c7457","ios":"levelo://app?vid=f15bd2d3-5b76-4516-83cf-607c5d5c7457"},"vehicle_type_id":"4","last_reported":1774124059,"current_range_meters":3600,"station_id":"ce4bgt12rcd13ifvqce0","pricing_plan_id":"cebpf4jnsgd1na2vs0mg"},{"bike_id":"0f699794-8202-4161-a052-1d39a341c5fa","system_id":"levelo_inurba_marseille","lat":43.31155,"lon":5.38728,"is_reserved":false,"is_disabled":true,"rental_uris":{"android":"levelo://app?vid=0f699794-8202-4161-a052-1d39a341c5fa","ios":"levelo://app?vid=0f699794-8202-4161-a052-1d39a341c5fa"},"vehicle_type_id":"4","last_reported":1774124059,"current_range_meters":3600,"station_id":"ce4bgv12rcd13ifvqcp0","pricing_plan_id":"cebpf4jnsgd1na2vs0mg"},{"bike_id":"2ace7661-384b-4e7b-8912-66996d9be7d6","system_id":"levelo_inurba_marseille","lat":43.29798,"lon":5.38122,"is_reserved":false,"is_disabled":false,"rental_uris":{"android":"levelo://app?vid=2ace7661-384b-4e7b-8912-66996d9be7d6","ios":"levelo://app?vid=2ace7661-384b-4e7b-8912-66996d9be7d6"},"vehicle_type_id":"4","last_reported":1774124059,"current_range_meters":3600,"station_id":"ce4bgip2rcd13ifvqbb0","pricing_plan_id":"cebpf4jnsgd1na2vs0mg"},{"bike_id":"1a46da28-301a-44b9-970e-12b591c0665f","system_id":"levelo_inurba_marseille","lat":43.27945,"lon":5.41052,"is_reserved":false,"is_disabled":false,"rental_uris":{"android":"levelo://app?vid=1a46da28-301a-44b9-970e-12b591c0665f","ios":"levelo://app?vid=1a46da28-301a-44b9-970e-12b591c0665f"},"vehicle_type_id":"4","last_reported":1774124059,"current_range_meters":3600,"station_id":"ce4bhnp2rcd13ifvqh0g","pricing_plan_id":"cebpf4jnsgd1na2vs0mg"},{"bike_id":"0f771cd3-1d0f-48ec-9e98-e612640fd9b2","system_id":"levelo_inurba_marseille","lat":43.29543,"lon":5.39024,"is_reserved":false,"is_disabled":false,"rental_uris":{"android":"levelo://app?vid=0f771cd3-1d0f-48ec-9e98-e612640fd9b2","ios":"levelo://app?vid=0f771cd3-1d0f-48ec-9e98-e612640fd9b2"},"vehicle_type_id":"4","last_reported":1774124059,"current_range_meters":3600,"station_id":"ce4bh3p2rcd13ifvqdp0","pricing_plan_id":"cebpf4jnsgd1na2vs0mg"},{"bike_id":"9bedb971-6887-4d43-88c8-1762430f453d","system_id":"levelo_inurba_marseille","lat":43.24644,"lon":5.38189,"is_reserved":false,"is_disabled":true,"rental_uris":{"android":"levelo://app?vid=9bedb971-6887-4d43-88c8-1762430f453d","ios":"levelo://app?vid=9bedb971-6887-4d43-88c8-1762430f453d"},"vehicle_type_id":"4","last_reported":1774124059,"current_range_meters":3600,"station_id":"ce4bhih2rcd13ifvqfr0","pricing_plan_id":"cebpf4jnsgd1na2vs0mg"},{"bike_id":"dcf2545d-e032-4d69-96ae-c479953b0119","system_id":"levelo_inurba_marseille","lat":43.30632,"lon":5.40102,"is_reserved":false,"is_disabled":false,"rental_uris":{"android":"levelo://app?vid=dcf2545d-e032-4d69-96ae-c479953b0119","ios":"levelo://app?vid=dcf2545d-e032-4d69-96ae-c479953b0119"},"vehicle_type_id":"4","last_reported":1774124059,"current_range_meters":3600,"station_id":"ce4bh112rcd13ifvqda0","pricing_plan_id":"cebpf4jnsgd1na2vs0mg"},{"bike_id":"1b1df320-d249-4cd9-bb15-84e6d7b7ed90","system_id":"levelo_inurba_marseille","lat":43.2909,"lon":5.38136,"is_reserved":false,"is_disabled":false,"rental_uris":{"android":"levelo://app?vid=1b1df320-d249-4cd9-bb15-84e6d7b7ed90","ios":"levelo://app?vid=1b1df320-d249-4cd9-bb15-84e6d7b7ed90"},"vehicle_type_id":"4","last_reported":1774124059,"current_range_meters":3600,"station_id":"ce4bh512rcd13ifvqe2g","pricing_plan_id":"cebpf4jnsgd1na2vs0mg"},{"bike_id":"e9e2bc5d-e65f-41b6-ae4d-0cf45a27a2e4","system_id":"levelo_inurba_marseille","lat":43.28681,"lon":5.38667,"is_reserved":false,"is_disabled":false,"rental_uris":{"android":"levelo://app?vid=e9e2bc5d-e65f-41b6-ae4d-0cf45a27a2e4","ios":"levelo://app?vid=e9e2bc5d-e65f-41b6-ae4d-0cf45a27a2e4"},"vehicle_type_id":"4","last_reported":1774124059,"current_range_meters":3600,"station_id":"ce4bh492rcd13ifvqdug","pricing_plan_id":"cebpf4jnsgd1na2vs0mg"},{"bike_id":"76e3a855-6bf4-460f-ac74-ec562db94e69","system_id":"levelo_inurba_marseille","lat":43.30796,"lon":5.40002,"is_reserved":false,"is_disabled":false,"rental_uris":{"android":"levelo://app?vid=76e3a855-6bf4-460f-ac74-ec562db94e69","ios":"levelo://app?vid=76e3a855-6bf4-460f-ac74-ec562db94e69"},"vehicle_type_id":"4","last_reported":1774124059,"current_range_meters":3600,"station_id":"","pricing_plan_id":"cebpf4jnsgd1na2vs0mg"},{"bike_id":"4d914bb5-295c-4ce1-9742-8ab9ec1f8bd2","system_id":"levelo_inurba_marseille","lat":43.30642,"lon":5.40099,"is_reserved":false,"is_disabled":false,"rental_uris":{"android":"levelo://app?vid=4d914bb5-295c-4ce1-9742-8ab9ec1f8bd2","ios":"levelo://app?vid=4d914bb5-295c-4ce1-9742-8ab9ec1f8bd2"},"vehicle_type_id":"4","last_reported":1774124059,"current_range_meters":4000,"station_id":"ce4bh112rcd13ifvqda0","pricing_plan_id":"cebpf4jnsgd1na2vs0mg"},{"bike_id":"f93da2c0-53a7-4904-867a-cfb6ad424fd9","system_id":"levelo_inurba_marseille","lat":43.28915,"lon":5.38402,"is_reserved":false,"is_disabled":false,"rental_uris":{"android":"levelo://app?vid=f93da2c0-53a7-4904-867a-cfb6ad424fd9","ios":"levelo://app?vid=f93da2c0-53a7-4904-867a-cfb6ad424fd9"},"vehicle_type_id":"4","last_reported":1774124059,"current_range_meters":4000,"station_id":"ce4bh612rcd13ifvqe6g","pricing_plan_id":"cebpf4jnsgd1na2vs0mg"},{"bike_id":"263a4e6b-dd6c-4cb6-81b5-219f03c875af","system_id":"levelo_inurba_marseille","lat":43.27804,"lon":5.40712,"is_reserved":false,"is_disabled":false,"rental_uris":{"android":"levelo://app?vid=263a4e6b-dd6c-4cb6-81b5-219f03c875af","ios":"levelo://app?vid=263a4e6b-dd6c-4cb6-81b5-219f03c875af"},"vehicle_type_id":"4","last_reported":1774124059,"current_range_meters":4000,"station_id":"ce4bhnh2rcd13ifvqgtg","pricing_plan_id":"cebpf4jnsgd1na2vs0mg"},{"bike_id":"8a4ee7b7-fcbb-4e7a-a2d1-3d56548ff53c","system_id":"levelo_inurba_marseille","lat":43.2911,"lon":5.38153,"is_reserved":false,"is_disabled":false,"rental_uris":{"android":"levelo://app?vid=8a4ee7b7-fcbb-4e7a-a2d1-3d56548ff53c","ios":"levelo://app?vid=8a4ee7b7-fcbb-4e7a-a2d1-3d56548ff53c"},"vehicle_type_id":"4","last_reported":1774124059,"current_range_meters":4000,"station_id":"ce4bh512rcd13ifvqe2g","pricing_plan_id":"cebpf4jnsgd1na2vs0mg"},{"bike_id":"f2d78aa8-5982-4517-bda7-5cb81d5e9f58","system_id":"levelo_inurba_marseille","lat":43.29527,"lon":5.39023,"is_reserved":false,"is_disabled":false,"rental_uris":{"android":"levelo://app?vid=f2d78aa8-5982-4517-bda7-5cb81d5e9f58","ios":"levelo://app?vid=f2d78aa8-5982-4517-bda7-5cb81d5e9f58"},"vehicle_type_id":"4","last_reported":1774124059,"current_range_meters":4000,"station_id":"ce4bh3p2rcd13ifvqdp0","pricing_plan_id":"cebpf4jnsgd1na2vs0mg"},{"bike_id":"1e7c2ffa-a6e9-4865-beee-29d4c07199c6","system_id":"levelo_inurba_marseille","lat":43.29373,"lon":5.37825,"is_reserved":false,"is_disabled":false,"rental_uris":{"android":"levelo://app?vid=1e7c2ffa-a6e9-4865-beee-29d4c07199c6","ios":"levelo://app?vid=1e7c2ffa-a6e9-4865-beee-29d4c07199c6"},"vehicle_type_id":"4","last_reported":1774124059,"current_range_meters":4000,"station_id":"ce4bgjh2rcd13ifvqbf0","pricing_plan_id":"cebpf4jnsgd1na2vs0mg"},{"bike_id":"8aeb1ffc-b432-4235-8304-c0a4c58e7fe3","system_id":"levelo_inurba_marseille","lat":43.29786,"lon":5.38266,"is_reserved":false,"is_disabled":false,"rental_uris":{"android":"levelo://app?vid=8aeb1ffc-b432-4235-8304-c0a4c58e7fe3","ios":"levelo://app?vid=8aeb1ffc-b432-4235-8304-c0a4c58e7fe3"},"vehicle_type_id":"4","last_reported":1774124059,"current_range_meters":4000,"station_id":"","pricing_plan_id":"cebpf4jnsgd1na2vs0mg"},{"bike_id":"4fe19a0d-a8f9-4149-bb70-9f202169eae9","system_id":"levelo_inurba_marseille","lat":43.28474,"lon":5.38419,"is_reserved":false,"is_disabled":false,"rental_uris":{"android":"levelo://app?vid=4fe19a0d-a8f9-4149-bb70-9f202169eae9","ios":"levelo://app?vid=4fe19a0d-a8f9-4149-bb70-9f202169eae9"},"vehicle_type_id":"4","last_reported":1774124059,"current_range_meters":4000,"station_id":"ce4bh512rcd13ifvqe3g","pricing_plan_id":"cebpf4jnsgd1na2vs0mg"},{"bike_id":"2986b60a-3bbe-4212-8e67-594d4f9f2b39","system_id":"levelo_inurba_marseille","lat":43.278168,"lon":5.407221,"is_reserved":false,"is_disabled":false,"rental_uris":{"android":"levelo://app?vid=2986b60a-3bbe-4212-8e67-594d4f9f2b39","ios":"levelo://app?vid=2986b60a-3bbe-4212-8e67-594d4f9f2b39"},"vehicle_type_id":"4","last_reported":1774124059,"current_range_meters":4000,"station_id":"ce4bhnh2rcd13ifvqgtg","pricing_plan_id":"cebpf4jnsgd1na2vs0mg"},{"bike_id":"c46de140-2ee9-4497-b8a6-24fe2be1e641","system_id":"levelo_inurba_marseille","lat":43.29267,"lon":5.3842,"is_reserved":false,"is_disabled":false,"rental_uris":{"android":"levelo://app?vid=c46de140-2ee9-4497-b8a6-24fe2be1e641","ios":"levelo://app?vid=c46de140-2ee9-4497-b8a6-24fe2be1e641"},"vehicle_type_id":"4","last_reported":1774124059,"current_range_meters":4000,"station_id":"ce4bh692rcd13ifvqea0","pricing_plan_id":"cebpf4jnsgd1na2vs0mg"},{"bike_id":"751ef627-02fd-4d51-952c-1fc9b24a865e","system_id":"levelo_inurba_marseille","lat":43.29598,"lon":5.37717,"is_reserved":false,"is_disabled":false,"rental_uris":{"android":"levelo://app?vid=751ef627-02fd-4d51-952c-1fc9b24a865e","ios":"levelo://app?vid=751ef627-02fd-4d51-952c-1fc9b24a865e"},"vehicle_type_id":"4","last_reported":1774124059,"current_range_meters":4000,"station_id":"ce4bgi92rcd13ifvqb90","pricing_plan_id":"cebpf4jnsgd1na2vs0mg"},{"bike_id":"dcb7fa85-9576-461b-9db4-bfb93259aa75","system_id":"levelo_inurba_marseille","lat":43.25524,"lon":5.37665,"is_reserved":false,"is_disabled":true,"rental_uris":{"android":"levelo://app?vid=dcb7fa85-9576-461b-9db4-bfb93259aa75","ios":"levelo://app?vid=dcb7fa85-9576-461b-9db4-bfb93259aa75"},"vehicle_type_id":"4","last_reported":1774124059,"current_range_meters":4000,"station_id":"ce4bhh12rcd13ifvqff0","pricing_plan_id":"cebpf4jnsgd1na2vs0mg"},{"bike_id":"76a336d1-8392-4163-aad9-de020a1129ea","system_id":"levelo_inurba_marseille","lat":43.29602,"lon":5.38108,"is_reserved":false,"is_disabled":false,"rental_uris":{"android":"levelo://app?vid=76a336d1-8392-4163-aad9-de020a1129ea","ios":"levelo://app?vid=76a336d1-8392-4163-aad9-de020a1129ea"},"vehicle_type_id":"4","last_reported":1774124059,"current_range_meters":4000,"station_id":"ce4bgl12rcd13ifvqbo0","pricing_plan_id":"cebpf4jnsgd1na2vs0mg"},{"bike_id":"7ba80008-60b8-4bf7-9180-542631266876","system_id":"levelo_inurba_marseille","lat":43.33545,"lon":5.37469,"is_reserved":false,"is_disabled":false,"rental_uris":{"android":"levelo://app?vid=7ba80008-60b8-4bf7-9180-542631266876","ios":"levelo://app?vid=7ba80008-60b8-4bf7-9180-542631266876"},"vehicle_type_id":"4","last_reported":1774124059,"current_range_meters":4000,"station_id":"st_d46tts09ee8s73dlu43g","pricing_plan_id":"cebpf4jnsgd1na2vs0mg"},{"bike_id":"ad0918dd-198c-4cbb-ab94-e0fdeab67f2b","system_id":"levelo_inurba_marseille","lat":43.23191,"lon":5.35552,"is_reserved":false,"is_disabled":false,"rental_uris":{"android":"levelo://app?vid=ad0918dd-198c-4cbb-ab94-e0fdeab67f2b","ios":"levelo://app?vid=ad0918dd-198c-4cbb-ab94-e0fdeab67f2b"},"vehicle_type_id":"4","last_reported":1774124059,"current_range_meters":4000,"station_id":"ce4bhu92rcd13ifvqi70","pricing_plan_id":"cebpf4jnsgd1na2vs0mg"},{"bike_id":"dfa608d8-9ea3-493c-9119-e51f33dbd3dd","system_id":"levelo_inurba_marseille","lat":43.31164,"lon":5.38731,"is_reserved":false,"is_disabled":false,"rental_uris":{"android":"levelo://app?vid=dfa608d8-9ea3-493c-9119-e51f33dbd3dd","ios":"levelo://app?vid=dfa608d8-9ea3-493c-9119-e51f33dbd3dd"},"vehicle_type_id":"4","last_reported":1774124059,"current_range_meters":4000,"station_id":"ce4bgv12rcd13ifvqcp0","pricing_plan_id":"cebpf4jnsgd1na2vs0mg"},{"bike_id":"227eba85-8211-4d0d-bd09-d4a734cfd50d","system_id":"levelo_inurba_marseille","lat":43.29541,"lon":5.38529,"is_reserved":false,"is_disabled":false,"rental_uris":{"android":"levelo://app?vid=227eba85-8211-4d0d-bd09-d4a734cfd50d","ios":"levelo://app?vid=227eba85-8211-4d0d-bd09-d4a734cfd50d"},"vehicle_type_id":"4","last_reported":1774124059,"current_range_meters":4000,"station_id":"ce4bgih2rcd13ifvqba0","pricing_plan_id":"cebpf4jnsgd1na2vs0mg"},{"bike_id":"7fa64d84-cd92-4f02-a79d-c348b129b15f","system_id":"levelo_inurba_marseille","lat":43.24165,"lon":5.364,"is_reserved":false,"is_disabled":false,"rental_uris":{"android":"levelo://app?vid=7fa64d84-cd92-4f02-a79d-c348b129b15f","ios":"levelo://app?vid=7fa64d84-cd92-4f02-a79d-c348b129b15f"},"vehicle_type_id":"4","last_reported":1774124059,"current_range_meters":4000,"station_id":"cpo36qri1sfpv3e86is0","pricing_plan_id":"cebpf4jnsgd1na2vs0mg"},{"bike_id":"152f345c-1d4d-4c04-9196-e160b5ce0c4d","system_id":"levelo_inurba_marseille","lat":43.28684,"lon":5.38655,"is_reserved":false,"is_disabled":false,"rental_uris":{"android":"levelo://app?vid=152f345c-1d4d-4c04-9196-e160b5ce0c4d","ios":"levelo://app?vid=152f345c-1d4d-4c04-9196-e160b5ce0c4d"},"vehicle_type_id":"4","last_reported":1774124059,"current_range_meters":4000,"station_id":"ce4bh492rcd13ifvqdug","pricing_plan_id":"cebpf4jnsgd1na2vs0mg"},{"bike_id":"9ae4e98e-6d45-456e-a68a-69cf2ca20aa5","system_id":"levelo_inurba_marseille","lat":43.29292,"lon":5.37444,"is_reserved":false,"is_disabled":false,"rental_uris":{"android":"levelo://app?vid=9ae4e98e-6d45-456e-a68a-69cf2ca20aa5","ios":"levelo://app?vid=9ae4e98e-6d45-456e-a68a-69cf2ca20aa5"},"vehicle_type_id":"4","last_reported":1774124059,"current_range_meters":4000,"station_id":"ce4bgi12rcd13ifvqb70","pricing_plan_id":"cebpf4jnsgd1na2vs0mg"},{"bike_id":"fdc655d4-8c99-4d97-9c1e-46ec98ef8979","system_id":"levelo_inurba_marseille","lat":43.28613,"lon":5.35102,"is_reserved":false,"is_disabled":true,"rental_uris":{"android":"levelo://app?vid=fdc655d4-8c99-4d97-9c1e-46ec98ef8979","ios":"levelo://app?vid=fdc655d4-8c99-4d97-9c1e-46ec98ef8979"},"vehicle_type_id":"4","last_reported":1774124059,"current_range_meters":4400,"station_id":"ce4bhch2rcd13ifvqeug","pricing_plan_id":"cebpf4jnsgd1na2vs0mg"},{"bike_id":"cbfec779-6402-4087-92d7-b8a8e23e546a","system_id":"levelo_inurba_marseille","lat":43.29503,"lon":5.39038,"is_reserved":false,"is_disabled":false,"rental_uris":{"android":"levelo://app?vid=cbfec779-6402-4087-92d7-b8a8e23e546a","ios":"levelo://app?vid=cbfec779-6402-4087-92d7-b8a8e23e546a"},"vehicle_type_id":"4","last_reported":1774124059,"current_range_meters":4400,"station_id":"ce4bh3p2rcd13ifvqdp0","pricing_plan_id":"cebpf4jnsgd1na2vs0mg"},{"bike_id":"f7980c2b-e862-49a2-ac35-df8e5d5ffd4e","system_id":"levelo_inurba_marseille","lat":43.30824,"lon":5.38171,"is_reserved":false,"is_disabled":false,"rental_uris":{"android":"levelo://app?vid=f7980c2b-e862-49a2-ac35-df8e5d5ffd4e","ios":"levelo://app?vid=f7980c2b-e862-49a2-ac35-df8e5d5ffd4e"},"vehicle_type_id":"4","last_reported":1774124059,"current_range_meters":4400,"station_id":"ce4bgt12rcd13ifvqce0","pricing_plan_id":"cebpf4jnsgd1na2vs0mg"},{"bike_id":"286fba00-1c70-49c5-9491-0b3044de24cb","system_id":"levelo_inurba_marseille","lat":43.26222,"lon":5.40457,"is_reserved":false,"is_disabled":true,"rental_uris":{"android":"levelo://app?vid=286fba00-1c70-49c5-9491-0b3044de24cb","ios":"levelo://app?vid=286fba00-1c70-49c5-9491-0b3044de24cb"},"vehicle_type_id":"4","last_reported":1774124059,"current_range_meters":4400,"station_id":"ce4bhmh2rcd13ifvqgmg","pricing_plan_id":"cebpf4jnsgd1na2vs0mg"},{"bike_id":"f3414e99-2d7c-4b03-96db-df8c1c6d3f2b","system_id":"levelo_inurba_marseille","lat":43.28468,"lon":5.48417,"is_reserved":false,"is_disabled":false,"rental_uris":{"android":"levelo://app?vid=f3414e99-2d7c-4b03-96db-df8c1c6d3f2b","ios":"levelo://app?vid=f3414e99-2d7c-4b03-96db-df8c1c6d3f2b"},"vehicle_type_id":"4","last_reported":1774124059,"current_range_meters":4400,"station_id":"","pricing_plan_id":"cebpf4jnsgd1na2vs0mg"},{"bike_id":"9c9bee09-6ca5-4a6d-b709-1e84348fa4fc","system_id":"levelo_inurba_marseille","lat":43.29708,"lon":5.36612,"is_reserved":false,"is_disabled":false,"rental_uris":{"android":"levelo://app?vid=9c9bee09-6ca5-4a6d-b709-1e84348fa4fc","ios":"levelo://app?vid=9c9bee09-6ca5-4a6d-b709-1e84348fa4fc"},"vehicle_type_id":"4","last_reported":1774124059,"current_range_meters":4400,"station_id":"ce4bgn12rcd13ifvqbt0","pricing_plan_id":"cebpf4jnsgd1na2vs0mg"},{"bike_id":"f8a3b231-4dcf-4051-ae11-76620efbb058","system_id":"levelo_inurba_marseille","lat":43.29199,"lon":5.39321,"is_reserved":false,"is_disabled":false,"rental_uris":{"android":"levelo://app?vid=f8a3b231-4dcf-4051-ae11-76620efbb058","ios":"levelo://app?vid=f8a3b231-4dcf-4051-ae11-76620efbb058"},"vehicle_type_id":"4","last_reported":1774124059,"current_range_meters":4400,"station_id":"ce4bh192rcd13ifvqdd0","pricing_plan_id":"cebpf4jnsgd1na2vs0mg"},{"bike_id":"16fe25c4-6472-47d6-882b-5ff94101fa7d","system_id":"levelo_inurba_marseille","lat":43.21192,"lon":5.3508,"is_reserved":false,"is_disabled":false,"rental_uris":{"android":"levelo://app?vid=16fe25c4-6472-47d6-882b-5ff94101fa7d","ios":"levelo://app?vid=16fe25c4-6472-47d6-882b-5ff94101fa7d"},"vehicle_type_id":"4","last_reported":1774124059,"current_range_meters":4400,"station_id":"st_cvj6sg6p6f1abm77japg","pricing_plan_id":"cebpf4jnsgd1na2vs0mg"},{"bike_id":"a8c8307b-e1e9-4950-a785-578e1a82f805","system_id":"levelo_inurba_marseille","lat":43.31267,"lon":5.37823,"is_reserved":false,"is_disabled":false,"rental_uris":{"android":"levelo://app?vid=a8c8307b-e1e9-4950-a785-578e1a82f805","ios":"levelo://app?vid=a8c8307b-e1e9-4950-a785-578e1a82f805"},"vehicle_type_id":"4","last_reported":1774124059,"current_range_meters":4400,"station_id":"","pricing_plan_id":"cebpf4jnsgd1na2vs0mg"},{"bike_id":"962e3e51-db50-4f61-a079-9b1c6a103eb5","system_id":"levelo_inurba_marseille","lat":43.30963,"lon":5.36814,"is_reserved":false,"is_disabled":false,"rental_uris":{"android":"levelo://app?vid=962e3e51-db50-4f61-a079-9b1c6a103eb5","ios":"levelo://app?vid=962e3e51-db50-4f61-a079-9b1c6a103eb5"},"vehicle_type_id":"4","last_reported":1774124059,"current_range_meters":4400,"station_id":"","pricing_plan_id":"cebpf4jnsgd1na2vs0mg"},{"bike_id":"73206cd7-297d-41e6-ad5c-9899f25346cd","system_id":"levelo_inurba_marseille","lat":43.27817,"lon":5.40656,"is_reserved":false,"is_disabled":false,"rental_uris":{"android":"levelo://app?vid=73206cd7-297d-41e6-ad5c-9899f25346cd","ios":"levelo://app?vid=73206cd7-297d-41e6-ad5c-9899f25346cd"},"vehicle_type_id":"4","last_reported":1774124059,"current_range_meters":4400,"station_id":"","pricing_plan_id":"cebpf4jnsgd1na2vs0mg"},{"bike_id":"7f50c553-8ef4-46fd-be9e-3636a7cc9d25","system_id":"levelo_inurba_marseille","lat":43.29317,"lon":5.3745,"is_reserved":false,"is_disabled":false,"rental_uris":{"android":"levelo://app?vid=7f50c553-8ef4-46fd-be9e-3636a7cc9d25","ios":"levelo://app?vid=7f50c553-8ef4-46fd-be9e-3636a7cc9d25"},"vehicle_type_id":"4","last_reported":1774124059,"current_range_meters":4400,"station_id":"ce4bgi12rcd13ifvqb70","pricing_plan_id":"cebpf4jnsgd1na2vs0mg"},{"bike_id":"2cea9d46-c32a-4a24-9abe-5dc099975957","system_id":"levelo_inurba_marseille","lat":43.28497,"lon":5.48401,"is_reserved":false,"is_disabled":false,"rental_uris":{"android":"levelo://app?vid=2cea9d46-c32a-4a24-9abe-5dc099975957","ios":"levelo://app?vid=2cea9d46-c32a-4a24-9abe-5dc099975957"},"vehicle_type_id":"4","last_reported":1774124059,"current_range_meters":4400,"station_id":"","pricing_plan_id":"cebpf4jnsgd1na2vs0mg"},{"bike_id":"2d9e4754-9b17-40b5-bbeb-5b1c9c5bbe64","system_id":"levelo_inurba_marseille","lat":43.30121,"lon":5.38789,"is_reserved":false,"is_disabled":true,"rental_uris":{"android":"levelo://app?vid=2d9e4754-9b17-40b5-bbeb-5b1c9c5bbe64","ios":"levelo://app?vid=2d9e4754-9b17-40b5-bbeb-5b1c9c5bbe64"},"vehicle_type_id":"4","last_reported":1774124059,"current_range_meters":4400,"station_id":"ce4bghh2rcd13ifvqb60","pricing_plan_id":"cebpf4jnsgd1na2vs0mg"},{"bike_id":"adc5ac07-5147-43c6-b3e9-46b364b058d3","system_id":"levelo_inurba_marseille","lat":43.21777,"lon":5.34588,"is_reserved":false,"is_disabled":true,"rental_uris":{"android":"levelo://app?vid=adc5ac07-5147-43c6-b3e9-46b364b058d3","ios":"levelo://app?vid=adc5ac07-5147-43c6-b3e9-46b364b058d3"},"vehicle_type_id":"4","last_reported":1774124059,"current_range_meters":4400,"station_id":"st_cvj6r9ubvosntc0bgbag","pricing_plan_id":"cebpf4jnsgd1na2vs0mg"},{"bike_id":"d56eaa75-15ac-4f85-b586-21cf18fbc27a","system_id":"levelo_inurba_marseille","lat":43.29712,"lon":5.37686,"is_reserved":false,"is_disabled":false,"rental_uris":{"android":"levelo://app?vid=d56eaa75-15ac-4f85-b586-21cf18fbc27a","ios":"levelo://app?vid=d56eaa75-15ac-4f85-b586-21cf18fbc27a"},"vehicle_type_id":"4","last_reported":1774124059,"current_range_meters":4400,"station_id":"ce4bgkh2rcd13ifvqbl0","pricing_plan_id":"cebpf4jnsgd1na2vs0mg"},{"bike_id":"5672f140-f178-4766-bb60-5301b26a0e4e","system_id":"levelo_inurba_marseille","lat":43.28471,"lon":5.48392,"is_reserved":false,"is_disabled":false,"rental_uris":{"android":"levelo://app?vid=5672f140-f178-4766-bb60-5301b26a0e4e","ios":"levelo://app?vid=5672f140-f178-4766-bb60-5301b26a0e4e"},"vehicle_type_id":"4","last_reported":1774124059,"current_range_meters":4800,"station_id":"","pricing_plan_id":"cebpf4jnsgd1na2vs0mg"},{"bike_id":"53663f10-c972-4dad-83a0-96ec19d2a37e","system_id":"levelo_inurba_marseille","lat":43.25057,"lon":5.38908,"is_reserved":false,"is_disabled":true,"rental_uris":{"android":"levelo://app?vid=53663f10-c972-4dad-83a0-96ec19d2a37e","ios":"levelo://app?vid=53663f10-c972-4dad-83a0-96ec19d2a37e"},"vehicle_type_id":"4","last_reported":1774124059,"current_range_meters":4800,"station_id":"ce4bhgp2rcd13ifvqfd0","pricing_plan_id":"cebpf4jnsgd1na2vs0mg"},{"bike_id":"8648ff3d-a49d-4491-be6c-bab3f9812603","system_id":"levelo_inurba_marseille","lat":43.28286,"lon":5.43825,"is_reserved":false,"is_disabled":false,"rental_uris":{"android":"levelo://app?vid=8648ff3d-a49d-4491-be6c-bab3f9812603","ios":"levelo://app?vid=8648ff3d-a49d-4491-be6c-bab3f9812603"},"vehicle_type_id":"4","last_reported":1774124059,"current_range_meters":4800,"station_id":"","pricing_plan_id":"cebpf4jnsgd1na2vs0mg"},{"bike_id":"e013a48d-614c-465e-bd28-59ac9a876b3e","system_id":"levelo_inurba_marseille","lat":43.30922,"lon":5.40152,"is_reserved":false,"is_disabled":false,"rental_uris":{"android":"levelo://app?vid=e013a48d-614c-465e-bd28-59ac9a876b3e","ios":"levelo://app?vid=e013a48d-614c-465e-bd28-59ac9a876b3e"},"vehicle_type_id":"4","last_reported":1774124059,"current_range_meters":4800,"station_id":"ce4bgvp2rcd13ifvqct0","pricing_plan_id":"cebpf4jnsgd1na2vs0mg"},{"bike_id":"2624730d-6bfe-4328-8b70-6c25453b3956","system_id":"levelo_inurba_marseille","lat":43.29536,"lon":5.39035,"is_reserved":false,"is_disabled":false,"rental_uris":{"android":"levelo://app?vid=2624730d-6bfe-4328-8b70-6c25453b3956","ios":"levelo://app?vid=2624730d-6bfe-4328-8b70-6c25453b3956"},"vehicle_type_id":"4","last_reported":1774124059,"current_range_meters":4800,"station_id":"ce4bh3p2rcd13ifvqdp0","pricing_plan_id":"cebpf4jnsgd1na2vs0mg"},{"bike_id":"6cdd10c0-2d27-4d18-b2a2-71222847191e","system_id":"levelo_inurba_marseille","lat":43.28453,"lon":5.35893,"is_reserved":false,"is_disabled":false,"rental_uris":{"android":"levelo://app?vid=6cdd10c0-2d27-4d18-b2a2-71222847191e","ios":"levelo://app?vid=6cdd10c0-2d27-4d18-b2a2-71222847191e"},"vehicle_type_id":"4","last_reported":1774124059,"current_range_meters":4800,"station_id":"ce4bhah2rcd13ifvqei0","pricing_plan_id":"cebpf4jnsgd1na2vs0mg"},{"bike_id":"c9779e4b-ce6c-410d-bc1a-4c96b2b12443","system_id":"levelo_inurba_marseille","lat":43.30409,"lon":5.41284,"is_reserved":false,"is_disabled":false,"rental_uris":{"android":"levelo://app?vid=c9779e4b-ce6c-410d-bc1a-4c96b2b12443","ios":"levelo://app?vid=c9779e4b-ce6c-410d-bc1a-4c96b2b12443"},"vehicle_type_id":"4","last_reported":1774124059,"current_range_meters":4800,"station_id":"ce4bhop2rcd13ifvqh8g","pricing_plan_id":"cebpf4jnsgd1na2vs0mg"},{"bike_id":"6397401b-a471-4bdc-a6ed-8c94e6a2cfda","system_id":"levelo_inurba_marseille","lat":43.3169,"lon":5.40456,"is_reserved":false,"is_disabled":false,"rental_uris":{"android":"levelo://app?vid=6397401b-a471-4bdc-a6ed-8c94e6a2cfda","ios":"levelo://app?vid=6397401b-a471-4bdc-a6ed-8c94e6a2cfda"},"vehicle_type_id":"4","last_reported":1774124059,"current_range_meters":4800,"station_id":"ce4bh012rcd13ifvqd00","pricing_plan_id":"cebpf4jnsgd1na2vs0mg"},{"bike_id":"2d0906ff-aeed-419b-83b6-fd2861496b8f","system_id":"levelo_inurba_marseille","lat":43.26228,"lon":5.4047,"is_reserved":false,"is_disabled":false,"rental_uris":{"android":"levelo://app?vid=2d0906ff-aeed-419b-83b6-fd2861496b8f","ios":"levelo://app?vid=2d0906ff-aeed-419b-83b6-fd2861496b8f"},"vehicle_type_id":"4","last_reported":1774124059,"current_range_meters":4800,"station_id":"ce4bhmh2rcd13ifvqgmg","pricing_plan_id":"cebpf4jnsgd1na2vs0mg"},{"bike_id":"21dcff95-3114-402a-9713-10e340a8f8dd","system_id":"levelo_inurba_marseille","lat":43.29293,"lon":5.37158,"is_reserved":false,"is_disabled":false,"rental_uris":{"android":"levelo://app?vid=21dcff95-3114-402a-9713-10e340a8f8dd","ios":"levelo://app?vid=21dcff95-3114-402a-9713-10e340a8f8dd"},"vehicle_type_id":"4","last_reported":1774124059,"current_range_meters":4800,"station_id":"ce4bgh92rcd13ifvqb40","pricing_plan_id":"cebpf4jnsgd1na2vs0mg"},{"bike_id":"60e6ae26-a898-4e57-89ed-322fc8bb5c52","system_id":"levelo_inurba_marseille","lat":43.29636,"lon":5.37692,"is_reserved":false,"is_disabled":false,"rental_uris":{"android":"levelo://app?vid=60e6ae26-a898-4e57-89ed-322fc8bb5c52","ios":"levelo://app?vid=60e6ae26-a898-4e57-89ed-322fc8bb5c52"},"vehicle_type_id":"4","last_reported":1774124059,"current_range_meters":4800,"station_id":"ce4bgi92rcd13ifvqb90","pricing_plan_id":"cebpf4jnsgd1na2vs0mg"},{"bike_id":"53fe7d20-a0f2-42d5-9475-d517256919e4","system_id":"levelo_inurba_marseille","lat":43.28992,"lon":5.3865,"is_reserved":false,"is_disabled":false,"rental_uris":{"android":"levelo://app?vid=53fe7d20-a0f2-42d5-9475-d517256919e4","ios":"levelo://app?vid=53fe7d20-a0f2-42d5-9475-d517256919e4"},"vehicle_type_id":"4","last_reported":1774124059,"current_range_meters":4800,"station_id":"ce4bh4p2rcd13ifvqe0g","pricing_plan_id":"cebpf4jnsgd1na2vs0mg"},{"bike_id":"3a715a56-9c41-40bc-8b61-760c54e38e8d","system_id":"levelo_inurba_marseille","lat":43.24407,"lon":5.37059,"is_reserved":false,"is_disabled":false,"rental_uris":{"android":"levelo://app?vid=3a715a56-9c41-40bc-8b61-760c54e38e8d","ios":"levelo://app?vid=3a715a56-9c41-40bc-8b61-760c54e38e8d"},"vehicle_type_id":"4","last_reported":1774124059,"current_range_meters":5600,"station_id":"ce4bhhh2rcd13ifvqfk0","pricing_plan_id":"cebpf4jnsgd1na2vs0mg"},{"bike_id":"92f32112-8a58-4a2d-8380-c50aa46da344","system_id":"levelo_inurba_marseille","lat":43.24061,"lon":5.3637,"is_reserved":false,"is_disabled":false,"rental_uris":{"android":"levelo://app?vid=92f32112-8a58-4a2d-8380-c50aa46da344","ios":"levelo://app?vid=92f32112-8a58-4a2d-8380-c50aa46da344"},"vehicle_type_id":"4","last_reported":1774124059,"current_range_meters":5600,"station_id":"","pricing_plan_id":"cebpf4jnsgd1na2vs0mg"},{"bike_id":"f1236ff4-a5d9-49c5-a9fc-af323b9f5e77","system_id":"levelo_inurba_marseille","lat":43.30593,"lon":5.37233,"is_reserved":false,"is_disabled":false,"rental_uris":{"android":"levelo://app?vid=f1236ff4-a5d9-49c5-a9fc-af323b9f5e77","ios":"levelo://app?vid=f1236ff4-a5d9-49c5-a9fc-af323b9f5e77"},"vehicle_type_id":"4","last_reported":1774124059,"current_range_meters":5600,"station_id":"ce4bgqh2rcd13ifvqc4g","pricing_plan_id":"cebpf4jnsgd1na2vs0mg"},{"bike_id":"aca02e18-5940-4457-bade-a83a3729d2e4","system_id":"levelo_inurba_marseille","lat":43.29469,"lon":5.43299,"is_reserved":false,"is_disabled":false,"rental_uris":{"android":"levelo://app?vid=aca02e18-5940-4457-bade-a83a3729d2e4","ios":"levelo://app?vid=aca02e18-5940-4457-bade-a83a3729d2e4"},"vehicle_type_id":"4","last_reported":1774124059,"current_range_meters":5600,"station_id":"st_d3j5ugp08ojc73fj9d10","pricing_plan_id":"cebpf4jnsgd1na2vs0mg"},{"bike_id":"be006c18-a171-44fc-9f00-b5568b756235","system_id":"levelo_inurba_marseille","lat":43.28563,"lon":5.39492,"is_reserved":false,"is_disabled":false,"rental_uris":{"android":"levelo://app?vid=be006c18-a171-44fc-9f00-b5568b756235","ios":"levelo://app?vid=be006c18-a171-44fc-9f00-b5568b756235"},"vehicle_type_id":"4","last_reported":1774124059,"current_range_meters":5600,"station_id":"ce4bh292rcd13ifvqdg0","pricing_plan_id":"cebpf4jnsgd1na2vs0mg"},{"bike_id":"83d52824-2739-444b-906b-f51f8af7b0d1","system_id":"levelo_inurba_marseille","lat":43.29182,"lon":5.37139,"is_reserved":false,"is_disabled":false,"rental_uris":{"android":"levelo://app?vid=83d52824-2739-444b-906b-f51f8af7b0d1","ios":"levelo://app?vid=83d52824-2739-444b-906b-f51f8af7b0d1"},"vehicle_type_id":"4","last_reported":1774124059,"current_range_meters":5600,"station_id":"ce4bha92rcd13ifvqeh0","pricing_plan_id":"cebpf4jnsgd1na2vs0mg"},{"bike_id":"0b0def41-4711-4d3a-bf42-932001339ed1","system_id":"levelo_inurba_marseille","lat":43.311079,"lon":5.377611,"is_reserved":false,"is_disabled":false,"rental_uris":{"android":"levelo://app?vid=0b0def41-4711-4d3a-bf42-932001339ed1","ios":"levelo://app?vid=0b0def41-4711-4d3a-bf42-932001339ed1"},"vehicle_type_id":"4","last_reported":1774124059,"current_range_meters":5600,"station_id":"ce4bgt92rcd13ifvqcg0","pricing_plan_id":"cebpf4jnsgd1na2vs0mg"},{"bike_id":"cb0ecd51-0c28-47ba-aa27-5ce4e37888bf","system_id":"levelo_inurba_marseille","lat":43.31339,"lon":5.36729,"is_reserved":false,"is_disabled":false,"rental_uris":{"android":"levelo://app?vid=cb0ecd51-0c28-47ba-aa27-5ce4e37888bf","ios":"levelo://app?vid=cb0ecd51-0c28-47ba-aa27-5ce4e37888bf"},"vehicle_type_id":"4","last_reported":1774124059,"current_range_meters":5600,"station_id":"ce4bgr92rcd13ifvqc6g","pricing_plan_id":"cebpf4jnsgd1na2vs0mg"},{"bike_id":"03046f7a-5758-49fb-8e19-a233a60f12e1","system_id":"levelo_inurba_marseille","lat":43.30297,"lon":5.39221,"is_reserved":false,"is_disabled":false,"rental_uris":{"android":"levelo://app?vid=03046f7a-5758-49fb-8e19-a233a60f12e1","ios":"levelo://app?vid=03046f7a-5758-49fb-8e19-a233a60f12e1"},"vehicle_type_id":"4","last_reported":1774124059,"current_range_meters":5600,"station_id":"ce4bgkh2rcd13ifvqbk0","pricing_plan_id":"cebpf4jnsgd1na2vs0mg"},{"bike_id":"c92832de-6352-41c9-a751-f260ac82b4bc","system_id":"levelo_inurba_marseille","lat":43.30137,"lon":5.38763,"is_reserved":false,"is_disabled":false,"rental_uris":{"android":"levelo://app?vid=c92832de-6352-41c9-a751-f260ac82b4bc","ios":"levelo://app?vid=c92832de-6352-41c9-a751-f260ac82b4bc"},"vehicle_type_id":"4","last_reported":1774124059,"current_range_meters":5600,"station_id":"ce4bghh2rcd13ifvqb60","pricing_plan_id":"cebpf4jnsgd1na2vs0mg"},{"bike_id":"c16c9a39-e84b-49b8-946e-097460e8251a","system_id":"levelo_inurba_marseille","lat":43.28564,"lon":5.39492,"is_reserved":false,"is_disabled":false,"rental_uris":{"android":"levelo://app?vid=c16c9a39-e84b-49b8-946e-097460e8251a","ios":"levelo://app?vid=c16c9a39-e84b-49b8-946e-097460e8251a"},"vehicle_type_id":"4","last_reported":1774124059,"current_range_meters":5600,"station_id":"ce4bh292rcd13ifvqdg0","pricing_plan_id":"cebpf4jnsgd1na2vs0mg"},{"bike_id":"8c69132c-2984-4cc6-9bef-dfc23fde7db7","system_id":"levelo_inurba_marseille","lat":43.29882,"lon":5.38899,"is_reserved":false,"is_disabled":false,"rental_uris":{"android":"levelo://app?vid=8c69132c-2984-4cc6-9bef-dfc23fde7db7","ios":"levelo://app?vid=8c69132c-2984-4cc6-9bef-dfc23fde7db7"},"vehicle_type_id":"4","last_reported":1774124059,"current_range_meters":5600,"station_id":"ce4bh392rcd13ifvqdl0","pricing_plan_id":"cebpf4jnsgd1na2vs0mg"},{"bike_id":"47efb401-c51b-46fd-bc6f-b874c731d32b","system_id":"levelo_inurba_marseille","lat":43.29565,"lon":5.36762,"is_reserved":false,"is_disabled":true,"rental_uris":{"android":"levelo://app?vid=47efb401-c51b-46fd-bc6f-b874c731d32b","ios":"levelo://app?vid=47efb401-c51b-46fd-bc6f-b874c731d32b"},"vehicle_type_id":"4","last_reported":1774124059,"current_range_meters":5600,"station_id":"ce4bgph2rcd13ifvqc2g","pricing_plan_id":"cebpf4jnsgd1na2vs0mg"},{"bike_id":"a7a34825-be19-499e-829b-5b28fe685736","system_id":"levelo_inurba_marseille","lat":43.30127,"lon":5.38781,"is_reserved":false,"is_disabled":false,"rental_uris":{"android":"levelo://app?vid=a7a34825-be19-499e-829b-5b28fe685736","ios":"levelo://app?vid=a7a34825-be19-499e-829b-5b28fe685736"},"vehicle_type_id":"4","last_reported":1774124059,"current_range_meters":5600,"station_id":"ce4bghh2rcd13ifvqb60","pricing_plan_id":"cebpf4jnsgd1na2vs0mg"},{"bike_id":"ec531884-8bfa-420b-bd77-1512f322e6f0","system_id":"levelo_inurba_marseille","lat":43.29896,"lon":5.43671,"is_reserved":false,"is_disabled":false,"rental_uris":{"android":"levelo://app?vid=ec531884-8bfa-420b-bd77-1512f322e6f0","ios":"levelo://app?vid=ec531884-8bfa-420b-bd77-1512f322e6f0"},"vehicle_type_id":"4","last_reported":1774124059,"current_range_meters":5600,"station_id":"ce4bhpp2rcd13ifvqhfg","pricing_plan_id":"cebpf4jnsgd1na2vs0mg"},{"bike_id":"7e63d3a1-a7c9-4b4d-a037-a3c4afa2faf9","system_id":"levelo_inurba_marseille","lat":43.30302,"lon":5.36882,"is_reserved":false,"is_disabled":false,"rental_uris":{"android":"levelo://app?vid=7e63d3a1-a7c9-4b4d-a037-a3c4afa2faf9","ios":"levelo://app?vid=7e63d3a1-a7c9-4b4d-a037-a3c4afa2faf9"},"vehicle_type_id":"4","last_reported":1774124059,"current_range_meters":5600,"station_id":"ce4bgqh2rcd13ifvqc5g","pricing_plan_id":"cebpf4jnsgd1na2vs0mg"},{"bike_id":"b9f30aab-8e07-49dc-b3fd-750a5758a305","system_id":"levelo_inurba_marseille","lat":43.28421,"lon":5.37524,"is_reserved":false,"is_disabled":false,"rental_uris":{"android":"levelo://app?vid=b9f30aab-8e07-49dc-b3fd-750a5758a305","ios":"levelo://app?vid=b9f30aab-8e07-49dc-b3fd-750a5758a305"},"vehicle_type_id":"4","last_reported":1774124059,"current_range_meters":5600,"station_id":"ce4bh412rcd13ifvqds0","pricing_plan_id":"cebpf4jnsgd1na2vs0mg"},{"bike_id":"799e5206-e569-46be-93f3-cb56e5726e56","system_id":"levelo_inurba_marseille","lat":43.26369,"lon":5.41086,"is_reserved":false,"is_disabled":false,"rental_uris":{"android":"levelo://app?vid=799e5206-e569-46be-93f3-cb56e5726e56","ios":"levelo://app?vid=799e5206-e569-46be-93f3-cb56e5726e56"},"vehicle_type_id":"4","last_reported":1774124059,"current_range_meters":5600,"station_id":"st_d4e5ca6na9uc73bfl5fg","pricing_plan_id":"cebpf4jnsgd1na2vs0mg"},{"bike_id":"823ffe15-8a32-4f4a-964f-71836b0b02cb","system_id":"levelo_inurba_marseille","lat":43.23062,"lon":5.35518,"is_reserved":false,"is_disabled":false,"rental_uris":{"android":"levelo://app?vid=823ffe15-8a32-4f4a-964f-71836b0b02cb","ios":"levelo://app?vid=823ffe15-8a32-4f4a-964f-71836b0b02cb"},"vehicle_type_id":"4","last_reported":1774124059,"current_range_meters":5600,"station_id":"cpo3342slgdg3j2ifvpg","pricing_plan_id":"cebpf4jnsgd1na2vs0mg"},{"bike_id":"0cc6d566-6e22-4242-badf-9a4cb31a4490","system_id":"levelo_inurba_marseille","lat":43.299829,"lon":5.384804,"is_reserved":false,"is_disabled":false,"rental_uris":{"android":"levelo://app?vid=0cc6d566-6e22-4242-badf-9a4cb31a4490","ios":"levelo://app?vid=0cc6d566-6e22-4242-badf-9a4cb31a4490"},"vehicle_type_id":"4","last_reported":1774124059,"current_range_meters":6000,"station_id":"ce4bgj92rcd13ifvqbd0","pricing_plan_id":"cebpf4jnsgd1na2vs0mg"},{"bike_id":"71389fc3-a4c3-46c5-a0f9-4330fcbb165b","system_id":"levelo_inurba_marseille","lat":43.27938,"lon":5.41054,"is_reserved":false,"is_disabled":true,"rental_uris":{"android":"levelo://app?vid=71389fc3-a4c3-46c5-a0f9-4330fcbb165b","ios":"levelo://app?vid=71389fc3-a4c3-46c5-a0f9-4330fcbb165b"},"vehicle_type_id":"4","last_reported":1774124059,"current_range_meters":6000,"station_id":"ce4bhnp2rcd13ifvqh0g","pricing_plan_id":"cebpf4jnsgd1na2vs0mg"},{"bike_id":"921f29a2-1e72-42f3-909c-e9e002c71e5c","system_id":"levelo_inurba_marseille","lat":43.30289,"lon":5.36879,"is_reserved":false,"is_disabled":false,"rental_uris":{"android":"levelo://app?vid=921f29a2-1e72-42f3-909c-e9e002c71e5c","ios":"levelo://app?vid=921f29a2-1e72-42f3-909c-e9e002c71e5c"},"vehicle_type_id":"4","last_reported":1774124059,"current_range_meters":6000,"station_id":"ce4bgqh2rcd13ifvqc5g","pricing_plan_id":"cebpf4jnsgd1na2vs0mg"},{"bike_id":"e9432173-8389-4ac2-aadf-239a790f53c5","system_id":"levelo_inurba_marseille","lat":43.29089,"lon":5.37125,"is_reserved":false,"is_disabled":false,"rental_uris":{"android":"levelo://app?vid=e9432173-8389-4ac2-aadf-239a790f53c5","ios":"levelo://app?vid=e9432173-8389-4ac2-aadf-239a790f53c5"},"vehicle_type_id":"4","last_reported":1774124059,"current_range_meters":6000,"station_id":"ce4bh5p2rcd13ifvqe4g","pricing_plan_id":"cebpf4jnsgd1na2vs0mg"},{"bike_id":"e5889c18-6483-46e2-8e97-7aa7bb200275","system_id":"levelo_inurba_marseille","lat":43.24458,"lon":5.42555,"is_reserved":false,"is_disabled":false,"rental_uris":{"android":"levelo://app?vid=e5889c18-6483-46e2-8e97-7aa7bb200275","ios":"levelo://app?vid=e5889c18-6483-46e2-8e97-7aa7bb200275"},"vehicle_type_id":"4","last_reported":1774124059,"current_range_meters":6000,"station_id":"st_d4a3vfp97mjs738cd8kg","pricing_plan_id":"cebpf4jnsgd1na2vs0mg"},{"bike_id":"d86f8d0d-62d2-4104-ab84-dbb85bf910e4","system_id":"levelo_inurba_marseille","lat":43.29203,"lon":5.39305,"is_reserved":false,"is_disabled":false,"rental_uris":{"android":"levelo://app?vid=d86f8d0d-62d2-4104-ab84-dbb85bf910e4","ios":"levelo://app?vid=d86f8d0d-62d2-4104-ab84-dbb85bf910e4"},"vehicle_type_id":"4","last_reported":1774124059,"current_range_meters":6000,"station_id":"ce4bh192rcd13ifvqdd0","pricing_plan_id":"cebpf4jnsgd1na2vs0mg"},{"bike_id":"9c9c13db-001e-4ed2-96e9-ffaeedd15977","system_id":"levelo_inurba_marseille","lat":43.305358,"lon":5.36551,"is_reserved":false,"is_disabled":false,"rental_uris":{"android":"levelo://app?vid=9c9c13db-001e-4ed2-96e9-ffaeedd15977","ios":"levelo://app?vid=9c9c13db-001e-4ed2-96e9-ffaeedd15977"},"vehicle_type_id":"4","last_reported":1774124059,"current_range_meters":6000,"station_id":"ce4bgs12rcd13ifvqcag","pricing_plan_id":"cebpf4jnsgd1na2vs0mg"},{"bike_id":"bfa999de-7a32-454a-b31e-f99ace51a3fc","system_id":"levelo_inurba_marseille","lat":43.28467,"lon":5.484,"is_reserved":false,"is_disabled":false,"rental_uris":{"android":"levelo://app?vid=bfa999de-7a32-454a-b31e-f99ace51a3fc","ios":"levelo://app?vid=bfa999de-7a32-454a-b31e-f99ace51a3fc"},"vehicle_type_id":"4","last_reported":1774124059,"current_range_meters":6000,"station_id":"","pricing_plan_id":"cebpf4jnsgd1na2vs0mg"},{"bike_id":"a068e9de-cdeb-4936-8a9b-bd068dca309c","system_id":"levelo_inurba_marseille","lat":43.23885,"lon":5.37456,"is_reserved":false,"is_disabled":false,"rental_uris":{"android":"levelo://app?vid=a068e9de-cdeb-4936-8a9b-bd068dca309c","ios":"levelo://app?vid=a068e9de-cdeb-4936-8a9b-bd068dca309c"},"vehicle_type_id":"4","last_reported":1774124059,"current_range_meters":6000,"station_id":"st_d6sm7csbq4hs73f8fpjg","pricing_plan_id":"cebpf4jnsgd1na2vs0mg"},{"bike_id":"2b9ba6b8-956b-4903-8f55-646a026e2743","system_id":"levelo_inurba_marseille","lat":43.25115,"lon":5.40317,"is_reserved":false,"is_disabled":false,"rental_uris":{"android":"levelo://app?vid=2b9ba6b8-956b-4903-8f55-646a026e2743","ios":"levelo://app?vid=2b9ba6b8-956b-4903-8f55-646a026e2743"},"vehicle_type_id":"4","last_reported":1774124059,"current_range_meters":6000,"station_id":"ce4bhlh2rcd13ifvqgig","pricing_plan_id":"cebpf4jnsgd1na2vs0mg"},{"bike_id":"a5ca29e3-e606-471d-9d45-c2a31ad50193","system_id":"levelo_inurba_marseille","lat":43.31347,"lon":5.36694,"is_reserved":false,"is_disabled":false,"rental_uris":{"android":"levelo://app?vid=a5ca29e3-e606-471d-9d45-c2a31ad50193","ios":"levelo://app?vid=a5ca29e3-e606-471d-9d45-c2a31ad50193"},"vehicle_type_id":"4","last_reported":1774124059,"current_range_meters":6000,"station_id":"ce4bgr92rcd13ifvqc6g","pricing_plan_id":"cebpf4jnsgd1na2vs0mg"},{"bike_id":"e25da1e2-3ead-4615-95eb-2fb9d3cdfaa6","system_id":"levelo_inurba_marseille","lat":43.29259,"lon":5.38436,"is_reserved":false,"is_disabled":false,"rental_uris":{"android":"levelo://app?vid=e25da1e2-3ead-4615-95eb-2fb9d3cdfaa6","ios":"levelo://app?vid=e25da1e2-3ead-4615-95eb-2fb9d3cdfaa6"},"vehicle_type_id":"4","last_reported":1774124059,"current_range_meters":6000,"station_id":"ce4bh692rcd13ifvqea0","pricing_plan_id":"cebpf4jnsgd1na2vs0mg"},{"bike_id":"3727d6e3-4577-49ea-959e-93a5e09450a3","system_id":"levelo_inurba_marseille","lat":43.31451,"lon":5.4006,"is_reserved":false,"is_disabled":false,"rental_uris":{"android":"levelo://app?vid=3727d6e3-4577-49ea-959e-93a5e09450a3","ios":"levelo://app?vid=3727d6e3-4577-49ea-959e-93a5e09450a3"},"vehicle_type_id":"4","last_reported":1774124059,"current_range_meters":6000,"station_id":"","pricing_plan_id":"cebpf4jnsgd1na2vs0mg"},{"bike_id":"49cf40bc-a14c-407c-872b-a132e5a606d5","system_id":"levelo_inurba_marseille","lat":43.29879,"lon":5.39743,"is_reserved":false,"is_disabled":false,"rental_uris":{"android":"levelo://app?vid=49cf40bc-a14c-407c-872b-a132e5a606d5","ios":"levelo://app?vid=49cf40bc-a14c-407c-872b-a132e5a606d5"},"vehicle_type_id":"4","last_reported":1774124059,"current_range_meters":6000,"station_id":"ce4bh0h2rcd13ifvqd50","pricing_plan_id":"cebpf4jnsgd1na2vs0mg"},{"bike_id":"c172b24e-77ac-4b0d-b2cd-7c4d1785f5a1","system_id":"levelo_inurba_marseille","lat":43.292605,"lon":5.409049,"is_reserved":false,"is_disabled":false,"rental_uris":{"android":"levelo://app?vid=c172b24e-77ac-4b0d-b2cd-7c4d1785f5a1","ios":"levelo://app?vid=c172b24e-77ac-4b0d-b2cd-7c4d1785f5a1"},"vehicle_type_id":"4","last_reported":1774124059,"current_range_meters":6000,"station_id":"ce4bh192rcd13ifvqdc0","pricing_plan_id":"cebpf4jnsgd1na2vs0mg"},{"bike_id":"6e8d6b6c-3744-4cb8-9112-c82ef7735b53","system_id":"levelo_inurba_marseille","lat":43.29788,"lon":5.37089,"is_reserved":false,"is_disabled":false,"rental_uris":{"android":"levelo://app?vid=6e8d6b6c-3744-4cb8-9112-c82ef7735b53","ios":"levelo://app?vid=6e8d6b6c-3744-4cb8-9112-c82ef7735b53"},"vehicle_type_id":"4","last_reported":1774124059,"current_range_meters":6000,"station_id":"ce4bgop2rcd13ifvqc1g","pricing_plan_id":"cebpf4jnsgd1na2vs0mg"},{"bike_id":"a3ccae77-41ea-4487-aea9-5f7ef9ae4ffe","system_id":"levelo_inurba_marseille","lat":43.28864,"lon":5.39309,"is_reserved":false,"is_disabled":false,"rental_uris":{"android":"levelo://app?vid=a3ccae77-41ea-4487-aea9-5f7ef9ae4ffe","ios":"levelo://app?vid=a3ccae77-41ea-4487-aea9-5f7ef9ae4ffe"},"vehicle_type_id":"4","last_reported":1774124059,"current_range_meters":6000,"station_id":"ce4bh2p2rcd13ifvqdi0","pricing_plan_id":"cebpf4jnsgd1na2vs0mg"},{"bike_id":"4b11e079-bb00-4636-9cda-72c733e64f87","system_id":"levelo_inurba_marseille","lat":43.30904,"lon":5.36838,"is_reserved":false,"is_disabled":false,"rental_uris":{"android":"levelo://app?vid=4b11e079-bb00-4636-9cda-72c733e64f87","ios":"levelo://app?vid=4b11e079-bb00-4636-9cda-72c733e64f87"},"vehicle_type_id":"4","last_reported":1774124059,"current_range_meters":6000,"station_id":"ce4bgn92rcd13ifvqbvg","pricing_plan_id":"cebpf4jnsgd1na2vs0mg"},{"bike_id":"079921cc-5f2b-408c-ad49-3463c064b465","system_id":"levelo_inurba_marseille","lat":43.29505,"lon":5.3853,"is_reserved":false,"is_disabled":false,"rental_uris":{"android":"levelo://app?vid=079921cc-5f2b-408c-ad49-3463c064b465","ios":"levelo://app?vid=079921cc-5f2b-408c-ad49-3463c064b465"},"vehicle_type_id":"4","last_reported":1774124059,"current_range_meters":6400,"station_id":"ce4bgih2rcd13ifvqba0","pricing_plan_id":"cebpf4jnsgd1na2vs0mg"},{"bike_id":"f055e20c-aaef-4e97-aa87-08af5343b6c5","system_id":"levelo_inurba_marseille","lat":43.2964,"lon":5.37707,"is_reserved":false,"is_disabled":false,"rental_uris":{"android":"levelo://app?vid=f055e20c-aaef-4e97-aa87-08af5343b6c5","ios":"levelo://app?vid=f055e20c-aaef-4e97-aa87-08af5343b6c5"},"vehicle_type_id":"4","last_reported":1774124059,"current_range_meters":6400,"station_id":"ce4bgi92rcd13ifvqb90","pricing_plan_id":"cebpf4jnsgd1na2vs0mg"},{"bike_id":"a7d9ebe1-76ba-451f-ad8c-6d7d1f9b546b","system_id":"levelo_inurba_marseille","lat":43.27413,"lon":5.39413,"is_reserved":false,"is_disabled":false,"rental_uris":{"android":"levelo://app?vid=a7d9ebe1-76ba-451f-ad8c-6d7d1f9b546b","ios":"levelo://app?vid=a7d9ebe1-76ba-451f-ad8c-6d7d1f9b546b"},"vehicle_type_id":"4","last_reported":1774124059,"current_range_meters":6400,"station_id":"ce4bhdp2rcd13ifvqf20","pricing_plan_id":"cebpf4jnsgd1na2vs0mg"},{"bike_id":"fa41a20a-837c-4c4e-a81e-69cbc1279634","system_id":"levelo_inurba_marseille","lat":43.23967,"lon":5.36632,"is_reserved":false,"is_disabled":false,"rental_uris":{"android":"levelo://app?vid=fa41a20a-837c-4c4e-a81e-69cbc1279634","ios":"levelo://app?vid=fa41a20a-837c-4c4e-a81e-69cbc1279634"},"vehicle_type_id":"4","last_reported":1774124059,"current_range_meters":6400,"station_id":"ce4bhi12rcd13ifvqfp0","pricing_plan_id":"cebpf4jnsgd1na2vs0mg"},{"bike_id":"afab17fe-5945-4eab-9129-fe150d6e725c","system_id":"levelo_inurba_marseille","lat":43.31045,"lon":5.37168,"is_reserved":false,"is_disabled":false,"rental_uris":{"android":"levelo://app?vid=afab17fe-5945-4eab-9129-fe150d6e725c","ios":"levelo://app?vid=afab17fe-5945-4eab-9129-fe150d6e725c"},"vehicle_type_id":"4","last_reported":1774124059,"current_range_meters":6400,"station_id":"st_d4kl2rp97mjs73e7tdfg","pricing_plan_id":"cebpf4jnsgd1na2vs0mg"},{"bike_id":"7640b754-f8b3-435f-9f6a-0dd25de96759","system_id":"levelo_inurba_marseille","lat":43.254938,"lon":5.376478,"is_reserved":false,"is_disabled":false,"rental_uris":{"android":"levelo://app?vid=7640b754-f8b3-435f-9f6a-0dd25de96759","ios":"levelo://app?vid=7640b754-f8b3-435f-9f6a-0dd25de96759"},"vehicle_type_id":"4","last_reported":1774124059,"current_range_meters":6400,"station_id":"ce4bhh12rcd13ifvqff0","pricing_plan_id":"cebpf4jnsgd1na2vs0mg"},{"bike_id":"a52ba6dc-1b15-4a85-8d00-b41ad0623a75","system_id":"levelo_inurba_marseille","lat":43.32342,"lon":5.36738,"is_reserved":false,"is_disabled":false,"rental_uris":{"android":"levelo://app?vid=a52ba6dc-1b15-4a85-8d00-b41ad0623a75","ios":"levelo://app?vid=a52ba6dc-1b15-4a85-8d00-b41ad0623a75"},"vehicle_type_id":"4","last_reported":1774124059,"current_range_meters":6400,"station_id":"ce4bhsh2rcd13ifvqi2g","pricing_plan_id":"cebpf4jnsgd1na2vs0mg"},{"bike_id":"b28d1f62-7618-4e09-b5c1-ea1e7a23a333","system_id":"levelo_inurba_marseille","lat":43.28096,"lon":5.37849,"is_reserved":false,"is_disabled":false,"rental_uris":{"android":"levelo://app?vid=b28d1f62-7618-4e09-b5c1-ea1e7a23a333","ios":"levelo://app?vid=b28d1f62-7618-4e09-b5c1-ea1e7a23a333"},"vehicle_type_id":"4","last_reported":1774124059,"current_range_meters":6400,"station_id":"ce4bha12rcd13ifvqee0","pricing_plan_id":"cebpf4jnsgd1na2vs0mg"},{"bike_id":"42a85ef7-0b2c-4064-853f-350e950ce6ce","system_id":"levelo_inurba_marseille","lat":43.2842,"lon":5.39211,"is_reserved":false,"is_disabled":false,"rental_uris":{"android":"levelo://app?vid=42a85ef7-0b2c-4064-853f-350e950ce6ce","ios":"levelo://app?vid=42a85ef7-0b2c-4064-853f-350e950ce6ce"},"vehicle_type_id":"4","last_reported":1774124059,"current_range_meters":6400,"station_id":"ce4bhoh2rcd13ifvqh5g","pricing_plan_id":"cebpf4jnsgd1na2vs0mg"},{"bike_id":"dae5474f-35e9-4b76-ba3c-a1a5e8b551d4","system_id":"levelo_inurba_marseille","lat":43.29515,"lon":5.39406,"is_reserved":false,"is_disabled":false,"rental_uris":{"android":"levelo://app?vid=dae5474f-35e9-4b76-ba3c-a1a5e8b551d4","ios":"levelo://app?vid=dae5474f-35e9-4b76-ba3c-a1a5e8b551d4"},"vehicle_type_id":"4","last_reported":1774124059,"current_range_meters":6400,"station_id":"ce4bh292rcd13ifvqdf0","pricing_plan_id":"cebpf4jnsgd1na2vs0mg"},{"bike_id":"7735375d-1041-4f99-b2b7-719b8a41cb75","system_id":"levelo_inurba_marseille","lat":43.28144,"lon":5.42662,"is_reserved":false,"is_disabled":true,"rental_uris":{"android":"levelo://app?vid=7735375d-1041-4f99-b2b7-719b8a41cb75","ios":"levelo://app?vid=7735375d-1041-4f99-b2b7-719b8a41cb75"},"vehicle_type_id":"4","last_reported":1774124059,"current_range_meters":6400,"station_id":"ce4bhnh2rcd13ifvqgug","pricing_plan_id":"cebpf4jnsgd1na2vs0mg"},{"bike_id":"11a05687-90bb-43c7-8a02-0fba68f2702c","system_id":"levelo_inurba_marseille","lat":43.31697,"lon":5.40447,"is_reserved":false,"is_disabled":false,"rental_uris":{"android":"levelo://app?vid=11a05687-90bb-43c7-8a02-0fba68f2702c","ios":"levelo://app?vid=11a05687-90bb-43c7-8a02-0fba68f2702c"},"vehicle_type_id":"4","last_reported":1774124059,"current_range_meters":6400,"station_id":"ce4bh012rcd13ifvqd00","pricing_plan_id":"cebpf4jnsgd1na2vs0mg"},{"bike_id":"371d8961-f404-4afc-8cad-df279ba41c80","system_id":"levelo_inurba_marseille","lat":43.27909,"lon":5.3802,"is_reserved":false,"is_disabled":false,"rental_uris":{"android":"levelo://app?vid=371d8961-f404-4afc-8cad-df279ba41c80","ios":"levelo://app?vid=371d8961-f404-4afc-8cad-df279ba41c80"},"vehicle_type_id":"4","last_reported":1774124059,"current_range_meters":6400,"station_id":"ce4bhf92rcd13ifvqf50","pricing_plan_id":"cebpf4jnsgd1na2vs0mg"},{"bike_id":"625a469c-3b4f-4147-a737-be70d9aa7be7","system_id":"levelo_inurba_marseille","lat":43.29279,"lon":5.38426,"is_reserved":false,"is_disabled":false,"rental_uris":{"android":"levelo://app?vid=625a469c-3b4f-4147-a737-be70d9aa7be7","ios":"levelo://app?vid=625a469c-3b4f-4147-a737-be70d9aa7be7"},"vehicle_type_id":"4","last_reported":1774124059,"current_range_meters":6400,"station_id":"ce4bh692rcd13ifvqea0","pricing_plan_id":"cebpf4jnsgd1na2vs0mg"},{"bike_id":"d081ea94-b8bf-4fe0-904b-f5698433a2f5","system_id":"levelo_inurba_marseille","lat":43.29607,"lon":5.38096,"is_reserved":false,"is_disabled":false,"rental_uris":{"android":"levelo://app?vid=d081ea94-b8bf-4fe0-904b-f5698433a2f5","ios":"levelo://app?vid=d081ea94-b8bf-4fe0-904b-f5698433a2f5"},"vehicle_type_id":"4","last_reported":1774124059,"current_range_meters":6400,"station_id":"ce4bgl12rcd13ifvqbo0","pricing_plan_id":"cebpf4jnsgd1na2vs0mg"},{"bike_id":"dac9aef8-a51d-4234-b7c9-efd3c254a7ee","system_id":"levelo_inurba_marseille","lat":43.29777,"lon":5.39336,"is_reserved":false,"is_disabled":false,"rental_uris":{"android":"levelo://app?vid=dac9aef8-a51d-4234-b7c9-efd3c254a7ee","ios":"levelo://app?vid=dac9aef8-a51d-4234-b7c9-efd3c254a7ee"},"vehicle_type_id":"4","last_reported":1774124059,"current_range_meters":6400,"station_id":"chh1huq6cuj3fo74tm60","pricing_plan_id":"cebpf4jnsgd1na2vs0mg"},{"bike_id":"e973bfc5-7fdc-4a81-941c-942d4f1af5e0","system_id":"levelo_inurba_marseille","lat":43.28433,"lon":5.39219,"is_reserved":false,"is_disabled":false,"rental_uris":{"android":"levelo://app?vid=e973bfc5-7fdc-4a81-941c-942d4f1af5e0","ios":"levelo://app?vid=e973bfc5-7fdc-4a81-941c-942d4f1af5e0"},"vehicle_type_id":"4","last_reported":1774124059,"current_range_meters":6400,"station_id":"ce4bhoh2rcd13ifvqh5g","pricing_plan_id":"cebpf4jnsgd1na2vs0mg"},{"bike_id":"947a972c-ce6d-423a-bc04-4563321e80a5","system_id":"levelo_inurba_marseille","lat":43.29533,"lon":5.3854,"is_reserved":false,"is_disabled":false,"rental_uris":{"android":"levelo://app?vid=947a972c-ce6d-423a-bc04-4563321e80a5","ios":"levelo://app?vid=947a972c-ce6d-423a-bc04-4563321e80a5"},"vehicle_type_id":"4","last_reported":1774124059,"current_range_meters":6400,"station_id":"ce4bgih2rcd13ifvqba0","pricing_plan_id":"cebpf4jnsgd1na2vs0mg"},{"bike_id":"9562cb1b-3eaf-4a03-a5e3-1337d62db9d4","system_id":"levelo_inurba_marseille","lat":43.28976,"lon":5.36377,"is_reserved":false,"is_disabled":false,"rental_uris":{"android":"levelo://app?vid=9562cb1b-3eaf-4a03-a5e3-1337d62db9d4","ios":"levelo://app?vid=9562cb1b-3eaf-4a03-a5e3-1337d62db9d4"},"vehicle_type_id":"4","last_reported":1774124059,"current_range_meters":6800,"station_id":"ce4bhc92rcd13ifvqetg","pricing_plan_id":"cebpf4jnsgd1na2vs0mg"},{"bike_id":"0112bef2-2ecc-46ce-961c-e922940a9456","system_id":"levelo_inurba_marseille","lat":43.29205,"lon":5.39301,"is_reserved":false,"is_disabled":false,"rental_uris":{"android":"levelo://app?vid=0112bef2-2ecc-46ce-961c-e922940a9456","ios":"levelo://app?vid=0112bef2-2ecc-46ce-961c-e922940a9456"},"vehicle_type_id":"4","last_reported":1774124059,"current_range_meters":6800,"station_id":"ce4bh192rcd13ifvqdd0","pricing_plan_id":"cebpf4jnsgd1na2vs0mg"},{"bike_id":"ac656c46-4691-458f-95ae-06026bff305e","system_id":"levelo_inurba_marseille","lat":43.28158,"lon":5.42643,"is_reserved":false,"is_disabled":false,"rental_uris":{"android":"levelo://app?vid=ac656c46-4691-458f-95ae-06026bff305e","ios":"levelo://app?vid=ac656c46-4691-458f-95ae-06026bff305e"},"vehicle_type_id":"4","last_reported":1774124059,"current_range_meters":6800,"station_id":"ce4bhnh2rcd13ifvqgug","pricing_plan_id":"cebpf4jnsgd1na2vs0mg"},{"bike_id":"d01f55c5-7e4e-4e8d-8ef0-e660ea4c6972","system_id":"levelo_inurba_marseille","lat":43.29095,"lon":5.38143,"is_reserved":false,"is_disabled":false,"rental_uris":{"android":"levelo://app?vid=d01f55c5-7e4e-4e8d-8ef0-e660ea4c6972","ios":"levelo://app?vid=d01f55c5-7e4e-4e8d-8ef0-e660ea4c6972"},"vehicle_type_id":"4","last_reported":1774124059,"current_range_meters":6800,"station_id":"ce4bh512rcd13ifvqe2g","pricing_plan_id":"cebpf4jnsgd1na2vs0mg"},{"bike_id":"106f2ff9-9673-4729-aed2-4d5cb3267578","system_id":"levelo_inurba_marseille","lat":43.29294,"lon":5.37461,"is_reserved":false,"is_disabled":false,"rental_uris":{"android":"levelo://app?vid=106f2ff9-9673-4729-aed2-4d5cb3267578","ios":"levelo://app?vid=106f2ff9-9673-4729-aed2-4d5cb3267578"},"vehicle_type_id":"4","last_reported":1774124059,"current_range_meters":6800,"station_id":"ce4bgi12rcd13ifvqb70","pricing_plan_id":"cebpf4jnsgd1na2vs0mg"},{"bike_id":"42ab0379-da99-4e4d-86ad-a3df2009332a","system_id":"levelo_inurba_marseille","lat":43.29577,"lon":5.38102,"is_reserved":false,"is_disabled":false,"rental_uris":{"android":"levelo://app?vid=42ab0379-da99-4e4d-86ad-a3df2009332a","ios":"levelo://app?vid=42ab0379-da99-4e4d-86ad-a3df2009332a"},"vehicle_type_id":"4","last_reported":1774124059,"current_range_meters":6800,"station_id":"ce4bgl12rcd13ifvqbo0","pricing_plan_id":"cebpf4jnsgd1na2vs0mg"},{"bike_id":"922b18cd-37dd-4d90-8953-8a50f6296f4b","system_id":"levelo_inurba_marseille","lat":43.24456,"lon":5.42544,"is_reserved":false,"is_disabled":false,"rental_uris":{"android":"levelo://app?vid=922b18cd-37dd-4d90-8953-8a50f6296f4b","ios":"levelo://app?vid=922b18cd-37dd-4d90-8953-8a50f6296f4b"},"vehicle_type_id":"4","last_reported":1774124059,"current_range_meters":6800,"station_id":"","pricing_plan_id":"cebpf4jnsgd1na2vs0mg"},{"bike_id":"73ef2abb-0bea-4370-b03e-95bd3778cfa0","system_id":"levelo_inurba_marseille","lat":43.25573,"lon":5.3823,"is_reserved":false,"is_disabled":false,"rental_uris":{"android":"levelo://app?vid=73ef2abb-0bea-4370-b03e-95bd3778cfa0","ios":"levelo://app?vid=73ef2abb-0bea-4370-b03e-95bd3778cfa0"},"vehicle_type_id":"4","last_reported":1774124059,"current_range_meters":6800,"station_id":"ce4bhih2rcd13ifvqfs0","pricing_plan_id":"cebpf4jnsgd1na2vs0mg"},{"bike_id":"3000d13e-73d9-4c1c-a76c-401941d3a425","system_id":"levelo_inurba_marseille","lat":43.30302,"lon":5.36885,"is_reserved":false,"is_disabled":false,"rental_uris":{"android":"levelo://app?vid=3000d13e-73d9-4c1c-a76c-401941d3a425","ios":"levelo://app?vid=3000d13e-73d9-4c1c-a76c-401941d3a425"},"vehicle_type_id":"4","last_reported":1774124059,"current_range_meters":6800,"station_id":"ce4bgqh2rcd13ifvqc5g","pricing_plan_id":"cebpf4jnsgd1na2vs0mg"},{"bike_id":"f1b3310c-f30c-441e-b5fb-d9f98b6504b2","system_id":"levelo_inurba_marseille","lat":43.29513,"lon":5.39041,"is_reserved":false,"is_disabled":false,"rental_uris":{"android":"levelo://app?vid=f1b3310c-f30c-441e-b5fb-d9f98b6504b2","ios":"levelo://app?vid=f1b3310c-f30c-441e-b5fb-d9f98b6504b2"},"vehicle_type_id":"4","last_reported":1774124059,"current_range_meters":6800,"station_id":"ce4bh3p2rcd13ifvqdp0","pricing_plan_id":"cebpf4jnsgd1na2vs0mg"},{"bike_id":"8e70251c-8f02-4240-8304-f6a3026eaebe","system_id":"levelo_inurba_marseille","lat":43.30929,"lon":5.36847,"is_reserved":false,"is_disabled":false,"rental_uris":{"android":"levelo://app?vid=8e70251c-8f02-4240-8304-f6a3026eaebe","ios":"levelo://app?vid=8e70251c-8f02-4240-8304-f6a3026eaebe"},"vehicle_type_id":"4","last_reported":1774124059,"current_range_meters":6800,"station_id":"ce4bgn92rcd13ifvqbvg","pricing_plan_id":"cebpf4jnsgd1na2vs0mg"},{"bike_id":"37752f22-4e24-4242-a38c-e44293abad6b","system_id":"levelo_inurba_marseille","lat":43.2797,"lon":5.38689,"is_reserved":false,"is_disabled":true,"rental_uris":{"android":"levelo://app?vid=37752f22-4e24-4242-a38c-e44293abad6b","ios":"levelo://app?vid=37752f22-4e24-4242-a38c-e44293abad6b"},"vehicle_type_id":"4","last_reported":1774124059,"current_range_meters":6800,"station_id":"ce4bhg12rcd13ifvqf80","pricing_plan_id":"cebpf4jnsgd1na2vs0mg"},{"bike_id":"37fd8b91-bebb-483f-9ede-850904204da2","system_id":"levelo_inurba_marseille","lat":43.33428,"lon":5.35681,"is_reserved":false,"is_disabled":false,"rental_uris":{"android":"levelo://app?vid=37fd8b91-bebb-483f-9ede-850904204da2","ios":"levelo://app?vid=37fd8b91-bebb-483f-9ede-850904204da2"},"vehicle_type_id":"4","last_reported":1774124059,"current_range_meters":6800,"station_id":"","pricing_plan_id":"cebpf4jnsgd1na2vs0mg"},{"bike_id":"7ee32ac5-72d3-4f5e-9855-98ad57db7d28","system_id":"levelo_inurba_marseille","lat":43.29605,"lon":5.38096,"is_reserved":false,"is_disabled":false,"rental_uris":{"android":"levelo://app?vid=7ee32ac5-72d3-4f5e-9855-98ad57db7d28","ios":"levelo://app?vid=7ee32ac5-72d3-4f5e-9855-98ad57db7d28"},"vehicle_type_id":"4","last_reported":1774124059,"current_range_meters":6800,"station_id":"ce4bgl12rcd13ifvqbo0","pricing_plan_id":"cebpf4jnsgd1na2vs0mg"},{"bike_id":"d9a2340f-4dc0-456b-89f0-454af4d93a65","system_id":"levelo_inurba_marseille","lat":43.28489,"lon":5.35128,"is_reserved":false,"is_disabled":false,"rental_uris":{"android":"levelo://app?vid=d9a2340f-4dc0-456b-89f0-454af4d93a65","ios":"levelo://app?vid=d9a2340f-4dc0-456b-89f0-454af4d93a65"},"vehicle_type_id":"4","last_reported":1774124059,"current_range_meters":6800,"station_id":"","pricing_plan_id":"cebpf4jnsgd1na2vs0mg"},{"bike_id":"4cfbfa6f-5626-4810-9e83-9f7d2f4044c0","system_id":"levelo_inurba_marseille","lat":43.29532,"lon":5.38534,"is_reserved":false,"is_disabled":false,"rental_uris":{"android":"levelo://app?vid=4cfbfa6f-5626-4810-9e83-9f7d2f4044c0","ios":"levelo://app?vid=4cfbfa6f-5626-4810-9e83-9f7d2f4044c0"},"vehicle_type_id":"4","last_reported":1774124059,"current_range_meters":6800,"station_id":"ce4bgih2rcd13ifvqba0","pricing_plan_id":"cebpf4jnsgd1na2vs0mg"},{"bike_id":"6b3d5383-b763-4159-a3d8-134339cfe0b0","system_id":"levelo_inurba_marseille","lat":43.3088,"lon":5.39656,"is_reserved":false,"is_disabled":false,"rental_uris":{"android":"levelo://app?vid=6b3d5383-b763-4159-a3d8-134339cfe0b0","ios":"levelo://app?vid=6b3d5383-b763-4159-a3d8-134339cfe0b0"},"vehicle_type_id":"4","last_reported":1774124059,"current_range_meters":6800,"station_id":"ce4bh012rcd13ifvqcv0","pricing_plan_id":"cebpf4jnsgd1na2vs0mg"},{"bike_id":"b86b7ac5-dc0a-4ee4-867c-dcff8404afd5","system_id":"levelo_inurba_marseille","lat":43.29893,"lon":5.39737,"is_reserved":false,"is_disabled":false,"rental_uris":{"android":"levelo://app?vid=b86b7ac5-dc0a-4ee4-867c-dcff8404afd5","ios":"levelo://app?vid=b86b7ac5-dc0a-4ee4-867c-dcff8404afd5"},"vehicle_type_id":"4","last_reported":1774124059,"current_range_meters":6800,"station_id":"ce4bh0h2rcd13ifvqd50","pricing_plan_id":"cebpf4jnsgd1na2vs0mg"},{"bike_id":"1f7bd905-6cfa-4177-9702-133844b289cf","system_id":"levelo_inurba_marseille","lat":43.29298,"lon":5.37449,"is_reserved":false,"is_disabled":false,"rental_uris":{"android":"levelo://app?vid=1f7bd905-6cfa-4177-9702-133844b289cf","ios":"levelo://app?vid=1f7bd905-6cfa-4177-9702-133844b289cf"},"vehicle_type_id":"4","last_reported":1774124059,"current_range_meters":6800,"station_id":"ce4bgi12rcd13ifvqb70","pricing_plan_id":"cebpf4jnsgd1na2vs0mg"},{"bike_id":"8b4f866a-3768-4a07-8bfe-a6313214166a","system_id":"levelo_inurba_marseille","lat":43.27835,"lon":5.3922,"is_reserved":false,"is_disabled":false,"rental_uris":{"android":"levelo://app?vid=8b4f866a-3768-4a07-8bfe-a6313214166a","ios":"levelo://app?vid=8b4f866a-3768-4a07-8bfe-a6313214166a"},"vehicle_type_id":"4","last_reported":1774124059,"current_range_meters":6800,"station_id":"ce4bhjp2rcd13ifvqga0","pricing_plan_id":"cebpf4jnsgd1na2vs0mg"},{"bike_id":"f2d07d1c-5edb-4205-be9a-3dd8d0fbf383","system_id":"levelo_inurba_marseille","lat":43.29973,"lon":5.37163,"is_reserved":false,"is_disabled":false,"rental_uris":{"android":"levelo://app?vid=f2d07d1c-5edb-4205-be9a-3dd8d0fbf383","ios":"levelo://app?vid=f2d07d1c-5edb-4205-be9a-3dd8d0fbf383"},"vehicle_type_id":"4","last_reported":1774124059,"current_range_meters":6800,"station_id":"ce4bgr92rcd13ifvqc7g","pricing_plan_id":"cebpf4jnsgd1na2vs0mg"},{"bike_id":"2269e68d-f48b-428d-993e-bfd909030469","system_id":"levelo_inurba_marseille","lat":43.28455,"lon":5.38848,"is_reserved":false,"is_disabled":false,"rental_uris":{"android":"levelo://app?vid=2269e68d-f48b-428d-993e-bfd909030469","ios":"levelo://app?vid=2269e68d-f48b-428d-993e-bfd909030469"},"vehicle_type_id":"4","last_reported":1774124059,"current_range_meters":6800,"station_id":"","pricing_plan_id":"cebpf4jnsgd1na2vs0mg"},{"bike_id":"8ca837f7-00fe-4951-86fe-aeefc2d4206f","system_id":"levelo_inurba_marseille","lat":43.30131,"lon":5.38786,"is_reserved":false,"is_disabled":false,"rental_uris":{"android":"levelo://app?vid=8ca837f7-00fe-4951-86fe-aeefc2d4206f","ios":"levelo://app?vid=8ca837f7-00fe-4951-86fe-aeefc2d4206f"},"vehicle_type_id":"4","last_reported":1774124059,"current_range_meters":6800,"station_id":"ce4bghh2rcd13ifvqb60","pricing_plan_id":"cebpf4jnsgd1na2vs0mg"},{"bike_id":"b87d7938-28e4-46e7-994e-fdebd5392225","system_id":"levelo_inurba_marseille","lat":43.32115,"lon":5.3678,"is_reserved":false,"is_disabled":false,"rental_uris":{"android":"levelo://app?vid=b87d7938-28e4-46e7-994e-fdebd5392225","ios":"levelo://app?vid=b87d7938-28e4-46e7-994e-fdebd5392225"},"vehicle_type_id":"4","last_reported":1774124059,"current_range_meters":6800,"station_id":"ce4bhrh2rcd13ifvqhug","pricing_plan_id":"cebpf4jnsgd1na2vs0mg"},{"bike_id":"ac0404cb-3309-4487-b5e7-5236be1c898d","system_id":"levelo_inurba_marseille","lat":43.29619,"lon":5.3771,"is_reserved":false,"is_disabled":false,"rental_uris":{"android":"levelo://app?vid=ac0404cb-3309-4487-b5e7-5236be1c898d","ios":"levelo://app?vid=ac0404cb-3309-4487-b5e7-5236be1c898d"},"vehicle_type_id":"4","last_reported":1774124059,"current_range_meters":6800,"station_id":"ce4bgi92rcd13ifvqb90","pricing_plan_id":"cebpf4jnsgd1na2vs0mg"},{"bike_id":"12cc221f-7aae-4e63-a6b8-7dc32d413899","system_id":"levelo_inurba_marseille","lat":43.28957,"lon":5.3784,"is_reserved":false,"is_disabled":false,"rental_uris":{"android":"levelo://app?vid=12cc221f-7aae-4e63-a6b8-7dc32d413899","ios":"levelo://app?vid=12cc221f-7aae-4e63-a6b8-7dc32d413899"},"vehicle_type_id":"4","last_reported":1774124059,"current_range_meters":7200,"station_id":"ce4bh9p2rcd13ifvqed0","pricing_plan_id":"cebpf4jnsgd1na2vs0mg"},{"bike_id":"ee8c0786-704b-4515-a31a-2e24ac80a01b","system_id":"levelo_inurba_marseille","lat":43.33545,"lon":5.37462,"is_reserved":false,"is_disabled":false,"rental_uris":{"android":"levelo://app?vid=ee8c0786-704b-4515-a31a-2e24ac80a01b","ios":"levelo://app?vid=ee8c0786-704b-4515-a31a-2e24ac80a01b"},"vehicle_type_id":"4","last_reported":1774124059,"current_range_meters":7200,"station_id":"st_d46tts09ee8s73dlu43g","pricing_plan_id":"cebpf4jnsgd1na2vs0mg"},{"bike_id":"a0ba604c-adad-4da5-93d2-1954cbc746f5","system_id":"levelo_inurba_marseille","lat":43.31121,"lon":5.37762,"is_reserved":false,"is_disabled":false,"rental_uris":{"android":"levelo://app?vid=a0ba604c-adad-4da5-93d2-1954cbc746f5","ios":"levelo://app?vid=a0ba604c-adad-4da5-93d2-1954cbc746f5"},"vehicle_type_id":"4","last_reported":1774124059,"current_range_meters":7200,"station_id":"ce4bgt92rcd13ifvqcg0","pricing_plan_id":"cebpf4jnsgd1na2vs0mg"},{"bike_id":"0b961d6a-087e-4c11-b7bc-456906dae05d","system_id":"levelo_inurba_marseille","lat":43.29523,"lon":5.38549,"is_reserved":false,"is_disabled":false,"rental_uris":{"android":"levelo://app?vid=0b961d6a-087e-4c11-b7bc-456906dae05d","ios":"levelo://app?vid=0b961d6a-087e-4c11-b7bc-456906dae05d"},"vehicle_type_id":"4","last_reported":1774124059,"current_range_meters":7200,"station_id":"ce4bgih2rcd13ifvqba0","pricing_plan_id":"cebpf4jnsgd1na2vs0mg"},{"bike_id":"58930592-65f7-4192-ac2f-be7392b8805a","system_id":"levelo_inurba_marseille","lat":43.26223,"lon":5.40465,"is_reserved":false,"is_disabled":false,"rental_uris":{"android":"levelo://app?vid=58930592-65f7-4192-ac2f-be7392b8805a","ios":"levelo://app?vid=58930592-65f7-4192-ac2f-be7392b8805a"},"vehicle_type_id":"4","last_reported":1774124059,"current_range_meters":7200,"station_id":"ce4bhmh2rcd13ifvqgmg","pricing_plan_id":"cebpf4jnsgd1na2vs0mg"},{"bike_id":"6fbf9e1a-5ad3-420f-89dd-fdb96fe39086","system_id":"levelo_inurba_marseille","lat":43.31218,"lon":5.36917,"is_reserved":false,"is_disabled":false,"rental_uris":{"android":"levelo://app?vid=6fbf9e1a-5ad3-420f-89dd-fdb96fe39086","ios":"levelo://app?vid=6fbf9e1a-5ad3-420f-89dd-fdb96fe39086"},"vehicle_type_id":"4","last_reported":1774124059,"current_range_meters":7200,"station_id":"ce4bgl92rcd13ifvqbq0","pricing_plan_id":"cebpf4jnsgd1na2vs0mg"},{"bike_id":"077ba1f4-9955-44ea-8995-8df9c4ed43ac","system_id":"levelo_inurba_marseille","lat":43.31037,"lon":5.37167,"is_reserved":false,"is_disabled":false,"rental_uris":{"android":"levelo://app?vid=077ba1f4-9955-44ea-8995-8df9c4ed43ac","ios":"levelo://app?vid=077ba1f4-9955-44ea-8995-8df9c4ed43ac"},"vehicle_type_id":"4","last_reported":1774124059,"current_range_meters":7200,"station_id":"st_d4kl2rp97mjs73e7tdfg","pricing_plan_id":"cebpf4jnsgd1na2vs0mg"},{"bike_id":"df5ad533-8354-43dd-b4db-d4118becde63","system_id":"levelo_inurba_marseille","lat":43.285229,"lon":5.48323,"is_reserved":false,"is_disabled":false,"rental_uris":{"android":"levelo://app?vid=df5ad533-8354-43dd-b4db-d4118becde63","ios":"levelo://app?vid=df5ad533-8354-43dd-b4db-d4118becde63"},"vehicle_type_id":"4","last_reported":1774124059,"current_range_meters":7200,"station_id":"","pricing_plan_id":"cebpf4jnsgd1na2vs0mg"},{"bike_id":"c90c27ae-9c3d-4383-a05f-daf5704af264","system_id":"levelo_inurba_marseille","lat":43.29265,"lon":5.3843,"is_reserved":false,"is_disabled":false,"rental_uris":{"android":"levelo://app?vid=c90c27ae-9c3d-4383-a05f-daf5704af264","ios":"levelo://app?vid=c90c27ae-9c3d-4383-a05f-daf5704af264"},"vehicle_type_id":"4","last_reported":1774124059,"current_range_meters":7200,"station_id":"ce4bh692rcd13ifvqea0","pricing_plan_id":"cebpf4jnsgd1na2vs0mg"},{"bike_id":"36450020-bd88-4c9a-a04d-1f2ccd4cfaaf","system_id":"levelo_inurba_marseille","lat":43.29532,"lon":5.38534,"is_reserved":false,"is_disabled":false,"rental_uris":{"android":"levelo://app?vid=36450020-bd88-4c9a-a04d-1f2ccd4cfaaf","ios":"levelo://app?vid=36450020-bd88-4c9a-a04d-1f2ccd4cfaaf"},"vehicle_type_id":"4","last_reported":1774124059,"current_range_meters":7200,"station_id":"ce4bgih2rcd13ifvqba0","pricing_plan_id":"cebpf4jnsgd1na2vs0mg"},{"bike_id":"713a39c7-7268-42d9-af49-6cc646f5d96b","system_id":"levelo_inurba_marseille","lat":43.29808,"lon":5.38133,"is_reserved":false,"is_disabled":false,"rental_uris":{"android":"levelo://app?vid=713a39c7-7268-42d9-af49-6cc646f5d96b","ios":"levelo://app?vid=713a39c7-7268-42d9-af49-6cc646f5d96b"},"vehicle_type_id":"4","last_reported":1774124059,"current_range_meters":7200,"station_id":"ce4bgip2rcd13ifvqbb0","pricing_plan_id":"cebpf4jnsgd1na2vs0mg"},{"bike_id":"ef97c70d-e41d-4e36-b46b-24aba54e0d2b","system_id":"levelo_inurba_marseille","lat":43.29517,"lon":5.38534,"is_reserved":false,"is_disabled":false,"rental_uris":{"android":"levelo://app?vid=ef97c70d-e41d-4e36-b46b-24aba54e0d2b","ios":"levelo://app?vid=ef97c70d-e41d-4e36-b46b-24aba54e0d2b"},"vehicle_type_id":"4","last_reported":1774124059,"current_range_meters":7200,"station_id":"ce4bgih2rcd13ifvqba0","pricing_plan_id":"cebpf4jnsgd1na2vs0mg"},{"bike_id":"5206b1c0-ea28-4288-9fb7-15de647e09fa","system_id":"levelo_inurba_marseille","lat":43.33539,"lon":5.37487,"is_reserved":false,"is_disabled":false,"rental_uris":{"android":"levelo://app?vid=5206b1c0-ea28-4288-9fb7-15de647e09fa","ios":"levelo://app?vid=5206b1c0-ea28-4288-9fb7-15de647e09fa"},"vehicle_type_id":"4","last_reported":1774124059,"current_range_meters":7200,"station_id":"st_d46tts09ee8s73dlu43g","pricing_plan_id":"cebpf4jnsgd1na2vs0mg"},{"bike_id":"84dc3d68-1c59-4a3a-a8d1-cca6c5afc7c9","system_id":"levelo_inurba_marseille","lat":43.2803,"lon":5.36951,"is_reserved":false,"is_disabled":false,"rental_uris":{"android":"levelo://app?vid=84dc3d68-1c59-4a3a-a8d1-cca6c5afc7c9","ios":"levelo://app?vid=84dc3d68-1c59-4a3a-a8d1-cca6c5afc7c9"},"vehicle_type_id":"4","last_reported":1774124059,"current_range_meters":7200,"station_id":"ce4bha12rcd13ifvqef0","pricing_plan_id":"cebpf4jnsgd1na2vs0mg"},{"bike_id":"b34b727c-8b77-4550-abf0-5aeaa189f090","system_id":"levelo_inurba_marseille","lat":43.2953,"lon":5.38546,"is_reserved":false,"is_disabled":false,"rental_uris":{"android":"levelo://app?vid=b34b727c-8b77-4550-abf0-5aeaa189f090","ios":"levelo://app?vid=b34b727c-8b77-4550-abf0-5aeaa189f090"},"vehicle_type_id":"4","last_reported":1774124059,"current_range_meters":7200,"station_id":"ce4bgih2rcd13ifvqba0","pricing_plan_id":"cebpf4jnsgd1na2vs0mg"},{"bike_id":"48131e30-6815-4020-901e-6fc2a316b5d4","system_id":"levelo_inurba_marseille","lat":43.30892,"lon":5.39578,"is_reserved":false,"is_disabled":false,"rental_uris":{"android":"levelo://app?vid=48131e30-6815-4020-901e-6fc2a316b5d4","ios":"levelo://app?vid=48131e30-6815-4020-901e-6fc2a316b5d4"},"vehicle_type_id":"4","last_reported":1774124059,"current_range_meters":7200,"station_id":"","pricing_plan_id":"cebpf4jnsgd1na2vs0mg"},{"bike_id":"b4f142c9-5cdf-4772-bf4b-d268adeeefaa","system_id":"levelo_inurba_marseille","lat":43.2906,"lon":5.37144,"is_reserved":false,"is_disabled":false,"rental_uris":{"android":"levelo://app?vid=b4f142c9-5cdf-4772-bf4b-d268adeeefaa","ios":"levelo://app?vid=b4f142c9-5cdf-4772-bf4b-d268adeeefaa"},"vehicle_type_id":"4","last_reported":1774124059,"current_range_meters":7200,"station_id":"ce4bh5p2rcd13ifvqe4g","pricing_plan_id":"cebpf4jnsgd1na2vs0mg"},{"bike_id":"bb64248e-0e5d-4ee1-9d8f-d48a0dd77d66","system_id":"levelo_inurba_marseille","lat":43.21624,"lon":5.34483,"is_reserved":false,"is_disabled":false,"rental_uris":{"android":"levelo://app?vid=bb64248e-0e5d-4ee1-9d8f-d48a0dd77d66","ios":"levelo://app?vid=bb64248e-0e5d-4ee1-9d8f-d48a0dd77d66"},"vehicle_type_id":"4","last_reported":1774124059,"current_range_meters":7200,"station_id":"","pricing_plan_id":"cebpf4jnsgd1na2vs0mg"},{"bike_id":"881552ad-57ca-4484-9a05-f159c58f50d9","system_id":"levelo_inurba_marseille","lat":43.31694,"lon":5.38675,"is_reserved":false,"is_disabled":false,"rental_uris":{"android":"levelo://app?vid=881552ad-57ca-4484-9a05-f159c58f50d9","ios":"levelo://app?vid=881552ad-57ca-4484-9a05-f159c58f50d9"},"vehicle_type_id":"4","last_reported":1774124059,"current_range_meters":7200,"station_id":"","pricing_plan_id":"cebpf4jnsgd1na2vs0mg"},{"bike_id":"703efbe1-feef-417d-a9e3-0fca1a7eab74","system_id":"levelo_inurba_marseille","lat":43.34917,"lon":5.37946,"is_reserved":false,"is_disabled":false,"rental_uris":{"android":"levelo://app?vid=703efbe1-feef-417d-a9e3-0fca1a7eab74","ios":"levelo://app?vid=703efbe1-feef-417d-a9e3-0fca1a7eab74"},"vehicle_type_id":"4","last_reported":1774124059,"current_range_meters":7200,"station_id":"","pricing_plan_id":"cebpf4jnsgd1na2vs0mg"},{"bike_id":"197011a3-ae6e-497e-ae70-4d42b513ea8c","system_id":"levelo_inurba_marseille","lat":43.29103,"lon":5.38136,"is_reserved":false,"is_disabled":false,"rental_uris":{"android":"levelo://app?vid=197011a3-ae6e-497e-ae70-4d42b513ea8c","ios":"levelo://app?vid=197011a3-ae6e-497e-ae70-4d42b513ea8c"},"vehicle_type_id":"4","last_reported":1774124059,"current_range_meters":7200,"station_id":"ce4bh512rcd13ifvqe2g","pricing_plan_id":"cebpf4jnsgd1na2vs0mg"},{"bike_id":"2998ae54-55d7-403e-8b39-2214c408b326","system_id":"levelo_inurba_marseille","lat":43.30542,"lon":5.3654,"is_reserved":false,"is_disabled":false,"rental_uris":{"android":"levelo://app?vid=2998ae54-55d7-403e-8b39-2214c408b326","ios":"levelo://app?vid=2998ae54-55d7-403e-8b39-2214c408b326"},"vehicle_type_id":"4","last_reported":1774124059,"current_range_meters":7200,"station_id":"ce4bgs12rcd13ifvqcag","pricing_plan_id":"cebpf4jnsgd1na2vs0mg"},{"bike_id":"2cd11bbe-ed2d-4401-ac74-aa88c1ac5db6","system_id":"levelo_inurba_marseille","lat":43.29442,"lon":5.39755,"is_reserved":false,"is_disabled":false,"rental_uris":{"android":"levelo://app?vid=2cd11bbe-ed2d-4401-ac74-aa88c1ac5db6","ios":"levelo://app?vid=2cd11bbe-ed2d-4401-ac74-aa88c1ac5db6"},"vehicle_type_id":"4","last_reported":1774124059,"current_range_meters":7200,"station_id":"ce4bh3h2rcd13ifvqdo0","pricing_plan_id":"cebpf4jnsgd1na2vs0mg"},{"bike_id":"99a4c351-f049-4890-82a1-6ee5250a4da7","system_id":"levelo_inurba_marseille","lat":43.29081,"lon":5.38131,"is_reserved":false,"is_disabled":false,"rental_uris":{"android":"levelo://app?vid=99a4c351-f049-4890-82a1-6ee5250a4da7","ios":"levelo://app?vid=99a4c351-f049-4890-82a1-6ee5250a4da7"},"vehicle_type_id":"4","last_reported":1774124059,"current_range_meters":7200,"station_id":"ce4bh512rcd13ifvqe2g","pricing_plan_id":"cebpf4jnsgd1na2vs0mg"},{"bike_id":"e6555f06-80a7-4366-baa8-6d2c61285260","system_id":"levelo_inurba_marseille","lat":43.29987,"lon":5.38485,"is_reserved":false,"is_disabled":false,"rental_uris":{"android":"levelo://app?vid=e6555f06-80a7-4366-baa8-6d2c61285260","ios":"levelo://app?vid=e6555f06-80a7-4366-baa8-6d2c61285260"},"vehicle_type_id":"4","last_reported":1774124059,"current_range_meters":7200,"station_id":"ce4bgj92rcd13ifvqbd0","pricing_plan_id":"cebpf4jnsgd1na2vs0mg"},{"bike_id":"83f26f0c-76a5-412b-b3a4-76d2e6d84a47","system_id":"levelo_inurba_marseille","lat":43.29531,"lon":5.38542,"is_reserved":false,"is_disabled":false,"rental_uris":{"android":"levelo://app?vid=83f26f0c-76a5-412b-b3a4-76d2e6d84a47","ios":"levelo://app?vid=83f26f0c-76a5-412b-b3a4-76d2e6d84a47"},"vehicle_type_id":"4","last_reported":1774124059,"current_range_meters":7200,"station_id":"ce4bgih2rcd13ifvqba0","pricing_plan_id":"cebpf4jnsgd1na2vs0mg"},{"bike_id":"519280b4-627a-43a9-be3b-803b975d5421","system_id":"levelo_inurba_marseille","lat":43.30626,"lon":5.40088,"is_reserved":false,"is_disabled":false,"rental_uris":{"android":"levelo://app?vid=519280b4-627a-43a9-be3b-803b975d5421","ios":"levelo://app?vid=519280b4-627a-43a9-be3b-803b975d5421"},"vehicle_type_id":"4","last_reported":1774124059,"current_range_meters":8000,"station_id":"ce4bh112rcd13ifvqda0","pricing_plan_id":"cebpf4jnsgd1na2vs0mg"},{"bike_id":"69ccb109-f1f1-42e3-88bf-9d8046b92a8d","system_id":"levelo_inurba_marseille","lat":43.3037,"lon":5.42483,"is_reserved":false,"is_disabled":false,"rental_uris":{"android":"levelo://app?vid=69ccb109-f1f1-42e3-88bf-9d8046b92a8d","ios":"levelo://app?vid=69ccb109-f1f1-42e3-88bf-9d8046b92a8d"},"vehicle_type_id":"4","last_reported":1774124059,"current_range_meters":8000,"station_id":"ce4bhoh2rcd13ifvqh6g","pricing_plan_id":"cebpf4jnsgd1na2vs0mg"},{"bike_id":"c7cc5081-8a90-4664-8378-0ac0db8d74fb","system_id":"levelo_inurba_marseille","lat":43.29794,"lon":5.36644,"is_reserved":false,"is_disabled":false,"rental_uris":{"android":"levelo://app?vid=c7cc5081-8a90-4664-8378-0ac0db8d74fb","ios":"levelo://app?vid=c7cc5081-8a90-4664-8378-0ac0db8d74fb"},"vehicle_type_id":"4","last_reported":1774124059,"current_range_meters":8000,"station_id":"","pricing_plan_id":"cebpf4jnsgd1na2vs0mg"},{"bike_id":"36c7ecd4-df87-41c2-8f05-eb2022c90760","system_id":"levelo_inurba_marseille","lat":43.2917,"lon":5.37165,"is_reserved":false,"is_disabled":false,"rental_uris":{"android":"levelo://app?vid=36c7ecd4-df87-41c2-8f05-eb2022c90760","ios":"levelo://app?vid=36c7ecd4-df87-41c2-8f05-eb2022c90760"},"vehicle_type_id":"4","last_reported":1774124059,"current_range_meters":8000,"station_id":"ce4bha92rcd13ifvqeh0","pricing_plan_id":"cebpf4jnsgd1na2vs0mg"},{"bike_id":"d65bd890-bd76-40b1-a464-add252f480e6","system_id":"levelo_inurba_marseille","lat":43.31736,"lon":5.38999,"is_reserved":false,"is_disabled":false,"rental_uris":{"android":"levelo://app?vid=d65bd890-bd76-40b1-a464-add252f480e6","ios":"levelo://app?vid=d65bd890-bd76-40b1-a464-add252f480e6"},"vehicle_type_id":"4","last_reported":1774124059,"current_range_meters":8000,"station_id":"ce4bhqp2rcd13ifvqhng","pricing_plan_id":"cebpf4jnsgd1na2vs0mg"},{"bike_id":"e5d7ffd6-9b87-48db-9495-b36329256fb1","system_id":"levelo_inurba_marseille","lat":43.29267,"lon":5.38427,"is_reserved":false,"is_disabled":false,"rental_uris":{"android":"levelo://app?vid=e5d7ffd6-9b87-48db-9495-b36329256fb1","ios":"levelo://app?vid=e5d7ffd6-9b87-48db-9495-b36329256fb1"},"vehicle_type_id":"4","last_reported":1774124059,"current_range_meters":8000,"station_id":"ce4bh692rcd13ifvqea0","pricing_plan_id":"cebpf4jnsgd1na2vs0mg"},{"bike_id":"68add09d-0253-4359-be0e-77ef96abece3","system_id":"levelo_inurba_marseille","lat":43.29245,"lon":5.38439,"is_reserved":false,"is_disabled":false,"rental_uris":{"android":"levelo://app?vid=68add09d-0253-4359-be0e-77ef96abece3","ios":"levelo://app?vid=68add09d-0253-4359-be0e-77ef96abece3"},"vehicle_type_id":"4","last_reported":1774124059,"current_range_meters":8000,"station_id":"ce4bh692rcd13ifvqea0","pricing_plan_id":"cebpf4jnsgd1na2vs0mg"},{"bike_id":"c2a0a012-5d3a-4e4f-b955-27c407b4c2c8","system_id":"levelo_inurba_marseille","lat":43.29021,"lon":5.37576,"is_reserved":false,"is_disabled":false,"rental_uris":{"android":"levelo://app?vid=c2a0a012-5d3a-4e4f-b955-27c407b4c2c8","ios":"levelo://app?vid=c2a0a012-5d3a-4e4f-b955-27c407b4c2c8"},"vehicle_type_id":"4","last_reported":1774124059,"current_range_meters":8000,"station_id":"ce4bh692rcd13ifvqe90","pricing_plan_id":"cebpf4jnsgd1na2vs0mg"},{"bike_id":"efe4b101-a4c2-4a36-bd51-36393273087f","system_id":"levelo_inurba_marseille","lat":43.28491,"lon":5.4842,"is_reserved":false,"is_disabled":false,"rental_uris":{"android":"levelo://app?vid=efe4b101-a4c2-4a36-bd51-36393273087f","ios":"levelo://app?vid=efe4b101-a4c2-4a36-bd51-36393273087f"},"vehicle_type_id":"4","last_reported":1774124059,"current_range_meters":8000,"station_id":"","pricing_plan_id":"cebpf4jnsgd1na2vs0mg"},{"bike_id":"afaf009b-854b-4a4a-9a19-fdc9f27a88ec","system_id":"levelo_inurba_marseille","lat":43.29002,"lon":5.38618,"is_reserved":false,"is_disabled":true,"rental_uris":{"android":"levelo://app?vid=afaf009b-854b-4a4a-9a19-fdc9f27a88ec","ios":"levelo://app?vid=afaf009b-854b-4a4a-9a19-fdc9f27a88ec"},"vehicle_type_id":"4","last_reported":1774124059,"current_range_meters":8000,"station_id":"ce4bh4p2rcd13ifvqe0g","pricing_plan_id":"cebpf4jnsgd1na2vs0mg"},{"bike_id":"5369d941-756a-4a39-ae59-10b7c47d2be3","system_id":"levelo_inurba_marseille","lat":43.31024,"lon":5.37175,"is_reserved":false,"is_disabled":false,"rental_uris":{"android":"levelo://app?vid=5369d941-756a-4a39-ae59-10b7c47d2be3","ios":"levelo://app?vid=5369d941-756a-4a39-ae59-10b7c47d2be3"},"vehicle_type_id":"4","last_reported":1774124059,"current_range_meters":8000,"station_id":"st_d4kl2rp97mjs73e7tdfg","pricing_plan_id":"cebpf4jnsgd1na2vs0mg"},{"bike_id":"d3165751-186a-400c-8045-546da55910f7","system_id":"levelo_inurba_marseille","lat":43.29541,"lon":5.38534,"is_reserved":false,"is_disabled":false,"rental_uris":{"android":"levelo://app?vid=d3165751-186a-400c-8045-546da55910f7","ios":"levelo://app?vid=d3165751-186a-400c-8045-546da55910f7"},"vehicle_type_id":"4","last_reported":1774124059,"current_range_meters":8000,"station_id":"ce4bgih2rcd13ifvqba0","pricing_plan_id":"cebpf4jnsgd1na2vs0mg"},{"bike_id":"5e01a855-c803-455d-8a42-c9cca2e691d2","system_id":"levelo_inurba_marseille","lat":43.28625,"lon":5.35092,"is_reserved":false,"is_disabled":false,"rental_uris":{"android":"levelo://app?vid=5e01a855-c803-455d-8a42-c9cca2e691d2","ios":"levelo://app?vid=5e01a855-c803-455d-8a42-c9cca2e691d2"},"vehicle_type_id":"4","last_reported":1774124059,"current_range_meters":8000,"station_id":"ce4bhch2rcd13ifvqeug","pricing_plan_id":"cebpf4jnsgd1na2vs0mg"},{"bike_id":"24892758-e1c8-4866-9ace-f6379bc81fdc","system_id":"levelo_inurba_marseille","lat":43.26379,"lon":5.41085,"is_reserved":false,"is_disabled":false,"rental_uris":{"android":"levelo://app?vid=24892758-e1c8-4866-9ace-f6379bc81fdc","ios":"levelo://app?vid=24892758-e1c8-4866-9ace-f6379bc81fdc"},"vehicle_type_id":"4","last_reported":1774124059,"current_range_meters":8000,"station_id":"st_d4e5ca6na9uc73bfl5fg","pricing_plan_id":"cebpf4jnsgd1na2vs0mg"},{"bike_id":"4191f2f6-8301-4e11-ac66-a1152f793cca","system_id":"levelo_inurba_marseille","lat":43.31168,"lon":5.38718,"is_reserved":false,"is_disabled":false,"rental_uris":{"android":"levelo://app?vid=4191f2f6-8301-4e11-ac66-a1152f793cca","ios":"levelo://app?vid=4191f2f6-8301-4e11-ac66-a1152f793cca"},"vehicle_type_id":"4","last_reported":1774124059,"current_range_meters":8000,"station_id":"ce4bgv12rcd13ifvqcp0","pricing_plan_id":"cebpf4jnsgd1na2vs0mg"},{"bike_id":"2f377ac4-8e2d-4aa6-ad58-5efbd7f826f9","system_id":"levelo_inurba_marseille","lat":43.29526,"lon":5.38537,"is_reserved":false,"is_disabled":false,"rental_uris":{"android":"levelo://app?vid=2f377ac4-8e2d-4aa6-ad58-5efbd7f826f9","ios":"levelo://app?vid=2f377ac4-8e2d-4aa6-ad58-5efbd7f826f9"},"vehicle_type_id":"4","last_reported":1774124059,"current_range_meters":8000,"station_id":"ce4bgih2rcd13ifvqba0","pricing_plan_id":"cebpf4jnsgd1na2vs0mg"},{"bike_id":"9428c957-f603-4346-9e68-4f9e4a780b24","system_id":"levelo_inurba_marseille","lat":43.21748,"lon":5.34603,"is_reserved":false,"is_disabled":true,"rental_uris":{"android":"levelo://app?vid=9428c957-f603-4346-9e68-4f9e4a780b24","ios":"levelo://app?vid=9428c957-f603-4346-9e68-4f9e4a780b24"},"vehicle_type_id":"4","last_reported":1774124059,"current_range_meters":8400,"station_id":"st_cvj6r9ubvosntc0bgbag","pricing_plan_id":"cebpf4jnsgd1na2vs0mg"},{"bike_id":"62ccf4a8-0426-42c8-92c7-60b92e2221c9","system_id":"levelo_inurba_marseille","lat":43.28474,"lon":5.48395,"is_reserved":false,"is_disabled":false,"rental_uris":{"android":"levelo://app?vid=62ccf4a8-0426-42c8-92c7-60b92e2221c9","ios":"levelo://app?vid=62ccf4a8-0426-42c8-92c7-60b92e2221c9"},"vehicle_type_id":"4","last_reported":1774124059,"current_range_meters":8400,"station_id":"","pricing_plan_id":"cebpf4jnsgd1na2vs0mg"},{"bike_id":"d4da46a1-3b9d-4dec-958a-07224dfcb10c","system_id":"levelo_inurba_marseille","lat":43.27225,"lon":5.39182,"is_reserved":false,"is_disabled":true,"rental_uris":{"android":"levelo://app?vid=d4da46a1-3b9d-4dec-958a-07224dfcb10c","ios":"levelo://app?vid=d4da46a1-3b9d-4dec-958a-07224dfcb10c"},"vehicle_type_id":"4","last_reported":1774124059,"current_range_meters":8400,"station_id":"ce4bhhp2rcd13ifvqfm0","pricing_plan_id":"cebpf4jnsgd1na2vs0mg"},{"bike_id":"b8e5cea4-6617-4888-be1d-db1defb2f135","system_id":"levelo_inurba_marseille","lat":43.29695,"lon":5.3662,"is_reserved":false,"is_disabled":false,"rental_uris":{"android":"levelo://app?vid=b8e5cea4-6617-4888-be1d-db1defb2f135","ios":"levelo://app?vid=b8e5cea4-6617-4888-be1d-db1defb2f135"},"vehicle_type_id":"4","last_reported":1774124059,"current_range_meters":8400,"station_id":"ce4bgn12rcd13ifvqbt0","pricing_plan_id":"cebpf4jnsgd1na2vs0mg"},{"bike_id":"b6fffe2f-9423-41b9-a53f-4ddbccd10965","system_id":"levelo_inurba_marseille","lat":43.33569,"lon":5.37493,"is_reserved":false,"is_disabled":false,"rental_uris":{"android":"levelo://app?vid=b6fffe2f-9423-41b9-a53f-4ddbccd10965","ios":"levelo://app?vid=b6fffe2f-9423-41b9-a53f-4ddbccd10965"},"vehicle_type_id":"4","last_reported":1774124059,"current_range_meters":8400,"station_id":"st_d46tts09ee8s73dlu43g","pricing_plan_id":"cebpf4jnsgd1na2vs0mg"},