{"last_updated":1745759783,"ttl":60,"version":"2.2","data":{"bikes":[{"bike_id":"422b5989-c8b6-43aa-b2b9-3bfeb2e1ddc0","system_id":"levelo_inurba_marseille","lat":43.24723,"lon":5.41173,"is_reserved":false,"is_disabled":false,"rental_uris":{"android":"levelo://app?vid=422b5989-c8b6-43aa-b2b9-3bfeb2e1ddc0","ios":"levelo://app?vid=422b5989-c8b6-43aa-b2b9-3bfeb2e1ddc0"},"vehicle_type_id":"4","last_reported":1745759784,"current_range_meters":2800,"station_id":"","pricing_plan_id":"cebpf4jnsgd1na2vs0mg"},{"bike_id":"40dc1ab0-e2bd-4ac2-af88-42db8665fe64","system_id":"levelo_inurba_marseille","lat":43.27944,"lon":5.4104,"is_reserved":false,"is_disabled":false,"rental_uris":{"android":"levelo://app?vid=40dc1ab0-e2bd-4ac2-af88-42db8665fe64","ios":"levelo://app?vid=40dc1ab0-e2bd-4ac2-af88-42db8665fe64"},"vehicle_type_id":"4","last_reported":1745759784,"current_range_meters":2800,"station_id":"ce4bhnp2rcd13ifvqh0g","pricing_plan_id":"cebpf4jnsgd1na2vs0mg"},{"bike_id":"d1ff7e34-d25d-4063-9648-2bd4db47424f","system_id":"levelo_inurba_marseille","lat":43.32455,"lon":5.39145,"is_reserved":false,"is_disabled":true,"rental_uris":{"android":"levelo://app?vid=d1ff7e34-d25d-4063-9648-2bd4db47424f","ios":"levelo://app?vid=d1ff7e34-d25d-4063-9648-2bd4db47424f"},"vehicle_type_id":"4","last_reported":1745759784,"current_range_meters":2800,"station_id":"","pricing_plan_id":"cebpf4jnsgd1na2vs0mg"},{"bike_id":"e3899486-017e-4daf-a2f3-d28a2f9f5b71","system_id":"levelo_inurba_marseille","lat":43.2993,"lon":5.36545,"is_reserved":false,"is_disabled":false,"rental_uris":{"android":"levelo://app?vid=e3899486-017e-4daf-a2f3-d28a2f9f5b71","ios":"levelo://app?vid=e3899486-017e-4daf-a2f3-d28a2f9f5b71"},"vehicle_type_id":"4","last_reported":1745759784,"current_range_meters":2800,"station_id":"ce4bgm92rcd13ifvqbr0","pricing_plan_id":"cebpf4jnsgd1na2vs0mg"},{"bike_id":"4c324465-b6e3-4cb6-8c51-460ca4348452","system_id":"levelo_inurba_marseille","lat":43.25496,"lon":5.37645,"is_reserved":false,"is_disabled":false,"rental_uris":{"android":"levelo://app?vid=4c324465-b6e3-4cb6-8c51-460ca4348452","ios":"levelo://app?vid=4c324465-b6e3-4cb6-8c51-460ca4348452"},"vehicle_type_id":"4","last_reported":1745759784,"current_range_meters":2800,"station_id":"ce4bhh12rcd13ifvqff0","pricing_plan_id":"cebpf4jnsgd1na2vs0mg"},{"bike_id":"81c73c21-67ed-4f0c-90c5-f77345538f7f","system_id":"levelo_inurba_marseille","lat":43.2319,"lon":5.39992,"is_reserved":false,"is_disabled":false,"rental_uris":{"android":"levelo://app?vid=81c73c21-67ed-4f0c-90c5-f77345538f7f","ios":"levelo://app?vid=81c73c21-67ed-4f0c-90c5-f77345538f7f"},"vehicle_type_id":"4","last_reported":1745759784,"current_range_meters":3200,"station_id":"ce4bhn12rcd13ifvqgqg","pricing_plan_id":"cebpf4jnsgd1na2vs0mg"},{"bike_id":"f17d86d7-beb4-4905-b9ca-7ce74cb3074f","system_id":"levelo_inurba_marseille","lat":43.28421,"lon":5.37503,"is_reserved":false,"is_disabled":false,"rental_uris":{"android":"levelo://app?vid=f17d86d7-beb4-4905-b9ca-7ce74cb3074f","ios":"levelo://app?vid=f17d86d7-beb4-4905-b9ca-7ce74cb3074f"},"vehicle_type_id":"4","last_reported":1745759784,"current_range_meters":3600,"station_id":"ce4bh412rcd13ifvqds0","pricing_plan_id":"cebpf4jnsgd1na2vs0mg"},{"bike_id":"b8148abc-2f00-483e-abf9-596acd810260","system_id":"levelo_inurba_marseille","lat":43.28615,"lon":5.35102,"is_reserved":false,"is_disabled":false,"rental_uris":{"android":"levelo://app?vid=b8148abc-2f00-483e-abf9-596acd810260","ios":"levelo://app?vid=b8148abc-2f00-483e-abf9-596acd810260"},"vehicle_type_id":"4","last_reported":1745759784,"current_range_meters":4000,"station_id":"ce4bhch2rcd13ifvqeug","pricing_plan_id":"cebpf4jnsgd1na2vs0mg"},{"bike_id":"5a926f24-10d0-4da6-be95-211eb6d3cdf6","system_id":"levelo_inurba_marseille","lat":43.2417,"lon":5.36396,"is_reserved":false,"is_disabled":false,"rental_uris":{"android":"levelo://app?vid=5a926f24-10d0-4da6-be95-211eb6d3cdf6","ios":"levelo://app?vid=5a926f24-10d0-4da6-be95-211eb6d3cdf6"},"vehicle_type_id":"4","last_reported":1745759784,"current_range_meters":4000,"station_id":"cpo36qri1sfpv3e86is0","pricing_plan_id":"cebpf4jnsgd1na2vs0mg"},{"bike_id":"352bab82-e19c-4575-8c4f-b75f45f2b15f","system_id":"levelo_inurba_marseille","lat":43.23963,"lon":5.36635,"is_reserved":false,"is_disabled":false,"rental_uris":{"android":"levelo://app?vid=352bab82-e19c-4575-8c4f-b75f45f2b15f","ios":"levelo://app?vid=352bab82-e19c-4575-8c4f-b75f45f2b15f"},"vehicle_type_id":"4","last_reported":1745759784,"current_range_meters":4000,"station_id":"ce4bhi12rcd13ifvqfp0","pricing_plan_id":"cebpf4jnsgd1na2vs0mg"},{"bike_id":"7637fa7d-0deb-4895-8d01-11f929e5cec0","system_id":"levelo_inurba_marseille","lat":43.31484,"lon":5.37305,"is_reserved":false,"is_disabled":false,"rental_uris":{"android":"levelo://app?vid=7637fa7d-0deb-4895-8d01-11f929e5cec0","ios":"levelo://app?vid=7637fa7d-0deb-4895-8d01-11f929e5cec0"},"vehicle_type_id":"4","last_reported":1745759784,"current_range_meters":4400,"station_id":"ce4bgt12rcd13ifvqcd0","pricing_plan_id":"cebpf4jnsgd1na2vs0mg"},{"bike_id":"28b4714b-e73d-485f-a044-26f51205bf47","system_id":"levelo_inurba_marseille","lat":43.30331,"lon":5.36518,"is_reserved":false,"is_disabled":false,"rental_uris":{"android":"levelo://app?vid=28b4714b-e73d-485f-a044-26f51205bf47","ios":"levelo://app?vid=28b4714b-e73d-485f-a044-26f51205bf47"},"vehicle_type_id":"4","last_reported":1745759784,"current_range_meters":4400,"station_id":"","pricing_plan_id":"cebpf4jnsgd1na2vs0mg"},{"bike_id":"d88dbe63-1760-4aa4-9570-dc9310137480","system_id":"levelo_inurba_marseille","lat":43.31229,"lon":5.36861,"is_reserved":false,"is_disabled":false,"rental_uris":{"android":"levelo://app?vid=d88dbe63-1760-4aa4-9570-dc9310137480","ios":"levelo://app?vid=d88dbe63-1760-4aa4-9570-dc9310137480"},"vehicle_type_id":"4","last_reported":1745759784,"current_range_meters":4800,"station_id":"ce4bgl92rcd13ifvqbq0","pricing_plan_id":"cebpf4jnsgd1na2vs0mg"},{"bike_id":"c4a09941-60f5-4ee4-998c-7106f890a002","system_id":"levelo_inurba_marseille","lat":43.24801,"lon":5.37454,"is_reserved":false,"is_disabled":false,"rental_uris":{"android":"levelo://app?vid=c4a09941-60f5-4ee4-998c-7106f890a002","ios":"levelo://app?vid=c4a09941-60f5-4ee4-998c-7106f890a002"},"vehicle_type_id":"4","last_reported":1745759784,"current_range_meters":4800,"station_id":"ce4bhgh2rcd13ifvqfb0","pricing_plan_id":"cebpf4jnsgd1na2vs0mg"},{"bike_id":"04d70716-1e19-4e8d-930b-643cd3956115","system_id":"levelo_inurba_marseille","lat":43.29853,"lon":5.36271,"is_reserved":false,"is_disabled":false,"rental_uris":{"android":"levelo://app?vid=04d70716-1e19-4e8d-930b-643cd3956115","ios":"levelo://app?vid=04d70716-1e19-4e8d-930b-643cd3956115"},"vehicle_type_id":"4","last_reported":1745759784,"current_range_meters":4800,"station_id":"ce4bgpp2rcd13ifvqc3g","pricing_plan_id":"cebpf4jnsgd1na2vs0mg"},{"bike_id":"2fac31c9-ecd4-4c07-9ea5-ab959ac9f813","system_id":"levelo_inurba_marseille","lat":43.246735,"lon":5.381654,"is_reserved":false,"is_disabled":true,"rental_uris":{"android":"levelo://app?vid=2fac31c9-ecd4-4c07-9ea5-ab959ac9f813","ios":"levelo://app?vid=2fac31c9-ecd4-4c07-9ea5-ab959ac9f813"},"vehicle_type_id":"4","last_reported":1745759784,"current_range_meters":5600,"station_id":"ce4bhih2rcd13ifvqfr0","pricing_plan_id":"cebpf4jnsgd1na2vs0mg"},{"bike_id":"0e61e71c-6fbe-4c8f-a276-2c23cf783597","system_id":"levelo_inurba_marseille","lat":43.29261,"lon":5.37623,"is_reserved":false,"is_disabled":false,"rental_uris":{"android":"levelo://app?vid=0e61e71c-6fbe-4c8f-a276-2c23cf783597","ios":"levelo://app?vid=0e61e71c-6fbe-4c8f-a276-2c23cf783597"},"vehicle_type_id":"4","last_reported":1745759784,"current_range_meters":5600,"station_id":"ce4bgi12rcd13ifvqb80","pricing_plan_id":"cebpf4jnsgd1na2vs0mg"},{"bike_id":"d48770ea-271d-480f-a83f-8620fe6a1833","system_id":"levelo_inurba_marseille","lat":43.28176,"lon":5.40462,"is_reserved":false,"is_disabled":true,"rental_uris":{"android":"levelo://app?vid=d48770ea-271d-480f-a83f-8620fe6a1833","ios":"levelo://app?vid=d48770ea-271d-480f-a83f-8620fe6a1833"},"vehicle_type_id":"4","last_reported":1745759784,"current_range_meters":5600,"station_id":"","pricing_plan_id":"cebpf4jnsgd1na2vs0mg"},{"bike_id":"36a0968b-1d3c-4859-998a-b8f950edb680","system_id":"levelo_inurba_marseille","lat":43.24551,"lon":5.39519,"is_reserved":false,"is_disabled":false,"rental_uris":{"android":"levelo://app?vid=36a0968b-1d3c-4859-998a-b8f950edb680","ios":"levelo://app?vid=36a0968b-1d3c-4859-998a-b8f950edb680"},"vehicle_type_id":"4","last_reported":1745759784,"current_range_meters":6000,"station_id":"ce4bhlp2rcd13ifvqgjg","pricing_plan_id":"cebpf4jnsgd1na2vs0mg"},{"bike_id":"15f53169-26b9-488f-8cca-260227a8c843","system_id":"levelo_inurba_marseille","lat":43.27618,"lon":5.36105,"is_reserved":false,"is_disabled":false,"rental_uris":{"android":"levelo://app?vid=15f53169-26b9-488f-8cca-260227a8c843","ios":"levelo://app?vid=15f53169-26b9-488f-8cca-260227a8c843"},"vehicle_type_id":"4","last_reported":1745759784,"current_range_meters":6000,"station_id":"ce4bgj92rcd13ifvqbe0","pricing_plan_id":"cebpf4jnsgd1na2vs0mg"},{"bike_id":"5dd650ad-4965-4cc2-9d12-0018adfab3be","system_id":"levelo_inurba_marseille","lat":43.29852,"lon":5.36269,"is_reserved":false,"is_disabled":false,"rental_uris":{"android":"levelo://app?vid=5dd650ad-4965-4cc2-9d12-0018adfab3be","ios":"levelo://app?vid=5dd650ad-4965-4cc2-9d12-0018adfab3be"},"vehicle_type_id":"4","last_reported":1745759784,"current_range_meters":6000,"station_id":"ce4bgpp2rcd13ifvqc3g","pricing_plan_id":"cebpf4jnsgd1na2vs0mg"},{"bike_id":"9ba73c8a-ca45-4f89-8177-2acd8993552f","system_id":"levelo_inurba_marseille","lat":43.29021,"lon":5.37556,"is_reserved":false,"is_disabled":false,"rental_uris":{"android":"levelo://app?vid=9ba73c8a-ca45-4f89-8177-2acd8993552f","ios":"levelo://app?vid=9ba73c8a-ca45-4f89-8177-2acd8993552f"},"vehicle_type_id":"4","last_reported":1745759784,"current_range_meters":6000,"station_id":"ce4bh692rcd13ifvqe90","pricing_plan_id":"cebpf4jnsgd1na2vs0mg"},{"bike_id":"6da4f098-7eb8-47b0-8cc6-30771132d547","system_id":"levelo_inurba_marseille","lat":43.22933,"lon":5.35376,"is_reserved":false,"is_disabled":false,"rental_uris":{"android":"levelo://app?vid=6da4f098-7eb8-47b0-8cc6-30771132d547","ios":"levelo://app?vid=6da4f098-7eb8-47b0-8cc6-30771132d547"},"vehicle_type_id":"4","last_reported":1745759784,"current_range_meters":6000,"station_id":"cpo3532slgdg3j2ikp40","pricing_plan_id":"cebpf4jnsgd1na2vs0mg"},{"bike_id":"2ebb58a0-5066-475b-968e-c575f90c315b","system_id":"levelo_inurba_marseille","lat":43.24558,"lon":5.3953,"is_reserved":false,"is_disabled":false,"rental_uris":{"android":"levelo://app?vid=2ebb58a0-5066-475b-968e-c575f90c315b","ios":"levelo://app?vid=2ebb58a0-5066-475b-968e-c575f90c315b"},"vehicle_type_id":"4","last_reported":1745759784,"current_range_meters":5600,"station_id":"ce4bhlp2rcd13ifvqgjg","pricing_plan_id":"cebpf4jnsgd1na2vs0mg"},{"bike_id":"1a218788-c815-4ad6-9544-de13a3fc056c","system_id":"levelo_inurba_marseille","lat":43.305367,"lon":5.36524,"is_reserved":false,"is_disabled":false,"rental_uris":{"android":"levelo://app?vid=1a218788-c815-4ad6-9544-de13a3fc056c","ios":"levelo://app?vid=1a218788-c815-4ad6-9544-de13a3fc056c"},"vehicle_type_id":"4","last_reported":1745759784,"current_range_meters":6400,"station_id":"ce4bgs12rcd13ifvqcag","pricing_plan_id":"cebpf4jnsgd1na2vs0mg"},{"bike_id":"08d85ef4-7c2b-45e8-b4a8-f78d18cf36ab","system_id":"levelo_inurba_marseille","lat":43.295502,"lon":5.374969,"is_reserved":false,"is_disabled":false,"rental_uris":{"android":"levelo://app?vid=08d85ef4-7c2b-45e8-b4a8-f78d18cf36ab","ios":"levelo://app?vid=08d85ef4-7c2b-45e8-b4a8-f78d18cf36ab"},"vehicle_type_id":"4","last_reported":1745759784,"current_range_meters":6800,"station_id":"ce4bgkp2rcd13ifvqbmg","pricing_plan_id":"cebpf4jnsgd1na2vs0mg"},{"bike_id":"b9d9721d-c534-4190-b885-afd25bc0dc94","system_id":"levelo_inurba_marseille","lat":43.29274,"lon":5.37612,"is_reserved":false,"is_disabled":false,"rental_uris":{"android":"levelo://app?vid=b9d9721d-c534-4190-b885-afd25bc0dc94","ios":"levelo://app?vid=b9d9721d-c534-4190-b885-afd25bc0dc94"},"vehicle_type_id":"4","last_reported":1745759784,"current_range_meters":6400,"station_id":"ce4bgi12rcd13ifvqb80","pricing_plan_id":"cebpf4jnsgd1na2vs0mg"},{"bike_id":"b22b0a51-833b-4acd-a0c5-9cd85815db27","system_id":"levelo_inurba_marseille","lat":43.30192,"lon":5.36612,"is_reserved":false,"is_disabled":false,"rental_uris":{"android":"levelo://app?vid=b22b0a51-833b-4acd-a0c5-9cd85815db27","ios":"levelo://app?vid=b22b0a51-833b-4acd-a0c5-9cd85815db27"},"vehicle_type_id":"4","last_reported":1745759784,"current_range_meters":6400,"station_id":"ce4bgrh2rcd13ifvqc8g","pricing_plan_id":"cebpf4jnsgd1na2vs0mg"},{"bike_id":"c886bc95-a9f4-4b08-af93-286cc6dbd1ea","system_id":"levelo_inurba_marseille","lat":43.24175,"lon":5.36387,"is_reserved":false,"is_disabled":false,"rental_uris":{"android":"levelo://app?vid=c886bc95-a9f4-4b08-af93-286cc6dbd1ea","ios":"levelo://app?vid=c886bc95-a9f4-4b08-af93-286cc6dbd1ea"},"vehicle_type_id":"4","last_reported":1745759784,"current_range_meters":6800,"station_id":"cpo36qri1sfpv3e86is0","pricing_plan_id":"cebpf4jnsgd1na2vs0mg"},{"bike_id":"10e1153c-b44a-4729-9761-4fd66d69e34b","system_id":"levelo_inurba_marseille","lat":43.31363,"lon":5.3849,"is_reserved":false,"is_disabled":false,"rental_uris":{"android":"levelo://app?vid=10e1153c-b44a-4729-9761-4fd66d69e34b","ios":"levelo://app?vid=10e1153c-b44a-4729-9761-4fd66d69e34b"},"vehicle_type_id":"4","last_reported":1745759784,"current_range_meters":7200,"station_id":"ce4bgt92rcd13ifvqcf0","pricing_plan_id":"cebpf4jnsgd1na2vs0mg"},{"bike_id":"4f6c4834-f588-4feb-b654-7f96f9741323","system_id":"levelo_inurba_marseille","lat":43.30537,"lon":5.36547,"is_reserved":false,"is_disabled":false,"rental_uris":{"android":"levelo://app?vid=4f6c4834-f588-4feb-b654-7f96f9741323","ios":"levelo://app?vid=4f6c4834-f588-4feb-b654-7f96f9741323"},"vehicle_type_id":"4","last_reported":1745759784,"current_range_meters":7200,"station_id":"ce4bgs12rcd13ifvqcag","pricing_plan_id":"cebpf4jnsgd1na2vs0mg"},{"bike_id":"571880c0-0712-439e-9fee-1111267484d9","system_id":"levelo_inurba_marseille","lat":43.28707,"lon":5.37933,"is_reserved":false,"is_disabled":true,"rental_uris":{"android":"levelo://app?vid=571880c0-0712-439e-9fee-1111267484d9","ios":"levelo://app?vid=571880c0-0712-439e-9fee-1111267484d9"},"vehicle_type_id":"4","last_reported":1745759784,"current_range_meters":7200,"station_id":"ce4bh9p2rcd13ifvqec0","pricing_plan_id":"cebpf4jnsgd1na2vs0mg"},{"bike_id":"dee022fb-964b-4bce-9944-8fa77c020256","system_id":"levelo_inurba_marseille","lat":43.25847,"lon":5.39437,"is_reserved":false,"is_disabled":false,"rental_uris":{"android":"levelo://app?vid=dee022fb-964b-4bce-9944-8fa77c020256","ios":"levelo://app?vid=dee022fb-964b-4bce-9944-8fa77c020256"},"vehicle_type_id":"4","last_reported":1745759784,"current_range_meters":7200,"station_id":"ce4bhip2rcd13ifvqft0","pricing_plan_id":"cebpf4jnsgd1na2vs0mg"},{"bike_id":"b4b0266c-631d-4bc0-b722-43b22c86c85f","system_id":"levelo_inurba_marseille","lat":43.30985,"lon":5.41734,"is_reserved":false,"is_disabled":false,"rental_uris":{"android":"levelo://app?vid=b4b0266c-631d-4bc0-b722-43b22c86c85f","ios":"levelo://app?vid=b4b0266c-631d-4bc0-b722-43b22c86c85f"},"vehicle_type_id":"4","last_reported":1745759784,"current_range_meters":7200,"station_id":"","pricing_plan_id":"cebpf4jnsgd1na2vs0mg"},{"bike_id":"a1fda7b9-5017-4843-bec2-cd69eb978fd4","system_id":"levelo_inurba_marseille","lat":43.23945,"lon":5.36638,"is_reserved":false,"is_disabled":false,"rental_uris":{"android":"levelo://app?vid=a1fda7b9-5017-4843-bec2-cd69eb978fd4","ios":"levelo://app?vid=a1fda7b9-5017-4843-bec2-cd69eb978fd4"},"vehicle_type_id":"4","last_reported":1745759784,"current_range_meters":7200,"station_id":"ce4bhi12rcd13ifvqfp0","pricing_plan_id":"cebpf4jnsgd1na2vs0mg"},{"bike_id":"e74dcafa-ab5f-4a22-9be8-3b003a71239c","system_id":"levelo_inurba_marseille","lat":43.296988,"lon":5.376838,"is_reserved":false,"is_disabled":false,"rental_uris":{"android":"levelo://app?vid=e74dcafa-ab5f-4a22-9be8-3b003a71239c","ios":"levelo://app?vid=e74dcafa-ab5f-4a22-9be8-3b003a71239c"},"vehicle_type_id":"4","last_reported":1745759784,"current_range_meters":7200,"station_id":"ce4bgkh2rcd13ifvqbl0","pricing_plan_id":"cebpf4jnsgd1na2vs0mg"},{"bike_id":"46e1b424-aea6-43c9-b9b9-5bdd45d38617","system_id":"levelo_inurba_marseille","lat":43.29918,"lon":5.36563,"is_reserved":false,"is_disabled":false,"rental_uris":{"android":"levelo://app?vid=46e1b424-aea6-43c9-b9b9-5bdd45d38617","ios":"levelo://app?vid=46e1b424-aea6-43c9-b9b9-5bdd45d38617"},"vehicle_type_id":"4","last_reported":1745759784,"current_range_meters":7200,"station_id":"ce4bgm92rcd13ifvqbr0","pricing_plan_id":"cebpf4jnsgd1na2vs0mg"},{"bike_id":"308ce0d7-54d5-4aec-879f-da2149307f93","system_id":"levelo_inurba_marseille","lat":43.22497,"lon":5.34762,"is_reserved":false,"is_disabled":true,"rental_uris":{"android":"levelo://app?vid=308ce0d7-54d5-4aec-879f-da2149307f93","ios":"levelo://app?vid=308ce0d7-54d5-4aec-879f-da2149307f93"},"vehicle_type_id":"4","last_reported":1745759784,"current_range_meters":8000,"station_id":"st_cvj5dfep6f1abm77gieg","pricing_plan_id":"cebpf4jnsgd1na2vs0mg"},{"bike_id":"7053ad8e-18c0-4702-a94d-990116185c4b","system_id":"levelo_inurba_marseille","lat":43.30587,"lon":5.39352,"is_reserved":false,"is_disabled":false,"rental_uris":{"android":"levelo://app?vid=7053ad8e-18c0-4702-a94d-990116185c4b","ios":"levelo://app?vid=7053ad8e-18c0-4702-a94d-990116185c4b"},"vehicle_type_id":"4","last_reported":1745759784,"current_range_meters":8000,"station_id":"ce4bh0p2rcd13ifvqd80","pricing_plan_id":"cebpf4jnsgd1na2vs0mg"},{"bike_id":"e768aa58-f78c-4d48-862b-93a92cf87bd8","system_id":"levelo_inurba_marseille","lat":43.32101,"lon":5.36799,"is_reserved":false,"is_disabled":false,"rental_uris":{"android":"levelo://app?vid=e768aa58-f78c-4d48-862b-93a92cf87bd8","ios":"levelo://app?vid=e768aa58-f78c-4d48-862b-93a92cf87bd8"},"vehicle_type_id":"4","last_reported":1745759784,"current_range_meters":8000,"station_id":"ce4bhrh2rcd13ifvqhug","pricing_plan_id":"cebpf4jnsgd1na2vs0mg"},{"bike_id":"042a36cf-a68c-4f02-8fbe-a3d4f36fa492","system_id":"levelo_inurba_marseille","lat":43.21199,"lon":5.35082,"is_reserved":false,"is_disabled":false,"rental_uris":{"android":"levelo://app?vid=042a36cf-a68c-4f02-8fbe-a3d4f36fa492","ios":"levelo://app?vid=042a36cf-a68c-4f02-8fbe-a3d4f36fa492"},"vehicle_type_id":"4","last_reported":1745759784,"current_range_meters":8000,"station_id":"st_cvj6sg6p6f1abm77japg","pricing_plan_id":"cebpf4jnsgd1na2vs0mg"},{"bike_id":"aa7dd23a-c50c-4359-a4fa-3d29c4576751","system_id":"levelo_inurba_marseille","lat":43.24175,"lon":5.36389,"is_reserved":false,"is_disabled":false,"rental_uris":{"android":"levelo://app?vid=aa7dd23a-c50c-4359-a4fa-3d29c4576751","ios":"levelo://app?vid=aa7dd23a-c50c-4359-a4fa-3d29c4576751"},"vehicle_type_id":"4","last_reported":1745759784,"current_range_meters":8000,"station_id":"cpo36qri1sfpv3e86is0","pricing_plan_id":"cebpf4jnsgd1na2vs0mg"},{"bike_id":"aa825829-430a-40a4-b761-d4e0b419ddd9","system_id":"levelo_inurba_marseille","lat":43.29596,"lon":5.38093,"is_reserved":false,"is_disabled":false,"rental_uris":{"android":"levelo://app?vid=aa825829-430a-40a4-b761-d4e0b419ddd9","ios":"levelo://app?vid=aa825829-430a-40a4-b761-d4e0b419ddd9"},"vehicle_type_id":"4","last_reported":1745759784,"current_range_meters":8000,"station_id":"ce4bgl12rcd13ifvqbo0","pricing_plan_id":"cebpf4jnsgd1na2vs0mg"},{"bike_id":"c1b1b433-bcb9-4a7d-8963-3218bcdcba1e","system_id":"levelo_inurba_marseille","lat":43.23364,"lon":5.36049,"is_reserved":false,"is_disabled":false,"rental_uris":{"android":"levelo://app?vid=c1b1b433-bcb9-4a7d-8963-3218bcdcba1e","ios":"levelo://app?vid=c1b1b433-bcb9-4a7d-8963-3218bcdcba1e"},"vehicle_type_id":"4","last_reported":1745759784,"current_range_meters":8000,"station_id":"","pricing_plan_id":"cebpf4jnsgd1na2vs0mg"},{"bike_id":"9a23eaba-ba51-465d-aa37-226bafec3d84","system_id":"levelo_inurba_marseille","lat":43.21769,"lon":5.34606,"is_reserved":false,"is_disabled":false,"rental_uris":{"android":"levelo://app?vid=9a23eaba-ba51-465d-aa37-226bafec3d84","ios":"levelo://app?vid=9a23eaba-ba51-465d-aa37-226bafec3d84"},"vehicle_type_id":"4","last_reported":1745759784,"current_range_meters":8400,"station_id":"st_cvj6r9ubvosntc0bgbag","pricing_plan_id":"cebpf4jnsgd1na2vs0mg"},{"bike_id":"2d4820d4-569a-4ec0-b000-e82a960dd30b","system_id":"levelo_inurba_marseille","lat":43.23146,"lon":5.35505,"is_reserved":false,"is_disabled":false,"rental_uris":{"android":"levelo://app?vid=2d4820d4-569a-4ec0-b000-e82a960dd30b","ios":"levelo://app?vid=2d4820d4-569a-4ec0-b000-e82a960dd30b"},"vehicle_type_id":"4","last_reported":1745759784,"current_range_meters":8400,"station_id":"","pricing_plan_id":"cebpf4jnsgd1na2vs0mg"},{"bike_id":"81159e63-3b35-42d5-8e59-a6400c53568e","system_id":"levelo_inurba_marseille","lat":43.21747,"lon":5.346,"is_reserved":false,"is_disabled":false,"rental_uris":{"android":"levelo://app?vid=81159e63-3b35-42d5-8e59-a6400c53568e","ios":"levelo://app?vid=81159e63-3b35-42d5-8e59-a6400c53568e"},"vehicle_type_id":"4","last_reported":1745759784,"current_range_meters":8400,"station_id":"st_cvj6r9ubvosntc0bgbag","pricing_plan_id":"cebpf4jnsgd1na2vs0mg"},{"bike_id":"baa69541-5bb8-41ea-9aa9-a176fec1ebba","system_id":"levelo_inurba_marseille","lat":43.24547,"lon":5.39521,"is_reserved":false,"is_disabled":false,"rental_uris":{"android":"levelo://app?vid=baa69541-5bb8-41ea-9aa9-a176fec1ebba","ios":"levelo://app?vid=baa69541-5bb8-41ea-9aa9-a176fec1ebba"},"vehicle_type_id":"4","last_reported":1745759784,"current_range_meters":8400,"station_id":"ce4bhlp2rcd13ifvqgjg","pricing_plan_id":"cebpf4jnsgd1na2vs0mg"},{"bike_id":"3bf5f31d-3104-41dc-aa32-e9272cda1e62","system_id":"levelo_inurba_marseille","lat":43.28404,"lon":5.37511,"is_reserved":false,"is_disabled":false,"rental_uris":{"android":"levelo://app?vid=3bf5f31d-3104-41dc-aa32-e9272cda1e62","ios":"levelo://app?vid=3bf5f31d-3104-41dc-aa32-e9272cda1e62"},"vehicle_type_id":"4","last_reported":1745759784,"current_range_meters":8400,"station_id":"ce4bh412rcd13ifvqds0","pricing_plan_id":"cebpf4jnsgd1na2vs0mg"},{"bike_id":"ffa9289a-d067-464f-8f6e-832d4aeddc45","system_id":"levelo_inurba_marseille","lat":43.3013,"lon":5.37438,"is_reserved":false,"is_disabled":false,"rental_uris":{"android":"levelo://app?vid=ffa9289a-d067-464f-8f6e-832d4aeddc45","ios":"levelo://app?vid=ffa9289a-d067-464f-8f6e-832d4aeddc45"},"vehicle_type_id":"4","last_reported":1745759784,"current_range_meters":8400,"station_id":"ce4bgs92rcd13ifvqcc0","pricing_plan_id":"cebpf4jnsgd1na2vs0mg"},{"bike_id":"ed537f9b-b1db-4f7f-87a1-1dbb18dd4577","system_id":"levelo_inurba_marseille","lat":43.33589,"lon":5.4284,"is_reserved":false,"is_disabled":false,"rental_uris":{"android":"levelo://app?vid=ed537f9b-b1db-4f7f-87a1-1dbb18dd4577","ios":"levelo://app?vid=ed537f9b-b1db-4f7f-87a1-1dbb18dd4577"},"vehicle_type_id":"4","last_reported":1745759784,"current_range_meters":8400,"station_id":"","pricing_plan_id":"cebpf4jnsgd1na2vs0mg"},{"bike_id":"7bc2518c-6f52-42ed-814e-6f5940160db8","system_id":"levelo_inurba_marseille","lat":43.23179,"lon":5.3999,"is_reserved":false,"is_disabled":false,"rental_uris":{"android":"levelo://app?vid=7bc2518c-6f52-42ed-814e-6f5940160db8","ios":"levelo://app?vid=7bc2518c-6f52-42ed-814e-6f5940160db8"},"vehicle_type_id":"4","last_reported":1745759784,"current_range_meters":8800,"station_id":"ce4bhn12rcd13ifvqgqg","pricing_plan_id":"cebpf4jnsgd1na2vs0mg"},{"bike_id":"2ab45692-5726-487f-87cd-557c94e4c357","system_id":"levelo_inurba_marseille","lat":43.299352,"lon":5.365571,"is_reserved":false,"is_disabled":false,"rental_uris":{"android":"levelo://app?vid=2ab45692-5726-487f-87cd-557c94e4c357","ios":"levelo://app?vid=2ab45692-5726-487f-87cd-557c94e4c357"},"vehicle_type_id":"4","last_reported":1745759784,"current_range_meters":8800,"station_id":"ce4bgm92rcd13ifvqbr0","pricing_plan_id":"cebpf4jnsgd1na2vs0mg"},{"bike_id":"3f8e74df-4b8a-4fe8-9f20-4fbe47605119","system_id":"levelo_inurba_marseille","lat":43.290283,"lon":5.375528,"is_reserved":false,"is_disabled":true,"rental_uris":{"android":"levelo://app?vid=3f8e74df-4b8a-4fe8-9f20-4fbe47605119","ios":"levelo://app?vid=3f8e74df-4b8a-4fe8-9f20-4fbe47605119"},"vehicle_type_id":"4","last_reported":1745759784,"current_range_meters":8800,"station_id":"ce4bh692rcd13ifvqe90","pricing_plan_id":"cebpf4jnsgd1na2vs0mg"},{"bike_id":"8267a175-b5cb-45e0-8d32-cc806f617854","system_id":"levelo_inurba_marseille","lat":43.30522,"lon":5.38851,"is_reserved":false,"is_disabled":false,"rental_uris":{"android":"levelo://app?vid=8267a175-b5cb-45e0-8d32-cc806f617854","ios":"levelo://app?vid=8267a175-b5cb-45e0-8d32-cc806f617854"},"vehicle_type_id":"4","last_reported":1745759784,"current_range_meters":8800,"station_id":"","pricing_plan_id":"cebpf4jnsgd1na2vs0mg"},{"bike_id":"4e09e2f3-6329-4563-9a1f-79c5001029cb","system_id":"levelo_inurba_marseille","lat":43.32376,"lon":5.3889,"is_reserved":false,"is_disabled":false,"rental_uris":{"android":"levelo://app?vid=4e09e2f3-6329-4563-9a1f-79c5001029cb","ios":"levelo://app?vid=4e09e2f3-6329-4563-9a1f-79c5001029cb"},"vehicle_type_id":"4","last_reported":1745759784,"current_range_meters":8800,"station_id":"ce4bhqp2rcd13ifvqhog","pricing_plan_id":"cebpf4jnsgd1na2vs0mg"},{"bike_id":"db117beb-7fc4-4e2c-a3e6-01cf523d7008","system_id":"levelo_inurba_marseille","lat":43.27327,"lon":5.39083,"is_reserved":false,"is_disabled":true,"rental_uris":{"android":"levelo://app?vid=db117beb-7fc4-4e2c-a3e6-01cf523d7008","ios":"levelo://app?vid=db117beb-7fc4-4e2c-a3e6-01cf523d7008"},"vehicle_type_id":"4","last_reported":1745759784,"current_range_meters":8800,"station_id":"ce4bhgp2rcd13ifvqfe0","pricing_plan_id":"cebpf4jnsgd1na2vs0mg"},{"bike_id":"c596ab54-4f89-4649-a442-12778ac8adc4","system_id":"levelo_inurba_marseille","lat":43.31711,"lon":5.43699,"is_reserved":false,"is_disabled":true,"rental_uris":{"android":"levelo://app?vid=c596ab54-4f89-4649-a442-12778ac8adc4","ios":"levelo://app?vid=c596ab54-4f89-4649-a442-12778ac8adc4"},"vehicle_type_id":"4","last_reported":1745759784,"current_range_meters":9200,"station_id":"ce4bhp92rcd13ifvqhcg","pricing_plan_id":"cebpf4jnsgd1na2vs0mg"},{"bike_id":"f9c4da92-e6ba-4082-b9ef-35fa2738e162","system_id":"levelo_inurba_marseille","lat":43.21757,"lon":5.34594,"is_reserved":false,"is_disabled":false,"rental_uris":{"android":"levelo://app?vid=f9c4da92-e6ba-4082-b9ef-35fa2738e162","ios":"levelo://app?vid=f9c4da92-e6ba-4082-b9ef-35fa2738e162"},"vehicle_type_id":"4","last_reported":1745759784,"current_range_meters":9200,"station_id":"st_cvj6r9ubvosntc0bgbag","pricing_plan_id":"cebpf4jnsgd1na2vs0mg"},{"bike_id":"50567301-7660-45e4-9314-78fdd7ddbf96","system_id":"levelo_inurba_marseille","lat":43.30772,"lon":5.40928,"is_reserved":false,"is_disabled":false,"rental_uris":{"android":"levelo://app?vid=50567301-7660-45e4-9314-78fdd7ddbf96","ios":"levelo://app?vid=50567301-7660-45e4-9314-78fdd7ddbf96"},"vehicle_type_id":"4","last_reported":1745759784,"current_range_meters":9200,"station_id":"","pricing_plan_id":"cebpf4jnsgd1na2vs0mg"},{"bike_id":"736ee7d5-708e-48bd-8281-35bb85d0bc7d","system_id":"levelo_inurba_marseille","lat":43.289961,"lon":5.356009,"is_reserved":false,"is_disabled":true,"rental_uris":{"android":"levelo://app?vid=736ee7d5-708e-48bd-8281-35bb85d0bc7d","ios":"levelo://app?vid=736ee7d5-708e-48bd-8281-35bb85d0bc7d"},"vehicle_type_id":"4","last_reported":1745759784,"current_range_meters":9200,"station_id":"ce4bhb92rcd13ifvqen0","pricing_plan_id":"cebpf4jnsgd1na2vs0mg"},{"bike_id":"374695c7-05ae-441b-90bd-19811cb2defe","system_id":"levelo_inurba_marseille","lat":43.30745,"lon":5.42445,"is_reserved":false,"is_disabled":false,"rental_uris":{"android":"levelo://app?vid=374695c7-05ae-441b-90bd-19811cb2defe","ios":"levelo://app?vid=374695c7-05ae-441b-90bd-19811cb2defe"},"vehicle_type_id":"4","last_reported":1745759784,"current_range_meters":9200,"station_id":"st_cvj6ca6bvosntc0bfgr0","pricing_plan_id":"cebpf4jnsgd1na2vs0mg"},{"bike_id":"1997d102-df05-4f63-9d3a-754162eaea31","system_id":"levelo_inurba_marseille","lat":43.29841,"lon":5.36265,"is_reserved":false,"is_disabled":false,"rental_uris":{"android":"levelo://app?vid=1997d102-df05-4f63-9d3a-754162eaea31","ios":"levelo://app?vid=1997d102-df05-4f63-9d3a-754162eaea31"},"vehicle_type_id":"4","last_reported":1745759784,"current_range_meters":9200,"station_id":"ce4bgpp2rcd13ifvqc3g","pricing_plan_id":"cebpf4jnsgd1na2vs0mg"},{"bike_id":"5ddba1f1-1747-4179-b91f-b8778028cd60","system_id":"levelo_inurba_marseille","lat":43.25606,"lon":5.41191,"is_reserved":false,"is_disabled":false,"rental_uris":{"android":"levelo://app?vid=5ddba1f1-1747-4179-b91f-b8778028cd60","ios":"levelo://app?vid=5ddba1f1-1747-4179-b91f-b8778028cd60"},"vehicle_type_id":"4","last_reported":1745759784,"current_range_meters":9200,"station_id":"","pricing_plan_id":"cebpf4jnsgd1na2vs0mg"},{"bike_id":"2acccce1-557a-4183-b1f9-7da8956c0575","system_id":"levelo_inurba_marseille","lat":43.2993,"lon":5.36548,"is_reserved":false,"is_disabled":false,"rental_uris":{"android":"levelo://app?vid=2acccce1-557a-4183-b1f9-7da8956c0575","ios":"levelo://app?vid=2acccce1-557a-4183-b1f9-7da8956c0575"},"vehicle_type_id":"4","last_reported":1745759784,"current_range_meters":9600,"station_id":"ce4bgm92rcd13ifvqbr0","pricing_plan_id":"cebpf4jnsgd1na2vs0mg"},{"bike_id":"d8d4a1cd-f568-431c-a71c-6d8fce720292","system_id":"levelo_inurba_marseille","lat":43.32356,"lon":5.36774,"is_reserved":false,"is_disabled":false,"rental_uris":{"android":"levelo://app?vid=d8d4a1cd-f568-431c-a71c-6d8fce720292","ios":"levelo://app?vid=d8d4a1cd-f568-431c-a71c-6d8fce720292"},"vehicle_type_id":"4","last_reported":1745759784,"current_range_meters":9600,"station_id":"ce4bhsh2rcd13ifvqi2g","pricing_plan_id":"cebpf4jnsgd1na2vs0mg"},{"bike_id":"7d727c0a-6c28-48dc-bed3-bc7b1f3ba7ba","system_id":"levelo_inurba_marseille","lat":43.29256,"lon":5.36444,"is_reserved":false,"is_disabled":true,"rental_uris":{"android":"levelo://app?vid=7d727c0a-6c28-48dc-bed3-bc7b1f3ba7ba","ios":"levelo://app?vid=7d727c0a-6c28-48dc-bed3-bc7b1f3ba7ba"},"vehicle_type_id":"4","last_reported":1745759784,"current_range_meters":9600,"station_id":"","pricing_plan_id":"cebpf4jnsgd1na2vs0mg"},{"bike_id":"470303cf-16c3-4800-b1e1-53bb5fc2fad5","system_id":"levelo_inurba_marseille","lat":43.30461,"lon":5.37903,"is_reserved":false,"is_disabled":false,"rental_uris":{"android":"levelo://app?vid=470303cf-16c3-4800-b1e1-53bb5fc2fad5","ios":"levelo://app?vid=470303cf-16c3-4800-b1e1-53bb5fc2fad5"},"vehicle_type_id":"4","last_reported":1745759784,"current_range_meters":9600,"station_id":"ce4bgup2rcd13ifvqcn0","pricing_plan_id":"cebpf4jnsgd1na2vs0mg"},{"bike_id":"dacf1020-17f4-4ed6-b8ec-488899e17361","system_id":"levelo_inurba_marseille","lat":43.29358,"lon":5.37834,"is_reserved":false,"is_disabled":false,"rental_uris":{"android":"levelo://app?vid=dacf1020-17f4-4ed6-b8ec-488899e17361","ios":"levelo://app?vid=dacf1020-17f4-4ed6-b8ec-488899e17361"},"vehicle_type_id":"4","last_reported":1745759784,"current_range_meters":9600,"station_id":"ce4bgjh2rcd13ifvqbf0","pricing_plan_id":"cebpf4jnsgd1na2vs0mg"},{"bike_id":"2b0a4532-014c-49a1-a9eb-d8a368ca9abd","system_id":"levelo_inurba_marseille","lat":43.29887,"lon":5.389,"is_reserved":false,"is_disabled":false,"rental_uris":{"android":"levelo://app?vid=2b0a4532-014c-49a1-a9eb-d8a368ca9abd","ios":"levelo://app?vid=2b0a4532-014c-49a1-a9eb-d8a368ca9abd"},"vehicle_type_id":"4","last_reported":1745759784,"current_range_meters":9600,"station_id":"ce4bh392rcd13ifvqdl0","pricing_plan_id":"cebpf4jnsgd1na2vs0mg"},{"bike_id":"d1db9f13-b3b3-4982-a762-4844e808134e","system_id":"levelo_inurba_marseille","lat":43.29256,"lon":5.40905,"is_reserved":false,"is_disabled":false,"rental_uris":{"android":"levelo://app?vid=d1db9f13-b3b3-4982-a762-4844e808134e","ios":"levelo://app?vid=d1db9f13-b3b3-4982-a762-4844e808134e"},"vehicle_type_id":"4","last_reported":1745759784,"current_range_meters":9600,"station_id":"ce4bh192rcd13ifvqdc0","pricing_plan_id":"cebpf4jnsgd1na2vs0mg"},{"bike_id":"dea15188-c098-4794-90f6-0fc4b187f745","system_id":"levelo_inurba_marseille","lat":43.30804,"lon":5.43521,"is_reserved":false,"is_disabled":false,"rental_uris":{"android":"levelo://app?vid=dea15188-c098-4794-90f6-0fc4b187f745","ios":"levelo://app?vid=dea15188-c098-4794-90f6-0fc4b187f745"},"vehicle_type_id":"4","last_reported":1745759784,"current_range_meters":9600,"station_id":"ce4bhph2rcd13ifvqheg","pricing_plan_id":"cebpf4jnsgd1na2vs0mg"},{"bike_id":"04330282-4b26-4fac-8b80-fb290df513f5","system_id":"levelo_inurba_marseille","lat":43.25105,"lon":5.40321,"is_reserved":false,"is_disabled":false,"rental_uris":{"android":"levelo://app?vid=04330282-4b26-4fac-8b80-fb290df513f5","ios":"levelo://app?vid=04330282-4b26-4fac-8b80-fb290df513f5"},"vehicle_type_id":"4","last_reported":1745759784,"current_range_meters":9600,"station_id":"ce4bhlh2rcd13ifvqgig","pricing_plan_id":"cebpf4jnsgd1na2vs0mg"},{"bike_id":"7a624e6f-18a5-41a8-bb50-062c8c55408e","system_id":"levelo_inurba_marseille","lat":43.28485,"lon":5.38413,"is_reserved":false,"is_disabled":false,"rental_uris":{"android":"levelo://app?vid=7a624e6f-18a5-41a8-bb50-062c8c55408e","ios":"levelo://app?vid=7a624e6f-18a5-41a8-bb50-062c8c55408e"},"vehicle_type_id":"4","last_reported":1745759784,"current_range_meters":5600,"station_id":"ce4bh512rcd13ifvqe3g","pricing_plan_id":"cebpf4jnsgd1na2vs0mg"},{"bike_id":"1199dac4-644a-4929-955f-268c969ce299","system_id":"levelo_inurba_marseille","lat":43.308005,"lon":5.38148,"is_reserved":false,"is_disabled":false,"rental_uris":{"android":"levelo://app?vid=1199dac4-644a-4929-955f-268c969ce299","ios":"levelo://app?vid=1199dac4-644a-4929-955f-268c969ce299"},"vehicle_type_id":"4","last_reported":1745759784,"current_range_meters":10000,"station_id":"ce4bgt12rcd13ifvqce0","pricing_plan_id":"cebpf4jnsgd1na2vs0mg"},{"bike_id":"cecf372e-f99d-4092-9fb9-aba0fb187411","system_id":"levelo_inurba_marseille","lat":43.32407,"lon":5.39097,"is_reserved":false,"is_disabled":false,"rental_uris":{"android":"levelo://app?vid=cecf372e-f99d-4092-9fb9-aba0fb187411","ios":"levelo://app?vid=cecf372e-f99d-4092-9fb9-aba0fb187411"},"vehicle_type_id":"4","last_reported":1745759784,"current_range_meters":10000,"station_id":"","pricing_plan_id":"cebpf4jnsgd1na2vs0mg"},{"bike_id":"6f9efa22-6701-48b6-9dac-71701c013e89","system_id":"levelo_inurba_marseille","lat":43.28039,"lon":5.39953,"is_reserved":false,"is_disabled":false,"rental_uris":{"android":"levelo://app?vid=6f9efa22-6701-48b6-9dac-71701c013e89","ios":"levelo://app?vid=6f9efa22-6701-48b6-9dac-71701c013e89"},"vehicle_type_id":"4","last_reported":1745759784,"current_range_meters":10000,"station_id":"","pricing_plan_id":"cebpf4jnsgd1na2vs0mg"},{"bike_id":"00616192-2e7e-4143-89a7-22ed0fe84242","system_id":"levelo_inurba_marseille","lat":43.31567,"lon":5.37275,"is_reserved":false,"is_disabled":false,"rental_uris":{"android":"levelo://app?vid=00616192-2e7e-4143-89a7-22ed0fe84242","ios":"levelo://app?vid=00616192-2e7e-4143-89a7-22ed0fe84242"},"vehicle_type_id":"4","last_reported":1745759784,"current_range_meters":10800,"station_id":"","pricing_plan_id":"cebpf4jnsgd1na2vs0mg"},{"bike_id":"0053b840-de47-4900-98aa-cc8575176b05","system_id":"levelo_inurba_marseille","lat":43.24168,"lon":5.36408,"is_reserved":false,"is_disabled":true,"rental_uris":{"android":"levelo://app?vid=0053b840-de47-4900-98aa-cc8575176b05","ios":"levelo://app?vid=0053b840-de47-4900-98aa-cc8575176b05"},"vehicle_type_id":"4","last_reported":1745759784,"current_range_meters":10800,"station_id":"cpo36qri1sfpv3e86is0","pricing_plan_id":"cebpf4jnsgd1na2vs0mg"},{"bike_id":"721ac694-ddc1-45a4-93fe-2aef08d4b564","system_id":"levelo_inurba_marseille","lat":43.24171,"lon":5.36396,"is_reserved":false,"is_disabled":false,"rental_uris":{"android":"levelo://app?vid=721ac694-ddc1-45a4-93fe-2aef08d4b564","ios":"levelo://app?vid=721ac694-ddc1-45a4-93fe-2aef08d4b564"},"vehicle_type_id":"4","last_reported":1745759784,"current_range_meters":10800,"station_id":"cpo36qri1sfpv3e86is0","pricing_plan_id":"cebpf4jnsgd1na2vs0mg"},{"bike_id":"574c21c3-5de9-4bfa-a3aa-ac4e3698f0a7","system_id":"levelo_inurba_marseille","lat":43.27192,"lon":5.39215,"is_reserved":false,"is_disabled":true,"rental_uris":{"android":"levelo://app?vid=574c21c3-5de9-4bfa-a3aa-ac4e3698f0a7","ios":"levelo://app?vid=574c21c3-5de9-4bfa-a3aa-ac4e3698f0a7"},"vehicle_type_id":"4","last_reported":1745759784,"current_range_meters":10800,"station_id":"ce4bhhp2rcd13ifvqfm0","pricing_plan_id":"cebpf4jnsgd1na2vs0mg"},{"bike_id":"9aebf94a-78a4-4370-bf0f-12425fd59395","system_id":"levelo_inurba_marseille","lat":43.284027,"lon":5.375041,"is_reserved":false,"is_disabled":false,"rental_uris":{"android":"levelo://app?vid=9aebf94a-78a4-4370-bf0f-12425fd59395","ios":"levelo://app?vid=9aebf94a-78a4-4370-bf0f-12425fd59395"},"vehicle_type_id":"4","last_reported":1745759784,"current_range_meters":10000,"station_id":"ce4bh412rcd13ifvqds0","pricing_plan_id":"cebpf4jnsgd1na2vs0mg"},{"bike_id":"d8dbd1d8-e497-4a8d-ad2d-6fa9dddb1996","system_id":"levelo_inurba_marseille","lat":43.29634,"lon":5.40598,"is_reserved":false,"is_disabled":false,"rental_uris":{"android":"levelo://app?vid=d8dbd1d8-e497-4a8d-ad2d-6fa9dddb1996","ios":"levelo://app?vid=d8dbd1d8-e497-4a8d-ad2d-6fa9dddb1996"},"vehicle_type_id":"4","last_reported":1745759784,"current_range_meters":12400,"station_id":"ce4bh0h2rcd13ifvqd60","pricing_plan_id":"cebpf4jnsgd1na2vs0mg"},{"bike_id":"82016555-1022-467f-b7e9-084b6d838aac","system_id":"levelo_inurba_marseille","lat":43.27789,"lon":5.35512,"is_reserved":false,"is_disabled":false,"rental_uris":{"android":"levelo://app?vid=82016555-1022-467f-b7e9-084b6d838aac","ios":"levelo://app?vid=82016555-1022-467f-b7e9-084b6d838aac"},"vehicle_type_id":"4","last_reported":1745759784,"current_range_meters":11600,"station_id":"","pricing_plan_id":"cebpf4jnsgd1na2vs0mg"},{"bike_id":"76a46cdd-cd14-422e-801c-4004833668b3","system_id":"levelo_inurba_marseille","lat":43.27871,"lon":5.35418,"is_reserved":false,"is_disabled":false,"rental_uris":{"android":"levelo://app?vid=76a46cdd-cd14-422e-801c-4004833668b3","ios":"levelo://app?vid=76a46cdd-cd14-422e-801c-4004833668b3"},"vehicle_type_id":"4","last_reported":1745759784,"current_range_meters":11600,"station_id":"","pricing_plan_id":"cebpf4jnsgd1na2vs0mg"},{"bike_id":"ae1d96a0-b0a2-41e1-be14-e78907f9338a","system_id":"levelo_inurba_marseille","lat":43.29513,"lon":5.39388,"is_reserved":false,"is_disabled":true,"rental_uris":{"android":"levelo://app?vid=ae1d96a0-b0a2-41e1-be14-e78907f9338a","ios":"levelo://app?vid=ae1d96a0-b0a2-41e1-be14-e78907f9338a"},"vehicle_type_id":"4","last_reported":1745759784,"current_range_meters":11200,"station_id":"ce4bh292rcd13ifvqdf0","pricing_plan_id":"cebpf4jnsgd1na2vs0mg"},{"bike_id":"25cdcc7c-985d-4055-81dc-fbfa3525fabf","system_id":"levelo_inurba_marseille","lat":43.24661,"lon":5.38165,"is_reserved":false,"is_disabled":false,"rental_uris":{"android":"levelo://app?vid=25cdcc7c-985d-4055-81dc-fbfa3525fabf","ios":"levelo://app?vid=25cdcc7c-985d-4055-81dc-fbfa3525fabf"},"vehicle_type_id":"4","last_reported":1745759784,"current_range_meters":10800,"station_id":"ce4bhih2rcd13ifvqfr0","pricing_plan_id":"cebpf4jnsgd1na2vs0mg"},{"bike_id":"eb8c6995-9210-4c81-8dc9-0cf713d89300","system_id":"levelo_inurba_marseille","lat":43.217514,"lon":5.346032,"is_reserved":false,"is_disabled":false,"rental_uris":{"android":"levelo://app?vid=eb8c6995-9210-4c81-8dc9-0cf713d89300","ios":"levelo://app?vid=eb8c6995-9210-4c81-8dc9-0cf713d89300"},"vehicle_type_id":"4","last_reported":1745759784,"current_range_meters":11200,"station_id":"st_cvj6r9ubvosntc0bgbag","pricing_plan_id":"cebpf4jnsgd1na2vs0mg"},{"bike_id":"66c89bb7-3b13-49ff-b8c5-0823b0bd91cb","system_id":"levelo_inurba_marseille","lat":43.2619,"lon":5.37445,"is_reserved":false,"is_disabled":true,"rental_uris":{"android":"levelo://app?vid=66c89bb7-3b13-49ff-b8c5-0823b0bd91cb","ios":"levelo://app?vid=66c89bb7-3b13-49ff-b8c5-0823b0bd91cb"},"vehicle_type_id":"4","last_reported":1745759784,"current_range_meters":11200,"station_id":"ce4bhgp2rcd13ifvqfc0","pricing_plan_id":"cebpf4jnsgd1na2vs0mg"},{"bike_id":"91474842-32bf-45c2-856a-80fd91d22aa5","system_id":"levelo_inurba_marseille","lat":43.21199,"lon":5.35063,"is_reserved":false,"is_disabled":false,"rental_uris":{"android":"levelo://app?vid=91474842-32bf-45c2-856a-80fd91d22aa5","ios":"levelo://app?vid=91474842-32bf-45c2-856a-80fd91d22aa5"},"vehicle_type_id":"4","last_reported":1745759784,"current_range_meters":11200,"station_id":"st_cvj6sg6p6f1abm77japg","pricing_plan_id":"cebpf4jnsgd1na2vs0mg"},{"bike_id":"8840b7d1-badd-45b4-91db-50feaeb6b7ed","system_id":"levelo_inurba_marseille","lat":43.31018,"lon":5.36724,"is_reserved":false,"is_disabled":false,"rental_uris":{"android":"levelo://app?vid=8840b7d1-badd-45b4-91db-50feaeb6b7ed","ios":"levelo://app?vid=8840b7d1-badd-45b4-91db-50feaeb6b7ed"},"vehicle_type_id":"4","last_reported":1745759784,"current_range_meters":11200,"station_id":"","pricing_plan_id":"cebpf4jnsgd1na2vs0mg"},{"bike_id":"33736c6d-2276-4241-a8f5-b837a7b1fadd","system_id":"levelo_inurba_marseille","lat":43.27837,"lon":5.39202,"is_reserved":false,"is_disabled":false,"rental_uris":{"android":"levelo://app?vid=33736c6d-2276-4241-a8f5-b837a7b1fadd","ios":"levelo://app?vid=33736c6d-2276-4241-a8f5-b837a7b1fadd"},"vehicle_type_id":"4","last_reported":1745759784,"current_range_meters":11600,"station_id":"ce4bhjp2rcd13ifvqga0","pricing_plan_id":"cebpf4jnsgd1na2vs0mg"},{"bike_id":"214a0b84-174a-49d9-9b79-d765caca318d","system_id":"levelo_inurba_marseille","lat":43.2818,"lon":5.42632,"is_reserved":false,"is_disabled":false,"rental_uris":{"android":"levelo://app?vid=214a0b84-174a-49d9-9b79-d765caca318d","ios":"levelo://app?vid=214a0b84-174a-49d9-9b79-d765caca318d"},"vehicle_type_id":"4","last_reported":1745759784,"current_range_meters":11600,"station_id":"ce4bhnh2rcd13ifvqgug","pricing_plan_id":"cebpf4jnsgd1na2vs0mg"},{"bike_id":"30288cb7-e849-4b02-8ab1-96deccfd974f","system_id":"levelo_inurba_marseille","lat":43.2397,"lon":5.36614,"is_reserved":false,"is_disabled":false,"rental_uris":{"android":"levelo://app?vid=30288cb7-e849-4b02-8ab1-96deccfd974f","ios":"levelo://app?vid=30288cb7-e849-4b02-8ab1-96deccfd974f"},"vehicle_type_id":"4","last_reported":1745759784,"current_range_meters":11600,"station_id":"ce4bhi12rcd13ifvqfp0","pricing_plan_id":"cebpf4jnsgd1na2vs0mg"},{"bike_id":"69fddacb-dab9-455a-9c5d-d476dbc440eb","system_id":"levelo_inurba_marseille","lat":43.31321,"lon":5.39716,"is_reserved":false,"is_disabled":false,"rental_uris":{"android":"levelo://app?vid=69fddacb-dab9-455a-9c5d-d476dbc440eb","ios":"levelo://app?vid=69fddacb-dab9-455a-9c5d-d476dbc440eb"},"vehicle_type_id":"4","last_reported":1745759784,"current_range_meters":11600,"station_id":"ce4bgvp2rcd13ifvqcu0","pricing_plan_id":"cebpf4jnsgd1na2vs0mg"},{"bike_id":"44530a1d-b48a-47f5-a929-63b20a3c24dc","system_id":"levelo_inurba_marseille","lat":43.24171,"lon":5.36393,"is_reserved":false,"is_disabled":false,"rental_uris":{"android":"levelo://app?vid=44530a1d-b48a-47f5-a929-63b20a3c24dc","ios":"levelo://app?vid=44530a1d-b48a-47f5-a929-63b20a3c24dc"},"vehicle_type_id":"4","last_reported":1745759784,"current_range_meters":11600,"station_id":"cpo36qri1sfpv3e86is0","pricing_plan_id":"cebpf4jnsgd1na2vs0mg"},{"bike_id":"af4a97e0-dded-4da0-9eba-7bcd01c44383","system_id":"levelo_inurba_marseille","lat":43.30311,"lon":5.39214,"is_reserved":false,"is_disabled":true,"rental_uris":{"android":"levelo://app?vid=af4a97e0-dded-4da0-9eba-7bcd01c44383","ios":"levelo://app?vid=af4a97e0-dded-4da0-9eba-7bcd01c44383"},"vehicle_type_id":"4","last_reported":1745759784,"current_range_meters":11600,"station_id":"ce4bgkh2rcd13ifvqbk0","pricing_plan_id":"cebpf4jnsgd1na2vs0mg"},{"bike_id":"13d55175-0ceb-4e97-9569-239d7a74e5fd","system_id":"levelo_inurba_marseille","lat":43.30147,"lon":5.37418,"is_reserved":false,"is_disabled":false,"rental_uris":{"android":"levelo://app?vid=13d55175-0ceb-4e97-9569-239d7a74e5fd","ios":"levelo://app?vid=13d55175-0ceb-4e97-9569-239d7a74e5fd"},"vehicle_type_id":"4","last_reported":1745759784,"current_range_meters":11600,"station_id":"ce4bgs92rcd13ifvqcc0","pricing_plan_id":"cebpf4jnsgd1na2vs0mg"},{"bike_id":"acb13b96-bfa0-4f3f-9938-e04a353c9b35","system_id":"levelo_inurba_marseille","lat":43.33024,"lon":5.39037,"is_reserved":false,"is_disabled":false,"rental_uris":{"android":"levelo://app?vid=acb13b96-bfa0-4f3f-9938-e04a353c9b35","ios":"levelo://app?vid=acb13b96-bfa0-4f3f-9938-e04a353c9b35"},"vehicle_type_id":"4","last_reported":1745759784,"current_range_meters":11600,"station_id":"ce4bhr92rcd13ifvqhrg","pricing_plan_id":"cebpf4jnsgd1na2vs0mg"},{"bike_id":"cf0ee361-6c47-4a99-81ad-2c1b96166467","system_id":"levelo_inurba_marseille","lat":43.21759,"lon":5.34598,"is_reserved":false,"is_disabled":false,"rental_uris":{"android":"levelo://app?vid=cf0ee361-6c47-4a99-81ad-2c1b96166467","ios":"levelo://app?vid=cf0ee361-6c47-4a99-81ad-2c1b96166467"},"vehicle_type_id":"4","last_reported":1745759784,"current_range_meters":11600,"station_id":"st_cvj6r9ubvosntc0bgbag","pricing_plan_id":"cebpf4jnsgd1na2vs0mg"},{"bike_id":"554c7222-d609-4841-a832-33adb157bebb","system_id":"levelo_inurba_marseille","lat":43.21189,"lon":5.35068,"is_reserved":false,"is_disabled":false,"rental_uris":{"android":"levelo://app?vid=554c7222-d609-4841-a832-33adb157bebb","ios":"levelo://app?vid=554c7222-d609-4841-a832-33adb157bebb"},"vehicle_type_id":"4","last_reported":1745759784,"current_range_meters":11600,"station_id":"st_cvj6sg6p6f1abm77japg","pricing_plan_id":"cebpf4jnsgd1na2vs0mg"},{"bike_id":"21a5b78b-6652-49fa-a8ee-70531791ccf1","system_id":"levelo_inurba_marseille","lat":43.24882,"lon":5.42521,"is_reserved":false,"is_disabled":false,"rental_uris":{"android":"levelo://app?vid=21a5b78b-6652-49fa-a8ee-70531791ccf1","ios":"levelo://app?vid=21a5b78b-6652-49fa-a8ee-70531791ccf1"},"vehicle_type_id":"4","last_reported":1745759784,"current_range_meters":11600,"station_id":"","pricing_plan_id":"cebpf4jnsgd1na2vs0mg"},{"bike_id":"cb4a7fc8-cf94-4858-bcfa-2d33fc012aac","system_id":"levelo_inurba_marseille","lat":43.27172,"lon":5.40989,"is_reserved":false,"is_disabled":false,"rental_uris":{"android":"levelo://app?vid=cb4a7fc8-cf94-4858-bcfa-2d33fc012aac","ios":"levelo://app?vid=cb4a7fc8-cf94-4858-bcfa-2d33fc012aac"},"vehicle_type_id":"4","last_reported":1745759784,"current_range_meters":12000,"station_id":"ce4bhl12rcd13ifvqgf0","pricing_plan_id":"cebpf4jnsgd1na2vs0mg"},{"bike_id":"470edaf9-a553-441b-a6e6-e7b3f6f03c02","system_id":"levelo_inurba_marseille","lat":43.26925,"lon":5.38671,"is_reserved":false,"is_disabled":false,"rental_uris":{"android":"levelo://app?vid=470edaf9-a553-441b-a6e6-e7b3f6f03c02","ios":"levelo://app?vid=470edaf9-a553-441b-a6e6-e7b3f6f03c02"},"vehicle_type_id":"4","last_reported":1745759784,"current_range_meters":12000,"station_id":"ce4bhhh2rcd13ifvqfl0","pricing_plan_id":"cebpf4jnsgd1na2vs0mg"},{"bike_id":"a156b204-3c58-4416-bf51-5dcdf83a2996","system_id":"levelo_inurba_marseille","lat":43.29002,"lon":5.35607,"is_reserved":false,"is_disabled":false,"rental_uris":{"android":"levelo://app?vid=a156b204-3c58-4416-bf51-5dcdf83a2996","ios":"levelo://app?vid=a156b204-3c58-4416-bf51-5dcdf83a2996"},"vehicle_type_id":"4","last_reported":1745759784,"current_range_meters":12000,"station_id":"ce4bhb92rcd13ifvqen0","pricing_plan_id":"cebpf4jnsgd1na2vs0mg"},{"bike_id":"8aefe16e-4098-4acc-b378-ac641d76d6b7","system_id":"levelo_inurba_marseille","lat":43.32288,"lon":5.38273,"is_reserved":false,"is_disabled":false,"rental_uris":{"android":"levelo://app?vid=8aefe16e-4098-4acc-b378-ac641d76d6b7","ios":"levelo://app?vid=8aefe16e-4098-4acc-b378-ac641d76d6b7"},"vehicle_type_id":"4","last_reported":1745759784,"current_range_meters":12400,"station_id":"ce4bhr12rcd13ifvqhqg","pricing_plan_id":"cebpf4jnsgd1na2vs0mg"},{"bike_id":"a08e6535-7d97-4f82-b424-5e6daf2d2362","system_id":"levelo_inurba_marseille","lat":43.29506,"lon":5.39389,"is_reserved":false,"is_disabled":true,"rental_uris":{"android":"levelo://app?vid=a08e6535-7d97-4f82-b424-5e6daf2d2362","ios":"levelo://app?vid=a08e6535-7d97-4f82-b424-5e6daf2d2362"},"vehicle_type_id":"4","last_reported":1745759784,"current_range_meters":12400,"station_id":"ce4bh292rcd13ifvqdf0","pricing_plan_id":"cebpf4jnsgd1na2vs0mg"},{"bike_id":"5c47417b-1103-44da-8ff6-b442bdcf5332","system_id":"levelo_inurba_marseille","lat":43.305278,"lon":5.367084,"is_reserved":false,"is_disabled":false,"rental_uris":{"android":"levelo://app?vid=5c47417b-1103-44da-8ff6-b442bdcf5332","ios":"levelo://app?vid=5c47417b-1103-44da-8ff6-b442bdcf5332"},"vehicle_type_id":"4","last_reported":1745759784,"current_range_meters":12800,"station_id":"ce4bgrp2rcd13ifvqc9g","pricing_plan_id":"cebpf4jnsgd1na2vs0mg"},{"bike_id":"356b76a1-af1a-4bef-951e-98e5b057a721","system_id":"levelo_inurba_marseille","lat":43.29246,"lon":5.3843,"is_reserved":false,"is_disabled":true,"rental_uris":{"android":"levelo://app?vid=356b76a1-af1a-4bef-951e-98e5b057a721","ios":"levelo://app?vid=356b76a1-af1a-4bef-951e-98e5b057a721"},"vehicle_type_id":"4","last_reported":1745759784,"current_range_meters":12800,"station_id":"ce4bh692rcd13ifvqea0","pricing_plan_id":"cebpf4jnsgd1na2vs0mg"},{"bike_id":"8338af84-ea4b-4869-9b2f-d3a452093ce0","system_id":"levelo_inurba_marseille","lat":43.30537,"lon":5.36574,"is_reserved":false,"is_disabled":false,"rental_uris":{"android":"levelo://app?vid=8338af84-ea4b-4869-9b2f-d3a452093ce0","ios":"levelo://app?vid=8338af84-ea4b-4869-9b2f-d3a452093ce0"},"vehicle_type_id":"4","last_reported":1745759784,"current_range_meters":12800,"station_id":"ce4bgs12rcd13ifvqcag","pricing_plan_id":"cebpf4jnsgd1na2vs0mg"},{"bike_id":"560f12bb-1614-4d7c-b78e-ccf5bdec9ea6","system_id":"levelo_inurba_marseille","lat":43.28431,"lon":5.3591,"is_reserved":false,"is_disabled":true,"rental_uris":{"android":"levelo://app?vid=560f12bb-1614-4d7c-b78e-ccf5bdec9ea6","ios":"levelo://app?vid=560f12bb-1614-4d7c-b78e-ccf5bdec9ea6"},"vehicle_type_id":"4","last_reported":1745759784,"current_range_meters":12800,"station_id":"ce4bhah2rcd13ifvqei0","pricing_plan_id":"cebpf4jnsgd1na2vs0mg"},{"bike_id":"717cabec-6d1e-4fbd-94f4-9e9366fab599","system_id":"levelo_inurba_marseille","lat":43.22509,"lon":5.34779,"is_reserved":false,"is_disabled":true,"rental_uris":{"android":"levelo://app?vid=717cabec-6d1e-4fbd-94f4-9e9366fab599","ios":"levelo://app?vid=717cabec-6d1e-4fbd-94f4-9e9366fab599"},"vehicle_type_id":"4","last_reported":1745759784,"current_range_meters":13600,"station_id":"st_cvj5dfep6f1abm77gieg","pricing_plan_id":"cebpf4jnsgd1na2vs0mg"},{"bike_id":"9111363c-e358-4cc0-9632-937d6be3578a","system_id":"levelo_inurba_marseille","lat":43.28003,"lon":5.39992,"is_reserved":false,"is_disabled":false,"rental_uris":{"android":"levelo://app?vid=9111363c-e358-4cc0-9632-937d6be3578a","ios":"levelo://app?vid=9111363c-e358-4cc0-9632-937d6be3578a"},"vehicle_type_id":"4","last_reported":1745759784,"current_range_meters":13600,"station_id":"ce4bho92rcd13ifvqh4g","pricing_plan_id":"cebpf4jnsgd1na2vs0mg"},{"bike_id":"2f2f8714-abfe-4410-9de3-8ea4c4e95653","system_id":"levelo_inurba_marseille","lat":43.26557,"lon":5.37281,"is_reserved":false,"is_disabled":false,"rental_uris":{"android":"levelo://app?vid=2f2f8714-abfe-4410-9de3-8ea4c4e95653","ios":"levelo://app?vid=2f2f8714-abfe-4410-9de3-8ea4c4e95653"},"vehicle_type_id":"4","last_reported":1745759784,"current_range_meters":13600,"station_id":"","pricing_plan_id":"cebpf4jnsgd1na2vs0mg"},{"bike_id":"1ca538cc-7262-418c-ae5b-fc46e6b3282f","system_id":"levelo_inurba_marseille","lat":43.29962,"lon":5.36509,"is_reserved":false,"is_disabled":false,"rental_uris":{"android":"levelo://app?vid=1ca538cc-7262-418c-ae5b-fc46e6b3282f","ios":"levelo://app?vid=1ca538cc-7262-418c-ae5b-fc46e6b3282f"},"vehicle_type_id":"4","last_reported":1745759784,"current_range_meters":14000,"station_id":"ce4bgm92rcd13ifvqbr0","pricing_plan_id":"cebpf4jnsgd1na2vs0mg"},{"bike_id":"36b076f3-7b23-43c0-96a9-34d3c5b13524","system_id":"levelo_inurba_marseille","lat":43.23149,"lon":5.43731,"is_reserved":false,"is_disabled":false,"rental_uris":{"android":"levelo://app?vid=36b076f3-7b23-43c0-96a9-34d3c5b13524","ios":"levelo://app?vid=36b076f3-7b23-43c0-96a9-34d3c5b13524"},"vehicle_type_id":"4","last_reported":1745759784,"current_range_meters":14000,"station_id":"ce4bhmp2rcd13ifvqgog","pricing_plan_id":"cebpf4jnsgd1na2vs0mg"},{"bike_id":"e85d165e-8bbd-4f3e-8ad9-472e145f79e1","system_id":"levelo_inurba_marseille","lat":43.28854,"lon":5.3584,"is_reserved":false,"is_disabled":false,"rental_uris":{"android":"levelo://app?vid=e85d165e-8bbd-4f3e-8ad9-472e145f79e1","ios":"levelo://app?vid=e85d165e-8bbd-4f3e-8ad9-472e145f79e1"},"vehicle_type_id":"4","last_reported":1745759784,"current_range_meters":14000,"station_id":"ce4bhb12rcd13ifvqem0","pricing_plan_id":"cebpf4jnsgd1na2vs0mg"},{"bike_id":"e2ebe0b4-27e2-4f46-bdf4-e1916df46672","system_id":"levelo_inurba_marseille","lat":43.31767,"lon":5.40598,"is_reserved":false,"is_disabled":false,"rental_uris":{"android":"levelo://app?vid=e2ebe0b4-27e2-4f46-bdf4-e1916df46672","ios":"levelo://app?vid=e2ebe0b4-27e2-4f46-bdf4-e1916df46672"},"vehicle_type_id":"4","last_reported":1745759784,"current_range_meters":14000,"station_id":"","pricing_plan_id":"cebpf4jnsgd1na2vs0mg"},{"bike_id":"57ebd52c-bbc8-4a4d-8d80-2da8f6250dbd","system_id":"levelo_inurba_marseille","lat":43.278219,"lon":5.407109,"is_reserved":false,"is_disabled":true,"rental_uris":{"android":"levelo://app?vid=57ebd52c-bbc8-4a4d-8d80-2da8f6250dbd","ios":"levelo://app?vid=57ebd52c-bbc8-4a4d-8d80-2da8f6250dbd"},"vehicle_type_id":"4","last_reported":1745759784,"current_range_meters":14400,"station_id":"ce4bhnh2rcd13ifvqgtg","pricing_plan_id":"cebpf4jnsgd1na2vs0mg"},{"bike_id":"f2ff6ce0-069b-4351-961b-6db0bf33ba42","system_id":"levelo_inurba_marseille","lat":43.27436,"lon":5.39438,"is_reserved":false,"is_disabled":false,"rental_uris":{"android":"levelo://app?vid=f2ff6ce0-069b-4351-961b-6db0bf33ba42","ios":"levelo://app?vid=f2ff6ce0-069b-4351-961b-6db0bf33ba42"},"vehicle_type_id":"4","last_reported":1745759784,"current_range_meters":16400,"station_id":"ce4bhdp2rcd13ifvqf20","pricing_plan_id":"cebpf4jnsgd1na2vs0mg"},{"bike_id":"a7198c19-fdc9-4a7a-95e0-a894ca54152c","system_id":"levelo_inurba_marseille","lat":43.3099,"lon":5.41711,"is_reserved":false,"is_disabled":false,"rental_uris":{"android":"levelo://app?vid=a7198c19-fdc9-4a7a-95e0-a894ca54152c","ios":"levelo://app?vid=a7198c19-fdc9-4a7a-95e0-a894ca54152c"},"vehicle_type_id":"4","last_reported":1745759784,"current_range_meters":14800,"station_id":"","pricing_plan_id":"cebpf4jnsgd1na2vs0mg"},{"bike_id":"993d155e-4fc2-44f9-a8d2-28355792e8f9","system_id":"levelo_inurba_marseille","lat":43.29528,"lon":5.38545,"is_reserved":false,"is_disabled":false,"rental_uris":{"android":"levelo://app?vid=993d155e-4fc2-44f9-a8d2-28355792e8f9","ios":"levelo://app?vid=993d155e-4fc2-44f9-a8d2-28355792e8f9"},"vehicle_type_id":"4","last_reported":1745759784,"current_range_meters":14800,"station_id":"ce4bgih2rcd13ifvqba0","pricing_plan_id":"cebpf4jnsgd1na2vs0mg"},{"bike_id":"edb7787a-c68b-4c3c-a204-0dcc8d513b0d","system_id":"levelo_inurba_marseille","lat":43.24668,"lon":5.38153,"is_reserved":false,"is_disabled":false,"rental_uris":{"android":"levelo://app?vid=edb7787a-c68b-4c3c-a204-0dcc8d513b0d","ios":"levelo://app?vid=edb7787a-c68b-4c3c-a204-0dcc8d513b0d"},"vehicle_type_id":"4","last_reported":1745759784,"current_range_meters":15200,"station_id":"ce4bhih2rcd13ifvqfr0","pricing_plan_id":"cebpf4jnsgd1na2vs0mg"},{"bike_id":"bbebbef6-e7cd-4587-b081-e618bb8e23ad","system_id":"levelo_inurba_marseille","lat":43.304729,"lon":5.379106,"is_reserved":false,"is_disabled":false,"rental_uris":{"android":"levelo://app?vid=bbebbef6-e7cd-4587-b081-e618bb8e23ad","ios":"levelo://app?vid=bbebbef6-e7cd-4587-b081-e618bb8e23ad"},"vehicle_type_id":"4","last_reported":1745759784,"current_range_meters":15200,"station_id":"ce4bgup2rcd13ifvqcn0","pricing_plan_id":"cebpf4jnsgd1na2vs0mg"},{"bike_id":"073ecbc0-4764-4918-8fc5-90290dd89f47","system_id":"levelo_inurba_marseille","lat":43.28673,"lon":5.3868,"is_reserved":false,"is_disabled":false,"rental_uris":{"android":"levelo://app?vid=073ecbc0-4764-4918-8fc5-90290dd89f47","ios":"levelo://app?vid=073ecbc0-4764-4918-8fc5-90290dd89f47"},"vehicle_type_id":"4","last_reported":1745759784,"current_range_meters":15200,"station_id":"ce4bh492rcd13ifvqdug","pricing_plan_id":"cebpf4jnsgd1na2vs0mg"},{"bike_id":"16b75a5c-0fa3-4253-85ed-5154531053c0","system_id":"levelo_inurba_marseille","lat":43.21189,"lon":5.35067,"is_reserved":false,"is_disabled":false,"rental_uris":{"android":"levelo://app?vid=16b75a5c-0fa3-4253-85ed-5154531053c0","ios":"levelo://app?vid=16b75a5c-0fa3-4253-85ed-5154531053c0"},"vehicle_type_id":"4","last_reported":1745759784,"current_range_meters":15200,"station_id":"ce4bhe12rcd13ifvqf30","pricing_plan_id":"cebpf4jnsgd1na2vs0mg"},{"bike_id":"8fb085b2-d83f-48ae-a83b-6f493665f231","system_id":"levelo_inurba_marseille","lat":43.315263,"lon":5.380373,"is_reserved":false,"is_disabled":false,"rental_uris":{"android":"levelo://app?vid=8fb085b2-d83f-48ae-a83b-6f493665f231","ios":"levelo://app?vid=8fb085b2-d83f-48ae-a83b-6f493665f231"},"vehicle_type_id":"4","last_reported":1745759784,"current_range_meters":15200,"station_id":"ce4bhsp2rcd13ifvqi50","pricing_plan_id":"cebpf4jnsgd1na2vs0mg"},{"bike_id":"1fe84233-d6e6-400c-ba7e-765c53207954","system_id":"levelo_inurba_marseille","lat":43.26063,"lon":5.39374,"is_reserved":false,"is_disabled":false,"rental_uris":{"android":"levelo://app?vid=1fe84233-d6e6-400c-ba7e-765c53207954","ios":"levelo://app?vid=1fe84233-d6e6-400c-ba7e-765c53207954"},"vehicle_type_id":"4","last_reported":1745759784,"current_range_meters":15200,"station_id":"ce4bhh92rcd13ifvqfj0","pricing_plan_id":"cebpf4jnsgd1na2vs0mg"},{"bike_id":"b330c3b4-8203-49c9-a4bf-5485d09a1d2d","system_id":"levelo_inurba_marseille","lat":43.30215,"lon":5.39461,"is_reserved":false,"is_disabled":true,"rental_uris":{"android":"levelo://app?vid=b330c3b4-8203-49c9-a4bf-5485d09a1d2d","ios":"levelo://app?vid=b330c3b4-8203-49c9-a4bf-5485d09a1d2d"},"vehicle_type_id":"4","last_reported":1745759784,"current_range_meters":15200,"station_id":"ce4bh0p2rcd13ifvqd70","pricing_plan_id":"cebpf4jnsgd1na2vs0mg"},{"bike_id":"ffe5006a-8288-44d2-9cf5-66ad041bd6fd","system_id":"levelo_inurba_marseille","lat":43.24155,"lon":5.364,"is_reserved":false,"is_disabled":false,"rental_uris":{"android":"levelo://app?vid=ffe5006a-8288-44d2-9cf5-66ad041bd6fd","ios":"levelo://app?vid=ffe5006a-8288-44d2-9cf5-66ad041bd6fd"},"vehicle_type_id":"4","last_reported":1745759784,"current_range_meters":15200,"station_id":"cpo36qri1sfpv3e86is0","pricing_plan_id":"cebpf4jnsgd1na2vs0mg"},{"bike_id":"58af188a-7f03-4b4d-9211-40bd147a87a9","system_id":"levelo_inurba_marseille","lat":43.25115,"lon":5.40319,"is_reserved":false,"is_disabled":false,"rental_uris":{"android":"levelo://app?vid=58af188a-7f03-4b4d-9211-40bd147a87a9","ios":"levelo://app?vid=58af188a-7f03-4b4d-9211-40bd147a87a9"},"vehicle_type_id":"4","last_reported":1745759784,"current_range_meters":16000,"station_id":"ce4bhlh2rcd13ifvqgig","pricing_plan_id":"cebpf4jnsgd1na2vs0mg"},{"bike_id":"0d777af5-4166-475a-a6b9-6a0197032592","system_id":"levelo_inurba_marseille","lat":43.23271,"lon":5.35216,"is_reserved":false,"is_disabled":false,"rental_uris":{"android":"levelo://app?vid=0d777af5-4166-475a-a6b9-6a0197032592","ios":"levelo://app?vid=0d777af5-4166-475a-a6b9-6a0197032592"},"vehicle_type_id":"4","last_reported":1745759784,"current_range_meters":16000,"station_id":"","pricing_plan_id":"cebpf4jnsgd1na2vs0mg"},{"bike_id":"89e7ab08-7fc9-416d-a96f-130de8b43266","system_id":"levelo_inurba_marseille","lat":43.3374,"lon":5.39213,"is_reserved":false,"is_disabled":false,"rental_uris":{"android":"levelo://app?vid=89e7ab08-7fc9-416d-a96f-130de8b43266","ios":"levelo://app?vid=89e7ab08-7fc9-416d-a96f-130de8b43266"},"vehicle_type_id":"4","last_reported":1745759784,"current_range_meters":16000,"station_id":"ce4bhr92rcd13ifvqhsg","pricing_plan_id":"cebpf4jnsgd1na2vs0mg"},{"bike_id":"2854030f-4435-4f6c-a22c-3e1447f3bf2d","system_id":"levelo_inurba_marseille","lat":43.30555,"lon":5.36528,"is_reserved":false,"is_disabled":false,"rental_uris":{"android":"levelo://app?vid=2854030f-4435-4f6c-a22c-3e1447f3bf2d","ios":"levelo://app?vid=2854030f-4435-4f6c-a22c-3e1447f3bf2d"},"vehicle_type_id":"4","last_reported":1745759784,"current_range_meters":16000,"station_id":"ce4bgs12rcd13ifvqcag","pricing_plan_id":"cebpf4jnsgd1na2vs0mg"},{"bike_id":"67c71c8f-165b-4e86-b66b-1bc1e8ea9467","system_id":"levelo_inurba_marseille","lat":43.281072,"lon":5.3783,"is_reserved":false,"is_disabled":false,"rental_uris":{"android":"levelo://app?vid=67c71c8f-165b-4e86-b66b-1bc1e8ea9467","ios":"levelo://app?vid=67c71c8f-165b-4e86-b66b-1bc1e8ea9467"},"vehicle_type_id":"4","last_reported":1745759784,"current_range_meters":16000,"station_id":"ce4bha12rcd13ifvqee0","pricing_plan_id":"cebpf4jnsgd1na2vs0mg"},{"bike_id":"3d934169-6946-46cc-87a4-ce5d03b77075","system_id":"levelo_inurba_marseille","lat":43.21758,"lon":5.34588,"is_reserved":false,"is_disabled":false,"rental_uris":{"android":"levelo://app?vid=3d934169-6946-46cc-87a4-ce5d03b77075","ios":"levelo://app?vid=3d934169-6946-46cc-87a4-ce5d03b77075"},"vehicle_type_id":"4","last_reported":1745759784,"current_range_meters":16000,"station_id":"st_cvj6r9ubvosntc0bgbag","pricing_plan_id":"cebpf4jnsgd1na2vs0mg"},{"bike_id":"4d90eb9c-3f2c-4f81-b886-9d9cf0760dd5","system_id":"levelo_inurba_marseille","lat":43.31057,"lon":5.38346,"is_reserved":false,"is_disabled":false,"rental_uris":{"android":"levelo://app?vid=4d90eb9c-3f2c-4f81-b886-9d9cf0760dd5","ios":"levelo://app?vid=4d90eb9c-3f2c-4f81-b886-9d9cf0760dd5"},"vehicle_type_id":"4","last_reported":1745759784,"current_range_meters":16000,"station_id":"ce4bgv92rcd13ifvqcr0","pricing_plan_id":"cebpf4jnsgd1na2vs0mg"},{"bike_id":"389fa13e-9fb8-4551-94cc-3437e858ed36","system_id":"levelo_inurba_marseille","lat":43.24178,"lon":5.36376,"is_reserved":false,"is_disabled":false,"rental_uris":{"android":"levelo://app?vid=389fa13e-9fb8-4551-94cc-3437e858ed36","ios":"levelo://app?vid=389fa13e-9fb8-4551-94cc-3437e858ed36"},"vehicle_type_id":"4","last_reported":1745759784,"current_range_meters":16000,"station_id":"cpo36qri1sfpv3e86is0","pricing_plan_id":"cebpf4jnsgd1na2vs0mg"},{"bike_id":"a6ef5e73-9c2a-4c3a-b853-48e28d6dc161","system_id":"levelo_inurba_marseille","lat":43.317086,"lon":5.436836,"is_reserved":false,"is_disabled":true,"rental_uris":{"android":"levelo://app?vid=a6ef5e73-9c2a-4c3a-b853-48e28d6dc161","ios":"levelo://app?vid=a6ef5e73-9c2a-4c3a-b853-48e28d6dc161"},"vehicle_type_id":"4","last_reported":1745759784,"current_range_meters":16000,"station_id":"ce4bhp92rcd13ifvqhcg","pricing_plan_id":"cebpf4jnsgd1na2vs0mg"},{"bike_id":"99be1414-58ff-4752-826b-d0dcc4401711","system_id":"levelo_inurba_marseille","lat":43.24812,"lon":5.37463,"is_reserved":false,"is_disabled":true,"rental_uris":{"android":"levelo://app?vid=99be1414-58ff-4752-826b-d0dcc4401711","ios":"levelo://app?vid=99be1414-58ff-4752-826b-d0dcc4401711"},"vehicle_type_id":"4","last_reported":1745759784,"current_range_meters":16000,"station_id":"ce4bhgh2rcd13ifvqfb0","pricing_plan_id":"cebpf4jnsgd1na2vs0mg"},{"bike_id":"69e5c4e0-855c-4f8e-ad63-6da4fb87c7f0","system_id":"levelo_inurba_marseille","lat":43.26935,"lon":5.40232,"is_reserved":false,"is_disabled":false,"rental_uris":{"android":"levelo://app?vid=69e5c4e0-855c-4f8e-ad63-6da4fb87c7f0","ios":"levelo://app?vid=69e5c4e0-855c-4f8e-ad63-6da4fb87c7f0"},"vehicle_type_id":"4","last_reported":1745759784,"current_range_meters":16400,"station_id":"cjm6bp8fraef2m0cb0m0","pricing_plan_id":"cebpf4jnsgd1na2vs0mg"},{"bike_id":"490e0780-a085-4548-b43e-5659e113bcfb","system_id":"levelo_inurba_marseille","lat":43.23181,"lon":5.39997,"is_reserved":false,"is_disabled":false,"rental_uris":{"android":"levelo://app?vid=490e0780-a085-4548-b43e-5659e113bcfb","ios":"levelo://app?vid=490e0780-a085-4548-b43e-5659e113bcfb"},"vehicle_type_id":"4","last_reported":1745759784,"current_range_meters":16400,"station_id":"ce4bhn12rcd13ifvqgqg","pricing_plan_id":"cebpf4jnsgd1na2vs0mg"},{"bike_id":"3262ef48-5b0f-4520-94c7-0c51c54a7db8","system_id":"levelo_inurba_marseille","lat":43.299143,"lon":5.374587,"is_reserved":false,"is_disabled":false,"rental_uris":{"android":"levelo://app?vid=3262ef48-5b0f-4520-94c7-0c51c54a7db8","ios":"levelo://app?vid=3262ef48-5b0f-4520-94c7-0c51c54a7db8"},"vehicle_type_id":"4","last_reported":1745759784,"current_range_meters":16400,"station_id":"ce4bgjh2rcd13ifvqbg0","pricing_plan_id":"cebpf4jnsgd1na2vs0mg"},{"bike_id":"647355cc-822f-41e4-b0fe-856d5a69a337","system_id":"levelo_inurba_marseille","lat":43.21181,"lon":5.35057,"is_reserved":false,"is_disabled":false,"rental_uris":{"android":"levelo://app?vid=647355cc-822f-41e4-b0fe-856d5a69a337","ios":"levelo://app?vid=647355cc-822f-41e4-b0fe-856d5a69a337"},"vehicle_type_id":"4","last_reported":1745759784,"current_range_meters":16800,"station_id":"st_cvj6sg6p6f1abm77japg","pricing_plan_id":"cebpf4jnsgd1na2vs0mg"},{"bike_id":"8efd3606-6323-4bad-8f10-3a3a29d2ed8c","system_id":"levelo_inurba_marseille","lat":43.32109,"lon":5.36771,"is_reserved":false,"is_disabled":false,"rental_uris":{"android":"levelo://app?vid=8efd3606-6323-4bad-8f10-3a3a29d2ed8c","ios":"levelo://app?vid=8efd3606-6323-4bad-8f10-3a3a29d2ed8c"},"vehicle_type_id":"4","last_reported":1745759784,"current_range_meters":16800,"station_id":"ce4bhrh2rcd13ifvqhug","pricing_plan_id":"cebpf4jnsgd1na2vs0mg"},{"bike_id":"4046a82f-66e8-4b55-bd0a-356edea772d8","system_id":"levelo_inurba_marseille","lat":43.3062,"lon":5.38134,"is_reserved":false,"is_disabled":false,"rental_uris":{"android":"levelo://app?vid=4046a82f-66e8-4b55-bd0a-356edea772d8","ios":"levelo://app?vid=4046a82f-66e8-4b55-bd0a-356edea772d8"},"vehicle_type_id":"4","last_reported":1745759784,"current_range_meters":16800,"station_id":"","pricing_plan_id":"cebpf4jnsgd1na2vs0mg"},{"bike_id":"f360aaad-e350-49e9-8191-58ce4616eb13","system_id":"levelo_inurba_marseille","lat":43.212,"lon":5.35084,"is_reserved":false,"is_disabled":true,"rental_uris":{"android":"levelo://app?vid=f360aaad-e350-49e9-8191-58ce4616eb13","ios":"levelo://app?vid=f360aaad-e350-49e9-8191-58ce4616eb13"},"vehicle_type_id":"4","last_reported":1745759784,"current_range_meters":16800,"station_id":"st_cvj6sg6p6f1abm77japg","pricing_plan_id":"cebpf4jnsgd1na2vs0mg"},{"bike_id":"97f36b89-3f79-4d54-80b9-0001fe6da6bb","system_id":"levelo_inurba_marseille","lat":43.32445,"lon":5.39134,"is_reserved":false,"is_disabled":true,"rental_uris":{"android":"levelo://app?vid=97f36b89-3f79-4d54-80b9-0001fe6da6bb","ios":"levelo://app?vid=97f36b89-3f79-4d54-80b9-0001fe6da6bb"},"vehicle_type_id":"4","last_reported":1745759784,"current_range_meters":16800,"station_id":"","pricing_plan_id":"cebpf4jnsgd1na2vs0mg"},{"bike_id":"3eb263e5-5900-4190-b71d-84a0e8e02d23","system_id":"levelo_inurba_marseille","lat":43.31366,"lon":5.384876,"is_reserved":false,"is_disabled":false,"rental_uris":{"android":"levelo://app?vid=3eb263e5-5900-4190-b71d-84a0e8e02d23","ios":"levelo://app?vid=3eb263e5-5900-4190-b71d-84a0e8e02d23"},"vehicle_type_id":"4","last_reported":1745759784,"current_range_meters":17200,"station_id":"ce4bgl92rcd13ifvqbq0","pricing_plan_id":"cebpf4jnsgd1na2vs0mg"},{"bike_id":"d8e186e0-8d9f-4c16-bb12-3c50f63fd666","system_id":"levelo_inurba_marseille","lat":43.27495,"lon":5.42444,"is_reserved":false,"is_disabled":false,"rental_uris":{"android":"levelo://app?vid=d8e186e0-8d9f-4c16-bb12-3c50f63fd666","ios":"levelo://app?vid=d8e186e0-8d9f-4c16-bb12-3c50f63fd666"},"vehicle_type_id":"4","last_reported":1745759784,"current_range_meters":17200,"station_id":"ce4bhn92rcd13ifvqgrg","pricing_plan_id":"cebpf4jnsgd1na2vs0mg"},{"bike_id":"cefd983e-e5ea-4a35-bd03-2a798339bca4","system_id":"levelo_inurba_marseille","lat":43.24388,"lon":5.37051,"is_reserved":false,"is_disabled":false,"rental_uris":{"android":"levelo://app?vid=cefd983e-e5ea-4a35-bd03-2a798339bca4","ios":"levelo://app?vid=cefd983e-e5ea-4a35-bd03-2a798339bca4"},"vehicle_type_id":"4","last_reported":1745759784,"current_range_meters":17600,"station_id":"ce4bhhh2rcd13ifvqfk0","pricing_plan_id":"cebpf4jnsgd1na2vs0mg"},{"bike_id":"6d593226-0a2e-46d4-8de3-9c8bd9d3e674","system_id":"levelo_inurba_marseille","lat":43.29773,"lon":5.38091,"is_reserved":false,"is_disabled":true,"rental_uris":{"android":"levelo://app?vid=6d593226-0a2e-46d4-8de3-9c8bd9d3e674","ios":"levelo://app?vid=6d593226-0a2e-46d4-8de3-9c8bd9d3e674"},"vehicle_type_id":"4","last_reported":1745759784,"current_range_meters":17200,"station_id":"ce4bgip2rcd13ifvqbb0","pricing_plan_id":"cebpf4jnsgd1na2vs0mg"},{"bike_id":"a1300fa1-43f7-47bc-be68-1621591c429e","system_id":"levelo_inurba_marseille","lat":43.25039,"lon":5.3893,"is_reserved":false,"is_disabled":true,"rental_uris":{"android":"levelo://app?vid=a1300fa1-43f7-47bc-be68-1621591c429e","ios":"levelo://app?vid=a1300fa1-43f7-47bc-be68-1621591c429e"},"vehicle_type_id":"4","last_reported":1745759784,"current_range_meters":17200,"station_id":"ce4bhgp2rcd13ifvqfd0","pricing_plan_id":"cebpf4jnsgd1na2vs0mg"},{"bike_id":"514408ed-af11-431c-bdea-edad8ea0db4a","system_id":"levelo_inurba_marseille","lat":43.26558,"lon":5.37276,"is_reserved":false,"is_disabled":false,"rental_uris":{"android":"levelo://app?vid=514408ed-af11-431c-bdea-edad8ea0db4a","ios":"levelo://app?vid=514408ed-af11-431c-bdea-edad8ea0db4a"},"vehicle_type_id":"4","last_reported":1745759784,"current_range_meters":17200,"station_id":"ce4bhg12rcd13ifvqf70","pricing_plan_id":"cebpf4jnsgd1na2vs0mg"},{"bike_id":"e492037e-60a9-4864-84d6-2fe9ea031f90","system_id":"levelo_inurba_marseille","lat":43.27984,"lon":5.38757,"is_reserved":false,"is_disabled":false,"rental_uris":{"android":"levelo://app?vid=e492037e-60a9-4864-84d6-2fe9ea031f90","ios":"levelo://app?vid=e492037e-60a9-4864-84d6-2fe9ea031f90"},"vehicle_type_id":"4","last_reported":1745759784,"current_range_meters":17600,"station_id":"ce4bhg12rcd13ifvqf80","pricing_plan_id":"cebpf4jnsgd1na2vs0mg"},{"bike_id":"97fd7a4c-36e8-401d-b12d-1b4015a01ebe","system_id":"levelo_inurba_marseille","lat":43.26556,"lon":5.42099,"is_reserved":false,"is_disabled":false,"rental_uris":{"android":"levelo://app?vid=97fd7a4c-36e8-401d-b12d-1b4015a01ebe","ios":"levelo://app?vid=97fd7a4c-36e8-401d-b12d-1b4015a01ebe"},"vehicle_type_id":"4","last_reported":1745759784,"current_range_meters":17600,"station_id":"","pricing_plan_id":"cebpf4jnsgd1na2vs0mg"},{"bike_id":"4d4b5f61-e3dc-4b08-8550-5a853ebadb9d","system_id":"levelo_inurba_marseille","lat":43.26803,"lon":5.40269,"is_reserved":false,"is_disabled":false,"rental_uris":{"android":"levelo://app?vid=4d4b5f61-e3dc-4b08-8550-5a853ebadb9d","ios":"levelo://app?vid=4d4b5f61-e3dc-4b08-8550-5a853ebadb9d"},"vehicle_type_id":"4","last_reported":1745759784,"current_range_meters":17600,"station_id":"ce501612rcd8frsf0b60","pricing_plan_id":"cebpf4jnsgd1na2vs0mg"},{"bike_id":"030b7764-ea47-453d-abec-042aafe1df23","system_id":"levelo_inurba_marseille","lat":43.3055,"lon":5.36561,"is_reserved":false,"is_disabled":false,"rental_uris":{"android":"levelo://app?vid=030b7764-ea47-453d-abec-042aafe1df23","ios":"levelo://app?vid=030b7764-ea47-453d-abec-042aafe1df23"},"vehicle_type_id":"4","last_reported":1745759784,"current_range_meters":17200,"station_id":"ce4bgs12rcd13ifvqcag","pricing_plan_id":"cebpf4jnsgd1na2vs0mg"},{"bike_id":"fdeaa8c8-738d-4da4-a305-cabc7511dc60","system_id":"levelo_inurba_marseille","lat":43.3014,"lon":5.39851,"is_reserved":false,"is_disabled":false,"rental_uris":{"android":"levelo://app?vid=fdeaa8c8-738d-4da4-a305-cabc7511dc60","ios":"levelo://app?vid=fdeaa8c8-738d-4da4-a305-cabc7511dc60"},"vehicle_type_id":"4","last_reported":1745759784,"current_range_meters":17200,"station_id":"ce4bh0h2rcd13ifvqd40","pricing_plan_id":"cebpf4jnsgd1na2vs0mg"},{"bike_id":"b532cbc6-d603-4b6c-8eb1-6da63ec873ab","system_id":"levelo_inurba_marseille","lat":43.27076,"lon":5.40256,"is_reserved":false,"is_disabled":false,"rental_uris":{"android":"levelo://app?vid=b532cbc6-d603-4b6c-8eb1-6da63ec873ab","ios":"levelo://app?vid=b532cbc6-d603-4b6c-8eb1-6da63ec873ab"},"vehicle_type_id":"4","last_reported":1745759784,"current_range_meters":17600,"station_id":"ce4bhk92rcd13ifvqgc0","pricing_plan_id":"cebpf4jnsgd1na2vs0mg"},{"bike_id":"7cb17432-a062-465f-85a4-b60c350ddacd","system_id":"levelo_inurba_marseille","lat":43.29568,"lon":5.37496,"is_reserved":false,"is_disabled":true,"rental_uris":{"android":"levelo://app?vid=7cb17432-a062-465f-85a4-b60c350ddacd","ios":"levelo://app?vid=7cb17432-a062-465f-85a4-b60c350ddacd"},"vehicle_type_id":"4","last_reported":1745759784,"current_range_meters":17600,"station_id":"ce4bgh92rcd13ifvqb50","pricing_plan_id":"cebpf4jnsgd1na2vs0mg"},{"bike_id":"3f5f2c9a-9e49-4b78-9b1b-0708da9fec39","system_id":"levelo_inurba_marseille","lat":43.22501,"lon":5.34784,"is_reserved":false,"is_disabled":false,"rental_uris":{"android":"levelo://app?vid=3f5f2c9a-9e49-4b78-9b1b-0708da9fec39","ios":"levelo://app?vid=3f5f2c9a-9e49-4b78-9b1b-0708da9fec39"},"vehicle_type_id":"4","last_reported":1745759784,"current_range_meters":18000,"station_id":"st_cvj5dfep6f1abm77gieg","pricing_plan_id":"cebpf4jnsgd1na2vs0mg"},{"bike_id":"b5374913-2d8e-4340-9ef3-bca67eedae7f","system_id":"levelo_inurba_marseille","lat":43.25914,"lon":5.40898,"is_reserved":false,"is_disabled":false,"rental_uris":{"android":"levelo://app?vid=b5374913-2d8e-4340-9ef3-bca67eedae7f","ios":"levelo://app?vid=b5374913-2d8e-4340-9ef3-bca67eedae7f"},"vehicle_type_id":"4","last_reported":1745759784,"current_range_meters":18000,"station_id":"ce4bhm92rcd13ifvqglg","pricing_plan_id":"cebpf4jnsgd1na2vs0mg"},{"bike_id":"94c15021-409d-4859-9cbd-f2897516165d","system_id":"levelo_inurba_marseille","lat":43.23958,"lon":5.36635,"is_reserved":false,"is_disabled":false,"rental_uris":{"android":"levelo://app?vid=94c15021-409d-4859-9cbd-f2897516165d","ios":"levelo://app?vid=94c15021-409d-4859-9cbd-f2897516165d"},"vehicle_type_id":"4","last_reported":1745759784,"current_range_meters":18000,"station_id":"ce4bhi12rcd13ifvqfp0","pricing_plan_id":"cebpf4jnsgd1na2vs0mg"},{"bike_id":"6a0de3d1-cabc-47be-8f17-6ae60956132b","system_id":"levelo_inurba_marseille","lat":43.30274,"lon":5.37706,"is_reserved":false,"is_disabled":false,"rental_uris":{"android":"levelo://app?vid=6a0de3d1-cabc-47be-8f17-6ae60956132b","ios":"levelo://app?vid=6a0de3d1-cabc-47be-8f17-6ae60956132b"},"vehicle_type_id":"4","last_reported":1745759784,"current_range_meters":17600,"station_id":"ce4bguh2rcd13ifvqcj0","pricing_plan_id":"cebpf4jnsgd1na2vs0mg"},{"bike_id":"f74ea91f-89b7-44bd-882a-d0ec5862a3f2","system_id":"levelo_inurba_marseille","lat":43.23148,"lon":5.43709,"is_reserved":false,"is_disabled":false,"rental_uris":{"android":"levelo://app?vid=f74ea91f-89b7-44bd-882a-d0ec5862a3f2","ios":"levelo://app?vid=f74ea91f-89b7-44bd-882a-d0ec5862a3f2"},"vehicle_type_id":"4","last_reported":1745759784,"current_range_meters":18000,"station_id":"ce4bhmp2rcd13ifvqgog","pricing_plan_id":"cebpf4jnsgd1na2vs0mg"},{"bike_id":"305a080b-314d-4af9-95f3-affb9d5eb259","system_id":"levelo_inurba_marseille","lat":43.31227,"lon":5.36862,"is_reserved":false,"is_disabled":false,"rental_uris":{"android":"levelo://app?vid=305a080b-314d-4af9-95f3-affb9d5eb259","ios":"levelo://app?vid=305a080b-314d-4af9-95f3-affb9d5eb259"},"vehicle_type_id":"4","last_reported":1745759784,"current_range_meters":17600,"station_id":"ce4bgl92rcd13ifvqbq0","pricing_plan_id":"cebpf4jnsgd1na2vs0mg"},{"bike_id":"683b45fe-d6d7-4560-ae22-95bdbf4d269a","system_id":"levelo_inurba_marseille","lat":43.2175,"lon":5.346,"is_reserved":false,"is_disabled":false,"rental_uris":{"android":"levelo://app?vid=683b45fe-d6d7-4560-ae22-95bdbf4d269a","ios":"levelo://app?vid=683b45fe-d6d7-4560-ae22-95bdbf4d269a"},"vehicle_type_id":"4","last_reported":1745759784,"current_range_meters":18000,"station_id":"st_cvj6r9ubvosntc0bgbag","pricing_plan_id":"cebpf4jnsgd1na2vs0mg"},{"bike_id":"84d413cf-7679-49fb-89e3-56963ed03ff8","system_id":"levelo_inurba_marseille","lat":43.33111,"lon":5.38209,"is_reserved":false,"is_disabled":false,"rental_uris":{"android":"levelo://app?vid=84d413cf-7679-49fb-89e3-56963ed03ff8","ios":"levelo://app?vid=84d413cf-7679-49fb-89e3-56963ed03ff8"},"vehicle_type_id":"4","last_reported":1745759784,"current_range_meters":18000,"station_id":"","pricing_plan_id":"cebpf4jnsgd1na2vs0mg"},{"bike_id":"de0f06de-8520-44ce-892d-e549a216f03e","system_id":"levelo_inurba_marseille","lat":43.23156,"lon":5.437,"is_reserved":false,"is_disabled":false,"rental_uris":{"android":"levelo://app?vid=de0f06de-8520-44ce-892d-e549a216f03e","ios":"levelo://app?vid=de0f06de-8520-44ce-892d-e549a216f03e"},"vehicle_type_id":"4","last_reported":1745759784,"current_range_meters":18000,"station_id":"ce4bhmp2rcd13ifvqgog","pricing_plan_id":"cebpf4jnsgd1na2vs0mg"},{"bike_id":"181ed326-b471-49b5-9f00-acd48cb5b299","system_id":"levelo_inurba_marseille","lat":43.28283,"lon":5.35056,"is_reserved":false,"is_disabled":true,"rental_uris":{"android":"levelo://app?vid=181ed326-b471-49b5-9f00-acd48cb5b299","ios":"levelo://app?vid=181ed326-b471-49b5-9f00-acd48cb5b299"},"vehicle_type_id":"4","last_reported":1745759784,"current_range_meters":18000,"station_id":"ce4bhbp2rcd13ifvqerg","pricing_plan_id":"cebpf4jnsgd1na2vs0mg"},{"bike_id":"f8b82dd5-2d85-4846-8b9d-5afc30043cf6","system_id":"levelo_inurba_marseille","lat":43.22498,"lon":5.34763,"is_reserved":false,"is_disabled":false,"rental_uris":{"android":"levelo://app?vid=f8b82dd5-2d85-4846-8b9d-5afc30043cf6","ios":"levelo://app?vid=f8b82dd5-2d85-4846-8b9d-5afc30043cf6"},"vehicle_type_id":"4","last_reported":1745759784,"current_range_meters":18000,"station_id":"st_cvj5dfep6f1abm77gieg","pricing_plan_id":"cebpf4jnsgd1na2vs0mg"},{"bike_id":"6a3ad0ca-897c-414f-a69a-aae8b2ea7b61","system_id":"levelo_inurba_marseille","lat":43.21751,"lon":5.34601,"is_reserved":false,"is_disabled":false,"rental_uris":{"android":"levelo://app?vid=6a3ad0ca-897c-414f-a69a-aae8b2ea7b61","ios":"levelo://app?vid=6a3ad0ca-897c-414f-a69a-aae8b2ea7b61"},"vehicle_type_id":"4","last_reported":1745759784,"current_range_meters":18000,"station_id":"st_cvj6r9ubvosntc0bgbag","pricing_plan_id":"cebpf4jnsgd1na2vs0mg"},{"bike_id":"0fa0d35c-5f1d-4090-ac0b-83c1fb2bda03","system_id":"levelo_inurba_marseille","lat":43.29259,"lon":5.4091,"is_reserved":false,"is_disabled":false,"rental_uris":{"android":"levelo://app?vid=0fa0d35c-5f1d-4090-ac0b-83c1fb2bda03","ios":"levelo://app?vid=0fa0d35c-5f1d-4090-ac0b-83c1fb2bda03"},"vehicle_type_id":"4","last_reported":1745759784,"current_range_meters":18800,"station_id":"ce4bh192rcd13ifvqdc0","pricing_plan_id":"cebpf4jnsgd1na2vs0mg"},{"bike_id":"1c549b55-b500-4808-ab76-bf95b833044d","system_id":"levelo_inurba_marseille","lat":43.31058,"lon":5.38341,"is_reserved":false,"is_disabled":false,"rental_uris":{"android":"levelo://app?vid=1c549b55-b500-4808-ab76-bf95b833044d","ios":"levelo://app?vid=1c549b55-b500-4808-ab76-bf95b833044d"},"vehicle_type_id":"4","last_reported":1745759784,"current_range_meters":18800,"station_id":"ce4bgv92rcd13ifvqcr0","pricing_plan_id":"cebpf4jnsgd1na2vs0mg"},{"bike_id":"9275afeb-620b-4a3c-83d1-31bc14709d93","system_id":"levelo_inurba_marseille","lat":43.28849,"lon":5.35842,"is_reserved":false,"is_disabled":true,"rental_uris":{"android":"levelo://app?vid=9275afeb-620b-4a3c-83d1-31bc14709d93","ios":"levelo://app?vid=9275afeb-620b-4a3c-83d1-31bc14709d93"},"vehicle_type_id":"4","last_reported":1745759784,"current_range_meters":18800,"station_id":"ce4bhb12rcd13ifvqem0","pricing_plan_id":"cebpf4jnsgd1na2vs0mg"},{"bike_id":"52cbce95-012f-4ea4-aa86-9e42b6ad84c6","system_id":"levelo_inurba_marseille","lat":43.30546,"lon":5.38424,"is_reserved":false,"is_disabled":false,"rental_uris":{"android":"levelo://app?vid=52cbce95-012f-4ea4-aa86-9e42b6ad84c6","ios":"levelo://app?vid=52cbce95-012f-4ea4-aa86-9e42b6ad84c6"},"vehicle_type_id":"4","last_reported":1745759784,"current_range_meters":18000,"station_id":"ce4bgg92rcd13ifvqb30","pricing_plan_id":"cebpf4jnsgd1na2vs0mg"},{"bike_id":"7f591cad-ea91-4bda-9c6c-6fe1566561a1","system_id":"levelo_inurba_marseille","lat":43.32013,"lon":5.41358,"is_reserved":false,"is_disabled":false,"rental_uris":{"android":"levelo://app?vid=7f591cad-ea91-4bda-9c6c-6fe1566561a1","ios":"levelo://app?vid=7f591cad-ea91-4bda-9c6c-6fe1566561a1"},"vehicle_type_id":"4","last_reported":1745759784,"current_range_meters":18800,"station_id":"ce4bhq92rcd13ifvqhkg","pricing_plan_id":"cebpf4jnsgd1na2vs0mg"},{"bike_id":"5e29bb99-7a29-4bbf-a514-99195c8fa20f","system_id":"levelo_inurba_marseille","lat":43.299,"lon":5.43692,"is_reserved":false,"is_disabled":false,"rental_uris":{"android":"levelo://app?vid=5e29bb99-7a29-4bbf-a514-99195c8fa20f","ios":"levelo://app?vid=5e29bb99-7a29-4bbf-a514-99195c8fa20f"},"vehicle_type_id":"4","last_reported":1745759784,"current_range_meters":18800,"station_id":"ce4bhpp2rcd13ifvqhfg","pricing_plan_id":"cebpf4jnsgd1na2vs0mg"},{"bike_id":"ab86c102-bc19-4e16-957a-51e23b158ebe","system_id":"levelo_inurba_marseille","lat":43.249973,"lon":5.389169,"is_reserved":false,"is_disabled":false,"rental_uris":{"android":"levelo://app?vid=ab86c102-bc19-4e16-957a-51e23b158ebe","ios":"levelo://app?vid=ab86c102-bc19-4e16-957a-51e23b158ebe"},"vehicle_type_id":"4","last_reported":1745759784,"current_range_meters":18800,"station_id":"ce4bhgp2rcd13ifvqfd0","pricing_plan_id":"cebpf4jnsgd1na2vs0mg"},{"bike_id":"988d3e51-0f81-4d05-9256-41d5bf2a54ae","system_id":"levelo_inurba_marseille","lat":43.29689,"lon":5.36606,"is_reserved":false,"is_disabled":true,"rental_uris":{"android":"levelo://app?vid=988d3e51-0f81-4d05-9256-41d5bf2a54ae","ios":"levelo://app?vid=988d3e51-0f81-4d05-9256-41d5bf2a54ae"},"vehicle_type_id":"4","last_reported":1745759784,"current_range_meters":18800,"station_id":"ce4bgn12rcd13ifvqbt0","pricing_plan_id":"cebpf4jnsgd1na2vs0mg"},{"bike_id":"929ede0a-bede-4f2c-98c5-5586d05b6a66","system_id":"levelo_inurba_marseille","lat":43.21753,"lon":5.346,"is_reserved":false,"is_disabled":false,"rental_uris":{"android":"levelo://app?vid=929ede0a-bede-4f2c-98c5-5586d05b6a66","ios":"levelo://app?vid=929ede0a-bede-4f2c-98c5-5586d05b6a66"},"vehicle_type_id":"4","last_reported":1745759784,"current_range_meters":19200,"station_id":"st_cvj6r9ubvosntc0bgbag","pricing_plan_id":"cebpf4jnsgd1na2vs0mg"},{"bike_id":"3943ed08-2953-43b1-9e84-92c110d8ceb2","system_id":"levelo_inurba_marseille","lat":43.27375,"lon":5.36251,"is_reserved":false,"is_disabled":false,"rental_uris":{"android":"levelo://app?vid=3943ed08-2953-43b1-9e84-92c110d8ceb2","ios":"levelo://app?vid=3943ed08-2953-43b1-9e84-92c110d8ceb2"},"vehicle_type_id":"4","last_reported":1745759784,"current_range_meters":19200,"station_id":"ce4bhbh2rcd13ifvqeo0","pricing_plan_id":"cebpf4jnsgd1na2vs0mg"},{"bike_id":"16a7dd8b-74c6-4f92-83ea-ef3c68a966d7","system_id":"levelo_inurba_marseille","lat":43.28714,"lon":5.36077,"is_reserved":false,"is_disabled":false,"rental_uris":{"android":"levelo://app?vid=16a7dd8b-74c6-4f92-83ea-ef3c68a966d7","ios":"levelo://app?vid=16a7dd8b-74c6-4f92-83ea-ef3c68a966d7"},"vehicle_type_id":"4","last_reported":1745759784,"current_range_meters":19600,"station_id":"cki0cbj6b192h4jlfktg","pricing_plan_id":"cebpf4jnsgd1na2vs0mg"},{"bike_id":"db9128d4-fa4b-4b3d-b5d8-0462404fa361","system_id":"levelo_inurba_marseille","lat":43.32107,"lon":5.36763,"is_reserved":false,"is_disabled":false,"rental_uris":{"android":"levelo://app?vid=db9128d4-fa4b-4b3d-b5d8-0462404fa361","ios":"levelo://app?vid=db9128d4-fa4b-4b3d-b5d8-0462404fa361"},"vehicle_type_id":"4","last_reported":1745759784,"current_range_meters":19200,"station_id":"ce4bhrh2rcd13ifvqhug","pricing_plan_id":"cebpf4jnsgd1na2vs0mg"},{"bike_id":"e111005f-0797-4fd0-a4ad-3229ba5b961b","system_id":"levelo_inurba_marseille","lat":43.2985,"lon":5.36277,"is_reserved":false,"is_disabled":false,"rental_uris":{"android":"levelo://app?vid=e111005f-0797-4fd0-a4ad-3229ba5b961b","ios":"levelo://app?vid=e111005f-0797-4fd0-a4ad-3229ba5b961b"},"vehicle_type_id":"4","last_reported":1745759784,"current_range_meters":19600,"station_id":"ce4bgpp2rcd13ifvqc3g","pricing_plan_id":"cebpf4jnsgd1na2vs0mg"},{"bike_id":"b45721df-1911-4bd0-96bb-0c84adb69cfd","system_id":"levelo_inurba_marseille","lat":43.23972,"lon":5.36622,"is_reserved":false,"is_disabled":false,"rental_uris":{"android":"levelo://app?vid=b45721df-1911-4bd0-96bb-0c84adb69cfd","ios":"levelo://app?vid=b45721df-1911-4bd0-96bb-0c84adb69cfd"},"vehicle_type_id":"4","last_reported":1745759784,"current_range_meters":19600,"station_id":"ce4bhi12rcd13ifvqfp0","pricing_plan_id":"cebpf4jnsgd1na2vs0mg"},{"bike_id":"22a83d05-c9c0-418c-aba2-13889dcbf30f","system_id":"levelo_inurba_marseille","lat":43.21198,"lon":5.35078,"is_reserved":false,"is_disabled":false,"rental_uris":{"android":"levelo://app?vid=22a83d05-c9c0-418c-aba2-13889dcbf30f","ios":"levelo://app?vid=22a83d05-c9c0-418c-aba2-13889dcbf30f"},"vehicle_type_id":"4","last_reported":1745759784,"current_range_meters":19600,"station_id":"","pricing_plan_id":"cebpf4jnsgd1na2vs0mg"},{"bike_id":"f312ba90-fce2-4384-a300-703a2102d091","system_id":"levelo_inurba_marseille","lat":43.30459,"lon":5.37903,"is_reserved":false,"is_disabled":false,"rental_uris":{"android":"levelo://app?vid=f312ba90-fce2-4384-a300-703a2102d091","ios":"levelo://app?vid=f312ba90-fce2-4384-a300-703a2102d091"},"vehicle_type_id":"4","last_reported":1745759784,"current_range_meters":19600,"station_id":"ce4bgup2rcd13ifvqcn0","pricing_plan_id":"cebpf4jnsgd1na2vs0mg"},{"bike_id":"6479956a-d9b1-44fc-b8a6-2a54b4859093","system_id":"levelo_inurba_marseille","lat":43.28154,"lon":5.42679,"is_reserved":false,"is_disabled":false,"rental_uris":{"android":"levelo://app?vid=6479956a-d9b1-44fc-b8a6-2a54b4859093","ios":"levelo://app?vid=6479956a-d9b1-44fc-b8a6-2a54b4859093"},"vehicle_type_id":"4","last_reported":1745759784,"current_range_meters":20000,"station_id":"ce4bhnh2rcd13ifvqgug","pricing_plan_id":"cebpf4jnsgd1na2vs0mg"},{"bike_id":"ca1bf63b-c51c-46d6-9e4c-fa50aadd3809","system_id":"levelo_inurba_marseille","lat":43.311241,"lon":5.377704,"is_reserved":false,"is_disabled":false,"rental_uris":{"android":"levelo://app?vid=ca1bf63b-c51c-46d6-9e4c-fa50aadd3809","ios":"levelo://app?vid=ca1bf63b-c51c-46d6-9e4c-fa50aadd3809"},"vehicle_type_id":"4","last_reported":1745759784,"current_range_meters":18000,"station_id":"ce4bgt92rcd13ifvqcg0","pricing_plan_id":"cebpf4jnsgd1na2vs0mg"},{"bike_id":"35cee361-db2b-4827-873a-7588969e53c1","system_id":"levelo_inurba_marseille","lat":43.28157,"lon":5.42642,"is_reserved":false,"is_disabled":false,"rental_uris":{"android":"levelo://app?vid=35cee361-db2b-4827-873a-7588969e53c1","ios":"levelo://app?vid=35cee361-db2b-4827-873a-7588969e53c1"},"vehicle_type_id":"4","last_reported":1745759784,"current_range_meters":20000,"station_id":"ce4bhnh2rcd13ifvqgug","pricing_plan_id":"cebpf4jnsgd1na2vs0mg"},{"bike_id":"7abb73b2-2ef8-4b51-ad8f-1fc21cc13d30","system_id":"levelo_inurba_marseille","lat":43.30883,"lon":5.37196,"is_reserved":false,"is_disabled":false,"rental_uris":{"android":"levelo://app?vid=7abb73b2-2ef8-4b51-ad8f-1fc21cc13d30","ios":"levelo://app?vid=7abb73b2-2ef8-4b51-ad8f-1fc21cc13d30"},"vehicle_type_id":"4","last_reported":1745759784,"current_range_meters":20000,"station_id":"ce4bguh2rcd13ifvqckg","pricing_plan_id":"cebpf4jnsgd1na2vs0mg"},{"bike_id":"6ad84135-27b8-4421-ad4e-6fd81628784c","system_id":"levelo_inurba_marseille","lat":43.30527,"lon":5.36521,"is_reserved":false,"is_disabled":false,"rental_uris":{"android":"levelo://app?vid=6ad84135-27b8-4421-ad4e-6fd81628784c","ios":"levelo://app?vid=6ad84135-27b8-4421-ad4e-6fd81628784c"},"vehicle_type_id":"4","last_reported":1745759784,"current_range_meters":20000,"station_id":"ce4bgs12rcd13ifvqcag","pricing_plan_id":"cebpf4jnsgd1na2vs0mg"},{"bike_id":"5f363fb2-65d6-4f54-a7e8-9f0969c18dcf","system_id":"levelo_inurba_marseille","lat":43.30542,"lon":5.36522,"is_reserved":false,"is_disabled":true,"rental_uris":{"android":"levelo://app?vid=5f363fb2-65d6-4f54-a7e8-9f0969c18dcf","ios":"levelo://app?vid=5f363fb2-65d6-4f54-a7e8-9f0969c18dcf"},"vehicle_type_id":"4","last_reported":1745759784,"current_range_meters":20000,"station_id":"ce4bgs12rcd13ifvqcag","pricing_plan_id":"cebpf4jnsgd1na2vs0mg"},{"bike_id":"4e302092-d3dc-4136-bfdb-16bed9aca696","system_id":"levelo_inurba_marseille","lat":43.29079,"lon":5.38119,"is_reserved":false,"is_disabled":false,"rental_uris":{"android":"levelo://app?vid=4e302092-d3dc-4136-bfdb-16bed9aca696","ios":"levelo://app?vid=4e302092-d3dc-4136-bfdb-16bed9aca696"},"vehicle_type_id":"4","last_reported":1745759784,"current_range_meters":20000,"station_id":"ce4bh512rcd13ifvqe2g","pricing_plan_id":"cebpf4jnsgd1na2vs0mg"},{"bike_id":"b4cbc32d-aa27-4977-89f1-0eda7c5d5a6c","system_id":"levelo_inurba_marseille","lat":43.23948,"lon":5.36636,"is_reserved":false,"is_disabled":false,"rental_uris":{"android":"levelo://app?vid=b4cbc32d-aa27-4977-89f1-0eda7c5d5a6c","ios":"levelo://app?vid=b4cbc32d-aa27-4977-89f1-0eda7c5d5a6c"},"vehicle_type_id":"4","last_reported":1745759784,"current_range_meters":20000,"station_id":"ce4bhi12rcd13ifvqfp0","pricing_plan_id":"cebpf4jnsgd1na2vs0mg"},{"bike_id":"8102a339-52c3-41b1-824e-5f845012b53a","system_id":"levelo_inurba_marseille","lat":43.30457,"lon":5.379,"is_reserved":false,"is_disabled":false,"rental_uris":{"android":"levelo://app?vid=8102a339-52c3-41b1-824e-5f845012b53a","ios":"levelo://app?vid=8102a339-52c3-41b1-824e-5f845012b53a"},"vehicle_type_id":"4","last_reported":1745759784,"current_range_meters":20000,"station_id":"ce4bgup2rcd13ifvqcn0","pricing_plan_id":"cebpf4jnsgd1na2vs0mg"},{"bike_id":"38569975-30fc-4681-b482-2e524386f72a","system_id":"levelo_inurba_marseille","lat":43.295837,"lon":5.367364,"is_reserved":false,"is_disabled":false,"rental_uris":{"android":"levelo://app?vid=38569975-30fc-4681-b482-2e524386f72a","ios":"levelo://app?vid=38569975-30fc-4681-b482-2e524386f72a"},"vehicle_type_id":"4","last_reported":1745759784,"current_range_meters":20000,"station_id":"ce4bgph2rcd13ifvqc2g","pricing_plan_id":"cebpf4jnsgd1na2vs0mg"},{"bike_id":"854b6f67-ca9a-45bb-a87f-9accf64bf40e","system_id":"levelo_inurba_marseille","lat":43.2757,"lon":5.38423,"is_reserved":false,"is_disabled":true,"rental_uris":{"android":"levelo://app?vid=854b6f67-ca9a-45bb-a87f-9accf64bf40e","ios":"levelo://app?vid=854b6f67-ca9a-45bb-a87f-9accf64bf40e"},"vehicle_type_id":"4","last_reported":1745759784,"current_range_meters":20400,"station_id":"ce4bhh92rcd13ifvqfi0","pricing_plan_id":"cebpf4jnsgd1na2vs0mg"},{"bike_id":"0cef4698-f592-4fb8-96ee-019d504c0103","system_id":"levelo_inurba_marseille","lat":43.30781,"lon":5.3764,"is_reserved":false,"is_disabled":false,"rental_uris":{"android":"levelo://app?vid=0cef4698-f592-4fb8-96ee-019d504c0103","ios":"levelo://app?vid=0cef4698-f592-4fb8-96ee-019d504c0103"},"vehicle_type_id":"4","last_reported":1745759784,"current_range_meters":20400,"station_id":"ce4bgv92rcd13ifvqcq0","pricing_plan_id":"cebpf4jnsgd1na2vs0mg"},{"bike_id":"d5792b96-81ae-4816-accb-680dcd29aa8e","system_id":"levelo_inurba_marseille","lat":43.24681,"lon":5.38146,"is_reserved":false,"is_disabled":true,"rental_uris":{"android":"levelo://app?vid=d5792b96-81ae-4816-accb-680dcd29aa8e","ios":"levelo://app?vid=d5792b96-81ae-4816-accb-680dcd29aa8e"},"vehicle_type_id":"4","last_reported":1745759784,"current_range_meters":20400,"station_id":"ce4bhih2rcd13ifvqfr0","pricing_plan_id":"cebpf4jnsgd1na2vs0mg"},{"bike_id":"3abedbf8-67e3-4cff-b8d8-f7c4c1df6766","system_id":"levelo_inurba_marseille","lat":43.26572,"lon":5.39003,"is_reserved":false,"is_disabled":false,"rental_uris":{"android":"levelo://app?vid=3abedbf8-67e3-4cff-b8d8-f7c4c1df6766","ios":"levelo://app?vid=3abedbf8-67e3-4cff-b8d8-f7c4c1df6766"},"vehicle_type_id":"4","last_reported":1745759784,"current_range_meters":20400,"station_id":"ce4bhe12rcd13ifvqf30","pricing_plan_id":"cebpf4jnsgd1na2vs0mg"},{"bike_id":"b783defb-3f3e-4088-8096-df4271017872","system_id":"levelo_inurba_marseille","lat":43.28279,"lon":5.35071,"is_reserved":false,"is_disabled":false,"rental_uris":{"android":"levelo://app?vid=b783defb-3f3e-4088-8096-df4271017872","ios":"levelo://app?vid=b783defb-3f3e-4088-8096-df4271017872"},"vehicle_type_id":"4","last_reported":1745759784,"current_range_meters":20400,"station_id":"ce4bhbp2rcd13ifvqerg","pricing_plan_id":"cebpf4jnsgd1na2vs0mg"},{"bike_id":"1e81c315-7808-4f5d-baf7-448813b1a9aa","system_id":"levelo_inurba_marseille","lat":43.2175,"lon":5.34604,"is_reserved":false,"is_disabled":false,"rental_uris":{"android":"levelo://app?vid=1e81c315-7808-4f5d-baf7-448813b1a9aa","ios":"levelo://app?vid=1e81c315-7808-4f5d-baf7-448813b1a9aa"},"vehicle_type_id":"4","last_reported":1745759784,"current_range_meters":20400,"station_id":"st_cvj6r9ubvosntc0bgbag","pricing_plan_id":"cebpf4jnsgd1na2vs0mg"},{"bike_id":"19bd37b3-1969-449d-94d5-339bad72ebf8","system_id":"levelo_inurba_marseille","lat":43.29571,"lon":5.39964,"is_reserved":false,"is_disabled":false,"rental_uris":{"android":"levelo://app?vid=19bd37b3-1969-449d-94d5-339bad72ebf8","ios":"levelo://app?vid=19bd37b3-1969-449d-94d5-339bad72ebf8"},"vehicle_type_id":"4","last_reported":1745759784,"current_range_meters":20400,"station_id":"ce4bh312rcd13ifvqdj0","pricing_plan_id":"cebpf4jnsgd1na2vs0mg"},{"bike_id":"2281d97e-dd78-49be-ab42-7c2968aa04e9","system_id":"levelo_inurba_marseille","lat":43.29278,"lon":5.3846,"is_reserved":false,"is_disabled":false,"rental_uris":{"android":"levelo://app?vid=2281d97e-dd78-49be-ab42-7c2968aa04e9","ios":"levelo://app?vid=2281d97e-dd78-49be-ab42-7c2968aa04e9"},"vehicle_type_id":"4","last_reported":1745759784,"current_range_meters":20800,"station_id":"ce4bh692rcd13ifvqea0","pricing_plan_id":"cebpf4jnsgd1na2vs0mg"},{"bike_id":"5cab5cd5-fd18-498b-967b-dcf7e8cae951","system_id":"levelo_inurba_marseille","lat":43.23154,"lon":5.43705,"is_reserved":false,"is_disabled":false,"rental_uris":{"android":"levelo://app?vid=5cab5cd5-fd18-498b-967b-dcf7e8cae951","ios":"levelo://app?vid=5cab5cd5-fd18-498b-967b-dcf7e8cae951"},"vehicle_type_id":"4","last_reported":1745759784,"current_range_meters":20800,"station_id":"ce4bhmp2rcd13ifvqgog","pricing_plan_id":"cebpf4jnsgd1na2vs0mg"},{"bike_id":"47f88e1e-a478-4d1c-bc5d-9d7232f93f8c","system_id":"levelo_inurba_marseille","lat":43.21191,"lon":5.35065,"is_reserved":false,"is_disabled":false,"rental_uris":{"android":"levelo://app?vid=47f88e1e-a478-4d1c-bc5d-9d7232f93f8c","ios":"levelo://app?vid=47f88e1e-a478-4d1c-bc5d-9d7232f93f8c"},"vehicle_type_id":"4","last_reported":1745759784,"current_range_meters":20800,"station_id":"ce4bhah2rcd13ifvqei0","pricing_plan_id":"cebpf4jnsgd1na2vs0mg"},{"bike_id":"07445598-68fe-40db-b19b-e14bab0e7c33","system_id":"levelo_inurba_marseille","lat":43.297,"lon":5.37941,"is_reserved":false,"is_disabled":false,"rental_uris":{"android":"levelo://app?vid=07445598-68fe-40db-b19b-e14bab0e7c33","ios":"levelo://app?vid=07445598-68fe-40db-b19b-e14bab0e7c33"},"vehicle_type_id":"4","last_reported":1745759784,"current_range_meters":22000,"station_id":"","pricing_plan_id":"cebpf4jnsgd1na2vs0mg"},{"bike_id":"2daad8a4-1912-4fc2-86be-4232e457a477","system_id":"levelo_inurba_marseille","lat":43.22935,"lon":5.35374,"is_reserved":false,"is_disabled":false,"rental_uris":{"android":"levelo://app?vid=2daad8a4-1912-4fc2-86be-4232e457a477","ios":"levelo://app?vid=2daad8a4-1912-4fc2-86be-4232e457a477"},"vehicle_type_id":"4","last_reported":1745759784,"current_range_meters":21600,"station_id":"cpo3532slgdg3j2ikp40","pricing_plan_id":"cebpf4jnsgd1na2vs0mg"},{"bike_id":"8044750f-aa0f-46af-879d-85d78c276475","system_id":"levelo_inurba_marseille","lat":43.31222,"lon":5.36841,"is_reserved":false,"is_disabled":false,"rental_uris":{"android":"levelo://app?vid=8044750f-aa0f-46af-879d-85d78c276475","ios":"levelo://app?vid=8044750f-aa0f-46af-879d-85d78c276475"},"vehicle_type_id":"4","last_reported":1745759784,"current_range_meters":21600,"station_id":"ce4bgl92rcd13ifvqbq0","pricing_plan_id":"cebpf4jnsgd1na2vs0mg"},{"bike_id":"26e2563a-5614-46af-9839-4e09e7d33768","system_id":"levelo_inurba_marseille","lat":43.33614,"lon":5.40985,"is_reserved":false,"is_disabled":false,"rental_uris":{"android":"levelo://app?vid=26e2563a-5614-46af-9839-4e09e7d33768","ios":"levelo://app?vid=26e2563a-5614-46af-9839-4e09e7d33768"},"vehicle_type_id":"4","last_reported":1745759784,"current_range_meters":21600,"station_id":"ce4bhqh2rcd13ifvqhmg","pricing_plan_id":"cebpf4jnsgd1na2vs0mg"},{"bike_id":"608ff1b0-b9e3-4944-8f39-c5b35dc7bd9e","system_id":"levelo_inurba_marseille","lat":43.21753,"lon":5.34597,"is_reserved":false,"is_disabled":false,"rental_uris":{"android":"levelo://app?vid=608ff1b0-b9e3-4944-8f39-c5b35dc7bd9e","ios":"levelo://app?vid=608ff1b0-b9e3-4944-8f39-c5b35dc7bd9e"},"vehicle_type_id":"4","last_reported":1745759784,"current_range_meters":21600,"station_id":"st_cvj6r9ubvosntc0bgbag","pricing_plan_id":"cebpf4jnsgd1na2vs0mg"},{"bike_id":"667fd295-8368-42fb-b374-1bb73556d2b4","system_id":"levelo_inurba_marseille","lat":43.30305,"lon":5.39238,"is_reserved":false,"is_disabled":false,"rental_uris":{"android":"levelo://app?vid=667fd295-8368-42fb-b374-1bb73556d2b4","ios":"levelo://app?vid=667fd295-8368-42fb-b374-1bb73556d2b4"},"vehicle_type_id":"4","last_reported":1745759784,"current_range_meters":20800,"station_id":"ce4bgkh2rcd13ifvqbk0","pricing_plan_id":"cebpf4jnsgd1na2vs0mg"},{"bike_id":"8bf3fa6e-c989-4a8a-89a6-129384ce6f7e","system_id":"levelo_inurba_marseille","lat":43.30542,"lon":5.36549,"is_reserved":false,"is_disabled":false,"rental_uris":{"android":"levelo://app?vid=8bf3fa6e-c989-4a8a-89a6-129384ce6f7e","ios":"levelo://app?vid=8bf3fa6e-c989-4a8a-89a6-129384ce6f7e"},"vehicle_type_id":"4","last_reported":1745759784,"current_range_meters":21600,"station_id":"ce4bgs12rcd13ifvqcag","pricing_plan_id":"cebpf4jnsgd1na2vs0mg"},{"bike_id":"27149fa5-8841-4201-a681-54727d2faad7","system_id":"levelo_inurba_marseille","lat":43.295048,"lon":5.389286,"is_reserved":false,"is_disabled":false,"rental_uris":{"android":"levelo://app?vid=27149fa5-8841-4201-a681-54727d2faad7","ios":"levelo://app?vid=27149fa5-8841-4201-a681-54727d2faad7"},"vehicle_type_id":"4","last_reported":1745759784,"current_range_meters":21600,"station_id":"ce4bh3p2rcd13ifvqdp0","pricing_plan_id":"cebpf4jnsgd1na2vs0mg"},{"bike_id":"6810ee11-7526-4e0e-95e4-4e97095db1b2","system_id":"levelo_inurba_marseille","lat":43.279292,"lon":5.395917,"is_reserved":false,"is_disabled":false,"rental_uris":{"android":"levelo://app?vid=6810ee11-7526-4e0e-95e4-4e97095db1b2","ios":"levelo://app?vid=6810ee11-7526-4e0e-95e4-4e97095db1b2"},"vehicle_type_id":"4","last_reported":1745759784,"current_range_meters":21600,"station_id":"ce4bhf92rcd13ifvqf40","pricing_plan_id":"cebpf4jnsgd1na2vs0mg"},{"bike_id":"243b3ed3-d1f9-4cee-82b8-a33049fc746a","system_id":"levelo_inurba_marseille","lat":43.30503,"lon":5.36517,"is_reserved":false,"is_disabled":false,"rental_uris":{"android":"levelo://app?vid=243b3ed3-d1f9-4cee-82b8-a33049fc746a","ios":"levelo://app?vid=243b3ed3-d1f9-4cee-82b8-a33049fc746a"},"vehicle_type_id":"4","last_reported":1745759784,"current_range_meters":22000,"station_id":"","pricing_plan_id":"cebpf4jnsgd1na2vs0mg"},{"bike_id":"1589dba7-8029-4d4a-b1cf-7fa9279ef7ad","system_id":"levelo_inurba_marseille","lat":43.32426,"lon":5.39086,"is_reserved":false,"is_disabled":false,"rental_uris":{"android":"levelo://app?vid=1589dba7-8029-4d4a-b1cf-7fa9279ef7ad","ios":"levelo://app?vid=1589dba7-8029-4d4a-b1cf-7fa9279ef7ad"},"vehicle_type_id":"4","last_reported":1745759784,"current_range_meters":22000,"station_id":"ce4bhqp2rcd13ifvqhog","pricing_plan_id":"cebpf4jnsgd1na2vs0mg"},