{"last_updated":1739610511,"ttl":60,"version":"2.2","data":{"bikes":[{"bike_id":"b4eaaa16-75cb-4709-832e-b79248334d06","system_id":"levelo_inurba_marseille","lat":43.29841,"lon":5.3627,"is_reserved":false,"is_disabled":false,"rental_uris":{"android":"levelo://app?vid=b4eaaa16-75cb-4709-832e-b79248334d06","ios":"levelo://app?vid=b4eaaa16-75cb-4709-832e-b79248334d06"},"vehicle_type_id":"4","last_reported":1739610511,"current_range_meters":32400,"station_id":"ce4bgpp2rcd13ifvqc3g","pricing_plan_id":"cebpf4jnsgd1na2vs0mg"},{"bike_id":"355f95b2-fc97-498c-8af7-7a8fe239b415","system_id":"levelo_inurba_marseille","lat":43.29597,"lon":5.38096,"is_reserved":false,"is_disabled":false,"rental_uris":{"android":"levelo://app?vid=355f95b2-fc97-498c-8af7-7a8fe239b415","ios":"levelo://app?vid=355f95b2-fc97-498c-8af7-7a8fe239b415"},"vehicle_type_id":"4","last_reported":1739610511,"current_range_meters":33600,"station_id":"ce4bgl12rcd13ifvqbo0","pricing_plan_id":"cebpf4jnsgd1na2vs0mg"},{"bike_id":"96233cd2-5c24-4c4d-895e-87d7e7739436","system_id":"levelo_inurba_marseille","lat":43.31715,"lon":5.4371,"is_reserved":false,"is_disabled":false,"rental_uris":{"android":"levelo://app?vid=96233cd2-5c24-4c4d-895e-87d7e7739436","ios":"levelo://app?vid=96233cd2-5c24-4c4d-895e-87d7e7739436"},"vehicle_type_id":"4","last_reported":1739610511,"current_range_meters":10800,"station_id":"ce4bhp92rcd13ifvqhcg","pricing_plan_id":"cebpf4jnsgd1na2vs0mg"},{"bike_id":"9cc420b3-18f9-47c4-949f-0afa5bddde00","system_id":"levelo_inurba_marseille","lat":43.29582,"lon":5.37505,"is_reserved":false,"is_disabled":false,"rental_uris":{"android":"levelo://app?vid=9cc420b3-18f9-47c4-949f-0afa5bddde00","ios":"levelo://app?vid=9cc420b3-18f9-47c4-949f-0afa5bddde00"},"vehicle_type_id":"4","last_reported":1739610511,"current_range_meters":33600,"station_id":"ce4bgh92rcd13ifvqb50","pricing_plan_id":"cebpf4jnsgd1na2vs0mg"},{"bike_id":"fb8a6337-1866-4237-9fd6-1bf63d54ae5c","system_id":"levelo_inurba_marseille","lat":43.30143,"lon":5.38778,"is_reserved":false,"is_disabled":true,"rental_uris":{"android":"levelo://app?vid=fb8a6337-1866-4237-9fd6-1bf63d54ae5c","ios":"levelo://app?vid=fb8a6337-1866-4237-9fd6-1bf63d54ae5c"},"vehicle_type_id":"4","last_reported":1739610511,"current_range_meters":37600,"station_id":"ce4bghh2rcd13ifvqb60","pricing_plan_id":"cebpf4jnsgd1na2vs0mg"},{"bike_id":"aeeb603c-9e21-471f-a3b4-471a46d5c228","system_id":"levelo_inurba_marseille","lat":43.24155,"lon":5.36402,"is_reserved":false,"is_disabled":false,"rental_uris":{"android":"levelo://app?vid=aeeb603c-9e21-471f-a3b4-471a46d5c228","ios":"levelo://app?vid=aeeb603c-9e21-471f-a3b4-471a46d5c228"},"vehicle_type_id":"4","last_reported":1739610511,"current_range_meters":17600,"station_id":"cpo36qri1sfpv3e86is0","pricing_plan_id":"cebpf4jnsgd1na2vs0mg"},{"bike_id":"1d4165b9-e8af-42e7-8e88-54a0f84b4f26","system_id":"levelo_inurba_marseille","lat":43.23204,"lon":5.39986,"is_reserved":false,"is_disabled":false,"rental_uris":{"android":"levelo://app?vid=1d4165b9-e8af-42e7-8e88-54a0f84b4f26","ios":"levelo://app?vid=1d4165b9-e8af-42e7-8e88-54a0f84b4f26"},"vehicle_type_id":"4","last_reported":1739610511,"current_range_meters":26000,"station_id":"ce4bhn12rcd13ifvqgqg","pricing_plan_id":"cebpf4jnsgd1na2vs0mg"},{"bike_id":"c1e76274-801b-4893-b793-e635178d8b86","system_id":"levelo_inurba_marseille","lat":43.2396,"lon":5.36635,"is_reserved":false,"is_disabled":false,"rental_uris":{"android":"levelo://app?vid=c1e76274-801b-4893-b793-e635178d8b86","ios":"levelo://app?vid=c1e76274-801b-4893-b793-e635178d8b86"},"vehicle_type_id":"4","last_reported":1739610511,"current_range_meters":38000,"station_id":"ce4bhi12rcd13ifvqfp0","pricing_plan_id":"cebpf4jnsgd1na2vs0mg"},{"bike_id":"27a6901f-c571-4183-a230-5d080776dec8","system_id":"levelo_inurba_marseille","lat":43.29694,"lon":5.3769,"is_reserved":false,"is_disabled":false,"rental_uris":{"android":"levelo://app?vid=27a6901f-c571-4183-a230-5d080776dec8","ios":"levelo://app?vid=27a6901f-c571-4183-a230-5d080776dec8"},"vehicle_type_id":"4","last_reported":1739610511,"current_range_meters":22400,"station_id":"ce4bgkh2rcd13ifvqbl0","pricing_plan_id":"cebpf4jnsgd1na2vs0mg"},{"bike_id":"c74f8124-73dc-4bd8-a98e-9fa42c510bc4","system_id":"levelo_inurba_marseille","lat":43.23184,"lon":5.39984,"is_reserved":false,"is_disabled":false,"rental_uris":{"android":"levelo://app?vid=c74f8124-73dc-4bd8-a98e-9fa42c510bc4","ios":"levelo://app?vid=c74f8124-73dc-4bd8-a98e-9fa42c510bc4"},"vehicle_type_id":"4","last_reported":1739610511,"current_range_meters":25600,"station_id":"ce4bhn12rcd13ifvqgqg","pricing_plan_id":"cebpf4jnsgd1na2vs0mg"},{"bike_id":"eace11fc-366d-49db-ab9f-2f957d528477","system_id":"levelo_inurba_marseille","lat":43.254987,"lon":5.376701,"is_reserved":false,"is_disabled":false,"rental_uris":{"android":"levelo://app?vid=eace11fc-366d-49db-ab9f-2f957d528477","ios":"levelo://app?vid=eace11fc-366d-49db-ab9f-2f957d528477"},"vehicle_type_id":"4","last_reported":1739610511,"current_range_meters":37600,"station_id":"ce4bhh12rcd13ifvqff0","pricing_plan_id":"cebpf4jnsgd1na2vs0mg"},{"bike_id":"c7322498-81a4-46c8-b4c9-ec796bfac1e6","system_id":"levelo_inurba_marseille","lat":43.24169,"lon":5.36394,"is_reserved":false,"is_disabled":true,"rental_uris":{"android":"levelo://app?vid=c7322498-81a4-46c8-b4c9-ec796bfac1e6","ios":"levelo://app?vid=c7322498-81a4-46c8-b4c9-ec796bfac1e6"},"vehicle_type_id":"4","last_reported":1739610511,"current_range_meters":800,"station_id":"cpo36qri1sfpv3e86is0","pricing_plan_id":"cebpf4jnsgd1na2vs0mg"},{"bike_id":"5d2484e8-d08f-4bba-ae77-36cb31e97e9b","system_id":"levelo_inurba_marseille","lat":43.29554,"lon":5.422824,"is_reserved":false,"is_disabled":false,"rental_uris":{"android":"levelo://app?vid=5d2484e8-d08f-4bba-ae77-36cb31e97e9b","ios":"levelo://app?vid=5d2484e8-d08f-4bba-ae77-36cb31e97e9b"},"vehicle_type_id":"4","last_reported":1739610511,"current_range_meters":39200,"station_id":"ce4bhph2rcd13ifvqhdg","pricing_plan_id":"cebpf4jnsgd1na2vs0mg"},{"bike_id":"6b42f4f1-2360-420a-81a5-fa8f868ac30d","system_id":"levelo_inurba_marseille","lat":43.271878,"lon":5.390174,"is_reserved":false,"is_disabled":false,"rental_uris":{"android":"levelo://app?vid=6b42f4f1-2360-420a-81a5-fa8f868ac30d","ios":"levelo://app?vid=6b42f4f1-2360-420a-81a5-fa8f868ac30d"},"vehicle_type_id":"4","last_reported":1739610511,"current_range_meters":33600,"station_id":"","pricing_plan_id":"cebpf4jnsgd1na2vs0mg"},{"bike_id":"bfe726e0-a711-4722-afbe-725e1c792569","system_id":"levelo_inurba_marseille","lat":43.28963,"lon":5.37846,"is_reserved":false,"is_disabled":false,"rental_uris":{"android":"levelo://app?vid=bfe726e0-a711-4722-afbe-725e1c792569","ios":"levelo://app?vid=bfe726e0-a711-4722-afbe-725e1c792569"},"vehicle_type_id":"4","last_reported":1739610511,"current_range_meters":38800,"station_id":"ce4bh9p2rcd13ifvqed0","pricing_plan_id":"cebpf4jnsgd1na2vs0mg"},{"bike_id":"9edaa54b-e752-46ff-a286-87b02591bd3a","system_id":"levelo_inurba_marseille","lat":43.29574,"lon":5.37522,"is_reserved":false,"is_disabled":false,"rental_uris":{"android":"levelo://app?vid=9edaa54b-e752-46ff-a286-87b02591bd3a","ios":"levelo://app?vid=9edaa54b-e752-46ff-a286-87b02591bd3a"},"vehicle_type_id":"4","last_reported":1739610511,"current_range_meters":38800,"station_id":"ce4bgh92rcd13ifvqb50","pricing_plan_id":"cebpf4jnsgd1na2vs0mg"},{"bike_id":"6ec6c686-c53d-4108-ad4c-4d96fea2b652","system_id":"levelo_inurba_marseille","lat":43.30658,"lon":5.40108,"is_reserved":false,"is_disabled":false,"rental_uris":{"android":"levelo://app?vid=6ec6c686-c53d-4108-ad4c-4d96fea2b652","ios":"levelo://app?vid=6ec6c686-c53d-4108-ad4c-4d96fea2b652"},"vehicle_type_id":"4","last_reported":1739610511,"current_range_meters":20000,"station_id":"ce4bh112rcd13ifvqda0","pricing_plan_id":"cebpf4jnsgd1na2vs0mg"},{"bike_id":"424ac609-4d79-408c-9829-f4d111f0a95f","system_id":"levelo_inurba_marseille","lat":43.30442,"lon":5.39755,"is_reserved":false,"is_disabled":false,"rental_uris":{"android":"levelo://app?vid=424ac609-4d79-408c-9829-f4d111f0a95f","ios":"levelo://app?vid=424ac609-4d79-408c-9829-f4d111f0a95f"},"vehicle_type_id":"4","last_reported":1739610511,"current_range_meters":9600,"station_id":"ce4bh092rcd13ifvqd20","pricing_plan_id":"cebpf4jnsgd1na2vs0mg"},{"bike_id":"b34c6303-752a-46a1-93ad-ddbc991e20b6","system_id":"levelo_inurba_marseille","lat":43.23068,"lon":5.35492,"is_reserved":false,"is_disabled":false,"rental_uris":{"android":"levelo://app?vid=b34c6303-752a-46a1-93ad-ddbc991e20b6","ios":"levelo://app?vid=b34c6303-752a-46a1-93ad-ddbc991e20b6"},"vehicle_type_id":"4","last_reported":1739610511,"current_range_meters":37600,"station_id":"cpo3342slgdg3j2ifvpg","pricing_plan_id":"cebpf4jnsgd1na2vs0mg"},{"bike_id":"d814ee26-050b-424e-b737-d3f6d8a14099","system_id":"levelo_inurba_marseille","lat":43.29255,"lon":5.38438,"is_reserved":false,"is_disabled":true,"rental_uris":{"android":"levelo://app?vid=d814ee26-050b-424e-b737-d3f6d8a14099","ios":"levelo://app?vid=d814ee26-050b-424e-b737-d3f6d8a14099"},"vehicle_type_id":"4","last_reported":1739610511,"current_range_meters":27600,"station_id":"ce4bh692rcd13ifvqea0","pricing_plan_id":"cebpf4jnsgd1na2vs0mg"},{"bike_id":"78d173ae-b715-496b-84c7-0dad149a44f3","system_id":"levelo_inurba_marseille","lat":43.292451,"lon":5.409091,"is_reserved":false,"is_disabled":false,"rental_uris":{"android":"levelo://app?vid=78d173ae-b715-496b-84c7-0dad149a44f3","ios":"levelo://app?vid=78d173ae-b715-496b-84c7-0dad149a44f3"},"vehicle_type_id":"4","last_reported":1739610511,"current_range_meters":38800,"station_id":"ce4bh192rcd13ifvqdc0","pricing_plan_id":"cebpf4jnsgd1na2vs0mg"},{"bike_id":"4888293c-53d9-41af-9d01-aaebd6332d6b","system_id":"levelo_inurba_marseille","lat":43.29923,"lon":5.37458,"is_reserved":false,"is_disabled":false,"rental_uris":{"android":"levelo://app?vid=4888293c-53d9-41af-9d01-aaebd6332d6b","ios":"levelo://app?vid=4888293c-53d9-41af-9d01-aaebd6332d6b"},"vehicle_type_id":"4","last_reported":1739610511,"current_range_meters":38000,"station_id":"ce4bgjh2rcd13ifvqbg0","pricing_plan_id":"cebpf4jnsgd1na2vs0mg"},{"bike_id":"1300f95a-15ad-4299-a221-177495e93e42","system_id":"levelo_inurba_marseille","lat":43.32701,"lon":5.40939,"is_reserved":false,"is_disabled":false,"rental_uris":{"android":"levelo://app?vid=1300f95a-15ad-4299-a221-177495e93e42","ios":"levelo://app?vid=1300f95a-15ad-4299-a221-177495e93e42"},"vehicle_type_id":"4","last_reported":1739610511,"current_range_meters":23200,"station_id":"","pricing_plan_id":"cebpf4jnsgd1na2vs0mg"},{"bike_id":"0f7993d0-1d95-4387-96fe-a2c80128079f","system_id":"levelo_inurba_marseille","lat":43.30448,"lon":5.37912,"is_reserved":false,"is_disabled":false,"rental_uris":{"android":"levelo://app?vid=0f7993d0-1d95-4387-96fe-a2c80128079f","ios":"levelo://app?vid=0f7993d0-1d95-4387-96fe-a2c80128079f"},"vehicle_type_id":"4","last_reported":1739610511,"current_range_meters":18000,"station_id":"ce4bgup2rcd13ifvqcn0","pricing_plan_id":"cebpf4jnsgd1na2vs0mg"},{"bike_id":"ab5a4876-a304-42c5-b5c2-54299646e2f8","system_id":"levelo_inurba_marseille","lat":43.30687,"lon":5.40511,"is_reserved":false,"is_disabled":false,"rental_uris":{"android":"levelo://app?vid=ab5a4876-a304-42c5-b5c2-54299646e2f8","ios":"levelo://app?vid=ab5a4876-a304-42c5-b5c2-54299646e2f8"},"vehicle_type_id":"4","last_reported":1739610511,"current_range_meters":16800,"station_id":"","pricing_plan_id":"cebpf4jnsgd1na2vs0mg"},{"bike_id":"13475279-2ac4-4a8e-ba61-f31e11838811","system_id":"levelo_inurba_marseille","lat":43.30247,"lon":5.4009,"is_reserved":false,"is_disabled":false,"rental_uris":{"android":"levelo://app?vid=13475279-2ac4-4a8e-ba61-f31e11838811","ios":"levelo://app?vid=13475279-2ac4-4a8e-ba61-f31e11838811"},"vehicle_type_id":"4","last_reported":1739610511,"current_range_meters":30400,"station_id":"ce4bgvh2rcd13ifvqcs0","pricing_plan_id":"cebpf4jnsgd1na2vs0mg"},{"bike_id":"d430bbf5-dcb4-4006-8220-7af0587abbc5","system_id":"levelo_inurba_marseille","lat":43.25075,"lon":5.39506,"is_reserved":false,"is_disabled":false,"rental_uris":{"android":"levelo://app?vid=d430bbf5-dcb4-4006-8220-7af0587abbc5","ios":"levelo://app?vid=d430bbf5-dcb4-4006-8220-7af0587abbc5"},"vehicle_type_id":"4","last_reported":1739610511,"current_range_meters":39200,"station_id":"ce4bhm12rcd13ifvqgkg","pricing_plan_id":"cebpf4jnsgd1na2vs0mg"},{"bike_id":"5ffccd67-5e8a-48cc-a920-638d4d184917","system_id":"levelo_inurba_marseille","lat":43.30461,"lon":5.37903,"is_reserved":false,"is_disabled":false,"rental_uris":{"android":"levelo://app?vid=5ffccd67-5e8a-48cc-a920-638d4d184917","ios":"levelo://app?vid=5ffccd67-5e8a-48cc-a920-638d4d184917"},"vehicle_type_id":"4","last_reported":1739610511,"current_range_meters":34000,"station_id":"ce4bgup2rcd13ifvqcn0","pricing_plan_id":"cebpf4jnsgd1na2vs0mg"},{"bike_id":"5ac1b3e9-6624-4bab-a598-45ab544a1b2f","system_id":"levelo_inurba_marseille","lat":43.26687,"lon":5.38327,"is_reserved":false,"is_disabled":false,"rental_uris":{"android":"levelo://app?vid=5ac1b3e9-6624-4bab-a598-45ab544a1b2f","ios":"levelo://app?vid=5ac1b3e9-6624-4bab-a598-45ab544a1b2f"},"vehicle_type_id":"4","last_reported":1739610511,"current_range_meters":6000,"station_id":"ce4bhg92rcd13ifvqf90","pricing_plan_id":"cebpf4jnsgd1na2vs0mg"},{"bike_id":"75c844a4-dc00-4546-bf1b-51f8086d72ad","system_id":"levelo_inurba_marseille","lat":43.30217,"lon":5.39469,"is_reserved":false,"is_disabled":false,"rental_uris":{"android":"levelo://app?vid=75c844a4-dc00-4546-bf1b-51f8086d72ad","ios":"levelo://app?vid=75c844a4-dc00-4546-bf1b-51f8086d72ad"},"vehicle_type_id":"4","last_reported":1739610511,"current_range_meters":38000,"station_id":"ce4bh0p2rcd13ifvqd70","pricing_plan_id":"cebpf4jnsgd1na2vs0mg"},{"bike_id":"a2b8b535-68ab-48b4-8f05-9e1a3fd245cc","system_id":"levelo_inurba_marseille","lat":43.31764,"lon":5.3902,"is_reserved":false,"is_disabled":false,"rental_uris":{"android":"levelo://app?vid=a2b8b535-68ab-48b4-8f05-9e1a3fd245cc","ios":"levelo://app?vid=a2b8b535-68ab-48b4-8f05-9e1a3fd245cc"},"vehicle_type_id":"4","last_reported":1739610511,"current_range_meters":32800,"station_id":"ce4bhqp2rcd13ifvqhng","pricing_plan_id":"cebpf4jnsgd1na2vs0mg"},{"bike_id":"1f0657bb-7196-41de-84fc-c834bbf90b28","system_id":"levelo_inurba_marseille","lat":43.2807,"lon":5.39659,"is_reserved":false,"is_disabled":true,"rental_uris":{"android":"levelo://app?vid=1f0657bb-7196-41de-84fc-c834bbf90b28","ios":"levelo://app?vid=1f0657bb-7196-41de-84fc-c834bbf90b28"},"vehicle_type_id":"4","last_reported":1739610511,"current_range_meters":36800,"station_id":"ce4bho12rcd13ifvqh2g","pricing_plan_id":"cebpf4jnsgd1na2vs0mg"},{"bike_id":"fc6f4d75-492f-4540-98c8-02ea53740003","system_id":"levelo_inurba_marseille","lat":43.29225,"lon":5.3608,"is_reserved":false,"is_disabled":false,"rental_uris":{"android":"levelo://app?vid=fc6f4d75-492f-4540-98c8-02ea53740003","ios":"levelo://app?vid=fc6f4d75-492f-4540-98c8-02ea53740003"},"vehicle_type_id":"4","last_reported":1739610511,"current_range_meters":20000,"station_id":"ce4bhbh2rcd13ifvqeqg","pricing_plan_id":"cebpf4jnsgd1na2vs0mg"},{"bike_id":"cc52dec1-67b6-4c07-b07c-19c77250a425","system_id":"levelo_inurba_marseille","lat":43.31331,"lon":5.39703,"is_reserved":false,"is_disabled":false,"rental_uris":{"android":"levelo://app?vid=cc52dec1-67b6-4c07-b07c-19c77250a425","ios":"levelo://app?vid=cc52dec1-67b6-4c07-b07c-19c77250a425"},"vehicle_type_id":"4","last_reported":1739610511,"current_range_meters":38800,"station_id":"ce4bgvp2rcd13ifvqcu0","pricing_plan_id":"cebpf4jnsgd1na2vs0mg"},{"bike_id":"04826741-9203-41a1-85e6-32051bcfd227","system_id":"levelo_inurba_marseille","lat":43.24815,"lon":5.37447,"is_reserved":false,"is_disabled":true,"rental_uris":{"android":"levelo://app?vid=04826741-9203-41a1-85e6-32051bcfd227","ios":"levelo://app?vid=04826741-9203-41a1-85e6-32051bcfd227"},"vehicle_type_id":"4","last_reported":1739610511,"current_range_meters":1200,"station_id":"ce4bhgh2rcd13ifvqfb0","pricing_plan_id":"cebpf4jnsgd1na2vs0mg"},{"bike_id":"179c65d4-e637-43fd-ba13-7b8d408dfcda","system_id":"levelo_inurba_marseille","lat":43.29559,"lon":5.42271,"is_reserved":false,"is_disabled":false,"rental_uris":{"android":"levelo://app?vid=179c65d4-e637-43fd-ba13-7b8d408dfcda","ios":"levelo://app?vid=179c65d4-e637-43fd-ba13-7b8d408dfcda"},"vehicle_type_id":"4","last_reported":1739610511,"current_range_meters":18000,"station_id":"ce4bhph2rcd13ifvqhdg","pricing_plan_id":"cebpf4jnsgd1na2vs0mg"},{"bike_id":"d9d039e9-95b6-4e20-817d-1c241a2e3b8a","system_id":"levelo_inurba_marseille","lat":43.34717,"lon":5.37342,"is_reserved":false,"is_disabled":false,"rental_uris":{"android":"levelo://app?vid=d9d039e9-95b6-4e20-817d-1c241a2e3b8a","ios":"levelo://app?vid=d9d039e9-95b6-4e20-817d-1c241a2e3b8a"},"vehicle_type_id":"4","last_reported":1739610511,"current_range_meters":27200,"station_id":"","pricing_plan_id":"cebpf4jnsgd1na2vs0mg"},{"bike_id":"7a2aa0ae-fdf7-4793-9ccf-dca69e169d96","system_id":"levelo_inurba_marseille","lat":43.29261,"lon":5.40922,"is_reserved":false,"is_disabled":false,"rental_uris":{"android":"levelo://app?vid=7a2aa0ae-fdf7-4793-9ccf-dca69e169d96","ios":"levelo://app?vid=7a2aa0ae-fdf7-4793-9ccf-dca69e169d96"},"vehicle_type_id":"4","last_reported":1739610511,"current_range_meters":39200,"station_id":"ce4bh192rcd13ifvqdc0","pricing_plan_id":"cebpf4jnsgd1na2vs0mg"},{"bike_id":"97708c38-52e6-4f5f-9662-cb7bef18df90","system_id":"levelo_inurba_marseille","lat":43.30656,"lon":5.40063,"is_reserved":false,"is_disabled":false,"rental_uris":{"android":"levelo://app?vid=97708c38-52e6-4f5f-9662-cb7bef18df90","ios":"levelo://app?vid=97708c38-52e6-4f5f-9662-cb7bef18df90"},"vehicle_type_id":"4","last_reported":1739610511,"current_range_meters":39200,"station_id":"ce4bh112rcd13ifvqda0","pricing_plan_id":"cebpf4jnsgd1na2vs0mg"},{"bike_id":"e442d07b-cb2a-4a21-81d2-6ff93e19ee71","system_id":"levelo_inurba_marseille","lat":43.29495,"lon":5.3944,"is_reserved":false,"is_disabled":false,"rental_uris":{"android":"levelo://app?vid=e442d07b-cb2a-4a21-81d2-6ff93e19ee71","ios":"levelo://app?vid=e442d07b-cb2a-4a21-81d2-6ff93e19ee71"},"vehicle_type_id":"4","last_reported":1739610511,"current_range_meters":37600,"station_id":"ce4bh292rcd13ifvqdf0","pricing_plan_id":"cebpf4jnsgd1na2vs0mg"},{"bike_id":"ce50de91-d2b1-46f5-b3a9-a90deec7008f","system_id":"levelo_inurba_marseille","lat":43.28932,"lon":5.39659,"is_reserved":false,"is_disabled":true,"rental_uris":{"android":"levelo://app?vid=ce50de91-d2b1-46f5-b3a9-a90deec7008f","ios":"levelo://app?vid=ce50de91-d2b1-46f5-b3a9-a90deec7008f"},"vehicle_type_id":"4","last_reported":1739610511,"current_range_meters":16400,"station_id":"ce4bh3h2rcd13ifvqdn0","pricing_plan_id":"cebpf4jnsgd1na2vs0mg"},{"bike_id":"f92e748a-9f9b-4e54-8084-07e33515f3d5","system_id":"levelo_inurba_marseille","lat":43.27072,"lon":5.39325,"is_reserved":false,"is_disabled":true,"rental_uris":{"android":"levelo://app?vid=f92e748a-9f9b-4e54-8084-07e33515f3d5","ios":"levelo://app?vid=f92e748a-9f9b-4e54-8084-07e33515f3d5"},"vehicle_type_id":"4","last_reported":1739610511,"current_range_meters":0,"station_id":"","pricing_plan_id":"cebpf4jnsgd1na2vs0mg"},{"bike_id":"ce4127ed-14ba-47ba-8a90-81368fbd5bf4","system_id":"levelo_inurba_marseille","lat":43.30959,"lon":5.40105,"is_reserved":false,"is_disabled":false,"rental_uris":{"android":"levelo://app?vid=ce4127ed-14ba-47ba-8a90-81368fbd5bf4","ios":"levelo://app?vid=ce4127ed-14ba-47ba-8a90-81368fbd5bf4"},"vehicle_type_id":"4","last_reported":1739610511,"current_range_meters":30800,"station_id":"ce4bgvp2rcd13ifvqct0","pricing_plan_id":"cebpf4jnsgd1na2vs0mg"},{"bike_id":"704ec19d-e7c0-4858-a423-dcfa560220a5","system_id":"levelo_inurba_marseille","lat":43.23203,"lon":5.39944,"is_reserved":false,"is_disabled":false,"rental_uris":{"android":"levelo://app?vid=704ec19d-e7c0-4858-a423-dcfa560220a5","ios":"levelo://app?vid=704ec19d-e7c0-4858-a423-dcfa560220a5"},"vehicle_type_id":"4","last_reported":1739610511,"current_range_meters":30400,"station_id":"ce4bhn12rcd13ifvqgqg","pricing_plan_id":"cebpf4jnsgd1na2vs0mg"},{"bike_id":"2e0d4b9a-173f-48bf-aeee-cdbbe6dbe006","system_id":"levelo_inurba_marseille","lat":43.28461,"lon":5.358805,"is_reserved":false,"is_disabled":false,"rental_uris":{"android":"levelo://app?vid=2e0d4b9a-173f-48bf-aeee-cdbbe6dbe006","ios":"levelo://app?vid=2e0d4b9a-173f-48bf-aeee-cdbbe6dbe006"},"vehicle_type_id":"4","last_reported":1739610511,"current_range_meters":25600,"station_id":"ce4bhah2rcd13ifvqei0","pricing_plan_id":"cebpf4jnsgd1na2vs0mg"},{"bike_id":"92dd76db-fc74-414e-bcda-17b7621ccc19","system_id":"levelo_inurba_marseille","lat":43.29258,"lon":5.37623,"is_reserved":false,"is_disabled":false,"rental_uris":{"android":"levelo://app?vid=92dd76db-fc74-414e-bcda-17b7621ccc19","ios":"levelo://app?vid=92dd76db-fc74-414e-bcda-17b7621ccc19"},"vehicle_type_id":"4","last_reported":1739610511,"current_range_meters":14800,"station_id":"ce4bgi12rcd13ifvqb70","pricing_plan_id":"cebpf4jnsgd1na2vs0mg"},{"bike_id":"42c4cca6-d6ba-4a05-a475-76032d7357ae","system_id":"levelo_inurba_marseille","lat":43.26954,"lon":5.38637,"is_reserved":false,"is_disabled":false,"rental_uris":{"android":"levelo://app?vid=42c4cca6-d6ba-4a05-a475-76032d7357ae","ios":"levelo://app?vid=42c4cca6-d6ba-4a05-a475-76032d7357ae"},"vehicle_type_id":"4","last_reported":1739610511,"current_range_meters":24800,"station_id":"ce4bhh92rcd13ifvqfh0","pricing_plan_id":"cebpf4jnsgd1na2vs0mg"},{"bike_id":"f39f3067-a625-420c-8f1c-fff549e61ef0","system_id":"levelo_inurba_marseille","lat":43.27212,"lon":5.3918,"is_reserved":false,"is_disabled":false,"rental_uris":{"android":"levelo://app?vid=f39f3067-a625-420c-8f1c-fff549e61ef0","ios":"levelo://app?vid=f39f3067-a625-420c-8f1c-fff549e61ef0"},"vehicle_type_id":"4","last_reported":1739610511,"current_range_meters":32000,"station_id":"ce4bhhp2rcd13ifvqfm0","pricing_plan_id":"cebpf4jnsgd1na2vs0mg"},{"bike_id":"1083fbef-444c-4226-8dc5-ce1779211f00","system_id":"levelo_inurba_marseille","lat":43.30653,"lon":5.4008,"is_reserved":false,"is_disabled":false,"rental_uris":{"android":"levelo://app?vid=1083fbef-444c-4226-8dc5-ce1779211f00","ios":"levelo://app?vid=1083fbef-444c-4226-8dc5-ce1779211f00"},"vehicle_type_id":"4","last_reported":1739610511,"current_range_meters":31200,"station_id":"ce4bh112rcd13ifvqda0","pricing_plan_id":"cebpf4jnsgd1na2vs0mg"},{"bike_id":"9cf8e6d9-67b8-441b-8ab4-08ef8560d2b0","system_id":"levelo_inurba_marseille","lat":43.33514,"lon":5.35585,"is_reserved":false,"is_disabled":true,"rental_uris":{"android":"levelo://app?vid=9cf8e6d9-67b8-441b-8ab4-08ef8560d2b0","ios":"levelo://app?vid=9cf8e6d9-67b8-441b-8ab4-08ef8560d2b0"},"vehicle_type_id":"4","last_reported":1739610511,"current_range_meters":0,"station_id":"","pricing_plan_id":"cebpf4jnsgd1na2vs0mg"},{"bike_id":"8c0043c5-0ee5-4c77-a687-c82057fa805c","system_id":"levelo_inurba_marseille","lat":43.27998,"lon":5.40018,"is_reserved":false,"is_disabled":false,"rental_uris":{"android":"levelo://app?vid=8c0043c5-0ee5-4c77-a687-c82057fa805c","ios":"levelo://app?vid=8c0043c5-0ee5-4c77-a687-c82057fa805c"},"vehicle_type_id":"4","last_reported":1739610511,"current_range_meters":38000,"station_id":"ce4bho92rcd13ifvqh4g","pricing_plan_id":"cebpf4jnsgd1na2vs0mg"},{"bike_id":"e8383a41-ab98-41de-8229-dcb769519e9e","system_id":"levelo_inurba_marseille","lat":43.279162,"lon":5.395772,"is_reserved":false,"is_disabled":false,"rental_uris":{"android":"levelo://app?vid=e8383a41-ab98-41de-8229-dcb769519e9e","ios":"levelo://app?vid=e8383a41-ab98-41de-8229-dcb769519e9e"},"vehicle_type_id":"4","last_reported":1739610511,"current_range_meters":16000,"station_id":"ce4bhf92rcd13ifvqf40","pricing_plan_id":"cebpf4jnsgd1na2vs0mg"},{"bike_id":"6279f888-1d4b-4ebb-b3f2-c7248902b00f","system_id":"levelo_inurba_marseille","lat":43.25494,"lon":5.3763,"is_reserved":false,"is_disabled":false,"rental_uris":{"android":"levelo://app?vid=6279f888-1d4b-4ebb-b3f2-c7248902b00f","ios":"levelo://app?vid=6279f888-1d4b-4ebb-b3f2-c7248902b00f"},"vehicle_type_id":"4","last_reported":1739610511,"current_range_meters":12800,"station_id":"ce4bhh12rcd13ifvqff0","pricing_plan_id":"cebpf4jnsgd1na2vs0mg"},{"bike_id":"c5e5ee3c-422c-40c8-97e8-b9c497db8046","system_id":"levelo_inurba_marseille","lat":43.30424,"lon":5.41295,"is_reserved":false,"is_disabled":false,"rental_uris":{"android":"levelo://app?vid=c5e5ee3c-422c-40c8-97e8-b9c497db8046","ios":"levelo://app?vid=c5e5ee3c-422c-40c8-97e8-b9c497db8046"},"vehicle_type_id":"4","last_reported":1739610511,"current_range_meters":38800,"station_id":"ce4bhop2rcd13ifvqh8g","pricing_plan_id":"cebpf4jnsgd1na2vs0mg"},{"bike_id":"811b63d6-9c3c-4b06-849e-3b400f65e795","system_id":"levelo_inurba_marseille","lat":43.24632,"lon":5.38911,"is_reserved":false,"is_disabled":false,"rental_uris":{"android":"levelo://app?vid=811b63d6-9c3c-4b06-849e-3b400f65e795","ios":"levelo://app?vid=811b63d6-9c3c-4b06-849e-3b400f65e795"},"vehicle_type_id":"4","last_reported":1739610511,"current_range_meters":10800,"station_id":"ce4bhg12rcd13ifvqf60","pricing_plan_id":"cebpf4jnsgd1na2vs0mg"},{"bike_id":"e8e0bf5e-e649-40fe-b843-877cd938ff9e","system_id":"levelo_inurba_marseille","lat":43.27526,"lon":5.42457,"is_reserved":false,"is_disabled":false,"rental_uris":{"android":"levelo://app?vid=e8e0bf5e-e649-40fe-b843-877cd938ff9e","ios":"levelo://app?vid=e8e0bf5e-e649-40fe-b843-877cd938ff9e"},"vehicle_type_id":"4","last_reported":1739610511,"current_range_meters":39200,"station_id":"ce4bhn92rcd13ifvqgrg","pricing_plan_id":"cebpf4jnsgd1na2vs0mg"},{"bike_id":"6ca4b924-3688-46e7-bd35-72516cbd0359","system_id":"levelo_inurba_marseille","lat":43.2619,"lon":5.3745,"is_reserved":false,"is_disabled":false,"rental_uris":{"android":"levelo://app?vid=6ca4b924-3688-46e7-bd35-72516cbd0359","ios":"levelo://app?vid=6ca4b924-3688-46e7-bd35-72516cbd0359"},"vehicle_type_id":"4","last_reported":1739610511,"current_range_meters":36800,"station_id":"ce4bhgp2rcd13ifvqfc0","pricing_plan_id":"cebpf4jnsgd1na2vs0mg"},{"bike_id":"8f5592f5-8e76-44ea-9d95-fe82f44a76d2","system_id":"levelo_inurba_marseille","lat":43.24067,"lon":5.37735,"is_reserved":false,"is_disabled":false,"rental_uris":{"android":"levelo://app?vid=8f5592f5-8e76-44ea-9d95-fe82f44a76d2","ios":"levelo://app?vid=8f5592f5-8e76-44ea-9d95-fe82f44a76d2"},"vehicle_type_id":"4","last_reported":1739610511,"current_range_meters":38400,"station_id":"ce4bhnp2rcd13ifvqgvg","pricing_plan_id":"cebpf4jnsgd1na2vs0mg"},{"bike_id":"be9f3d93-6f26-425f-8b47-54b5e242f5cd","system_id":"levelo_inurba_marseille","lat":43.30443,"lon":5.39742,"is_reserved":false,"is_disabled":false,"rental_uris":{"android":"levelo://app?vid=be9f3d93-6f26-425f-8b47-54b5e242f5cd","ios":"levelo://app?vid=be9f3d93-6f26-425f-8b47-54b5e242f5cd"},"vehicle_type_id":"4","last_reported":1739610511,"current_range_meters":38800,"station_id":"ce4bh092rcd13ifvqd20","pricing_plan_id":"cebpf4jnsgd1na2vs0mg"},{"bike_id":"86081e76-774c-4e24-8176-3b3c91d007e6","system_id":"levelo_inurba_marseille","lat":43.24063,"lon":5.37755,"is_reserved":false,"is_disabled":false,"rental_uris":{"android":"levelo://app?vid=86081e76-774c-4e24-8176-3b3c91d007e6","ios":"levelo://app?vid=86081e76-774c-4e24-8176-3b3c91d007e6"},"vehicle_type_id":"4","last_reported":1739610511,"current_range_meters":28400,"station_id":"ce4bhnp2rcd13ifvqgvg","pricing_plan_id":"cebpf4jnsgd1na2vs0mg"},{"bike_id":"51ab7186-5043-4bed-baca-73708608a302","system_id":"levelo_inurba_marseille","lat":43.29584,"lon":5.37026,"is_reserved":false,"is_disabled":true,"rental_uris":{"android":"levelo://app?vid=51ab7186-5043-4bed-baca-73708608a302","ios":"levelo://app?vid=51ab7186-5043-4bed-baca-73708608a302"},"vehicle_type_id":"4","last_reported":1739610511,"current_range_meters":0,"station_id":"","pricing_plan_id":"cebpf4jnsgd1na2vs0mg"},{"bike_id":"0b7768d6-2aff-46a7-b5e9-1eb94fb02f13","system_id":"levelo_inurba_marseille","lat":43.28277,"lon":5.35054,"is_reserved":false,"is_disabled":false,"rental_uris":{"android":"levelo://app?vid=0b7768d6-2aff-46a7-b5e9-1eb94fb02f13","ios":"levelo://app?vid=0b7768d6-2aff-46a7-b5e9-1eb94fb02f13"},"vehicle_type_id":"4","last_reported":1739610511,"current_range_meters":6800,"station_id":"ce4bhbp2rcd13ifvqerg","pricing_plan_id":"cebpf4jnsgd1na2vs0mg"},{"bike_id":"1a52679f-2fd7-4438-a290-987a2e8bea54","system_id":"levelo_inurba_marseille","lat":43.29711,"lon":5.37698,"is_reserved":false,"is_disabled":false,"rental_uris":{"android":"levelo://app?vid=1a52679f-2fd7-4438-a290-987a2e8bea54","ios":"levelo://app?vid=1a52679f-2fd7-4438-a290-987a2e8bea54"},"vehicle_type_id":"4","last_reported":1739610511,"current_range_meters":36000,"station_id":"ce4bgkh2rcd13ifvqbl0","pricing_plan_id":"cebpf4jnsgd1na2vs0mg"},{"bike_id":"d3fc5f7e-9983-4343-a9af-f36df7d45f29","system_id":"levelo_inurba_marseille","lat":43.23186,"lon":5.39994,"is_reserved":false,"is_disabled":false,"rental_uris":{"android":"levelo://app?vid=d3fc5f7e-9983-4343-a9af-f36df7d45f29","ios":"levelo://app?vid=d3fc5f7e-9983-4343-a9af-f36df7d45f29"},"vehicle_type_id":"4","last_reported":1739610511,"current_range_meters":16000,"station_id":"ce4bhn12rcd13ifvqgqg","pricing_plan_id":"cebpf4jnsgd1na2vs0mg"},{"bike_id":"015dd0e7-d173-40e3-9a9f-17a8c8aa3818","system_id":"levelo_inurba_marseille","lat":43.28911,"lon":5.37925,"is_reserved":false,"is_disabled":false,"rental_uris":{"android":"levelo://app?vid=015dd0e7-d173-40e3-9a9f-17a8c8aa3818","ios":"levelo://app?vid=015dd0e7-d173-40e3-9a9f-17a8c8aa3818"},"vehicle_type_id":"4","last_reported":1739610511,"current_range_meters":38800,"station_id":"ce4bh9p2rcd13ifvqed0","pricing_plan_id":"cebpf4jnsgd1na2vs0mg"},{"bike_id":"680b8d39-87ff-4ff5-bba6-03715a98c59b","system_id":"levelo_inurba_marseille","lat":43.26554,"lon":5.37283,"is_reserved":false,"is_disabled":false,"rental_uris":{"android":"levelo://app?vid=680b8d39-87ff-4ff5-bba6-03715a98c59b","ios":"levelo://app?vid=680b8d39-87ff-4ff5-bba6-03715a98c59b"},"vehicle_type_id":"4","last_reported":1739610511,"current_range_meters":23200,"station_id":"ce4bhg12rcd13ifvqf70","pricing_plan_id":"cebpf4jnsgd1na2vs0mg"},{"bike_id":"635450e7-7bbd-4225-8704-989f96e65061","system_id":"levelo_inurba_marseille","lat":43.27501,"lon":5.42469,"is_reserved":false,"is_disabled":false,"rental_uris":{"android":"levelo://app?vid=635450e7-7bbd-4225-8704-989f96e65061","ios":"levelo://app?vid=635450e7-7bbd-4225-8704-989f96e65061"},"vehicle_type_id":"4","last_reported":1739610511,"current_range_meters":39200,"station_id":"ce4bhn92rcd13ifvqgrg","pricing_plan_id":"cebpf4jnsgd1na2vs0mg"},{"bike_id":"6243740b-900c-49eb-ab60-bae0a6738da4","system_id":"levelo_inurba_marseille","lat":43.2845,"lon":5.3588,"is_reserved":false,"is_disabled":false,"rental_uris":{"android":"levelo://app?vid=6243740b-900c-49eb-ab60-bae0a6738da4","ios":"levelo://app?vid=6243740b-900c-49eb-ab60-bae0a6738da4"},"vehicle_type_id":"4","last_reported":1739610511,"current_range_meters":38800,"station_id":"ce4bhah2rcd13ifvqei0","pricing_plan_id":"cebpf4jnsgd1na2vs0mg"},{"bike_id":"5fbe50a8-885b-4657-b77c-df4181249707","system_id":"levelo_inurba_marseille","lat":43.30092,"lon":5.40536,"is_reserved":false,"is_disabled":false,"rental_uris":{"android":"levelo://app?vid=5fbe50a8-885b-4657-b77c-df4181249707","ios":"levelo://app?vid=5fbe50a8-885b-4657-b77c-df4181249707"},"vehicle_type_id":"4","last_reported":1739610511,"current_range_meters":34800,"station_id":"","pricing_plan_id":"cebpf4jnsgd1na2vs0mg"},{"bike_id":"c40e2cb9-b89c-4dbd-956b-535ef79f1d37","system_id":"levelo_inurba_marseille","lat":43.24811,"lon":5.37457,"is_reserved":false,"is_disabled":false,"rental_uris":{"android":"levelo://app?vid=c40e2cb9-b89c-4dbd-956b-535ef79f1d37","ios":"levelo://app?vid=c40e2cb9-b89c-4dbd-956b-535ef79f1d37"},"vehicle_type_id":"4","last_reported":1739610511,"current_range_meters":24800,"station_id":"ce4bhgh2rcd13ifvqfb0","pricing_plan_id":"cebpf4jnsgd1na2vs0mg"},{"bike_id":"5740b451-d30b-4314-99bf-f942ccde5875","system_id":"levelo_inurba_marseille","lat":43.25001,"lon":5.38932,"is_reserved":false,"is_disabled":false,"rental_uris":{"android":"levelo://app?vid=5740b451-d30b-4314-99bf-f942ccde5875","ios":"levelo://app?vid=5740b451-d30b-4314-99bf-f942ccde5875"},"vehicle_type_id":"4","last_reported":1739610511,"current_range_meters":14800,"station_id":"ce4bhgp2rcd13ifvqfd0","pricing_plan_id":"cebpf4jnsgd1na2vs0mg"},{"bike_id":"6d14ffd0-8cb0-40f3-8b6f-5b79b4098bae","system_id":"levelo_inurba_marseille","lat":43.28112,"lon":5.37821,"is_reserved":false,"is_disabled":false,"rental_uris":{"android":"levelo://app?vid=6d14ffd0-8cb0-40f3-8b6f-5b79b4098bae","ios":"levelo://app?vid=6d14ffd0-8cb0-40f3-8b6f-5b79b4098bae"},"vehicle_type_id":"4","last_reported":1739610511,"current_range_meters":32400,"station_id":"ce4bha12rcd13ifvqee0","pricing_plan_id":"cebpf4jnsgd1na2vs0mg"},{"bike_id":"39d0edfe-96b8-4773-8e96-52ea788de559","system_id":"levelo_inurba_marseille","lat":43.29197,"lon":5.35807,"is_reserved":false,"is_disabled":false,"rental_uris":{"android":"levelo://app?vid=39d0edfe-96b8-4773-8e96-52ea788de559","ios":"levelo://app?vid=39d0edfe-96b8-4773-8e96-52ea788de559"},"vehicle_type_id":"4","last_reported":1739610511,"current_range_meters":39200,"station_id":"ce4bhb12rcd13ifvqel0","pricing_plan_id":"cebpf4jnsgd1na2vs0mg"},{"bike_id":"4afd05b5-41e1-4012-b907-304d88773920","system_id":"levelo_inurba_marseille","lat":43.239651,"lon":5.366303,"is_reserved":false,"is_disabled":true,"rental_uris":{"android":"levelo://app?vid=4afd05b5-41e1-4012-b907-304d88773920","ios":"levelo://app?vid=4afd05b5-41e1-4012-b907-304d88773920"},"vehicle_type_id":"4","last_reported":1739610511,"current_range_meters":800,"station_id":"ce4bhi12rcd13ifvqfp0","pricing_plan_id":"cebpf4jnsgd1na2vs0mg"},{"bike_id":"26a65ce5-4e15-4967-befa-30646df7d78c","system_id":"levelo_inurba_marseille","lat":43.29547,"lon":5.42295,"is_reserved":false,"is_disabled":false,"rental_uris":{"android":"levelo://app?vid=26a65ce5-4e15-4967-befa-30646df7d78c","ios":"levelo://app?vid=26a65ce5-4e15-4967-befa-30646df7d78c"},"vehicle_type_id":"4","last_reported":1739610511,"current_range_meters":31200,"station_id":"ce4bhph2rcd13ifvqhdg","pricing_plan_id":"cebpf4jnsgd1na2vs0mg"},{"bike_id":"899e44e7-60b0-44a7-9ff3-d0219b681de2","system_id":"levelo_inurba_marseille","lat":43.2815,"lon":5.42651,"is_reserved":false,"is_disabled":false,"rental_uris":{"android":"levelo://app?vid=899e44e7-60b0-44a7-9ff3-d0219b681de2","ios":"levelo://app?vid=899e44e7-60b0-44a7-9ff3-d0219b681de2"},"vehicle_type_id":"4","last_reported":1739610511,"current_range_meters":35600,"station_id":"ce4bhnh2rcd13ifvqgug","pricing_plan_id":"cebpf4jnsgd1na2vs0mg"},{"bike_id":"c8c0516c-62b0-4cbf-88f8-60819aff6581","system_id":"levelo_inurba_marseille","lat":43.25398,"lon":5.3776,"is_reserved":false,"is_disabled":true,"rental_uris":{"android":"levelo://app?vid=c8c0516c-62b0-4cbf-88f8-60819aff6581","ios":"levelo://app?vid=c8c0516c-62b0-4cbf-88f8-60819aff6581"},"vehicle_type_id":"4","last_reported":1739610511,"current_range_meters":13600,"station_id":"ce4bhh12rcd13ifvqff0","pricing_plan_id":"cebpf4jnsgd1na2vs0mg"},{"bike_id":"057a9c52-565b-427e-ab22-725f474e175e","system_id":"levelo_inurba_marseille","lat":43.308823,"lon":5.396482,"is_reserved":false,"is_disabled":false,"rental_uris":{"android":"levelo://app?vid=057a9c52-565b-427e-ab22-725f474e175e","ios":"levelo://app?vid=057a9c52-565b-427e-ab22-725f474e175e"},"vehicle_type_id":"4","last_reported":1739610511,"current_range_meters":17600,"station_id":"ce4bh012rcd13ifvqcv0","pricing_plan_id":"cebpf4jnsgd1na2vs0mg"},{"bike_id":"effb6f19-5468-4533-b57b-6d46e5aaf979","system_id":"levelo_inurba_marseille","lat":43.29528,"lon":5.38544,"is_reserved":false,"is_disabled":false,"rental_uris":{"android":"levelo://app?vid=effb6f19-5468-4533-b57b-6d46e5aaf979","ios":"levelo://app?vid=effb6f19-5468-4533-b57b-6d46e5aaf979"},"vehicle_type_id":"4","last_reported":1739610511,"current_range_meters":19600,"station_id":"ce4bgih2rcd13ifvqba0","pricing_plan_id":"cebpf4jnsgd1na2vs0mg"},{"bike_id":"dee3601d-ddca-408e-b8e5-fdf3429aa605","system_id":"levelo_inurba_marseille","lat":43.29009,"lon":5.35606,"is_reserved":false,"is_disabled":false,"rental_uris":{"android":"levelo://app?vid=dee3601d-ddca-408e-b8e5-fdf3429aa605","ios":"levelo://app?vid=dee3601d-ddca-408e-b8e5-fdf3429aa605"},"vehicle_type_id":"4","last_reported":1739610511,"current_range_meters":38800,"station_id":"ce4bhb92rcd13ifvqen0","pricing_plan_id":"cebpf4jnsgd1na2vs0mg"},{"bike_id":"29cf4d1a-ccab-47b7-95f1-f6a1fd28b7c1","system_id":"levelo_inurba_marseille","lat":43.30532,"lon":5.3655,"is_reserved":false,"is_disabled":false,"rental_uris":{"android":"levelo://app?vid=29cf4d1a-ccab-47b7-95f1-f6a1fd28b7c1","ios":"levelo://app?vid=29cf4d1a-ccab-47b7-95f1-f6a1fd28b7c1"},"vehicle_type_id":"4","last_reported":1739610511,"current_range_meters":36800,"station_id":"ce4bgs12rcd13ifvqcag","pricing_plan_id":"cebpf4jnsgd1na2vs0mg"},{"bike_id":"c8dee2d4-cc4c-49ae-84b4-b846d01efacd","system_id":"levelo_inurba_marseille","lat":43.30202,"lon":5.39466,"is_reserved":false,"is_disabled":false,"rental_uris":{"android":"levelo://app?vid=c8dee2d4-cc4c-49ae-84b4-b846d01efacd","ios":"levelo://app?vid=c8dee2d4-cc4c-49ae-84b4-b846d01efacd"},"vehicle_type_id":"4","last_reported":1739610511,"current_range_meters":38000,"station_id":"ce4bh0p2rcd13ifvqd70","pricing_plan_id":"cebpf4jnsgd1na2vs0mg"},{"bike_id":"8c10e28e-5b4c-4154-8179-6f2ee2ae6eb5","system_id":"levelo_inurba_marseille","lat":43.26185,"lon":5.37922,"is_reserved":false,"is_disabled":false,"rental_uris":{"android":"levelo://app?vid=8c10e28e-5b4c-4154-8179-6f2ee2ae6eb5","ios":"levelo://app?vid=8c10e28e-5b4c-4154-8179-6f2ee2ae6eb5"},"vehicle_type_id":"4","last_reported":1739610511,"current_range_meters":38800,"station_id":"ce4bhjp2rcd13ifvqg90","pricing_plan_id":"cebpf4jnsgd1na2vs0mg"},{"bike_id":"a631f734-4aa1-4ec4-bfa7-ef8429122ef0","system_id":"levelo_inurba_marseille","lat":43.25719,"lon":5.41056,"is_reserved":false,"is_disabled":false,"rental_uris":{"android":"levelo://app?vid=a631f734-4aa1-4ec4-bfa7-ef8429122ef0","ios":"levelo://app?vid=a631f734-4aa1-4ec4-bfa7-ef8429122ef0"},"vehicle_type_id":"4","last_reported":1739610511,"current_range_meters":19200,"station_id":"ce4bhkp2rcd13ifvqgd0","pricing_plan_id":"cebpf4jnsgd1na2vs0mg"},{"bike_id":"eb027746-e1e8-4a85-834e-8f68aee4dd8c","system_id":"levelo_inurba_marseille","lat":43.248003,"lon":5.374467,"is_reserved":false,"is_disabled":true,"rental_uris":{"android":"levelo://app?vid=eb027746-e1e8-4a85-834e-8f68aee4dd8c","ios":"levelo://app?vid=eb027746-e1e8-4a85-834e-8f68aee4dd8c"},"vehicle_type_id":"4","last_reported":1739610511,"current_range_meters":800,"station_id":"ce4bhgh2rcd13ifvqfb0","pricing_plan_id":"cebpf4jnsgd1na2vs0mg"},{"bike_id":"f2294962-01ce-46fd-8a11-979901195d1d","system_id":"levelo_inurba_marseille","lat":43.24672,"lon":5.38181,"is_reserved":false,"is_disabled":false,"rental_uris":{"android":"levelo://app?vid=f2294962-01ce-46fd-8a11-979901195d1d","ios":"levelo://app?vid=f2294962-01ce-46fd-8a11-979901195d1d"},"vehicle_type_id":"4","last_reported":1739610511,"current_range_meters":38000,"station_id":"ce4bhih2rcd13ifvqfr0","pricing_plan_id":"cebpf4jnsgd1na2vs0mg"},{"bike_id":"838d55fb-dd91-42c0-bd0a-19319617ddba","system_id":"levelo_inurba_marseille","lat":43.28147,"lon":5.42677,"is_reserved":false,"is_disabled":false,"rental_uris":{"android":"levelo://app?vid=838d55fb-dd91-42c0-bd0a-19319617ddba","ios":"levelo://app?vid=838d55fb-dd91-42c0-bd0a-19319617ddba"},"vehicle_type_id":"4","last_reported":1739610511,"current_range_meters":38400,"station_id":"ce4bhnh2rcd13ifvqgug","pricing_plan_id":"cebpf4jnsgd1na2vs0mg"},{"bike_id":"df757c50-c044-41f3-9530-99ad01b42c6f","system_id":"levelo_inurba_marseille","lat":43.30164,"lon":5.36632,"is_reserved":false,"is_disabled":false,"rental_uris":{"android":"levelo://app?vid=df757c50-c044-41f3-9530-99ad01b42c6f","ios":"levelo://app?vid=df757c50-c044-41f3-9530-99ad01b42c6f"},"vehicle_type_id":"4","last_reported":1739610511,"current_range_meters":37600,"station_id":"ce4bgrh2rcd13ifvqc8g","pricing_plan_id":"cebpf4jnsgd1na2vs0mg"},{"bike_id":"498115ff-d163-4924-9cc6-afa312fea580","system_id":"levelo_inurba_marseille","lat":43.29239,"lon":5.40181,"is_reserved":false,"is_disabled":false,"rental_uris":{"android":"levelo://app?vid=498115ff-d163-4924-9cc6-afa312fea580","ios":"levelo://app?vid=498115ff-d163-4924-9cc6-afa312fea580"},"vehicle_type_id":"4","last_reported":1739610511,"current_range_meters":22800,"station_id":"ce4bh312rcd13ifvqdk0","pricing_plan_id":"cebpf4jnsgd1na2vs0mg"},{"bike_id":"eb1b6d7f-1027-43f5-8703-9ef47a73ce57","system_id":"levelo_inurba_marseille","lat":43.29793,"lon":5.37094,"is_reserved":false,"is_disabled":false,"rental_uris":{"android":"levelo://app?vid=eb1b6d7f-1027-43f5-8703-9ef47a73ce57","ios":"levelo://app?vid=eb1b6d7f-1027-43f5-8703-9ef47a73ce57"},"vehicle_type_id":"4","last_reported":1739610511,"current_range_meters":35200,"station_id":"ce4bgop2rcd13ifvqc1g","pricing_plan_id":"cebpf4jnsgd1na2vs0mg"},{"bike_id":"04f97bcf-f64c-4d53-b7f4-d1dfbc8e79c0","system_id":"levelo_inurba_marseille","lat":43.26212,"lon":5.37439,"is_reserved":false,"is_disabled":false,"rental_uris":{"android":"levelo://app?vid=04f97bcf-f64c-4d53-b7f4-d1dfbc8e79c0","ios":"levelo://app?vid=04f97bcf-f64c-4d53-b7f4-d1dfbc8e79c0"},"vehicle_type_id":"4","last_reported":1739610511,"current_range_meters":15200,"station_id":"ce4bhgp2rcd13ifvqfc0","pricing_plan_id":"cebpf4jnsgd1na2vs0mg"},{"bike_id":"258f2806-7b6c-4de8-8a7d-3a791724ae3d","system_id":"levelo_inurba_marseille","lat":43.2799,"lon":5.41658,"is_reserved":false,"is_disabled":false,"rental_uris":{"android":"levelo://app?vid=258f2806-7b6c-4de8-8a7d-3a791724ae3d","ios":"levelo://app?vid=258f2806-7b6c-4de8-8a7d-3a791724ae3d"},"vehicle_type_id":"4","last_reported":1739610511,"current_range_meters":38800,"station_id":"ce4bho12rcd13ifvqh1g","pricing_plan_id":"cebpf4jnsgd1na2vs0mg"},{"bike_id":"0e8fceb1-ca35-46d0-bdf2-7053674d26bb","system_id":"levelo_inurba_marseille","lat":43.26202,"lon":5.37442,"is_reserved":false,"is_disabled":false,"rental_uris":{"android":"levelo://app?vid=0e8fceb1-ca35-46d0-bdf2-7053674d26bb","ios":"levelo://app?vid=0e8fceb1-ca35-46d0-bdf2-7053674d26bb"},"vehicle_type_id":"4","last_reported":1739610511,"current_range_meters":34800,"station_id":"ce4bhgp2rcd13ifvqfc0","pricing_plan_id":"cebpf4jnsgd1na2vs0mg"},{"bike_id":"8d89262f-7bab-408f-b55c-fa5cc065d9cf","system_id":"levelo_inurba_marseille","lat":43.27842,"lon":5.39205,"is_reserved":false,"is_disabled":false,"rental_uris":{"android":"levelo://app?vid=8d89262f-7bab-408f-b55c-fa5cc065d9cf","ios":"levelo://app?vid=8d89262f-7bab-408f-b55c-fa5cc065d9cf"},"vehicle_type_id":"4","last_reported":1739610511,"current_range_meters":38800,"station_id":"ce4bhjp2rcd13ifvqga0","pricing_plan_id":"cebpf4jnsgd1na2vs0mg"},{"bike_id":"c51e8a8c-2dd6-4e4e-982c-e2a03bb7ecf9","system_id":"levelo_inurba_marseille","lat":43.29217,"lon":5.36085,"is_reserved":false,"is_disabled":false,"rental_uris":{"android":"levelo://app?vid=c51e8a8c-2dd6-4e4e-982c-e2a03bb7ecf9","ios":"levelo://app?vid=c51e8a8c-2dd6-4e4e-982c-e2a03bb7ecf9"},"vehicle_type_id":"4","last_reported":1739610511,"current_range_meters":28400,"station_id":"ce4bhbh2rcd13ifvqeqg","pricing_plan_id":"cebpf4jnsgd1na2vs0mg"},{"bike_id":"c2a1a342-d679-4037-a27e-b2fb148f26d7","system_id":"levelo_inurba_marseille","lat":43.25577,"lon":5.38247,"is_reserved":false,"is_disabled":false,"rental_uris":{"android":"levelo://app?vid=c2a1a342-d679-4037-a27e-b2fb148f26d7","ios":"levelo://app?vid=c2a1a342-d679-4037-a27e-b2fb148f26d7"},"vehicle_type_id":"4","last_reported":1739610511,"current_range_meters":33600,"station_id":"ce4bhih2rcd13ifvqfs0","pricing_plan_id":"cebpf4jnsgd1na2vs0mg"},{"bike_id":"23849fcd-4bc4-44f6-8337-e9a9a16fe0e7","system_id":"levelo_inurba_marseille","lat":43.29772,"lon":5.47966,"is_reserved":false,"is_disabled":true,"rental_uris":{"android":"levelo://app?vid=23849fcd-4bc4-44f6-8337-e9a9a16fe0e7","ios":"levelo://app?vid=23849fcd-4bc4-44f6-8337-e9a9a16fe0e7"},"vehicle_type_id":"4","last_reported":1739610511,"current_range_meters":0,"station_id":"","pricing_plan_id":"cebpf4jnsgd1na2vs0mg"},{"bike_id":"ea97ac5e-3549-4466-a935-a370db5cd759","system_id":"levelo_inurba_marseille","lat":43.27938,"lon":5.41046,"is_reserved":false,"is_disabled":false,"rental_uris":{"android":"levelo://app?vid=ea97ac5e-3549-4466-a935-a370db5cd759","ios":"levelo://app?vid=ea97ac5e-3549-4466-a935-a370db5cd759"},"vehicle_type_id":"4","last_reported":1739610511,"current_range_meters":26800,"station_id":"ce4bhnp2rcd13ifvqh0g","pricing_plan_id":"cebpf4jnsgd1na2vs0mg"},{"bike_id":"1a1ef5ab-cccf-47f4-80d5-b55fd7e3e973","system_id":"levelo_inurba_marseille","lat":43.30092,"lon":5.39079,"is_reserved":false,"is_disabled":false,"rental_uris":{"android":"levelo://app?vid=1a1ef5ab-cccf-47f4-80d5-b55fd7e3e973","ios":"levelo://app?vid=1a1ef5ab-cccf-47f4-80d5-b55fd7e3e973"},"vehicle_type_id":"4","last_reported":1739610511,"current_range_meters":38800,"station_id":"ce4bh192rcd13ifvqdb0","pricing_plan_id":"cebpf4jnsgd1na2vs0mg"},{"bike_id":"d1b7e7c3-d876-4585-aa93-a701646b8c19","system_id":"levelo_inurba_marseille","lat":43.23189,"lon":5.3998,"is_reserved":false,"is_disabled":false,"rental_uris":{"android":"levelo://app?vid=d1b7e7c3-d876-4585-aa93-a701646b8c19","ios":"levelo://app?vid=d1b7e7c3-d876-4585-aa93-a701646b8c19"},"vehicle_type_id":"4","last_reported":1739610511,"current_range_meters":30000,"station_id":"ce4bhn12rcd13ifvqgqg","pricing_plan_id":"cebpf4jnsgd1na2vs0mg"},{"bike_id":"dc4fc55f-0ea9-49a1-bb39-4722eda2c2cd","system_id":"levelo_inurba_marseille","lat":43.29911,"lon":5.37645,"is_reserved":false,"is_disabled":false,"rental_uris":{"android":"levelo://app?vid=dc4fc55f-0ea9-49a1-bb39-4722eda2c2cd","ios":"levelo://app?vid=dc4fc55f-0ea9-49a1-bb39-4722eda2c2cd"},"vehicle_type_id":"4","last_reported":1739610511,"current_range_meters":18000,"station_id":"","pricing_plan_id":"cebpf4jnsgd1na2vs0mg"},{"bike_id":"151b4b94-201a-42b7-9cd0-0a3bdd281af1","system_id":"levelo_inurba_marseille","lat":43.28423,"lon":5.34985,"is_reserved":false,"is_disabled":false,"rental_uris":{"android":"levelo://app?vid=151b4b94-201a-42b7-9cd0-0a3bdd281af1","ios":"levelo://app?vid=151b4b94-201a-42b7-9cd0-0a3bdd281af1"},"vehicle_type_id":"4","last_reported":1739610511,"current_range_meters":32400,"station_id":"ce4bhbh2rcd13ifvqepg","pricing_plan_id":"cebpf4jnsgd1na2vs0mg"},{"bike_id":"acd6479e-d4a1-4f41-8d4f-b45afc52a970","system_id":"levelo_inurba_marseille","lat":43.30298,"lon":5.39201,"is_reserved":false,"is_disabled":false,"rental_uris":{"android":"levelo://app?vid=acd6479e-d4a1-4f41-8d4f-b45afc52a970","ios":"levelo://app?vid=acd6479e-d4a1-4f41-8d4f-b45afc52a970"},"vehicle_type_id":"4","last_reported":1739610511,"current_range_meters":38000,"station_id":"ce4bgkh2rcd13ifvqbk0","pricing_plan_id":"cebpf4jnsgd1na2vs0mg"},{"bike_id":"24584566-354f-40ca-814c-29b96ecb851c","system_id":"levelo_inurba_marseille","lat":43.28396,"lon":5.38618,"is_reserved":false,"is_disabled":false,"rental_uris":{"android":"levelo://app?vid=24584566-354f-40ca-814c-29b96ecb851c","ios":"levelo://app?vid=24584566-354f-40ca-814c-29b96ecb851c"},"vehicle_type_id":"4","last_reported":1739610511,"current_range_meters":33600,"station_id":"ce4bh492rcd13ifvqdvg","pricing_plan_id":"cebpf4jnsgd1na2vs0mg"},{"bike_id":"d2c98906-95e6-41f0-887e-addf55786d50","system_id":"levelo_inurba_marseille","lat":43.279433,"lon":5.410513,"is_reserved":false,"is_disabled":false,"rental_uris":{"android":"levelo://app?vid=d2c98906-95e6-41f0-887e-addf55786d50","ios":"levelo://app?vid=d2c98906-95e6-41f0-887e-addf55786d50"},"vehicle_type_id":"4","last_reported":1739610511,"current_range_meters":25600,"station_id":"ce4bhnp2rcd13ifvqh0g","pricing_plan_id":"cebpf4jnsgd1na2vs0mg"},{"bike_id":"1f388b23-ff75-4af4-ba17-51195a34c1ca","system_id":"levelo_inurba_marseille","lat":43.26218,"lon":5.40437,"is_reserved":false,"is_disabled":true,"rental_uris":{"android":"levelo://app?vid=1f388b23-ff75-4af4-ba17-51195a34c1ca","ios":"levelo://app?vid=1f388b23-ff75-4af4-ba17-51195a34c1ca"},"vehicle_type_id":"4","last_reported":1739610511,"current_range_meters":25200,"station_id":"ce4bhmh2rcd13ifvqgmg","pricing_plan_id":"cebpf4jnsgd1na2vs0mg"},{"bike_id":"7e0b52d4-d18b-4f76-b798-f4cd3f2f5711","system_id":"levelo_inurba_marseille","lat":43.29372,"lon":5.37853,"is_reserved":false,"is_disabled":false,"rental_uris":{"android":"levelo://app?vid=7e0b52d4-d18b-4f76-b798-f4cd3f2f5711","ios":"levelo://app?vid=7e0b52d4-d18b-4f76-b798-f4cd3f2f5711"},"vehicle_type_id":"4","last_reported":1739610511,"current_range_meters":38000,"station_id":"ce4bgjh2rcd13ifvqbf0","pricing_plan_id":"cebpf4jnsgd1na2vs0mg"},{"bike_id":"4ad51a02-f2dd-46e4-a406-ba69455ffee4","system_id":"levelo_inurba_marseille","lat":43.28023,"lon":5.40849,"is_reserved":false,"is_disabled":false,"rental_uris":{"android":"levelo://app?vid=4ad51a02-f2dd-46e4-a406-ba69455ffee4","ios":"levelo://app?vid=4ad51a02-f2dd-46e4-a406-ba69455ffee4"},"vehicle_type_id":"4","last_reported":1739610511,"current_range_meters":9200,"station_id":"","pricing_plan_id":"cebpf4jnsgd1na2vs0mg"},{"bike_id":"c4df4f16-0512-464a-a719-0bb1f3feadb0","system_id":"levelo_inurba_marseille","lat":43.323375,"lon":5.40624,"is_reserved":false,"is_disabled":false,"rental_uris":{"android":"levelo://app?vid=c4df4f16-0512-464a-a719-0bb1f3feadb0","ios":"levelo://app?vid=c4df4f16-0512-464a-a719-0bb1f3feadb0"},"vehicle_type_id":"4","last_reported":1739610511,"current_range_meters":20400,"station_id":"ce4bhq92rcd13ifvqhjg","pricing_plan_id":"cebpf4jnsgd1na2vs0mg"},{"bike_id":"4bbe5326-37a5-4de3-89cc-8f18f745514b","system_id":"levelo_inurba_marseille","lat":43.25491,"lon":5.37661,"is_reserved":false,"is_disabled":false,"rental_uris":{"android":"levelo://app?vid=4bbe5326-37a5-4de3-89cc-8f18f745514b","ios":"levelo://app?vid=4bbe5326-37a5-4de3-89cc-8f18f745514b"},"vehicle_type_id":"4","last_reported":1739610511,"current_range_meters":25200,"station_id":"ce4bhh12rcd13ifvqff0","pricing_plan_id":"cebpf4jnsgd1na2vs0mg"},{"bike_id":"5423b4eb-0bb8-4cf9-829d-80a1104aa3a3","system_id":"levelo_inurba_marseille","lat":43.29794,"lon":5.40408,"is_reserved":false,"is_disabled":false,"rental_uris":{"android":"levelo://app?vid=5423b4eb-0bb8-4cf9-829d-80a1104aa3a3","ios":"levelo://app?vid=5423b4eb-0bb8-4cf9-829d-80a1104aa3a3"},"vehicle_type_id":"4","last_reported":1739610511,"current_range_meters":8800,"station_id":"ce4bh112rcd13ifvqd90","pricing_plan_id":"cebpf4jnsgd1na2vs0mg"},{"bike_id":"03eba1d0-92c1-4e6e-a4d0-7c546f2439c0","system_id":"levelo_inurba_marseille","lat":43.337444,"lon":5.374475,"is_reserved":false,"is_disabled":true,"rental_uris":{"android":"levelo://app?vid=03eba1d0-92c1-4e6e-a4d0-7c546f2439c0","ios":"levelo://app?vid=03eba1d0-92c1-4e6e-a4d0-7c546f2439c0"},"vehicle_type_id":"4","last_reported":1739610511,"current_range_meters":0,"station_id":"","pricing_plan_id":"cebpf4jnsgd1na2vs0mg"},{"bike_id":"3ce9ce58-7c99-4dbb-a109-d0a36243ebfb","system_id":"levelo_inurba_marseille","lat":43.28442,"lon":5.39202,"is_reserved":false,"is_disabled":true,"rental_uris":{"android":"levelo://app?vid=3ce9ce58-7c99-4dbb-a109-d0a36243ebfb","ios":"levelo://app?vid=3ce9ce58-7c99-4dbb-a109-d0a36243ebfb"},"vehicle_type_id":"4","last_reported":1739610511,"current_range_meters":33200,"station_id":"ce4bhoh2rcd13ifvqh5g","pricing_plan_id":"cebpf4jnsgd1na2vs0mg"},{"bike_id":"37d274bc-7488-45e2-be26-b72715489ecd","system_id":"levelo_inurba_marseille","lat":43.28439,"lon":5.39185,"is_reserved":false,"is_disabled":true,"rental_uris":{"android":"levelo://app?vid=37d274bc-7488-45e2-be26-b72715489ecd","ios":"levelo://app?vid=37d274bc-7488-45e2-be26-b72715489ecd"},"vehicle_type_id":"4","last_reported":1739610511,"current_range_meters":38000,"station_id":"ce4bhoh2rcd13ifvqh5g","pricing_plan_id":"cebpf4jnsgd1na2vs0mg"},{"bike_id":"8208b9be-b2fb-4d4a-9708-6254e17f01c5","system_id":"levelo_inurba_marseille","lat":43.25469,"lon":5.37644,"is_reserved":false,"is_disabled":false,"rental_uris":{"android":"levelo://app?vid=8208b9be-b2fb-4d4a-9708-6254e17f01c5","ios":"levelo://app?vid=8208b9be-b2fb-4d4a-9708-6254e17f01c5"},"vehicle_type_id":"4","last_reported":1739610511,"current_range_meters":34000,"station_id":"ce4bhh12rcd13ifvqff0","pricing_plan_id":"cebpf4jnsgd1na2vs0mg"},{"bike_id":"3441c353-b491-45c0-96a9-12ca432004ac","system_id":"levelo_inurba_marseille","lat":43.303065,"lon":5.391815,"is_reserved":false,"is_disabled":false,"rental_uris":{"android":"levelo://app?vid=3441c353-b491-45c0-96a9-12ca432004ac","ios":"levelo://app?vid=3441c353-b491-45c0-96a9-12ca432004ac"},"vehicle_type_id":"4","last_reported":1739610511,"current_range_meters":38400,"station_id":"ce4bgkh2rcd13ifvqbk0","pricing_plan_id":"cebpf4jnsgd1na2vs0mg"},{"bike_id":"6731b96d-efef-4717-971c-9529035bf9eb","system_id":"levelo_inurba_marseille","lat":43.32289,"lon":5.38288,"is_reserved":false,"is_disabled":false,"rental_uris":{"android":"levelo://app?vid=6731b96d-efef-4717-971c-9529035bf9eb","ios":"levelo://app?vid=6731b96d-efef-4717-971c-9529035bf9eb"},"vehicle_type_id":"4","last_reported":1739610511,"current_range_meters":38000,"station_id":"ce4bhr12rcd13ifvqhqg","pricing_plan_id":"cebpf4jnsgd1na2vs0mg"},{"bike_id":"5016e875-414a-41bd-8f00-6a5845e39ba6","system_id":"levelo_inurba_marseille","lat":43.30795,"lon":5.43547,"is_reserved":false,"is_disabled":false,"rental_uris":{"android":"levelo://app?vid=5016e875-414a-41bd-8f00-6a5845e39ba6","ios":"levelo://app?vid=5016e875-414a-41bd-8f00-6a5845e39ba6"},"vehicle_type_id":"4","last_reported":1739610511,"current_range_meters":30400,"station_id":"ce4bhph2rcd13ifvqheg","pricing_plan_id":"cebpf4jnsgd1na2vs0mg"},{"bike_id":"37de05d3-3a98-4c3b-897c-2111f276da6e","system_id":"levelo_inurba_marseille","lat":43.27499,"lon":5.42447,"is_reserved":false,"is_disabled":false,"rental_uris":{"android":"levelo://app?vid=37de05d3-3a98-4c3b-897c-2111f276da6e","ios":"levelo://app?vid=37de05d3-3a98-4c3b-897c-2111f276da6e"},"vehicle_type_id":"4","last_reported":1739610511,"current_range_meters":39200,"station_id":"ce4bhn92rcd13ifvqgrg","pricing_plan_id":"cebpf4jnsgd1na2vs0mg"},{"bike_id":"683dd2bd-1e81-48dd-a1eb-4b7a7378e30c","system_id":"levelo_inurba_marseille","lat":43.24389,"lon":5.37049,"is_reserved":false,"is_disabled":false,"rental_uris":{"android":"levelo://app?vid=683dd2bd-1e81-48dd-a1eb-4b7a7378e30c","ios":"levelo://app?vid=683dd2bd-1e81-48dd-a1eb-4b7a7378e30c"},"vehicle_type_id":"4","last_reported":1739610511,"current_range_meters":21600,"station_id":"ce4bhhh2rcd13ifvqfk0","pricing_plan_id":"cebpf4jnsgd1na2vs0mg"},{"bike_id":"533f137a-d5b2-43fb-baac-5970f9b2f485","system_id":"levelo_inurba_marseille","lat":43.313247,"lon":5.397177,"is_reserved":false,"is_disabled":false,"rental_uris":{"android":"levelo://app?vid=533f137a-d5b2-43fb-baac-5970f9b2f485","ios":"levelo://app?vid=533f137a-d5b2-43fb-baac-5970f9b2f485"},"vehicle_type_id":"4","last_reported":1739610511,"current_range_meters":32000,"station_id":"ce4bgvp2rcd13ifvqcu0","pricing_plan_id":"cebpf4jnsgd1na2vs0mg"},{"bike_id":"d0eaabf2-abd4-4dd8-bdcf-4a0e45e6ddd2","system_id":"levelo_inurba_marseille","lat":43.3044,"lon":5.38893,"is_reserved":false,"is_disabled":false,"rental_uris":{"android":"levelo://app?vid=d0eaabf2-abd4-4dd8-bdcf-4a0e45e6ddd2","ios":"levelo://app?vid=d0eaabf2-abd4-4dd8-bdcf-4a0e45e6ddd2"},"vehicle_type_id":"4","last_reported":1739610511,"current_range_meters":24400,"station_id":"ce4bgk12rcd13ifvqbi0","pricing_plan_id":"cebpf4jnsgd1na2vs0mg"},{"bike_id":"ee7453f3-3fa3-4e0d-9a64-bd9106059582","system_id":"levelo_inurba_marseille","lat":43.296209,"lon":5.377131,"is_reserved":false,"is_disabled":false,"rental_uris":{"android":"levelo://app?vid=ee7453f3-3fa3-4e0d-9a64-bd9106059582","ios":"levelo://app?vid=ee7453f3-3fa3-4e0d-9a64-bd9106059582"},"vehicle_type_id":"4","last_reported":1739610511,"current_range_meters":12400,"station_id":"ce4bgi92rcd13ifvqb90","pricing_plan_id":"cebpf4jnsgd1na2vs0mg"},{"bike_id":"4b087907-7192-4276-99d8-c0bfb8a98ca3","system_id":"levelo_inurba_marseille","lat":43.23217,"lon":5.39937,"is_reserved":false,"is_disabled":false,"rental_uris":{"android":"levelo://app?vid=4b087907-7192-4276-99d8-c0bfb8a98ca3","ios":"levelo://app?vid=4b087907-7192-4276-99d8-c0bfb8a98ca3"},"vehicle_type_id":"4","last_reported":1739610511,"current_range_meters":33200,"station_id":"","pricing_plan_id":"cebpf4jnsgd1na2vs0mg"},{"bike_id":"7835558a-b893-41e9-ae25-07deb12ac2d8","system_id":"levelo_inurba_marseille","lat":43.28405,"lon":5.375223,"is_reserved":false,"is_disabled":false,"rental_uris":{"android":"levelo://app?vid=7835558a-b893-41e9-ae25-07deb12ac2d8","ios":"levelo://app?vid=7835558a-b893-41e9-ae25-07deb12ac2d8"},"vehicle_type_id":"4","last_reported":1739610511,"current_range_meters":30800,"station_id":"ce4bh412rcd13ifvqds0","pricing_plan_id":"cebpf4jnsgd1na2vs0mg"},{"bike_id":"46a9f13f-1ab3-4fe4-b989-71f4c61de8e4","system_id":"levelo_inurba_marseille","lat":43.28844,"lon":5.35844,"is_reserved":false,"is_disabled":false,"rental_uris":{"android":"levelo://app?vid=46a9f13f-1ab3-4fe4-b989-71f4c61de8e4","ios":"levelo://app?vid=46a9f13f-1ab3-4fe4-b989-71f4c61de8e4"},"vehicle_type_id":"4","last_reported":1739610511,"current_range_meters":33200,"station_id":"ce4bhb12rcd13ifvqem0","pricing_plan_id":"cebpf4jnsgd1na2vs0mg"},{"bike_id":"bd1fbd17-5ecd-4c2a-9290-d1ffd1a70214","system_id":"levelo_inurba_marseille","lat":43.29548,"lon":5.42277,"is_reserved":false,"is_disabled":false,"rental_uris":{"android":"levelo://app?vid=bd1fbd17-5ecd-4c2a-9290-d1ffd1a70214","ios":"levelo://app?vid=bd1fbd17-5ecd-4c2a-9290-d1ffd1a70214"},"vehicle_type_id":"4","last_reported":1739610511,"current_range_meters":33600,"station_id":"ce4bhph2rcd13ifvqhdg","pricing_plan_id":"cebpf4jnsgd1na2vs0mg"},{"bike_id":"69c7e01c-d6ef-4b61-9ec2-86890f10e5fa","system_id":"levelo_inurba_marseille","lat":43.301,"lon":5.39073,"is_reserved":false,"is_disabled":false,"rental_uris":{"android":"levelo://app?vid=69c7e01c-d6ef-4b61-9ec2-86890f10e5fa","ios":"levelo://app?vid=69c7e01c-d6ef-4b61-9ec2-86890f10e5fa"},"vehicle_type_id":"4","last_reported":1739610511,"current_range_meters":37600,"station_id":"ce4bh192rcd13ifvqdb0","pricing_plan_id":"cebpf4jnsgd1na2vs0mg"},{"bike_id":"4f34ac20-13f8-4bff-8fa6-5425328bb98e","system_id":"levelo_inurba_marseille","lat":43.30236,"lon":5.40074,"is_reserved":false,"is_disabled":true,"rental_uris":{"android":"levelo://app?vid=4f34ac20-13f8-4bff-8fa6-5425328bb98e","ios":"levelo://app?vid=4f34ac20-13f8-4bff-8fa6-5425328bb98e"},"vehicle_type_id":"4","last_reported":1739610511,"current_range_meters":28400,"station_id":"ce4bgvh2rcd13ifvqcs0","pricing_plan_id":"cebpf4jnsgd1na2vs0mg"},{"bike_id":"005efd61-2174-41b4-931c-5db89e3de53c","system_id":"levelo_inurba_marseille","lat":43.28419,"lon":5.37525,"is_reserved":false,"is_disabled":true,"rental_uris":{"android":"levelo://app?vid=005efd61-2174-41b4-931c-5db89e3de53c","ios":"levelo://app?vid=005efd61-2174-41b4-931c-5db89e3de53c"},"vehicle_type_id":"4","last_reported":1739610511,"current_range_meters":11600,"station_id":"ce4bh412rcd13ifvqds0","pricing_plan_id":"cebpf4jnsgd1na2vs0mg"},{"bike_id":"992a58a0-449d-4c14-b63b-1be95687b874","system_id":"levelo_inurba_marseille","lat":43.28075,"lon":5.3965,"is_reserved":false,"is_disabled":false,"rental_uris":{"android":"levelo://app?vid=992a58a0-449d-4c14-b63b-1be95687b874","ios":"levelo://app?vid=992a58a0-449d-4c14-b63b-1be95687b874"},"vehicle_type_id":"4","last_reported":1739610511,"current_range_meters":37600,"station_id":"ce4bho12rcd13ifvqh2g","pricing_plan_id":"cebpf4jnsgd1na2vs0mg"},{"bike_id":"b3583426-5d75-48a3-a67b-420408b862ea","system_id":"levelo_inurba_marseille","lat":43.24645,"lon":5.38889,"is_reserved":false,"is_disabled":false,"rental_uris":{"android":"levelo://app?vid=b3583426-5d75-48a3-a67b-420408b862ea","ios":"levelo://app?vid=b3583426-5d75-48a3-a67b-420408b862ea"},"vehicle_type_id":"4","last_reported":1739610511,"current_range_meters":20000,"station_id":"ce4bhg12rcd13ifvqf60","pricing_plan_id":"cebpf4jnsgd1na2vs0mg"},{"bike_id":"e7d9d6e6-36b3-477b-93cc-5e486f45a200","system_id":"levelo_inurba_marseille","lat":43.2872,"lon":5.36081,"is_reserved":false,"is_disabled":false,"rental_uris":{"android":"levelo://app?vid=e7d9d6e6-36b3-477b-93cc-5e486f45a200","ios":"levelo://app?vid=e7d9d6e6-36b3-477b-93cc-5e486f45a200"},"vehicle_type_id":"4","last_reported":1739610511,"current_range_meters":38000,"station_id":"cki0cbj6b192h4jlfktg","pricing_plan_id":"cebpf4jnsgd1na2vs0mg"},{"bike_id":"35c71859-d749-4d30-961a-91d1c38d6948","system_id":"levelo_inurba_marseille","lat":43.25087,"lon":5.39544,"is_reserved":false,"is_disabled":false,"rental_uris":{"android":"levelo://app?vid=35c71859-d749-4d30-961a-91d1c38d6948","ios":"levelo://app?vid=35c71859-d749-4d30-961a-91d1c38d6948"},"vehicle_type_id":"4","last_reported":1739610511,"current_range_meters":6800,"station_id":"ce4bhm12rcd13ifvqgkg","pricing_plan_id":"cebpf4jnsgd1na2vs0mg"},{"bike_id":"2c1b41da-5ad7-4d40-a328-b13604c72e97","system_id":"levelo_inurba_marseille","lat":43.29297,"lon":5.37427,"is_reserved":false,"is_disabled":false,"rental_uris":{"android":"levelo://app?vid=2c1b41da-5ad7-4d40-a328-b13604c72e97","ios":"levelo://app?vid=2c1b41da-5ad7-4d40-a328-b13604c72e97"},"vehicle_type_id":"4","last_reported":1739610511,"current_range_meters":33600,"station_id":"ce4bgi12rcd13ifvqb70","pricing_plan_id":"cebpf4jnsgd1na2vs0mg"},{"bike_id":"91a08f87-e92f-4bd7-a62f-2015c6865158","system_id":"levelo_inurba_marseille","lat":43.32294,"lon":5.38266,"is_reserved":false,"is_disabled":false,"rental_uris":{"android":"levelo://app?vid=91a08f87-e92f-4bd7-a62f-2015c6865158","ios":"levelo://app?vid=91a08f87-e92f-4bd7-a62f-2015c6865158"},"vehicle_type_id":"4","last_reported":1739610511,"current_range_meters":19600,"station_id":"ce4bhr12rcd13ifvqhqg","pricing_plan_id":"cebpf4jnsgd1na2vs0mg"},{"bike_id":"e4b9f80e-c487-4b21-a9f2-cea27949e48e","system_id":"levelo_inurba_marseille","lat":43.31795,"lon":5.37381,"is_reserved":false,"is_disabled":true,"rental_uris":{"android":"levelo://app?vid=e4b9f80e-c487-4b21-a9f2-cea27949e48e","ios":"levelo://app?vid=e4b9f80e-c487-4b21-a9f2-cea27949e48e"},"vehicle_type_id":"4","last_reported":1739610511,"current_range_meters":0,"station_id":"","pricing_plan_id":"cebpf4jnsgd1na2vs0mg"},{"bike_id":"312ffda6-57ec-493a-a409-1ceba4974ee9","system_id":"levelo_inurba_marseille","lat":43.31195,"lon":5.38689,"is_reserved":false,"is_disabled":false,"rental_uris":{"android":"levelo://app?vid=312ffda6-57ec-493a-a409-1ceba4974ee9","ios":"levelo://app?vid=312ffda6-57ec-493a-a409-1ceba4974ee9"},"vehicle_type_id":"4","last_reported":1739610511,"current_range_meters":30000,"station_id":"ce4bgv12rcd13ifvqcp0","pricing_plan_id":"cebpf4jnsgd1na2vs0mg"},{"bike_id":"7c250b8e-1ac6-4c71-8022-0dac0b00c713","system_id":"levelo_inurba_marseille","lat":43.31075,"lon":5.38344,"is_reserved":false,"is_disabled":false,"rental_uris":{"android":"levelo://app?vid=7c250b8e-1ac6-4c71-8022-0dac0b00c713","ios":"levelo://app?vid=7c250b8e-1ac6-4c71-8022-0dac0b00c713"},"vehicle_type_id":"4","last_reported":1739610511,"current_range_meters":36800,"station_id":"ce4bgv92rcd13ifvqcr0","pricing_plan_id":"cebpf4jnsgd1na2vs0mg"},{"bike_id":"14b1b08f-4458-49f9-89ff-4f2d0bf34264","system_id":"levelo_inurba_marseille","lat":43.290295,"lon":5.386552,"is_reserved":false,"is_disabled":false,"rental_uris":{"android":"levelo://app?vid=14b1b08f-4458-49f9-89ff-4f2d0bf34264","ios":"levelo://app?vid=14b1b08f-4458-49f9-89ff-4f2d0bf34264"},"vehicle_type_id":"4","last_reported":1739610511,"current_range_meters":26800,"station_id":"ce4bh4p2rcd13ifvqe0g","pricing_plan_id":"cebpf4jnsgd1na2vs0mg"},{"bike_id":"54953254-3310-4e0d-9c50-ab810a2284ac","system_id":"levelo_inurba_marseille","lat":43.32068,"lon":5.41538,"is_reserved":false,"is_disabled":false,"rental_uris":{"android":"levelo://app?vid=54953254-3310-4e0d-9c50-ab810a2284ac","ios":"levelo://app?vid=54953254-3310-4e0d-9c50-ab810a2284ac"},"vehicle_type_id":"4","last_reported":1739610511,"current_range_meters":38800,"station_id":"ce4bhq92rcd13ifvqhkg","pricing_plan_id":"cebpf4jnsgd1na2vs0mg"},{"bike_id":"e4d2c3d2-dee8-46c7-936e-eff6b8003875","system_id":"levelo_inurba_marseille","lat":43.27952,"lon":5.41055,"is_reserved":false,"is_disabled":false,"rental_uris":{"android":"levelo://app?vid=e4d2c3d2-dee8-46c7-936e-eff6b8003875","ios":"levelo://app?vid=e4d2c3d2-dee8-46c7-936e-eff6b8003875"},"vehicle_type_id":"4","last_reported":1739610511,"current_range_meters":30800,"station_id":"ce4bhnp2rcd13ifvqh0g","pricing_plan_id":"cebpf4jnsgd1na2vs0mg"},{"bike_id":"6815710c-f0b0-439b-b997-896dc070b1c3","system_id":"levelo_inurba_marseille","lat":43.26778,"lon":5.40235,"is_reserved":false,"is_disabled":true,"rental_uris":{"android":"levelo://app?vid=6815710c-f0b0-439b-b997-896dc070b1c3","ios":"levelo://app?vid=6815710c-f0b0-439b-b997-896dc070b1c3"},"vehicle_type_id":"4","last_reported":1739610511,"current_range_meters":0,"station_id":"ce501612rcd8frsf0b60","pricing_plan_id":"cebpf4jnsgd1na2vs0mg"},{"bike_id":"ba6ee90b-9d94-4f43-8358-366faab5901e","system_id":"levelo_inurba_marseille","lat":43.28074,"lon":5.39657,"is_reserved":false,"is_disabled":false,"rental_uris":{"android":"levelo://app?vid=ba6ee90b-9d94-4f43-8358-366faab5901e","ios":"levelo://app?vid=ba6ee90b-9d94-4f43-8358-366faab5901e"},"vehicle_type_id":"4","last_reported":1739610511,"current_range_meters":35200,"station_id":"ce4bho12rcd13ifvqh2g","pricing_plan_id":"cebpf4jnsgd1na2vs0mg"},{"bike_id":"fe0f12a8-8d62-4d79-b629-bda6901e6297","system_id":"levelo_inurba_marseille","lat":43.26967,"lon":5.40229,"is_reserved":false,"is_disabled":true,"rental_uris":{"android":"levelo://app?vid=fe0f12a8-8d62-4d79-b629-bda6901e6297","ios":"levelo://app?vid=fe0f12a8-8d62-4d79-b629-bda6901e6297"},"vehicle_type_id":"4","last_reported":1739610511,"current_range_meters":32400,"station_id":"cjm6bp8fraef2m0cb0m0","pricing_plan_id":"cebpf4jnsgd1na2vs0mg"},{"bike_id":"9a41369f-2b30-44b4-a10b-11dba5773433","system_id":"levelo_inurba_marseille","lat":43.3032,"lon":5.36929,"is_reserved":false,"is_disabled":false,"rental_uris":{"android":"levelo://app?vid=9a41369f-2b30-44b4-a10b-11dba5773433","ios":"levelo://app?vid=9a41369f-2b30-44b4-a10b-11dba5773433"},"vehicle_type_id":"4","last_reported":1739610511,"current_range_meters":30000,"station_id":"ce4bgqh2rcd13ifvqc5g","pricing_plan_id":"cebpf4jnsgd1na2vs0mg"},{"bike_id":"71b09600-92bf-4db2-a8a0-9901e3e52200","system_id":"levelo_inurba_marseille","lat":43.30138,"lon":5.37403,"is_reserved":false,"is_disabled":false,"rental_uris":{"android":"levelo://app?vid=71b09600-92bf-4db2-a8a0-9901e3e52200","ios":"levelo://app?vid=71b09600-92bf-4db2-a8a0-9901e3e52200"},"vehicle_type_id":"4","last_reported":1739610511,"current_range_meters":22800,"station_id":"ce4bgs92rcd13ifvqcc0","pricing_plan_id":"cebpf4jnsgd1na2vs0mg"},{"bike_id":"5429a055-5c17-4863-ac08-ee7234bc7af8","system_id":"levelo_inurba_marseille","lat":43.32223,"lon":5.36891,"is_reserved":false,"is_disabled":false,"rental_uris":{"android":"levelo://app?vid=5429a055-5c17-4863-ac08-ee7234bc7af8","ios":"levelo://app?vid=5429a055-5c17-4863-ac08-ee7234bc7af8"},"vehicle_type_id":"4","last_reported":1739610511,"current_range_meters":33600,"station_id":"","pricing_plan_id":"cebpf4jnsgd1na2vs0mg"},{"bike_id":"204a697f-b516-4023-ac05-6a9bbe1b84bd","system_id":"levelo_inurba_marseille","lat":43.3057,"lon":5.37192,"is_reserved":false,"is_disabled":false,"rental_uris":{"android":"levelo://app?vid=204a697f-b516-4023-ac05-6a9bbe1b84bd","ios":"levelo://app?vid=204a697f-b516-4023-ac05-6a9bbe1b84bd"},"vehicle_type_id":"4","last_reported":1739610511,"current_range_meters":38800,"station_id":"ce4bgqh2rcd13ifvqc4g","pricing_plan_id":"cebpf4jnsgd1na2vs0mg"},{"bike_id":"043c3f00-95e0-44f1-8f8f-49251bf9d051","system_id":"levelo_inurba_marseille","lat":43.24828,"lon":5.37407,"is_reserved":false,"is_disabled":false,"rental_uris":{"android":"levelo://app?vid=043c3f00-95e0-44f1-8f8f-49251bf9d051","ios":"levelo://app?vid=043c3f00-95e0-44f1-8f8f-49251bf9d051"},"vehicle_type_id":"4","last_reported":1739610511,"current_range_meters":39200,"station_id":"ce4bhgh2rcd13ifvqfb0","pricing_plan_id":"cebpf4jnsgd1na2vs0mg"},{"bike_id":"711a6eb2-05c7-4789-87c7-6cb301fd4d69","system_id":"levelo_inurba_marseille","lat":43.29537,"lon":5.38532,"is_reserved":false,"is_disabled":true,"rental_uris":{"android":"levelo://app?vid=711a6eb2-05c7-4789-87c7-6cb301fd4d69","ios":"levelo://app?vid=711a6eb2-05c7-4789-87c7-6cb301fd4d69"},"vehicle_type_id":"4","last_reported":1739610511,"current_range_meters":38800,"station_id":"ce4bgih2rcd13ifvqba0","pricing_plan_id":"cebpf4jnsgd1na2vs0mg"},{"bike_id":"a29676e7-55a1-49bc-919f-e8ddc6a62810","system_id":"levelo_inurba_marseille","lat":43.29853,"lon":5.36288,"is_reserved":false,"is_disabled":false,"rental_uris":{"android":"levelo://app?vid=a29676e7-55a1-49bc-919f-e8ddc6a62810","ios":"levelo://app?vid=a29676e7-55a1-49bc-919f-e8ddc6a62810"},"vehicle_type_id":"4","last_reported":1739610511,"current_range_meters":38800,"station_id":"ce4bgpp2rcd13ifvqc3g","pricing_plan_id":"cebpf4jnsgd1na2vs0mg"},{"bike_id":"8e27dff1-77f5-4a1b-b9c0-4017a7900542","system_id":"levelo_inurba_marseille","lat":43.29199,"lon":5.358,"is_reserved":false,"is_disabled":false,"rental_uris":{"android":"levelo://app?vid=8e27dff1-77f5-4a1b-b9c0-4017a7900542","ios":"levelo://app?vid=8e27dff1-77f5-4a1b-b9c0-4017a7900542"},"vehicle_type_id":"4","last_reported":1739610511,"current_range_meters":21600,"station_id":"ce4bhb12rcd13ifvqel0","pricing_plan_id":"cebpf4jnsgd1na2vs0mg"},{"bike_id":"5b5b26f1-cca4-43e3-baa4-45a63b2a3d48","system_id":"levelo_inurba_marseille","lat":43.30431,"lon":5.39743,"is_reserved":false,"is_disabled":false,"rental_uris":{"android":"levelo://app?vid=5b5b26f1-cca4-43e3-baa4-45a63b2a3d48","ios":"levelo://app?vid=5b5b26f1-cca4-43e3-baa4-45a63b2a3d48"},"vehicle_type_id":"4","last_reported":1739610511,"current_range_meters":24400,"station_id":"ce4bh092rcd13ifvqd20","pricing_plan_id":"cebpf4jnsgd1na2vs0mg"},{"bike_id":"981f0c84-c763-4744-ab7e-6d6374d30546","system_id":"levelo_inurba_marseille","lat":43.2549,"lon":5.37664,"is_reserved":false,"is_disabled":false,"rental_uris":{"android":"levelo://app?vid=981f0c84-c763-4744-ab7e-6d6374d30546","ios":"levelo://app?vid=981f0c84-c763-4744-ab7e-6d6374d30546"},"vehicle_type_id":"4","last_reported":1739610511,"current_range_meters":38800,"station_id":"ce4bhh12rcd13ifvqff0","pricing_plan_id":"cebpf4jnsgd1na2vs0mg"},{"bike_id":"e2421ffa-148e-429f-8a0d-c426f330625c","system_id":"levelo_inurba_marseille","lat":43.26828,"lon":5.40255,"is_reserved":false,"is_disabled":false,"rental_uris":{"android":"levelo://app?vid=e2421ffa-148e-429f-8a0d-c426f330625c","ios":"levelo://app?vid=e2421ffa-148e-429f-8a0d-c426f330625c"},"vehicle_type_id":"4","last_reported":1739610511,"current_range_meters":9200,"station_id":"ce501612rcd8frsf0b60","pricing_plan_id":"cebpf4jnsgd1na2vs0mg"},{"bike_id":"c4c30d43-c99a-4375-b69e-29accecccae5","system_id":"levelo_inurba_marseille","lat":43.311729,"lon":5.387165,"is_reserved":false,"is_disabled":false,"rental_uris":{"android":"levelo://app?vid=c4c30d43-c99a-4375-b69e-29accecccae5","ios":"levelo://app?vid=c4c30d43-c99a-4375-b69e-29accecccae5"},"vehicle_type_id":"4","last_reported":1739610511,"current_range_meters":36000,"station_id":"ce4bgv12rcd13ifvqcp0","pricing_plan_id":"cebpf4jnsgd1na2vs0mg"},{"bike_id":"24c9fd7a-dfb5-4755-9c33-7fb2bb66a39c","system_id":"levelo_inurba_marseille","lat":43.29683,"lon":5.38114,"is_reserved":false,"is_disabled":false,"rental_uris":{"android":"levelo://app?vid=24c9fd7a-dfb5-4755-9c33-7fb2bb66a39c","ios":"levelo://app?vid=24c9fd7a-dfb5-4755-9c33-7fb2bb66a39c"},"vehicle_type_id":"4","last_reported":1739610511,"current_range_meters":4800,"station_id":"","pricing_plan_id":"cebpf4jnsgd1na2vs0mg"},{"bike_id":"be7996bb-de8e-454d-a4cd-eb7c1cef7b20","system_id":"levelo_inurba_marseille","lat":43.29033,"lon":5.39992,"is_reserved":false,"is_disabled":true,"rental_uris":{"android":"levelo://app?vid=be7996bb-de8e-454d-a4cd-eb7c1cef7b20","ios":"levelo://app?vid=be7996bb-de8e-454d-a4cd-eb7c1cef7b20"},"vehicle_type_id":"4","last_reported":1739610511,"current_range_meters":23200,"station_id":"ce4bh392rcd13ifvqdm0","pricing_plan_id":"cebpf4jnsgd1na2vs0mg"},{"bike_id":"f3577e40-d3b4-4c9c-af82-d1b37865ee10","system_id":"levelo_inurba_marseille","lat":43.25574,"lon":5.3825,"is_reserved":false,"is_disabled":true,"rental_uris":{"android":"levelo://app?vid=f3577e40-d3b4-4c9c-af82-d1b37865ee10","ios":"levelo://app?vid=f3577e40-d3b4-4c9c-af82-d1b37865ee10"},"vehicle_type_id":"4","last_reported":1739610511,"current_range_meters":1600,"station_id":"ce4bhih2rcd13ifvqfs0","pricing_plan_id":"cebpf4jnsgd1na2vs0mg"},{"bike_id":"d25cb867-891d-4616-93fe-6dda1d344b39","system_id":"levelo_inurba_marseille","lat":43.29273,"lon":5.38428,"is_reserved":false,"is_disabled":false,"rental_uris":{"android":"levelo://app?vid=d25cb867-891d-4616-93fe-6dda1d344b39","ios":"levelo://app?vid=d25cb867-891d-4616-93fe-6dda1d344b39"},"vehicle_type_id":"4","last_reported":1739610511,"current_range_meters":38800,"station_id":"ce4bh692rcd13ifvqea0","pricing_plan_id":"cebpf4jnsgd1na2vs0mg"},{"bike_id":"cc06cad4-1ba5-4b99-a089-1e5671255834","system_id":"levelo_inurba_marseille","lat":43.2962,"lon":5.3771,"is_reserved":false,"is_disabled":false,"rental_uris":{"android":"levelo://app?vid=cc06cad4-1ba5-4b99-a089-1e5671255834","ios":"levelo://app?vid=cc06cad4-1ba5-4b99-a089-1e5671255834"},"vehicle_type_id":"4","last_reported":1739610511,"current_range_meters":38400,"station_id":"ce4bgi92rcd13ifvqb90","pricing_plan_id":"cebpf4jnsgd1na2vs0mg"},{"bike_id":"6a29086f-7229-4285-8cb1-aad9c800b67f","system_id":"levelo_inurba_marseille","lat":43.27173,"lon":5.4099,"is_reserved":false,"is_disabled":false,"rental_uris":{"android":"levelo://app?vid=6a29086f-7229-4285-8cb1-aad9c800b67f","ios":"levelo://app?vid=6a29086f-7229-4285-8cb1-aad9c800b67f"},"vehicle_type_id":"4","last_reported":1739610511,"current_range_meters":3600,"station_id":"ce4bhl12rcd13ifvqgf0","pricing_plan_id":"cebpf4jnsgd1na2vs0mg"},{"bike_id":"53b5f8d9-591b-4722-8b93-d03568f78034","system_id":"levelo_inurba_marseille","lat":43.28465,"lon":5.35893,"is_reserved":false,"is_disabled":false,"rental_uris":{"android":"levelo://app?vid=53b5f8d9-591b-4722-8b93-d03568f78034","ios":"levelo://app?vid=53b5f8d9-591b-4722-8b93-d03568f78034"},"vehicle_type_id":"4","last_reported":1739610511,"current_range_meters":26000,"station_id":"ce4bhah2rcd13ifvqei0","pricing_plan_id":"cebpf4jnsgd1na2vs0mg"},{"bike_id":"d7396f9b-361b-46d7-8bda-af11c8c30f26","system_id":"levelo_inurba_marseille","lat":43.30144,"lon":5.3808,"is_reserved":false,"is_disabled":true,"rental_uris":{"android":"levelo://app?vid=d7396f9b-361b-46d7-8bda-af11c8c30f26","ios":"levelo://app?vid=d7396f9b-361b-46d7-8bda-af11c8c30f26"},"vehicle_type_id":"4","last_reported":1739610511,"current_range_meters":400,"station_id":"ce4bgjp2rcd13ifvqbh0","pricing_plan_id":"cebpf4jnsgd1na2vs0mg"},{"bike_id":"4fc2ab45-7da1-498c-ace8-56cf0c9de688","system_id":"levelo_inurba_marseille","lat":43.30873,"lon":5.39637,"is_reserved":false,"is_disabled":false,"rental_uris":{"android":"levelo://app?vid=4fc2ab45-7da1-498c-ace8-56cf0c9de688","ios":"levelo://app?vid=4fc2ab45-7da1-498c-ace8-56cf0c9de688"},"vehicle_type_id":"4","last_reported":1739610511,"current_range_meters":24000,"station_id":"ce4bh012rcd13ifvqcv0","pricing_plan_id":"cebpf4jnsgd1na2vs0mg"},{"bike_id":"88835893-7374-4c50-8205-6a6f34153217","system_id":"levelo_inurba_marseille","lat":43.29542,"lon":5.39383,"is_reserved":false,"is_disabled":false,"rental_uris":{"android":"levelo://app?vid=88835893-7374-4c50-8205-6a6f34153217","ios":"levelo://app?vid=88835893-7374-4c50-8205-6a6f34153217"},"vehicle_type_id":"4","last_reported":1739610511,"current_range_meters":8800,"station_id":"ce4bh292rcd13ifvqdf0","pricing_plan_id":"cebpf4jnsgd1na2vs0mg"},{"bike_id":"46f5d451-43bc-4724-ba4c-4c1a9fede2df","system_id":"levelo_inurba_marseille","lat":43.28416,"lon":5.37532,"is_reserved":false,"is_disabled":false,"rental_uris":{"android":"levelo://app?vid=46f5d451-43bc-4724-ba4c-4c1a9fede2df","ios":"levelo://app?vid=46f5d451-43bc-4724-ba4c-4c1a9fede2df"},"vehicle_type_id":"4","last_reported":1739610511,"current_range_meters":22000,"station_id":"ce4bh412rcd13ifvqds0","pricing_plan_id":"cebpf4jnsgd1na2vs0mg"},{"bike_id":"e5e5a17e-27a5-454b-904b-e271a7fe6a76","system_id":"levelo_inurba_marseille","lat":43.28081,"lon":5.39663,"is_reserved":false,"is_disabled":false,"rental_uris":{"android":"levelo://app?vid=e5e5a17e-27a5-454b-904b-e271a7fe6a76","ios":"levelo://app?vid=e5e5a17e-27a5-454b-904b-e271a7fe6a76"},"vehicle_type_id":"4","last_reported":1739610511,"current_range_meters":39200,"station_id":"ce4bho12rcd13ifvqh2g","pricing_plan_id":"cebpf4jnsgd1na2vs0mg"},{"bike_id":"bd045317-4200-485b-a6d6-e764caee6da4","system_id":"levelo_inurba_marseille","lat":43.2926,"lon":5.40911,"is_reserved":false,"is_disabled":false,"rental_uris":{"android":"levelo://app?vid=bd045317-4200-485b-a6d6-e764caee6da4","ios":"levelo://app?vid=bd045317-4200-485b-a6d6-e764caee6da4"},"vehicle_type_id":"4","last_reported":1739610511,"current_range_meters":37600,"station_id":"ce4bh192rcd13ifvqdc0","pricing_plan_id":"cebpf4jnsgd1na2vs0mg"},{"bike_id":"ddf1d674-41d6-443f-b0f1-1da7df267862","system_id":"levelo_inurba_marseille","lat":43.23064,"lon":5.35493,"is_reserved":false,"is_disabled":false,"rental_uris":{"android":"levelo://app?vid=ddf1d674-41d6-443f-b0f1-1da7df267862","ios":"levelo://app?vid=ddf1d674-41d6-443f-b0f1-1da7df267862"},"vehicle_type_id":"4","last_reported":1739610511,"current_range_meters":21600,"station_id":"cpo3342slgdg3j2ifvpg","pricing_plan_id":"cebpf4jnsgd1na2vs0mg"},{"bike_id":"effc3110-c000-4cc8-933a-01a43098d340","system_id":"levelo_inurba_marseille","lat":43.27205,"lon":5.39183,"is_reserved":false,"is_disabled":false,"rental_uris":{"android":"levelo://app?vid=effc3110-c000-4cc8-933a-01a43098d340","ios":"levelo://app?vid=effc3110-c000-4cc8-933a-01a43098d340"},"vehicle_type_id":"4","last_reported":1739610511,"current_range_meters":38800,"station_id":"ce4bhhp2rcd13ifvqfm0","pricing_plan_id":"cebpf4jnsgd1na2vs0mg"},{"bike_id":"45d478f3-34a9-4671-9e6b-3e6e52015c4f","system_id":"levelo_inurba_marseille","lat":43.3044,"lon":5.37916,"is_reserved":false,"is_disabled":false,"rental_uris":{"android":"levelo://app?vid=45d478f3-34a9-4671-9e6b-3e6e52015c4f","ios":"levelo://app?vid=45d478f3-34a9-4671-9e6b-3e6e52015c4f"},"vehicle_type_id":"4","last_reported":1739610511,"current_range_meters":39200,"station_id":"ce4bgup2rcd13ifvqcn0","pricing_plan_id":"cebpf4jnsgd1na2vs0mg"},{"bike_id":"46f7dd7f-3698-4a4b-84b6-cdfa84e75594","system_id":"levelo_inurba_marseille","lat":43.23954,"lon":5.36651,"is_reserved":false,"is_disabled":false,"rental_uris":{"android":"levelo://app?vid=46f7dd7f-3698-4a4b-84b6-cdfa84e75594","ios":"levelo://app?vid=46f7dd7f-3698-4a4b-84b6-cdfa84e75594"},"vehicle_type_id":"4","last_reported":1739610511,"current_range_meters":27600,"station_id":"ce4bhi12rcd13ifvqfp0","pricing_plan_id":"cebpf4jnsgd1na2vs0mg"},{"bike_id":"78be6242-0c31-4932-9bea-7d041837b9fe","system_id":"levelo_inurba_marseille","lat":43.313173,"lon":5.397133,"is_reserved":false,"is_disabled":false,"rental_uris":{"android":"levelo://app?vid=78be6242-0c31-4932-9bea-7d041837b9fe","ios":"levelo://app?vid=78be6242-0c31-4932-9bea-7d041837b9fe"},"vehicle_type_id":"4","last_reported":1739610511,"current_range_meters":38800,"station_id":"ce4bgvp2rcd13ifvqcu0","pricing_plan_id":"cebpf4jnsgd1na2vs0mg"},{"bike_id":"19733989-cc41-4255-a650-071ebfdc8d0a","system_id":"levelo_inurba_marseille","lat":43.30672,"lon":5.40031,"is_reserved":false,"is_disabled":false,"rental_uris":{"android":"levelo://app?vid=19733989-cc41-4255-a650-071ebfdc8d0a","ios":"levelo://app?vid=19733989-cc41-4255-a650-071ebfdc8d0a"},"vehicle_type_id":"4","last_reported":1739610511,"current_range_meters":28800,"station_id":"","pricing_plan_id":"cebpf4jnsgd1na2vs0mg"},{"bike_id":"c9645a26-5874-480f-a11e-46d2257542e0","system_id":"levelo_inurba_marseille","lat":43.27564,"lon":5.3866,"is_reserved":false,"is_disabled":false,"rental_uris":{"android":"levelo://app?vid=c9645a26-5874-480f-a11e-46d2257542e0","ios":"levelo://app?vid=c9645a26-5874-480f-a11e-46d2257542e0"},"vehicle_type_id":"4","last_reported":1739610511,"current_range_meters":30000,"station_id":"","pricing_plan_id":"cebpf4jnsgd1na2vs0mg"},{"bike_id":"4450d397-c7c4-4c68-aed9-fa811598c082","system_id":"levelo_inurba_marseille","lat":43.3256,"lon":5.36504,"is_reserved":false,"is_disabled":false,"rental_uris":{"android":"levelo://app?vid=4450d397-c7c4-4c68-aed9-fa811598c082","ios":"levelo://app?vid=4450d397-c7c4-4c68-aed9-fa811598c082"},"vehicle_type_id":"4","last_reported":1739610511,"current_range_meters":26000,"station_id":"","pricing_plan_id":"cebpf4jnsgd1na2vs0mg"},{"bike_id":"e9d71415-1817-4a43-bb37-1593c65a9a52","system_id":"levelo_inurba_marseille","lat":43.30416,"lon":5.41284,"is_reserved":false,"is_disabled":false,"rental_uris":{"android":"levelo://app?vid=e9d71415-1817-4a43-bb37-1593c65a9a52","ios":"levelo://app?vid=e9d71415-1817-4a43-bb37-1593c65a9a52"},"vehicle_type_id":"4","last_reported":1739610511,"current_range_meters":10000,"station_id":"ce4bhop2rcd13ifvqh8g","pricing_plan_id":"cebpf4jnsgd1na2vs0mg"},{"bike_id":"59cb679e-245c-46b7-bc74-dfa7c14bb16c","system_id":"levelo_inurba_marseille","lat":43.28997,"lon":5.35606,"is_reserved":false,"is_disabled":true,"rental_uris":{"android":"levelo://app?vid=59cb679e-245c-46b7-bc74-dfa7c14bb16c","ios":"levelo://app?vid=59cb679e-245c-46b7-bc74-dfa7c14bb16c"},"vehicle_type_id":"4","last_reported":1739610511,"current_range_meters":38400,"station_id":"ce4bhb92rcd13ifvqen0","pricing_plan_id":"cebpf4jnsgd1na2vs0mg"},{"bike_id":"2f79e81a-7027-4c82-8b0a-92ebacbe6365","system_id":"levelo_inurba_marseille","lat":43.26798,"lon":5.40276,"is_reserved":false,"is_disabled":false,"rental_uris":{"android":"levelo://app?vid=2f79e81a-7027-4c82-8b0a-92ebacbe6365","ios":"levelo://app?vid=2f79e81a-7027-4c82-8b0a-92ebacbe6365"},"vehicle_type_id":"4","last_reported":1739610511,"current_range_meters":34000,"station_id":"ce501612rcd8frsf0b60","pricing_plan_id":"cebpf4jnsgd1na2vs0mg"},{"bike_id":"a8bc8483-ceef-456e-92ec-efcc9ae8cb95","system_id":"levelo_inurba_marseille","lat":43.27622,"lon":5.36129,"is_reserved":false,"is_disabled":false,"rental_uris":{"android":"levelo://app?vid=a8bc8483-ceef-456e-92ec-efcc9ae8cb95","ios":"levelo://app?vid=a8bc8483-ceef-456e-92ec-efcc9ae8cb95"},"vehicle_type_id":"4","last_reported":1739610511,"current_range_meters":36800,"station_id":"ce4bgj92rcd13ifvqbe0","pricing_plan_id":"cebpf4jnsgd1na2vs0mg"},{"bike_id":"4aaa0363-f313-42f1-83f9-2f2886c48346","system_id":"levelo_inurba_marseille","lat":43.3139,"lon":5.38805,"is_reserved":false,"is_disabled":true,"rental_uris":{"android":"levelo://app?vid=4aaa0363-f313-42f1-83f9-2f2886c48346","ios":"levelo://app?vid=4aaa0363-f313-42f1-83f9-2f2886c48346"},"vehicle_type_id":"4","last_reported":1739610511,"current_range_meters":0,"station_id":"","pricing_plan_id":"cebpf4jnsgd1na2vs0mg"},{"bike_id":"f96fcea1-10fa-4df0-bc44-b12efd1d0e8a","system_id":"levelo_inurba_marseille","lat":43.29096,"lon":5.38145,"is_reserved":false,"is_disabled":false,"rental_uris":{"android":"levelo://app?vid=f96fcea1-10fa-4df0-bc44-b12efd1d0e8a","ios":"levelo://app?vid=f96fcea1-10fa-4df0-bc44-b12efd1d0e8a"},"vehicle_type_id":"4","last_reported":1739610511,"current_range_meters":38800,"station_id":"ce4bh512rcd13ifvqe2g","pricing_plan_id":"cebpf4jnsgd1na2vs0mg"},{"bike_id":"43dc5574-eed0-4b1d-9289-f32002400d84","system_id":"levelo_inurba_marseille","lat":43.2418,"lon":5.36373,"is_reserved":false,"is_disabled":false,"rental_uris":{"android":"levelo://app?vid=43dc5574-eed0-4b1d-9289-f32002400d84","ios":"levelo://app?vid=43dc5574-eed0-4b1d-9289-f32002400d84"},"vehicle_type_id":"4","last_reported":1739610511,"current_range_meters":12000,"station_id":"cpo36qri1sfpv3e86is0","pricing_plan_id":"cebpf4jnsgd1na2vs0mg"},{"bike_id":"b7675672-ea91-4212-a3c2-1e75ea117425","system_id":"levelo_inurba_marseille","lat":43.28163,"lon":5.42657,"is_reserved":false,"is_disabled":true,"rental_uris":{"android":"levelo://app?vid=b7675672-ea91-4212-a3c2-1e75ea117425","ios":"levelo://app?vid=b7675672-ea91-4212-a3c2-1e75ea117425"},"vehicle_type_id":"4","last_reported":1739610511,"current_range_meters":0,"station_id":"ce4bhnh2rcd13ifvqgug","pricing_plan_id":"cebpf4jnsgd1na2vs0mg"},{"bike_id":"ca61d0e9-378d-4484-bcf6-2e1ab7b5d84f","system_id":"levelo_inurba_marseille","lat":43.29847,"lon":5.36314,"is_reserved":false,"is_disabled":false,"rental_uris":{"android":"levelo://app?vid=ca61d0e9-378d-4484-bcf6-2e1ab7b5d84f","ios":"levelo://app?vid=ca61d0e9-378d-4484-bcf6-2e1ab7b5d84f"},"vehicle_type_id":"4","last_reported":1739610511,"current_range_meters":38800,"station_id":"ce4bgpp2rcd13ifvqc3g","pricing_plan_id":"cebpf4jnsgd1na2vs0mg"},{"bike_id":"41a494d5-a879-4e71-94c7-db16fc451d65","system_id":"levelo_inurba_marseille","lat":43.26789,"lon":5.39416,"is_reserved":false,"is_disabled":false,"rental_uris":{"android":"levelo://app?vid=41a494d5-a879-4e71-94c7-db16fc451d65","ios":"levelo://app?vid=41a494d5-a879-4e71-94c7-db16fc451d65"},"vehicle_type_id":"4","last_reported":1739610511,"current_range_meters":38400,"station_id":"ce4bhh12rcd13ifvqfg0","pricing_plan_id":"cebpf4jnsgd1na2vs0mg"},{"bike_id":"008ed16f-d916-42dc-9845-48f81c518e29","system_id":"levelo_inurba_marseille","lat":43.30182,"lon":5.3662,"is_reserved":false,"is_disabled":false,"rental_uris":{"android":"levelo://app?vid=008ed16f-d916-42dc-9845-48f81c518e29","ios":"levelo://app?vid=008ed16f-d916-42dc-9845-48f81c518e29"},"vehicle_type_id":"4","last_reported":1739610511,"current_range_meters":37600,"station_id":"ce4bgrh2rcd13ifvqc8g","pricing_plan_id":"cebpf4jnsgd1na2vs0mg"},{"bike_id":"8388ece5-7caf-4748-beee-457b0c4e88b9","system_id":"levelo_inurba_marseille","lat":43.28154,"lon":5.42632,"is_reserved":false,"is_disabled":false,"rental_uris":{"android":"levelo://app?vid=8388ece5-7caf-4748-beee-457b0c4e88b9","ios":"levelo://app?vid=8388ece5-7caf-4748-beee-457b0c4e88b9"},"vehicle_type_id":"4","last_reported":1739610511,"current_range_meters":38000,"station_id":"ce4bhnh2rcd13ifvqgug","pricing_plan_id":"cebpf4jnsgd1na2vs0mg"},{"bike_id":"94d1cf71-63c3-4d38-9d17-985126d482ee","system_id":"levelo_inurba_marseille","lat":43.295254,"lon":5.394028,"is_reserved":false,"is_disabled":false,"rental_uris":{"android":"levelo://app?vid=94d1cf71-63c3-4d38-9d17-985126d482ee","ios":"levelo://app?vid=94d1cf71-63c3-4d38-9d17-985126d482ee"},"vehicle_type_id":"4","last_reported":1739610511,"current_range_meters":38800,"station_id":"ce4bh292rcd13ifvqdf0","pricing_plan_id":"cebpf4jnsgd1na2vs0mg"},{"bike_id":"9bcc3779-160f-4f11-a908-15bc41b1ac43","system_id":"levelo_inurba_marseille","lat":43.27976,"lon":5.40021,"is_reserved":false,"is_disabled":true,"rental_uris":{"android":"levelo://app?vid=9bcc3779-160f-4f11-a908-15bc41b1ac43","ios":"levelo://app?vid=9bcc3779-160f-4f11-a908-15bc41b1ac43"},"vehicle_type_id":"4","last_reported":1739610511,"current_range_meters":8000,"station_id":"ce4bho92rcd13ifvqh4g","pricing_plan_id":"cebpf4jnsgd1na2vs0mg"},{"bike_id":"92d1ee13-e974-447f-aca6-7b5bff8f8b19","system_id":"levelo_inurba_marseille","lat":43.28068,"lon":5.39637,"is_reserved":false,"is_disabled":false,"rental_uris":{"android":"levelo://app?vid=92d1ee13-e974-447f-aca6-7b5bff8f8b19","ios":"levelo://app?vid=92d1ee13-e974-447f-aca6-7b5bff8f8b19"},"vehicle_type_id":"4","last_reported":1739610511,"current_range_meters":38800,"station_id":"ce4bho12rcd13ifvqh2g","pricing_plan_id":"cebpf4jnsgd1na2vs0mg"},{"bike_id":"20f5441b-8f89-4836-a535-dd9027d9ef40","system_id":"levelo_inurba_marseille","lat":43.30134,"lon":5.38785,"is_reserved":false,"is_disabled":false,"rental_uris":{"android":"levelo://app?vid=20f5441b-8f89-4836-a535-dd9027d9ef40","ios":"levelo://app?vid=20f5441b-8f89-4836-a535-dd9027d9ef40"},"vehicle_type_id":"4","last_reported":1739610511,"current_range_meters":36000,"station_id":"ce4bhoh2rcd13ifvqh6g","pricing_plan_id":"cebpf4jnsgd1na2vs0mg"},{"bike_id":"fb5e7418-f5bf-429f-bf27-0b9371e431cb","system_id":"levelo_inurba_marseille","lat":43.28714,"lon":5.3794,"is_reserved":false,"is_disabled":false,"rental_uris":{"android":"levelo://app?vid=fb5e7418-f5bf-429f-bf27-0b9371e431cb","ios":"levelo://app?vid=fb5e7418-f5bf-429f-bf27-0b9371e431cb"},"vehicle_type_id":"4","last_reported":1739610511,"current_range_meters":38800,"station_id":"ce4bh9p2rcd13ifvqec0","pricing_plan_id":"cebpf4jnsgd1na2vs0mg"},{"bike_id":"5f431628-1b2d-4a9e-9493-29ef6605563f","system_id":"levelo_inurba_marseille","lat":43.29545,"lon":5.39026,"is_reserved":false,"is_disabled":true,"rental_uris":{"android":"levelo://app?vid=5f431628-1b2d-4a9e-9493-29ef6605563f","ios":"levelo://app?vid=5f431628-1b2d-4a9e-9493-29ef6605563f"},"vehicle_type_id":"4","last_reported":1739610511,"current_range_meters":38000,"station_id":"ce4bh3p2rcd13ifvqdp0","pricing_plan_id":"cebpf4jnsgd1na2vs0mg"},{"bike_id":"69c0e96d-63da-4e05-bd47-05879daff16a","system_id":"levelo_inurba_marseille","lat":43.25821,"lon":5.39435,"is_reserved":false,"is_disabled":false,"rental_uris":{"android":"levelo://app?vid=69c0e96d-63da-4e05-bd47-05879daff16a","ios":"levelo://app?vid=69c0e96d-63da-4e05-bd47-05879daff16a"},"vehicle_type_id":"4","last_reported":1739610511,"current_range_meters":38000,"station_id":"ce4bhip2rcd13ifvqft0","pricing_plan_id":"cebpf4jnsgd1na2vs0mg"},{"bike_id":"dbfb7df1-d758-448c-9075-e7feb5f00d8e","system_id":"levelo_inurba_marseille","lat":43.24063,"lon":5.37743,"is_reserved":false,"is_disabled":false,"rental_uris":{"android":"levelo://app?vid=dbfb7df1-d758-448c-9075-e7feb5f00d8e","ios":"levelo://app?vid=dbfb7df1-d758-448c-9075-e7feb5f00d8e"},"vehicle_type_id":"4","last_reported":1739610511,"current_range_meters":18000,"station_id":"ce4bhnp2rcd13ifvqgvg","pricing_plan_id":"cebpf4jnsgd1na2vs0mg"},{"bike_id":"8267c286-9820-411a-a3b7-cb6a54ba45b4","system_id":"levelo_inurba_marseille","lat":43.28942,"lon":5.36405,"is_reserved":false,"is_disabled":false,"rental_uris":{"android":"levelo://app?vid=8267c286-9820-411a-a3b7-cb6a54ba45b4","ios":"levelo://app?vid=8267c286-9820-411a-a3b7-cb6a54ba45b4"},"vehicle_type_id":"4","last_reported":1739610511,"current_range_meters":38800,"station_id":"ce4bhc92rcd13ifvqetg","pricing_plan_id":"cebpf4jnsgd1na2vs0mg"},{"bike_id":"e031351b-efdb-4640-8255-b69e1640bbff","system_id":"levelo_inurba_marseille","lat":43.24149,"lon":5.36416,"is_reserved":false,"is_disabled":false,"rental_uris":{"android":"levelo://app?vid=e031351b-efdb-4640-8255-b69e1640bbff","ios":"levelo://app?vid=e031351b-efdb-4640-8255-b69e1640bbff"},"vehicle_type_id":"4","last_reported":1739610511,"current_range_meters":30400,"station_id":"cpo36qri1sfpv3e86is0","pricing_plan_id":"cebpf4jnsgd1na2vs0mg"},{"bike_id":"98a8dae0-84f1-4836-a1a2-1b7ff39aee19","system_id":"levelo_inurba_marseille","lat":43.309509,"lon":5.390241,"is_reserved":false,"is_disabled":false,"rental_uris":{"android":"levelo://app?vid=98a8dae0-84f1-4836-a1a2-1b7ff39aee19","ios":"levelo://app?vid=98a8dae0-84f1-4836-a1a2-1b7ff39aee19"},"vehicle_type_id":"4","last_reported":1739610511,"current_range_meters":30000,"station_id":"ce4bgup2rcd13ifvqco0","pricing_plan_id":"cebpf4jnsgd1na2vs0mg"},{"bike_id":"435c4be5-0960-45fb-a94f-882917046b98","system_id":"levelo_inurba_marseille","lat":43.28083,"lon":5.39665,"is_reserved":false,"is_disabled":false,"rental_uris":{"android":"levelo://app?vid=435c4be5-0960-45fb-a94f-882917046b98","ios":"levelo://app?vid=435c4be5-0960-45fb-a94f-882917046b98"},"vehicle_type_id":"4","last_reported":1739610511,"current_range_meters":10000,"station_id":"ce4bho12rcd13ifvqh2g","pricing_plan_id":"cebpf4jnsgd1na2vs0mg"},{"bike_id":"ea10f6c8-c151-40dc-90f9-bae90b6ba6bc","system_id":"levelo_inurba_marseille","lat":43.28856,"lon":5.35853,"is_reserved":false,"is_disabled":true,"rental_uris":{"android":"levelo://app?vid=ea10f6c8-c151-40dc-90f9-bae90b6ba6bc","ios":"levelo://app?vid=ea10f6c8-c151-40dc-90f9-bae90b6ba6bc"},"vehicle_type_id":"4","last_reported":1739610511,"current_range_meters":800,"station_id":"ce4bhb12rcd13ifvqem0","pricing_plan_id":"cebpf4jnsgd1na2vs0mg"},{"bike_id":"b21cd36d-735b-4507-9bf1-1493f9d1436b","system_id":"levelo_inurba_marseille","lat":43.301505,"lon":5.380756,"is_reserved":false,"is_disabled":false,"rental_uris":{"android":"levelo://app?vid=b21cd36d-735b-4507-9bf1-1493f9d1436b","ios":"levelo://app?vid=b21cd36d-735b-4507-9bf1-1493f9d1436b"},"vehicle_type_id":"4","last_reported":1739610511,"current_range_meters":39200,"station_id":"ce4bgjp2rcd13ifvqbh0","pricing_plan_id":"cebpf4jnsgd1na2vs0mg"},{"bike_id":"9aded10a-f840-4d16-8025-118dd69fb7c7","system_id":"levelo_inurba_marseille","lat":43.30093,"lon":5.39067,"is_reserved":false,"is_disabled":false,"rental_uris":{"android":"levelo://app?vid=9aded10a-f840-4d16-8025-118dd69fb7c7","ios":"levelo://app?vid=9aded10a-f840-4d16-8025-118dd69fb7c7"},"vehicle_type_id":"4","last_reported":1739610511,"current_range_meters":21600,"station_id":"ce4bh192rcd13ifvqdb0","pricing_plan_id":"cebpf4jnsgd1na2vs0mg"},{"bike_id":"21adfb4d-103e-4279-86cb-01e899792f77","system_id":"levelo_inurba_marseille","lat":43.29299,"lon":5.37458,"is_reserved":false,"is_disabled":false,"rental_uris":{"android":"levelo://app?vid=21adfb4d-103e-4279-86cb-01e899792f77","ios":"levelo://app?vid=21adfb4d-103e-4279-86cb-01e899792f77"},"vehicle_type_id":"4","last_reported":1739610511,"current_range_meters":17600,"station_id":"ce4bgi12rcd13ifvqb70","pricing_plan_id":"cebpf4jnsgd1na2vs0mg"},{"bike_id":"3f0160e8-08d6-4e84-869b-48ef8bbba5a0","system_id":"levelo_inurba_marseille","lat":43.31165,"lon":5.38726,"is_reserved":false,"is_disabled":false,"rental_uris":{"android":"levelo://app?vid=3f0160e8-08d6-4e84-869b-48ef8bbba5a0","ios":"levelo://app?vid=3f0160e8-08d6-4e84-869b-48ef8bbba5a0"},"vehicle_type_id":"4","last_reported":1739610511,"current_range_meters":27600,"station_id":"ce4bgv12rcd13ifvqcp0","pricing_plan_id":"cebpf4jnsgd1na2vs0mg"},{"bike_id":"ad4af932-f51b-41b8-983b-7e431dcc24a9","system_id":"levelo_inurba_marseille","lat":43.31131,"lon":5.38261,"is_reserved":false,"is_disabled":true,"rental_uris":{"android":"levelo://app?vid=ad4af932-f51b-41b8-983b-7e431dcc24a9","ios":"levelo://app?vid=ad4af932-f51b-41b8-983b-7e431dcc24a9"},"vehicle_type_id":"4","last_reported":1739610511,"current_range_meters":800,"station_id":"","pricing_plan_id":"cebpf4jnsgd1na2vs0mg"},{"bike_id":"8f3a782a-b82d-49ea-92dc-a2478c371b53","system_id":"levelo_inurba_marseille","lat":43.28942,"lon":5.39628,"is_reserved":false,"is_disabled":false,"rental_uris":{"android":"levelo://app?vid=8f3a782a-b82d-49ea-92dc-a2478c371b53","ios":"levelo://app?vid=8f3a782a-b82d-49ea-92dc-a2478c371b53"},"vehicle_type_id":"4","last_reported":1739610511,"current_range_meters":38800,"station_id":"ce4bh3h2rcd13ifvqdn0","pricing_plan_id":"cebpf4jnsgd1na2vs0mg"},{"bike_id":"0bbfac10-35d9-4a62-a88d-1e4a98fee6b9","system_id":"levelo_inurba_marseille","lat":43.30353,"lon":5.4188,"is_reserved":false,"is_disabled":false,"rental_uris":{"android":"levelo://app?vid=0bbfac10-35d9-4a62-a88d-1e4a98fee6b9","ios":"levelo://app?vid=0bbfac10-35d9-4a62-a88d-1e4a98fee6b9"},"vehicle_type_id":"4","last_reported":1739610511,"current_range_meters":24800,"station_id":"ce4bhop2rcd13ifvqh7g","pricing_plan_id":"cebpf4jnsgd1na2vs0mg"},{"bike_id":"3893b19f-ff96-4eec-9ace-a6c59815c4d1","system_id":"levelo_inurba_marseille","lat":43.2901,"lon":5.35595,"is_reserved":false,"is_disabled":false,"rental_uris":{"android":"levelo://app?vid=3893b19f-ff96-4eec-9ace-a6c59815c4d1","ios":"levelo://app?vid=3893b19f-ff96-4eec-9ace-a6c59815c4d1"},"vehicle_type_id":"4","last_reported":1739610511,"current_range_meters":39200,"station_id":"ce4bhb92rcd13ifvqen0","pricing_plan_id":"cebpf4jnsgd1na2vs0mg"},{"bike_id":"5e5a05a5-9929-40f5-9cce-020e08e40f65","system_id":"levelo_inurba_marseille","lat":43.29709,"lon":5.37696,"is_reserved":false,"is_disabled":false,"rental_uris":{"android":"levelo://app?vid=5e5a05a5-9929-40f5-9cce-020e08e40f65","ios":"levelo://app?vid=5e5a05a5-9929-40f5-9cce-020e08e40f65"},"vehicle_type_id":"4","last_reported":1739610511,"current_range_meters":25200,"station_id":"ce4bgkh2rcd13ifvqbl0","pricing_plan_id":"cebpf4jnsgd1na2vs0mg"},{"bike_id":"3643e00e-d557-45c3-9c3a-156a3faa0884","system_id":"levelo_inurba_marseille","lat":43.24392,"lon":5.3707,"is_reserved":false,"is_disabled":false,"rental_uris":{"android":"levelo://app?vid=3643e00e-d557-45c3-9c3a-156a3faa0884","ios":"levelo://app?vid=3643e00e-d557-45c3-9c3a-156a3faa0884"},"vehicle_type_id":"4","last_reported":1739610511,"current_range_meters":17600,"station_id":"ce4bhhh2rcd13ifvqfk0","pricing_plan_id":"cebpf4jnsgd1na2vs0mg"},{"bike_id":"f00a432d-6e5e-4ca0-a2b9-2ac1fcc4c4f4","system_id":"levelo_inurba_marseille","lat":43.27992,"lon":5.40016,"is_reserved":false,"is_disabled":false,"rental_uris":{"android":"levelo://app?vid=f00a432d-6e5e-4ca0-a2b9-2ac1fcc4c4f4","ios":"levelo://app?vid=f00a432d-6e5e-4ca0-a2b9-2ac1fcc4c4f4"},"vehicle_type_id":"4","last_reported":1739610511,"current_range_meters":3200,"station_id":"ce4bho92rcd13ifvqh4g","pricing_plan_id":"cebpf4jnsgd1na2vs0mg"},{"bike_id":"577f4e03-c6e4-4d27-a174-93f2550a094f","system_id":"levelo_inurba_marseille","lat":43.29571,"lon":5.37498,"is_reserved":false,"is_disabled":false,"rental_uris":{"android":"levelo://app?vid=577f4e03-c6e4-4d27-a174-93f2550a094f","ios":"levelo://app?vid=577f4e03-c6e4-4d27-a174-93f2550a094f"},"vehicle_type_id":"4","last_reported":1739610511,"current_range_meters":36800,"station_id":"ce4bgh92rcd13ifvqb50","pricing_plan_id":"cebpf4jnsgd1na2vs0mg"},{"bike_id":"201b0315-f60e-45b0-a64d-ce13682f54e1","system_id":"levelo_inurba_marseille","lat":43.29042,"lon":5.35933,"is_reserved":false,"is_disabled":false,"rental_uris":{"android":"levelo://app?vid=201b0315-f60e-45b0-a64d-ce13682f54e1","ios":"levelo://app?vid=201b0315-f60e-45b0-a64d-ce13682f54e1"},"vehicle_type_id":"4","last_reported":1739610511,"current_range_meters":39200,"station_id":"ce4bha92rcd13ifvqeg0","pricing_plan_id":"cebpf4jnsgd1na2vs0mg"},{"bike_id":"c539a6ba-a0eb-4b9e-aa29-00c48587b580","system_id":"levelo_inurba_marseille","lat":43.28484,"lon":5.38421,"is_reserved":false,"is_disabled":false,"rental_uris":{"android":"levelo://app?vid=c539a6ba-a0eb-4b9e-aa29-00c48587b580","ios":"levelo://app?vid=c539a6ba-a0eb-4b9e-aa29-00c48587b580"},"vehicle_type_id":"4","last_reported":1739610511,"current_range_meters":28400,"station_id":"ce4bh512rcd13ifvqe3g","pricing_plan_id":"cebpf4jnsgd1na2vs0mg"},{"bike_id":"d4c8c5d0-a371-434f-9621-65161baca610","system_id":"levelo_inurba_marseille","lat":43.28615,"lon":5.37058,"is_reserved":false,"is_disabled":false,"rental_uris":{"android":"levelo://app?vid=d4c8c5d0-a371-434f-9621-65161baca610","ios":"levelo://app?vid=d4c8c5d0-a371-434f-9621-65161baca610"},"vehicle_type_id":"4","last_reported":1739610511,"current_range_meters":33600,"station_id":"ce4bht12rcd13ifvqi60","pricing_plan_id":"cebpf4jnsgd1na2vs0mg"},{"bike_id":"643e599c-fe97-4957-af35-257d6f342bb3","system_id":"levelo_inurba_marseille","lat":43.292769,"lon":5.401376,"is_reserved":false,"is_disabled":false,"rental_uris":{"android":"levelo://app?vid=643e599c-fe97-4957-af35-257d6f342bb3","ios":"levelo://app?vid=643e599c-fe97-4957-af35-257d6f342bb3"},"vehicle_type_id":"4","last_reported":1739610511,"current_range_meters":24400,"station_id":"ce4bh312rcd13ifvqdk0","pricing_plan_id":"cebpf4jnsgd1na2vs0mg"},{"bike_id":"6ee9f485-19c3-4da4-a4ea-860958c3dd6a","system_id":"levelo_inurba_marseille","lat":43.29567,"lon":5.39983,"is_reserved":false,"is_disabled":true,"rental_uris":{"android":"levelo://app?vid=6ee9f485-19c3-4da4-a4ea-860958c3dd6a","ios":"levelo://app?vid=6ee9f485-19c3-4da4-a4ea-860958c3dd6a"},