{"last_updated":1730750965,"ttl":60,"version":"2.2","data":{"bikes":[{"bike_id":"7ab31956-ac61-4c82-bd43-95e8b0cd6e0d","system_id":"levelo_inurba_marseille","lat":43.30093,"lon":5.39062,"is_reserved":false,"is_disabled":false,"rental_uris":{"android":"levelo://app?vid=7ab31956-ac61-4c82-bd43-95e8b0cd6e0d","ios":"levelo://app?vid=7ab31956-ac61-4c82-bd43-95e8b0cd6e0d"},"vehicle_type_id":"4","last_reported":1730750966,"current_range_meters":30400,"station_id":"ce4bh192rcd13ifvqdb0","pricing_plan_id":"cebpf4jnsgd1na2vs0mg"},{"bike_id":"f00d27d5-bffa-4f40-9e52-a6d09dca2e6b","system_id":"levelo_inurba_marseille","lat":43.29617,"lon":5.37168,"is_reserved":false,"is_disabled":false,"rental_uris":{"android":"levelo://app?vid=f00d27d5-bffa-4f40-9e52-a6d09dca2e6b","ios":"levelo://app?vid=f00d27d5-bffa-4f40-9e52-a6d09dca2e6b"},"vehicle_type_id":"4","last_reported":1730750966,"current_range_meters":27600,"station_id":"ce4bgnh2rcd13ifvqc0g","pricing_plan_id":"cebpf4jnsgd1na2vs0mg"},{"bike_id":"b7837f34-17a9-43ad-b99a-4bf61e4fa6db","system_id":"levelo_inurba_marseille","lat":43.30242,"lon":5.40043,"is_reserved":false,"is_disabled":false,"rental_uris":{"android":"levelo://app?vid=b7837f34-17a9-43ad-b99a-4bf61e4fa6db","ios":"levelo://app?vid=b7837f34-17a9-43ad-b99a-4bf61e4fa6db"},"vehicle_type_id":"4","last_reported":1730750966,"current_range_meters":37600,"station_id":"ce4bgvh2rcd13ifvqcs0","pricing_plan_id":"cebpf4jnsgd1na2vs0mg"},{"bike_id":"bcac3ad2-33ea-454e-b32a-bb7e115d1f16","system_id":"levelo_inurba_marseille","lat":43.28084,"lon":5.39655,"is_reserved":false,"is_disabled":false,"rental_uris":{"android":"levelo://app?vid=bcac3ad2-33ea-454e-b32a-bb7e115d1f16","ios":"levelo://app?vid=bcac3ad2-33ea-454e-b32a-bb7e115d1f16"},"vehicle_type_id":"4","last_reported":1730750966,"current_range_meters":36400,"station_id":"ce4bho12rcd13ifvqh2g","pricing_plan_id":"cebpf4jnsgd1na2vs0mg"},{"bike_id":"c24fb9a5-b454-4ee1-a0d9-7727e66a5e9b","system_id":"levelo_inurba_marseille","lat":43.29088,"lon":5.38143,"is_reserved":false,"is_disabled":false,"rental_uris":{"android":"levelo://app?vid=c24fb9a5-b454-4ee1-a0d9-7727e66a5e9b","ios":"levelo://app?vid=c24fb9a5-b454-4ee1-a0d9-7727e66a5e9b"},"vehicle_type_id":"4","last_reported":1730750966,"current_range_meters":38000,"station_id":"ce4bh512rcd13ifvqe2g","pricing_plan_id":"cebpf4jnsgd1na2vs0mg"},{"bike_id":"2b6c8443-1848-4bd1-a5f7-cb79fbd151e5","system_id":"levelo_inurba_marseille","lat":43.28461,"lon":5.35892,"is_reserved":false,"is_disabled":false,"rental_uris":{"android":"levelo://app?vid=2b6c8443-1848-4bd1-a5f7-cb79fbd151e5","ios":"levelo://app?vid=2b6c8443-1848-4bd1-a5f7-cb79fbd151e5"},"vehicle_type_id":"4","last_reported":1730750966,"current_range_meters":33600,"station_id":"ce4bhah2rcd13ifvqei0","pricing_plan_id":"cebpf4jnsgd1na2vs0mg"},{"bike_id":"0813b8d9-95b0-4ee8-8c30-0a2f8f5acae7","system_id":"levelo_inurba_marseille","lat":43.28663,"lon":5.36354,"is_reserved":false,"is_disabled":false,"rental_uris":{"android":"levelo://app?vid=0813b8d9-95b0-4ee8-8c30-0a2f8f5acae7","ios":"levelo://app?vid=0813b8d9-95b0-4ee8-8c30-0a2f8f5acae7"},"vehicle_type_id":"4","last_reported":1730750966,"current_range_meters":36000,"station_id":"ce4bhah2rcd13ifvqej0","pricing_plan_id":"cebpf4jnsgd1na2vs0mg"},{"bike_id":"3346af28-edfa-46dc-b3e4-21c097320873","system_id":"levelo_inurba_marseille","lat":43.29253,"lon":5.38422,"is_reserved":false,"is_disabled":false,"rental_uris":{"android":"levelo://app?vid=3346af28-edfa-46dc-b3e4-21c097320873","ios":"levelo://app?vid=3346af28-edfa-46dc-b3e4-21c097320873"},"vehicle_type_id":"4","last_reported":1730750966,"current_range_meters":39200,"station_id":"ce4bh692rcd13ifvqea0","pricing_plan_id":"cebpf4jnsgd1na2vs0mg"},{"bike_id":"e69268df-bf99-404c-a39a-ee9f2a3ecdf5","system_id":"levelo_inurba_marseille","lat":43.30643,"lon":5.40091,"is_reserved":false,"is_disabled":false,"rental_uris":{"android":"levelo://app?vid=e69268df-bf99-404c-a39a-ee9f2a3ecdf5","ios":"levelo://app?vid=e69268df-bf99-404c-a39a-ee9f2a3ecdf5"},"vehicle_type_id":"4","last_reported":1730750966,"current_range_meters":8800,"station_id":"ce4bh112rcd13ifvqda0","pricing_plan_id":"cebpf4jnsgd1na2vs0mg"},{"bike_id":"198df7c5-19ab-45c4-b2b3-75af8c05766e","system_id":"levelo_inurba_marseille","lat":43.2816,"lon":5.42637,"is_reserved":false,"is_disabled":false,"rental_uris":{"android":"levelo://app?vid=198df7c5-19ab-45c4-b2b3-75af8c05766e","ios":"levelo://app?vid=198df7c5-19ab-45c4-b2b3-75af8c05766e"},"vehicle_type_id":"4","last_reported":1730750966,"current_range_meters":38400,"station_id":"ce4bhnh2rcd13ifvqgug","pricing_plan_id":"cebpf4jnsgd1na2vs0mg"},{"bike_id":"d50d0de5-0cf2-4512-8239-a159090cba63","system_id":"levelo_inurba_marseille","lat":43.28495,"lon":5.38555,"is_reserved":false,"is_disabled":false,"rental_uris":{"android":"levelo://app?vid=d50d0de5-0cf2-4512-8239-a159090cba63","ios":"levelo://app?vid=d50d0de5-0cf2-4512-8239-a159090cba63"},"vehicle_type_id":"4","last_reported":1730750966,"current_range_meters":16400,"station_id":"ce4bh8p2rcd13ifvqeb0","pricing_plan_id":"cebpf4jnsgd1na2vs0mg"},{"bike_id":"7d640c47-a4ae-4641-8ed6-4165bb1caeb6","system_id":"levelo_inurba_marseille","lat":43.26499,"lon":5.39542,"is_reserved":false,"is_disabled":false,"rental_uris":{"android":"levelo://app?vid=7d640c47-a4ae-4641-8ed6-4165bb1caeb6","ios":"levelo://app?vid=7d640c47-a4ae-4641-8ed6-4165bb1caeb6"},"vehicle_type_id":"4","last_reported":1730750966,"current_range_meters":38000,"station_id":"ce4bhi12rcd13ifvqfq0","pricing_plan_id":"cebpf4jnsgd1na2vs0mg"},{"bike_id":"d3105228-9fb1-4af8-b62b-ffa83f7daa83","system_id":"levelo_inurba_marseille","lat":43.29198,"lon":5.39313,"is_reserved":false,"is_disabled":false,"rental_uris":{"android":"levelo://app?vid=d3105228-9fb1-4af8-b62b-ffa83f7daa83","ios":"levelo://app?vid=d3105228-9fb1-4af8-b62b-ffa83f7daa83"},"vehicle_type_id":"4","last_reported":1730750966,"current_range_meters":6800,"station_id":"ce4bh192rcd13ifvqdd0","pricing_plan_id":"cebpf4jnsgd1na2vs0mg"},{"bike_id":"bef6e360-e6a9-4673-8e18-0a89fd02a098","system_id":"levelo_inurba_marseille","lat":43.30089,"lon":5.39084,"is_reserved":false,"is_disabled":false,"rental_uris":{"android":"levelo://app?vid=bef6e360-e6a9-4673-8e18-0a89fd02a098","ios":"levelo://app?vid=bef6e360-e6a9-4673-8e18-0a89fd02a098"},"vehicle_type_id":"4","last_reported":1730750966,"current_range_meters":17600,"station_id":"ce4bh192rcd13ifvqdb0","pricing_plan_id":"cebpf4jnsgd1na2vs0mg"},{"bike_id":"76c85a2b-777c-4e0e-b010-9b9d68b23e0f","system_id":"levelo_inurba_marseille","lat":43.29538,"lon":5.38539,"is_reserved":false,"is_disabled":false,"rental_uris":{"android":"levelo://app?vid=76c85a2b-777c-4e0e-b010-9b9d68b23e0f","ios":"levelo://app?vid=76c85a2b-777c-4e0e-b010-9b9d68b23e0f"},"vehicle_type_id":"4","last_reported":1730750966,"current_range_meters":38800,"station_id":"ce4bgih2rcd13ifvqba0","pricing_plan_id":"cebpf4jnsgd1na2vs0mg"},{"bike_id":"d7680b91-790b-4028-b988-1d6c2608791c","system_id":"levelo_inurba_marseille","lat":43.32363,"lon":5.38885,"is_reserved":false,"is_disabled":false,"rental_uris":{"android":"levelo://app?vid=d7680b91-790b-4028-b988-1d6c2608791c","ios":"levelo://app?vid=d7680b91-790b-4028-b988-1d6c2608791c"},"vehicle_type_id":"4","last_reported":1730750966,"current_range_meters":23200,"station_id":"ce4bhqp2rcd13ifvqhog","pricing_plan_id":"cebpf4jnsgd1na2vs0mg"},{"bike_id":"3fe3d638-0abd-4d5f-a79e-92302252d26d","system_id":"levelo_inurba_marseille","lat":43.30528,"lon":5.36711,"is_reserved":false,"is_disabled":false,"rental_uris":{"android":"levelo://app?vid=3fe3d638-0abd-4d5f-a79e-92302252d26d","ios":"levelo://app?vid=3fe3d638-0abd-4d5f-a79e-92302252d26d"},"vehicle_type_id":"4","last_reported":1730750966,"current_range_meters":33600,"station_id":"ce4bgrp2rcd13ifvqc9g","pricing_plan_id":"cebpf4jnsgd1na2vs0mg"},{"bike_id":"3172469f-5af3-4070-845b-ee9be353fde8","system_id":"levelo_inurba_marseille","lat":43.28451,"lon":5.35889,"is_reserved":false,"is_disabled":false,"rental_uris":{"android":"levelo://app?vid=3172469f-5af3-4070-845b-ee9be353fde8","ios":"levelo://app?vid=3172469f-5af3-4070-845b-ee9be353fde8"},"vehicle_type_id":"4","last_reported":1730750966,"current_range_meters":24400,"station_id":"ce4bhah2rcd13ifvqei0","pricing_plan_id":"cebpf4jnsgd1na2vs0mg"},{"bike_id":"73e97ee2-ecf9-431b-a471-5ff6de9c769e","system_id":"levelo_inurba_marseille","lat":43.28949,"lon":5.38381,"is_reserved":false,"is_disabled":false,"rental_uris":{"android":"levelo://app?vid=73e97ee2-ecf9-431b-a471-5ff6de9c769e","ios":"levelo://app?vid=73e97ee2-ecf9-431b-a471-5ff6de9c769e"},"vehicle_type_id":"4","last_reported":1730750966,"current_range_meters":38000,"station_id":"ce4bh612rcd13ifvqe6g","pricing_plan_id":"cebpf4jnsgd1na2vs0mg"},{"bike_id":"4147bbfb-4b14-4aca-b782-8ec6c0473609","system_id":"levelo_inurba_marseille","lat":43.23602,"lon":5.4034,"is_reserved":false,"is_disabled":false,"rental_uris":{"android":"levelo://app?vid=4147bbfb-4b14-4aca-b782-8ec6c0473609","ios":"levelo://app?vid=4147bbfb-4b14-4aca-b782-8ec6c0473609"},"vehicle_type_id":"4","last_reported":1730750966,"current_range_meters":12000,"station_id":"","pricing_plan_id":"cebpf4jnsgd1na2vs0mg"},{"bike_id":"8113a11d-faa1-4a73-a7b9-57f2c7a19838","system_id":"levelo_inurba_marseille","lat":43.3234,"lon":5.40622,"is_reserved":false,"is_disabled":false,"rental_uris":{"android":"levelo://app?vid=8113a11d-faa1-4a73-a7b9-57f2c7a19838","ios":"levelo://app?vid=8113a11d-faa1-4a73-a7b9-57f2c7a19838"},"vehicle_type_id":"4","last_reported":1730750966,"current_range_meters":18000,"station_id":"ce4bhq92rcd13ifvqhjg","pricing_plan_id":"cebpf4jnsgd1na2vs0mg"},{"bike_id":"fa66adb8-19da-4b56-aeb9-ccf1206b3e1e","system_id":"levelo_inurba_marseille","lat":43.32369,"lon":5.36767,"is_reserved":false,"is_disabled":false,"rental_uris":{"android":"levelo://app?vid=fa66adb8-19da-4b56-aeb9-ccf1206b3e1e","ios":"levelo://app?vid=fa66adb8-19da-4b56-aeb9-ccf1206b3e1e"},"vehicle_type_id":"4","last_reported":1730750966,"current_range_meters":37600,"station_id":"ce4bhsh2rcd13ifvqi2g","pricing_plan_id":"cebpf4jnsgd1na2vs0mg"},{"bike_id":"146b94cf-b81c-43a8-a126-d1471621d458","system_id":"levelo_inurba_marseille","lat":43.27999,"lon":5.40013,"is_reserved":false,"is_disabled":false,"rental_uris":{"android":"levelo://app?vid=146b94cf-b81c-43a8-a126-d1471621d458","ios":"levelo://app?vid=146b94cf-b81c-43a8-a126-d1471621d458"},"vehicle_type_id":"4","last_reported":1730750966,"current_range_meters":29600,"station_id":"ce4bho92rcd13ifvqh4g","pricing_plan_id":"cebpf4jnsgd1na2vs0mg"},{"bike_id":"64a2b89f-49f7-40b2-a980-02000405203c","system_id":"levelo_inurba_marseille","lat":43.288515,"lon":5.39302,"is_reserved":false,"is_disabled":false,"rental_uris":{"android":"levelo://app?vid=64a2b89f-49f7-40b2-a980-02000405203c","ios":"levelo://app?vid=64a2b89f-49f7-40b2-a980-02000405203c"},"vehicle_type_id":"4","last_reported":1730750966,"current_range_meters":24400,"station_id":"ce4bh2p2rcd13ifvqdi0","pricing_plan_id":"cebpf4jnsgd1na2vs0mg"},{"bike_id":"9dd4c1b5-f2ec-496b-8f02-a2c3d2c60a9c","system_id":"levelo_inurba_marseille","lat":43.24769,"lon":5.4183,"is_reserved":false,"is_disabled":false,"rental_uris":{"android":"levelo://app?vid=9dd4c1b5-f2ec-496b-8f02-a2c3d2c60a9c","ios":"levelo://app?vid=9dd4c1b5-f2ec-496b-8f02-a2c3d2c60a9c"},"vehicle_type_id":"4","last_reported":1730750966,"current_range_meters":30400,"station_id":"ce4bhkp2rcd13ifvqgd0","pricing_plan_id":"cebpf4jnsgd1na2vs0mg"},{"bike_id":"526eedd4-db5c-4687-9de3-3c089eba7751","system_id":"levelo_inurba_marseille","lat":43.23179,"lon":5.39989,"is_reserved":false,"is_disabled":false,"rental_uris":{"android":"levelo://app?vid=526eedd4-db5c-4687-9de3-3c089eba7751","ios":"levelo://app?vid=526eedd4-db5c-4687-9de3-3c089eba7751"},"vehicle_type_id":"4","last_reported":1730750966,"current_range_meters":4800,"station_id":"ce4bhn12rcd13ifvqgqg","pricing_plan_id":"cebpf4jnsgd1na2vs0mg"},{"bike_id":"47662166-db17-4d16-a97b-519c42566d41","system_id":"levelo_inurba_marseille","lat":43.27812,"lon":5.40717,"is_reserved":false,"is_disabled":false,"rental_uris":{"android":"levelo://app?vid=47662166-db17-4d16-a97b-519c42566d41","ios":"levelo://app?vid=47662166-db17-4d16-a97b-519c42566d41"},"vehicle_type_id":"4","last_reported":1730750966,"current_range_meters":7200,"station_id":"ce4bhnh2rcd13ifvqgtg","pricing_plan_id":"cebpf4jnsgd1na2vs0mg"},{"bike_id":"77e6040e-077a-4822-bbe7-c09819ecc6e9","system_id":"levelo_inurba_marseille","lat":43.2955,"lon":5.42283,"is_reserved":false,"is_disabled":false,"rental_uris":{"android":"levelo://app?vid=77e6040e-077a-4822-bbe7-c09819ecc6e9","ios":"levelo://app?vid=77e6040e-077a-4822-bbe7-c09819ecc6e9"},"vehicle_type_id":"4","last_reported":1730750966,"current_range_meters":39200,"station_id":"ce4bhph2rcd13ifvqhdg","pricing_plan_id":"cebpf4jnsgd1na2vs0mg"},{"bike_id":"034b1c64-fd84-4d73-bb11-3c2b01ee2af8","system_id":"levelo_inurba_marseille","lat":43.29568,"lon":5.39966,"is_reserved":false,"is_disabled":false,"rental_uris":{"android":"levelo://app?vid=034b1c64-fd84-4d73-bb11-3c2b01ee2af8","ios":"levelo://app?vid=034b1c64-fd84-4d73-bb11-3c2b01ee2af8"},"vehicle_type_id":"4","last_reported":1730750966,"current_range_meters":38800,"station_id":"ce4bh312rcd13ifvqdj0","pricing_plan_id":"cebpf4jnsgd1na2vs0mg"},{"bike_id":"525c40cf-ce5d-40cc-a112-46953ad38731","system_id":"levelo_inurba_marseille","lat":43.31178,"lon":5.38712,"is_reserved":false,"is_disabled":false,"rental_uris":{"android":"levelo://app?vid=525c40cf-ce5d-40cc-a112-46953ad38731","ios":"levelo://app?vid=525c40cf-ce5d-40cc-a112-46953ad38731"},"vehicle_type_id":"4","last_reported":1730750966,"current_range_meters":39200,"station_id":"ce4bgv12rcd13ifvqcp0","pricing_plan_id":"cebpf4jnsgd1na2vs0mg"},{"bike_id":"ef762b0a-886e-4da9-adfe-1739a57163ed","system_id":"levelo_inurba_marseille","lat":43.32338,"lon":5.40628,"is_reserved":false,"is_disabled":false,"rental_uris":{"android":"levelo://app?vid=ef762b0a-886e-4da9-adfe-1739a57163ed","ios":"levelo://app?vid=ef762b0a-886e-4da9-adfe-1739a57163ed"},"vehicle_type_id":"4","last_reported":1730750966,"current_range_meters":12400,"station_id":"ce4bhq92rcd13ifvqhjg","pricing_plan_id":"cebpf4jnsgd1na2vs0mg"},{"bike_id":"85744d25-67fd-4b20-85eb-e50d65efb98c","system_id":"levelo_inurba_marseille","lat":43.29603,"lon":5.38102,"is_reserved":false,"is_disabled":false,"rental_uris":{"android":"levelo://app?vid=85744d25-67fd-4b20-85eb-e50d65efb98c","ios":"levelo://app?vid=85744d25-67fd-4b20-85eb-e50d65efb98c"},"vehicle_type_id":"4","last_reported":1730750966,"current_range_meters":8400,"station_id":"ce4bgl12rcd13ifvqbo0","pricing_plan_id":"cebpf4jnsgd1na2vs0mg"},{"bike_id":"f7b02530-438b-4535-927c-07793d571ea5","system_id":"levelo_inurba_marseille","lat":43.296243,"lon":5.405806,"is_reserved":false,"is_disabled":false,"rental_uris":{"android":"levelo://app?vid=f7b02530-438b-4535-927c-07793d571ea5","ios":"levelo://app?vid=f7b02530-438b-4535-927c-07793d571ea5"},"vehicle_type_id":"4","last_reported":1730750966,"current_range_meters":22800,"station_id":"ce4bh0h2rcd13ifvqd60","pricing_plan_id":"cebpf4jnsgd1na2vs0mg"},{"bike_id":"2378f453-72a7-4eb2-ab3b-946285d406fd","system_id":"levelo_inurba_marseille","lat":43.29221,"lon":5.37724,"is_reserved":false,"is_disabled":false,"rental_uris":{"android":"levelo://app?vid=2378f453-72a7-4eb2-ab3b-946285d406fd","ios":"levelo://app?vid=2378f453-72a7-4eb2-ab3b-946285d406fd"},"vehicle_type_id":"4","last_reported":1730750966,"current_range_meters":7200,"station_id":"","pricing_plan_id":"cebpf4jnsgd1na2vs0mg"},{"bike_id":"014e77a6-0034-465e-8a5b-a5686eadcc57","system_id":"levelo_inurba_marseille","lat":43.32656,"lon":5.40995,"is_reserved":false,"is_disabled":false,"rental_uris":{"android":"levelo://app?vid=014e77a6-0034-465e-8a5b-a5686eadcc57","ios":"levelo://app?vid=014e77a6-0034-465e-8a5b-a5686eadcc57"},"vehicle_type_id":"4","last_reported":1730750966,"current_range_meters":39200,"station_id":"ce4bhpp2rcd13ifvqhgg","pricing_plan_id":"cebpf4jnsgd1na2vs0mg"},{"bike_id":"779e6769-9e2b-4b7a-a760-d212fa55bacf","system_id":"levelo_inurba_marseille","lat":43.30951,"lon":5.39023,"is_reserved":false,"is_disabled":false,"rental_uris":{"android":"levelo://app?vid=779e6769-9e2b-4b7a-a760-d212fa55bacf","ios":"levelo://app?vid=779e6769-9e2b-4b7a-a760-d212fa55bacf"},"vehicle_type_id":"4","last_reported":1730750966,"current_range_meters":9200,"station_id":"ce4bgup2rcd13ifvqco0","pricing_plan_id":"cebpf4jnsgd1na2vs0mg"},{"bike_id":"e87520ab-7d44-4391-8bba-3a764130f29d","system_id":"levelo_inurba_marseille","lat":43.28465,"lon":5.35883,"is_reserved":false,"is_disabled":false,"rental_uris":{"android":"levelo://app?vid=e87520ab-7d44-4391-8bba-3a764130f29d","ios":"levelo://app?vid=e87520ab-7d44-4391-8bba-3a764130f29d"},"vehicle_type_id":"4","last_reported":1730750966,"current_range_meters":6800,"station_id":"ce4bhah2rcd13ifvqei0","pricing_plan_id":"cebpf4jnsgd1na2vs0mg"},{"bike_id":"87e2ca9d-a76f-4935-bb9d-102d5d7cfefb","system_id":"levelo_inurba_marseille","lat":43.29415,"lon":5.38624,"is_reserved":false,"is_disabled":false,"rental_uris":{"android":"levelo://app?vid=87e2ca9d-a76f-4935-bb9d-102d5d7cfefb","ios":"levelo://app?vid=87e2ca9d-a76f-4935-bb9d-102d5d7cfefb"},"vehicle_type_id":"4","last_reported":1730750966,"current_range_meters":6400,"station_id":"ce4bh2h2rcd13ifvqdh0","pricing_plan_id":"cebpf4jnsgd1na2vs0mg"},{"bike_id":"1dcc4078-31e5-4cab-8516-eb6896bc0e11","system_id":"levelo_inurba_marseille","lat":43.30888,"lon":5.37204,"is_reserved":false,"is_disabled":false,"rental_uris":{"android":"levelo://app?vid=1dcc4078-31e5-4cab-8516-eb6896bc0e11","ios":"levelo://app?vid=1dcc4078-31e5-4cab-8516-eb6896bc0e11"},"vehicle_type_id":"4","last_reported":1730750966,"current_range_meters":38800,"station_id":"ce4bguh2rcd13ifvqckg","pricing_plan_id":"cebpf4jnsgd1na2vs0mg"},{"bike_id":"57648f51-6893-4ff8-8f45-2fb3884d8355","system_id":"levelo_inurba_marseille","lat":43.27614,"lon":5.36105,"is_reserved":false,"is_disabled":false,"rental_uris":{"android":"levelo://app?vid=57648f51-6893-4ff8-8f45-2fb3884d8355","ios":"levelo://app?vid=57648f51-6893-4ff8-8f45-2fb3884d8355"},"vehicle_type_id":"4","last_reported":1730750966,"current_range_meters":6000,"station_id":"ce4bgj92rcd13ifvqbe0","pricing_plan_id":"cebpf4jnsgd1na2vs0mg"},{"bike_id":"fc2c3f9b-061b-4b88-8d47-8a6d27bb94ba","system_id":"levelo_inurba_marseille","lat":43.25119,"lon":5.40317,"is_reserved":false,"is_disabled":false,"rental_uris":{"android":"levelo://app?vid=fc2c3f9b-061b-4b88-8d47-8a6d27bb94ba","ios":"levelo://app?vid=fc2c3f9b-061b-4b88-8d47-8a6d27bb94ba"},"vehicle_type_id":"4","last_reported":1730750966,"current_range_meters":9200,"station_id":"ce4bhlh2rcd13ifvqgig","pricing_plan_id":"cebpf4jnsgd1na2vs0mg"},{"bike_id":"d1a6a1a1-447b-4410-90ff-a0ee4c084144","system_id":"levelo_inurba_marseille","lat":43.313629,"lon":5.384848,"is_reserved":false,"is_disabled":false,"rental_uris":{"android":"levelo://app?vid=d1a6a1a1-447b-4410-90ff-a0ee4c084144","ios":"levelo://app?vid=d1a6a1a1-447b-4410-90ff-a0ee4c084144"},"vehicle_type_id":"4","last_reported":1730750966,"current_range_meters":7200,"station_id":"ce4bh2h2rcd13ifvqdh0","pricing_plan_id":"cebpf4jnsgd1na2vs0mg"},{"bike_id":"c02cb689-cac5-4dfa-bde0-e095a992c4d0","system_id":"levelo_inurba_marseille","lat":43.29786,"lon":5.3933,"is_reserved":false,"is_disabled":false,"rental_uris":{"android":"levelo://app?vid=c02cb689-cac5-4dfa-bde0-e095a992c4d0","ios":"levelo://app?vid=c02cb689-cac5-4dfa-bde0-e095a992c4d0"},"vehicle_type_id":"4","last_reported":1730750966,"current_range_meters":38000,"station_id":"chh1huq6cuj3fo74tm60","pricing_plan_id":"cebpf4jnsgd1na2vs0mg"},{"bike_id":"e12d7650-f1b2-4c4b-8eb8-23651f70543b","system_id":"levelo_inurba_marseille","lat":43.3236,"lon":5.38883,"is_reserved":false,"is_disabled":false,"rental_uris":{"android":"levelo://app?vid=e12d7650-f1b2-4c4b-8eb8-23651f70543b","ios":"levelo://app?vid=e12d7650-f1b2-4c4b-8eb8-23651f70543b"},"vehicle_type_id":"4","last_reported":1730750966,"current_range_meters":8800,"station_id":"ce4bhqp2rcd13ifvqhog","pricing_plan_id":"cebpf4jnsgd1na2vs0mg"},{"bike_id":"fbe1344d-a732-4551-86e4-3b4d6dad7b24","system_id":"levelo_inurba_marseille","lat":43.2926,"lon":5.40909,"is_reserved":false,"is_disabled":false,"rental_uris":{"android":"levelo://app?vid=fbe1344d-a732-4551-86e4-3b4d6dad7b24","ios":"levelo://app?vid=fbe1344d-a732-4551-86e4-3b4d6dad7b24"},"vehicle_type_id":"4","last_reported":1730750966,"current_range_meters":11200,"station_id":"ce4bh192rcd13ifvqdc0","pricing_plan_id":"cebpf4jnsgd1na2vs0mg"},{"bike_id":"2423c693-22f6-4895-8ecc-3de51634fd4e","system_id":"levelo_inurba_marseille","lat":43.28711,"lon":5.37925,"is_reserved":false,"is_disabled":false,"rental_uris":{"android":"levelo://app?vid=2423c693-22f6-4895-8ecc-3de51634fd4e","ios":"levelo://app?vid=2423c693-22f6-4895-8ecc-3de51634fd4e"},"vehicle_type_id":"4","last_reported":1730750966,"current_range_meters":3600,"station_id":"ce4bh9p2rcd13ifvqec0","pricing_plan_id":"cebpf4jnsgd1na2vs0mg"},{"bike_id":"2f27399c-a924-4473-9d9b-dbf4e2858c4b","system_id":"levelo_inurba_marseille","lat":43.25859,"lon":5.39896,"is_reserved":false,"is_disabled":false,"rental_uris":{"android":"levelo://app?vid=2f27399c-a924-4473-9d9b-dbf4e2858c4b","ios":"levelo://app?vid=2f27399c-a924-4473-9d9b-dbf4e2858c4b"},"vehicle_type_id":"4","last_reported":1730750966,"current_range_meters":38800,"station_id":"ce4bhl92rcd13ifvqghg","pricing_plan_id":"cebpf4jnsgd1na2vs0mg"},{"bike_id":"2bb532bf-fa07-482a-97e5-769676b0cab2","system_id":"levelo_inurba_marseille","lat":43.30244,"lon":5.40046,"is_reserved":false,"is_disabled":false,"rental_uris":{"android":"levelo://app?vid=2bb532bf-fa07-482a-97e5-769676b0cab2","ios":"levelo://app?vid=2bb532bf-fa07-482a-97e5-769676b0cab2"},"vehicle_type_id":"4","last_reported":1730750966,"current_range_meters":33200,"station_id":"ce4bgvh2rcd13ifvqcs0","pricing_plan_id":"cebpf4jnsgd1na2vs0mg"},{"bike_id":"393a1817-278f-4d15-8958-3115688bace0","system_id":"levelo_inurba_marseille","lat":43.29566,"lon":5.37519,"is_reserved":false,"is_disabled":false,"rental_uris":{"android":"levelo://app?vid=393a1817-278f-4d15-8958-3115688bace0","ios":"levelo://app?vid=393a1817-278f-4d15-8958-3115688bace0"},"vehicle_type_id":"4","last_reported":1730750966,"current_range_meters":8400,"station_id":"ce4bgh92rcd13ifvqb50","pricing_plan_id":"cebpf4jnsgd1na2vs0mg"},{"bike_id":"91f5b76d-bdfe-4048-8a04-c9679d35526a","system_id":"levelo_inurba_marseille","lat":43.33026,"lon":5.39038,"is_reserved":false,"is_disabled":false,"rental_uris":{"android":"levelo://app?vid=91f5b76d-bdfe-4048-8a04-c9679d35526a","ios":"levelo://app?vid=91f5b76d-bdfe-4048-8a04-c9679d35526a"},"vehicle_type_id":"4","last_reported":1730750966,"current_range_meters":38800,"station_id":"ce4bhr92rcd13ifvqhrg","pricing_plan_id":"cebpf4jnsgd1na2vs0mg"},{"bike_id":"003d7fda-4443-4148-aec1-729df37750b9","system_id":"levelo_inurba_marseille","lat":43.28108,"lon":5.37839,"is_reserved":false,"is_disabled":false,"rental_uris":{"android":"levelo://app?vid=003d7fda-4443-4148-aec1-729df37750b9","ios":"levelo://app?vid=003d7fda-4443-4148-aec1-729df37750b9"},"vehicle_type_id":"4","last_reported":1730750966,"current_range_meters":36800,"station_id":"ce4bha12rcd13ifvqee0","pricing_plan_id":"cebpf4jnsgd1na2vs0mg"},{"bike_id":"54a53193-b42f-4e81-af8d-b5da45c2ad7e","system_id":"levelo_inurba_marseille","lat":43.2718,"lon":5.40995,"is_reserved":false,"is_disabled":false,"rental_uris":{"android":"levelo://app?vid=54a53193-b42f-4e81-af8d-b5da45c2ad7e","ios":"levelo://app?vid=54a53193-b42f-4e81-af8d-b5da45c2ad7e"},"vehicle_type_id":"4","last_reported":1730750966,"current_range_meters":38000,"station_id":"ce4bhl12rcd13ifvqgf0","pricing_plan_id":"cebpf4jnsgd1na2vs0mg"},{"bike_id":"99d78f6e-5bfc-4e99-baa1-b9137a41c134","system_id":"levelo_inurba_marseille","lat":43.28152,"lon":5.42646,"is_reserved":false,"is_disabled":false,"rental_uris":{"android":"levelo://app?vid=99d78f6e-5bfc-4e99-baa1-b9137a41c134","ios":"levelo://app?vid=99d78f6e-5bfc-4e99-baa1-b9137a41c134"},"vehicle_type_id":"4","last_reported":1730750966,"current_range_meters":38800,"station_id":"ce4bhnh2rcd13ifvqgug","pricing_plan_id":"cebpf4jnsgd1na2vs0mg"},{"bike_id":"49c79ef5-c849-4494-b74b-fecdde94ee8b","system_id":"levelo_inurba_marseille","lat":43.27675,"lon":5.38887,"is_reserved":false,"is_disabled":false,"rental_uris":{"android":"levelo://app?vid=49c79ef5-c849-4494-b74b-fecdde94ee8b","ios":"levelo://app?vid=49c79ef5-c849-4494-b74b-fecdde94ee8b"},"vehicle_type_id":"4","last_reported":1730750966,"current_range_meters":25200,"station_id":"ce4bhi12rcd13ifvqfo0","pricing_plan_id":"cebpf4jnsgd1na2vs0mg"},{"bike_id":"efe9f712-701d-4783-92aa-5b72106998a3","system_id":"levelo_inurba_marseille","lat":43.28935,"lon":5.36635,"is_reserved":false,"is_disabled":false,"rental_uris":{"android":"levelo://app?vid=efe9f712-701d-4783-92aa-5b72106998a3","ios":"levelo://app?vid=efe9f712-701d-4783-92aa-5b72106998a3"},"vehicle_type_id":"4","last_reported":1730750966,"current_range_meters":18800,"station_id":"ce4bhap2rcd13ifvqek0","pricing_plan_id":"cebpf4jnsgd1na2vs0mg"},{"bike_id":"e122c03a-bdc0-46d4-afc9-625ada9184ae","system_id":"levelo_inurba_marseille","lat":43.30308,"lon":5.36895,"is_reserved":false,"is_disabled":false,"rental_uris":{"android":"levelo://app?vid=e122c03a-bdc0-46d4-afc9-625ada9184ae","ios":"levelo://app?vid=e122c03a-bdc0-46d4-afc9-625ada9184ae"},"vehicle_type_id":"4","last_reported":1730750966,"current_range_meters":16400,"station_id":"ce4bgqh2rcd13ifvqc5g","pricing_plan_id":"cebpf4jnsgd1na2vs0mg"},{"bike_id":"0803123e-05f3-4d0d-bec4-f7b52cdaaf49","system_id":"levelo_inurba_marseille","lat":43.30797,"lon":5.38158,"is_reserved":false,"is_disabled":false,"rental_uris":{"android":"levelo://app?vid=0803123e-05f3-4d0d-bec4-f7b52cdaaf49","ios":"levelo://app?vid=0803123e-05f3-4d0d-bec4-f7b52cdaaf49"},"vehicle_type_id":"4","last_reported":1730750966,"current_range_meters":6000,"station_id":"ce4bgt12rcd13ifvqce0","pricing_plan_id":"cebpf4jnsgd1na2vs0mg"},{"bike_id":"372b79ea-d145-403a-86aa-4421629e3558","system_id":"levelo_inurba_marseille","lat":43.312561,"lon":5.401639,"is_reserved":false,"is_disabled":false,"rental_uris":{"android":"levelo://app?vid=372b79ea-d145-403a-86aa-4421629e3558","ios":"levelo://app?vid=372b79ea-d145-403a-86aa-4421629e3558"},"vehicle_type_id":"4","last_reported":1730750966,"current_range_meters":22400,"station_id":"ce4bh092rcd13ifvqd30","pricing_plan_id":"cebpf4jnsgd1na2vs0mg"},{"bike_id":"26d51a0f-bf83-47ae-9424-ca10318ae2a8","system_id":"levelo_inurba_marseille","lat":43.27968,"lon":5.38736,"is_reserved":false,"is_disabled":false,"rental_uris":{"android":"levelo://app?vid=26d51a0f-bf83-47ae-9424-ca10318ae2a8","ios":"levelo://app?vid=26d51a0f-bf83-47ae-9424-ca10318ae2a8"},"vehicle_type_id":"4","last_reported":1730750966,"current_range_meters":16400,"station_id":"ce4bhg12rcd13ifvqf80","pricing_plan_id":"cebpf4jnsgd1na2vs0mg"},{"bike_id":"0688e1f9-1bf1-4863-9a6f-f01b30b1aed3","system_id":"levelo_inurba_marseille","lat":43.284632,"lon":5.358858,"is_reserved":false,"is_disabled":false,"rental_uris":{"android":"levelo://app?vid=0688e1f9-1bf1-4863-9a6f-f01b30b1aed3","ios":"levelo://app?vid=0688e1f9-1bf1-4863-9a6f-f01b30b1aed3"},"vehicle_type_id":"4","last_reported":1730750966,"current_range_meters":34800,"station_id":"ce4bhah2rcd13ifvqei0","pricing_plan_id":"cebpf4jnsgd1na2vs0mg"},{"bike_id":"7955d6ea-5c6d-409a-b68a-d8adf44f2f31","system_id":"levelo_inurba_marseille","lat":43.29423,"lon":5.38624,"is_reserved":false,"is_disabled":false,"rental_uris":{"android":"levelo://app?vid=7955d6ea-5c6d-409a-b68a-d8adf44f2f31","ios":"levelo://app?vid=7955d6ea-5c6d-409a-b68a-d8adf44f2f31"},"vehicle_type_id":"4","last_reported":1730750966,"current_range_meters":38800,"station_id":"ce4bh2h2rcd13ifvqdh0","pricing_plan_id":"cebpf4jnsgd1na2vs0mg"},{"bike_id":"5f7bea16-ee2b-4b3b-8d0f-0102e87cabea","system_id":"levelo_inurba_marseille","lat":43.30799,"lon":5.43524,"is_reserved":false,"is_disabled":false,"rental_uris":{"android":"levelo://app?vid=5f7bea16-ee2b-4b3b-8d0f-0102e87cabea","ios":"levelo://app?vid=5f7bea16-ee2b-4b3b-8d0f-0102e87cabea"},"vehicle_type_id":"4","last_reported":1730750966,"current_range_meters":8000,"station_id":"ce4bhph2rcd13ifvqheg","pricing_plan_id":"cebpf4jnsgd1na2vs0mg"},{"bike_id":"a5143deb-1a03-43e9-a62f-9793e1d2990f","system_id":"levelo_inurba_marseille","lat":43.2988,"lon":5.38907,"is_reserved":false,"is_disabled":false,"rental_uris":{"android":"levelo://app?vid=a5143deb-1a03-43e9-a62f-9793e1d2990f","ios":"levelo://app?vid=a5143deb-1a03-43e9-a62f-9793e1d2990f"},"vehicle_type_id":"4","last_reported":1730750966,"current_range_meters":6000,"station_id":"ce4bh392rcd13ifvqdl0","pricing_plan_id":"cebpf4jnsgd1na2vs0mg"},{"bike_id":"948bea26-243e-473d-8bc0-b3c45d592059","system_id":"levelo_inurba_marseille","lat":43.26678,"lon":5.38263,"is_reserved":false,"is_disabled":false,"rental_uris":{"android":"levelo://app?vid=948bea26-243e-473d-8bc0-b3c45d592059","ios":"levelo://app?vid=948bea26-243e-473d-8bc0-b3c45d592059"},"vehicle_type_id":"4","last_reported":1730750966,"current_range_meters":6400,"station_id":"ce4bhg92rcd13ifvqf90","pricing_plan_id":"cebpf4jnsgd1na2vs0mg"},{"bike_id":"6b9dd9ce-867d-4cd1-b324-c283dfc7d359","system_id":"levelo_inurba_marseille","lat":43.2649,"lon":5.39542,"is_reserved":false,"is_disabled":false,"rental_uris":{"android":"levelo://app?vid=6b9dd9ce-867d-4cd1-b324-c283dfc7d359","ios":"levelo://app?vid=6b9dd9ce-867d-4cd1-b324-c283dfc7d359"},"vehicle_type_id":"4","last_reported":1730750966,"current_range_meters":38400,"station_id":"ce4bhi12rcd13ifvqfq0","pricing_plan_id":"cebpf4jnsgd1na2vs0mg"},{"bike_id":"8a6108fb-39e5-44c9-bb0e-c92b1fbe0362","system_id":"levelo_inurba_marseille","lat":43.279983,"lon":5.400107,"is_reserved":false,"is_disabled":false,"rental_uris":{"android":"levelo://app?vid=8a6108fb-39e5-44c9-bb0e-c92b1fbe0362","ios":"levelo://app?vid=8a6108fb-39e5-44c9-bb0e-c92b1fbe0362"},"vehicle_type_id":"4","last_reported":1730750966,"current_range_meters":39200,"station_id":"ce4bho92rcd13ifvqh4g","pricing_plan_id":"cebpf4jnsgd1na2vs0mg"},{"bike_id":"8d5faf28-e526-4d5b-93d3-399bd2cb1046","system_id":"levelo_inurba_marseille","lat":43.3176,"lon":5.39016,"is_reserved":false,"is_disabled":false,"rental_uris":{"android":"levelo://app?vid=8d5faf28-e526-4d5b-93d3-399bd2cb1046","ios":"levelo://app?vid=8d5faf28-e526-4d5b-93d3-399bd2cb1046"},"vehicle_type_id":"4","last_reported":1730750966,"current_range_meters":12800,"station_id":"ce4bhqp2rcd13ifvqhng","pricing_plan_id":"cebpf4jnsgd1na2vs0mg"},{"bike_id":"23877bfd-ec13-4a32-a5e9-0c77b2e0e648","system_id":"levelo_inurba_marseille","lat":43.2987,"lon":5.3891,"is_reserved":false,"is_disabled":false,"rental_uris":{"android":"levelo://app?vid=23877bfd-ec13-4a32-a5e9-0c77b2e0e648","ios":"levelo://app?vid=23877bfd-ec13-4a32-a5e9-0c77b2e0e648"},"vehicle_type_id":"4","last_reported":1730750966,"current_range_meters":24000,"station_id":"ce4bh392rcd13ifvqdl0","pricing_plan_id":"cebpf4jnsgd1na2vs0mg"},{"bike_id":"09829a24-f639-4891-80cb-ed9f598d5fde","system_id":"levelo_inurba_marseille","lat":43.2921,"lon":5.39319,"is_reserved":false,"is_disabled":false,"rental_uris":{"android":"levelo://app?vid=09829a24-f639-4891-80cb-ed9f598d5fde","ios":"levelo://app?vid=09829a24-f639-4891-80cb-ed9f598d5fde"},"vehicle_type_id":"4","last_reported":1730750966,"current_range_meters":9600,"station_id":"ce4bh192rcd13ifvqdd0","pricing_plan_id":"cebpf4jnsgd1na2vs0mg"},{"bike_id":"4d39a779-31fa-49e8-8dd7-1884b4a4ae25","system_id":"levelo_inurba_marseille","lat":43.26194,"lon":5.3745,"is_reserved":false,"is_disabled":false,"rental_uris":{"android":"levelo://app?vid=4d39a779-31fa-49e8-8dd7-1884b4a4ae25","ios":"levelo://app?vid=4d39a779-31fa-49e8-8dd7-1884b4a4ae25"},"vehicle_type_id":"4","last_reported":1730750966,"current_range_meters":7200,"station_id":"ce4bhgp2rcd13ifvqfc0","pricing_plan_id":"cebpf4jnsgd1na2vs0mg"},{"bike_id":"8c90d0b3-f1b0-424d-a4c3-3b5f9d847e56","system_id":"levelo_inurba_marseille","lat":43.30589,"lon":5.37217,"is_reserved":false,"is_disabled":false,"rental_uris":{"android":"levelo://app?vid=8c90d0b3-f1b0-424d-a4c3-3b5f9d847e56","ios":"levelo://app?vid=8c90d0b3-f1b0-424d-a4c3-3b5f9d847e56"},"vehicle_type_id":"4","last_reported":1730750966,"current_range_meters":39200,"station_id":"ce4bgqh2rcd13ifvqc4g","pricing_plan_id":"cebpf4jnsgd1na2vs0mg"},{"bike_id":"488a81d4-ac37-4f27-9692-3a640bcfce1a","system_id":"levelo_inurba_marseille","lat":43.28403,"lon":5.37514,"is_reserved":false,"is_disabled":false,"rental_uris":{"android":"levelo://app?vid=488a81d4-ac37-4f27-9692-3a640bcfce1a","ios":"levelo://app?vid=488a81d4-ac37-4f27-9692-3a640bcfce1a"},"vehicle_type_id":"4","last_reported":1730750966,"current_range_meters":11200,"station_id":"ce4bh412rcd13ifvqds0","pricing_plan_id":"cebpf4jnsgd1na2vs0mg"},{"bike_id":"37deeb23-ece9-4f69-9fee-a33b9b0b9f3f","system_id":"levelo_inurba_marseille","lat":43.29527,"lon":5.39028,"is_reserved":false,"is_disabled":false,"rental_uris":{"android":"levelo://app?vid=37deeb23-ece9-4f69-9fee-a33b9b0b9f3f","ios":"levelo://app?vid=37deeb23-ece9-4f69-9fee-a33b9b0b9f3f"},"vehicle_type_id":"4","last_reported":1730750966,"current_range_meters":34800,"station_id":"ce4bh3p2rcd13ifvqdp0","pricing_plan_id":"cebpf4jnsgd1na2vs0mg"},{"bike_id":"32500efe-17dc-4778-b878-74b764dbdfc8","system_id":"levelo_inurba_marseille","lat":43.28009,"lon":5.40007,"is_reserved":false,"is_disabled":false,"rental_uris":{"android":"levelo://app?vid=32500efe-17dc-4778-b878-74b764dbdfc8","ios":"levelo://app?vid=32500efe-17dc-4778-b878-74b764dbdfc8"},"vehicle_type_id":"4","last_reported":1730750966,"current_range_meters":34000,"station_id":"ce4bho92rcd13ifvqh4g","pricing_plan_id":"cebpf4jnsgd1na2vs0mg"},{"bike_id":"eb39e603-ad9f-4225-9a3b-12ae2097763c","system_id":"levelo_inurba_marseille","lat":43.25085,"lon":5.39518,"is_reserved":false,"is_disabled":false,"rental_uris":{"android":"levelo://app?vid=eb39e603-ad9f-4225-9a3b-12ae2097763c","ios":"levelo://app?vid=eb39e603-ad9f-4225-9a3b-12ae2097763c"},"vehicle_type_id":"4","last_reported":1730750966,"current_range_meters":33200,"station_id":"ce4bhm12rcd13ifvqgkg","pricing_plan_id":"cebpf4jnsgd1na2vs0mg"},{"bike_id":"dfdbab8c-1f1d-443d-b108-183c4b7fb7c3","system_id":"levelo_inurba_marseille","lat":43.28081,"lon":5.39661,"is_reserved":false,"is_disabled":false,"rental_uris":{"android":"levelo://app?vid=dfdbab8c-1f1d-443d-b108-183c4b7fb7c3","ios":"levelo://app?vid=dfdbab8c-1f1d-443d-b108-183c4b7fb7c3"},"vehicle_type_id":"4","last_reported":1730750966,"current_range_meters":28000,"station_id":"ce4bho12rcd13ifvqh2g","pricing_plan_id":"cebpf4jnsgd1na2vs0mg"},{"bike_id":"ef035a9e-e33e-4137-b881-272584da15b9","system_id":"levelo_inurba_marseille","lat":43.27832,"lon":5.39209,"is_reserved":false,"is_disabled":false,"rental_uris":{"android":"levelo://app?vid=ef035a9e-e33e-4137-b881-272584da15b9","ios":"levelo://app?vid=ef035a9e-e33e-4137-b881-272584da15b9"},"vehicle_type_id":"4","last_reported":1730750966,"current_range_meters":11600,"station_id":"ce4bhjp2rcd13ifvqga0","pricing_plan_id":"cebpf4jnsgd1na2vs0mg"},{"bike_id":"04aa5b59-4bb9-497a-a1ac-eef2c51fb9a6","system_id":"levelo_inurba_marseille","lat":43.28082,"lon":5.39654,"is_reserved":false,"is_disabled":false,"rental_uris":{"android":"levelo://app?vid=04aa5b59-4bb9-497a-a1ac-eef2c51fb9a6","ios":"levelo://app?vid=04aa5b59-4bb9-497a-a1ac-eef2c51fb9a6"},"vehicle_type_id":"4","last_reported":1730750966,"current_range_meters":12000,"station_id":"ce4bho12rcd13ifvqh2g","pricing_plan_id":"cebpf4jnsgd1na2vs0mg"},{"bike_id":"3ab4030e-66fe-403c-8479-fde3f9e0f5d6","system_id":"levelo_inurba_marseille","lat":43.29867,"lon":5.39732,"is_reserved":false,"is_disabled":false,"rental_uris":{"android":"levelo://app?vid=3ab4030e-66fe-403c-8479-fde3f9e0f5d6","ios":"levelo://app?vid=3ab4030e-66fe-403c-8479-fde3f9e0f5d6"},"vehicle_type_id":"4","last_reported":1730750966,"current_range_meters":38800,"station_id":"ce4bh0h2rcd13ifvqd50","pricing_plan_id":"cebpf4jnsgd1na2vs0mg"},{"bike_id":"efd52e43-c6c4-4283-8f94-e8c17d086d54","system_id":"levelo_inurba_marseille","lat":43.28667,"lon":5.36349,"is_reserved":false,"is_disabled":false,"rental_uris":{"android":"levelo://app?vid=efd52e43-c6c4-4283-8f94-e8c17d086d54","ios":"levelo://app?vid=efd52e43-c6c4-4283-8f94-e8c17d086d54"},"vehicle_type_id":"4","last_reported":1730750966,"current_range_meters":18000,"station_id":"ce4bhah2rcd13ifvqej0","pricing_plan_id":"cebpf4jnsgd1na2vs0mg"},{"bike_id":"fca3bb47-36da-49b2-bc78-db89b0b21aec","system_id":"levelo_inurba_marseille","lat":43.29875,"lon":5.38914,"is_reserved":false,"is_disabled":false,"rental_uris":{"android":"levelo://app?vid=fca3bb47-36da-49b2-bc78-db89b0b21aec","ios":"levelo://app?vid=fca3bb47-36da-49b2-bc78-db89b0b21aec"},"vehicle_type_id":"4","last_reported":1730750966,"current_range_meters":29600,"station_id":"ce4bh392rcd13ifvqdl0","pricing_plan_id":"cebpf4jnsgd1na2vs0mg"},{"bike_id":"87231ffe-0ac7-469b-8716-78c258e514db","system_id":"levelo_inurba_marseille","lat":43.24663,"lon":5.38163,"is_reserved":false,"is_disabled":false,"rental_uris":{"android":"levelo://app?vid=87231ffe-0ac7-469b-8716-78c258e514db","ios":"levelo://app?vid=87231ffe-0ac7-469b-8716-78c258e514db"},"vehicle_type_id":"4","last_reported":1730750966,"current_range_meters":30000,"station_id":"ce4bhih2rcd13ifvqfr0","pricing_plan_id":"cebpf4jnsgd1na2vs0mg"},{"bike_id":"1a262795-7407-49d2-b8b5-844e6a51667f","system_id":"levelo_inurba_marseille","lat":43.29221,"lon":5.36083,"is_reserved":false,"is_disabled":false,"rental_uris":{"android":"levelo://app?vid=1a262795-7407-49d2-b8b5-844e6a51667f","ios":"levelo://app?vid=1a262795-7407-49d2-b8b5-844e6a51667f"},"vehicle_type_id":"4","last_reported":1730750966,"current_range_meters":26000,"station_id":"ce4bhbh2rcd13ifvqeqg","pricing_plan_id":"cebpf4jnsgd1na2vs0mg"},{"bike_id":"d4472d20-9c4b-4c70-ad00-3a005519a429","system_id":"levelo_inurba_marseille","lat":43.35366,"lon":5.35735,"is_reserved":false,"is_disabled":false,"rental_uris":{"android":"levelo://app?vid=d4472d20-9c4b-4c70-ad00-3a005519a429","ios":"levelo://app?vid=d4472d20-9c4b-4c70-ad00-3a005519a429"},"vehicle_type_id":"4","last_reported":1730750966,"current_range_meters":8400,"station_id":"","pricing_plan_id":"cebpf4jnsgd1na2vs0mg"},{"bike_id":"93e1a5ab-3065-4d73-b07a-8664739a1737","system_id":"levelo_inurba_marseille","lat":43.26946,"lon":5.40242,"is_reserved":false,"is_disabled":false,"rental_uris":{"android":"levelo://app?vid=93e1a5ab-3065-4d73-b07a-8664739a1737","ios":"levelo://app?vid=93e1a5ab-3065-4d73-b07a-8664739a1737"},"vehicle_type_id":"4","last_reported":1730750966,"current_range_meters":38800,"station_id":"cjm6bp8fraef2m0cb0m0","pricing_plan_id":"cebpf4jnsgd1na2vs0mg"},{"bike_id":"c84b0bfc-34a9-475b-9f04-6a326b51d4f9","system_id":"levelo_inurba_marseille","lat":43.29526,"lon":5.39049,"is_reserved":false,"is_disabled":false,"rental_uris":{"android":"levelo://app?vid=c84b0bfc-34a9-475b-9f04-6a326b51d4f9","ios":"levelo://app?vid=c84b0bfc-34a9-475b-9f04-6a326b51d4f9"},"vehicle_type_id":"4","last_reported":1730750966,"current_range_meters":28400,"station_id":"ce4bh3p2rcd13ifvqdp0","pricing_plan_id":"cebpf4jnsgd1na2vs0mg"},{"bike_id":"5f3ffe99-d310-41cc-a9ab-2fe9e0b59eb4","system_id":"levelo_inurba_marseille","lat":43.27557,"lon":5.38426,"is_reserved":false,"is_disabled":false,"rental_uris":{"android":"levelo://app?vid=5f3ffe99-d310-41cc-a9ab-2fe9e0b59eb4","ios":"levelo://app?vid=5f3ffe99-d310-41cc-a9ab-2fe9e0b59eb4"},"vehicle_type_id":"4","last_reported":1730750966,"current_range_meters":38000,"station_id":"ce4bhh92rcd13ifvqfi0","pricing_plan_id":"cebpf4jnsgd1na2vs0mg"},{"bike_id":"28ed30cb-39f7-403c-b763-8ee5add25ea0","system_id":"levelo_inurba_marseille","lat":43.32486,"lon":5.36569,"is_reserved":false,"is_disabled":false,"rental_uris":{"android":"levelo://app?vid=28ed30cb-39f7-403c-b763-8ee5add25ea0","ios":"levelo://app?vid=28ed30cb-39f7-403c-b763-8ee5add25ea0"},"vehicle_type_id":"4","last_reported":1730750966,"current_range_meters":38400,"station_id":"ce4bhs12rcd13ifvqhvg","pricing_plan_id":"cebpf4jnsgd1na2vs0mg"},{"bike_id":"b934b83b-a0ef-45c5-becd-ac014a76a723","system_id":"levelo_inurba_marseille","lat":43.2923,"lon":5.39338,"is_reserved":false,"is_disabled":false,"rental_uris":{"android":"levelo://app?vid=b934b83b-a0ef-45c5-becd-ac014a76a723","ios":"levelo://app?vid=b934b83b-a0ef-45c5-becd-ac014a76a723"},"vehicle_type_id":"4","last_reported":1730750966,"current_range_meters":6800,"station_id":"","pricing_plan_id":"cebpf4jnsgd1na2vs0mg"},{"bike_id":"ed8908e8-3043-4187-a7bd-b9080da9eb38","system_id":"levelo_inurba_marseille","lat":43.295769,"lon":5.399592,"is_reserved":false,"is_disabled":false,"rental_uris":{"android":"levelo://app?vid=ed8908e8-3043-4187-a7bd-b9080da9eb38","ios":"levelo://app?vid=ed8908e8-3043-4187-a7bd-b9080da9eb38"},"vehicle_type_id":"4","last_reported":1730750966,"current_range_meters":37600,"station_id":"ce4bgvp2rcd13ifvqct0","pricing_plan_id":"cebpf4jnsgd1na2vs0mg"},{"bike_id":"0cd2180d-56f3-45e6-b3f5-978b59b12b28","system_id":"levelo_inurba_marseille","lat":43.32364,"lon":5.38884,"is_reserved":false,"is_disabled":false,"rental_uris":{"android":"levelo://app?vid=0cd2180d-56f3-45e6-b3f5-978b59b12b28","ios":"levelo://app?vid=0cd2180d-56f3-45e6-b3f5-978b59b12b28"},"vehicle_type_id":"4","last_reported":1730750966,"current_range_meters":25600,"station_id":"ce4bhqp2rcd13ifvqhog","pricing_plan_id":"cebpf4jnsgd1na2vs0mg"},{"bike_id":"0a1a40db-b474-4571-b7c4-fd7400638eb1","system_id":"levelo_inurba_marseille","lat":43.31713,"lon":5.4371,"is_reserved":false,"is_disabled":false,"rental_uris":{"android":"levelo://app?vid=0a1a40db-b474-4571-b7c4-fd7400638eb1","ios":"levelo://app?vid=0a1a40db-b474-4571-b7c4-fd7400638eb1"},"vehicle_type_id":"4","last_reported":1730750966,"current_range_meters":7200,"station_id":"ce4bhp92rcd13ifvqhcg","pricing_plan_id":"cebpf4jnsgd1na2vs0mg"},{"bike_id":"be5bb167-8e9d-4764-9cac-04dc5e3697e1","system_id":"levelo_inurba_marseille","lat":43.28461,"lon":5.35889,"is_reserved":false,"is_disabled":false,"rental_uris":{"android":"levelo://app?vid=be5bb167-8e9d-4764-9cac-04dc5e3697e1","ios":"levelo://app?vid=be5bb167-8e9d-4764-9cac-04dc5e3697e1"},"vehicle_type_id":"4","last_reported":1730750966,"current_range_meters":25600,"station_id":"ce4bhah2rcd13ifvqei0","pricing_plan_id":"cebpf4jnsgd1na2vs0mg"},{"bike_id":"fc4ff40e-36f2-4ff7-b01d-91d5f35360be","system_id":"levelo_inurba_marseille","lat":43.28664,"lon":5.36349,"is_reserved":false,"is_disabled":false,"rental_uris":{"android":"levelo://app?vid=fc4ff40e-36f2-4ff7-b01d-91d5f35360be","ios":"levelo://app?vid=fc4ff40e-36f2-4ff7-b01d-91d5f35360be"},"vehicle_type_id":"4","last_reported":1730750966,"current_range_meters":27600,"station_id":"ce4bhah2rcd13ifvqej0","pricing_plan_id":"cebpf4jnsgd1na2vs0mg"},{"bike_id":"97e5bfd5-fe6e-4905-8d5d-2f3f772488a5","system_id":"levelo_inurba_marseille","lat":43.28676,"lon":5.38665,"is_reserved":false,"is_disabled":false,"rental_uris":{"android":"levelo://app?vid=97e5bfd5-fe6e-4905-8d5d-2f3f772488a5","ios":"levelo://app?vid=97e5bfd5-fe6e-4905-8d5d-2f3f772488a5"},"vehicle_type_id":"4","last_reported":1730750966,"current_range_meters":38800,"station_id":"ce4bh492rcd13ifvqdug","pricing_plan_id":"cebpf4jnsgd1na2vs0mg"},{"bike_id":"2dd40e8a-347a-4069-9f04-901c41b0a3c7","system_id":"levelo_inurba_marseille","lat":43.321,"lon":5.36776,"is_reserved":false,"is_disabled":false,"rental_uris":{"android":"levelo://app?vid=2dd40e8a-347a-4069-9f04-901c41b0a3c7","ios":"levelo://app?vid=2dd40e8a-347a-4069-9f04-901c41b0a3c7"},"vehicle_type_id":"4","last_reported":1730750966,"current_range_meters":38800,"station_id":"ce4bhrh2rcd13ifvqhug","pricing_plan_id":"cebpf4jnsgd1na2vs0mg"},{"bike_id":"8e2c503f-d257-4324-9f82-bafd6f83bf8b","system_id":"levelo_inurba_marseille","lat":43.31288,"lon":5.39637,"is_reserved":false,"is_disabled":false,"rental_uris":{"android":"levelo://app?vid=8e2c503f-d257-4324-9f82-bafd6f83bf8b","ios":"levelo://app?vid=8e2c503f-d257-4324-9f82-bafd6f83bf8b"},"vehicle_type_id":"4","last_reported":1730750966,"current_range_meters":18000,"station_id":"ce4bgk12rcd13ifvqbi0","pricing_plan_id":"cebpf4jnsgd1na2vs0mg"},{"bike_id":"6fc2326c-4cde-4ad0-9f66-cc0b4811ab5d","system_id":"levelo_inurba_marseille","lat":43.31992,"lon":5.38144,"is_reserved":false,"is_disabled":false,"rental_uris":{"android":"levelo://app?vid=6fc2326c-4cde-4ad0-9f66-cc0b4811ab5d","ios":"levelo://app?vid=6fc2326c-4cde-4ad0-9f66-cc0b4811ab5d"},"vehicle_type_id":"4","last_reported":1730750966,"current_range_meters":38800,"station_id":"ce4bhr12rcd13ifvqhpg","pricing_plan_id":"cebpf4jnsgd1na2vs0mg"},{"bike_id":"d22fb1b1-2550-4a1c-9826-b88923c7be78","system_id":"levelo_inurba_marseille","lat":43.30885,"lon":5.39654,"is_reserved":false,"is_disabled":false,"rental_uris":{"android":"levelo://app?vid=d22fb1b1-2550-4a1c-9826-b88923c7be78","ios":"levelo://app?vid=d22fb1b1-2550-4a1c-9826-b88923c7be78"},"vehicle_type_id":"4","last_reported":1730750966,"current_range_meters":21600,"station_id":"ce4bh012rcd13ifvqcv0","pricing_plan_id":"cebpf4jnsgd1na2vs0mg"},{"bike_id":"148ef324-e0ba-4f3f-a972-788a9d2d9cf2","system_id":"levelo_inurba_marseille","lat":43.28726,"lon":5.36095,"is_reserved":false,"is_disabled":false,"rental_uris":{"android":"levelo://app?vid=148ef324-e0ba-4f3f-a972-788a9d2d9cf2","ios":"levelo://app?vid=148ef324-e0ba-4f3f-a972-788a9d2d9cf2"},"vehicle_type_id":"4","last_reported":1730750966,"current_range_meters":38800,"station_id":"cki0cbj6b192h4jlfktg","pricing_plan_id":"cebpf4jnsgd1na2vs0mg"},{"bike_id":"0de5fe4f-8aee-430b-b436-71e9c05b5e8f","system_id":"levelo_inurba_marseille","lat":43.310731,"lon":5.383526,"is_reserved":false,"is_disabled":false,"rental_uris":{"android":"levelo://app?vid=0de5fe4f-8aee-430b-b436-71e9c05b5e8f","ios":"levelo://app?vid=0de5fe4f-8aee-430b-b436-71e9c05b5e8f"},"vehicle_type_id":"4","last_reported":1730750966,"current_range_meters":2000,"station_id":"ce4bgv92rcd13ifvqcr0","pricing_plan_id":"cebpf4jnsgd1na2vs0mg"},{"bike_id":"476b1032-3456-4e75-9225-7aec38b7121d","system_id":"levelo_inurba_marseille","lat":43.27811,"lon":5.4071,"is_reserved":false,"is_disabled":false,"rental_uris":{"android":"levelo://app?vid=476b1032-3456-4e75-9225-7aec38b7121d","ios":"levelo://app?vid=476b1032-3456-4e75-9225-7aec38b7121d"},"vehicle_type_id":"4","last_reported":1730750966,"current_range_meters":26800,"station_id":"ce4bhnh2rcd13ifvqgtg","pricing_plan_id":"cebpf4jnsgd1na2vs0mg"},{"bike_id":"9d764d20-b2dd-4da1-acae-03a5ed91a76d","system_id":"levelo_inurba_marseille","lat":43.28444,"lon":5.3919,"is_reserved":false,"is_disabled":false,"rental_uris":{"android":"levelo://app?vid=9d764d20-b2dd-4da1-acae-03a5ed91a76d","ios":"levelo://app?vid=9d764d20-b2dd-4da1-acae-03a5ed91a76d"},"vehicle_type_id":"4","last_reported":1730750966,"current_range_meters":36800,"station_id":"ce4bhoh2rcd13ifvqh5g","pricing_plan_id":"cebpf4jnsgd1na2vs0mg"},{"bike_id":"8b751894-1161-4d7b-a0e2-88850f36a102","system_id":"levelo_inurba_marseille","lat":43.31761,"lon":5.39012,"is_reserved":false,"is_disabled":false,"rental_uris":{"android":"levelo://app?vid=8b751894-1161-4d7b-a0e2-88850f36a102","ios":"levelo://app?vid=8b751894-1161-4d7b-a0e2-88850f36a102"},"vehicle_type_id":"4","last_reported":1730750966,"current_range_meters":38800,"station_id":"ce4bhqp2rcd13ifvqhng","pricing_plan_id":"cebpf4jnsgd1na2vs0mg"},{"bike_id":"3ef99431-3adb-46de-97da-821b1b9d3028","system_id":"levelo_inurba_marseille","lat":43.26945,"lon":5.40241,"is_reserved":false,"is_disabled":false,"rental_uris":{"android":"levelo://app?vid=3ef99431-3adb-46de-97da-821b1b9d3028","ios":"levelo://app?vid=3ef99431-3adb-46de-97da-821b1b9d3028"},"vehicle_type_id":"4","last_reported":1730750966,"current_range_meters":38800,"station_id":"cjm6bp8fraef2m0cb0m0","pricing_plan_id":"cebpf4jnsgd1na2vs0mg"},{"bike_id":"284a58f0-ac34-4623-8869-59696274e7c5","system_id":"levelo_inurba_marseille","lat":43.31073,"lon":5.38344,"is_reserved":false,"is_disabled":false,"rental_uris":{"android":"levelo://app?vid=284a58f0-ac34-4623-8869-59696274e7c5","ios":"levelo://app?vid=284a58f0-ac34-4623-8869-59696274e7c5"},"vehicle_type_id":"4","last_reported":1730750966,"current_range_meters":22000,"station_id":"ce4bgv92rcd13ifvqcr0","pricing_plan_id":"cebpf4jnsgd1na2vs0mg"},{"bike_id":"a1e9a334-a473-4351-aa60-c0bec8d3a41f","system_id":"levelo_inurba_marseille","lat":43.29513,"lon":5.3904,"is_reserved":false,"is_disabled":false,"rental_uris":{"android":"levelo://app?vid=a1e9a334-a473-4351-aa60-c0bec8d3a41f","ios":"levelo://app?vid=a1e9a334-a473-4351-aa60-c0bec8d3a41f"},"vehicle_type_id":"4","last_reported":1730750966,"current_range_meters":10800,"station_id":"ce4bh3p2rcd13ifvqdp0","pricing_plan_id":"cebpf4jnsgd1na2vs0mg"},{"bike_id":"7369aeee-d371-46f6-8698-a787a560056e","system_id":"levelo_inurba_marseille","lat":43.30442,"lon":5.38905,"is_reserved":false,"is_disabled":false,"rental_uris":{"android":"levelo://app?vid=7369aeee-d371-46f6-8698-a787a560056e","ios":"levelo://app?vid=7369aeee-d371-46f6-8698-a787a560056e"},"vehicle_type_id":"4","last_reported":1730750966,"current_range_meters":38800,"station_id":"ce4bgk12rcd13ifvqbi0","pricing_plan_id":"cebpf4jnsgd1na2vs0mg"},{"bike_id":"9c269b39-08b3-4bc3-a549-71a71e294410","system_id":"levelo_inurba_marseille","lat":43.29519,"lon":5.39404,"is_reserved":false,"is_disabled":false,"rental_uris":{"android":"levelo://app?vid=9c269b39-08b3-4bc3-a549-71a71e294410","ios":"levelo://app?vid=9c269b39-08b3-4bc3-a549-71a71e294410"},"vehicle_type_id":"4","last_reported":1730750966,"current_range_meters":38800,"station_id":"ce4bh292rcd13ifvqdf0","pricing_plan_id":"cebpf4jnsgd1na2vs0mg"},{"bike_id":"ba8f5d9a-4861-4465-b828-23e2245ef053","system_id":"levelo_inurba_marseille","lat":43.23189,"lon":5.39973,"is_reserved":false,"is_disabled":false,"rental_uris":{"android":"levelo://app?vid=ba8f5d9a-4861-4465-b828-23e2245ef053","ios":"levelo://app?vid=ba8f5d9a-4861-4465-b828-23e2245ef053"},"vehicle_type_id":"4","last_reported":1730750966,"current_range_meters":40000,"station_id":"ce4bhn12rcd13ifvqgqg","pricing_plan_id":"cebpf4jnsgd1na2vs0mg"},{"bike_id":"9f83e42b-2ec6-4a10-85d2-da5f4868ca5b","system_id":"levelo_inurba_marseille","lat":43.26949,"lon":5.38635,"is_reserved":false,"is_disabled":false,"rental_uris":{"android":"levelo://app?vid=9f83e42b-2ec6-4a10-85d2-da5f4868ca5b","ios":"levelo://app?vid=9f83e42b-2ec6-4a10-85d2-da5f4868ca5b"},"vehicle_type_id":"4","last_reported":1730750966,"current_range_meters":27200,"station_id":"ce4bhh92rcd13ifvqfh0","pricing_plan_id":"cebpf4jnsgd1na2vs0mg"},{"bike_id":"6c78a033-e104-48bc-bb54-3615bf76d1ad","system_id":"levelo_inurba_marseille","lat":43.25862,"lon":5.39906,"is_reserved":false,"is_disabled":false,"rental_uris":{"android":"levelo://app?vid=6c78a033-e104-48bc-bb54-3615bf76d1ad","ios":"levelo://app?vid=6c78a033-e104-48bc-bb54-3615bf76d1ad"},"vehicle_type_id":"4","last_reported":1730750966,"current_range_meters":38800,"station_id":"ce4bhl92rcd13ifvqghg","pricing_plan_id":"cebpf4jnsgd1na2vs0mg"},{"bike_id":"772f5a1a-0240-4436-8273-7fb69704d5fd","system_id":"levelo_inurba_marseille","lat":43.25083,"lon":5.39515,"is_reserved":false,"is_disabled":false,"rental_uris":{"android":"levelo://app?vid=772f5a1a-0240-4436-8273-7fb69704d5fd","ios":"levelo://app?vid=772f5a1a-0240-4436-8273-7fb69704d5fd"},"vehicle_type_id":"4","last_reported":1730750966,"current_range_meters":30800,"station_id":"ce4bhm12rcd13ifvqgkg","pricing_plan_id":"cebpf4jnsgd1na2vs0mg"},{"bike_id":"42efe7e3-d734-4591-b8ab-0dbccdafc45f","system_id":"levelo_inurba_marseille","lat":43.31764,"lon":5.39008,"is_reserved":false,"is_disabled":false,"rental_uris":{"android":"levelo://app?vid=42efe7e3-d734-4591-b8ab-0dbccdafc45f","ios":"levelo://app?vid=42efe7e3-d734-4591-b8ab-0dbccdafc45f"},"vehicle_type_id":"4","last_reported":1730750966,"current_range_meters":38800,"station_id":"ce4bhqp2rcd13ifvqhng","pricing_plan_id":"cebpf4jnsgd1na2vs0mg"},{"bike_id":"4314c959-0960-488f-8a5e-47a2dcd21d56","system_id":"levelo_inurba_marseille","lat":43.31888,"lon":5.4073,"is_reserved":false,"is_disabled":false,"rental_uris":{"android":"levelo://app?vid=4314c959-0960-488f-8a5e-47a2dcd21d56","ios":"levelo://app?vid=4314c959-0960-488f-8a5e-47a2dcd21d56"},"vehicle_type_id":"4","last_reported":1730750966,"current_range_meters":15200,"station_id":"ce4bhq12rcd13ifvqhig","pricing_plan_id":"cebpf4jnsgd1na2vs0mg"},{"bike_id":"5d1708ee-ea56-470e-a759-d68052530c0f","system_id":"levelo_inurba_marseille","lat":43.3063,"lon":5.40091,"is_reserved":false,"is_disabled":false,"rental_uris":{"android":"levelo://app?vid=5d1708ee-ea56-470e-a759-d68052530c0f","ios":"levelo://app?vid=5d1708ee-ea56-470e-a759-d68052530c0f"},"vehicle_type_id":"4","last_reported":1730750966,"current_range_meters":2800,"station_id":"ce4bh112rcd13ifvqda0","pricing_plan_id":"cebpf4jnsgd1na2vs0mg"},{"bike_id":"beeef4e4-0d45-4dfa-9ccc-aedb2ce31115","system_id":"levelo_inurba_marseille","lat":43.32109,"lon":5.36779,"is_reserved":false,"is_disabled":false,"rental_uris":{"android":"levelo://app?vid=beeef4e4-0d45-4dfa-9ccc-aedb2ce31115","ios":"levelo://app?vid=beeef4e4-0d45-4dfa-9ccc-aedb2ce31115"},"vehicle_type_id":"4","last_reported":1730750966,"current_range_meters":28800,"station_id":"ce4bhrh2rcd13ifvqhug","pricing_plan_id":"cebpf4jnsgd1na2vs0mg"},{"bike_id":"23cc3cfb-0b9c-4c08-a9a6-8468a4a173ce","system_id":"levelo_inurba_marseille","lat":43.31177,"lon":5.38714,"is_reserved":false,"is_disabled":false,"rental_uris":{"android":"levelo://app?vid=23cc3cfb-0b9c-4c08-a9a6-8468a4a173ce","ios":"levelo://app?vid=23cc3cfb-0b9c-4c08-a9a6-8468a4a173ce"},"vehicle_type_id":"4","last_reported":1730750966,"current_range_meters":3200,"station_id":"ce4bgv12rcd13ifvqcp0","pricing_plan_id":"cebpf4jnsgd1na2vs0mg"},{"bike_id":"1ea4c3c0-dbf4-4dab-b6f1-22e20d00b9a5","system_id":"levelo_inurba_marseille","lat":43.31168,"lon":5.38703,"is_reserved":false,"is_disabled":false,"rental_uris":{"android":"levelo://app?vid=1ea4c3c0-dbf4-4dab-b6f1-22e20d00b9a5","ios":"levelo://app?vid=1ea4c3c0-dbf4-4dab-b6f1-22e20d00b9a5"},"vehicle_type_id":"4","last_reported":1730750966,"current_range_meters":37600,"station_id":"ce4bgv12rcd13ifvqcp0","pricing_plan_id":"cebpf4jnsgd1na2vs0mg"},{"bike_id":"ff79eb82-e5d1-4036-b08a-6743cabbacce","system_id":"levelo_inurba_marseille","lat":43.32283,"lon":5.38276,"is_reserved":false,"is_disabled":false,"rental_uris":{"android":"levelo://app?vid=ff79eb82-e5d1-4036-b08a-6743cabbacce","ios":"levelo://app?vid=ff79eb82-e5d1-4036-b08a-6743cabbacce"},"vehicle_type_id":"4","last_reported":1730750966,"current_range_meters":14400,"station_id":"ce4bhr12rcd13ifvqhqg","pricing_plan_id":"cebpf4jnsgd1na2vs0mg"},{"bike_id":"176ff4e6-f708-4c06-812b-5b1de7ea63cb","system_id":"levelo_inurba_marseille","lat":43.29254,"lon":5.40907,"is_reserved":false,"is_disabled":false,"rental_uris":{"android":"levelo://app?vid=176ff4e6-f708-4c06-812b-5b1de7ea63cb","ios":"levelo://app?vid=176ff4e6-f708-4c06-812b-5b1de7ea63cb"},"vehicle_type_id":"4","last_reported":1730750966,"current_range_meters":38800,"station_id":"ce4bh192rcd13ifvqdc0","pricing_plan_id":"cebpf4jnsgd1na2vs0mg"},{"bike_id":"71721fe2-35d7-41f2-9225-983e1943836f","system_id":"levelo_inurba_marseille","lat":43.33756,"lon":5.37471,"is_reserved":false,"is_disabled":false,"rental_uris":{"android":"levelo://app?vid=71721fe2-35d7-41f2-9225-983e1943836f","ios":"levelo://app?vid=71721fe2-35d7-41f2-9225-983e1943836f"},"vehicle_type_id":"4","last_reported":1730750966,"current_range_meters":38000,"station_id":"","pricing_plan_id":"cebpf4jnsgd1na2vs0mg"},{"bike_id":"40d3a543-750c-477f-8791-c88e7d8f4442","system_id":"levelo_inurba_marseille","lat":43.28568,"lon":5.39494,"is_reserved":false,"is_disabled":false,"rental_uris":{"android":"levelo://app?vid=40d3a543-750c-477f-8791-c88e7d8f4442","ios":"levelo://app?vid=40d3a543-750c-477f-8791-c88e7d8f4442"},"vehicle_type_id":"4","last_reported":1730750966,"current_range_meters":20400,"station_id":"ce4bh292rcd13ifvqdg0","pricing_plan_id":"cebpf4jnsgd1na2vs0mg"},{"bike_id":"c0374e61-06cf-4331-bd99-04f58657e0ea","system_id":"levelo_inurba_marseille","lat":43.29855,"lon":5.39738,"is_reserved":false,"is_disabled":false,"rental_uris":{"android":"levelo://app?vid=c0374e61-06cf-4331-bd99-04f58657e0ea","ios":"levelo://app?vid=c0374e61-06cf-4331-bd99-04f58657e0ea"},"vehicle_type_id":"4","last_reported":1730750966,"current_range_meters":10000,"station_id":"ce4bh0h2rcd13ifvqd50","pricing_plan_id":"cebpf4jnsgd1na2vs0mg"},{"bike_id":"6a9aa0e7-d750-49b5-a69c-605b8b22c16b","system_id":"levelo_inurba_marseille","lat":43.29523,"lon":5.39054,"is_reserved":false,"is_disabled":false,"rental_uris":{"android":"levelo://app?vid=6a9aa0e7-d750-49b5-a69c-605b8b22c16b","ios":"levelo://app?vid=6a9aa0e7-d750-49b5-a69c-605b8b22c16b"},"vehicle_type_id":"4","last_reported":1730750966,"current_range_meters":8800,"station_id":"ce4bh3p2rcd13ifvqdp0","pricing_plan_id":"cebpf4jnsgd1na2vs0mg"},{"bike_id":"697dd118-268c-406e-bad8-371dfe74ed47","system_id":"levelo_inurba_marseille","lat":43.31763,"lon":5.39008,"is_reserved":false,"is_disabled":false,"rental_uris":{"android":"levelo://app?vid=697dd118-268c-406e-bad8-371dfe74ed47","ios":"levelo://app?vid=697dd118-268c-406e-bad8-371dfe74ed47"},"vehicle_type_id":"4","last_reported":1730750966,"current_range_meters":37600,"station_id":"ce4bhqp2rcd13ifvqhng","pricing_plan_id":"cebpf4jnsgd1na2vs0mg"},{"bike_id":"84d144c2-2bfa-4f81-b807-31926879bd22","system_id":"levelo_inurba_marseille","lat":43.28157,"lon":5.42636,"is_reserved":false,"is_disabled":false,"rental_uris":{"android":"levelo://app?vid=84d144c2-2bfa-4f81-b807-31926879bd22","ios":"levelo://app?vid=84d144c2-2bfa-4f81-b807-31926879bd22"},"vehicle_type_id":"4","last_reported":1730750966,"current_range_meters":21600,"station_id":"ce4bhnh2rcd13ifvqgug","pricing_plan_id":"cebpf4jnsgd1na2vs0mg"},{"bike_id":"f767ae21-70a9-41f5-b210-a44435a86b24","system_id":"levelo_inurba_marseille","lat":43.2988,"lon":5.38901,"is_reserved":false,"is_disabled":false,"rental_uris":{"android":"levelo://app?vid=f767ae21-70a9-41f5-b210-a44435a86b24","ios":"levelo://app?vid=f767ae21-70a9-41f5-b210-a44435a86b24"},"vehicle_type_id":"4","last_reported":1730750966,"current_range_meters":32800,"station_id":"ce4bh392rcd13ifvqdl0","pricing_plan_id":"cebpf4jnsgd1na2vs0mg"},{"bike_id":"85983996-c8a9-49bd-a5f5-5c12a57ec781","system_id":"levelo_inurba_marseille","lat":43.30324,"lon":5.40428,"is_reserved":false,"is_disabled":false,"rental_uris":{"android":"levelo://app?vid=85983996-c8a9-49bd-a5f5-5c12a57ec781","ios":"levelo://app?vid=85983996-c8a9-49bd-a5f5-5c12a57ec781"},"vehicle_type_id":"4","last_reported":1730750966,"current_range_meters":38000,"station_id":"ce4bh012rcd13ifvqd10","pricing_plan_id":"cebpf4jnsgd1na2vs0mg"},{"bike_id":"35db7418-caea-44fa-9677-10c75926c990","system_id":"levelo_inurba_marseille","lat":43.27819,"lon":5.4072,"is_reserved":false,"is_disabled":false,"rental_uris":{"android":"levelo://app?vid=35db7418-caea-44fa-9677-10c75926c990","ios":"levelo://app?vid=35db7418-caea-44fa-9677-10c75926c990"},"vehicle_type_id":"4","last_reported":1730750966,"current_range_meters":16000,"station_id":"ce4bhnh2rcd13ifvqgtg","pricing_plan_id":"cebpf4jnsgd1na2vs0mg"},{"bike_id":"01f66810-1655-408b-9d69-c62fab5a7cc8","system_id":"levelo_inurba_marseille","lat":43.29789,"lon":5.39334,"is_reserved":false,"is_disabled":false,"rental_uris":{"android":"levelo://app?vid=01f66810-1655-408b-9d69-c62fab5a7cc8","ios":"levelo://app?vid=01f66810-1655-408b-9d69-c62fab5a7cc8"},"vehicle_type_id":"4","last_reported":1730750966,"current_range_meters":18800,"station_id":"chh1huq6cuj3fo74tm60","pricing_plan_id":"cebpf4jnsgd1na2vs0mg"},{"bike_id":"7013e265-162b-4498-88f5-8860b01e70bf","system_id":"levelo_inurba_marseille","lat":43.29418,"lon":5.38627,"is_reserved":false,"is_disabled":false,"rental_uris":{"android":"levelo://app?vid=7013e265-162b-4498-88f5-8860b01e70bf","ios":"levelo://app?vid=7013e265-162b-4498-88f5-8860b01e70bf"},"vehicle_type_id":"4","last_reported":1730750966,"current_range_meters":36000,"station_id":"ce4bh2h2rcd13ifvqdh0","pricing_plan_id":"cebpf4jnsgd1na2vs0mg"},{"bike_id":"dc11fb10-7966-4c34-a425-c94a472bc4a8","system_id":"levelo_inurba_marseille","lat":43.28001,"lon":5.40018,"is_reserved":false,"is_disabled":false,"rental_uris":{"android":"levelo://app?vid=dc11fb10-7966-4c34-a425-c94a472bc4a8","ios":"levelo://app?vid=dc11fb10-7966-4c34-a425-c94a472bc4a8"},"vehicle_type_id":"4","last_reported":1730750966,"current_range_meters":32800,"station_id":"ce4bho92rcd13ifvqh4g","pricing_plan_id":"cebpf4jnsgd1na2vs0mg"},{"bike_id":"ba04515b-2530-4f99-bfe4-78243134c10b","system_id":"levelo_inurba_marseille","lat":43.280579,"lon":5.409851,"is_reserved":false,"is_disabled":false,"rental_uris":{"android":"levelo://app?vid=ba04515b-2530-4f99-bfe4-78243134c10b","ios":"levelo://app?vid=ba04515b-2530-4f99-bfe4-78243134c10b"},"vehicle_type_id":"4","last_reported":1730750966,"current_range_meters":35600,"station_id":"","pricing_plan_id":"cebpf4jnsgd1na2vs0mg"},{"bike_id":"5bfadea6-7d89-4a6d-bc5b-ce4b0131d5c6","system_id":"levelo_inurba_marseille","lat":43.28576,"lon":5.39494,"is_reserved":false,"is_disabled":false,"rental_uris":{"android":"levelo://app?vid=5bfadea6-7d89-4a6d-bc5b-ce4b0131d5c6","ios":"levelo://app?vid=5bfadea6-7d89-4a6d-bc5b-ce4b0131d5c6"},"vehicle_type_id":"4","last_reported":1730750966,"current_range_meters":26000,"station_id":"ce4bh292rcd13ifvqdg0","pricing_plan_id":"cebpf4jnsgd1na2vs0mg"},{"bike_id":"de93a5ad-f4b7-43a9-a384-d70f5a94dc07","system_id":"levelo_inurba_marseille","lat":43.29528,"lon":5.39398,"is_reserved":false,"is_disabled":false,"rental_uris":{"android":"levelo://app?vid=de93a5ad-f4b7-43a9-a384-d70f5a94dc07","ios":"levelo://app?vid=de93a5ad-f4b7-43a9-a384-d70f5a94dc07"},"vehicle_type_id":"4","last_reported":1730750966,"current_range_meters":29600,"station_id":"ce4bh292rcd13ifvqdf0","pricing_plan_id":"cebpf4jnsgd1na2vs0mg"},{"bike_id":"cfc27677-d4a6-43cf-a638-8a448341433b","system_id":"levelo_inurba_marseille","lat":43.295733,"lon":5.399846,"is_reserved":false,"is_disabled":false,"rental_uris":{"android":"levelo://app?vid=cfc27677-d4a6-43cf-a638-8a448341433b","ios":"levelo://app?vid=cfc27677-d4a6-43cf-a638-8a448341433b"},"vehicle_type_id":"4","last_reported":1730750966,"current_range_meters":20400,"station_id":"ce4bh312rcd13ifvqdj0","pricing_plan_id":"cebpf4jnsgd1na2vs0mg"},{"bike_id":"819340a6-562b-46a4-9301-df7b52968f6c","system_id":"levelo_inurba_marseille","lat":43.25121,"lon":5.40322,"is_reserved":false,"is_disabled":false,"rental_uris":{"android":"levelo://app?vid=819340a6-562b-46a4-9301-df7b52968f6c","ios":"levelo://app?vid=819340a6-562b-46a4-9301-df7b52968f6c"},"vehicle_type_id":"4","last_reported":1730750966,"current_range_meters":9200,"station_id":"ce4bhlh2rcd13ifvqgig","pricing_plan_id":"cebpf4jnsgd1na2vs0mg"},{"bike_id":"660f9ab5-0ee6-45bd-9ba0-20f4579b8e99","system_id":"levelo_inurba_marseille","lat":43.33599,"lon":5.41004,"is_reserved":false,"is_disabled":false,"rental_uris":{"android":"levelo://app?vid=660f9ab5-0ee6-45bd-9ba0-20f4579b8e99","ios":"levelo://app?vid=660f9ab5-0ee6-45bd-9ba0-20f4579b8e99"},"vehicle_type_id":"4","last_reported":1730750966,"current_range_meters":34800,"station_id":"ce4bhqh2rcd13ifvqhmg","pricing_plan_id":"cebpf4jnsgd1na2vs0mg"},{"bike_id":"43d6e804-beaa-4da6-8024-292405ca1412","system_id":"levelo_inurba_marseille","lat":43.24803,"lon":5.37452,"is_reserved":false,"is_disabled":false,"rental_uris":{"android":"levelo://app?vid=43d6e804-beaa-4da6-8024-292405ca1412","ios":"levelo://app?vid=43d6e804-beaa-4da6-8024-292405ca1412"},"vehicle_type_id":"4","last_reported":1730750966,"current_range_meters":22000,"station_id":"ce4bhgh2rcd13ifvqfb0","pricing_plan_id":"cebpf4jnsgd1na2vs0mg"},{"bike_id":"e692e67e-9843-43fc-9906-1b2dbc22b648","system_id":"levelo_inurba_marseille","lat":43.2558,"lon":5.38234,"is_reserved":false,"is_disabled":false,"rental_uris":{"android":"levelo://app?vid=e692e67e-9843-43fc-9906-1b2dbc22b648","ios":"levelo://app?vid=e692e67e-9843-43fc-9906-1b2dbc22b648"},"vehicle_type_id":"4","last_reported":1730750966,"current_range_meters":30400,"station_id":"ce4bhih2rcd13ifvqfs0","pricing_plan_id":"cebpf4jnsgd1na2vs0mg"},{"bike_id":"5ccdef9b-846e-4e58-bb40-a676280a0170","system_id":"levelo_inurba_marseille","lat":43.24654,"lon":5.38892,"is_reserved":false,"is_disabled":false,"rental_uris":{"android":"levelo://app?vid=5ccdef9b-846e-4e58-bb40-a676280a0170","ios":"levelo://app?vid=5ccdef9b-846e-4e58-bb40-a676280a0170"},"vehicle_type_id":"4","last_reported":1730750966,"current_range_meters":38800,"station_id":"ce4bhg12rcd13ifvqf60","pricing_plan_id":"cebpf4jnsgd1na2vs0mg"},{"bike_id":"d844a569-2803-4908-ac9c-866a60aea8c4","system_id":"levelo_inurba_marseille","lat":43.2987,"lon":5.39727,"is_reserved":false,"is_disabled":false,"rental_uris":{"android":"levelo://app?vid=d844a569-2803-4908-ac9c-866a60aea8c4","ios":"levelo://app?vid=d844a569-2803-4908-ac9c-866a60aea8c4"},"vehicle_type_id":"4","last_reported":1730750966,"current_range_meters":38800,"station_id":"ce4bh0h2rcd13ifvqd50","pricing_plan_id":"cebpf4jnsgd1na2vs0mg"},{"bike_id":"32226b21-dbcc-474c-9004-398b3fdc8208","system_id":"levelo_inurba_marseille","lat":43.28452,"lon":5.35882,"is_reserved":false,"is_disabled":false,"rental_uris":{"android":"levelo://app?vid=32226b21-dbcc-474c-9004-398b3fdc8208","ios":"levelo://app?vid=32226b21-dbcc-474c-9004-398b3fdc8208"},"vehicle_type_id":"4","last_reported":1730750966,"current_range_meters":32000,"station_id":"ce4bhah2rcd13ifvqei0","pricing_plan_id":"cebpf4jnsgd1na2vs0mg"},{"bike_id":"41e0f506-093b-4fd4-aa64-948fe05224df","system_id":"levelo_inurba_marseille","lat":43.31123,"lon":5.37754,"is_reserved":false,"is_disabled":false,"rental_uris":{"android":"levelo://app?vid=41e0f506-093b-4fd4-aa64-948fe05224df","ios":"levelo://app?vid=41e0f506-093b-4fd4-aa64-948fe05224df"},"vehicle_type_id":"4","last_reported":1730750966,"current_range_meters":27600,"station_id":"ce4bgt92rcd13ifvqcg0","pricing_plan_id":"cebpf4jnsgd1na2vs0mg"},{"bike_id":"f4fa9d62-276a-49e8-9b94-c4b301a33eee","system_id":"levelo_inurba_marseille","lat":43.29523,"lon":5.39043,"is_reserved":false,"is_disabled":false,"rental_uris":{"android":"levelo://app?vid=f4fa9d62-276a-49e8-9b94-c4b301a33eee","ios":"levelo://app?vid=f4fa9d62-276a-49e8-9b94-c4b301a33eee"},"vehicle_type_id":"4","last_reported":1730750966,"current_range_meters":17200,"station_id":"ce4bh3p2rcd13ifvqdp0","pricing_plan_id":"cebpf4jnsgd1na2vs0mg"},{"bike_id":"cb3e0f7a-2749-41ab-b789-484e25d26bc7","system_id":"levelo_inurba_marseille","lat":43.29802,"lon":5.37107,"is_reserved":false,"is_disabled":false,"rental_uris":{"android":"levelo://app?vid=cb3e0f7a-2749-41ab-b789-484e25d26bc7","ios":"levelo://app?vid=cb3e0f7a-2749-41ab-b789-484e25d26bc7"},"vehicle_type_id":"4","last_reported":1730750966,"current_range_meters":17600,"station_id":"ce4bgop2rcd13ifvqc1g","pricing_plan_id":"cebpf4jnsgd1na2vs0mg"},{"bike_id":"823967de-5ba0-4689-8bf8-641b466fd8b1","system_id":"levelo_inurba_marseille","lat":43.23201,"lon":5.35558,"is_reserved":false,"is_disabled":false,"rental_uris":{"android":"levelo://app?vid=823967de-5ba0-4689-8bf8-641b466fd8b1","ios":"levelo://app?vid=823967de-5ba0-4689-8bf8-641b466fd8b1"},"vehicle_type_id":"4","last_reported":1730750966,"current_range_meters":40000,"station_id":"ce4bhu92rcd13ifvqi70","pricing_plan_id":"cebpf4jnsgd1na2vs0mg"},{"bike_id":"4bc64790-c609-4c70-b002-0790c5df4a72","system_id":"levelo_inurba_marseille","lat":43.29855,"lon":5.36291,"is_reserved":false,"is_disabled":false,"rental_uris":{"android":"levelo://app?vid=4bc64790-c609-4c70-b002-0790c5df4a72","ios":"levelo://app?vid=4bc64790-c609-4c70-b002-0790c5df4a72"},"vehicle_type_id":"4","last_reported":1730750966,"current_range_meters":38400,"station_id":"ce4bgpp2rcd13ifvqc3g","pricing_plan_id":"cebpf4jnsgd1na2vs0mg"},{"bike_id":"8ddfd048-3e0a-421a-8ed3-cac6c4bbdd63","system_id":"levelo_inurba_marseille","lat":43.31115,"lon":5.37762,"is_reserved":false,"is_disabled":false,"rental_uris":{"android":"levelo://app?vid=8ddfd048-3e0a-421a-8ed3-cac6c4bbdd63","ios":"levelo://app?vid=8ddfd048-3e0a-421a-8ed3-cac6c4bbdd63"},"vehicle_type_id":"4","last_reported":1730750966,"current_range_meters":35200,"station_id":"ce4bgt92rcd13ifvqcg0","pricing_plan_id":"cebpf4jnsgd1na2vs0mg"},{"bike_id":"484e26c0-df19-4702-80bc-1033455ece33","system_id":"levelo_inurba_marseille","lat":43.26675,"lon":5.38264,"is_reserved":false,"is_disabled":false,"rental_uris":{"android":"levelo://app?vid=484e26c0-df19-4702-80bc-1033455ece33","ios":"levelo://app?vid=484e26c0-df19-4702-80bc-1033455ece33"},"vehicle_type_id":"4","last_reported":1730750966,"current_range_meters":8400,"station_id":"ce4bhg92rcd13ifvqf90","pricing_plan_id":"cebpf4jnsgd1na2vs0mg"},{"bike_id":"371ed9b9-117f-4304-a294-be3251d3642c","system_id":"levelo_inurba_marseille","lat":43.31759,"lon":5.39019,"is_reserved":false,"is_disabled":false,"rental_uris":{"android":"levelo://app?vid=371ed9b9-117f-4304-a294-be3251d3642c","ios":"levelo://app?vid=371ed9b9-117f-4304-a294-be3251d3642c"},"vehicle_type_id":"4","last_reported":1730750966,"current_range_meters":29600,"station_id":"ce4bhqp2rcd13ifvqhng","pricing_plan_id":"cebpf4jnsgd1na2vs0mg"},{"bike_id":"dbcbbd02-a6cd-4967-9038-e3b355b4447b","system_id":"levelo_inurba_marseille","lat":43.29421,"lon":5.38625,"is_reserved":false,"is_disabled":false,"rental_uris":{"android":"levelo://app?vid=dbcbbd02-a6cd-4967-9038-e3b355b4447b","ios":"levelo://app?vid=dbcbbd02-a6cd-4967-9038-e3b355b4447b"},"vehicle_type_id":"4","last_reported":1730750966,"current_range_meters":26000,"station_id":"ce4bh2h2rcd13ifvqdh0","pricing_plan_id":"cebpf4jnsgd1na2vs0mg"},{"bike_id":"b97d231f-b06d-444f-93ba-90193ccee906","system_id":"levelo_inurba_marseille","lat":43.25084,"lon":5.39513,"is_reserved":false,"is_disabled":false,"rental_uris":{"android":"levelo://app?vid=b97d231f-b06d-444f-93ba-90193ccee906","ios":"levelo://app?vid=b97d231f-b06d-444f-93ba-90193ccee906"},"vehicle_type_id":"4","last_reported":1730750966,"current_range_meters":37600,"station_id":"ce4bhm12rcd13ifvqgkg","pricing_plan_id":"cebpf4jnsgd1na2vs0mg"},{"bike_id":"ed3cc475-9352-4500-9e2a-f8144dc4b6f1","system_id":"levelo_inurba_marseille","lat":43.33018,"lon":5.39047,"is_reserved":false,"is_disabled":false,"rental_uris":{"android":"levelo://app?vid=ed3cc475-9352-4500-9e2a-f8144dc4b6f1","ios":"levelo://app?vid=ed3cc475-9352-4500-9e2a-f8144dc4b6f1"},"vehicle_type_id":"4","last_reported":1730750966,"current_range_meters":40000,"station_id":"ce4bhr92rcd13ifvqhrg","pricing_plan_id":"cebpf4jnsgd1na2vs0mg"},{"bike_id":"70564515-7b78-4a47-885c-ce95b9b32f7b","system_id":"levelo_inurba_marseille","lat":43.2307,"lon":5.35491,"is_reserved":false,"is_disabled":false,"rental_uris":{"android":"levelo://app?vid=70564515-7b78-4a47-885c-ce95b9b32f7b","ios":"levelo://app?vid=70564515-7b78-4a47-885c-ce95b9b32f7b"},"vehicle_type_id":"4","last_reported":1730750966,"current_range_meters":34800,"station_id":"cpo3342slgdg3j2ifvpg","pricing_plan_id":"cebpf4jnsgd1na2vs0mg"},{"bike_id":"8a0c325f-e634-413a-83b4-b9280d66307d","system_id":"levelo_inurba_marseille","lat":43.30258,"lon":5.40067,"is_reserved":false,"is_disabled":false,"rental_uris":{"android":"levelo://app?vid=8a0c325f-e634-413a-83b4-b9280d66307d","ios":"levelo://app?vid=8a0c325f-e634-413a-83b4-b9280d66307d"},"vehicle_type_id":"4","last_reported":1730750966,"current_range_meters":28400,"station_id":"ce4bgvh2rcd13ifvqcs0","pricing_plan_id":"cebpf4jnsgd1na2vs0mg"},{"bike_id":"9d12c901-439c-447c-8936-e1757dcd7a81","system_id":"levelo_inurba_marseille","lat":43.30586,"lon":5.39358,"is_reserved":false,"is_disabled":false,"rental_uris":{"android":"levelo://app?vid=9d12c901-439c-447c-8936-e1757dcd7a81","ios":"levelo://app?vid=9d12c901-439c-447c-8936-e1757dcd7a81"},"vehicle_type_id":"4","last_reported":1730750966,"current_range_meters":5600,"station_id":"ce4bh0p2rcd13ifvqd80","pricing_plan_id":"cebpf4jnsgd1na2vs0mg"},{"bike_id":"1c55a4f2-6ebe-43bd-9c45-f82841ee873e","system_id":"levelo_inurba_marseille","lat":43.290319,"lon":5.386243,"is_reserved":false,"is_disabled":false,"rental_uris":{"android":"levelo://app?vid=1c55a4f2-6ebe-43bd-9c45-f82841ee873e","ios":"levelo://app?vid=1c55a4f2-6ebe-43bd-9c45-f82841ee873e"},"vehicle_type_id":"4","last_reported":1730750966,"current_range_meters":38800,"station_id":"ce4bh4p2rcd13ifvqe0g","pricing_plan_id":"cebpf4jnsgd1na2vs0mg"},{"bike_id":"7a58136c-3165-4313-8fac-2c364b399752","system_id":"levelo_inurba_marseille","lat":43.33729,"lon":5.39185,"is_reserved":false,"is_disabled":false,"rental_uris":{"android":"levelo://app?vid=7a58136c-3165-4313-8fac-2c364b399752","ios":"levelo://app?vid=7a58136c-3165-4313-8fac-2c364b399752"},"vehicle_type_id":"4","last_reported":1730750966,"current_range_meters":27200,"station_id":"ce4bhr92rcd13ifvqhsg","pricing_plan_id":"cebpf4jnsgd1na2vs0mg"},{"bike_id":"2205bd4b-202f-4149-b7c7-6bfedff4840e","system_id":"levelo_inurba_marseille","lat":43.29708,"lon":5.36616,"is_reserved":false,"is_disabled":false,"rental_uris":{"android":"levelo://app?vid=2205bd4b-202f-4149-b7c7-6bfedff4840e","ios":"levelo://app?vid=2205bd4b-202f-4149-b7c7-6bfedff4840e"},"vehicle_type_id":"4","last_reported":1730750966,"current_range_meters":38400,"station_id":"ce4bgn12rcd13ifvqbt0","pricing_plan_id":"cebpf4jnsgd1na2vs0mg"},{"bike_id":"777d3623-ec04-4224-a967-8b9f9fe6e4a5","system_id":"levelo_inurba_marseille","lat":43.29552,"lon":5.42283,"is_reserved":false,"is_disabled":false,"rental_uris":{"android":"levelo://app?vid=777d3623-ec04-4224-a967-8b9f9fe6e4a5","ios":"levelo://app?vid=777d3623-ec04-4224-a967-8b9f9fe6e4a5"},"vehicle_type_id":"4","last_reported":1730750966,"current_range_meters":9200,"station_id":"ce4bhph2rcd13ifvqhdg","pricing_plan_id":"cebpf4jnsgd1na2vs0mg"},{"bike_id":"ad8c4724-209a-4e48-8a10-9bd37feb7d2c","system_id":"levelo_inurba_marseille","lat":43.31178,"lon":5.38708,"is_reserved":false,"is_disabled":false,"rental_uris":{"android":"levelo://app?vid=ad8c4724-209a-4e48-8a10-9bd37feb7d2c","ios":"levelo://app?vid=ad8c4724-209a-4e48-8a10-9bd37feb7d2c"},"vehicle_type_id":"4","last_reported":1730750966,"current_range_meters":33600,"station_id":"ce4bgv12rcd13ifvqcp0","pricing_plan_id":"cebpf4jnsgd1na2vs0mg"},{"bike_id":"ed530089-d1d8-4329-aa29-3f5ae3b388ab","system_id":"levelo_inurba_marseille","lat":43.30895,"lon":5.37194,"is_reserved":false,"is_disabled":false,"rental_uris":{"android":"levelo://app?vid=ed530089-d1d8-4329-aa29-3f5ae3b388ab","ios":"levelo://app?vid=ed530089-d1d8-4329-aa29-3f5ae3b388ab"},"vehicle_type_id":"4","last_reported":1730750966,"current_range_meters":38800,"station_id":"ce4bguh2rcd13ifvqckg","pricing_plan_id":"cebpf4jnsgd1na2vs0mg"},{"bike_id":"d53b57e5-6868-433d-b990-24fcbe41bcf1","system_id":"levelo_inurba_marseille","lat":43.27568,"lon":5.3842,"is_reserved":false,"is_disabled":false,"rental_uris":{"android":"levelo://app?vid=d53b57e5-6868-433d-b990-24fcbe41bcf1","ios":"levelo://app?vid=d53b57e5-6868-433d-b990-24fcbe41bcf1"},"vehicle_type_id":"4","last_reported":1730750966,"current_range_meters":20800,"station_id":"ce4bhh92rcd13ifvqfi0","pricing_plan_id":"cebpf4jnsgd1na2vs0mg"},{"bike_id":"9de46212-f0ef-4a49-8dde-f425459dc141","system_id":"levelo_inurba_marseille","lat":43.30142,"lon":5.38784,"is_reserved":false,"is_disabled":false,"rental_uris":{"android":"levelo://app?vid=9de46212-f0ef-4a49-8dde-f425459dc141","ios":"levelo://app?vid=9de46212-f0ef-4a49-8dde-f425459dc141"},"vehicle_type_id":"4","last_reported":1730750966,"current_range_meters":37600,"station_id":"ce4bghh2rcd13ifvqb60","pricing_plan_id":"cebpf4jnsgd1na2vs0mg"},{"bike_id":"a8758df9-3f5a-492e-a2ad-bc762183546e","system_id":"levelo_inurba_marseille","lat":43.28418,"lon":5.37502,"is_reserved":false,"is_disabled":false,"rental_uris":{"android":"levelo://app?vid=a8758df9-3f5a-492e-a2ad-bc762183546e","ios":"levelo://app?vid=a8758df9-3f5a-492e-a2ad-bc762183546e"},"vehicle_type_id":"4","last_reported":1730750966,"current_range_meters":10000,"station_id":"ce4bh412rcd13ifvqds0","pricing_plan_id":"cebpf4jnsgd1na2vs0mg"},{"bike_id":"e2899662-72c3-41b8-8d7d-36f52aadd58c","system_id":"levelo_inurba_marseille","lat":43.2316,"lon":5.43706,"is_reserved":false,"is_disabled":false,"rental_uris":{"android":"levelo://app?vid=e2899662-72c3-41b8-8d7d-36f52aadd58c","ios":"levelo://app?vid=e2899662-72c3-41b8-8d7d-36f52aadd58c"},"vehicle_type_id":"4","last_reported":1730750966,"current_range_meters":38400,"station_id":"ce4bhmp2rcd13ifvqgog","pricing_plan_id":"cebpf4jnsgd1na2vs0mg"},{"bike_id":"11631e5a-25f5-4552-899d-dc0c452dab65","system_id":"levelo_inurba_marseille","lat":43.32366,"lon":5.38889,"is_reserved":false,"is_disabled":false,"rental_uris":{"android":"levelo://app?vid=11631e5a-25f5-4552-899d-dc0c452dab65","ios":"levelo://app?vid=11631e5a-25f5-4552-899d-dc0c452dab65"},"vehicle_type_id":"4","last_reported":1730750966,"current_range_meters":38000,"station_id":"ce4bhqp2rcd13ifvqhog","pricing_plan_id":"cebpf4jnsgd1na2vs0mg"},{"bike_id":"eab47ed5-f83a-4939-80d1-ff052743bdd1","system_id":"levelo_inurba_marseille","lat":43.32111,"lon":5.36779,"is_reserved":false,"is_disabled":false,"rental_uris":{"android":"levelo://app?vid=eab47ed5-f83a-4939-80d1-ff052743bdd1","ios":"levelo://app?vid=eab47ed5-f83a-4939-80d1-ff052743bdd1"},"vehicle_type_id":"4","last_reported":1730750966,"current_range_meters":35200,"station_id":"ce4bhrh2rcd13ifvqhug","pricing_plan_id":"cebpf4jnsgd1na2vs0mg"},{"bike_id":"447ee1df-dbc3-4675-bef3-9e2af97da320","system_id":"levelo_inurba_marseille","lat":43.32479,"lon":5.36569,"is_reserved":false,"is_disabled":false,"rental_uris":{"android":"levelo://app?vid=447ee1df-dbc3-4675-bef3-9e2af97da320","ios":"levelo://app?vid=447ee1df-dbc3-4675-bef3-9e2af97da320"},"vehicle_type_id":"4","last_reported":1730750966,"current_range_meters":35200,"station_id":"ce4bhs12rcd13ifvqhvg","pricing_plan_id":"cebpf4jnsgd1na2vs0mg"},{"bike_id":"a0be6000-a8f5-4b39-a1ab-df18f1dd4304","system_id":"levelo_inurba_marseille","lat":43.28354,"lon":5.38109,"is_reserved":false,"is_disabled":false,"rental_uris":{"android":"levelo://app?vid=a0be6000-a8f5-4b39-a1ab-df18f1dd4304","ios":"levelo://app?vid=a0be6000-a8f5-4b39-a1ab-df18f1dd4304"},"vehicle_type_id":"4","last_reported":1730750966,"current_range_meters":7200,"station_id":"ce4bh412rcd13ifvqdr0","pricing_plan_id":"cebpf4jnsgd1na2vs0mg"},{"bike_id":"38499cf1-8e3b-4b0d-8759-c79248299be5","system_id":"levelo_inurba_marseille","lat":43.24387,"lon":5.37066,"is_reserved":false,"is_disabled":false,"rental_uris":{"android":"levelo://app?vid=38499cf1-8e3b-4b0d-8759-c79248299be5","ios":"levelo://app?vid=38499cf1-8e3b-4b0d-8759-c79248299be5"},"vehicle_type_id":"4","last_reported":1730750966,"current_range_meters":14800,"station_id":"ce4bhhh2rcd13ifvqfk0","pricing_plan_id":"cebpf4jnsgd1na2vs0mg"},{"bike_id":"34bc5c95-a993-4cae-b69a-425d5fd0ac9b","system_id":"levelo_inurba_marseille","lat":43.3042,"lon":5.39745,"is_reserved":false,"is_disabled":false,"rental_uris":{"android":"levelo://app?vid=34bc5c95-a993-4cae-b69a-425d5fd0ac9b","ios":"levelo://app?vid=34bc5c95-a993-4cae-b69a-425d5fd0ac9b"},"vehicle_type_id":"4","last_reported":1730750966,"current_range_meters":38800,"station_id":"ce4bh092rcd13ifvqd20","pricing_plan_id":"cebpf4jnsgd1na2vs0mg"},{"bike_id":"5b041e65-a357-4f5f-8060-dee3ef26553f","system_id":"levelo_inurba_marseille","lat":43.26211,"lon":5.37925,"is_reserved":false,"is_disabled":false,"rental_uris":{"android":"levelo://app?vid=5b041e65-a357-4f5f-8060-dee3ef26553f","ios":"levelo://app?vid=5b041e65-a357-4f5f-8060-dee3ef26553f"},"vehicle_type_id":"4","last_reported":1730750966,"current_range_meters":28400,"station_id":"ce4bhjp2rcd13ifvqg90","pricing_plan_id":"cebpf4jnsgd1na2vs0mg"},{"bike_id":"09c61ecd-295a-4e3a-8c34-23f3d17be494","system_id":"levelo_inurba_marseille","lat":43.26059,"lon":5.39401,"is_reserved":false,"is_disabled":false,"rental_uris":{"android":"levelo://app?vid=09c61ecd-295a-4e3a-8c34-23f3d17be494","ios":"levelo://app?vid=09c61ecd-295a-4e3a-8c34-23f3d17be494"},"vehicle_type_id":"4","last_reported":1730750966,"current_range_meters":4800,"station_id":"ce4bhh92rcd13ifvqfj0","pricing_plan_id":"cebpf4jnsgd1na2vs0mg"},{"bike_id":"d7a411fb-32c0-4524-bcdb-bc40bfeaca08","system_id":"levelo_inurba_marseille","lat":43.26943,"lon":5.40246,"is_reserved":false,"is_disabled":false,"rental_uris":{"android":"levelo://app?vid=d7a411fb-32c0-4524-bcdb-bc40bfeaca08","ios":"levelo://app?vid=d7a411fb-32c0-4524-bcdb-bc40bfeaca08"},"vehicle_type_id":"4","last_reported":1730750966,"current_range_meters":39200,"station_id":"cjm6bp8fraef2m0cb0m0","pricing_plan_id":"cebpf4jnsgd1na2vs0mg"},{"bike_id":"eeb6fa2a-003b-4e78-b5b2-99abb33a724d","system_id":"levelo_inurba_marseille","lat":43.29577,"lon":5.39976,"is_reserved":false,"is_disabled":false,"rental_uris":{"android":"levelo://app?vid=eeb6fa2a-003b-4e78-b5b2-99abb33a724d","ios":"levelo://app?vid=eeb6fa2a-003b-4e78-b5b2-99abb33a724d"},"vehicle_type_id":"4","last_reported":1730750966,"current_range_meters":38800,"station_id":"ce4bh312rcd13ifvqdj0","pricing_plan_id":"cebpf4jnsgd1na2vs0mg"},{"bike_id":"ce8e5906-0d4f-4085-a6e2-c7f244080cc6","system_id":"levelo_inurba_marseille","lat":43.32293,"lon":5.3827,"is_reserved":false,"is_disabled":false,"rental_uris":{"android":"levelo://app?vid=ce8e5906-0d4f-4085-a6e2-c7f244080cc6","ios":"levelo://app?vid=ce8e5906-0d4f-4085-a6e2-c7f244080cc6"},"vehicle_type_id":"4","last_reported":1730750966,"current_range_meters":39200,"station_id":"ce4bhr12rcd13ifvqhqg","pricing_plan_id":"cebpf4jnsgd1na2vs0mg"},{"bike_id":"6c6f793a-b4ae-48da-ab03-1e7093a0eced","system_id":"levelo_inurba_marseille","lat":43.2857,"lon":5.39494,"is_reserved":false,"is_disabled":false,"rental_uris":{"android":"levelo://app?vid=6c6f793a-b4ae-48da-ab03-1e7093a0eced","ios":"levelo://app?vid=6c6f793a-b4ae-48da-ab03-1e7093a0eced"},"vehicle_type_id":"4","last_reported":1730750966,"current_range_meters":39200,"station_id":"ce4bh292rcd13ifvqdg0","pricing_plan_id":"cebpf4jnsgd1na2vs0mg"},{"bike_id":"34afd728-8e1f-4ebf-9794-25343087a984","system_id":"levelo_inurba_marseille","lat":43.31539,"lon":5.38017,"is_reserved":false,"is_disabled":false,"rental_uris":{"android":"levelo://app?vid=34afd728-8e1f-4ebf-9794-25343087a984","ios":"levelo://app?vid=34afd728-8e1f-4ebf-9794-25343087a984"},"vehicle_type_id":"4","last_reported":1730750966,"current_range_meters":19600,"station_id":"ce4bhsp2rcd13ifvqi50","pricing_plan_id":"cebpf4jnsgd1na2vs0mg"},{"bike_id":"061af2b2-d26c-4fd5-bc63-3604d8d8b438","system_id":"levelo_inurba_marseille","lat":43.26802,"lon":5.40266,"is_reserved":false,"is_disabled":false,"rental_uris":{"android":"levelo://app?vid=061af2b2-d26c-4fd5-bc63-3604d8d8b438","ios":"levelo://app?vid=061af2b2-d26c-4fd5-bc63-3604d8d8b438"},"vehicle_type_id":"4","last_reported":1730750966,"current_range_meters":25200,"station_id":"ce501612rcd8frsf0b60","pricing_plan_id":"cebpf4jnsgd1na2vs0mg"},{"bike_id":"17b21d05-68c9-4983-a221-7a75089ec945","system_id":"levelo_inurba_marseille","lat":43.27809,"lon":5.40706,"is_reserved":false,"is_disabled":false,"rental_uris":{"android":"levelo://app?vid=17b21d05-68c9-4983-a221-7a75089ec945","ios":"levelo://app?vid=17b21d05-68c9-4983-a221-7a75089ec945"},"vehicle_type_id":"4","last_reported":1730750966,"current_range_meters":38000,"station_id":"ce4bhnh2rcd13ifvqgtg","pricing_plan_id":"cebpf4jnsgd1na2vs0mg"},{"bike_id":"e9e66975-cafe-4658-a4c5-ff1a1ec866aa","system_id":"levelo_inurba_marseille","lat":43.27832,"lon":5.39203,"is_reserved":false,"is_disabled":false,"rental_uris":{"android":"levelo://app?vid=e9e66975-cafe-4658-a4c5-ff1a1ec866aa","ios":"levelo://app?vid=e9e66975-cafe-4658-a4c5-ff1a1ec866aa"},"vehicle_type_id":"4","last_reported":1730750966,"current_range_meters":6800,"station_id":"ce4bhjp2rcd13ifvqga0","pricing_plan_id":"cebpf4jnsgd1na2vs0mg"},{"bike_id":"260fa75a-01a4-4465-ba93-2899bc76795b","system_id":"levelo_inurba_marseille","lat":43.27068,"lon":5.42277,"is_reserved":false,"is_disabled":false,"rental_uris":{"android":"levelo://app?vid=260fa75a-01a4-4465-ba93-2899bc76795b","ios":"levelo://app?vid=260fa75a-01a4-4465-ba93-2899bc76795b"},"vehicle_type_id":"4","last_reported":1730750966,"current_range_meters":20800,"station_id":"ce4bhk92rcd13ifvqgb0","pricing_plan_id":"cebpf4jnsgd1na2vs0mg"},{"bike_id":"5a4bb8d7-137d-4fba-8af3-0c73b4b40062","system_id":"levelo_inurba_marseille","lat":43.29356,"lon":5.37854,"is_reserved":false,"is_disabled":false,"rental_uris":{"android":"levelo://app?vid=5a4bb8d7-137d-4fba-8af3-0c73b4b40062","ios":"levelo://app?vid=5a4bb8d7-137d-4fba-8af3-0c73b4b40062"},"vehicle_type_id":"4","last_reported":1730750966,"current_range_meters":22000,"station_id":"ce4bgjh2rcd13ifvqbf0","pricing_plan_id":"cebpf4jnsgd1na2vs0mg"},{"bike_id":"95266fe5-bc92-42c6-9291-c065a95f564c","system_id":"levelo_inurba_marseille","lat":43.29308,"lon":5.37189,"is_reserved":false,"is_disabled":false,"rental_uris":{"android":"levelo://app?vid=95266fe5-bc92-42c6-9291-c065a95f564c","ios":"levelo://app?vid=95266fe5-bc92-42c6-9291-c065a95f564c"},"vehicle_type_id":"4","last_reported":1730750966,"current_range_meters":38800,"station_id":"ce4bgh92rcd13ifvqb40","pricing_plan_id":"cebpf4jnsgd1na2vs0mg"},{"bike_id":"69d728d9-309b-4a8b-a56b-95b3944c9f36","system_id":"levelo_inurba_marseille","lat":43.31168,"lon":5.38704,"is_reserved":false,"is_disabled":false,"rental_uris":{"android":"levelo://app?vid=69d728d9-309b-4a8b-a56b-95b3944c9f36","ios":"levelo://app?vid=69d728d9-309b-4a8b-a56b-95b3944c9f36"},"vehicle_type_id":"4","last_reported":1730750966,"current_range_meters":11200,"station_id":"ce4bgv12rcd13ifvqcp0","pricing_plan_id":"cebpf4jnsgd1na2vs0mg"},{"bike_id":"3b3d4d61-3b31-4a29-96a1-1451b29f8d4d","system_id":"levelo_inurba_marseille","lat":43.25705,"lon":5.41079,"is_reserved":false,"is_disabled":false,"rental_uris":{"android":"levelo://app?vid=3b3d4d61-3b31-4a29-96a1-1451b29f8d4d","ios":"levelo://app?vid=3b3d4d61-3b31-4a29-96a1-1451b29f8d4d"},"vehicle_type_id":"4","last_reported":1730750966,"current_range_meters":38800,"station_id":"ce4bhkp2rcd13ifvqgd0","pricing_plan_id":"cebpf4jnsgd1na2vs0mg"},{"bike_id":"6b203e94-dbf2-4a85-aba6-861192269bba","system_id":"levelo_inurba_marseille","lat":43.23956,"lon":5.36626,"is_reserved":false,"is_disabled":false,"rental_uris":{"android":"levelo://app?vid=6b203e94-dbf2-4a85-aba6-861192269bba","ios":"levelo://app?vid=6b203e94-dbf2-4a85-aba6-861192269bba"},"vehicle_type_id":"4","last_reported":1730750966,"current_range_meters":13600,"station_id":"ce4bhi12rcd13ifvqfp0","pricing_plan_id":"cebpf4jnsgd1na2vs0mg"},{"bike_id":"8e165693-2259-4060-bb43-7a0d52e800a2","system_id":"levelo_inurba_marseille","lat":43.29419,"lon":5.38621,"is_reserved":false,"is_disabled":false,"rental_uris":{"android":"levelo://app?vid=8e165693-2259-4060-bb43-7a0d52e800a2","ios":"levelo://app?vid=8e165693-2259-4060-bb43-7a0d52e800a2"},"vehicle_type_id":"4","last_reported":1730750966,"current_range_meters":38800,"station_id":"ce4bh2h2rcd13ifvqdh0","pricing_plan_id":"cebpf4jnsgd1na2vs0mg"},{"bike_id":"cb67bb56-cc54-409f-bfb4-1716c4daf1af","system_id":"levelo_inurba_marseille","lat":43.31067,"lon":5.38347,"is_reserved":false,"is_disabled":false,"rental_uris":{"android":"levelo://app?vid=cb67bb56-cc54-409f-bfb4-1716c4daf1af","ios":"levelo://app?vid=cb67bb56-cc54-409f-bfb4-1716c4daf1af"},"vehicle_type_id":"4","last_reported":1730750966,"current_range_meters":38800,"station_id":"ce4bgv92rcd13ifvqcr0","pricing_plan_id":"cebpf4jnsgd1na2vs0mg"},{"bike_id":"7a11a98d-8ac5-4670-a0af-96ec4b174999","system_id":"levelo_inurba_marseille","lat":43.281444,"lon":5.426487,"is_reserved":false,"is_disabled":false,"rental_uris":{"android":"levelo://app?vid=7a11a98d-8ac5-4670-a0af-96ec4b174999","ios":"levelo://app?vid=7a11a98d-8ac5-4670-a0af-96ec4b174999"},"vehicle_type_id":"4","last_reported":1730750966,"current_range_meters":38800,"station_id":"ce4bhnh2rcd13ifvqgug","pricing_plan_id":"cebpf4jnsgd1na2vs0mg"},{"bike_id":"c4c0de2f-a87e-415a-bc12-145e90238b59","system_id":"levelo_inurba_marseille","lat":43.27945,"lon":5.41041,"is_reserved":false,"is_disabled":false,"rental_uris":{"android":"levelo://app?vid=c4c0de2f-a87e-415a-bc12-145e90238b59","ios":"levelo://app?vid=c4c0de2f-a87e-415a-bc12-145e90238b59"},"vehicle_type_id":"4","last_reported":1730750966,"current_range_meters":9200,"station_id":"ce4bhnp2rcd13ifvqh0g","pricing_plan_id":"cebpf4jnsgd1na2vs0mg"},{"bike_id":"d351e123-02a6-4c74-a295-4386c372c9c5","system_id":"levelo_inurba_marseille","lat":43.293067,"lon":5.374597,"is_reserved":false,"is_disabled":false,"rental_uris":{"android":"levelo://app?vid=d351e123-02a6-4c74-a295-4386c372c9c5","ios":"levelo://app?vid=d351e123-02a6-4c74-a295-4386c372c9c5"},"vehicle_type_id":"4","last_reported":1730750966,"current_range_meters":38400,"station_id":"ce4bgi12rcd13ifvqb70","pricing_plan_id":"cebpf4jnsgd1na2vs0mg"},{"bike_id":"4812268e-3417-47b7-9b4b-4605384653a0","system_id":"levelo_inurba_marseille","lat":43.29577,"lon":5.37506,"is_reserved":false,"is_disabled":false,"rental_uris":{"android":"levelo://app?vid=4812268e-3417-47b7-9b4b-4605384653a0","ios":"levelo://app?vid=4812268e-3417-47b7-9b4b-4605384653a0"},"vehicle_type_id":"4","last_reported":1730750966,"current_range_meters":6800,"station_id":"ce4bgh92rcd13ifvqb50","pricing_plan_id":"cebpf4jnsgd1na2vs0mg"},{"bike_id":"37ef2ca3-2c43-4d66-9992-5cf3dddabb46","system_id":"levelo_inurba_marseille","lat":43.31075,"lon":5.38343,"is_reserved":false,"is_disabled":false,"rental_uris":{"android":"levelo://app?vid=37ef2ca3-2c43-4d66-9992-5cf3dddabb46","ios":"levelo://app?vid=37ef2ca3-2c43-4d66-9992-5cf3dddabb46"},"vehicle_type_id":"4","last_reported":1730750966,"current_range_meters":14000,"station_id":"ce4bgv92rcd13ifvqcr0","pricing_plan_id":"cebpf4jnsgd1na2vs0mg"},{"bike_id":"29f681b5-c5da-48c5-9970-08b3f9bca177","system_id":"levelo_inurba_marseille","lat":43.32336,"lon":5.40622,"is_reserved":false,"is_disabled":false,"rental_uris":{"android":"levelo://app?vid=29f681b5-c5da-48c5-9970-08b3f9bca177","ios":"levelo://app?vid=29f681b5-c5da-48c5-9970-08b3f9bca177"},"vehicle_type_id":"4","last_reported":1730750966,"current_range_meters":12000,"station_id":"ce4bhq92rcd13ifvqhjg","pricing_plan_id":"cebpf4jnsgd1na2vs0mg"},{"bike_id":"62ab7a04-3f30-4419-9f21-aa956d86fd7f","system_id":"levelo_inurba_marseille","lat":43.29198,"lon":5.39324,"is_reserved":false,"is_disabled":false,"rental_uris":{"android":"levelo://app?vid=62ab7a04-3f30-4419-9f21-aa956d86fd7f","ios":"levelo://app?vid=62ab7a04-3f30-4419-9f21-aa956d86fd7f"},"vehicle_type_id":"4","last_reported":1730750966,"current_range_meters":6800,"station_id":"ce4bh192rcd13ifvqdd0","pricing_plan_id":"cebpf4jnsgd1na2vs0mg"},{"bike_id":"756c1efa-f2cb-4ba2-928c-22e9fea9145d","system_id":"levelo_inurba_marseille","lat":43.29267,"lon":5.4092,"is_reserved":false,"is_disabled":false,"rental_uris":{"android":"levelo://app?vid=756c1efa-f2cb-4ba2-928c-22e9fea9145d","ios":"levelo://app?vid=756c1efa-f2cb-4ba2-928c-22e9fea9145d"},"vehicle_type_id":"4","last_reported":1730750966,"current_range_meters":38800,"station_id":"ce4bh192rcd13ifvqdc0","pricing_plan_id":"cebpf4jnsgd1na2vs0mg"},{"bike_id":"8f6ae032-9bce-4fab-b9c5-8174447ce3ce","system_id":"levelo_inurba_marseille","lat":43.29524,"lon":5.39036,"is_reserved":false,"is_disabled":false,"rental_uris":{"android":"levelo://app?vid=8f6ae032-9bce-4fab-b9c5-8174447ce3ce","ios":"levelo://app?vid=8f6ae032-9bce-4fab-b9c5-8174447ce3ce"},"vehicle_type_id":"4","last_reported":1730750966,"current_range_meters":32000,"station_id":"ce4bh3p2rcd13ifvqdp0","pricing_plan_id":"cebpf4jnsgd1na2vs0mg"},{"bike_id":"888d7c20-b463-46eb-b029-e6a3fec43c8f","system_id":"levelo_inurba_marseille","lat":43.29416,"lon":5.38633,"is_reserved":false,"is_disabled":false,"rental_uris":{"android":"levelo://app?vid=888d7c20-b463-46eb-b029-e6a3fec43c8f","ios":"levelo://app?vid=888d7c20-b463-46eb-b029-e6a3fec43c8f"},"vehicle_type_id":"4","last_reported":1730750966,"current_range_meters":20800,"station_id":"ce4bh2h2rcd13ifvqdh0","pricing_plan_id":"cebpf4jnsgd1na2vs0mg"},{"bike_id":"b51fe813-fb3e-4f83-bf96-96b46bf75c3f","system_id":"levelo_inurba_marseille","lat":43.25871,"lon":5.39896,"is_reserved":false,"is_disabled":false,"rental_uris":{"android":"levelo://app?vid=b51fe813-fb3e-4f83-bf96-96b46bf75c3f","ios":"levelo://app?vid=b51fe813-fb3e-4f83-bf96-96b46bf75c3f"},"vehicle_type_id":"4","last_reported":1730750966,"current_range_meters":36800,"station_id":"ce4bhl92rcd13ifvqghg","pricing_plan_id":"cebpf4jnsgd1na2vs0mg"},{"bike_id":"e2ae0a33-a095-45fe-95b7-de965502a13c","system_id":"levelo_inurba_marseille","lat":43.26943,"lon":5.38625,"is_reserved":false,"is_disabled":false,"rental_uris":{"android":"levelo://app?vid=e2ae0a33-a095-45fe-95b7-de965502a13c","ios":"levelo://app?vid=e2ae0a33-a095-45fe-95b7-de965502a13c"},"vehicle_type_id":"4","last_reported":1730750966,"current_range_meters":38800,"station_id":"ce4bhh92rcd13ifvqfh0","pricing_plan_id":"cebpf4jnsgd1na2vs0mg"},{"bike_id":"f962eeb2-c255-4402-a6e4-690c44fcb3ab","system_id":"levelo_inurba_marseille","lat":43.29411,"lon":5.38615,"is_reserved":false,"is_disabled":false,"rental_uris":{"android":"levelo://app?vid=f962eeb2-c255-4402-a6e4-690c44fcb3ab","ios":"levelo://app?vid=f962eeb2-c255-4402-a6e4-690c44fcb3ab"},"vehicle_type_id":"4","last_reported":1730750966,"current_range_meters":18000,"station_id":"ce4bh2h2rcd13ifvqdh0","pricing_plan_id":"cebpf4jnsgd1na2vs0mg"},{"bike_id":"cc164c79-47b7-41a2-8ddf-f6e1442291cb","system_id":"levelo_inurba_marseille","lat":43.27817,"lon":5.40713,"is_reserved":false,"is_disabled":false,"rental_uris":{"android":"levelo://app?vid=cc164c79-47b7-41a2-8ddf-f6e1442291cb","ios":"levelo://app?vid=cc164c79-47b7-41a2-8ddf-f6e1442291cb"},"vehicle_type_id":"4","last_reported":1730750966,"current_range_meters":26800,"station_id":"ce4bhnh2rcd13ifvqgtg","pricing_plan_id":"cebpf4jnsgd1na2vs0mg"},{"bike_id":"5e4789c0-dda2-4013-80f2-5c2d8da893a6","system_id":"levelo_inurba_marseille","lat":43.2846,"lon":5.35883,"is_reserved":false,"is_disabled":false,"rental_uris":{"android":"levelo://app?vid=5e4789c0-dda2-4013-80f2-5c2d8da893a6","ios":"levelo://app?vid=5e4789c0-dda2-4013-80f2-5c2d8da893a6"},"vehicle_type_id":"4","last_reported":1730750966,"current_range_meters":24800,"station_id":"ce4bhah2rcd13ifvqei0","pricing_plan_id":"cebpf4jnsgd1na2vs0mg"},{"bike_id":"ec3882b1-43a8-4750-8c25-518186950533","system_id":"levelo_inurba_marseille","lat":43.28419,"lon":5.37522,"is_reserved":false,"is_disabled":false,"rental_uris":{"android":"levelo://app?vid=ec3882b1-43a8-4750-8c25-518186950533","ios":"levelo://app?vid=ec3882b1-43a8-4750-8c25-518186950533"},"vehicle_type_id":"4","last_reported":1730750966,"current_range_meters":30400,"station_id":"ce4bh412rcd13ifvqds0","pricing_plan_id":"cebpf4jnsgd1na2vs0mg"},{"bike_id":"a7adc7ea-055f-47bb-b719-ed2702addb6b","system_id":"levelo_inurba_marseille","lat":43.28468,"lon":5.3589,"is_reserved":false,"is_disabled":false,"rental_uris":{"android":"levelo://app?vid=a7adc7ea-055f-47bb-b719-ed2702addb6b","ios":"levelo://app?vid=a7adc7ea-055f-47bb-b719-ed2702addb6b"},"vehicle_type_id":"4","last_reported":1730750966,"current_range_meters":35600,"station_id":"ce4bhah2rcd13ifvqei0","pricing_plan_id":"cebpf4jnsgd1na2vs0mg"},{"bike_id":"1a4eceb0-446f-4b65-af01-dcb2d9429145","system_id":"levelo_inurba_marseille","lat":43.27564,"lon":5.38425,"is_reserved":false,"is_disabled":false,"rental_uris":{"android":"levelo://app?vid=1a4eceb0-446f-4b65-af01-dcb2d9429145","ios":"levelo://app?vid=1a4eceb0-446f-4b65-af01-dcb2d9429145"},"vehicle_type_id":"4","last_reported":1730750966,"current_range_meters":20000,"station_id":"ce4bhh92rcd13ifvqfi0","pricing_plan_id":"cebpf4jnsgd1na2vs0mg"},{"bike_id":"2e5b4eda-1e00-4de7-bf32-df40f4d56ed2","system_id":"levelo_inurba_marseille","lat":43.32483,"lon":5.36556,"is_reserved":false,"is_disabled":false,"rental_uris":{"android":"levelo://app?vid=2e5b4eda-1e00-4de7-bf32-df40f4d56ed2","ios":"levelo://app?vid=2e5b4eda-1e00-4de7-bf32-df40f4d56ed2"},"vehicle_type_id":"4","last_reported":1730750966,"current_range_meters":14400,"station_id":"ce4bhs12rcd13ifvqhvg","pricing_plan_id":"cebpf4jnsgd1na2vs0mg"},{"bike_id":"ec331afd-d8ec-4eea-8d6c-fc9e81742987","system_id":"levelo_inurba_marseille","lat":43.29171,"lon":5.37157,"is_reserved":false,"is_disabled":false,"rental_uris":{"android":"levelo://app?vid=ec331afd-d8ec-4eea-8d6c-fc9e81742987","ios":"levelo://app?vid=ec331afd-d8ec-4eea-8d6c-fc9e81742987"},"vehicle_type_id":"4","last_reported":1730750966,"current_range_meters":24000,"station_id":"ce4bha92rcd13ifvqeh0","pricing_plan_id":"cebpf4jnsgd1na2vs0mg"},{"bike_id":"8a43fcb5-6008-4371-bc48-5d266bfd317f","system_id":"levelo_inurba_marseille","lat":43.29413,"lon":5.38629,"is_reserved":false,"is_disabled":false,"rental_uris":{"android":"levelo://app?vid=8a43fcb5-6008-4371-bc48-5d266bfd317f","ios":"levelo://app?vid=8a43fcb5-6008-4371-bc48-5d266bfd317f"},"vehicle_type_id":"4","last_reported":1730750966,"current_range_meters":39200,"station_id":"ce4bh2h2rcd13ifvqdh0","pricing_plan_id":"cebpf4jnsgd1na2vs0mg"},{"bike_id":"4c8e72b5-aba7-4439-8dcc-1e2370b4bb8a","system_id":"levelo_inurba_marseille","lat":43.30807,"lon":5.43519,"is_reserved":false,"is_disabled":false,"rental_uris":{"android":"levelo://app?vid=4c8e72b5-aba7-4439-8dcc-1e2370b4bb8a","ios":"levelo://app?vid=4c8e72b5-aba7-4439-8dcc-1e2370b4bb8a"},"vehicle_type_id":"4","last_reported":1730750966,"current_range_meters":39200,"station_id":"ce4bhph2rcd13ifvqheg","pricing_plan_id":"cebpf4jnsgd1na2vs0mg"},{"bike_id":"ab3fbd78-f7c0-4688-9dde-07740728d30c","system_id":"levelo_inurba_marseille","lat":43.29187,"lon":5.38609,"is_reserved":false,"is_disabled":false,"rental_uris":{"android":"levelo://app?vid=ab3fbd78-f7c0-4688-9dde-07740728d30c","ios":"levelo://app?vid=ab3fbd78-f7c0-4688-9dde-07740728d30c"},"vehicle_type_id":"4","last_reported":1730750966,"current_range_meters":5600,"station_id":"","pricing_plan_id":"cebpf4jnsgd1na2vs0mg"},{"bike_id":"62846512-c27a-49a0-b420-08e77017a80e","system_id":"levelo_inurba_marseille","lat":43.28448,"lon":5.35887,"is_reserved":false,"is_disabled":false,"rental_uris":{"android":"levelo://app?vid=62846512-c27a-49a0-b420-08e77017a80e","ios":"levelo://app?vid=62846512-c27a-49a0-b420-08e77017a80e"},"vehicle_type_id":"4","last_reported":1730750966,"current_range_meters":8800,"station_id":"ce4bhah2rcd13ifvqei0","pricing_plan_id":"cebpf4jnsgd1na2vs0mg"},{"bike_id":"223ebcba-51c0-447a-be50-b9fb4547a351","system_id":"levelo_inurba_marseille","lat":43.25104,"lon":5.40324,"is_reserved":false,"is_disabled":false,"rental_uris":{"android":"levelo://app?vid=223ebcba-51c0-447a-be50-b9fb4547a351","ios":"levelo://app?vid=223ebcba-51c0-447a-be50-b9fb4547a351"},"vehicle_type_id":"4","last_reported":1730750966,"current_range_meters":39200,"station_id":"ce4bhlh2rcd13ifvqgig","pricing_plan_id":"cebpf4jnsgd1na2vs0mg"},{"bike_id":"75ed7478-abbb-49b2-99e0-8898b4b807f8","system_id":"levelo_inurba_marseille","lat":43.27626,"lon":5.36106,"is_reserved":false,"is_disabled":false,"rental_uris":{"android":"levelo://app?vid=75ed7478-abbb-49b2-99e0-8898b4b807f8","ios":"levelo://app?vid=75ed7478-abbb-49b2-99e0-8898b4b807f8"},"vehicle_type_id":"4","last_reported":1730750966,"current_range_meters":25600,"station_id":"ce4bgj92rcd13ifvqbe0","pricing_plan_id":"cebpf4jnsgd1na2vs0mg"},{"bike_id":"850ba743-976e-4df5-b33a-36d5f6ca923e","system_id":"levelo_inurba_marseille","lat":43.26939,"lon":5.40255,"is_reserved":false,"is_disabled":false,"rental_uris":{"android":"levelo://app?vid=850ba743-976e-4df5-b33a-36d5f6ca923e","ios":"levelo://app?vid=850ba743-976e-4df5-b33a-36d5f6ca923e"},"vehicle_type_id":"4","last_reported":1730750966,"current_range_meters":39200,"station_id":"cjm6bp8fraef2m0cb0m0","pricing_plan_id":"cebpf4jnsgd1na2vs0mg"},