{"last_updated":1730809034,"ttl":60,"version":"2.2","data":{"bikes":[{"bike_id":"1435ffab-c163-4de0-b8bf-843c93add0dd","system_id":"levelo_inurba_marseille","lat":43.32792,"lon":5.37483,"is_reserved":false,"is_disabled":false,"rental_uris":{"android":"levelo://app?vid=1435ffab-c163-4de0-b8bf-843c93add0dd","ios":"levelo://app?vid=1435ffab-c163-4de0-b8bf-843c93add0dd"},"vehicle_type_id":"4","last_reported":1730809034,"current_range_meters":38000,"station_id":"","pricing_plan_id":"cebpf4jnsgd1na2vs0mg"},{"bike_id":"ad410cfc-161b-411c-826c-ef5f5a09e4e6","system_id":"levelo_inurba_marseille","lat":43.29274,"lon":5.36843,"is_reserved":false,"is_disabled":false,"rental_uris":{"android":"levelo://app?vid=ad410cfc-161b-411c-826c-ef5f5a09e4e6","ios":"levelo://app?vid=ad410cfc-161b-411c-826c-ef5f5a09e4e6"},"vehicle_type_id":"4","last_reported":1730809034,"current_range_meters":9600,"station_id":"ce4bhbp2rcd13ifvqesg","pricing_plan_id":"cebpf4jnsgd1na2vs0mg"},{"bike_id":"481943d8-728f-424e-9f8c-0e68a1156393","system_id":"levelo_inurba_marseille","lat":43.28355,"lon":5.38092,"is_reserved":false,"is_disabled":false,"rental_uris":{"android":"levelo://app?vid=481943d8-728f-424e-9f8c-0e68a1156393","ios":"levelo://app?vid=481943d8-728f-424e-9f8c-0e68a1156393"},"vehicle_type_id":"4","last_reported":1730809034,"current_range_meters":12000,"station_id":"ce4bh412rcd13ifvqdr0","pricing_plan_id":"cebpf4jnsgd1na2vs0mg"},{"bike_id":"ac32d048-99ba-4de7-9600-ef4255eb0000","system_id":"levelo_inurba_marseille","lat":43.29367,"lon":5.37809,"is_reserved":false,"is_disabled":false,"rental_uris":{"android":"levelo://app?vid=ac32d048-99ba-4de7-9600-ef4255eb0000","ios":"levelo://app?vid=ac32d048-99ba-4de7-9600-ef4255eb0000"},"vehicle_type_id":"4","last_reported":1730809034,"current_range_meters":36000,"station_id":"ce4bgjh2rcd13ifvqbf0","pricing_plan_id":"cebpf4jnsgd1na2vs0mg"},{"bike_id":"3675d184-4550-4970-9661-d3d7f50009e5","system_id":"levelo_inurba_marseille","lat":43.31345,"lon":5.36705,"is_reserved":false,"is_disabled":false,"rental_uris":{"android":"levelo://app?vid=3675d184-4550-4970-9661-d3d7f50009e5","ios":"levelo://app?vid=3675d184-4550-4970-9661-d3d7f50009e5"},"vehicle_type_id":"4","last_reported":1730809034,"current_range_meters":23200,"station_id":"ce4bgr92rcd13ifvqc6g","pricing_plan_id":"cebpf4jnsgd1na2vs0mg"},{"bike_id":"94b6eb88-62d9-418f-b0ee-b398dbe6dc12","system_id":"levelo_inurba_marseille","lat":43.27621,"lon":5.36102,"is_reserved":false,"is_disabled":false,"rental_uris":{"android":"levelo://app?vid=94b6eb88-62d9-418f-b0ee-b398dbe6dc12","ios":"levelo://app?vid=94b6eb88-62d9-418f-b0ee-b398dbe6dc12"},"vehicle_type_id":"4","last_reported":1730809034,"current_range_meters":2800,"station_id":"ce4bgj92rcd13ifvqbe0","pricing_plan_id":"cebpf4jnsgd1na2vs0mg"},{"bike_id":"2f421261-a528-4395-8a49-c894b9963f0b","system_id":"levelo_inurba_marseille","lat":43.30135,"lon":5.39883,"is_reserved":false,"is_disabled":false,"rental_uris":{"android":"levelo://app?vid=2f421261-a528-4395-8a49-c894b9963f0b","ios":"levelo://app?vid=2f421261-a528-4395-8a49-c894b9963f0b"},"vehicle_type_id":"4","last_reported":1730809034,"current_range_meters":27200,"station_id":"ce4bh0h2rcd13ifvqd40","pricing_plan_id":"cebpf4jnsgd1na2vs0mg"},{"bike_id":"1efced98-c1c8-4fac-a8b0-dcf215b19a9b","system_id":"levelo_inurba_marseille","lat":43.308838,"lon":5.371966,"is_reserved":false,"is_disabled":false,"rental_uris":{"android":"levelo://app?vid=1efced98-c1c8-4fac-a8b0-dcf215b19a9b","ios":"levelo://app?vid=1efced98-c1c8-4fac-a8b0-dcf215b19a9b"},"vehicle_type_id":"4","last_reported":1730809034,"current_range_meters":36400,"station_id":"ce4bguh2rcd13ifvqckg","pricing_plan_id":"cebpf4jnsgd1na2vs0mg"},{"bike_id":"47188366-9ba1-4e2e-907e-c2a5c3fd8c31","system_id":"levelo_inurba_marseille","lat":43.31345,"lon":5.36722,"is_reserved":false,"is_disabled":false,"rental_uris":{"android":"levelo://app?vid=47188366-9ba1-4e2e-907e-c2a5c3fd8c31","ios":"levelo://app?vid=47188366-9ba1-4e2e-907e-c2a5c3fd8c31"},"vehicle_type_id":"4","last_reported":1730809034,"current_range_meters":6000,"station_id":"ce4bgr92rcd13ifvqc6g","pricing_plan_id":"cebpf4jnsgd1na2vs0mg"},{"bike_id":"81f6b4c0-466f-469e-9440-cacd811d84f3","system_id":"levelo_inurba_marseille","lat":43.2408,"lon":5.37752,"is_reserved":false,"is_disabled":false,"rental_uris":{"android":"levelo://app?vid=81f6b4c0-466f-469e-9440-cacd811d84f3","ios":"levelo://app?vid=81f6b4c0-466f-469e-9440-cacd811d84f3"},"vehicle_type_id":"4","last_reported":1730809034,"current_range_meters":22800,"station_id":"ce4bhnp2rcd13ifvqgvg","pricing_plan_id":"cebpf4jnsgd1na2vs0mg"},{"bike_id":"95c40018-7eca-4eaf-aa8f-17957e468643","system_id":"levelo_inurba_marseille","lat":43.26804,"lon":5.40259,"is_reserved":false,"is_disabled":false,"rental_uris":{"android":"levelo://app?vid=95c40018-7eca-4eaf-aa8f-17957e468643","ios":"levelo://app?vid=95c40018-7eca-4eaf-aa8f-17957e468643"},"vehicle_type_id":"4","last_reported":1730809034,"current_range_meters":23200,"station_id":"ce501612rcd8frsf0b60","pricing_plan_id":"cebpf4jnsgd1na2vs0mg"},{"bike_id":"bcd7ca0b-ac37-4ca3-8bb1-9e2fbd61ec3d","system_id":"levelo_inurba_marseille","lat":43.29868,"lon":5.3974,"is_reserved":false,"is_disabled":false,"rental_uris":{"android":"levelo://app?vid=bcd7ca0b-ac37-4ca3-8bb1-9e2fbd61ec3d","ios":"levelo://app?vid=bcd7ca0b-ac37-4ca3-8bb1-9e2fbd61ec3d"},"vehicle_type_id":"4","last_reported":1730809034,"current_range_meters":35600,"station_id":"ce4bh0h2rcd13ifvqd50","pricing_plan_id":"cebpf4jnsgd1na2vs0mg"},{"bike_id":"23436f45-f32c-41d2-8f72-310cf250026d","system_id":"levelo_inurba_marseille","lat":43.29284,"lon":5.40116,"is_reserved":false,"is_disabled":false,"rental_uris":{"android":"levelo://app?vid=23436f45-f32c-41d2-8f72-310cf250026d","ios":"levelo://app?vid=23436f45-f32c-41d2-8f72-310cf250026d"},"vehicle_type_id":"4","last_reported":1730809034,"current_range_meters":8800,"station_id":"ce4bh312rcd13ifvqdk0","pricing_plan_id":"cebpf4jnsgd1na2vs0mg"},{"bike_id":"a9f19e69-ffb9-4b74-867b-0480e5653f1f","system_id":"levelo_inurba_marseille","lat":43.3032,"lon":5.40433,"is_reserved":false,"is_disabled":false,"rental_uris":{"android":"levelo://app?vid=a9f19e69-ffb9-4b74-867b-0480e5653f1f","ios":"levelo://app?vid=a9f19e69-ffb9-4b74-867b-0480e5653f1f"},"vehicle_type_id":"4","last_reported":1730809034,"current_range_meters":27600,"station_id":"ce4bh012rcd13ifvqd10","pricing_plan_id":"cebpf4jnsgd1na2vs0mg"},{"bike_id":"d41662a8-dcd5-4521-8f96-a3722ad251c4","system_id":"levelo_inurba_marseille","lat":43.24073,"lon":5.37755,"is_reserved":false,"is_disabled":false,"rental_uris":{"android":"levelo://app?vid=d41662a8-dcd5-4521-8f96-a3722ad251c4","ios":"levelo://app?vid=d41662a8-dcd5-4521-8f96-a3722ad251c4"},"vehicle_type_id":"4","last_reported":1730809034,"current_range_meters":9200,"station_id":"ce4bhnp2rcd13ifvqgvg","pricing_plan_id":"cebpf4jnsgd1na2vs0mg"},{"bike_id":"4147bbfb-4b14-4aca-b782-8ec6c0473609","system_id":"levelo_inurba_marseille","lat":43.23596,"lon":5.40346,"is_reserved":false,"is_disabled":false,"rental_uris":{"android":"levelo://app?vid=4147bbfb-4b14-4aca-b782-8ec6c0473609","ios":"levelo://app?vid=4147bbfb-4b14-4aca-b782-8ec6c0473609"},"vehicle_type_id":"4","last_reported":1730809034,"current_range_meters":8400,"station_id":"","pricing_plan_id":"cebpf4jnsgd1na2vs0mg"},{"bike_id":"fa66adb8-19da-4b56-aeb9-ccf1206b3e1e","system_id":"levelo_inurba_marseille","lat":43.32363,"lon":5.36752,"is_reserved":false,"is_disabled":false,"rental_uris":{"android":"levelo://app?vid=fa66adb8-19da-4b56-aeb9-ccf1206b3e1e","ios":"levelo://app?vid=fa66adb8-19da-4b56-aeb9-ccf1206b3e1e"},"vehicle_type_id":"4","last_reported":1730809034,"current_range_meters":35200,"station_id":"ce4bhsh2rcd13ifvqi2g","pricing_plan_id":"cebpf4jnsgd1na2vs0mg"},{"bike_id":"26524832-8824-4bc7-95ef-aedb1815c904","system_id":"levelo_inurba_marseille","lat":43.2985,"lon":5.36281,"is_reserved":false,"is_disabled":false,"rental_uris":{"android":"levelo://app?vid=26524832-8824-4bc7-95ef-aedb1815c904","ios":"levelo://app?vid=26524832-8824-4bc7-95ef-aedb1815c904"},"vehicle_type_id":"4","last_reported":1730809034,"current_range_meters":16800,"station_id":"ce4bgpp2rcd13ifvqc3g","pricing_plan_id":"cebpf4jnsgd1na2vs0mg"},{"bike_id":"66966354-1586-4254-841c-af450da9f6b2","system_id":"levelo_inurba_marseille","lat":43.26028,"lon":5.37548,"is_reserved":false,"is_disabled":false,"rental_uris":{"android":"levelo://app?vid=66966354-1586-4254-841c-af450da9f6b2","ios":"levelo://app?vid=66966354-1586-4254-841c-af450da9f6b2"},"vehicle_type_id":"4","last_reported":1730809034,"current_range_meters":34800,"station_id":"ce4bhgh2rcd13ifvqfa0","pricing_plan_id":"cebpf4jnsgd1na2vs0mg"},{"bike_id":"8bcbcfaf-baf3-45cd-919c-30a8a398c4c3","system_id":"levelo_inurba_marseille","lat":43.29275,"lon":5.40125,"is_reserved":false,"is_disabled":false,"rental_uris":{"android":"levelo://app?vid=8bcbcfaf-baf3-45cd-919c-30a8a398c4c3","ios":"levelo://app?vid=8bcbcfaf-baf3-45cd-919c-30a8a398c4c3"},"vehicle_type_id":"4","last_reported":1730809034,"current_range_meters":36400,"station_id":"ce4bh312rcd13ifvqdk0","pricing_plan_id":"cebpf4jnsgd1na2vs0mg"},{"bike_id":"02104721-584e-4cb7-bc4f-a7a543ad6bba","system_id":"levelo_inurba_marseille","lat":43.3026,"lon":5.40079,"is_reserved":false,"is_disabled":false,"rental_uris":{"android":"levelo://app?vid=02104721-584e-4cb7-bc4f-a7a543ad6bba","ios":"levelo://app?vid=02104721-584e-4cb7-bc4f-a7a543ad6bba"},"vehicle_type_id":"4","last_reported":1730809034,"current_range_meters":32400,"station_id":"ce4bgvh2rcd13ifvqcs0","pricing_plan_id":"cebpf4jnsgd1na2vs0mg"},{"bike_id":"5ad3f732-7e23-4ad9-b57d-10c8736d4e8f","system_id":"levelo_inurba_marseille","lat":43.32484,"lon":5.36561,"is_reserved":false,"is_disabled":false,"rental_uris":{"android":"levelo://app?vid=5ad3f732-7e23-4ad9-b57d-10c8736d4e8f","ios":"levelo://app?vid=5ad3f732-7e23-4ad9-b57d-10c8736d4e8f"},"vehicle_type_id":"4","last_reported":1730809034,"current_range_meters":19200,"station_id":"ce4bhs12rcd13ifvqhvg","pricing_plan_id":"cebpf4jnsgd1na2vs0mg"},{"bike_id":"ab767bff-cda8-4140-9234-b7755d4ba328","system_id":"levelo_inurba_marseille","lat":43.28616,"lon":5.35105,"is_reserved":false,"is_disabled":false,"rental_uris":{"android":"levelo://app?vid=ab767bff-cda8-4140-9234-b7755d4ba328","ios":"levelo://app?vid=ab767bff-cda8-4140-9234-b7755d4ba328"},"vehicle_type_id":"4","last_reported":1730809034,"current_range_meters":38800,"station_id":"ce4bhch2rcd13ifvqeug","pricing_plan_id":"cebpf4jnsgd1na2vs0mg"},{"bike_id":"35d46972-faca-4525-a2d2-3f928f24f16c","system_id":"levelo_inurba_marseille","lat":43.24167,"lon":5.36401,"is_reserved":false,"is_disabled":false,"rental_uris":{"android":"levelo://app?vid=35d46972-faca-4525-a2d2-3f928f24f16c","ios":"levelo://app?vid=35d46972-faca-4525-a2d2-3f928f24f16c"},"vehicle_type_id":"4","last_reported":1730809034,"current_range_meters":37600,"station_id":"cpo36qri1sfpv3e86is0","pricing_plan_id":"cebpf4jnsgd1na2vs0mg"},{"bike_id":"472c653c-7442-4141-83fe-29876c16e175","system_id":"levelo_inurba_marseille","lat":43.265,"lon":5.39531,"is_reserved":false,"is_disabled":false,"rental_uris":{"android":"levelo://app?vid=472c653c-7442-4141-83fe-29876c16e175","ios":"levelo://app?vid=472c653c-7442-4141-83fe-29876c16e175"},"vehicle_type_id":"4","last_reported":1730809034,"current_range_meters":29600,"station_id":"ce4bhi12rcd13ifvqfq0","pricing_plan_id":"cebpf4jnsgd1na2vs0mg"},{"bike_id":"07e22d0d-c71d-48c7-8bca-86750441edde","system_id":"levelo_inurba_marseille","lat":43.30597,"lon":5.39362,"is_reserved":false,"is_disabled":false,"rental_uris":{"android":"levelo://app?vid=07e22d0d-c71d-48c7-8bca-86750441edde","ios":"levelo://app?vid=07e22d0d-c71d-48c7-8bca-86750441edde"},"vehicle_type_id":"4","last_reported":1730809034,"current_range_meters":26800,"station_id":"ce4bh0p2rcd13ifvqd80","pricing_plan_id":"cebpf4jnsgd1na2vs0mg"},{"bike_id":"3da4622c-c31c-40d3-8aab-c802043c4fb2","system_id":"levelo_inurba_marseille","lat":43.24078,"lon":5.37746,"is_reserved":false,"is_disabled":false,"rental_uris":{"android":"levelo://app?vid=3da4622c-c31c-40d3-8aab-c802043c4fb2","ios":"levelo://app?vid=3da4622c-c31c-40d3-8aab-c802043c4fb2"},"vehicle_type_id":"4","last_reported":1730809034,"current_range_meters":38800,"station_id":"ce4bhnp2rcd13ifvqgvg","pricing_plan_id":"cebpf4jnsgd1na2vs0mg"},{"bike_id":"88695206-10e6-47ee-90a8-a479470df749","system_id":"levelo_inurba_marseille","lat":43.28444,"lon":5.39197,"is_reserved":false,"is_disabled":false,"rental_uris":{"android":"levelo://app?vid=88695206-10e6-47ee-90a8-a479470df749","ios":"levelo://app?vid=88695206-10e6-47ee-90a8-a479470df749"},"vehicle_type_id":"4","last_reported":1730809034,"current_range_meters":38400,"station_id":"ce4bhoh2rcd13ifvqh5g","pricing_plan_id":"cebpf4jnsgd1na2vs0mg"},{"bike_id":"182e91a9-0e4e-4788-9b82-32e72e41d2da","system_id":"levelo_inurba_marseille","lat":43.30267,"lon":5.3771,"is_reserved":false,"is_disabled":false,"rental_uris":{"android":"levelo://app?vid=182e91a9-0e4e-4788-9b82-32e72e41d2da","ios":"levelo://app?vid=182e91a9-0e4e-4788-9b82-32e72e41d2da"},"vehicle_type_id":"4","last_reported":1730809034,"current_range_meters":40000,"station_id":"ce4bguh2rcd13ifvqcj0","pricing_plan_id":"cebpf4jnsgd1na2vs0mg"},{"bike_id":"abdd6a10-853b-4c35-b89c-076cee35e95d","system_id":"levelo_inurba_marseille","lat":43.28942,"lon":5.36386,"is_reserved":false,"is_disabled":false,"rental_uris":{"android":"levelo://app?vid=abdd6a10-853b-4c35-b89c-076cee35e95d","ios":"levelo://app?vid=abdd6a10-853b-4c35-b89c-076cee35e95d"},"vehicle_type_id":"4","last_reported":1730809034,"current_range_meters":10000,"station_id":"ce4bhc92rcd13ifvqetg","pricing_plan_id":"cebpf4jnsgd1na2vs0mg"},{"bike_id":"3bb01c13-ded9-4c2a-b546-d1956dda23a3","system_id":"levelo_inurba_marseille","lat":43.28702,"lon":5.3998,"is_reserved":false,"is_disabled":false,"rental_uris":{"android":"levelo://app?vid=3bb01c13-ded9-4c2a-b546-d1956dda23a3","ios":"levelo://app?vid=3bb01c13-ded9-4c2a-b546-d1956dda23a3"},"vehicle_type_id":"4","last_reported":1730809034,"current_range_meters":8000,"station_id":"ce4bho92rcd13ifvqh3g","pricing_plan_id":"cebpf4jnsgd1na2vs0mg"},{"bike_id":"8f9b1417-60dc-4e25-94ce-f05731a86005","system_id":"levelo_inurba_marseille","lat":43.30272,"lon":5.37702,"is_reserved":false,"is_disabled":false,"rental_uris":{"android":"levelo://app?vid=8f9b1417-60dc-4e25-94ce-f05731a86005","ios":"levelo://app?vid=8f9b1417-60dc-4e25-94ce-f05731a86005"},"vehicle_type_id":"4","last_reported":1730809034,"current_range_meters":30400,"station_id":"ce4bguh2rcd13ifvqcj0","pricing_plan_id":"cebpf4jnsgd1na2vs0mg"},{"bike_id":"fb0493f1-d388-42d8-8e68-7275bde2a048","system_id":"levelo_inurba_marseille","lat":43.30142,"lon":5.38068,"is_reserved":false,"is_disabled":false,"rental_uris":{"android":"levelo://app?vid=fb0493f1-d388-42d8-8e68-7275bde2a048","ios":"levelo://app?vid=fb0493f1-d388-42d8-8e68-7275bde2a048"},"vehicle_type_id":"4","last_reported":1730809034,"current_range_meters":22000,"station_id":"ce4bgjp2rcd13ifvqbh0","pricing_plan_id":"cebpf4jnsgd1na2vs0mg"},{"bike_id":"ddfa70a9-9d32-48ef-99b7-f4cb9b41791d","system_id":"levelo_inurba_marseille","lat":43.24065,"lon":5.37751,"is_reserved":false,"is_disabled":false,"rental_uris":{"android":"levelo://app?vid=ddfa70a9-9d32-48ef-99b7-f4cb9b41791d","ios":"levelo://app?vid=ddfa70a9-9d32-48ef-99b7-f4cb9b41791d"},"vehicle_type_id":"4","last_reported":1730809034,"current_range_meters":10000,"station_id":"ce4bhnp2rcd13ifvqgvg","pricing_plan_id":"cebpf4jnsgd1na2vs0mg"},{"bike_id":"51b0cc7e-772d-41e9-97a0-b689f0d0604e","system_id":"levelo_inurba_marseille","lat":43.31343,"lon":5.36716,"is_reserved":false,"is_disabled":false,"rental_uris":{"android":"levelo://app?vid=51b0cc7e-772d-41e9-97a0-b689f0d0604e","ios":"levelo://app?vid=51b0cc7e-772d-41e9-97a0-b689f0d0604e"},"vehicle_type_id":"4","last_reported":1730809034,"current_range_meters":38800,"station_id":"ce4bgr92rcd13ifvqc6g","pricing_plan_id":"cebpf4jnsgd1na2vs0mg"},{"bike_id":"03a9d872-f1de-4f85-903c-d7aeb59b09c6","system_id":"levelo_inurba_marseille","lat":43.31162,"lon":5.38721,"is_reserved":false,"is_disabled":false,"rental_uris":{"android":"levelo://app?vid=03a9d872-f1de-4f85-903c-d7aeb59b09c6","ios":"levelo://app?vid=03a9d872-f1de-4f85-903c-d7aeb59b09c6"},"vehicle_type_id":"4","last_reported":1730809034,"current_range_meters":25200,"station_id":"ce4bgv12rcd13ifvqcp0","pricing_plan_id":"cebpf4jnsgd1na2vs0mg"},{"bike_id":"9715abe7-bff5-43b7-b3b8-86a481932b4e","system_id":"levelo_inurba_marseille","lat":43.27848,"lon":5.3922,"is_reserved":false,"is_disabled":false,"rental_uris":{"android":"levelo://app?vid=9715abe7-bff5-43b7-b3b8-86a481932b4e","ios":"levelo://app?vid=9715abe7-bff5-43b7-b3b8-86a481932b4e"},"vehicle_type_id":"4","last_reported":1730809034,"current_range_meters":31200,"station_id":"ce4bhjp2rcd13ifvqga0","pricing_plan_id":"cebpf4jnsgd1na2vs0mg"},{"bike_id":"f2f89499-b5e4-482b-8d77-86354527a0df","system_id":"levelo_inurba_marseille","lat":43.30144,"lon":5.38783,"is_reserved":false,"is_disabled":false,"rental_uris":{"android":"levelo://app?vid=f2f89499-b5e4-482b-8d77-86354527a0df","ios":"levelo://app?vid=f2f89499-b5e4-482b-8d77-86354527a0df"},"vehicle_type_id":"4","last_reported":1730809034,"current_range_meters":23200,"station_id":"ce4bghh2rcd13ifvqb60","pricing_plan_id":"cebpf4jnsgd1na2vs0mg"},{"bike_id":"6481116c-5f06-4549-814e-6cdb6e286322","system_id":"levelo_inurba_marseille","lat":43.283447,"lon":5.381097,"is_reserved":false,"is_disabled":false,"rental_uris":{"android":"levelo://app?vid=6481116c-5f06-4549-814e-6cdb6e286322","ios":"levelo://app?vid=6481116c-5f06-4549-814e-6cdb6e286322"},"vehicle_type_id":"4","last_reported":1730809034,"current_range_meters":16800,"station_id":"ce4bh412rcd13ifvqdr0","pricing_plan_id":"cebpf4jnsgd1na2vs0mg"},{"bike_id":"696299dd-ba1c-442f-beb0-e28e8e38d1da","system_id":"levelo_inurba_marseille","lat":43.32035,"lon":5.41577,"is_reserved":false,"is_disabled":false,"rental_uris":{"android":"levelo://app?vid=696299dd-ba1c-442f-beb0-e28e8e38d1da","ios":"levelo://app?vid=696299dd-ba1c-442f-beb0-e28e8e38d1da"},"vehicle_type_id":"4","last_reported":1730809034,"current_range_meters":26800,"station_id":"ce4bhq92rcd13ifvqhkg","pricing_plan_id":"cebpf4jnsgd1na2vs0mg"},{"bike_id":"0fb9819f-f5ed-4bc1-9006-4b1ad7d9b36e","system_id":"levelo_inurba_marseille","lat":43.32478,"lon":5.3656,"is_reserved":false,"is_disabled":false,"rental_uris":{"android":"levelo://app?vid=0fb9819f-f5ed-4bc1-9006-4b1ad7d9b36e","ios":"levelo://app?vid=0fb9819f-f5ed-4bc1-9006-4b1ad7d9b36e"},"vehicle_type_id":"4","last_reported":1730809034,"current_range_meters":13600,"station_id":"ce4bhs12rcd13ifvqhvg","pricing_plan_id":"cebpf4jnsgd1na2vs0mg"},{"bike_id":"580572e6-c93e-4044-9cd3-251047661fbb","system_id":"levelo_inurba_marseille","lat":43.31991,"lon":5.38161,"is_reserved":false,"is_disabled":false,"rental_uris":{"android":"levelo://app?vid=580572e6-c93e-4044-9cd3-251047661fbb","ios":"levelo://app?vid=580572e6-c93e-4044-9cd3-251047661fbb"},"vehicle_type_id":"4","last_reported":1730809034,"current_range_meters":14400,"station_id":"ce4bhr12rcd13ifvqhpg","pricing_plan_id":"cebpf4jnsgd1na2vs0mg"},{"bike_id":"037eaf0f-9112-47d3-aa8d-7a0ef0d58625","system_id":"levelo_inurba_marseille","lat":43.24161,"lon":5.36397,"is_reserved":false,"is_disabled":false,"rental_uris":{"android":"levelo://app?vid=037eaf0f-9112-47d3-aa8d-7a0ef0d58625","ios":"levelo://app?vid=037eaf0f-9112-47d3-aa8d-7a0ef0d58625"},"vehicle_type_id":"4","last_reported":1730809034,"current_range_meters":38000,"station_id":"cpo36qri1sfpv3e86is0","pricing_plan_id":"cebpf4jnsgd1na2vs0mg"},{"bike_id":"897c072c-0d21-44b6-b843-663f492b8dc4","system_id":"levelo_inurba_marseille","lat":43.25105,"lon":5.4032,"is_reserved":false,"is_disabled":false,"rental_uris":{"android":"levelo://app?vid=897c072c-0d21-44b6-b843-663f492b8dc4","ios":"levelo://app?vid=897c072c-0d21-44b6-b843-663f492b8dc4"},"vehicle_type_id":"4","last_reported":1730809034,"current_range_meters":30800,"station_id":"ce4bhlh2rcd13ifvqgig","pricing_plan_id":"cebpf4jnsgd1na2vs0mg"},{"bike_id":"f82e6a05-266e-4c97-a6bd-c398647053c1","system_id":"levelo_inurba_marseille","lat":43.28465,"lon":5.38425,"is_reserved":false,"is_disabled":false,"rental_uris":{"android":"levelo://app?vid=f82e6a05-266e-4c97-a6bd-c398647053c1","ios":"levelo://app?vid=f82e6a05-266e-4c97-a6bd-c398647053c1"},"vehicle_type_id":"4","last_reported":1730809034,"current_range_meters":38800,"station_id":"ce4bh512rcd13ifvqe3g","pricing_plan_id":"cebpf4jnsgd1na2vs0mg"},{"bike_id":"d21c28b2-c174-4e9f-ad7f-35fb94eae1cd","system_id":"levelo_inurba_marseille","lat":43.30528,"lon":5.36699,"is_reserved":false,"is_disabled":false,"rental_uris":{"android":"levelo://app?vid=d21c28b2-c174-4e9f-ad7f-35fb94eae1cd","ios":"levelo://app?vid=d21c28b2-c174-4e9f-ad7f-35fb94eae1cd"},"vehicle_type_id":"4","last_reported":1730809034,"current_range_meters":40000,"station_id":"ce4bgrp2rcd13ifvqc9g","pricing_plan_id":"cebpf4jnsgd1na2vs0mg"},{"bike_id":"f63986e9-b97c-4f2a-8e47-7c73ce3d3714","system_id":"levelo_inurba_marseille","lat":43.30553,"lon":5.36528,"is_reserved":false,"is_disabled":false,"rental_uris":{"android":"levelo://app?vid=f63986e9-b97c-4f2a-8e47-7c73ce3d3714","ios":"levelo://app?vid=f63986e9-b97c-4f2a-8e47-7c73ce3d3714"},"vehicle_type_id":"4","last_reported":1730809034,"current_range_meters":31200,"station_id":"ce4bgs12rcd13ifvqcag","pricing_plan_id":"cebpf4jnsgd1na2vs0mg"},{"bike_id":"d3c97ab5-a437-41b2-b498-b5dfe0160ae1","system_id":"levelo_inurba_marseille","lat":43.28071,"lon":5.39644,"is_reserved":false,"is_disabled":false,"rental_uris":{"android":"levelo://app?vid=d3c97ab5-a437-41b2-b498-b5dfe0160ae1","ios":"levelo://app?vid=d3c97ab5-a437-41b2-b498-b5dfe0160ae1"},"vehicle_type_id":"4","last_reported":1730809034,"current_range_meters":39200,"station_id":"ce4bho12rcd13ifvqh2g","pricing_plan_id":"cebpf4jnsgd1na2vs0mg"},{"bike_id":"acdea68a-7783-4908-bf21-09a59a510c29","system_id":"levelo_inurba_marseille","lat":43.31346,"lon":5.36734,"is_reserved":false,"is_disabled":false,"rental_uris":{"android":"levelo://app?vid=acdea68a-7783-4908-bf21-09a59a510c29","ios":"levelo://app?vid=acdea68a-7783-4908-bf21-09a59a510c29"},"vehicle_type_id":"4","last_reported":1730809034,"current_range_meters":25200,"station_id":"ce4bgr92rcd13ifvqc6g","pricing_plan_id":"cebpf4jnsgd1na2vs0mg"},{"bike_id":"a43847c5-ae11-4411-a9f6-a129db23b82b","system_id":"levelo_inurba_marseille","lat":43.28357,"lon":5.38101,"is_reserved":false,"is_disabled":false,"rental_uris":{"android":"levelo://app?vid=a43847c5-ae11-4411-a9f6-a129db23b82b","ios":"levelo://app?vid=a43847c5-ae11-4411-a9f6-a129db23b82b"},"vehicle_type_id":"4","last_reported":1730809034,"current_range_meters":14000,"station_id":"ce4bh412rcd13ifvqdr0","pricing_plan_id":"cebpf4jnsgd1na2vs0mg"},{"bike_id":"2208cd18-b7e1-4d15-8a96-477d4e7ba53c","system_id":"levelo_inurba_marseille","lat":43.29896,"lon":5.43665,"is_reserved":false,"is_disabled":false,"rental_uris":{"android":"levelo://app?vid=2208cd18-b7e1-4d15-8a96-477d4e7ba53c","ios":"levelo://app?vid=2208cd18-b7e1-4d15-8a96-477d4e7ba53c"},"vehicle_type_id":"4","last_reported":1730809034,"current_range_meters":29600,"station_id":"ce4bhpp2rcd13ifvqhfg","pricing_plan_id":"cebpf4jnsgd1na2vs0mg"},{"bike_id":"ec86c442-5e4e-4a55-8657-51d7df91aec7","system_id":"levelo_inurba_marseille","lat":43.29255,"lon":5.4091,"is_reserved":false,"is_disabled":false,"rental_uris":{"android":"levelo://app?vid=ec86c442-5e4e-4a55-8657-51d7df91aec7","ios":"levelo://app?vid=ec86c442-5e4e-4a55-8657-51d7df91aec7"},"vehicle_type_id":"4","last_reported":1730809034,"current_range_meters":34000,"station_id":"ce4bh192rcd13ifvqdc0","pricing_plan_id":"cebpf4jnsgd1na2vs0mg"},{"bike_id":"ec2353bd-6e5c-408f-9784-48d6d8d0de79","system_id":"levelo_inurba_marseille","lat":43.27992,"lon":5.40013,"is_reserved":false,"is_disabled":false,"rental_uris":{"android":"levelo://app?vid=ec2353bd-6e5c-408f-9784-48d6d8d0de79","ios":"levelo://app?vid=ec2353bd-6e5c-408f-9784-48d6d8d0de79"},"vehicle_type_id":"4","last_reported":1730809034,"current_range_meters":33600,"station_id":"ce4bho92rcd13ifvqh4g","pricing_plan_id":"cebpf4jnsgd1na2vs0mg"},{"bike_id":"d887f1b0-5d9d-4cd3-b79a-ba53a6fe0685","system_id":"levelo_inurba_marseille","lat":43.27374,"lon":5.36256,"is_reserved":false,"is_disabled":false,"rental_uris":{"android":"levelo://app?vid=d887f1b0-5d9d-4cd3-b79a-ba53a6fe0685","ios":"levelo://app?vid=d887f1b0-5d9d-4cd3-b79a-ba53a6fe0685"},"vehicle_type_id":"4","last_reported":1730809034,"current_range_meters":9200,"station_id":"ce4bhbh2rcd13ifvqeo0","pricing_plan_id":"cebpf4jnsgd1na2vs0mg"},{"bike_id":"55a7885c-0a00-4863-bbb9-d9440e7d1c36","system_id":"levelo_inurba_marseille","lat":43.26957,"lon":5.38635,"is_reserved":false,"is_disabled":false,"rental_uris":{"android":"levelo://app?vid=55a7885c-0a00-4863-bbb9-d9440e7d1c36","ios":"levelo://app?vid=55a7885c-0a00-4863-bbb9-d9440e7d1c36"},"vehicle_type_id":"4","last_reported":1730809034,"current_range_meters":19600,"station_id":"ce4bhh92rcd13ifvqfh0","pricing_plan_id":"cebpf4jnsgd1na2vs0mg"},{"bike_id":"1fe0b755-e8a8-4a01-bb8c-27537f3c82d1","system_id":"levelo_inurba_marseille","lat":43.31223,"lon":5.36862,"is_reserved":false,"is_disabled":false,"rental_uris":{"android":"levelo://app?vid=1fe0b755-e8a8-4a01-bb8c-27537f3c82d1","ios":"levelo://app?vid=1fe0b755-e8a8-4a01-bb8c-27537f3c82d1"},"vehicle_type_id":"4","last_reported":1730809034,"current_range_meters":24400,"station_id":"ce4bgl92rcd13ifvqbq0","pricing_plan_id":"cebpf4jnsgd1na2vs0mg"},{"bike_id":"fc370af9-4723-4589-bd34-43e0e367fb35","system_id":"levelo_inurba_marseille","lat":43.26799,"lon":5.40257,"is_reserved":false,"is_disabled":false,"rental_uris":{"android":"levelo://app?vid=fc370af9-4723-4589-bd34-43e0e367fb35","ios":"levelo://app?vid=fc370af9-4723-4589-bd34-43e0e367fb35"},"vehicle_type_id":"4","last_reported":1730809034,"current_range_meters":38400,"station_id":"ce501612rcd8frsf0b60","pricing_plan_id":"cebpf4jnsgd1na2vs0mg"},{"bike_id":"0a769242-71d4-4449-9496-a04684b797df","system_id":"levelo_inurba_marseille","lat":43.2466,"lon":5.38153,"is_reserved":false,"is_disabled":false,"rental_uris":{"android":"levelo://app?vid=0a769242-71d4-4449-9496-a04684b797df","ios":"levelo://app?vid=0a769242-71d4-4449-9496-a04684b797df"},"vehicle_type_id":"4","last_reported":1730809034,"current_range_meters":19600,"station_id":"ce4bhih2rcd13ifvqfr0","pricing_plan_id":"cebpf4jnsgd1na2vs0mg"},{"bike_id":"9144c157-634d-4240-9c41-6d80b65ff913","system_id":"levelo_inurba_marseille","lat":43.30538,"lon":5.3653,"is_reserved":false,"is_disabled":false,"rental_uris":{"android":"levelo://app?vid=9144c157-634d-4240-9c41-6d80b65ff913","ios":"levelo://app?vid=9144c157-634d-4240-9c41-6d80b65ff913"},"vehicle_type_id":"4","last_reported":1730809034,"current_range_meters":30800,"station_id":"ce4bgs12rcd13ifvqcag","pricing_plan_id":"cebpf4jnsgd1na2vs0mg"},{"bike_id":"de9bc7da-0805-4f2e-a638-6f594e31fc19","system_id":"levelo_inurba_marseille","lat":43.23152,"lon":5.43703,"is_reserved":false,"is_disabled":false,"rental_uris":{"android":"levelo://app?vid=de9bc7da-0805-4f2e-a638-6f594e31fc19","ios":"levelo://app?vid=de9bc7da-0805-4f2e-a638-6f594e31fc19"},"vehicle_type_id":"4","last_reported":1730809034,"current_range_meters":22000,"station_id":"ce4bhmp2rcd13ifvqgog","pricing_plan_id":"cebpf4jnsgd1na2vs0mg"},{"bike_id":"5fb98fcb-8467-43bc-8f32-700a3dc876c9","system_id":"levelo_inurba_marseille","lat":43.23145,"lon":5.43709,"is_reserved":false,"is_disabled":false,"rental_uris":{"android":"levelo://app?vid=5fb98fcb-8467-43bc-8f32-700a3dc876c9","ios":"levelo://app?vid=5fb98fcb-8467-43bc-8f32-700a3dc876c9"},"vehicle_type_id":"4","last_reported":1730809034,"current_range_meters":23200,"station_id":"ce4bhmp2rcd13ifvqgog","pricing_plan_id":"cebpf4jnsgd1na2vs0mg"},{"bike_id":"f2c092a2-0134-4ce9-b755-7ee8d58ab87c","system_id":"levelo_inurba_marseille","lat":43.271,"lon":5.38184,"is_reserved":false,"is_disabled":false,"rental_uris":{"android":"levelo://app?vid=f2c092a2-0134-4ce9-b755-7ee8d58ab87c","ios":"levelo://app?vid=f2c092a2-0134-4ce9-b755-7ee8d58ab87c"},"vehicle_type_id":"4","last_reported":1730809034,"current_range_meters":22000,"station_id":"","pricing_plan_id":"cebpf4jnsgd1na2vs0mg"},{"bike_id":"6edcb5d2-dbf0-49f4-9f8b-5d93ccae943e","system_id":"levelo_inurba_marseille","lat":43.27905,"lon":5.38014,"is_reserved":false,"is_disabled":false,"rental_uris":{"android":"levelo://app?vid=6edcb5d2-dbf0-49f4-9f8b-5d93ccae943e","ios":"levelo://app?vid=6edcb5d2-dbf0-49f4-9f8b-5d93ccae943e"},"vehicle_type_id":"4","last_reported":1730809034,"current_range_meters":28400,"station_id":"ce4bhf92rcd13ifvqf50","pricing_plan_id":"cebpf4jnsgd1na2vs0mg"},{"bike_id":"f38b74f1-091f-4a53-be86-f11ff6a2b03b","system_id":"levelo_inurba_marseille","lat":43.24075,"lon":5.37749,"is_reserved":false,"is_disabled":false,"rental_uris":{"android":"levelo://app?vid=f38b74f1-091f-4a53-be86-f11ff6a2b03b","ios":"levelo://app?vid=f38b74f1-091f-4a53-be86-f11ff6a2b03b"},"vehicle_type_id":"4","last_reported":1730809034,"current_range_meters":36400,"station_id":"ce4bhnp2rcd13ifvqgvg","pricing_plan_id":"cebpf4jnsgd1na2vs0mg"},{"bike_id":"b1fe64db-656d-4e90-9b40-b5b616d72f80","system_id":"levelo_inurba_marseille","lat":43.2995,"lon":5.41317,"is_reserved":false,"is_disabled":false,"rental_uris":{"android":"levelo://app?vid=b1fe64db-656d-4e90-9b40-b5b616d72f80","ios":"levelo://app?vid=b1fe64db-656d-4e90-9b40-b5b616d72f80"},"vehicle_type_id":"4","last_reported":1730809034,"current_range_meters":30800,"station_id":"ce4bhp12rcd13ifvqh9g","pricing_plan_id":"cebpf4jnsgd1na2vs0mg"},{"bike_id":"5eeefd11-649c-499f-9856-2a20cd33e6cb","system_id":"levelo_inurba_marseille","lat":43.3054,"lon":5.36691,"is_reserved":false,"is_disabled":false,"rental_uris":{"android":"levelo://app?vid=5eeefd11-649c-499f-9856-2a20cd33e6cb","ios":"levelo://app?vid=5eeefd11-649c-499f-9856-2a20cd33e6cb"},"vehicle_type_id":"4","last_reported":1730809034,"current_range_meters":10800,"station_id":"ce4bgrp2rcd13ifvqc9g","pricing_plan_id":"cebpf4jnsgd1na2vs0mg"},{"bike_id":"62820efc-5f41-4490-abb5-65601383299f","system_id":"levelo_inurba_marseille","lat":43.31754,"lon":5.39031,"is_reserved":false,"is_disabled":false,"rental_uris":{"android":"levelo://app?vid=62820efc-5f41-4490-abb5-65601383299f","ios":"levelo://app?vid=62820efc-5f41-4490-abb5-65601383299f"},"vehicle_type_id":"4","last_reported":1730809034,"current_range_meters":27200,"station_id":"ce4bhqp2rcd13ifvqhng","pricing_plan_id":"cebpf4jnsgd1na2vs0mg"},{"bike_id":"9447685c-01cf-468d-a5c1-9646583f5725","system_id":"levelo_inurba_marseille","lat":43.28467,"lon":5.38409,"is_reserved":false,"is_disabled":false,"rental_uris":{"android":"levelo://app?vid=9447685c-01cf-468d-a5c1-9646583f5725","ios":"levelo://app?vid=9447685c-01cf-468d-a5c1-9646583f5725"},"vehicle_type_id":"4","last_reported":1730809034,"current_range_meters":36400,"station_id":"ce4bh512rcd13ifvqe3g","pricing_plan_id":"cebpf4jnsgd1na2vs0mg"},{"bike_id":"efa85e75-b895-4ae4-8f7a-9a102a0159a4","system_id":"levelo_inurba_marseille","lat":43.30466,"lon":5.37911,"is_reserved":false,"is_disabled":false,"rental_uris":{"android":"levelo://app?vid=efa85e75-b895-4ae4-8f7a-9a102a0159a4","ios":"levelo://app?vid=efa85e75-b895-4ae4-8f7a-9a102a0159a4"},"vehicle_type_id":"4","last_reported":1730809034,"current_range_meters":39200,"station_id":"ce4bgup2rcd13ifvqcn0","pricing_plan_id":"cebpf4jnsgd1na2vs0mg"},{"bike_id":"dc6b5459-b3c5-4b03-9e4b-5c45297f959e","system_id":"levelo_inurba_marseille","lat":43.29173,"lon":5.37141,"is_reserved":false,"is_disabled":false,"rental_uris":{"android":"levelo://app?vid=dc6b5459-b3c5-4b03-9e4b-5c45297f959e","ios":"levelo://app?vid=dc6b5459-b3c5-4b03-9e4b-5c45297f959e"},"vehicle_type_id":"4","last_reported":1730809034,"current_range_meters":3200,"station_id":"ce4bha92rcd13ifvqeh0","pricing_plan_id":"cebpf4jnsgd1na2vs0mg"},{"bike_id":"490bda0d-525d-48fa-a681-6c1404c76d50","system_id":"levelo_inurba_marseille","lat":43.30143,"lon":5.37417,"is_reserved":false,"is_disabled":false,"rental_uris":{"android":"levelo://app?vid=490bda0d-525d-48fa-a681-6c1404c76d50","ios":"levelo://app?vid=490bda0d-525d-48fa-a681-6c1404c76d50"},"vehicle_type_id":"4","last_reported":1730809034,"current_range_meters":38400,"station_id":"ce4bgs92rcd13ifvqcc0","pricing_plan_id":"cebpf4jnsgd1na2vs0mg"},{"bike_id":"44df66ce-32ea-4361-a3f7-0e940052bf0e","system_id":"levelo_inurba_marseille","lat":43.30268,"lon":5.37725,"is_reserved":false,"is_disabled":false,"rental_uris":{"android":"levelo://app?vid=44df66ce-32ea-4361-a3f7-0e940052bf0e","ios":"levelo://app?vid=44df66ce-32ea-4361-a3f7-0e940052bf0e"},"vehicle_type_id":"4","last_reported":1730809034,"current_range_meters":27600,"station_id":"ce4bguh2rcd13ifvqcj0","pricing_plan_id":"cebpf4jnsgd1na2vs0mg"},{"bike_id":"c65b9f24-9a8d-4816-9e3a-0a637de85f08","system_id":"levelo_inurba_marseille","lat":43.25119,"lon":5.403168,"is_reserved":false,"is_disabled":false,"rental_uris":{"android":"levelo://app?vid=c65b9f24-9a8d-4816-9e3a-0a637de85f08","ios":"levelo://app?vid=c65b9f24-9a8d-4816-9e3a-0a637de85f08"},"vehicle_type_id":"4","last_reported":1730809034,"current_range_meters":12800,"station_id":"ce4bhlh2rcd13ifvqgig","pricing_plan_id":"cebpf4jnsgd1na2vs0mg"},{"bike_id":"948dce27-30d8-44fd-a97a-5e6c250d01a1","system_id":"levelo_inurba_marseille","lat":43.32285,"lon":5.38269,"is_reserved":false,"is_disabled":false,"rental_uris":{"android":"levelo://app?vid=948dce27-30d8-44fd-a97a-5e6c250d01a1","ios":"levelo://app?vid=948dce27-30d8-44fd-a97a-5e6c250d01a1"},"vehicle_type_id":"4","last_reported":1730809034,"current_range_meters":16400,"station_id":"ce4bhr12rcd13ifvqhqg","pricing_plan_id":"cebpf4jnsgd1na2vs0mg"},{"bike_id":"cd54bb15-c3c8-4444-9af6-d6640feeef80","system_id":"levelo_inurba_marseille","lat":43.279166,"lon":5.38352,"is_reserved":false,"is_disabled":false,"rental_uris":{"android":"levelo://app?vid=cd54bb15-c3c8-4444-9af6-d6640feeef80","ios":"levelo://app?vid=cd54bb15-c3c8-4444-9af6-d6640feeef80"},"vehicle_type_id":"4","last_reported":1730809034,"current_range_meters":26000,"station_id":"ce4bgk12rcd13ifvqbi0","pricing_plan_id":"cebpf4jnsgd1na2vs0mg"},{"bike_id":"d112ef64-8345-40dc-a437-a0aa8c5bd57d","system_id":"levelo_inurba_marseille","lat":43.30541,"lon":5.36693,"is_reserved":false,"is_disabled":false,"rental_uris":{"android":"levelo://app?vid=d112ef64-8345-40dc-a437-a0aa8c5bd57d","ios":"levelo://app?vid=d112ef64-8345-40dc-a437-a0aa8c5bd57d"},"vehicle_type_id":"4","last_reported":1730809034,"current_range_meters":39200,"station_id":"ce4bgrp2rcd13ifvqc9g","pricing_plan_id":"cebpf4jnsgd1na2vs0mg"},{"bike_id":"11077b42-689c-4dd0-bba0-e371d30c5902","system_id":"levelo_inurba_marseille","lat":43.24661,"lon":5.38156,"is_reserved":false,"is_disabled":false,"rental_uris":{"android":"levelo://app?vid=11077b42-689c-4dd0-bba0-e371d30c5902","ios":"levelo://app?vid=11077b42-689c-4dd0-bba0-e371d30c5902"},"vehicle_type_id":"4","last_reported":1730809034,"current_range_meters":12800,"station_id":"ce4bhih2rcd13ifvqfr0","pricing_plan_id":"cebpf4jnsgd1na2vs0mg"},{"bike_id":"00db643c-5868-4206-be55-7a08f1b86e96","system_id":"levelo_inurba_marseille","lat":43.23177,"lon":5.39984,"is_reserved":false,"is_disabled":false,"rental_uris":{"android":"levelo://app?vid=00db643c-5868-4206-be55-7a08f1b86e96","ios":"levelo://app?vid=00db643c-5868-4206-be55-7a08f1b86e96"},"vehicle_type_id":"4","last_reported":1730809034,"current_range_meters":20400,"station_id":"ce4bhn12rcd13ifvqgqg","pricing_plan_id":"cebpf4jnsgd1na2vs0mg"},{"bike_id":"08b2dda7-31f0-43cd-a581-85b80e9b27a5","system_id":"levelo_inurba_marseille","lat":43.24073,"lon":5.37757,"is_reserved":false,"is_disabled":false,"rental_uris":{"android":"levelo://app?vid=08b2dda7-31f0-43cd-a581-85b80e9b27a5","ios":"levelo://app?vid=08b2dda7-31f0-43cd-a581-85b80e9b27a5"},"vehicle_type_id":"4","last_reported":1730809034,"current_range_meters":17600,"station_id":"ce4bhnp2rcd13ifvqgvg","pricing_plan_id":"cebpf4jnsgd1na2vs0mg"},{"bike_id":"adf94568-f560-4501-938c-780d1b506fa8","system_id":"levelo_inurba_marseille","lat":43.31381,"lon":5.36714,"is_reserved":false,"is_disabled":false,"rental_uris":{"android":"levelo://app?vid=adf94568-f560-4501-938c-780d1b506fa8","ios":"levelo://app?vid=adf94568-f560-4501-938c-780d1b506fa8"},"vehicle_type_id":"4","last_reported":1730809034,"current_range_meters":34000,"station_id":"ce4bgr92rcd13ifvqc6g","pricing_plan_id":"cebpf4jnsgd1na2vs0mg"},{"bike_id":"beeae66c-7894-4cf9-9d95-1e2be3aebaeb","system_id":"levelo_inurba_marseille","lat":43.30482,"lon":5.37904,"is_reserved":false,"is_disabled":false,"rental_uris":{"android":"levelo://app?vid=beeae66c-7894-4cf9-9d95-1e2be3aebaeb","ios":"levelo://app?vid=beeae66c-7894-4cf9-9d95-1e2be3aebaeb"},"vehicle_type_id":"4","last_reported":1730809034,"current_range_meters":38800,"station_id":"ce4bgup2rcd13ifvqcn0","pricing_plan_id":"cebpf4jnsgd1na2vs0mg"},{"bike_id":"4e6332c0-3dde-44f5-a3e2-5bcb34855e85","system_id":"levelo_inurba_marseille","lat":43.24066,"lon":5.3776,"is_reserved":false,"is_disabled":false,"rental_uris":{"android":"levelo://app?vid=4e6332c0-3dde-44f5-a3e2-5bcb34855e85","ios":"levelo://app?vid=4e6332c0-3dde-44f5-a3e2-5bcb34855e85"},"vehicle_type_id":"4","last_reported":1730809034,"current_range_meters":38800,"station_id":"ce4bhnp2rcd13ifvqgvg","pricing_plan_id":"cebpf4jnsgd1na2vs0mg"},{"bike_id":"d3a2d74b-227b-43e0-a669-db2d440f7cc1","system_id":"levelo_inurba_marseille","lat":43.30532,"lon":5.36535,"is_reserved":false,"is_disabled":false,"rental_uris":{"android":"levelo://app?vid=d3a2d74b-227b-43e0-a669-db2d440f7cc1","ios":"levelo://app?vid=d3a2d74b-227b-43e0-a669-db2d440f7cc1"},"vehicle_type_id":"4","last_reported":1730809034,"current_range_meters":10800,"station_id":"ce4bgs12rcd13ifvqcag","pricing_plan_id":"cebpf4jnsgd1na2vs0mg"},{"bike_id":"f9920479-8f33-4910-9fdc-916ee657b2e2","system_id":"levelo_inurba_marseille","lat":43.28457,"lon":5.35892,"is_reserved":false,"is_disabled":false,"rental_uris":{"android":"levelo://app?vid=f9920479-8f33-4910-9fdc-916ee657b2e2","ios":"levelo://app?vid=f9920479-8f33-4910-9fdc-916ee657b2e2"},"vehicle_type_id":"4","last_reported":1730809034,"current_range_meters":18800,"station_id":"ce4bhah2rcd13ifvqei0","pricing_plan_id":"cebpf4jnsgd1na2vs0mg"},{"bike_id":"be6cebf1-07ad-45b9-86d0-24747b23671a","system_id":"levelo_inurba_marseille","lat":43.29032,"lon":5.38647,"is_reserved":false,"is_disabled":false,"rental_uris":{"android":"levelo://app?vid=be6cebf1-07ad-45b9-86d0-24747b23671a","ios":"levelo://app?vid=be6cebf1-07ad-45b9-86d0-24747b23671a"},"vehicle_type_id":"4","last_reported":1730809034,"current_range_meters":24000,"station_id":"ce4bh4p2rcd13ifvqe0g","pricing_plan_id":"cebpf4jnsgd1na2vs0mg"},{"bike_id":"516768f6-5b92-4079-9c6a-49fae8ad6834","system_id":"levelo_inurba_marseille","lat":43.28368,"lon":5.38638,"is_reserved":false,"is_disabled":false,"rental_uris":{"android":"levelo://app?vid=516768f6-5b92-4079-9c6a-49fae8ad6834","ios":"levelo://app?vid=516768f6-5b92-4079-9c6a-49fae8ad6834"},"vehicle_type_id":"4","last_reported":1730809034,"current_range_meters":37600,"station_id":"ce4bh492rcd13ifvqdvg","pricing_plan_id":"cebpf4jnsgd1na2vs0mg"},{"bike_id":"03778af9-b180-4979-981d-60269a187d57","system_id":"levelo_inurba_marseille","lat":43.30472,"lon":5.37912,"is_reserved":false,"is_disabled":false,"rental_uris":{"android":"levelo://app?vid=03778af9-b180-4979-981d-60269a187d57","ios":"levelo://app?vid=03778af9-b180-4979-981d-60269a187d57"},"vehicle_type_id":"4","last_reported":1730809034,"current_range_meters":27200,"station_id":"ce4bgup2rcd13ifvqcn0","pricing_plan_id":"cebpf4jnsgd1na2vs0mg"},{"bike_id":"2dd40e8a-347a-4069-9f04-901c41b0a3c7","system_id":"levelo_inurba_marseille","lat":43.32097,"lon":5.36771,"is_reserved":false,"is_disabled":false,"rental_uris":{"android":"levelo://app?vid=2dd40e8a-347a-4069-9f04-901c41b0a3c7","ios":"levelo://app?vid=2dd40e8a-347a-4069-9f04-901c41b0a3c7"},"vehicle_type_id":"4","last_reported":1730809034,"current_range_meters":36800,"station_id":"ce4bhrh2rcd13ifvqhug","pricing_plan_id":"cebpf4jnsgd1na2vs0mg"},{"bike_id":"c6a4771e-84d2-4f66-a794-ce61b7117df1","system_id":"levelo_inurba_marseille","lat":43.29553,"lon":5.42288,"is_reserved":false,"is_disabled":false,"rental_uris":{"android":"levelo://app?vid=c6a4771e-84d2-4f66-a794-ce61b7117df1","ios":"levelo://app?vid=c6a4771e-84d2-4f66-a794-ce61b7117df1"},"vehicle_type_id":"4","last_reported":1730809034,"current_range_meters":38400,"station_id":"ce4bhph2rcd13ifvqhdg","pricing_plan_id":"cebpf4jnsgd1na2vs0mg"},{"bike_id":"38526b2a-8697-4aef-a174-e0c1be19b7a7","system_id":"levelo_inurba_marseille","lat":43.2884,"lon":5.35876,"is_reserved":false,"is_disabled":false,"rental_uris":{"android":"levelo://app?vid=38526b2a-8697-4aef-a174-e0c1be19b7a7","ios":"levelo://app?vid=38526b2a-8697-4aef-a174-e0c1be19b7a7"},"vehicle_type_id":"4","last_reported":1730809034,"current_range_meters":17200,"station_id":"ce4bhb12rcd13ifvqem0","pricing_plan_id":"cebpf4jnsgd1na2vs0mg"},{"bike_id":"67dab935-1b71-438c-83ee-d4f8ffbef4c9","system_id":"levelo_inurba_marseille","lat":43.32478,"lon":5.36559,"is_reserved":false,"is_disabled":false,"rental_uris":{"android":"levelo://app?vid=67dab935-1b71-438c-83ee-d4f8ffbef4c9","ios":"levelo://app?vid=67dab935-1b71-438c-83ee-d4f8ffbef4c9"},"vehicle_type_id":"4","last_reported":1730809034,"current_range_meters":24400,"station_id":"ce4bhs12rcd13ifvqhvg","pricing_plan_id":"cebpf4jnsgd1na2vs0mg"},{"bike_id":"d9b3d6f1-66ba-41c6-b7dd-0ea5c4eedf17","system_id":"levelo_inurba_marseille","lat":43.30591,"lon":5.39356,"is_reserved":false,"is_disabled":false,"rental_uris":{"android":"levelo://app?vid=d9b3d6f1-66ba-41c6-b7dd-0ea5c4eedf17","ios":"levelo://app?vid=d9b3d6f1-66ba-41c6-b7dd-0ea5c4eedf17"},"vehicle_type_id":"4","last_reported":1730809034,"current_range_meters":36800,"station_id":"ce4bh0p2rcd13ifvqd80","pricing_plan_id":"cebpf4jnsgd1na2vs0mg"},{"bike_id":"c8a2d708-abe4-4e54-aedc-a081f8a474e1","system_id":"levelo_inurba_marseille","lat":43.24081,"lon":5.37754,"is_reserved":false,"is_disabled":false,"rental_uris":{"android":"levelo://app?vid=c8a2d708-abe4-4e54-aedc-a081f8a474e1","ios":"levelo://app?vid=c8a2d708-abe4-4e54-aedc-a081f8a474e1"},"vehicle_type_id":"4","last_reported":1730809034,"current_range_meters":28000,"station_id":"ce4bhnp2rcd13ifvqgvg","pricing_plan_id":"cebpf4jnsgd1na2vs0mg"},{"bike_id":"97413c14-fd7e-4c2d-9b99-bbc702580346","system_id":"levelo_inurba_marseille","lat":43.29692,"lon":5.36586,"is_reserved":false,"is_disabled":false,"rental_uris":{"android":"levelo://app?vid=97413c14-fd7e-4c2d-9b99-bbc702580346","ios":"levelo://app?vid=97413c14-fd7e-4c2d-9b99-bbc702580346"},"vehicle_type_id":"4","last_reported":1730809034,"current_range_meters":39200,"station_id":"ce4bgn12rcd13ifvqbt0","pricing_plan_id":"cebpf4jnsgd1na2vs0mg"},{"bike_id":"91250bf2-829d-44d4-9abc-97013f1fe234","system_id":"levelo_inurba_marseille","lat":43.23147,"lon":5.43706,"is_reserved":false,"is_disabled":false,"rental_uris":{"android":"levelo://app?vid=91250bf2-829d-44d4-9abc-97013f1fe234","ios":"levelo://app?vid=91250bf2-829d-44d4-9abc-97013f1fe234"},"vehicle_type_id":"4","last_reported":1730809034,"current_range_meters":14400,"station_id":"ce4bhmp2rcd13ifvqgog","pricing_plan_id":"cebpf4jnsgd1na2vs0mg"},{"bike_id":"3a740aec-42a4-43b6-84a7-b9426c341c26","system_id":"levelo_inurba_marseille","lat":43.23468,"lon":5.43613,"is_reserved":false,"is_disabled":false,"rental_uris":{"android":"levelo://app?vid=3a740aec-42a4-43b6-84a7-b9426c341c26","ios":"levelo://app?vid=3a740aec-42a4-43b6-84a7-b9426c341c26"},"vehicle_type_id":"4","last_reported":1730809034,"current_range_meters":8000,"station_id":"ce4bhmp2rcd13ifvqgog","pricing_plan_id":"cebpf4jnsgd1na2vs0mg"},{"bike_id":"476b1032-3456-4e75-9225-7aec38b7121d","system_id":"levelo_inurba_marseille","lat":43.27809,"lon":5.40711,"is_reserved":false,"is_disabled":false,"rental_uris":{"android":"levelo://app?vid=476b1032-3456-4e75-9225-7aec38b7121d","ios":"levelo://app?vid=476b1032-3456-4e75-9225-7aec38b7121d"},"vehicle_type_id":"4","last_reported":1730809034,"current_range_meters":22800,"station_id":"ce4bhnh2rcd13ifvqgtg","pricing_plan_id":"cebpf4jnsgd1na2vs0mg"},{"bike_id":"fd3d7fc4-9de6-4a21-a0d2-8b3bae7b15c3","system_id":"levelo_inurba_marseille","lat":43.29975,"lon":5.38482,"is_reserved":false,"is_disabled":false,"rental_uris":{"android":"levelo://app?vid=fd3d7fc4-9de6-4a21-a0d2-8b3bae7b15c3","ios":"levelo://app?vid=fd3d7fc4-9de6-4a21-a0d2-8b3bae7b15c3"},"vehicle_type_id":"4","last_reported":1730809034,"current_range_meters":28800,"station_id":"ce4bgj92rcd13ifvqbd0","pricing_plan_id":"cebpf4jnsgd1na2vs0mg"},{"bike_id":"9ec30b6a-7ad9-4a07-aff1-3317173d6f4a","system_id":"levelo_inurba_marseille","lat":43.30132,"lon":5.39865,"is_reserved":false,"is_disabled":false,"rental_uris":{"android":"levelo://app?vid=9ec30b6a-7ad9-4a07-aff1-3317173d6f4a","ios":"levelo://app?vid=9ec30b6a-7ad9-4a07-aff1-3317173d6f4a"},"vehicle_type_id":"4","last_reported":1730809034,"current_range_meters":38800,"station_id":"ce4bh0h2rcd13ifvqd40","pricing_plan_id":"cebpf4jnsgd1na2vs0mg"},{"bike_id":"d0a0f3c0-34f6-4bea-9bb7-7ec1a9549e31","system_id":"levelo_inurba_marseille","lat":43.30905,"lon":5.36847,"is_reserved":false,"is_disabled":false,"rental_uris":{"android":"levelo://app?vid=d0a0f3c0-34f6-4bea-9bb7-7ec1a9549e31","ios":"levelo://app?vid=d0a0f3c0-34f6-4bea-9bb7-7ec1a9549e31"},"vehicle_type_id":"4","last_reported":1730809034,"current_range_meters":30800,"station_id":"ce4bgn92rcd13ifvqbvg","pricing_plan_id":"cebpf4jnsgd1na2vs0mg"},{"bike_id":"98ecf52e-74c6-45bc-a5b2-06c6ca5d158c","system_id":"levelo_inurba_marseille","lat":43.30907,"lon":5.36845,"is_reserved":false,"is_disabled":false,"rental_uris":{"android":"levelo://app?vid=98ecf52e-74c6-45bc-a5b2-06c6ca5d158c","ios":"levelo://app?vid=98ecf52e-74c6-45bc-a5b2-06c6ca5d158c"},"vehicle_type_id":"4","last_reported":1730809034,"current_range_meters":39200,"station_id":"ce4bgn92rcd13ifvqbvg","pricing_plan_id":"cebpf4jnsgd1na2vs0mg"},{"bike_id":"0d6389f7-bab8-4ebf-ad74-7e0fecb405b9","system_id":"levelo_inurba_marseille","lat":43.31346,"lon":5.36712,"is_reserved":false,"is_disabled":false,"rental_uris":{"android":"levelo://app?vid=0d6389f7-bab8-4ebf-ad74-7e0fecb405b9","ios":"levelo://app?vid=0d6389f7-bab8-4ebf-ad74-7e0fecb405b9"},"vehicle_type_id":"4","last_reported":1730809034,"current_range_meters":34800,"station_id":"ce4bgr92rcd13ifvqc6g","pricing_plan_id":"cebpf4jnsgd1na2vs0mg"},{"bike_id":"e6735868-8301-4816-ab7f-64a1857e3448","system_id":"levelo_inurba_marseille","lat":43.27834,"lon":5.39195,"is_reserved":false,"is_disabled":false,"rental_uris":{"android":"levelo://app?vid=e6735868-8301-4816-ab7f-64a1857e3448","ios":"levelo://app?vid=e6735868-8301-4816-ab7f-64a1857e3448"},"vehicle_type_id":"4","last_reported":1730809034,"current_range_meters":39200,"station_id":"ce4bhjp2rcd13ifvqga0","pricing_plan_id":"cebpf4jnsgd1na2vs0mg"},{"bike_id":"7eb93390-02cc-4740-a3ee-7753a699b9fc","system_id":"levelo_inurba_marseille","lat":43.299063,"lon":5.381527,"is_reserved":false,"is_disabled":false,"rental_uris":{"android":"levelo://app?vid=7eb93390-02cc-4740-a3ee-7753a699b9fc","ios":"levelo://app?vid=7eb93390-02cc-4740-a3ee-7753a699b9fc"},"vehicle_type_id":"4","last_reported":1730809034,"current_range_meters":27600,"station_id":"ce4bgj12rcd13ifvqbc0","pricing_plan_id":"cebpf4jnsgd1na2vs0mg"},{"bike_id":"2eac1b37-6523-49bd-a9dd-e97d9d8f39c0","system_id":"levelo_inurba_marseille","lat":43.31064,"lon":5.3834,"is_reserved":false,"is_disabled":false,"rental_uris":{"android":"levelo://app?vid=2eac1b37-6523-49bd-a9dd-e97d9d8f39c0","ios":"levelo://app?vid=2eac1b37-6523-49bd-a9dd-e97d9d8f39c0"},"vehicle_type_id":"4","last_reported":1730809034,"current_range_meters":17200,"station_id":"ce4bgv92rcd13ifvqcr0","pricing_plan_id":"cebpf4jnsgd1na2vs0mg"},{"bike_id":"57dc1851-fedf-4cdd-bc6f-b37982c5d615","system_id":"levelo_inurba_marseille","lat":43.30458,"lon":5.37903,"is_reserved":false,"is_disabled":false,"rental_uris":{"android":"levelo://app?vid=57dc1851-fedf-4cdd-bc6f-b37982c5d615","ios":"levelo://app?vid=57dc1851-fedf-4cdd-bc6f-b37982c5d615"},"vehicle_type_id":"4","last_reported":1730809034,"current_range_meters":32000,"station_id":"ce4bgup2rcd13ifvqcn0","pricing_plan_id":"cebpf4jnsgd1na2vs0mg"},{"bike_id":"c2a98ce7-309e-44d4-b320-7eb8023c8eee","system_id":"levelo_inurba_marseille","lat":43.295283,"lon":5.390395,"is_reserved":false,"is_disabled":false,"rental_uris":{"android":"levelo://app?vid=c2a98ce7-309e-44d4-b320-7eb8023c8eee","ios":"levelo://app?vid=c2a98ce7-309e-44d4-b320-7eb8023c8eee"},"vehicle_type_id":"4","last_reported":1730809034,"current_range_meters":3200,"station_id":"ce4bh3p2rcd13ifvqdp0","pricing_plan_id":"cebpf4jnsgd1na2vs0mg"},{"bike_id":"a60270ca-2e04-4024-8250-8680b01a8c21","system_id":"levelo_inurba_marseille","lat":43.271667,"lon":5.392002,"is_reserved":false,"is_disabled":false,"rental_uris":{"android":"levelo://app?vid=a60270ca-2e04-4024-8250-8680b01a8c21","ios":"levelo://app?vid=a60270ca-2e04-4024-8250-8680b01a8c21"},"vehicle_type_id":"4","last_reported":1730809034,"current_range_meters":14400,"station_id":"ce4bhhp2rcd13ifvqfm0","pricing_plan_id":"cebpf4jnsgd1na2vs0mg"},{"bike_id":"bb2a4429-a66d-4b85-894a-584997903358","system_id":"levelo_inurba_marseille","lat":43.29014,"lon":5.38125,"is_reserved":false,"is_disabled":false,"rental_uris":{"android":"levelo://app?vid=bb2a4429-a66d-4b85-894a-584997903358","ios":"levelo://app?vid=bb2a4429-a66d-4b85-894a-584997903358"},"vehicle_type_id":"4","last_reported":1730809034,"current_range_meters":32800,"station_id":"ce4bh4p2rcd13ifvqe1g","pricing_plan_id":"cebpf4jnsgd1na2vs0mg"},{"bike_id":"a15c8dcb-aed8-431b-99d0-f42930f56307","system_id":"levelo_inurba_marseille","lat":43.28418,"lon":5.34973,"is_reserved":false,"is_disabled":false,"rental_uris":{"android":"levelo://app?vid=a15c8dcb-aed8-431b-99d0-f42930f56307","ios":"levelo://app?vid=a15c8dcb-aed8-431b-99d0-f42930f56307"},"vehicle_type_id":"4","last_reported":1730809034,"current_range_meters":27200,"station_id":"ce4bhbh2rcd13ifvqepg","pricing_plan_id":"cebpf4jnsgd1na2vs0mg"},{"bike_id":"fe796459-84c9-43e4-ad8f-972dec02413c","system_id":"levelo_inurba_marseille","lat":43.29968,"lon":5.38493,"is_reserved":false,"is_disabled":false,"rental_uris":{"android":"levelo://app?vid=fe796459-84c9-43e4-ad8f-972dec02413c","ios":"levelo://app?vid=fe796459-84c9-43e4-ad8f-972dec02413c"},"vehicle_type_id":"4","last_reported":1730809034,"current_range_meters":38800,"station_id":"ce4bgj92rcd13ifvqbd0","pricing_plan_id":"cebpf4jnsgd1na2vs0mg"},{"bike_id":"e1bc639a-30c5-4b3a-9181-d4f8bc2861be","system_id":"levelo_inurba_marseille","lat":43.2794,"lon":5.41046,"is_reserved":false,"is_disabled":false,"rental_uris":{"android":"levelo://app?vid=e1bc639a-30c5-4b3a-9181-d4f8bc2861be","ios":"levelo://app?vid=e1bc639a-30c5-4b3a-9181-d4f8bc2861be"},"vehicle_type_id":"4","last_reported":1730809034,"current_range_meters":27600,"station_id":"ce4bhnp2rcd13ifvqh0g","pricing_plan_id":"cebpf4jnsgd1na2vs0mg"},{"bike_id":"15de2ca6-28c5-4f21-a946-3c35db8b327d","system_id":"levelo_inurba_marseille","lat":43.24077,"lon":5.37752,"is_reserved":false,"is_disabled":false,"rental_uris":{"android":"levelo://app?vid=15de2ca6-28c5-4f21-a946-3c35db8b327d","ios":"levelo://app?vid=15de2ca6-28c5-4f21-a946-3c35db8b327d"},"vehicle_type_id":"4","last_reported":1730809034,"current_range_meters":32000,"station_id":"ce4bhnp2rcd13ifvqgvg","pricing_plan_id":"cebpf4jnsgd1na2vs0mg"},{"bike_id":"075810ce-87e1-40c2-b0a6-9c968e4c6f6e","system_id":"levelo_inurba_marseille","lat":43.27429,"lon":5.39406,"is_reserved":false,"is_disabled":false,"rental_uris":{"android":"levelo://app?vid=075810ce-87e1-40c2-b0a6-9c968e4c6f6e","ios":"levelo://app?vid=075810ce-87e1-40c2-b0a6-9c968e4c6f6e"},"vehicle_type_id":"4","last_reported":1730809034,"current_range_meters":18000,"station_id":"ce4bhdp2rcd13ifvqf20","pricing_plan_id":"cebpf4jnsgd1na2vs0mg"},{"bike_id":"225c749a-6f56-4ff9-9ec7-1b609acad786","system_id":"levelo_inurba_marseille","lat":43.3031,"lon":5.36885,"is_reserved":false,"is_disabled":false,"rental_uris":{"android":"levelo://app?vid=225c749a-6f56-4ff9-9ec7-1b609acad786","ios":"levelo://app?vid=225c749a-6f56-4ff9-9ec7-1b609acad786"},"vehicle_type_id":"4","last_reported":1730809034,"current_range_meters":18000,"station_id":"ce4bgqh2rcd13ifvqc5g","pricing_plan_id":"cebpf4jnsgd1na2vs0mg"},{"bike_id":"16ae9290-db9a-4317-b34b-8b26fa9930fd","system_id":"levelo_inurba_marseille","lat":43.23148,"lon":5.43703,"is_reserved":false,"is_disabled":false,"rental_uris":{"android":"levelo://app?vid=16ae9290-db9a-4317-b34b-8b26fa9930fd","ios":"levelo://app?vid=16ae9290-db9a-4317-b34b-8b26fa9930fd"},"vehicle_type_id":"4","last_reported":1730809034,"current_range_meters":28400,"station_id":"ce4bhmp2rcd13ifvqgog","pricing_plan_id":"cebpf4jnsgd1na2vs0mg"},{"bike_id":"3c4490fb-798d-411d-abd0-0e0a2bfded04","system_id":"levelo_inurba_marseille","lat":43.28464,"lon":5.35887,"is_reserved":false,"is_disabled":false,"rental_uris":{"android":"levelo://app?vid=3c4490fb-798d-411d-abd0-0e0a2bfded04","ios":"levelo://app?vid=3c4490fb-798d-411d-abd0-0e0a2bfded04"},"vehicle_type_id":"4","last_reported":1730809034,"current_range_meters":10800,"station_id":"ce4bhah2rcd13ifvqei0","pricing_plan_id":"cebpf4jnsgd1na2vs0mg"},{"bike_id":"77f75c58-df77-4d1f-b372-5b5eed455101","system_id":"levelo_inurba_marseille","lat":43.30531,"lon":5.36538,"is_reserved":false,"is_disabled":false,"rental_uris":{"android":"levelo://app?vid=77f75c58-df77-4d1f-b372-5b5eed455101","ios":"levelo://app?vid=77f75c58-df77-4d1f-b372-5b5eed455101"},"vehicle_type_id":"4","last_reported":1730809034,"current_range_meters":39200,"station_id":"ce4bgs12rcd13ifvqcag","pricing_plan_id":"cebpf4jnsgd1na2vs0mg"},{"bike_id":"23ddf6b7-63f6-41f7-a867-e52589caa855","system_id":"levelo_inurba_marseille","lat":43.32473,"lon":5.36564,"is_reserved":false,"is_disabled":false,"rental_uris":{"android":"levelo://app?vid=23ddf6b7-63f6-41f7-a867-e52589caa855","ios":"levelo://app?vid=23ddf6b7-63f6-41f7-a867-e52589caa855"},"vehicle_type_id":"4","last_reported":1730809034,"current_range_meters":25200,"station_id":"ce4bhs12rcd13ifvqhvg","pricing_plan_id":"cebpf4jnsgd1na2vs0mg"},{"bike_id":"d7eba0bc-553a-47d4-8bc6-a467f428147a","system_id":"levelo_inurba_marseille","lat":43.31356,"lon":5.36719,"is_reserved":false,"is_disabled":false,"rental_uris":{"android":"levelo://app?vid=d7eba0bc-553a-47d4-8bc6-a467f428147a","ios":"levelo://app?vid=d7eba0bc-553a-47d4-8bc6-a467f428147a"},"vehicle_type_id":"4","last_reported":1730809034,"current_range_meters":30000,"station_id":"ce4bgr92rcd13ifvqc6g","pricing_plan_id":"cebpf4jnsgd1na2vs0mg"},{"bike_id":"da0d24fd-2313-4922-b0b2-d3ea01a9cc55","system_id":"levelo_inurba_marseille","lat":43.29872,"lon":5.38904,"is_reserved":false,"is_disabled":false,"rental_uris":{"android":"levelo://app?vid=da0d24fd-2313-4922-b0b2-d3ea01a9cc55","ios":"levelo://app?vid=da0d24fd-2313-4922-b0b2-d3ea01a9cc55"},"vehicle_type_id":"4","last_reported":1730809034,"current_range_meters":15200,"station_id":"ce4bh392rcd13ifvqdl0","pricing_plan_id":"cebpf4jnsgd1na2vs0mg"},{"bike_id":"4c2613b1-21c5-47be-875a-915c4a1173cc","system_id":"levelo_inurba_marseille","lat":43.29577,"lon":5.37519,"is_reserved":false,"is_disabled":false,"rental_uris":{"android":"levelo://app?vid=4c2613b1-21c5-47be-875a-915c4a1173cc","ios":"levelo://app?vid=4c2613b1-21c5-47be-875a-915c4a1173cc"},"vehicle_type_id":"4","last_reported":1730809034,"current_range_meters":22800,"station_id":"ce4bgh92rcd13ifvqb50","pricing_plan_id":"cebpf4jnsgd1na2vs0mg"},{"bike_id":"bb254295-6b2f-47fa-b542-f768ed4879ee","system_id":"levelo_inurba_marseille","lat":43.23153,"lon":5.43708,"is_reserved":false,"is_disabled":false,"rental_uris":{"android":"levelo://app?vid=bb254295-6b2f-47fa-b542-f768ed4879ee","ios":"levelo://app?vid=bb254295-6b2f-47fa-b542-f768ed4879ee"},"vehicle_type_id":"4","last_reported":1730809034,"current_range_meters":17600,"station_id":"ce4bhmp2rcd13ifvqgog","pricing_plan_id":"cebpf4jnsgd1na2vs0mg"},{"bike_id":"9d77ffc3-1d32-4b8f-af13-c75dc39aee03","system_id":"levelo_inurba_marseille","lat":43.28345,"lon":5.381,"is_reserved":false,"is_disabled":false,"rental_uris":{"android":"levelo://app?vid=9d77ffc3-1d32-4b8f-af13-c75dc39aee03","ios":"levelo://app?vid=9d77ffc3-1d32-4b8f-af13-c75dc39aee03"},"vehicle_type_id":"4","last_reported":1730809034,"current_range_meters":28800,"station_id":"ce4bh412rcd13ifvqdr0","pricing_plan_id":"cebpf4jnsgd1na2vs0mg"},{"bike_id":"ff667aa2-147a-4a47-b6ea-40549b50c928","system_id":"levelo_inurba_marseille","lat":43.23152,"lon":5.43717,"is_reserved":false,"is_disabled":false,"rental_uris":{"android":"levelo://app?vid=ff667aa2-147a-4a47-b6ea-40549b50c928","ios":"levelo://app?vid=ff667aa2-147a-4a47-b6ea-40549b50c928"},"vehicle_type_id":"4","last_reported":1730809034,"current_range_meters":32000,"station_id":"ce4bhmp2rcd13ifvqgog","pricing_plan_id":"cebpf4jnsgd1na2vs0mg"},{"bike_id":"3014b212-974c-466c-9aff-e44359b0d1ec","system_id":"levelo_inurba_marseille","lat":43.28937,"lon":5.36637,"is_reserved":false,"is_disabled":false,"rental_uris":{"android":"levelo://app?vid=3014b212-974c-466c-9aff-e44359b0d1ec","ios":"levelo://app?vid=3014b212-974c-466c-9aff-e44359b0d1ec"},"vehicle_type_id":"4","last_reported":1730809034,"current_range_meters":38800,"station_id":"ce4bhap2rcd13ifvqek0","pricing_plan_id":"cebpf4jnsgd1na2vs0mg"},{"bike_id":"3477c73d-62b8-4edf-adfe-25d6f1325f7f","system_id":"levelo_inurba_marseille","lat":43.26959,"lon":5.38636,"is_reserved":false,"is_disabled":false,"rental_uris":{"android":"levelo://app?vid=3477c73d-62b8-4edf-adfe-25d6f1325f7f","ios":"levelo://app?vid=3477c73d-62b8-4edf-adfe-25d6f1325f7f"},"vehicle_type_id":"4","last_reported":1730809034,"current_range_meters":18000,"station_id":"ce4bhh92rcd13ifvqfh0","pricing_plan_id":"cebpf4jnsgd1na2vs0mg"},{"bike_id":"e139ab86-b172-466a-9a97-38bfbf53b1b6","system_id":"levelo_inurba_marseille","lat":43.24388,"lon":5.37061,"is_reserved":false,"is_disabled":false,"rental_uris":{"android":"levelo://app?vid=e139ab86-b172-466a-9a97-38bfbf53b1b6","ios":"levelo://app?vid=e139ab86-b172-466a-9a97-38bfbf53b1b6"},"vehicle_type_id":"4","last_reported":1730809034,"current_range_meters":37600,"station_id":"ce4bhhh2rcd13ifvqfk0","pricing_plan_id":"cebpf4jnsgd1na2vs0mg"},{"bike_id":"84522275-f1b5-4710-88b3-826bfb25b843","system_id":"levelo_inurba_marseille","lat":43.33408,"lon":5.41008,"is_reserved":false,"is_disabled":false,"rental_uris":{"android":"levelo://app?vid=84522275-f1b5-4710-88b3-826bfb25b843","ios":"levelo://app?vid=84522275-f1b5-4710-88b3-826bfb25b843"},"vehicle_type_id":"4","last_reported":1730809034,"current_range_meters":14800,"station_id":"","pricing_plan_id":"cebpf4jnsgd1na2vs0mg"},{"bike_id":"1b1f4f61-8dd4-492d-8617-7b7a2c60fa4d","system_id":"levelo_inurba_marseille","lat":43.29281,"lon":5.40113,"is_reserved":false,"is_disabled":false,"rental_uris":{"android":"levelo://app?vid=1b1f4f61-8dd4-492d-8617-7b7a2c60fa4d","ios":"levelo://app?vid=1b1f4f61-8dd4-492d-8617-7b7a2c60fa4d"},"vehicle_type_id":"4","last_reported":1730809034,"current_range_meters":30400,"station_id":"ce4bh312rcd13ifvqdk0","pricing_plan_id":"cebpf4jnsgd1na2vs0mg"},{"bike_id":"0a3c1a6b-eadc-4e53-adb5-ce60bbc39060","system_id":"levelo_inurba_marseille","lat":43.3302,"lon":5.39035,"is_reserved":false,"is_disabled":false,"rental_uris":{"android":"levelo://app?vid=0a3c1a6b-eadc-4e53-adb5-ce60bbc39060","ios":"levelo://app?vid=0a3c1a6b-eadc-4e53-adb5-ce60bbc39060"},"vehicle_type_id":"4","last_reported":1730809034,"current_range_meters":4000,"station_id":"ce4bhr92rcd13ifvqhrg","pricing_plan_id":"cebpf4jnsgd1na2vs0mg"},{"bike_id":"a3bbb043-6bb9-4f1e-adc9-58cb8bda5cf9","system_id":"levelo_inurba_marseille","lat":43.24084,"lon":5.37745,"is_reserved":false,"is_disabled":false,"rental_uris":{"android":"levelo://app?vid=a3bbb043-6bb9-4f1e-adc9-58cb8bda5cf9","ios":"levelo://app?vid=a3bbb043-6bb9-4f1e-adc9-58cb8bda5cf9"},"vehicle_type_id":"4","last_reported":1730809034,"current_range_meters":24800,"station_id":"ce4bhnp2rcd13ifvqgvg","pricing_plan_id":"cebpf4jnsgd1na2vs0mg"},{"bike_id":"68808481-52a6-4cb1-b2aa-ee04b0b4e21a","system_id":"levelo_inurba_marseille","lat":43.29575,"lon":5.39967,"is_reserved":false,"is_disabled":false,"rental_uris":{"android":"levelo://app?vid=68808481-52a6-4cb1-b2aa-ee04b0b4e21a","ios":"levelo://app?vid=68808481-52a6-4cb1-b2aa-ee04b0b4e21a"},"vehicle_type_id":"4","last_reported":1730809034,"current_range_meters":28400,"station_id":"ce4bh312rcd13ifvqdj0","pricing_plan_id":"cebpf4jnsgd1na2vs0mg"},{"bike_id":"95531c4f-62e0-4fae-ae5c-d98ddccd82c5","system_id":"levelo_inurba_marseille","lat":43.29196,"lon":5.39323,"is_reserved":false,"is_disabled":false,"rental_uris":{"android":"levelo://app?vid=95531c4f-62e0-4fae-ae5c-d98ddccd82c5","ios":"levelo://app?vid=95531c4f-62e0-4fae-ae5c-d98ddccd82c5"},"vehicle_type_id":"4","last_reported":1730809034,"current_range_meters":30800,"station_id":"ce4bh192rcd13ifvqdd0","pricing_plan_id":"cebpf4jnsgd1na2vs0mg"},{"bike_id":"154acfee-d67d-4e4b-8812-97f42357517d","system_id":"levelo_inurba_marseille","lat":43.27807,"lon":5.40708,"is_reserved":false,"is_disabled":false,"rental_uris":{"android":"levelo://app?vid=154acfee-d67d-4e4b-8812-97f42357517d","ios":"levelo://app?vid=154acfee-d67d-4e4b-8812-97f42357517d"},"vehicle_type_id":"4","last_reported":1730809034,"current_range_meters":20000,"station_id":"ce4bhnh2rcd13ifvqgtg","pricing_plan_id":"cebpf4jnsgd1na2vs0mg"},{"bike_id":"c50677bd-2648-4b2c-a85d-fa9aec0be895","system_id":"levelo_inurba_marseille","lat":43.3055,"lon":5.36524,"is_reserved":false,"is_disabled":false,"rental_uris":{"android":"levelo://app?vid=c50677bd-2648-4b2c-a85d-fa9aec0be895","ios":"levelo://app?vid=c50677bd-2648-4b2c-a85d-fa9aec0be895"},"vehicle_type_id":"4","last_reported":1730809034,"current_range_meters":39200,"station_id":"ce4bgs12rcd13ifvqcag","pricing_plan_id":"cebpf4jnsgd1na2vs0mg"},{"bike_id":"e20042a3-679d-432e-bbad-615f69049412","system_id":"levelo_inurba_marseille","lat":43.2315,"lon":5.43708,"is_reserved":false,"is_disabled":false,"rental_uris":{"android":"levelo://app?vid=e20042a3-679d-432e-bbad-615f69049412","ios":"levelo://app?vid=e20042a3-679d-432e-bbad-615f69049412"},"vehicle_type_id":"4","last_reported":1730809034,"current_range_meters":28000,"station_id":"ce4bhmp2rcd13ifvqgog","pricing_plan_id":"cebpf4jnsgd1na2vs0mg"},{"bike_id":"47a64d21-5ac6-4cb0-9d7a-360d0b956e6c","system_id":"levelo_inurba_marseille","lat":43.3027,"lon":5.37705,"is_reserved":false,"is_disabled":false,"rental_uris":{"android":"levelo://app?vid=47a64d21-5ac6-4cb0-9d7a-360d0b956e6c","ios":"levelo://app?vid=47a64d21-5ac6-4cb0-9d7a-360d0b956e6c"},"vehicle_type_id":"4","last_reported":1730809034,"current_range_meters":6800,"station_id":"ce4bguh2rcd13ifvqcj0","pricing_plan_id":"cebpf4jnsgd1na2vs0mg"},{"bike_id":"0364ef51-c7bc-42b0-96db-5ed05474de36","system_id":"levelo_inurba_marseille","lat":43.26807,"lon":5.4026,"is_reserved":false,"is_disabled":false,"rental_uris":{"android":"levelo://app?vid=0364ef51-c7bc-42b0-96db-5ed05474de36","ios":"levelo://app?vid=0364ef51-c7bc-42b0-96db-5ed05474de36"},"vehicle_type_id":"4","last_reported":1730809034,"current_range_meters":38400,"station_id":"ce501612rcd8frsf0b60","pricing_plan_id":"cebpf4jnsgd1na2vs0mg"},{"bike_id":"f6fac252-bcfe-4359-8cd8-84ee90eebb7d","system_id":"levelo_inurba_marseille","lat":43.30526,"lon":5.36538,"is_reserved":false,"is_disabled":false,"rental_uris":{"android":"levelo://app?vid=f6fac252-bcfe-4359-8cd8-84ee90eebb7d","ios":"levelo://app?vid=f6fac252-bcfe-4359-8cd8-84ee90eebb7d"},"vehicle_type_id":"4","last_reported":1730809034,"current_range_meters":39200,"station_id":"ce4bgs12rcd13ifvqcag","pricing_plan_id":"cebpf4jnsgd1na2vs0mg"},{"bike_id":"5bede538-ed1f-4b26-8c4e-a62081b30444","system_id":"levelo_inurba_marseille","lat":43.28346,"lon":5.38099,"is_reserved":false,"is_disabled":false,"rental_uris":{"android":"levelo://app?vid=5bede538-ed1f-4b26-8c4e-a62081b30444","ios":"levelo://app?vid=5bede538-ed1f-4b26-8c4e-a62081b30444"},"vehicle_type_id":"4","last_reported":1730809034,"current_range_meters":5600,"station_id":"ce4bh412rcd13ifvqdr0","pricing_plan_id":"cebpf4jnsgd1na2vs0mg"},{"bike_id":"660f9ab5-0ee6-45bd-9ba0-20f4579b8e99","system_id":"levelo_inurba_marseille","lat":43.336,"lon":5.41014,"is_reserved":false,"is_disabled":false,"rental_uris":{"android":"levelo://app?vid=660f9ab5-0ee6-45bd-9ba0-20f4579b8e99","ios":"levelo://app?vid=660f9ab5-0ee6-45bd-9ba0-20f4579b8e99"},"vehicle_type_id":"4","last_reported":1730809034,"current_range_meters":40000,"station_id":"ce4bhqh2rcd13ifvqhmg","pricing_plan_id":"cebpf4jnsgd1na2vs0mg"},{"bike_id":"ae041007-e592-4090-bb3e-17b320956fec","system_id":"levelo_inurba_marseille","lat":43.2407,"lon":5.3775,"is_reserved":false,"is_disabled":false,"rental_uris":{"android":"levelo://app?vid=ae041007-e592-4090-bb3e-17b320956fec","ios":"levelo://app?vid=ae041007-e592-4090-bb3e-17b320956fec"},"vehicle_type_id":"4","last_reported":1730809034,"current_range_meters":24800,"station_id":"ce4bhnp2rcd13ifvqgvg","pricing_plan_id":"cebpf4jnsgd1na2vs0mg"},{"bike_id":"ea26ad50-635b-4b18-ac75-1aa4a0ea8bad","system_id":"levelo_inurba_marseille","lat":43.28848,"lon":5.35851,"is_reserved":false,"is_disabled":false,"rental_uris":{"android":"levelo://app?vid=ea26ad50-635b-4b18-ac75-1aa4a0ea8bad","ios":"levelo://app?vid=ea26ad50-635b-4b18-ac75-1aa4a0ea8bad"},"vehicle_type_id":"4","last_reported":1730809034,"current_range_meters":20800,"station_id":"ce4bhb12rcd13ifvqem0","pricing_plan_id":"cebpf4jnsgd1na2vs0mg"},{"bike_id":"fc7e1c38-5ceb-4fb3-9afa-990ebfb95007","system_id":"levelo_inurba_marseille","lat":43.23147,"lon":5.43707,"is_reserved":false,"is_disabled":false,"rental_uris":{"android":"levelo://app?vid=fc7e1c38-5ceb-4fb3-9afa-990ebfb95007","ios":"levelo://app?vid=fc7e1c38-5ceb-4fb3-9afa-990ebfb95007"},"vehicle_type_id":"4","last_reported":1730809034,"current_range_meters":28000,"station_id":"ce4bhmp2rcd13ifvqgog","pricing_plan_id":"cebpf4jnsgd1na2vs0mg"},{"bike_id":"f0502a74-f760-4523-b0e2-7da984754373","system_id":"levelo_inurba_marseille","lat":43.30132,"lon":5.3877,"is_reserved":false,"is_disabled":false,"rental_uris":{"android":"levelo://app?vid=f0502a74-f760-4523-b0e2-7da984754373","ios":"levelo://app?vid=f0502a74-f760-4523-b0e2-7da984754373"},"vehicle_type_id":"4","last_reported":1730809034,"current_range_meters":6400,"station_id":"ce4bghh2rcd13ifvqb60","pricing_plan_id":"cebpf4jnsgd1na2vs0mg"},{"bike_id":"9d149bad-125e-465c-a872-af15c1fd706b","system_id":"levelo_inurba_marseille","lat":43.26676,"lon":5.38267,"is_reserved":false,"is_disabled":false,"rental_uris":{"android":"levelo://app?vid=9d149bad-125e-465c-a872-af15c1fd706b","ios":"levelo://app?vid=9d149bad-125e-465c-a872-af15c1fd706b"},"vehicle_type_id":"4","last_reported":1730809034,"current_range_meters":14400,"station_id":"ce4bhg92rcd13ifvqf90","pricing_plan_id":"cebpf4jnsgd1na2vs0mg"},{"bike_id":"94767d64-6cce-4bdd-a274-3194a009e90b","system_id":"levelo_inurba_marseille","lat":43.29931,"lon":5.36529,"is_reserved":false,"is_disabled":false,"rental_uris":{"android":"levelo://app?vid=94767d64-6cce-4bdd-a274-3194a009e90b","ios":"levelo://app?vid=94767d64-6cce-4bdd-a274-3194a009e90b"},"vehicle_type_id":"4","last_reported":1730809034,"current_range_meters":32000,"station_id":"ce4bgm92rcd13ifvqbr0","pricing_plan_id":"cebpf4jnsgd1na2vs0mg"},{"bike_id":"a877f168-9a15-4b36-a038-092ce3dec66e","system_id":"levelo_inurba_marseille","lat":43.30603,"lon":5.37222,"is_reserved":false,"is_disabled":false,"rental_uris":{"android":"levelo://app?vid=a877f168-9a15-4b36-a038-092ce3dec66e","ios":"levelo://app?vid=a877f168-9a15-4b36-a038-092ce3dec66e"},"vehicle_type_id":"4","last_reported":1730809034,"current_range_meters":39200,"station_id":"ce4bgqh2rcd13ifvqc4g","pricing_plan_id":"cebpf4jnsgd1na2vs0mg"},{"bike_id":"d78d84a9-89a5-4a94-8b32-5d185f1b617d","system_id":"levelo_inurba_marseille","lat":43.24662,"lon":5.38151,"is_reserved":false,"is_disabled":false,"rental_uris":{"android":"levelo://app?vid=d78d84a9-89a5-4a94-8b32-5d185f1b617d","ios":"levelo://app?vid=d78d84a9-89a5-4a94-8b32-5d185f1b617d"},"vehicle_type_id":"4","last_reported":1730809034,"current_range_meters":7200,"station_id":"ce4bhih2rcd13ifvqfr0","pricing_plan_id":"cebpf4jnsgd1na2vs0mg"},{"bike_id":"823967de-5ba0-4689-8bf8-641b466fd8b1","system_id":"levelo_inurba_marseille","lat":43.23195,"lon":5.35556,"is_reserved":false,"is_disabled":false,"rental_uris":{"android":"levelo://app?vid=823967de-5ba0-4689-8bf8-641b466fd8b1","ios":"levelo://app?vid=823967de-5ba0-4689-8bf8-641b466fd8b1"},"vehicle_type_id":"4","last_reported":1730809034,"current_range_meters":39200,"station_id":"ce4bhu92rcd13ifvqi70","pricing_plan_id":"cebpf4jnsgd1na2vs0mg"},{"bike_id":"389203b7-e0c2-42df-a2a8-d67322dd70d4","system_id":"levelo_inurba_marseille","lat":43.2861,"lon":5.35108,"is_reserved":false,"is_disabled":false,"rental_uris":{"android":"levelo://app?vid=389203b7-e0c2-42df-a2a8-d67322dd70d4","ios":"levelo://app?vid=389203b7-e0c2-42df-a2a8-d67322dd70d4"},"vehicle_type_id":"4","last_reported":1730809034,"current_range_meters":20000,"station_id":"ce4bhch2rcd13ifvqeug","pricing_plan_id":"cebpf4jnsgd1na2vs0mg"},{"bike_id":"df2000e4-7ce1-46ba-980f-a90a63f2d7a2","system_id":"levelo_inurba_marseille","lat":43.29848,"lon":5.36283,"is_reserved":false,"is_disabled":false,"rental_uris":{"android":"levelo://app?vid=df2000e4-7ce1-46ba-980f-a90a63f2d7a2","ios":"levelo://app?vid=df2000e4-7ce1-46ba-980f-a90a63f2d7a2"},"vehicle_type_id":"4","last_reported":1730809034,"current_range_meters":36800,"station_id":"ce4bgpp2rcd13ifvqc3g","pricing_plan_id":"cebpf4jnsgd1na2vs0mg"},{"bike_id":"80321231-d2f0-42fa-8d09-af9526df13b5","system_id":"levelo_inurba_marseille","lat":43.26808,"lon":5.40246,"is_reserved":false,"is_disabled":false,"rental_uris":{"android":"levelo://app?vid=80321231-d2f0-42fa-8d09-af9526df13b5","ios":"levelo://app?vid=80321231-d2f0-42fa-8d09-af9526df13b5"},"vehicle_type_id":"4","last_reported":1730809034,"current_range_meters":28400,"station_id":"ce501612rcd8frsf0b60","pricing_plan_id":"cebpf4jnsgd1na2vs0mg"},{"bike_id":"3ce5e845-beb6-4d19-b7db-a6a2159a0e7a","system_id":"levelo_inurba_marseille","lat":43.30582,"lon":5.37259,"is_reserved":false,"is_disabled":false,"rental_uris":{"android":"levelo://app?vid=3ce5e845-beb6-4d19-b7db-a6a2159a0e7a","ios":"levelo://app?vid=3ce5e845-beb6-4d19-b7db-a6a2159a0e7a"},"vehicle_type_id":"4","last_reported":1730809034,"current_range_meters":14800,"station_id":"","pricing_plan_id":"cebpf4jnsgd1na2vs0mg"},{"bike_id":"83f940ec-b063-4afc-8304-f237c7cccd10","system_id":"levelo_inurba_marseille","lat":43.28702,"lon":5.39981,"is_reserved":false,"is_disabled":false,"rental_uris":{"android":"levelo://app?vid=83f940ec-b063-4afc-8304-f237c7cccd10","ios":"levelo://app?vid=83f940ec-b063-4afc-8304-f237c7cccd10"},"vehicle_type_id":"4","last_reported":1730809034,"current_range_meters":28400,"station_id":"ce4bho92rcd13ifvqh3g","pricing_plan_id":"cebpf4jnsgd1na2vs0mg"},{"bike_id":"5158ba3e-48af-43e2-b258-e1fba81efd21","system_id":"levelo_inurba_marseille","lat":43.30213,"lon":5.39464,"is_reserved":false,"is_disabled":false,"rental_uris":{"android":"levelo://app?vid=5158ba3e-48af-43e2-b258-e1fba81efd21","ios":"levelo://app?vid=5158ba3e-48af-43e2-b258-e1fba81efd21"},"vehicle_type_id":"4","last_reported":1730809034,"current_range_meters":34000,"station_id":"ce4bh0p2rcd13ifvqd70","pricing_plan_id":"cebpf4jnsgd1na2vs0mg"},{"bike_id":"f673997e-68b7-4d93-8d68-b27fbb49d0b9","system_id":"levelo_inurba_marseille","lat":43.33602,"lon":5.41026,"is_reserved":false,"is_disabled":false,"rental_uris":{"android":"levelo://app?vid=f673997e-68b7-4d93-8d68-b27fbb49d0b9","ios":"levelo://app?vid=f673997e-68b7-4d93-8d68-b27fbb49d0b9"},"vehicle_type_id":"4","last_reported":1730809034,"current_range_meters":36400,"station_id":"ce4bhqh2rcd13ifvqhmg","pricing_plan_id":"cebpf4jnsgd1na2vs0mg"},{"bike_id":"e7874ce2-f692-46c5-87b4-56890b100158","system_id":"levelo_inurba_marseille","lat":43.23062,"lon":5.35494,"is_reserved":false,"is_disabled":false,"rental_uris":{"android":"levelo://app?vid=e7874ce2-f692-46c5-87b4-56890b100158","ios":"levelo://app?vid=e7874ce2-f692-46c5-87b4-56890b100158"},"vehicle_type_id":"4","last_reported":1730809034,"current_range_meters":38800,"station_id":"cpo3342slgdg3j2ifvpg","pricing_plan_id":"cebpf4jnsgd1na2vs0mg"},{"bike_id":"f535cfa7-af66-4581-bf1b-0b636d06197c","system_id":"levelo_inurba_marseille","lat":43.27913,"lon":5.39584,"is_reserved":false,"is_disabled":false,"rental_uris":{"android":"levelo://app?vid=f535cfa7-af66-4581-bf1b-0b636d06197c","ios":"levelo://app?vid=f535cfa7-af66-4581-bf1b-0b636d06197c"},"vehicle_type_id":"4","last_reported":1730809034,"current_range_meters":18800,"station_id":"ce4bhf92rcd13ifvqf40","pricing_plan_id":"cebpf4jnsgd1na2vs0mg"},{"bike_id":"a6b470c9-d823-44bc-baa3-d9eb5e2efbd3","system_id":"levelo_inurba_marseille","lat":43.28153,"lon":5.42635,"is_reserved":false,"is_disabled":false,"rental_uris":{"android":"levelo://app?vid=a6b470c9-d823-44bc-baa3-d9eb5e2efbd3","ios":"levelo://app?vid=a6b470c9-d823-44bc-baa3-d9eb5e2efbd3"},"vehicle_type_id":"4","last_reported":1730809034,"current_range_meters":7200,"station_id":"ce4bhnh2rcd13ifvqgug","pricing_plan_id":"cebpf4jnsgd1na2vs0mg"},{"bike_id":"16981f37-763d-4020-8b97-62a50000a553","system_id":"levelo_inurba_marseille","lat":43.29933,"lon":5.36491,"is_reserved":false,"is_disabled":false,"rental_uris":{"android":"levelo://app?vid=16981f37-763d-4020-8b97-62a50000a553","ios":"levelo://app?vid=16981f37-763d-4020-8b97-62a50000a553"},"vehicle_type_id":"4","last_reported":1730809034,"current_range_meters":30000,"station_id":"ce4bgm92rcd13ifvqbr0","pricing_plan_id":"cebpf4jnsgd1na2vs0mg"},{"bike_id":"02ac6d13-31a3-4e95-8442-de73fdc111e3","system_id":"levelo_inurba_marseille","lat":43.28412,"lon":5.37498,"is_reserved":false,"is_disabled":false,"rental_uris":{"android":"levelo://app?vid=02ac6d13-31a3-4e95-8442-de73fdc111e3","ios":"levelo://app?vid=02ac6d13-31a3-4e95-8442-de73fdc111e3"},"vehicle_type_id":"4","last_reported":1730809034,"current_range_meters":24000,"station_id":"ce4bh412rcd13ifvqds0","pricing_plan_id":"cebpf4jnsgd1na2vs0mg"},{"bike_id":"3c750673-371a-4900-a67a-6cc1746c8e1c","system_id":"levelo_inurba_marseille","lat":43.29231,"lon":5.38956,"is_reserved":false,"is_disabled":false,"rental_uris":{"android":"levelo://app?vid=3c750673-371a-4900-a67a-6cc1746c8e1c","ios":"levelo://app?vid=3c750673-371a-4900-a67a-6cc1746c8e1c"},"vehicle_type_id":"4","last_reported":1730809034,"current_range_meters":16000,"station_id":"ce4bh412rcd13ifvqdr0","pricing_plan_id":"cebpf4jnsgd1na2vs0mg"},{"bike_id":"c864c025-b3b0-4077-aaf8-410eaac1ccba","system_id":"levelo_inurba_marseille","lat":43.29846,"lon":5.36281,"is_reserved":false,"is_disabled":false,"rental_uris":{"android":"levelo://app?vid=c864c025-b3b0-4077-aaf8-410eaac1ccba","ios":"levelo://app?vid=c864c025-b3b0-4077-aaf8-410eaac1ccba"},"vehicle_type_id":"4","last_reported":1730809034,"current_range_meters":11200,"station_id":"ce4bgpp2rcd13ifvqc3g","pricing_plan_id":"cebpf4jnsgd1na2vs0mg"},{"bike_id":"8ed0bc65-d8bb-44e8-a2a3-d8ffe6bbb970","system_id":"levelo_inurba_marseille","lat":43.30601,"lon":5.39361,"is_reserved":false,"is_disabled":false,"rental_uris":{"android":"levelo://app?vid=8ed0bc65-d8bb-44e8-a2a3-d8ffe6bbb970","ios":"levelo://app?vid=8ed0bc65-d8bb-44e8-a2a3-d8ffe6bbb970"},"vehicle_type_id":"4","last_reported":1730809034,"current_range_meters":27600,"station_id":"ce4bh0p2rcd13ifvqd80","pricing_plan_id":"cebpf4jnsgd1na2vs0mg"},{"bike_id":"c00bea07-7fca-48ff-b2cb-06a7ad838c9c","system_id":"levelo_inurba_marseille","lat":43.30547,"lon":5.36524,"is_reserved":false,"is_disabled":false,"rental_uris":{"android":"levelo://app?vid=c00bea07-7fca-48ff-b2cb-06a7ad838c9c","ios":"levelo://app?vid=c00bea07-7fca-48ff-b2cb-06a7ad838c9c"},"vehicle_type_id":"4","last_reported":1730809034,"current_range_meters":38800,"station_id":"ce4bgs12rcd13ifvqcag","pricing_plan_id":"cebpf4jnsgd1na2vs0mg"},{"bike_id":"55ce4fa5-0520-4d67-962c-77bb96a3cd93","system_id":"levelo_inurba_marseille","lat":43.31523,"lon":5.38038,"is_reserved":false,"is_disabled":false,"rental_uris":{"android":"levelo://app?vid=55ce4fa5-0520-4d67-962c-77bb96a3cd93","ios":"levelo://app?vid=55ce4fa5-0520-4d67-962c-77bb96a3cd93"},"vehicle_type_id":"4","last_reported":1730809034,"current_range_meters":32000,"station_id":"ce4bhsp2rcd13ifvqi50","pricing_plan_id":"cebpf4jnsgd1na2vs0mg"},{"bike_id":"b592aa30-9f80-4f5b-a0ff-da2be38dcc1f","system_id":"levelo_inurba_marseille","lat":43.32108,"lon":5.36777,"is_reserved":false,"is_disabled":false,"rental_uris":{"android":"levelo://app?vid=b592aa30-9f80-4f5b-a0ff-da2be38dcc1f","ios":"levelo://app?vid=b592aa30-9f80-4f5b-a0ff-da2be38dcc1f"},"vehicle_type_id":"4","last_reported":1730809034,"current_range_meters":38400,"station_id":"ce4bhrh2rcd13ifvqhug","pricing_plan_id":"cebpf4jnsgd1na2vs0mg"},{"bike_id":"c2df6276-d0ea-475d-9ce8-c77644565570","system_id":"levelo_inurba_marseille","lat":43.33765,"lon":5.37429,"is_reserved":false,"is_disabled":false,"rental_uris":{"android":"levelo://app?vid=c2df6276-d0ea-475d-9ce8-c77644565570","ios":"levelo://app?vid=c2df6276-d0ea-475d-9ce8-c77644565570"},"vehicle_type_id":"4","last_reported":1730809034,"current_range_meters":38800,"station_id":"","pricing_plan_id":"cebpf4jnsgd1na2vs0mg"},{"bike_id":"79dc6371-9f69-4ba8-abf4-03c6ad162c4f","system_id":"levelo_inurba_marseille","lat":43.29936,"lon":5.36522,"is_reserved":false,"is_disabled":false,"rental_uris":{"android":"levelo://app?vid=79dc6371-9f69-4ba8-abf4-03c6ad162c4f","ios":"levelo://app?vid=79dc6371-9f69-4ba8-abf4-03c6ad162c4f"},"vehicle_type_id":"4","last_reported":1730809034,"current_range_meters":30800,"station_id":"ce4bgm92rcd13ifvqbr0","pricing_plan_id":"cebpf4jnsgd1na2vs0mg"},{"bike_id":"eab47ed5-f83a-4939-80d1-ff052743bdd1","system_id":"levelo_inurba_marseille","lat":43.32107,"lon":5.36776,"is_reserved":false,"is_disabled":false,"rental_uris":{"android":"levelo://app?vid=eab47ed5-f83a-4939-80d1-ff052743bdd1","ios":"levelo://app?vid=eab47ed5-f83a-4939-80d1-ff052743bdd1"},"vehicle_type_id":"4","last_reported":1730809034,"current_range_meters":30800,"station_id":"ce4bhrh2rcd13ifvqhug","pricing_plan_id":"cebpf4jnsgd1na2vs0mg"},{"bike_id":"74183364-55e2-4b2c-b572-a7211acd9644","system_id":"levelo_inurba_marseille","lat":43.28408,"lon":5.37511,"is_reserved":false,"is_disabled":false,"rental_uris":{"android":"levelo://app?vid=74183364-55e2-4b2c-b572-a7211acd9644","ios":"levelo://app?vid=74183364-55e2-4b2c-b572-a7211acd9644"},"vehicle_type_id":"4","last_reported":1730809034,"current_range_meters":28400,"station_id":"ce4bh412rcd13ifvqds0","pricing_plan_id":"cebpf4jnsgd1na2vs0mg"},{"bike_id":"d2979422-671c-4335-952d-4cbf20fc6976","system_id":"levelo_inurba_marseille","lat":43.30462,"lon":5.37905,"is_reserved":false,"is_disabled":false,"rental_uris":{"android":"levelo://app?vid=d2979422-671c-4335-952d-4cbf20fc6976","ios":"levelo://app?vid=d2979422-671c-4335-952d-4cbf20fc6976"},"vehicle_type_id":"4","last_reported":1730809034,"current_range_meters":35200,"station_id":"ce4bgup2rcd13ifvqcn0","pricing_plan_id":"cebpf4jnsgd1na2vs0mg"},{"bike_id":"2f2097ca-f3d2-48e8-9617-aeaded5ef148","system_id":"levelo_inurba_marseille","lat":43.308826,"lon":5.396475,"is_reserved":false,"is_disabled":false,"rental_uris":{"android":"levelo://app?vid=2f2097ca-f3d2-48e8-9617-aeaded5ef148","ios":"levelo://app?vid=2f2097ca-f3d2-48e8-9617-aeaded5ef148"},"vehicle_type_id":"4","last_reported":1730809034,"current_range_meters":22800,"station_id":"ce4bh012rcd13ifvqcv0","pricing_plan_id":"cebpf4jnsgd1na2vs0mg"},{"bike_id":"d209b447-cbb8-4ee8-b360-9577dfaa222f","system_id":"levelo_inurba_marseille","lat":43.23145,"lon":5.43711,"is_reserved":false,"is_disabled":false,"rental_uris":{"android":"levelo://app?vid=d209b447-cbb8-4ee8-b360-9577dfaa222f","ios":"levelo://app?vid=d209b447-cbb8-4ee8-b360-9577dfaa222f"},"vehicle_type_id":"4","last_reported":1730809034,"current_range_meters":17200,"station_id":"ce4bhmp2rcd13ifvqgog","pricing_plan_id":"cebpf4jnsgd1na2vs0mg"},{"bike_id":"f3ec276e-9291-4f79-afb4-5112f30eb835","system_id":"levelo_inurba_marseille","lat":43.27151,"lon":5.39204,"is_reserved":false,"is_disabled":false,"rental_uris":{"android":"levelo://app?vid=f3ec276e-9291-4f79-afb4-5112f30eb835","ios":"levelo://app?vid=f3ec276e-9291-4f79-afb4-5112f30eb835"},"vehicle_type_id":"4","last_reported":1730809034,"current_range_meters":38000,"station_id":"ce4bhlh2rcd13ifvqgig","pricing_plan_id":"cebpf4jnsgd1na2vs0mg"},{"bike_id":"6ff4eb35-e037-4a26-90c4-e2a2ab31163d","system_id":"levelo_inurba_marseille","lat":43.28458,"lon":5.35883,"is_reserved":false,"is_disabled":false,"rental_uris":{"android":"levelo://app?vid=6ff4eb35-e037-4a26-90c4-e2a2ab31163d","ios":"levelo://app?vid=6ff4eb35-e037-4a26-90c4-e2a2ab31163d"},"vehicle_type_id":"4","last_reported":1730809034,"current_range_meters":37600,"station_id":"ce4bhah2rcd13ifvqei0","pricing_plan_id":"cebpf4jnsgd1na2vs0mg"},{"bike_id":"ea43565c-4dbb-442a-ac20-b496c2733246","system_id":"levelo_inurba_marseille","lat":43.29931,"lon":5.36542,"is_reserved":false,"is_disabled":false,"rental_uris":{"android":"levelo://app?vid=ea43565c-4dbb-442a-ac20-b496c2733246","ios":"levelo://app?vid=ea43565c-4dbb-442a-ac20-b496c2733246"},"vehicle_type_id":"4","last_reported":1730809034,"current_range_meters":14800,"station_id":"ce4bgm92rcd13ifvqbr0","pricing_plan_id":"cebpf4jnsgd1na2vs0mg"},{"bike_id":"a1dbcfde-2e95-4f39-a6e3-bf3a89cde94c","system_id":"levelo_inurba_marseille","lat":43.24813,"lon":5.39206,"is_reserved":false,"is_disabled":false,"rental_uris":{"android":"levelo://app?vid=a1dbcfde-2e95-4f39-a6e3-bf3a89cde94c","ios":"levelo://app?vid=a1dbcfde-2e95-4f39-a6e3-bf3a89cde94c"},"vehicle_type_id":"4","last_reported":1730809034,"current_range_meters":19600,"station_id":"","pricing_plan_id":"cebpf4jnsgd1na2vs0mg"},{"bike_id":"6b9c8e86-2474-4b66-81a7-223ea94d838a","system_id":"levelo_inurba_marseille","lat":43.30791,"lon":5.37644,"is_reserved":false,"is_disabled":false,"rental_uris":{"android":"levelo://app?vid=6b9c8e86-2474-4b66-81a7-223ea94d838a","ios":"levelo://app?vid=6b9c8e86-2474-4b66-81a7-223ea94d838a"},"vehicle_type_id":"4","last_reported":1730809034,"current_range_meters":32400,"station_id":"ce4bgv92rcd13ifvqcq0","pricing_plan_id":"cebpf4jnsgd1na2vs0mg"},{"bike_id":"3560c5ce-d02f-4630-8b3a-5ae2ad7fb9b3","system_id":"levelo_inurba_marseille","lat":43.24073,"lon":5.37761,"is_reserved":false,"is_disabled":false,"rental_uris":{"android":"levelo://app?vid=3560c5ce-d02f-4630-8b3a-5ae2ad7fb9b3","ios":"levelo://app?vid=3560c5ce-d02f-4630-8b3a-5ae2ad7fb9b3"},"vehicle_type_id":"4","last_reported":1730809034,"current_range_meters":24800,"station_id":"ce4bhnp2rcd13ifvqgvg","pricing_plan_id":"cebpf4jnsgd1na2vs0mg"},{"bike_id":"8bee51ce-2e07-4b28-a4c6-04213fdf5d10","system_id":"levelo_inurba_marseille","lat":43.28932,"lon":5.3664,"is_reserved":false,"is_disabled":false,"rental_uris":{"android":"levelo://app?vid=8bee51ce-2e07-4b28-a4c6-04213fdf5d10","ios":"levelo://app?vid=8bee51ce-2e07-4b28-a4c6-04213fdf5d10"},"vehicle_type_id":"4","last_reported":1730809034,"current_range_meters":6800,"station_id":"ce4bhap2rcd13ifvqek0","pricing_plan_id":"cebpf4jnsgd1na2vs0mg"},{"bike_id":"2b7c7838-0b38-48ff-a34b-04cd5d917cba","system_id":"levelo_inurba_marseille","lat":43.29579,"lon":5.36731,"is_reserved":false,"is_disabled":false,"rental_uris":{"android":"levelo://app?vid=2b7c7838-0b38-48ff-a34b-04cd5d917cba","ios":"levelo://app?vid=2b7c7838-0b38-48ff-a34b-04cd5d917cba"},"vehicle_type_id":"4","last_reported":1730809034,"current_range_meters":20400,"station_id":"ce4bgph2rcd13ifvqc2g","pricing_plan_id":"cebpf4jnsgd1na2vs0mg"},{"bike_id":"c3522a7c-0a85-45f9-bf1c-406d500c4c45","system_id":"levelo_inurba_marseille","lat":43.29275,"lon":5.40123,"is_reserved":false,"is_disabled":false,"rental_uris":{"android":"levelo://app?vid=c3522a7c-0a85-45f9-bf1c-406d500c4c45","ios":"levelo://app?vid=c3522a7c-0a85-45f9-bf1c-406d500c4c45"},"vehicle_type_id":"4","last_reported":1730809034,"current_range_meters":37600,"station_id":"ce4bh312rcd13ifvqdk0","pricing_plan_id":"cebpf4jnsgd1na2vs0mg"},{"bike_id":"423d5629-60ea-46cc-8398-d31d7c9a3239","system_id":"levelo_inurba_marseille","lat":43.23954,"lon":5.36621,"is_reserved":false,"is_disabled":false,"rental_uris":{"android":"levelo://app?vid=423d5629-60ea-46cc-8398-d31d7c9a3239","ios":"levelo://app?vid=423d5629-60ea-46cc-8398-d31d7c9a3239"},"vehicle_type_id":"4","last_reported":1730809034,"current_range_meters":38800,"station_id":"ce4bhi12rcd13ifvqfp0","pricing_plan_id":"cebpf4jnsgd1na2vs0mg"},{"bike_id":"f7726949-f964-48ba-acf3-14399da191ef","system_id":"levelo_inurba_marseille","lat":43.26677,"lon":5.38265,"is_reserved":false,"is_disabled":false,"rental_uris":{"android":"levelo://app?vid=f7726949-f964-48ba-acf3-14399da191ef","ios":"levelo://app?vid=f7726949-f964-48ba-acf3-14399da191ef"},"vehicle_type_id":"4","last_reported":1730809034,"current_range_meters":24000,"station_id":"ce4bhg92rcd13ifvqf90","pricing_plan_id":"cebpf4jnsgd1na2vs0mg"},{"bike_id":"9e2e0b9b-3bb9-4dbe-b672-534a5e4d7877","system_id":"levelo_inurba_marseille","lat":43.25727,"lon":5.41105,"is_reserved":false,"is_disabled":false,"rental_uris":{"android":"levelo://app?vid=9e2e0b9b-3bb9-4dbe-b672-534a5e4d7877","ios":"levelo://app?vid=9e2e0b9b-3bb9-4dbe-b672-534a5e4d7877"},"vehicle_type_id":"4","last_reported":1730809034,"current_range_meters":18000,"station_id":"ce4bhkp2rcd13ifvqgd0","pricing_plan_id":"cebpf4jnsgd1na2vs0mg"},{"bike_id":"db31db70-cc20-4b5f-acb8-538f14a09b27","system_id":"levelo_inurba_marseille","lat":43.23187,"lon":5.39983,"is_reserved":false,"is_disabled":false,"rental_uris":{"android":"levelo://app?vid=db31db70-cc20-4b5f-acb8-538f14a09b27","ios":"levelo://app?vid=db31db70-cc20-4b5f-acb8-538f14a09b27"},"vehicle_type_id":"4","last_reported":1730809034,"current_range_meters":35600,"station_id":"ce4bhn12rcd13ifvqgqg","pricing_plan_id":"cebpf4jnsgd1na2vs0mg"},{"bike_id":"83202b92-ed63-498a-ac29-ab5c07f6150c","system_id":"levelo_inurba_marseille","lat":43.231852,"lon":5.435957,"is_reserved":false,"is_disabled":false,"rental_uris":{"android":"levelo://app?vid=83202b92-ed63-498a-ac29-ab5c07f6150c","ios":"levelo://app?vid=83202b92-ed63-498a-ac29-ab5c07f6150c"},"vehicle_type_id":"4","last_reported":1730809034,"current_range_meters":38800,"station_id":"","pricing_plan_id":"cebpf4jnsgd1na2vs0mg"},{"bike_id":"903a102e-8a75-40d7-b067-1c2f31b5bda3","system_id":"levelo_inurba_marseille","lat":43.28945,"lon":5.36633,"is_reserved":false,"is_disabled":false,"rental_uris":{"android":"levelo://app?vid=903a102e-8a75-40d7-b067-1c2f31b5bda3","ios":"levelo://app?vid=903a102e-8a75-40d7-b067-1c2f31b5bda3"},"vehicle_type_id":"4","last_reported":1730809034,"current_range_meters":12000,"station_id":"ce4bhap2rcd13ifvqek0","pricing_plan_id":"cebpf4jnsgd1na2vs0mg"},{"bike_id":"97459457-d7e3-4234-8647-b0ee9ce3bbf5","system_id":"levelo_inurba_marseille","lat":43.283592,"lon":5.386385,"is_reserved":false,"is_disabled":false,"rental_uris":{"android":"levelo://app?vid=97459457-d7e3-4234-8647-b0ee9ce3bbf5","ios":"levelo://app?vid=97459457-d7e3-4234-8647-b0ee9ce3bbf5"},"vehicle_type_id":"4","last_reported":1730809034,"current_range_meters":36400,"station_id":"ce4bh492rcd13ifvqdvg","pricing_plan_id":"cebpf4jnsgd1na2vs0mg"},{"bike_id":"1f2f76a8-0fdc-486b-8eda-b1305e923251","system_id":"levelo_inurba_marseille","lat":43.327955,"lon":5.375021,"is_reserved":false,"is_disabled":false,"rental_uris":{"android":"levelo://app?vid=1f2f76a8-0fdc-486b-8eda-b1305e923251","ios":"levelo://app?vid=1f2f76a8-0fdc-486b-8eda-b1305e923251"},"vehicle_type_id":"4","last_reported":1730809034,"current_range_meters":38000,"station_id":"","pricing_plan_id":"cebpf4jnsgd1na2vs0mg"},{"bike_id":"d5ccd153-fd82-4c62-987f-804ec88e90ae","system_id":"levelo_inurba_marseille","lat":43.28615,"lon":5.351,"is_reserved":false,"is_disabled":false,"rental_uris":{"android":"levelo://app?vid=d5ccd153-fd82-4c62-987f-804ec88e90ae","ios":"levelo://app?vid=d5ccd153-fd82-4c62-987f-804ec88e90ae"},"vehicle_type_id":"4","last_reported":1730809034,"current_range_meters":21600,"station_id":"ce4bhch2rcd13ifvqeug","pricing_plan_id":"cebpf4jnsgd1na2vs0mg"},{"bike_id":"dbfe2793-1f32-4b26-8c24-f7c6f00bccf5","system_id":"levelo_inurba_marseille","lat":43.28373,"lon":5.38641,"is_reserved":false,"is_disabled":false,"rental_uris":{"android":"levelo://app?vid=dbfe2793-1f32-4b26-8c24-f7c6f00bccf5","ios":"levelo://app?vid=dbfe2793-1f32-4b26-8c24-f7c6f00bccf5"},"vehicle_type_id":"4","last_reported":1730809034,"current_range_meters":21600,"station_id":"ce4bh492rcd13ifvqdvg","pricing_plan_id":"cebpf4jnsgd1na2vs0mg"},{"bike_id":"cf6df2de-822d-4e4e-b602-cdb87f02952e","system_id":"levelo_inurba_marseille","lat":43.31338,"lon":5.36734,"is_reserved":false,"is_disabled":false,"rental_uris":{"android":"levelo://app?vid=cf6df2de-822d-4e4e-b602-cdb87f02952e","ios":"levelo://app?vid=cf6df2de-822d-4e4e-b602-cdb87f02952e"},"vehicle_type_id":"4","last_reported":1730809034,"current_range_meters":30400,"station_id":"ce4bgr92rcd13ifvqc6g","pricing_plan_id":"cebpf4jnsgd1na2vs0mg"},{"bike_id":"98da3ff2-1102-4e86-935a-36d01b4052a3","system_id":"levelo_inurba_marseille","lat":43.30935,"lon":5.40133,"is_reserved":false,"is_disabled":false,"rental_uris":{"android":"levelo://app?vid=98da3ff2-1102-4e86-935a-36d01b4052a3","ios":"levelo://app?vid=98da3ff2-1102-4e86-935a-36d01b4052a3"},"vehicle_type_id":"4","last_reported":1730809034,"current_range_meters":34000,"station_id":"ce4bgvp2rcd13ifvqct0","pricing_plan_id":"cebpf4jnsgd1na2vs0mg"},{"bike_id":"04575049-e232-448b-97cc-f84df2aa6e6a","system_id":"levelo_inurba_marseille","lat":43.32478,"lon":5.36561,"is_reserved":false,"is_disabled":false,"rental_uris":{"android":"levelo://app?vid=04575049-e232-448b-97cc-f84df2aa6e6a","ios":"levelo://app?vid=04575049-e232-448b-97cc-f84df2aa6e6a"},"vehicle_type_id":"4","last_reported":1730809034,"current_range_meters":40000,"station_id":"ce4bhs12rcd13ifvqhvg","pricing_plan_id":"cebpf4jnsgd1na2vs0mg"},{"bike_id":"28df973b-2047-4bb2-9547-9f05e5b41f08","system_id":"levelo_inurba_marseille","lat":43.3053,"lon":5.36532,"is_reserved":false,"is_disabled":false,"rental_uris":{"android":"levelo://app?vid=28df973b-2047-4bb2-9547-9f05e5b41f08","ios":"levelo://app?vid=28df973b-2047-4bb2-9547-9f05e5b41f08"},"vehicle_type_id":"4","last_reported":1730809034,"current_range_meters":22000,"station_id":"ce4bgs12rcd13ifvqcag","pricing_plan_id":"cebpf4jnsgd1na2vs0mg"},{"bike_id":"f22c28be-e544-4849-ba1e-f820e9ba98d5","system_id":"levelo_inurba_marseille","lat":43.30132,"lon":5.37405,"is_reserved":false,"is_disabled":false,"rental_uris":{"android":"levelo://app?vid=f22c28be-e544-4849-ba1e-f820e9ba98d5","ios":"levelo://app?vid=f22c28be-e544-4849-ba1e-f820e9ba98d5"},"vehicle_type_id":"4","last_reported":1730809034,"current_range_meters":25200,"station_id":"ce4bgs92rcd13ifvqcc0","pricing_plan_id":"cebpf4jnsgd1na2vs0mg"},{"bike_id":"95bdcc73-7654-4e5b-8af6-8997b0a029d3","system_id":"levelo_inurba_marseille","lat":43.30633,"lon":5.40109,"is_reserved":false,"is_disabled":false,"rental_uris":{"android":"levelo://app?vid=95bdcc73-7654-4e5b-8af6-8997b0a029d3","ios":"levelo://app?vid=95bdcc73-7654-4e5b-8af6-8997b0a029d3"},"vehicle_type_id":"4","last_reported":1730809034,"current_range_meters":39200,"station_id":"ce4bh112rcd13ifvqda0","pricing_plan_id":"cebpf4jnsgd1na2vs0mg"},{"bike_id":"01358e6b-9e32-453f-b20a-de02e9945bfa","system_id":"levelo_inurba_marseille","lat":43.26804,"lon":5.40255,"is_reserved":false,"is_disabled":false,"rental_uris":{"android":"levelo://app?vid=01358e6b-9e32-453f-b20a-de02e9945bfa","ios":"levelo://app?vid=01358e6b-9e32-453f-b20a-de02e9945bfa"},"vehicle_type_id":"4","last_reported":1730809034,"current_range_meters":12400,"station_id":"ce501612rcd8frsf0b60","pricing_plan_id":"cebpf4jnsgd1na2vs0mg"},{"bike_id":"046a9997-3297-4e11-b194-0bdfe2637495","system_id":"levelo_inurba_marseille","lat":43.27422,"lon":5.39405,"is_reserved":false,"is_disabled":false,"rental_uris":{"android":"levelo://app?vid=046a9997-3297-4e11-b194-0bdfe2637495","ios":"levelo://app?vid=046a9997-3297-4e11-b194-0bdfe2637495"},"vehicle_type_id":"4","last_reported":1730809034,"current_range_meters":38800,"station_id":"ce4bhdp2rcd13ifvqf20","pricing_plan_id":"cebpf4jnsgd1na2vs0mg"},{"bike_id":"c25ac7f9-6d4b-4292-8786-b4f165c717f2","system_id":"levelo_inurba_marseille","lat":43.27832,"lon":5.39206,"is_reserved":false,"is_disabled":false,"rental_uris":{"android":"levelo://app?vid=c25ac7f9-6d4b-4292-8786-b4f165c717f2","ios":"levelo://app?vid=c25ac7f9-6d4b-4292-8786-b4f165c717f2"},"vehicle_type_id":"4","last_reported":1730809034,"current_range_meters":17600,"station_id":"ce4bhjp2rcd13ifvqga0","pricing_plan_id":"cebpf4jnsgd1na2vs0mg"},{"bike_id":"9d816df9-9182-496c-bf91-066a850422ee","system_id":"levelo_inurba_marseille","lat":43.316722,"lon":5.403582,"is_reserved":false,"is_disabled":false,"rental_uris":{"android":"levelo://app?vid=9d816df9-9182-496c-bf91-066a850422ee","ios":"levelo://app?vid=9d816df9-9182-496c-bf91-066a850422ee"},"vehicle_type_id":"4","last_reported":1730809034,"current_range_meters":27600,"station_id":"ce4bh012rcd13ifvqd00","pricing_plan_id":"cebpf4jnsgd1na2vs0mg"},{"bike_id":"52636b92-d9ea-44ff-9c64-567863dff265","system_id":"levelo_inurba_marseille","lat":43.3414,"lon":5.40897,"is_reserved":false,"is_disabled":false,"rental_uris":{"android":"levelo://app?vid=52636b92-d9ea-44ff-9c64-567863dff265","ios":"levelo://app?vid=52636b92-d9ea-44ff-9c64-567863dff265"},"vehicle_type_id":"4","last_reported":1730809034,"current_range_meters":33600,"station_id":"ce4bhqh2rcd13ifvqhlg","pricing_plan_id":"cebpf4jnsgd1na2vs0mg"},{"bike_id":"41e1ada3-ff84-4a16-97f5-afeecd0ae284","system_id":"levelo_inurba_marseille","lat":43.28931,"lon":5.36643,"is_reserved":false,"is_disabled":false,"rental_uris":{"android":"levelo://app?vid=41e1ada3-ff84-4a16-97f5-afeecd0ae284","ios":"levelo://app?vid=41e1ada3-ff84-4a16-97f5-afeecd0ae284"},"vehicle_type_id":"4","last_reported":1730809034,"current_range_meters":36400,"station_id":"ce4bhap2rcd13ifvqek0","pricing_plan_id":"cebpf4jnsgd1na2vs0mg"},{"bike_id":"2e5b4eda-1e00-4de7-bf32-df40f4d56ed2","system_id":"levelo_inurba_marseille","lat":43.32481,"lon":5.36549,"is_reserved":false,"is_disabled":false,"rental_uris":{"android":"levelo://app?vid=2e5b4eda-1e00-4de7-bf32-df40f4d56ed2","ios":"levelo://app?vid=2e5b4eda-1e00-4de7-bf32-df40f4d56ed2"},"vehicle_type_id":"4","last_reported":1730809034,"current_range_meters":10000,"station_id":"ce4bhs12rcd13ifvqhvg","pricing_plan_id":"cebpf4jnsgd1na2vs0mg"},{"bike_id":"6d12380b-8700-4421-8338-1679227025da","system_id":"levelo_inurba_marseille","lat":43.29024,"lon":5.38131,"is_reserved":false,"is_disabled":false,"rental_uris":{"android":"levelo://app?vid=6d12380b-8700-4421-8338-1679227025da","ios":"levelo://app?vid=6d12380b-8700-4421-8338-1679227025da"},"vehicle_type_id":"4","last_reported":1730809034,"current_range_meters":38000,"station_id":"ce4bh4p2rcd13ifvqe1g","pricing_plan_id":"cebpf4jnsgd1na2vs0mg"},{"bike_id":"8c941800-34cc-4e89-8ad2-0b768395f319","system_id":"levelo_inurba_marseille","lat":43.32474,"lon":5.36559,"is_reserved":false,"is_disabled":false,"rental_uris":{"android":"levelo://app?vid=8c941800-34cc-4e89-8ad2-0b768395f319","ios":"levelo://app?vid=8c941800-34cc-4e89-8ad2-0b768395f319"},"vehicle_type_id":"4","last_reported":1730809034,"current_range_meters":19600,"station_id":"ce4bhs12rcd13ifvqhvg","pricing_plan_id":"cebpf4jnsgd1na2vs0mg"},{"bike_id":"809e03ca-aa14-440b-8349-1932fe3e6bb0","system_id":"levelo_inurba_marseille","lat":43.28266,"lon":5.35067,"is_reserved":false,"is_disabled":false,"rental_uris":{"android":"levelo://app?vid=809e03ca-aa14-440b-8349-1932fe3e6bb0","ios":"levelo://app?vid=809e03ca-aa14-440b-8349-1932fe3e6bb0"},"vehicle_type_id":"4","last_reported":1730809034,"current_range_meters":18800,"station_id":"ce4bhbp2rcd13ifvqerg","pricing_plan_id":"cebpf4jnsgd1na2vs0mg"},{"bike_id":"4dccfd74-ae33-47a6-9d39-8d14cad4d3a7","system_id":"levelo_inurba_marseille","lat":43.2781,"lon":5.40706,"is_reserved":false,"is_disabled":false,"rental_uris":{"android":"levelo://app?vid=4dccfd74-ae33-47a6-9d39-8d14cad4d3a7","ios":"levelo://app?vid=4dccfd74-ae33-47a6-9d39-8d14cad4d3a7"},"vehicle_type_id":"4","last_reported":1730809034,"current_range_meters":36800,"station_id":"ce4bhnh2rcd13ifvqgtg","pricing_plan_id":"cebpf4jnsgd1na2vs0mg"},{"bike_id":"282b4882-f9a0-4698-930e-b6dacfd6cbf4","system_id":"levelo_inurba_marseille","lat":43.24681,"lon":5.38163,"is_reserved":false,"is_disabled":false,"rental_uris":{"android":"levelo://app?vid=282b4882-f9a0-4698-930e-b6dacfd6cbf4","ios":"levelo://app?vid=282b4882-f9a0-4698-930e-b6dacfd6cbf4"},"vehicle_type_id":"4","last_reported":1730809034,"current_range_meters":17200,"station_id":"ce4bhih2rcd13ifvqfr0","pricing_plan_id":"cebpf4jnsgd1na2vs0mg"},{"bike_id":"9494fe03-7797-4a5b-bad0-c829d7816c16","system_id":"levelo_inurba_marseille","lat":43.31171,"lon":5.38717,"is_reserved":false,"is_disabled":false,"rental_uris":{"android":"levelo://app?vid=9494fe03-7797-4a5b-bad0-c829d7816c16","ios":"levelo://app?vid=9494fe03-7797-4a5b-bad0-c829d7816c16"},"vehicle_type_id":"4","last_reported":1730809034,"current_range_meters":27600,"station_id":"ce4bgv12rcd13ifvqcp0","pricing_plan_id":"cebpf4jnsgd1na2vs0mg"},{"bike_id":"b961c364-69f9-4b3b-a2e6-fc6563170e45","system_id":"levelo_inurba_marseille","lat":43.32478,"lon":5.36556,"is_reserved":false,"is_disabled":false,"rental_uris":{"android":"levelo://app?vid=b961c364-69f9-4b3b-a2e6-fc6563170e45","ios":"levelo://app?vid=b961c364-69f9-4b3b-a2e6-fc6563170e45"},"vehicle_type_id":"4","last_reported":1730809034,"current_range_meters":40000,"station_id":"ce4bhs12rcd13ifvqhvg","pricing_plan_id":"cebpf4jnsgd1na2vs0mg"},{"bike_id":"e96e73e3-3818-4d99-9caa-982ee3654d85","system_id":"levelo_inurba_marseille","lat":43.30088,"lon":5.39079,"is_reserved":false,"is_disabled":false,"rental_uris":{"android":"levelo://app?vid=e96e73e3-3818-4d99-9caa-982ee3654d85","ios":"levelo://app?vid=e96e73e3-3818-4d99-9caa-982ee3654d85"},"vehicle_type_id":"4","last_reported":1730809034,"current_range_meters":2000,"station_id":"ce4bh192rcd13ifvqdb0","pricing_plan_id":"cebpf4jnsgd1na2vs0mg"},{"bike_id":"2253ff8d-a29c-48cb-8f9d-934b5b5b03f7","system_id":"levelo_inurba_marseille","lat":43.32542,"lon":5.41432,"is_reserved":false,"is_disabled":false,"rental_uris":{"android":"levelo://app?vid=2253ff8d-a29c-48cb-8f9d-934b5b5b03f7","ios":"levelo://app?vid=2253ff8d-a29c-48cb-8f9d-934b5b5b03f7"},"vehicle_type_id":"4","last_reported":1730809034,"current_range_meters":20400,"station_id":"ce4bhq12rcd13ifvqhhg","pricing_plan_id":"cebpf4jnsgd1na2vs0mg"},{"bike_id":"00be5d2b-2f1c-4f9f-a63a-2c6b55c9b23f","system_id":"levelo_inurba_marseille","lat":43.304562,"lon":5.388831,"is_reserved":false,"is_disabled":false,"rental_uris":{"android":"levelo://app?vid=00be5d2b-2f1c-4f9f-a63a-2c6b55c9b23f","ios":"levelo://app?vid=00be5d2b-2f1c-4f9f-a63a-2c6b55c9b23f"},"vehicle_type_id":"4","last_reported":1730809034,"current_range_meters":18800,"station_id":"ce4bgk12rcd13ifvqbi0","pricing_plan_id":"cebpf4jnsgd1na2vs0mg"},{"bike_id":"9af9da37-6c67-4999-bc51-47ac21c85cac","system_id":"levelo_inurba_marseille","lat":43.26939,"lon":5.40249,"is_reserved":false,"is_disabled":false,"rental_uris":{"android":"levelo://app?vid=9af9da37-6c67-4999-bc51-47ac21c85cac","ios":"levelo://app?vid=9af9da37-6c67-4999-bc51-47ac21c85cac"},"vehicle_type_id":"4","last_reported":1730809034,"current_range_meters":23200,"station_id":"cjm6bp8fraef2m0cb0m0","pricing_plan_id":"cebpf4jnsgd1na2vs0mg"},