{"last_updated":1724094416,"ttl":30,"version":"2.2","data":{"bikes":[{"bike_id":"5d8d3f72-57d8-42c5-9112-19b11030cc52","system_id":"levelo_inurba_marseille","lat":43.313391,"lon":5.36706,"is_reserved":false,"is_disabled":false,"rental_uris":{"android":"levelo://app?vid=5d8d3f72-57d8-42c5-9112-19b11030cc52","ios":"levelo://app?vid=5d8d3f72-57d8-42c5-9112-19b11030cc52"},"vehicle_type_id":"4","last_reported":1724094416,"current_range_meters":6800,"station_id":"ce4bgr92rcd13ifvqc6g","pricing_plan_id":"cebpf4jnsgd1na2vs0mg"},{"bike_id":"4fa10ec9-047c-4526-8f76-98290d1db2e8","system_id":"levelo_inurba_marseille","lat":43.31226,"lon":5.36859,"is_reserved":false,"is_disabled":false,"rental_uris":{"android":"levelo://app?vid=4fa10ec9-047c-4526-8f76-98290d1db2e8","ios":"levelo://app?vid=4fa10ec9-047c-4526-8f76-98290d1db2e8"},"vehicle_type_id":"4","last_reported":1724094416,"current_range_meters":23200,"station_id":"ce4bgl92rcd13ifvqbq0","pricing_plan_id":"cebpf4jnsgd1na2vs0mg"},{"bike_id":"e30966e4-3231-4708-8486-cd161aed5358","system_id":"levelo_inurba_marseille","lat":43.312239,"lon":5.368562,"is_reserved":false,"is_disabled":false,"rental_uris":{"android":"levelo://app?vid=e30966e4-3231-4708-8486-cd161aed5358","ios":"levelo://app?vid=e30966e4-3231-4708-8486-cd161aed5358"},"vehicle_type_id":"4","last_reported":1724094416,"current_range_meters":13200,"station_id":"ce4bgl92rcd13ifvqbq0","pricing_plan_id":"cebpf4jnsgd1na2vs0mg"},{"bike_id":"e831dec7-daf6-42d0-b80e-cec2703ab8f9","system_id":"levelo_inurba_marseille","lat":43.314811,"lon":5.373103,"is_reserved":false,"is_disabled":false,"rental_uris":{"android":"levelo://app?vid=e831dec7-daf6-42d0-b80e-cec2703ab8f9","ios":"levelo://app?vid=e831dec7-daf6-42d0-b80e-cec2703ab8f9"},"vehicle_type_id":"4","last_reported":1724094416,"current_range_meters":0,"station_id":"ce4bgt12rcd13ifvqcd0","pricing_plan_id":"cebpf4jnsgd1na2vs0mg"},{"bike_id":"19598622-0f29-497d-b9ca-38ba88129a58","system_id":"levelo_inurba_marseille","lat":43.314811,"lon":5.373103,"is_reserved":false,"is_disabled":false,"rental_uris":{"android":"levelo://app?vid=19598622-0f29-497d-b9ca-38ba88129a58","ios":"levelo://app?vid=19598622-0f29-497d-b9ca-38ba88129a58"},"vehicle_type_id":"4","last_reported":1724094416,"current_range_meters":800,"station_id":"ce4bgt12rcd13ifvqcd0","pricing_plan_id":"cebpf4jnsgd1na2vs0mg"},{"bike_id":"4c4ec0e5-eff9-41f1-9f0d-d1c554f8b786","system_id":"levelo_inurba_marseille","lat":43.314811,"lon":5.373103,"is_reserved":false,"is_disabled":false,"rental_uris":{"android":"levelo://app?vid=4c4ec0e5-eff9-41f1-9f0d-d1c554f8b786","ios":"levelo://app?vid=4c4ec0e5-eff9-41f1-9f0d-d1c554f8b786"},"vehicle_type_id":"4","last_reported":1724094416,"current_range_meters":8400,"station_id":"ce4bgt12rcd13ifvqcd0","pricing_plan_id":"cebpf4jnsgd1na2vs0mg"},{"bike_id":"7b9ee7e8-5abe-4ae5-a03b-760beb6ef082","system_id":"levelo_inurba_marseille","lat":43.314574,"lon":5.37378,"is_reserved":false,"is_disabled":false,"rental_uris":{"android":"levelo://app?vid=7b9ee7e8-5abe-4ae5-a03b-760beb6ef082","ios":"levelo://app?vid=7b9ee7e8-5abe-4ae5-a03b-760beb6ef082"},"vehicle_type_id":"4","last_reported":1724094416,"current_range_meters":1600,"station_id":"","pricing_plan_id":"cebpf4jnsgd1na2vs0mg"},{"bike_id":"17b2ba53-e81f-46fc-b1b5-cb9299a23bf3","system_id":"levelo_inurba_marseille","lat":43.30545,"lon":5.36537,"is_reserved":false,"is_disabled":false,"rental_uris":{"android":"levelo://app?vid=17b2ba53-e81f-46fc-b1b5-cb9299a23bf3","ios":"levelo://app?vid=17b2ba53-e81f-46fc-b1b5-cb9299a23bf3"},"vehicle_type_id":"4","last_reported":1724094416,"current_range_meters":0,"station_id":"ce4bgs12rcd13ifvqcag","pricing_plan_id":"cebpf4jnsgd1na2vs0mg"},{"bike_id":"505641d8-e7aa-4705-a492-ce03aa9f6e43","system_id":"levelo_inurba_marseille","lat":43.305706,"lon":5.365654,"is_reserved":false,"is_disabled":false,"rental_uris":{"android":"levelo://app?vid=505641d8-e7aa-4705-a492-ce03aa9f6e43","ios":"levelo://app?vid=505641d8-e7aa-4705-a492-ce03aa9f6e43"},"vehicle_type_id":"4","last_reported":1724094416,"current_range_meters":7200,"station_id":"ce4bgs12rcd13ifvqcag","pricing_plan_id":"cebpf4jnsgd1na2vs0mg"},{"bike_id":"8f2edf44-104d-40a4-83fd-68c2de9deedb","system_id":"levelo_inurba_marseille","lat":43.305989,"lon":5.37225,"is_reserved":false,"is_disabled":false,"rental_uris":{"android":"levelo://app?vid=8f2edf44-104d-40a4-83fd-68c2de9deedb","ios":"levelo://app?vid=8f2edf44-104d-40a4-83fd-68c2de9deedb"},"vehicle_type_id":"4","last_reported":1724094416,"current_range_meters":21600,"station_id":"ce4bgqh2rcd13ifvqc4g","pricing_plan_id":"cebpf4jnsgd1na2vs0mg"},{"bike_id":"3b9fc835-6de8-4a4d-89be-131dd2aa409f","system_id":"levelo_inurba_marseille","lat":43.307945,"lon":5.376487,"is_reserved":false,"is_disabled":false,"rental_uris":{"android":"levelo://app?vid=3b9fc835-6de8-4a4d-89be-131dd2aa409f","ios":"levelo://app?vid=3b9fc835-6de8-4a4d-89be-131dd2aa409f"},"vehicle_type_id":"4","last_reported":1724094416,"current_range_meters":800,"station_id":"ce4bgv92rcd13ifvqcq0","pricing_plan_id":"cebpf4jnsgd1na2vs0mg"},{"bike_id":"b123cdb8-55d6-4c5b-b691-0bc9de67d700","system_id":"levelo_inurba_marseille","lat":43.307945,"lon":5.376487,"is_reserved":false,"is_disabled":false,"rental_uris":{"android":"levelo://app?vid=b123cdb8-55d6-4c5b-b691-0bc9de67d700","ios":"levelo://app?vid=b123cdb8-55d6-4c5b-b691-0bc9de67d700"},"vehicle_type_id":"4","last_reported":1724094416,"current_range_meters":0,"station_id":"ce4bgv92rcd13ifvqcq0","pricing_plan_id":"cebpf4jnsgd1na2vs0mg"},{"bike_id":"f6024a98-8be7-4b72-8803-04c22bbf535f","system_id":"levelo_inurba_marseille","lat":43.317075,"lon":5.377367,"is_reserved":false,"is_disabled":false,"rental_uris":{"android":"levelo://app?vid=f6024a98-8be7-4b72-8803-04c22bbf535f","ios":"levelo://app?vid=f6024a98-8be7-4b72-8803-04c22bbf535f"},"vehicle_type_id":"4","last_reported":1724094416,"current_range_meters":24400,"station_id":"ce4bgth2rcd13ifvqch0","pricing_plan_id":"cebpf4jnsgd1na2vs0mg"},{"bike_id":"545c8e51-e822-4604-941b-6bffe9358360","system_id":"levelo_inurba_marseille","lat":43.30929,"lon":5.37891,"is_reserved":false,"is_disabled":false,"rental_uris":{"android":"levelo://app?vid=545c8e51-e822-4604-941b-6bffe9358360","ios":"levelo://app?vid=545c8e51-e822-4604-941b-6bffe9358360"},"vehicle_type_id":"4","last_reported":1724094416,"current_range_meters":14800,"station_id":"","pricing_plan_id":"cebpf4jnsgd1na2vs0mg"},{"bike_id":"73d86558-cba7-4262-91ab-ee58379a501c","system_id":"levelo_inurba_marseille","lat":43.303046,"lon":5.368981,"is_reserved":false,"is_disabled":false,"rental_uris":{"android":"levelo://app?vid=73d86558-cba7-4262-91ab-ee58379a501c","ios":"levelo://app?vid=73d86558-cba7-4262-91ab-ee58379a501c"},"vehicle_type_id":"4","last_reported":1724094416,"current_range_meters":20800,"station_id":"ce4bgqh2rcd13ifvqc5g","pricing_plan_id":"cebpf4jnsgd1na2vs0mg"},{"bike_id":"a7fa74c4-cb07-4a0a-aadf-01ef96691219","system_id":"levelo_inurba_marseille","lat":43.31529,"lon":5.38036,"is_reserved":false,"is_disabled":false,"rental_uris":{"android":"levelo://app?vid=a7fa74c4-cb07-4a0a-aadf-01ef96691219","ios":"levelo://app?vid=a7fa74c4-cb07-4a0a-aadf-01ef96691219"},"vehicle_type_id":"4","last_reported":1724094416,"current_range_meters":6000,"station_id":"ce4bhsp2rcd13ifvqi50","pricing_plan_id":"cebpf4jnsgd1na2vs0mg"},{"bike_id":"6ca5c7d7-d4ae-42db-8d9d-0d34a84b958f","system_id":"levelo_inurba_marseille","lat":43.31527,"lon":5.38038,"is_reserved":false,"is_disabled":false,"rental_uris":{"android":"levelo://app?vid=6ca5c7d7-d4ae-42db-8d9d-0d34a84b958f","ios":"levelo://app?vid=6ca5c7d7-d4ae-42db-8d9d-0d34a84b958f"},"vehicle_type_id":"4","last_reported":1724094416,"current_range_meters":1600,"station_id":"ce4bhsp2rcd13ifvqi50","pricing_plan_id":"cebpf4jnsgd1na2vs0mg"},{"bike_id":"0fb8a651-a82b-4cfa-8e0c-eafa33a691d5","system_id":"levelo_inurba_marseille","lat":43.308012,"lon":5.381511,"is_reserved":false,"is_disabled":false,"rental_uris":{"android":"levelo://app?vid=0fb8a651-a82b-4cfa-8e0c-eafa33a691d5","ios":"levelo://app?vid=0fb8a651-a82b-4cfa-8e0c-eafa33a691d5"},"vehicle_type_id":"4","last_reported":1724094416,"current_range_meters":5600,"station_id":"ce4bgt12rcd13ifvqce0","pricing_plan_id":"cebpf4jnsgd1na2vs0mg"},{"bike_id":"86e5c166-d17d-4eae-9606-e0b836a45405","system_id":"levelo_inurba_marseille","lat":43.324771,"lon":5.36557,"is_reserved":false,"is_disabled":false,"rental_uris":{"android":"levelo://app?vid=86e5c166-d17d-4eae-9606-e0b836a45405","ios":"levelo://app?vid=86e5c166-d17d-4eae-9606-e0b836a45405"},"vehicle_type_id":"4","last_reported":1724094416,"current_range_meters":20000,"station_id":"ce4bhs12rcd13ifvqhvg","pricing_plan_id":"cebpf4jnsgd1na2vs0mg"},{"bike_id":"6043cd47-c575-4ed5-bb95-28c1518e8bc6","system_id":"levelo_inurba_marseille","lat":43.304606,"lon":5.379026,"is_reserved":false,"is_disabled":false,"rental_uris":{"android":"levelo://app?vid=6043cd47-c575-4ed5-bb95-28c1518e8bc6","ios":"levelo://app?vid=6043cd47-c575-4ed5-bb95-28c1518e8bc6"},"vehicle_type_id":"4","last_reported":1724094416,"current_range_meters":17600,"station_id":"ce4bgup2rcd13ifvqcn0","pricing_plan_id":"cebpf4jnsgd1na2vs0mg"},{"bike_id":"f03310e6-58da-480c-af70-eb1afb1bf0bb","system_id":"levelo_inurba_marseille","lat":43.304606,"lon":5.379026,"is_reserved":false,"is_disabled":false,"rental_uris":{"android":"levelo://app?vid=f03310e6-58da-480c-af70-eb1afb1bf0bb","ios":"levelo://app?vid=f03310e6-58da-480c-af70-eb1afb1bf0bb"},"vehicle_type_id":"4","last_reported":1724094416,"current_range_meters":0,"station_id":"ce4bgup2rcd13ifvqcn0","pricing_plan_id":"cebpf4jnsgd1na2vs0mg"},{"bike_id":"baa4f1c5-cd4e-4600-98ff-a3967b660f67","system_id":"levelo_inurba_marseille","lat":43.324771,"lon":5.36557,"is_reserved":false,"is_disabled":false,"rental_uris":{"android":"levelo://app?vid=baa4f1c5-cd4e-4600-98ff-a3967b660f67","ios":"levelo://app?vid=baa4f1c5-cd4e-4600-98ff-a3967b660f67"},"vehicle_type_id":"4","last_reported":1724094416,"current_range_meters":3600,"station_id":"ce4bhs12rcd13ifvqhvg","pricing_plan_id":"cebpf4jnsgd1na2vs0mg"},{"bike_id":"f6b227d0-ce0e-45d0-8119-767353c18806","system_id":"levelo_inurba_marseille","lat":43.324771,"lon":5.36557,"is_reserved":false,"is_disabled":false,"rental_uris":{"android":"levelo://app?vid=f6b227d0-ce0e-45d0-8119-767353c18806","ios":"levelo://app?vid=f6b227d0-ce0e-45d0-8119-767353c18806"},"vehicle_type_id":"4","last_reported":1724094416,"current_range_meters":8800,"station_id":"ce4bhs12rcd13ifvqhvg","pricing_plan_id":"cebpf4jnsgd1na2vs0mg"},{"bike_id":"74cdcfa2-d1a7-48b9-b3b9-11c31a517027","system_id":"levelo_inurba_marseille","lat":43.324771,"lon":5.36557,"is_reserved":false,"is_disabled":false,"rental_uris":{"android":"levelo://app?vid=74cdcfa2-d1a7-48b9-b3b9-11c31a517027","ios":"levelo://app?vid=74cdcfa2-d1a7-48b9-b3b9-11c31a517027"},"vehicle_type_id":"4","last_reported":1724094416,"current_range_meters":12000,"station_id":"ce4bhs12rcd13ifvqhvg","pricing_plan_id":"cebpf4jnsgd1na2vs0mg"},{"bike_id":"cc501147-a542-41e3-a5de-86cbb6cb56bd","system_id":"levelo_inurba_marseille","lat":43.324771,"lon":5.36557,"is_reserved":false,"is_disabled":false,"rental_uris":{"android":"levelo://app?vid=cc501147-a542-41e3-a5de-86cbb6cb56bd","ios":"levelo://app?vid=cc501147-a542-41e3-a5de-86cbb6cb56bd"},"vehicle_type_id":"4","last_reported":1724094416,"current_range_meters":27200,"station_id":"ce4bhs12rcd13ifvqhvg","pricing_plan_id":"cebpf4jnsgd1na2vs0mg"},{"bike_id":"dc18ef80-7b17-4500-950b-a5b475701f80","system_id":"levelo_inurba_marseille","lat":43.324771,"lon":5.36557,"is_reserved":false,"is_disabled":false,"rental_uris":{"android":"levelo://app?vid=dc18ef80-7b17-4500-950b-a5b475701f80","ios":"levelo://app?vid=dc18ef80-7b17-4500-950b-a5b475701f80"},"vehicle_type_id":"4","last_reported":1724094416,"current_range_meters":11600,"station_id":"ce4bhs12rcd13ifvqhvg","pricing_plan_id":"cebpf4jnsgd1na2vs0mg"},{"bike_id":"e9b7e668-0800-48a7-a988-213a8c473875","system_id":"levelo_inurba_marseille","lat":43.324771,"lon":5.36557,"is_reserved":false,"is_disabled":false,"rental_uris":{"android":"levelo://app?vid=e9b7e668-0800-48a7-a988-213a8c473875","ios":"levelo://app?vid=e9b7e668-0800-48a7-a988-213a8c473875"},"vehicle_type_id":"4","last_reported":1724094416,"current_range_meters":6400,"station_id":"ce4bhs12rcd13ifvqhvg","pricing_plan_id":"cebpf4jnsgd1na2vs0mg"},{"bike_id":"105c208c-3ad1-4f1c-8866-d32f6a344a77","system_id":"levelo_inurba_marseille","lat":43.324771,"lon":5.36557,"is_reserved":false,"is_disabled":false,"rental_uris":{"android":"levelo://app?vid=105c208c-3ad1-4f1c-8866-d32f6a344a77","ios":"levelo://app?vid=105c208c-3ad1-4f1c-8866-d32f6a344a77"},"vehicle_type_id":"4","last_reported":1724094416,"current_range_meters":29600,"station_id":"ce4bhs12rcd13ifvqhvg","pricing_plan_id":"cebpf4jnsgd1na2vs0mg"},{"bike_id":"006d918b-d366-4358-bcb1-321285afa275","system_id":"levelo_inurba_marseille","lat":43.32482,"lon":5.365598,"is_reserved":false,"is_disabled":false,"rental_uris":{"android":"levelo://app?vid=006d918b-d366-4358-bcb1-321285afa275","ios":"levelo://app?vid=006d918b-d366-4358-bcb1-321285afa275"},"vehicle_type_id":"4","last_reported":1724094416,"current_range_meters":7600,"station_id":"ce4bhs12rcd13ifvqhvg","pricing_plan_id":"cebpf4jnsgd1na2vs0mg"},{"bike_id":"e3320ad1-80fc-4357-8088-3385ae06d232","system_id":"levelo_inurba_marseille","lat":43.324771,"lon":5.36557,"is_reserved":false,"is_disabled":false,"rental_uris":{"android":"levelo://app?vid=e3320ad1-80fc-4357-8088-3385ae06d232","ios":"levelo://app?vid=e3320ad1-80fc-4357-8088-3385ae06d232"},"vehicle_type_id":"4","last_reported":1724094416,"current_range_meters":30800,"station_id":"ce4bhs12rcd13ifvqhvg","pricing_plan_id":"cebpf4jnsgd1na2vs0mg"},{"bike_id":"9da294b8-2850-4f51-9f3a-5fff040b842e","system_id":"levelo_inurba_marseille","lat":43.310804,"lon":5.38359,"is_reserved":false,"is_disabled":false,"rental_uris":{"android":"levelo://app?vid=9da294b8-2850-4f51-9f3a-5fff040b842e","ios":"levelo://app?vid=9da294b8-2850-4f51-9f3a-5fff040b842e"},"vehicle_type_id":"4","last_reported":1724094416,"current_range_meters":9200,"station_id":"ce4bgv92rcd13ifvqcr0","pricing_plan_id":"cebpf4jnsgd1na2vs0mg"},{"bike_id":"0042a4e4-94d5-47fd-b1ce-55e38b29ee49","system_id":"levelo_inurba_marseille","lat":43.310804,"lon":5.38359,"is_reserved":false,"is_disabled":false,"rental_uris":{"android":"levelo://app?vid=0042a4e4-94d5-47fd-b1ce-55e38b29ee49","ios":"levelo://app?vid=0042a4e4-94d5-47fd-b1ce-55e38b29ee49"},"vehicle_type_id":"4","last_reported":1724094416,"current_range_meters":8000,"station_id":"ce4bgv92rcd13ifvqcr0","pricing_plan_id":"cebpf4jnsgd1na2vs0mg"},{"bike_id":"47620d38-255c-4223-b4e2-70a58e6502ff","system_id":"levelo_inurba_marseille","lat":43.310804,"lon":5.38359,"is_reserved":false,"is_disabled":false,"rental_uris":{"android":"levelo://app?vid=47620d38-255c-4223-b4e2-70a58e6502ff","ios":"levelo://app?vid=47620d38-255c-4223-b4e2-70a58e6502ff"},"vehicle_type_id":"4","last_reported":1724094416,"current_range_meters":13200,"station_id":"ce4bgv92rcd13ifvqcr0","pricing_plan_id":"cebpf4jnsgd1na2vs0mg"},{"bike_id":"0e178158-57c8-4153-b3a5-5c07e32c6e86","system_id":"levelo_inurba_marseille","lat":43.302784,"lon":5.377158,"is_reserved":false,"is_disabled":false,"rental_uris":{"android":"levelo://app?vid=0e178158-57c8-4153-b3a5-5c07e32c6e86","ios":"levelo://app?vid=0e178158-57c8-4153-b3a5-5c07e32c6e86"},"vehicle_type_id":"4","last_reported":1724094416,"current_range_meters":4000,"station_id":"ce4bguh2rcd13ifvqcj0","pricing_plan_id":"cebpf4jnsgd1na2vs0mg"},{"bike_id":"566386c7-bb4e-4411-99d1-18bd356cee02","system_id":"levelo_inurba_marseille","lat":43.302784,"lon":5.377158,"is_reserved":false,"is_disabled":false,"rental_uris":{"android":"levelo://app?vid=566386c7-bb4e-4411-99d1-18bd356cee02","ios":"levelo://app?vid=566386c7-bb4e-4411-99d1-18bd356cee02"},"vehicle_type_id":"4","last_reported":1724094416,"current_range_meters":0,"station_id":"ce4bguh2rcd13ifvqcj0","pricing_plan_id":"cebpf4jnsgd1na2vs0mg"},{"bike_id":"af3836c8-f1ad-4167-8c18-4b115724f463","system_id":"levelo_inurba_marseille","lat":43.302784,"lon":5.377158,"is_reserved":false,"is_disabled":false,"rental_uris":{"android":"levelo://app?vid=af3836c8-f1ad-4167-8c18-4b115724f463","ios":"levelo://app?vid=af3836c8-f1ad-4167-8c18-4b115724f463"},"vehicle_type_id":"4","last_reported":1724094416,"current_range_meters":14800,"station_id":"ce4bguh2rcd13ifvqcj0","pricing_plan_id":"cebpf4jnsgd1na2vs0mg"},{"bike_id":"01ba689c-dce2-4fca-9501-6eefb0822b59","system_id":"levelo_inurba_marseille","lat":43.301429,"lon":5.37413,"is_reserved":false,"is_disabled":false,"rental_uris":{"android":"levelo://app?vid=01ba689c-dce2-4fca-9501-6eefb0822b59","ios":"levelo://app?vid=01ba689c-dce2-4fca-9501-6eefb0822b59"},"vehicle_type_id":"4","last_reported":1724094416,"current_range_meters":30000,"station_id":"ce4bgs92rcd13ifvqcc0","pricing_plan_id":"cebpf4jnsgd1na2vs0mg"},{"bike_id":"183a661a-e52d-49fc-8f5b-b211f7719a59","system_id":"levelo_inurba_marseille","lat":43.30137,"lon":5.37408,"is_reserved":false,"is_disabled":false,"rental_uris":{"android":"levelo://app?vid=183a661a-e52d-49fc-8f5b-b211f7719a59","ios":"levelo://app?vid=183a661a-e52d-49fc-8f5b-b211f7719a59"},"vehicle_type_id":"4","last_reported":1724094416,"current_range_meters":31200,"station_id":"ce4bgs92rcd13ifvqcc0","pricing_plan_id":"cebpf4jnsgd1na2vs0mg"},{"bike_id":"548b4cf6-67e3-4fcf-8f9a-9f31921fdc31","system_id":"levelo_inurba_marseille","lat":43.310804,"lon":5.38359,"is_reserved":false,"is_disabled":false,"rental_uris":{"android":"levelo://app?vid=548b4cf6-67e3-4fcf-8f9a-9f31921fdc31","ios":"levelo://app?vid=548b4cf6-67e3-4fcf-8f9a-9f31921fdc31"},"vehicle_type_id":"4","last_reported":1724094416,"current_range_meters":4800,"station_id":"ce4bgv92rcd13ifvqcr0","pricing_plan_id":"cebpf4jnsgd1na2vs0mg"},{"bike_id":"874e50ba-aa3e-48b7-b610-3263f4ab3eaa","system_id":"levelo_inurba_marseille","lat":43.30582,"lon":5.38193,"is_reserved":false,"is_disabled":false,"rental_uris":{"android":"levelo://app?vid=874e50ba-aa3e-48b7-b610-3263f4ab3eaa","ios":"levelo://app?vid=874e50ba-aa3e-48b7-b610-3263f4ab3eaa"},"vehicle_type_id":"4","last_reported":1724094416,"current_range_meters":21200,"station_id":"","pricing_plan_id":"cebpf4jnsgd1na2vs0mg"},{"bike_id":"0ace1675-a464-4a2e-8c17-c2ec1132b617","system_id":"levelo_inurba_marseille","lat":43.319935,"lon":5.381699,"is_reserved":false,"is_disabled":false,"rental_uris":{"android":"levelo://app?vid=0ace1675-a464-4a2e-8c17-c2ec1132b617","ios":"levelo://app?vid=0ace1675-a464-4a2e-8c17-c2ec1132b617"},"vehicle_type_id":"4","last_reported":1724094416,"current_range_meters":22000,"station_id":"ce4bhr12rcd13ifvqhpg","pricing_plan_id":"cebpf4jnsgd1na2vs0mg"},{"bike_id":"475d1fcf-5102-4da3-8085-181445fc3f20","system_id":"levelo_inurba_marseille","lat":43.313571,"lon":5.384829,"is_reserved":false,"is_disabled":false,"rental_uris":{"android":"levelo://app?vid=475d1fcf-5102-4da3-8085-181445fc3f20","ios":"levelo://app?vid=475d1fcf-5102-4da3-8085-181445fc3f20"},"vehicle_type_id":"4","last_reported":1724094416,"current_range_meters":0,"station_id":"ce4bgt92rcd13ifvqcf0","pricing_plan_id":"cebpf4jnsgd1na2vs0mg"},{"bike_id":"c2cca3e0-7aaa-4239-a392-197bc24db65f","system_id":"levelo_inurba_marseille","lat":43.313571,"lon":5.384829,"is_reserved":false,"is_disabled":false,"rental_uris":{"android":"levelo://app?vid=c2cca3e0-7aaa-4239-a392-197bc24db65f","ios":"levelo://app?vid=c2cca3e0-7aaa-4239-a392-197bc24db65f"},"vehicle_type_id":"4","last_reported":1724094416,"current_range_meters":14800,"station_id":"ce4bgt92rcd13ifvqcf0","pricing_plan_id":"cebpf4jnsgd1na2vs0mg"},{"bike_id":"938d5e3a-f6e2-408f-a0d6-1a92be98a497","system_id":"levelo_inurba_marseille","lat":43.29977,"lon":5.37172,"is_reserved":false,"is_disabled":false,"rental_uris":{"android":"levelo://app?vid=938d5e3a-f6e2-408f-a0d6-1a92be98a497","ios":"levelo://app?vid=938d5e3a-f6e2-408f-a0d6-1a92be98a497"},"vehicle_type_id":"4","last_reported":1724094416,"current_range_meters":0,"station_id":"ce4bgr92rcd13ifvqc7g","pricing_plan_id":"cebpf4jnsgd1na2vs0mg"},{"bike_id":"1873784e-4058-4c05-a6c2-e55f479c7323","system_id":"levelo_inurba_marseille","lat":43.29975,"lon":5.37183,"is_reserved":false,"is_disabled":false,"rental_uris":{"android":"levelo://app?vid=1873784e-4058-4c05-a6c2-e55f479c7323","ios":"levelo://app?vid=1873784e-4058-4c05-a6c2-e55f479c7323"},"vehicle_type_id":"4","last_reported":1724094416,"current_range_meters":31200,"station_id":"ce4bgr92rcd13ifvqc7g","pricing_plan_id":"cebpf4jnsgd1na2vs0mg"},{"bike_id":"69c2d943-f847-464b-aeee-7efe1f7d344c","system_id":"levelo_inurba_marseille","lat":43.299724,"lon":5.371829,"is_reserved":false,"is_disabled":false,"rental_uris":{"android":"levelo://app?vid=69c2d943-f847-464b-aeee-7efe1f7d344c","ios":"levelo://app?vid=69c2d943-f847-464b-aeee-7efe1f7d344c"},"vehicle_type_id":"4","last_reported":1724094416,"current_range_meters":28400,"station_id":"ce4bgr92rcd13ifvqc7g","pricing_plan_id":"cebpf4jnsgd1na2vs0mg"},{"bike_id":"9ed28bd8-09f5-4325-9ee8-0878d0f62205","system_id":"levelo_inurba_marseille","lat":43.299222,"lon":5.365554,"is_reserved":false,"is_disabled":false,"rental_uris":{"android":"levelo://app?vid=9ed28bd8-09f5-4325-9ee8-0878d0f62205","ios":"levelo://app?vid=9ed28bd8-09f5-4325-9ee8-0878d0f62205"},"vehicle_type_id":"4","last_reported":1724094416,"current_range_meters":31200,"station_id":"ce4bgm92rcd13ifvqbr0","pricing_plan_id":"cebpf4jnsgd1na2vs0mg"},{"bike_id":"3c394abc-a4a2-4b8e-a9c7-d471ce611fc4","system_id":"levelo_inurba_marseille","lat":43.298433,"lon":5.362774,"is_reserved":false,"is_disabled":false,"rental_uris":{"android":"levelo://app?vid=3c394abc-a4a2-4b8e-a9c7-d471ce611fc4","ios":"levelo://app?vid=3c394abc-a4a2-4b8e-a9c7-d471ce611fc4"},"vehicle_type_id":"4","last_reported":1724094416,"current_range_meters":0,"station_id":"ce4bgpp2rcd13ifvqc3g","pricing_plan_id":"cebpf4jnsgd1na2vs0mg"},{"bike_id":"c3666a23-6e14-43c8-a506-6cbb1c982eaf","system_id":"levelo_inurba_marseille","lat":43.298433,"lon":5.362774,"is_reserved":false,"is_disabled":false,"rental_uris":{"android":"levelo://app?vid=c3666a23-6e14-43c8-a506-6cbb1c982eaf","ios":"levelo://app?vid=c3666a23-6e14-43c8-a506-6cbb1c982eaf"},"vehicle_type_id":"4","last_reported":1724094416,"current_range_meters":25200,"station_id":"ce4bgpp2rcd13ifvqc3g","pricing_plan_id":"cebpf4jnsgd1na2vs0mg"},{"bike_id":"b51a123a-b37c-4e82-a21e-940aaae1a537","system_id":"levelo_inurba_marseille","lat":43.311722,"lon":5.387247,"is_reserved":false,"is_disabled":false,"rental_uris":{"android":"levelo://app?vid=b51a123a-b37c-4e82-a21e-940aaae1a537","ios":"levelo://app?vid=b51a123a-b37c-4e82-a21e-940aaae1a537"},"vehicle_type_id":"4","last_reported":1724094416,"current_range_meters":24400,"station_id":"ce4bgv12rcd13ifvqcp0","pricing_plan_id":"cebpf4jnsgd1na2vs0mg"},{"bike_id":"7377a51a-d23f-4ec2-8444-9f114528c6c6","system_id":"levelo_inurba_marseille","lat":43.311722,"lon":5.387247,"is_reserved":false,"is_disabled":false,"rental_uris":{"android":"levelo://app?vid=7377a51a-d23f-4ec2-8444-9f114528c6c6","ios":"levelo://app?vid=7377a51a-d23f-4ec2-8444-9f114528c6c6"},"vehicle_type_id":"4","last_reported":1724094416,"current_range_meters":13200,"station_id":"ce4bgv12rcd13ifvqcp0","pricing_plan_id":"cebpf4jnsgd1na2vs0mg"},{"bike_id":"1391ac11-213b-495c-9bdc-f816da978fe8","system_id":"levelo_inurba_marseille","lat":43.297794,"lon":5.370888,"is_reserved":false,"is_disabled":false,"rental_uris":{"android":"levelo://app?vid=1391ac11-213b-495c-9bdc-f816da978fe8","ios":"levelo://app?vid=1391ac11-213b-495c-9bdc-f816da978fe8"},"vehicle_type_id":"4","last_reported":1724094416,"current_range_meters":18800,"station_id":"ce4bgop2rcd13ifvqc1g","pricing_plan_id":"cebpf4jnsgd1na2vs0mg"},{"bike_id":"f5756eed-ea1c-4ab7-b4f2-8ac9473fed35","system_id":"levelo_inurba_marseille","lat":43.322867,"lon":5.382633,"is_reserved":false,"is_disabled":false,"rental_uris":{"android":"levelo://app?vid=f5756eed-ea1c-4ab7-b4f2-8ac9473fed35","ios":"levelo://app?vid=f5756eed-ea1c-4ab7-b4f2-8ac9473fed35"},"vehicle_type_id":"4","last_reported":1724094416,"current_range_meters":26400,"station_id":"ce4bhr12rcd13ifvqhqg","pricing_plan_id":"cebpf4jnsgd1na2vs0mg"},{"bike_id":"61dd64be-b099-4cf9-92b5-fbad09e4c4c2","system_id":"levelo_inurba_marseille","lat":43.322872,"lon":5.382756,"is_reserved":false,"is_disabled":false,"rental_uris":{"android":"levelo://app?vid=61dd64be-b099-4cf9-92b5-fbad09e4c4c2","ios":"levelo://app?vid=61dd64be-b099-4cf9-92b5-fbad09e4c4c2"},"vehicle_type_id":"4","last_reported":1724094416,"current_range_meters":30000,"station_id":"ce4bhr12rcd13ifvqhqg","pricing_plan_id":"cebpf4jnsgd1na2vs0mg"},{"bike_id":"c5e86e01-88a0-4287-af61-f635a0263d21","system_id":"levelo_inurba_marseille","lat":43.322872,"lon":5.382756,"is_reserved":false,"is_disabled":false,"rental_uris":{"android":"levelo://app?vid=c5e86e01-88a0-4287-af61-f635a0263d21","ios":"levelo://app?vid=c5e86e01-88a0-4287-af61-f635a0263d21"},"vehicle_type_id":"4","last_reported":1724094416,"current_range_meters":31200,"station_id":"ce4bhr12rcd13ifvqhqg","pricing_plan_id":"cebpf4jnsgd1na2vs0mg"},{"bike_id":"1fc4dd69-1886-4614-92a2-29998f516e2d","system_id":"levelo_inurba_marseille","lat":43.297163,"lon":5.365866,"is_reserved":false,"is_disabled":false,"rental_uris":{"android":"levelo://app?vid=1fc4dd69-1886-4614-92a2-29998f516e2d","ios":"levelo://app?vid=1fc4dd69-1886-4614-92a2-29998f516e2d"},"vehicle_type_id":"4","last_reported":1724094416,"current_range_meters":15600,"station_id":"ce4bgn12rcd13ifvqbt0","pricing_plan_id":"cebpf4jnsgd1na2vs0mg"},{"bike_id":"3a0bb937-2a48-4b03-8d7f-afd184f82a5a","system_id":"levelo_inurba_marseille","lat":43.297163,"lon":5.365866,"is_reserved":false,"is_disabled":false,"rental_uris":{"android":"levelo://app?vid=3a0bb937-2a48-4b03-8d7f-afd184f82a5a","ios":"levelo://app?vid=3a0bb937-2a48-4b03-8d7f-afd184f82a5a"},"vehicle_type_id":"4","last_reported":1724094416,"current_range_meters":23200,"station_id":"ce4bgn12rcd13ifvqbt0","pricing_plan_id":"cebpf4jnsgd1na2vs0mg"},{"bike_id":"00b6020b-a087-4db8-9316-d9d1ae1a06ad","system_id":"levelo_inurba_marseille","lat":43.297163,"lon":5.365866,"is_reserved":false,"is_disabled":false,"rental_uris":{"android":"levelo://app?vid=00b6020b-a087-4db8-9316-d9d1ae1a06ad","ios":"levelo://app?vid=00b6020b-a087-4db8-9316-d9d1ae1a06ad"},"vehicle_type_id":"4","last_reported":1724094416,"current_range_meters":5600,"station_id":"ce4bgn12rcd13ifvqbt0","pricing_plan_id":"cebpf4jnsgd1na2vs0mg"},{"bike_id":"6cebe8f1-65af-4da7-b332-40e7632863d6","system_id":"levelo_inurba_marseille","lat":43.297163,"lon":5.365866,"is_reserved":false,"is_disabled":false,"rental_uris":{"android":"levelo://app?vid=6cebe8f1-65af-4da7-b332-40e7632863d6","ios":"levelo://app?vid=6cebe8f1-65af-4da7-b332-40e7632863d6"},"vehicle_type_id":"4","last_reported":1724094416,"current_range_meters":29200,"station_id":"ce4bgn12rcd13ifvqbt0","pricing_plan_id":"cebpf4jnsgd1na2vs0mg"},{"bike_id":"ff7ebfb6-96d6-4094-9bd5-695c3f82c51d","system_id":"levelo_inurba_marseille","lat":43.297163,"lon":5.365866,"is_reserved":false,"is_disabled":false,"rental_uris":{"android":"levelo://app?vid=ff7ebfb6-96d6-4094-9bd5-695c3f82c51d","ios":"levelo://app?vid=ff7ebfb6-96d6-4094-9bd5-695c3f82c51d"},"vehicle_type_id":"4","last_reported":1724094416,"current_range_meters":14400,"station_id":"ce4bgn12rcd13ifvqbt0","pricing_plan_id":"cebpf4jnsgd1na2vs0mg"},{"bike_id":"b838841f-0c2a-4282-96dd-ec7f09072da2","system_id":"levelo_inurba_marseille","lat":43.297163,"lon":5.365866,"is_reserved":false,"is_disabled":false,"rental_uris":{"android":"levelo://app?vid=b838841f-0c2a-4282-96dd-ec7f09072da2","ios":"levelo://app?vid=b838841f-0c2a-4282-96dd-ec7f09072da2"},"vehicle_type_id":"4","last_reported":1724094416,"current_range_meters":16000,"station_id":"ce4bgn12rcd13ifvqbt0","pricing_plan_id":"cebpf4jnsgd1na2vs0mg"},{"bike_id":"09034010-a4b4-488f-b3a4-4fa774f90f61","system_id":"levelo_inurba_marseille","lat":43.297163,"lon":5.365866,"is_reserved":false,"is_disabled":false,"rental_uris":{"android":"levelo://app?vid=09034010-a4b4-488f-b3a4-4fa774f90f61","ios":"levelo://app?vid=09034010-a4b4-488f-b3a4-4fa774f90f61"},"vehicle_type_id":"4","last_reported":1724094416,"current_range_meters":17200,"station_id":"ce4bgn12rcd13ifvqbt0","pricing_plan_id":"cebpf4jnsgd1na2vs0mg"},{"bike_id":"48252763-9303-4050-befc-82c53378535c","system_id":"levelo_inurba_marseille","lat":43.31502,"lon":5.38866,"is_reserved":false,"is_disabled":false,"rental_uris":{"android":"levelo://app?vid=48252763-9303-4050-befc-82c53378535c","ios":"levelo://app?vid=48252763-9303-4050-befc-82c53378535c"},"vehicle_type_id":"4","last_reported":1724094416,"current_range_meters":8000,"station_id":"","pricing_plan_id":"cebpf4jnsgd1na2vs0mg"},{"bike_id":"fc3367f3-d4bd-431d-b4ad-04a19fcb1ae2","system_id":"levelo_inurba_marseille","lat":43.29625,"lon":5.37149,"is_reserved":false,"is_disabled":false,"rental_uris":{"android":"levelo://app?vid=fc3367f3-d4bd-431d-b4ad-04a19fcb1ae2","ios":"levelo://app?vid=fc3367f3-d4bd-431d-b4ad-04a19fcb1ae2"},"vehicle_type_id":"4","last_reported":1724094416,"current_range_meters":0,"station_id":"ce4bgnh2rcd13ifvqc0g","pricing_plan_id":"cebpf4jnsgd1na2vs0mg"},{"bike_id":"e27c20c4-1011-42b7-823b-b77bd1d52971","system_id":"levelo_inurba_marseille","lat":43.309589,"lon":5.390258,"is_reserved":false,"is_disabled":false,"rental_uris":{"android":"levelo://app?vid=e27c20c4-1011-42b7-823b-b77bd1d52971","ios":"levelo://app?vid=e27c20c4-1011-42b7-823b-b77bd1d52971"},"vehicle_type_id":"4","last_reported":1724094416,"current_range_meters":25600,"station_id":"ce4bgup2rcd13ifvqco0","pricing_plan_id":"cebpf4jnsgd1na2vs0mg"},{"bike_id":"a74e770b-e087-4f01-97f8-a19c5f49f06f","system_id":"levelo_inurba_marseille","lat":43.296131,"lon":5.370791,"is_reserved":false,"is_disabled":false,"rental_uris":{"android":"levelo://app?vid=a74e770b-e087-4f01-97f8-a19c5f49f06f","ios":"levelo://app?vid=a74e770b-e087-4f01-97f8-a19c5f49f06f"},"vehicle_type_id":"4","last_reported":1724094416,"current_range_meters":0,"station_id":"ce4bgnh2rcd13ifvqc0g","pricing_plan_id":"cebpf4jnsgd1na2vs0mg"},{"bike_id":"379ce75c-6377-49e1-8104-4f5eb0badf34","system_id":"levelo_inurba_marseille","lat":43.29573,"lon":5.367355,"is_reserved":false,"is_disabled":false,"rental_uris":{"android":"levelo://app?vid=379ce75c-6377-49e1-8104-4f5eb0badf34","ios":"levelo://app?vid=379ce75c-6377-49e1-8104-4f5eb0badf34"},"vehicle_type_id":"4","last_reported":1724094416,"current_range_meters":30000,"station_id":"ce4bgph2rcd13ifvqc2g","pricing_plan_id":"cebpf4jnsgd1na2vs0mg"},{"bike_id":"f1821d25-4b16-43c1-9c7d-3983a00ebaa3","system_id":"levelo_inurba_marseille","lat":43.29573,"lon":5.367355,"is_reserved":false,"is_disabled":false,"rental_uris":{"android":"levelo://app?vid=f1821d25-4b16-43c1-9c7d-3983a00ebaa3","ios":"levelo://app?vid=f1821d25-4b16-43c1-9c7d-3983a00ebaa3"},"vehicle_type_id":"4","last_reported":1724094416,"current_range_meters":9600,"station_id":"ce4bgph2rcd13ifvqc2g","pricing_plan_id":"cebpf4jnsgd1na2vs0mg"},{"bike_id":"54e176d2-66f1-4336-a522-f85a0b984aa4","system_id":"levelo_inurba_marseille","lat":43.299028,"lon":5.381509,"is_reserved":false,"is_disabled":false,"rental_uris":{"android":"levelo://app?vid=54e176d2-66f1-4336-a522-f85a0b984aa4","ios":"levelo://app?vid=54e176d2-66f1-4336-a522-f85a0b984aa4"},"vehicle_type_id":"4","last_reported":1724094416,"current_range_meters":10000,"station_id":"ce4bgj12rcd13ifvqbc0","pricing_plan_id":"cebpf4jnsgd1na2vs0mg"},{"bike_id":"f40740a5-d333-4930-a973-83fa6419b6bb","system_id":"levelo_inurba_marseille","lat":43.296935,"lon":5.376544,"is_reserved":false,"is_disabled":false,"rental_uris":{"android":"levelo://app?vid=f40740a5-d333-4930-a973-83fa6419b6bb","ios":"levelo://app?vid=f40740a5-d333-4930-a973-83fa6419b6bb"},"vehicle_type_id":"4","last_reported":1724094416,"current_range_meters":11200,"station_id":"ce4bgkh2rcd13ifvqbl0","pricing_plan_id":"cebpf4jnsgd1na2vs0mg"},{"bike_id":"054a2d1f-4eb9-4328-b2b7-6a5d65790a41","system_id":"levelo_inurba_marseille","lat":43.317557,"lon":5.390173,"is_reserved":false,"is_disabled":false,"rental_uris":{"android":"levelo://app?vid=054a2d1f-4eb9-4328-b2b7-6a5d65790a41","ios":"levelo://app?vid=054a2d1f-4eb9-4328-b2b7-6a5d65790a41"},"vehicle_type_id":"4","last_reported":1724094416,"current_range_meters":23200,"station_id":"ce4bhqp2rcd13ifvqhng","pricing_plan_id":"cebpf4jnsgd1na2vs0mg"},{"bike_id":"2bc142f9-04b2-4a45-b4e5-58b977e8a379","system_id":"levelo_inurba_marseille","lat":43.317557,"lon":5.390173,"is_reserved":false,"is_disabled":false,"rental_uris":{"android":"levelo://app?vid=2bc142f9-04b2-4a45-b4e5-58b977e8a379","ios":"levelo://app?vid=2bc142f9-04b2-4a45-b4e5-58b977e8a379"},"vehicle_type_id":"4","last_reported":1724094416,"current_range_meters":6800,"station_id":"ce4bhqp2rcd13ifvqhng","pricing_plan_id":"cebpf4jnsgd1na2vs0mg"},{"bike_id":"c5460033-2dd0-4a05-b416-87dee21ef05a","system_id":"levelo_inurba_marseille","lat":43.298037,"lon":5.381066,"is_reserved":false,"is_disabled":false,"rental_uris":{"android":"levelo://app?vid=c5460033-2dd0-4a05-b416-87dee21ef05a","ios":"levelo://app?vid=c5460033-2dd0-4a05-b416-87dee21ef05a"},"vehicle_type_id":"4","last_reported":1724094416,"current_range_meters":0,"station_id":"ce4bgip2rcd13ifvqbb0","pricing_plan_id":"cebpf4jnsgd1na2vs0mg"},{"bike_id":"ba65df77-b03a-4d53-a7ee-5522c3a21f5f","system_id":"levelo_inurba_marseille","lat":43.298037,"lon":5.381066,"is_reserved":false,"is_disabled":false,"rental_uris":{"android":"levelo://app?vid=ba65df77-b03a-4d53-a7ee-5522c3a21f5f","ios":"levelo://app?vid=ba65df77-b03a-4d53-a7ee-5522c3a21f5f"},"vehicle_type_id":"4","last_reported":1724094416,"current_range_meters":13600,"station_id":"ce4bgip2rcd13ifvqbb0","pricing_plan_id":"cebpf4jnsgd1na2vs0mg"},{"bike_id":"243e5808-a84b-4d65-a67a-18ecf7b5150c","system_id":"levelo_inurba_marseille","lat":43.29575,"lon":5.37514,"is_reserved":false,"is_disabled":false,"rental_uris":{"android":"levelo://app?vid=243e5808-a84b-4d65-a67a-18ecf7b5150c","ios":"levelo://app?vid=243e5808-a84b-4d65-a67a-18ecf7b5150c"},"vehicle_type_id":"4","last_reported":1724094416,"current_range_meters":800,"station_id":"ce4bgh92rcd13ifvqb50","pricing_plan_id":"cebpf4jnsgd1na2vs0mg"},{"bike_id":"6ae84b64-352d-4863-9005-d54140111f08","system_id":"levelo_inurba_marseille","lat":43.2957,"lon":5.37514,"is_reserved":false,"is_disabled":false,"rental_uris":{"android":"levelo://app?vid=6ae84b64-352d-4863-9005-d54140111f08","ios":"levelo://app?vid=6ae84b64-352d-4863-9005-d54140111f08"},"vehicle_type_id":"4","last_reported":1724094416,"current_range_meters":0,"station_id":"ce4bgh92rcd13ifvqb50","pricing_plan_id":"cebpf4jnsgd1na2vs0mg"},{"bike_id":"d8a96d0b-1052-4ebb-af18-27a95774a5f9","system_id":"levelo_inurba_marseille","lat":43.31466,"lon":5.39165,"is_reserved":false,"is_disabled":false,"rental_uris":{"android":"levelo://app?vid=d8a96d0b-1052-4ebb-af18-27a95774a5f9","ios":"levelo://app?vid=d8a96d0b-1052-4ebb-af18-27a95774a5f9"},"vehicle_type_id":"4","last_reported":1724094416,"current_range_meters":14000,"station_id":"","pricing_plan_id":"cebpf4jnsgd1na2vs0mg"},{"bike_id":"8b89af63-db84-4f50-92d6-ba9153095557","system_id":"levelo_inurba_marseille","lat":43.296263,"lon":5.377094,"is_reserved":false,"is_disabled":false,"rental_uris":{"android":"levelo://app?vid=8b89af63-db84-4f50-92d6-ba9153095557","ios":"levelo://app?vid=8b89af63-db84-4f50-92d6-ba9153095557"},"vehicle_type_id":"4","last_reported":1724094416,"current_range_meters":21200,"station_id":"ce4bgi92rcd13ifvqb90","pricing_plan_id":"cebpf4jnsgd1na2vs0mg"},{"bike_id":"9af84ad4-d357-4abc-b225-872d0284ce75","system_id":"levelo_inurba_marseille","lat":43.298037,"lon":5.381066,"is_reserved":false,"is_disabled":false,"rental_uris":{"android":"levelo://app?vid=9af84ad4-d357-4abc-b225-872d0284ce75","ios":"levelo://app?vid=9af84ad4-d357-4abc-b225-872d0284ce75"},"vehicle_type_id":"4","last_reported":1724094416,"current_range_meters":0,"station_id":"ce4bgip2rcd13ifvqbb0","pricing_plan_id":"cebpf4jnsgd1na2vs0mg"},{"bike_id":"1b907903-d670-4707-962a-9870b12cc144","system_id":"levelo_inurba_marseille","lat":43.304274,"lon":5.388873,"is_reserved":false,"is_disabled":false,"rental_uris":{"android":"levelo://app?vid=1b907903-d670-4707-962a-9870b12cc144","ios":"levelo://app?vid=1b907903-d670-4707-962a-9870b12cc144"},"vehicle_type_id":"4","last_reported":1724094416,"current_range_meters":6000,"station_id":"ce4bgk12rcd13ifvqbi0","pricing_plan_id":"cebpf4jnsgd1na2vs0mg"},{"bike_id":"ebe86e65-3b45-43a9-81ae-a1dd0a9e7466","system_id":"levelo_inurba_marseille","lat":43.299707,"lon":5.384859,"is_reserved":false,"is_disabled":false,"rental_uris":{"android":"levelo://app?vid=ebe86e65-3b45-43a9-81ae-a1dd0a9e7466","ios":"levelo://app?vid=ebe86e65-3b45-43a9-81ae-a1dd0a9e7466"},"vehicle_type_id":"4","last_reported":1724094416,"current_range_meters":18400,"station_id":"ce4bgj92rcd13ifvqbd0","pricing_plan_id":"cebpf4jnsgd1na2vs0mg"},{"bike_id":"e05184ea-8eaf-4b55-a422-4b0bc8006a4c","system_id":"levelo_inurba_marseille","lat":43.29977,"lon":5.38495,"is_reserved":false,"is_disabled":false,"rental_uris":{"android":"levelo://app?vid=e05184ea-8eaf-4b55-a422-4b0bc8006a4c","ios":"levelo://app?vid=e05184ea-8eaf-4b55-a422-4b0bc8006a4c"},"vehicle_type_id":"4","last_reported":1724094416,"current_range_meters":20400,"station_id":"ce4bgj92rcd13ifvqbd0","pricing_plan_id":"cebpf4jnsgd1na2vs0mg"},{"bike_id":"86873a56-6fec-4cef-a43d-f21e64405279","system_id":"levelo_inurba_marseille","lat":43.29527,"lon":5.37508,"is_reserved":false,"is_disabled":false,"rental_uris":{"android":"levelo://app?vid=86873a56-6fec-4cef-a43d-f21e64405279","ios":"levelo://app?vid=86873a56-6fec-4cef-a43d-f21e64405279"},"vehicle_type_id":"4","last_reported":1724094416,"current_range_meters":0,"station_id":"ce4bgkp2rcd13ifvqbmg","pricing_plan_id":"cebpf4jnsgd1na2vs0mg"},{"bike_id":"089448ef-da8d-4f28-8842-3b50ca978d33","system_id":"levelo_inurba_marseille","lat":43.295279,"lon":5.375048,"is_reserved":false,"is_disabled":false,"rental_uris":{"android":"levelo://app?vid=089448ef-da8d-4f28-8842-3b50ca978d33","ios":"levelo://app?vid=089448ef-da8d-4f28-8842-3b50ca978d33"},"vehicle_type_id":"4","last_reported":1724094416,"current_range_meters":12800,"station_id":"ce4bgkp2rcd13ifvqbmg","pricing_plan_id":"cebpf4jnsgd1na2vs0mg"},{"bike_id":"318678d4-8a20-44c0-b2cf-91e8473437e7","system_id":"levelo_inurba_marseille","lat":43.295279,"lon":5.375048,"is_reserved":false,"is_disabled":false,"rental_uris":{"android":"levelo://app?vid=318678d4-8a20-44c0-b2cf-91e8473437e7","ios":"levelo://app?vid=318678d4-8a20-44c0-b2cf-91e8473437e7"},"vehicle_type_id":"4","last_reported":1724094416,"current_range_meters":0,"station_id":"ce4bgkp2rcd13ifvqbmg","pricing_plan_id":"cebpf4jnsgd1na2vs0mg"},{"bike_id":"f2c41ae0-ec30-401e-9da9-dfaa411f3154","system_id":"levelo_inurba_marseille","lat":43.29974,"lon":5.385,"is_reserved":false,"is_disabled":false,"rental_uris":{"android":"levelo://app?vid=f2c41ae0-ec30-401e-9da9-dfaa411f3154","ios":"levelo://app?vid=f2c41ae0-ec30-401e-9da9-dfaa411f3154"},"vehicle_type_id":"4","last_reported":1724094416,"current_range_meters":18400,"station_id":"ce4bgj92rcd13ifvqbd0","pricing_plan_id":"cebpf4jnsgd1na2vs0mg"},{"bike_id":"fda3c22c-1093-4b76-9188-d38b715bc48d","system_id":"levelo_inurba_marseille","lat":43.299717,"lon":5.384845,"is_reserved":false,"is_disabled":false,"rental_uris":{"android":"levelo://app?vid=fda3c22c-1093-4b76-9188-d38b715bc48d","ios":"levelo://app?vid=fda3c22c-1093-4b76-9188-d38b715bc48d"},"vehicle_type_id":"4","last_reported":1724094416,"current_range_meters":30400,"station_id":"ce4bgj92rcd13ifvqbd0","pricing_plan_id":"cebpf4jnsgd1na2vs0mg"},{"bike_id":"3ae2cd6e-8d3d-45c6-b180-15d9c49e9a6b","system_id":"levelo_inurba_marseille","lat":43.2997,"lon":5.38502,"is_reserved":false,"is_disabled":false,"rental_uris":{"android":"levelo://app?vid=3ae2cd6e-8d3d-45c6-b180-15d9c49e9a6b","ios":"levelo://app?vid=3ae2cd6e-8d3d-45c6-b180-15d9c49e9a6b"},"vehicle_type_id":"4","last_reported":1724094416,"current_range_meters":26400,"station_id":"ce4bgj92rcd13ifvqbd0","pricing_plan_id":"cebpf4jnsgd1na2vs0mg"},{"bike_id":"ad96a62a-16ba-4b6f-8327-44b992c26171","system_id":"levelo_inurba_marseille","lat":43.29966,"lon":5.38498,"is_reserved":false,"is_disabled":false,"rental_uris":{"android":"levelo://app?vid=ad96a62a-16ba-4b6f-8327-44b992c26171","ios":"levelo://app?vid=ad96a62a-16ba-4b6f-8327-44b992c26171"},"vehicle_type_id":"4","last_reported":1724094416,"current_range_meters":6400,"station_id":"ce4bgj92rcd13ifvqbd0","pricing_plan_id":"cebpf4jnsgd1na2vs0mg"},{"bike_id":"bdfbeaf8-b07b-430e-86db-d22be2588183","system_id":"levelo_inurba_marseille","lat":43.295279,"lon":5.375048,"is_reserved":false,"is_disabled":false,"rental_uris":{"android":"levelo://app?vid=bdfbeaf8-b07b-430e-86db-d22be2588183","ios":"levelo://app?vid=bdfbeaf8-b07b-430e-86db-d22be2588183"},"vehicle_type_id":"4","last_reported":1724094416,"current_range_meters":400,"station_id":"ce4bgkp2rcd13ifvqbmg","pricing_plan_id":"cebpf4jnsgd1na2vs0mg"},{"bike_id":"cd958f2c-1ee3-4e70-8215-d5e03f6e3924","system_id":"levelo_inurba_marseille","lat":43.299717,"lon":5.384845,"is_reserved":false,"is_disabled":false,"rental_uris":{"android":"levelo://app?vid=cd958f2c-1ee3-4e70-8215-d5e03f6e3924","ios":"levelo://app?vid=cd958f2c-1ee3-4e70-8215-d5e03f6e3924"},"vehicle_type_id":"4","last_reported":1724094416,"current_range_meters":27200,"station_id":"ce4bgj92rcd13ifvqbd0","pricing_plan_id":"cebpf4jnsgd1na2vs0mg"},{"bike_id":"c052ce10-fcdf-4b53-bca5-cc6c5d4a06e2","system_id":"levelo_inurba_marseille","lat":43.29967,"lon":5.38508,"is_reserved":false,"is_disabled":false,"rental_uris":{"android":"levelo://app?vid=c052ce10-fcdf-4b53-bca5-cc6c5d4a06e2","ios":"levelo://app?vid=c052ce10-fcdf-4b53-bca5-cc6c5d4a06e2"},"vehicle_type_id":"4","last_reported":1724094416,"current_range_meters":11200,"station_id":"ce4bgj92rcd13ifvqbd0","pricing_plan_id":"cebpf4jnsgd1na2vs0mg"},{"bike_id":"f7d7dc96-c51e-41ac-8ed0-6980e10a6dd1","system_id":"levelo_inurba_marseille","lat":43.295279,"lon":5.375048,"is_reserved":false,"is_disabled":false,"rental_uris":{"android":"levelo://app?vid=f7d7dc96-c51e-41ac-8ed0-6980e10a6dd1","ios":"levelo://app?vid=f7d7dc96-c51e-41ac-8ed0-6980e10a6dd1"},"vehicle_type_id":"4","last_reported":1724094416,"current_range_meters":8400,"station_id":"ce4bgkp2rcd13ifvqbmg","pricing_plan_id":"cebpf4jnsgd1na2vs0mg"},{"bike_id":"dc64a593-55b5-40e2-9065-78bc1df7d377","system_id":"levelo_inurba_marseille","lat":43.295279,"lon":5.375048,"is_reserved":false,"is_disabled":false,"rental_uris":{"android":"levelo://app?vid=dc64a593-55b5-40e2-9065-78bc1df7d377","ios":"levelo://app?vid=dc64a593-55b5-40e2-9065-78bc1df7d377"},"vehicle_type_id":"4","last_reported":1724094416,"current_range_meters":6000,"station_id":"ce4bgkp2rcd13ifvqbmg","pricing_plan_id":"cebpf4jnsgd1na2vs0mg"},{"bike_id":"a44cda8c-0ad2-4f5f-8ab7-4bef6b327bf7","system_id":"levelo_inurba_marseille","lat":43.304278,"lon":5.388868,"is_reserved":false,"is_disabled":false,"rental_uris":{"android":"levelo://app?vid=a44cda8c-0ad2-4f5f-8ab7-4bef6b327bf7","ios":"levelo://app?vid=a44cda8c-0ad2-4f5f-8ab7-4bef6b327bf7"},"vehicle_type_id":"4","last_reported":1724094416,"current_range_meters":13200,"station_id":"ce4bgk12rcd13ifvqbi0","pricing_plan_id":"cebpf4jnsgd1na2vs0mg"},{"bike_id":"3dda6673-c7f0-4b96-858d-f5ded2935178","system_id":"levelo_inurba_marseille","lat":43.301396,"lon":5.387812,"is_reserved":false,"is_disabled":false,"rental_uris":{"android":"levelo://app?vid=3dda6673-c7f0-4b96-858d-f5ded2935178","ios":"levelo://app?vid=3dda6673-c7f0-4b96-858d-f5ded2935178"},"vehicle_type_id":"4","last_reported":1724094416,"current_range_meters":20000,"station_id":"ce4bghh2rcd13ifvqb60","pricing_plan_id":"cebpf4jnsgd1na2vs0mg"},{"bike_id":"727f5510-0cb3-423b-a603-3a81d0d5226a","system_id":"levelo_inurba_marseille","lat":43.301396,"lon":5.387812,"is_reserved":false,"is_disabled":false,"rental_uris":{"android":"levelo://app?vid=727f5510-0cb3-423b-a603-3a81d0d5226a","ios":"levelo://app?vid=727f5510-0cb3-423b-a603-3a81d0d5226a"},"vehicle_type_id":"4","last_reported":1724094416,"current_range_meters":0,"station_id":"ce4bghh2rcd13ifvqb60","pricing_plan_id":"cebpf4jnsgd1na2vs0mg"},{"bike_id":"c94e2538-5ae0-4f08-b917-7c8cfd75e9aa","system_id":"levelo_inurba_marseille","lat":43.301396,"lon":5.387812,"is_reserved":false,"is_disabled":false,"rental_uris":{"android":"levelo://app?vid=c94e2538-5ae0-4f08-b917-7c8cfd75e9aa","ios":"levelo://app?vid=c94e2538-5ae0-4f08-b917-7c8cfd75e9aa"},"vehicle_type_id":"4","last_reported":1724094416,"current_range_meters":23200,"station_id":"ce4bghh2rcd13ifvqb60","pricing_plan_id":"cebpf4jnsgd1na2vs0mg"},{"bike_id":"ae513f67-fce7-4142-aa4e-3f07a2237c78","system_id":"levelo_inurba_marseille","lat":43.301396,"lon":5.387812,"is_reserved":false,"is_disabled":false,"rental_uris":{"android":"levelo://app?vid=ae513f67-fce7-4142-aa4e-3f07a2237c78","ios":"levelo://app?vid=ae513f67-fce7-4142-aa4e-3f07a2237c78"},"vehicle_type_id":"4","last_reported":1724094416,"current_range_meters":0,"station_id":"ce4bghh2rcd13ifvqb60","pricing_plan_id":"cebpf4jnsgd1na2vs0mg"},{"bike_id":"eaaadb57-5472-4ce2-a9b4-ca83511919a9","system_id":"levelo_inurba_marseille","lat":43.304274,"lon":5.388873,"is_reserved":false,"is_disabled":false,"rental_uris":{"android":"levelo://app?vid=eaaadb57-5472-4ce2-a9b4-ca83511919a9","ios":"levelo://app?vid=eaaadb57-5472-4ce2-a9b4-ca83511919a9"},"vehicle_type_id":"4","last_reported":1724094416,"current_range_meters":22800,"station_id":"ce4bgk12rcd13ifvqbi0","pricing_plan_id":"cebpf4jnsgd1na2vs0mg"},{"bike_id":"daab8b5b-e62a-44a3-bca6-3f7a01217322","system_id":"levelo_inurba_marseille","lat":43.32367,"lon":5.388836,"is_reserved":false,"is_disabled":false,"rental_uris":{"android":"levelo://app?vid=daab8b5b-e62a-44a3-bca6-3f7a01217322","ios":"levelo://app?vid=daab8b5b-e62a-44a3-bca6-3f7a01217322"},"vehicle_type_id":"4","last_reported":1724094416,"current_range_meters":19200,"station_id":"ce4bhqp2rcd13ifvqhog","pricing_plan_id":"cebpf4jnsgd1na2vs0mg"},{"bike_id":"139a6f53-bcca-4f3c-a580-84db8551ef42","system_id":"levelo_inurba_marseille","lat":43.32367,"lon":5.388836,"is_reserved":false,"is_disabled":false,"rental_uris":{"android":"levelo://app?vid=139a6f53-bcca-4f3c-a580-84db8551ef42","ios":"levelo://app?vid=139a6f53-bcca-4f3c-a580-84db8551ef42"},"vehicle_type_id":"4","last_reported":1724094416,"current_range_meters":0,"station_id":"ce4bhqp2rcd13ifvqhog","pricing_plan_id":"cebpf4jnsgd1na2vs0mg"},{"bike_id":"412c24c6-e69f-4754-b446-39b9b95f6c53","system_id":"levelo_inurba_marseille","lat":43.32367,"lon":5.388836,"is_reserved":false,"is_disabled":false,"rental_uris":{"android":"levelo://app?vid=412c24c6-e69f-4754-b446-39b9b95f6c53","ios":"levelo://app?vid=412c24c6-e69f-4754-b446-39b9b95f6c53"},"vehicle_type_id":"4","last_reported":1724094416,"current_range_meters":22400,"station_id":"ce4bhqp2rcd13ifvqhog","pricing_plan_id":"cebpf4jnsgd1na2vs0mg"},{"bike_id":"f2d4729c-7369-4f5c-b00a-cdb681b8ba48","system_id":"levelo_inurba_marseille","lat":43.32367,"lon":5.388836,"is_reserved":false,"is_disabled":false,"rental_uris":{"android":"levelo://app?vid=f2d4729c-7369-4f5c-b00a-cdb681b8ba48","ios":"levelo://app?vid=f2d4729c-7369-4f5c-b00a-cdb681b8ba48"},"vehicle_type_id":"4","last_reported":1724094416,"current_range_meters":15200,"station_id":"ce4bhqp2rcd13ifvqhog","pricing_plan_id":"cebpf4jnsgd1na2vs0mg"},{"bike_id":"1e35368f-cf3f-4205-b567-a84dda0e2017","system_id":"levelo_inurba_marseille","lat":43.29602,"lon":5.381084,"is_reserved":false,"is_disabled":false,"rental_uris":{"android":"levelo://app?vid=1e35368f-cf3f-4205-b567-a84dda0e2017","ios":"levelo://app?vid=1e35368f-cf3f-4205-b567-a84dda0e2017"},"vehicle_type_id":"4","last_reported":1724094416,"current_range_meters":11200,"station_id":"ce4bgl12rcd13ifvqbo0","pricing_plan_id":"cebpf4jnsgd1na2vs0mg"},{"bike_id":"f74bc40e-50c4-45eb-be96-ca29c1a08a04","system_id":"levelo_inurba_marseille","lat":43.29602,"lon":5.381084,"is_reserved":false,"is_disabled":false,"rental_uris":{"android":"levelo://app?vid=f74bc40e-50c4-45eb-be96-ca29c1a08a04","ios":"levelo://app?vid=f74bc40e-50c4-45eb-be96-ca29c1a08a04"},"vehicle_type_id":"4","last_reported":1724094416,"current_range_meters":8800,"station_id":"ce4bgl12rcd13ifvqbo0","pricing_plan_id":"cebpf4jnsgd1na2vs0mg"},{"bike_id":"7f28c170-1931-45e1-bc66-025a2a772fdb","system_id":"levelo_inurba_marseille","lat":43.29602,"lon":5.381084,"is_reserved":false,"is_disabled":false,"rental_uris":{"android":"levelo://app?vid=7f28c170-1931-45e1-bc66-025a2a772fdb","ios":"levelo://app?vid=7f28c170-1931-45e1-bc66-025a2a772fdb"},"vehicle_type_id":"4","last_reported":1724094416,"current_range_meters":21600,"station_id":"ce4bgl12rcd13ifvqbo0","pricing_plan_id":"cebpf4jnsgd1na2vs0mg"},{"bike_id":"fa99af1b-b9bb-4597-88f5-abbbdc19287c","system_id":"levelo_inurba_marseille","lat":43.295977,"lon":5.38097,"is_reserved":false,"is_disabled":false,"rental_uris":{"android":"levelo://app?vid=fa99af1b-b9bb-4597-88f5-abbbdc19287c","ios":"levelo://app?vid=fa99af1b-b9bb-4597-88f5-abbbdc19287c"},"vehicle_type_id":"4","last_reported":1724094416,"current_range_meters":0,"station_id":"ce4bgl12rcd13ifvqbo0","pricing_plan_id":"cebpf4jnsgd1na2vs0mg"},{"bike_id":"f900f0da-fded-4229-a7f3-68bcdd9ecc8e","system_id":"levelo_inurba_marseille","lat":43.29602,"lon":5.381084,"is_reserved":false,"is_disabled":false,"rental_uris":{"android":"levelo://app?vid=f900f0da-fded-4229-a7f3-68bcdd9ecc8e","ios":"levelo://app?vid=f900f0da-fded-4229-a7f3-68bcdd9ecc8e"},"vehicle_type_id":"4","last_reported":1724094416,"current_range_meters":2000,"station_id":"ce4bgl12rcd13ifvqbo0","pricing_plan_id":"cebpf4jnsgd1na2vs0mg"},{"bike_id":"6077151f-2c75-4c86-a8da-781cd95cf50f","system_id":"levelo_inurba_marseille","lat":43.301429,"lon":5.37413,"is_reserved":false,"is_disabled":false,"rental_uris":{"android":"levelo://app?vid=6077151f-2c75-4c86-a8da-781cd95cf50f","ios":"levelo://app?vid=6077151f-2c75-4c86-a8da-781cd95cf50f"},"vehicle_type_id":"4","last_reported":1724094416,"current_range_meters":11600,"station_id":"ce4bgs92rcd13ifvqcc0","pricing_plan_id":"cebpf4jnsgd1na2vs0mg"},{"bike_id":"7c5b9bcc-525a-4b11-bd5e-d8c4f2bc381a","system_id":"levelo_inurba_marseille","lat":43.292749,"lon":5.368402,"is_reserved":false,"is_disabled":false,"rental_uris":{"android":"levelo://app?vid=7c5b9bcc-525a-4b11-bd5e-d8c4f2bc381a","ios":"levelo://app?vid=7c5b9bcc-525a-4b11-bd5e-d8c4f2bc381a"},"vehicle_type_id":"4","last_reported":1724094416,"current_range_meters":0,"station_id":"ce4bhbp2rcd13ifvqesg","pricing_plan_id":"cebpf4jnsgd1na2vs0mg"},{"bike_id":"12c4648a-52d6-4659-be6e-de19dbc00879","system_id":"levelo_inurba_marseille","lat":43.29307,"lon":5.37175,"is_reserved":false,"is_disabled":false,"rental_uris":{"android":"levelo://app?vid=12c4648a-52d6-4659-be6e-de19dbc00879","ios":"levelo://app?vid=12c4648a-52d6-4659-be6e-de19dbc00879"},"vehicle_type_id":"4","last_reported":1724094416,"current_range_meters":2800,"station_id":"ce4bgh92rcd13ifvqb40","pricing_plan_id":"cebpf4jnsgd1na2vs0mg"},{"bike_id":"416b9d72-6547-4431-9d66-cb180afb46d2","system_id":"levelo_inurba_marseille","lat":43.292749,"lon":5.368402,"is_reserved":false,"is_disabled":false,"rental_uris":{"android":"levelo://app?vid=416b9d72-6547-4431-9d66-cb180afb46d2","ios":"levelo://app?vid=416b9d72-6547-4431-9d66-cb180afb46d2"},"vehicle_type_id":"4","last_reported":1724094416,"current_range_meters":0,"station_id":"ce4bhbp2rcd13ifvqesg","pricing_plan_id":"cebpf4jnsgd1na2vs0mg"},{"bike_id":"83adf2e9-60f6-47cc-a937-b04695137ff1","system_id":"levelo_inurba_marseille","lat":43.29302,"lon":5.37168,"is_reserved":false,"is_disabled":false,"rental_uris":{"android":"levelo://app?vid=83adf2e9-60f6-47cc-a937-b04695137ff1","ios":"levelo://app?vid=83adf2e9-60f6-47cc-a937-b04695137ff1"},"vehicle_type_id":"4","last_reported":1724094416,"current_range_meters":0,"station_id":"ce4bgh92rcd13ifvqb40","pricing_plan_id":"cebpf4jnsgd1na2vs0mg"},{"bike_id":"f56a68f0-2a5b-4a21-9ed2-3f1ab1514043","system_id":"levelo_inurba_marseille","lat":43.29273,"lon":5.36839,"is_reserved":false,"is_disabled":false,"rental_uris":{"android":"levelo://app?vid=f56a68f0-2a5b-4a21-9ed2-3f1ab1514043","ios":"levelo://app?vid=f56a68f0-2a5b-4a21-9ed2-3f1ab1514043"},"vehicle_type_id":"4","last_reported":1724094416,"current_range_meters":11200,"station_id":"ce4bhbp2rcd13ifvqesg","pricing_plan_id":"cebpf4jnsgd1na2vs0mg"},{"bike_id":"ac029415-ae23-4e56-ab32-3270672e4d09","system_id":"levelo_inurba_marseille","lat":43.318222,"lon":5.393488,"is_reserved":false,"is_disabled":false,"rental_uris":{"android":"levelo://app?vid=ac029415-ae23-4e56-ab32-3270672e4d09","ios":"levelo://app?vid=ac029415-ae23-4e56-ab32-3270672e4d09"},"vehicle_type_id":"4","last_reported":1724094416,"current_range_meters":5200,"station_id":"","pricing_plan_id":"cebpf4jnsgd1na2vs0mg"},{"bike_id":"0f92af19-2f73-4495-9e39-29557a46668d","system_id":"levelo_inurba_marseille","lat":43.31397,"lon":5.39459,"is_reserved":false,"is_disabled":false,"rental_uris":{"android":"levelo://app?vid=0f92af19-2f73-4495-9e39-29557a46668d","ios":"levelo://app?vid=0f92af19-2f73-4495-9e39-29557a46668d"},"vehicle_type_id":"4","last_reported":1724094416,"current_range_meters":18400,"station_id":"","pricing_plan_id":"cebpf4jnsgd1na2vs0mg"},{"bike_id":"68f471f7-7d48-4503-9b44-10464d65f676","system_id":"levelo_inurba_marseille","lat":43.292443,"lon":5.3659,"is_reserved":false,"is_disabled":false,"rental_uris":{"android":"levelo://app?vid=68f471f7-7d48-4503-9b44-10464d65f676","ios":"levelo://app?vid=68f471f7-7d48-4503-9b44-10464d65f676"},"vehicle_type_id":"4","last_reported":1724094416,"current_range_meters":0,"station_id":"","pricing_plan_id":"cebpf4jnsgd1na2vs0mg"},{"bike_id":"1c5393f3-1a56-491a-a95f-d4d6dab76a8e","system_id":"levelo_inurba_marseille","lat":43.293009,"lon":5.374584,"is_reserved":false,"is_disabled":false,"rental_uris":{"android":"levelo://app?vid=1c5393f3-1a56-491a-a95f-d4d6dab76a8e","ios":"levelo://app?vid=1c5393f3-1a56-491a-a95f-d4d6dab76a8e"},"vehicle_type_id":"4","last_reported":1724094416,"current_range_meters":4000,"station_id":"ce4bgi12rcd13ifvqb70","pricing_plan_id":"cebpf4jnsgd1na2vs0mg"},{"bike_id":"51e074c3-965f-485d-b9e8-81dad4a71d30","system_id":"levelo_inurba_marseille","lat":43.29304,"lon":5.37452,"is_reserved":false,"is_disabled":false,"rental_uris":{"android":"levelo://app?vid=51e074c3-965f-485d-b9e8-81dad4a71d30","ios":"levelo://app?vid=51e074c3-965f-485d-b9e8-81dad4a71d30"},"vehicle_type_id":"4","last_reported":1724094416,"current_range_meters":11200,"station_id":"ce4bgi12rcd13ifvqb70","pricing_plan_id":"cebpf4jnsgd1na2vs0mg"},{"bike_id":"9bde0d4a-4749-42ab-a277-c0c5898fd8f9","system_id":"levelo_inurba_marseille","lat":43.293009,"lon":5.374584,"is_reserved":false,"is_disabled":false,"rental_uris":{"android":"levelo://app?vid=9bde0d4a-4749-42ab-a277-c0c5898fd8f9","ios":"levelo://app?vid=9bde0d4a-4749-42ab-a277-c0c5898fd8f9"},"vehicle_type_id":"4","last_reported":1724094416,"current_range_meters":19200,"station_id":"ce4bgi12rcd13ifvqb70","pricing_plan_id":"cebpf4jnsgd1na2vs0mg"},{"bike_id":"b030a103-7d29-4233-9aac-610232176bb3","system_id":"levelo_inurba_marseille","lat":43.293009,"lon":5.374584,"is_reserved":false,"is_disabled":false,"rental_uris":{"android":"levelo://app?vid=b030a103-7d29-4233-9aac-610232176bb3","ios":"levelo://app?vid=b030a103-7d29-4233-9aac-610232176bb3"},"vehicle_type_id":"4","last_reported":1724094416,"current_range_meters":4400,"station_id":"ce4bgi12rcd13ifvqb70","pricing_plan_id":"cebpf4jnsgd1na2vs0mg"},{"bike_id":"5e7f1cf7-9359-40f3-a0eb-c94bef1dae46","system_id":"levelo_inurba_marseille","lat":43.29302,"lon":5.37458,"is_reserved":false,"is_disabled":false,"rental_uris":{"android":"levelo://app?vid=5e7f1cf7-9359-40f3-a0eb-c94bef1dae46","ios":"levelo://app?vid=5e7f1cf7-9359-40f3-a0eb-c94bef1dae46"},"vehicle_type_id":"4","last_reported":1724094416,"current_range_meters":800,"station_id":"ce4bgi12rcd13ifvqb70","pricing_plan_id":"cebpf4jnsgd1na2vs0mg"},{"bike_id":"f7b14f8f-f483-42f8-ba3c-df217f12eb6e","system_id":"levelo_inurba_marseille","lat":43.293009,"lon":5.374584,"is_reserved":false,"is_disabled":false,"rental_uris":{"android":"levelo://app?vid=f7b14f8f-f483-42f8-ba3c-df217f12eb6e","ios":"levelo://app?vid=f7b14f8f-f483-42f8-ba3c-df217f12eb6e"},"vehicle_type_id":"4","last_reported":1724094416,"current_range_meters":28000,"station_id":"ce4bgi12rcd13ifvqb70","pricing_plan_id":"cebpf4jnsgd1na2vs0mg"},{"bike_id":"13395fdb-14e0-4469-b1e4-39595498ea88","system_id":"levelo_inurba_marseille","lat":43.305994,"lon":5.393687,"is_reserved":false,"is_disabled":false,"rental_uris":{"android":"levelo://app?vid=13395fdb-14e0-4469-b1e4-39595498ea88","ios":"levelo://app?vid=13395fdb-14e0-4469-b1e4-39595498ea88"},"vehicle_type_id":"4","last_reported":1724094416,"current_range_meters":6800,"station_id":"ce4bh0p2rcd13ifvqd80","pricing_plan_id":"cebpf4jnsgd1na2vs0mg"},{"bike_id":"eaa8677c-2d46-4236-b5c2-41d480e460f5","system_id":"levelo_inurba_marseille","lat":43.293009,"lon":5.374584,"is_reserved":false,"is_disabled":false,"rental_uris":{"android":"levelo://app?vid=eaa8677c-2d46-4236-b5c2-41d480e460f5","ios":"levelo://app?vid=eaa8677c-2d46-4236-b5c2-41d480e460f5"},"vehicle_type_id":"4","last_reported":1724094416,"current_range_meters":25600,"station_id":"ce4bgi12rcd13ifvqb70","pricing_plan_id":"cebpf4jnsgd1na2vs0mg"},{"bike_id":"ecb8d800-a22f-441f-954e-8ce1aefba09f","system_id":"levelo_inurba_marseille","lat":43.305994,"lon":5.393687,"is_reserved":false,"is_disabled":false,"rental_uris":{"android":"levelo://app?vid=ecb8d800-a22f-441f-954e-8ce1aefba09f","ios":"levelo://app?vid=ecb8d800-a22f-441f-954e-8ce1aefba09f"},"vehicle_type_id":"4","last_reported":1724094416,"current_range_meters":0,"station_id":"ce4bh0p2rcd13ifvqd80","pricing_plan_id":"cebpf4jnsgd1na2vs0mg"},{"bike_id":"7f3c74f5-833e-4348-8642-4c5abdf8bae0","system_id":"levelo_inurba_marseille","lat":43.293009,"lon":5.374584,"is_reserved":false,"is_disabled":false,"rental_uris":{"android":"levelo://app?vid=7f3c74f5-833e-4348-8642-4c5abdf8bae0","ios":"levelo://app?vid=7f3c74f5-833e-4348-8642-4c5abdf8bae0"},"vehicle_type_id":"4","last_reported":1724094416,"current_range_meters":17200,"station_id":"ce4bgi12rcd13ifvqb70","pricing_plan_id":"cebpf4jnsgd1na2vs0mg"},{"bike_id":"e8c29768-66f0-4e92-a17d-63eb1f4f6e1f","system_id":"levelo_inurba_marseille","lat":43.302992,"lon":5.392136,"is_reserved":false,"is_disabled":false,"rental_uris":{"android":"levelo://app?vid=e8c29768-66f0-4e92-a17d-63eb1f4f6e1f","ios":"levelo://app?vid=e8c29768-66f0-4e92-a17d-63eb1f4f6e1f"},"vehicle_type_id":"4","last_reported":1724094416,"current_range_meters":8000,"station_id":"ce4bgkh2rcd13ifvqbk0","pricing_plan_id":"cebpf4jnsgd1na2vs0mg"},{"bike_id":"05221d8e-0671-407f-bffd-7eedb679ca2e","system_id":"levelo_inurba_marseille","lat":43.2936,"lon":5.37835,"is_reserved":false,"is_disabled":false,"rental_uris":{"android":"levelo://app?vid=05221d8e-0671-407f-bffd-7eedb679ca2e","ios":"levelo://app?vid=05221d8e-0671-407f-bffd-7eedb679ca2e"},"vehicle_type_id":"4","last_reported":1724094416,"current_range_meters":28400,"station_id":"ce4bgjh2rcd13ifvqbf0","pricing_plan_id":"cebpf4jnsgd1na2vs0mg"},{"bike_id":"7569a879-e66b-4bf7-92e3-3a67e8fbde1f","system_id":"levelo_inurba_marseille","lat":43.2936,"lon":5.37835,"is_reserved":false,"is_disabled":false,"rental_uris":{"android":"levelo://app?vid=7569a879-e66b-4bf7-92e3-3a67e8fbde1f","ios":"levelo://app?vid=7569a879-e66b-4bf7-92e3-3a67e8fbde1f"},"vehicle_type_id":"4","last_reported":1724094416,"current_range_meters":0,"station_id":"ce4bgjh2rcd13ifvqbf0","pricing_plan_id":"cebpf4jnsgd1na2vs0mg"},{"bike_id":"57fdfa0c-0a04-493a-acdb-94197b892342","system_id":"levelo_inurba_marseille","lat":43.2936,"lon":5.37835,"is_reserved":false,"is_disabled":false,"rental_uris":{"android":"levelo://app?vid=57fdfa0c-0a04-493a-acdb-94197b892342","ios":"levelo://app?vid=57fdfa0c-0a04-493a-acdb-94197b892342"},"vehicle_type_id":"4","last_reported":1724094416,"current_range_meters":4400,"station_id":"ce4bgjh2rcd13ifvqbf0","pricing_plan_id":"cebpf4jnsgd1na2vs0mg"},{"bike_id":"c9562103-c630-4300-b5c9-479c4c589aae","system_id":"levelo_inurba_marseille","lat":43.2936,"lon":5.37835,"is_reserved":false,"is_disabled":false,"rental_uris":{"android":"levelo://app?vid=c9562103-c630-4300-b5c9-479c4c589aae","ios":"levelo://app?vid=c9562103-c630-4300-b5c9-479c4c589aae"},"vehicle_type_id":"4","last_reported":1724094416,"current_range_meters":0,"station_id":"ce4bgjh2rcd13ifvqbf0","pricing_plan_id":"cebpf4jnsgd1na2vs0mg"},{"bike_id":"d2a32d0b-5289-4db4-927a-bc264b994676","system_id":"levelo_inurba_marseille","lat":43.2936,"lon":5.37835,"is_reserved":false,"is_disabled":false,"rental_uris":{"android":"levelo://app?vid=d2a32d0b-5289-4db4-927a-bc264b994676","ios":"levelo://app?vid=d2a32d0b-5289-4db4-927a-bc264b994676"},"vehicle_type_id":"4","last_reported":1724094416,"current_range_meters":2400,"station_id":"ce4bgjh2rcd13ifvqbf0","pricing_plan_id":"cebpf4jnsgd1na2vs0mg"},{"bike_id":"09035e03-f3e2-4cf6-bdb8-9e39111ceb38","system_id":"levelo_inurba_marseille","lat":43.29234,"lon":5.36057,"is_reserved":false,"is_disabled":false,"rental_uris":{"android":"levelo://app?vid=09035e03-f3e2-4cf6-bdb8-9e39111ceb38","ios":"levelo://app?vid=09035e03-f3e2-4cf6-bdb8-9e39111ceb38"},"vehicle_type_id":"4","last_reported":1724094416,"current_range_meters":0,"station_id":"ce4bhbh2rcd13ifvqeqg","pricing_plan_id":"cebpf4jnsgd1na2vs0mg"},{"bike_id":"50f384e0-f8e5-4761-923a-78a49cdbaeb1","system_id":"levelo_inurba_marseille","lat":43.29229,"lon":5.36069,"is_reserved":false,"is_disabled":false,"rental_uris":{"android":"levelo://app?vid=50f384e0-f8e5-4761-923a-78a49cdbaeb1","ios":"levelo://app?vid=50f384e0-f8e5-4761-923a-78a49cdbaeb1"},"vehicle_type_id":"4","last_reported":1724094416,"current_range_meters":0,"station_id":"ce4bhbh2rcd13ifvqeqg","pricing_plan_id":"cebpf4jnsgd1na2vs0mg"},{"bike_id":"de82842b-9104-4d72-9808-aeeae6ad7494","system_id":"levelo_inurba_marseille","lat":43.292311,"lon":5.360731,"is_reserved":false,"is_disabled":false,"rental_uris":{"android":"levelo://app?vid=de82842b-9104-4d72-9808-aeeae6ad7494","ios":"levelo://app?vid=de82842b-9104-4d72-9808-aeeae6ad7494"},"vehicle_type_id":"4","last_reported":1724094416,"current_range_meters":28800,"station_id":"ce4bhbh2rcd13ifvqeqg","pricing_plan_id":"cebpf4jnsgd1na2vs0mg"},{"bike_id":"e9646e93-5592-4fc6-be55-4d12b2955c2a","system_id":"levelo_inurba_marseille","lat":43.29224,"lon":5.36071,"is_reserved":false,"is_disabled":false,"rental_uris":{"android":"levelo://app?vid=e9646e93-5592-4fc6-be55-4d12b2955c2a","ios":"levelo://app?vid=e9646e93-5592-4fc6-be55-4d12b2955c2a"},"vehicle_type_id":"4","last_reported":1724094416,"current_range_meters":27600,"station_id":"ce4bhbh2rcd13ifvqeqg","pricing_plan_id":"cebpf4jnsgd1na2vs0mg"},{"bike_id":"1c95d7c4-4ab7-495e-b476-7569e7bfd379","system_id":"levelo_inurba_marseille","lat":43.2922,"lon":5.360457,"is_reserved":false,"is_disabled":false,"rental_uris":{"android":"levelo://app?vid=1c95d7c4-4ab7-495e-b476-7569e7bfd379","ios":"levelo://app?vid=1c95d7c4-4ab7-495e-b476-7569e7bfd379"},"vehicle_type_id":"4","last_reported":1724094416,"current_range_meters":0,"station_id":"ce4bhbh2rcd13ifvqeqg","pricing_plan_id":"cebpf4jnsgd1na2vs0mg"},{"bike_id":"cbacfe01-0632-4555-b0d0-4a4b2cc1433d","system_id":"levelo_inurba_marseille","lat":43.298764,"lon":5.388973,"is_reserved":false,"is_disabled":false,"rental_uris":{"android":"levelo://app?vid=cbacfe01-0632-4555-b0d0-4a4b2cc1433d","ios":"levelo://app?vid=cbacfe01-0632-4555-b0d0-4a4b2cc1433d"},"vehicle_type_id":"4","last_reported":1724094416,"current_range_meters":26800,"station_id":"ce4bh392rcd13ifvqdl0","pricing_plan_id":"cebpf4jnsgd1na2vs0mg"},{"bike_id":"33bbeb34-5b09-4437-9f67-69bfcf7540e5","system_id":"levelo_inurba_marseille","lat":43.298764,"lon":5.388973,"is_reserved":false,"is_disabled":false,"rental_uris":{"android":"levelo://app?vid=33bbeb34-5b09-4437-9f67-69bfcf7540e5","ios":"levelo://app?vid=33bbeb34-5b09-4437-9f67-69bfcf7540e5"},"vehicle_type_id":"4","last_reported":1724094416,"current_range_meters":0,"station_id":"ce4bh392rcd13ifvqdl0","pricing_plan_id":"cebpf4jnsgd1na2vs0mg"},{"bike_id":"aea128bf-8450-432f-8e4f-3542d03059b0","system_id":"levelo_inurba_marseille","lat":43.298764,"lon":5.388973,"is_reserved":false,"is_disabled":false,"rental_uris":{"android":"levelo://app?vid=aea128bf-8450-432f-8e4f-3542d03059b0","ios":"levelo://app?vid=aea128bf-8450-432f-8e4f-3542d03059b0"},"vehicle_type_id":"4","last_reported":1724094416,"current_range_meters":6800,"station_id":"ce4bh392rcd13ifvqdl0","pricing_plan_id":"cebpf4jnsgd1na2vs0mg"},{"bike_id":"05186b65-f07b-40ea-8a07-2c054222579b","system_id":"levelo_inurba_marseille","lat":43.291675,"lon":5.371583,"is_reserved":false,"is_disabled":false,"rental_uris":{"android":"levelo://app?vid=05186b65-f07b-40ea-8a07-2c054222579b","ios":"levelo://app?vid=05186b65-f07b-40ea-8a07-2c054222579b"},"vehicle_type_id":"4","last_reported":1724094416,"current_range_meters":2800,"station_id":"ce4bha92rcd13ifvqeh0","pricing_plan_id":"cebpf4jnsgd1na2vs0mg"},{"bike_id":"5dec247c-d5e6-4f6a-b7a9-aca478034564","system_id":"levelo_inurba_marseille","lat":43.291671,"lon":5.371575,"is_reserved":false,"is_disabled":false,"rental_uris":{"android":"levelo://app?vid=5dec247c-d5e6-4f6a-b7a9-aca478034564","ios":"levelo://app?vid=5dec247c-d5e6-4f6a-b7a9-aca478034564"},"vehicle_type_id":"4","last_reported":1724094416,"current_range_meters":30000,"station_id":"ce4bha92rcd13ifvqeh0","pricing_plan_id":"cebpf4jnsgd1na2vs0mg"},{"bike_id":"6eb25cf0-3eb4-4413-b9a9-f80b0fd7a732","system_id":"levelo_inurba_marseille","lat":43.29198,"lon":5.35808,"is_reserved":false,"is_disabled":false,"rental_uris":{"android":"levelo://app?vid=6eb25cf0-3eb4-4413-b9a9-f80b0fd7a732","ios":"levelo://app?vid=6eb25cf0-3eb4-4413-b9a9-f80b0fd7a732"},"vehicle_type_id":"4","last_reported":1724094416,"current_range_meters":0,"station_id":"ce4bhb12rcd13ifvqel0","pricing_plan_id":"cebpf4jnsgd1na2vs0mg"},{"bike_id":"be8ae9e8-bbb1-4ee6-afba-672f86ad4865","system_id":"levelo_inurba_marseille","lat":43.309047,"lon":5.396551,"is_reserved":false,"is_disabled":false,"rental_uris":{"android":"levelo://app?vid=be8ae9e8-bbb1-4ee6-afba-672f86ad4865","ios":"levelo://app?vid=be8ae9e8-bbb1-4ee6-afba-672f86ad4865"},"vehicle_type_id":"4","last_reported":1724094416,"current_range_meters":6000,"station_id":"ce4bh012rcd13ifvqcv0","pricing_plan_id":"cebpf4jnsgd1na2vs0mg"},{"bike_id":"9c169f8d-9638-4fb3-9530-01f53ba04841","system_id":"levelo_inurba_marseille","lat":43.313291,"lon":5.396838,"is_reserved":false,"is_disabled":false,"rental_uris":{"android":"levelo://app?vid=9c169f8d-9638-4fb3-9530-01f53ba04841","ios":"levelo://app?vid=9c169f8d-9638-4fb3-9530-01f53ba04841"},"vehicle_type_id":"4","last_reported":1724094416,"current_range_meters":2800,"station_id":"ce4bgvp2rcd13ifvqcu0","pricing_plan_id":"cebpf4jnsgd1na2vs0mg"},{"bike_id":"5f155c47-5aab-47ca-a02a-e7c98bb5f26b","system_id":"levelo_inurba_marseille","lat":43.313291,"lon":5.396838,"is_reserved":false,"is_disabled":false,"rental_uris":{"android":"levelo://app?vid=5f155c47-5aab-47ca-a02a-e7c98bb5f26b","ios":"levelo://app?vid=5f155c47-5aab-47ca-a02a-e7c98bb5f26b"},"vehicle_type_id":"4","last_reported":1724094416,"current_range_meters":14400,"station_id":"ce4bgvp2rcd13ifvqcu0","pricing_plan_id":"cebpf4jnsgd1na2vs0mg"},{"bike_id":"9855bd80-aa3b-4d33-9560-4db88f484dac","system_id":"levelo_inurba_marseille","lat":43.313291,"lon":5.396838,"is_reserved":false,"is_disabled":false,"rental_uris":{"android":"levelo://app?vid=9855bd80-aa3b-4d33-9560-4db88f484dac","ios":"levelo://app?vid=9855bd80-aa3b-4d33-9560-4db88f484dac"},"vehicle_type_id":"4","last_reported":1724094416,"current_range_meters":4800,"station_id":"ce4bgvp2rcd13ifvqcu0","pricing_plan_id":"cebpf4jnsgd1na2vs0mg"},{"bike_id":"5e9074b9-5ecf-4711-87f0-2f81e628762f","system_id":"levelo_inurba_marseille","lat":43.309038,"lon":5.396546,"is_reserved":false,"is_disabled":false,"rental_uris":{"android":"levelo://app?vid=5e9074b9-5ecf-4711-87f0-2f81e628762f","ios":"levelo://app?vid=5e9074b9-5ecf-4711-87f0-2f81e628762f"},"vehicle_type_id":"4","last_reported":1724094416,"current_range_meters":0,"station_id":"ce4bh012rcd13ifvqcv0","pricing_plan_id":"cebpf4jnsgd1na2vs0mg"},{"bike_id":"c9415a4c-b03d-4b2a-8b9d-3a0707aebbb2","system_id":"levelo_inurba_marseille","lat":43.309047,"lon":5.396551,"is_reserved":false,"is_disabled":false,"rental_uris":{"android":"levelo://app?vid=c9415a4c-b03d-4b2a-8b9d-3a0707aebbb2","ios":"levelo://app?vid=c9415a4c-b03d-4b2a-8b9d-3a0707aebbb2"},"vehicle_type_id":"4","last_reported":1724094416,"current_range_meters":12800,"station_id":"ce4bh012rcd13ifvqcv0","pricing_plan_id":"cebpf4jnsgd1na2vs0mg"},{"bike_id":"59a85912-5a0f-4398-be05-a68ef7cba091","system_id":"levelo_inurba_marseille","lat":43.309038,"lon":5.396546,"is_reserved":false,"is_disabled":false,"rental_uris":{"android":"levelo://app?vid=59a85912-5a0f-4398-be05-a68ef7cba091","ios":"levelo://app?vid=59a85912-5a0f-4398-be05-a68ef7cba091"},"vehicle_type_id":"4","last_reported":1724094416,"current_range_meters":26400,"station_id":"ce4bh012rcd13ifvqcv0","pricing_plan_id":"cebpf4jnsgd1na2vs0mg"},{"bike_id":"6eacbc7d-422f-4ea1-8c9a-9c4f1879148d","system_id":"levelo_inurba_marseille","lat":43.29755,"lon":5.388805,"is_reserved":false,"is_disabled":false,"rental_uris":{"android":"levelo://app?vid=6eacbc7d-422f-4ea1-8c9a-9c4f1879148d","ios":"levelo://app?vid=6eacbc7d-422f-4ea1-8c9a-9c4f1879148d"},"vehicle_type_id":"4","last_reported":1724094416,"current_range_meters":0,"station_id":"","pricing_plan_id":"cebpf4jnsgd1na2vs0mg"},{"bike_id":"5969c937-205a-4497-937e-9d1084685120","system_id":"levelo_inurba_marseille","lat":43.29529,"lon":5.385581,"is_reserved":false,"is_disabled":false,"rental_uris":{"android":"levelo://app?vid=5969c937-205a-4497-937e-9d1084685120","ios":"levelo://app?vid=5969c937-205a-4497-937e-9d1084685120"},"vehicle_type_id":"4","last_reported":1724094416,"current_range_meters":2000,"station_id":"ce4bgih2rcd13ifvqba0","pricing_plan_id":"cebpf4jnsgd1na2vs0mg"},{"bike_id":"de5ace81-673a-4d72-b502-28cdac808a60","system_id":"levelo_inurba_marseille","lat":43.29529,"lon":5.385581,"is_reserved":false,"is_disabled":false,"rental_uris":{"android":"levelo://app?vid=de5ace81-673a-4d72-b502-28cdac808a60","ios":"levelo://app?vid=de5ace81-673a-4d72-b502-28cdac808a60"},"vehicle_type_id":"4","last_reported":1724094416,"current_range_meters":6400,"station_id":"ce4bgih2rcd13ifvqba0","pricing_plan_id":"cebpf4jnsgd1na2vs0mg"},{"bike_id":"b6c13302-a8b1-4948-86a3-f90cd3178077","system_id":"levelo_inurba_marseille","lat":43.29529,"lon":5.385581,"is_reserved":false,"is_disabled":false,"rental_uris":{"android":"levelo://app?vid=b6c13302-a8b1-4948-86a3-f90cd3178077","ios":"levelo://app?vid=b6c13302-a8b1-4948-86a3-f90cd3178077"},"vehicle_type_id":"4","last_reported":1724094416,"current_range_meters":2000,"station_id":"ce4bgih2rcd13ifvqba0","pricing_plan_id":"cebpf4jnsgd1na2vs0mg"},{"bike_id":"3f31398f-f543-4591-b886-bedc03c4081e","system_id":"levelo_inurba_marseille","lat":43.29047,"lon":5.3592,"is_reserved":false,"is_disabled":false,"rental_uris":{"android":"levelo://app?vid=3f31398f-f543-4591-b886-bedc03c4081e","ios":"levelo://app?vid=3f31398f-f543-4591-b886-bedc03c4081e"},"vehicle_type_id":"4","last_reported":1724094416,"current_range_meters":19600,"station_id":"ce4bha92rcd13ifvqeg0","pricing_plan_id":"cebpf4jnsgd1na2vs0mg"},{"bike_id":"7f722291-cdfc-4148-ae99-fa0e9a246310","system_id":"levelo_inurba_marseille","lat":43.290327,"lon":5.375711,"is_reserved":false,"is_disabled":false,"rental_uris":{"android":"levelo://app?vid=7f722291-cdfc-4148-ae99-fa0e9a246310","ios":"levelo://app?vid=7f722291-cdfc-4148-ae99-fa0e9a246310"},"vehicle_type_id":"4","last_reported":1724094416,"current_range_meters":5600,"station_id":"ce4bh692rcd13ifvqe90","pricing_plan_id":"cebpf4jnsgd1na2vs0mg"},{"bike_id":"8380e0ef-1974-4104-be3c-6bd8bd41b4b2","system_id":"levelo_inurba_marseille","lat":43.28951,"lon":5.36636,"is_reserved":false,"is_disabled":false,"rental_uris":{"android":"levelo://app?vid=8380e0ef-1974-4104-be3c-6bd8bd41b4b2","ios":"levelo://app?vid=8380e0ef-1974-4104-be3c-6bd8bd41b4b2"},"vehicle_type_id":"4","last_reported":1724094416,"current_range_meters":14400,"station_id":"ce4bhap2rcd13ifvqek0","pricing_plan_id":"cebpf4jnsgd1na2vs0mg"},{"bike_id":"bf4d2dbb-39f6-4077-aa86-950a186e8167","system_id":"levelo_inurba_marseille","lat":43.294153,"lon":5.386305,"is_reserved":false,"is_disabled":false,"rental_uris":{"android":"levelo://app?vid=bf4d2dbb-39f6-4077-aa86-950a186e8167","ios":"levelo://app?vid=bf4d2dbb-39f6-4077-aa86-950a186e8167"},"vehicle_type_id":"4","last_reported":1724094416,"current_range_meters":0,"station_id":"ce4bh2h2rcd13ifvqdh0","pricing_plan_id":"cebpf4jnsgd1na2vs0mg"},{"bike_id":"6de69ece-9e92-4eeb-80c7-1bc4336e4a08","system_id":"levelo_inurba_marseille","lat":43.29421,"lon":5.38623,"is_reserved":false,"is_disabled":false,"rental_uris":{"android":"levelo://app?vid=6de69ece-9e92-4eeb-80c7-1bc4336e4a08","ios":"levelo://app?vid=6de69ece-9e92-4eeb-80c7-1bc4336e4a08"},"vehicle_type_id":"4","last_reported":1724094416,"current_range_meters":0,"station_id":"ce4bh2h2rcd13ifvqdh0","pricing_plan_id":"cebpf4jnsgd1na2vs0mg"},{"bike_id":"8d570ed9-da6f-41fc-9db2-1052089fa30e","system_id":"levelo_inurba_marseille","lat":43.294153,"lon":5.386305,"is_reserved":false,"is_disabled":false,"rental_uris":{"android":"levelo://app?vid=8d570ed9-da6f-41fc-9db2-1052089fa30e","ios":"levelo://app?vid=8d570ed9-da6f-41fc-9db2-1052089fa30e"},"vehicle_type_id":"4","last_reported":1724094416,"current_range_meters":16800,"station_id":"ce4bh2h2rcd13ifvqdh0","pricing_plan_id":"cebpf4jnsgd1na2vs0mg"},{"bike_id":"9cb73a40-a075-4cf0-a06b-0679afc0f68a","system_id":"levelo_inurba_marseille","lat":43.294153,"lon":5.386305,"is_reserved":false,"is_disabled":false,"rental_uris":{"android":"levelo://app?vid=9cb73a40-a075-4cf0-a06b-0679afc0f68a","ios":"levelo://app?vid=9cb73a40-a075-4cf0-a06b-0679afc0f68a"},"vehicle_type_id":"4","last_reported":1724094416,"current_range_meters":400,"station_id":"ce4bh2h2rcd13ifvqdh0","pricing_plan_id":"cebpf4jnsgd1na2vs0mg"},{"bike_id":"7672ec0f-7ee5-466a-8b7f-d6c65e70cd94","system_id":"levelo_inurba_marseille","lat":43.29419,"lon":5.38628,"is_reserved":false,"is_disabled":false,"rental_uris":{"android":"levelo://app?vid=7672ec0f-7ee5-466a-8b7f-d6c65e70cd94","ios":"levelo://app?vid=7672ec0f-7ee5-466a-8b7f-d6c65e70cd94"},"vehicle_type_id":"4","last_reported":1724094416,"current_range_meters":4800,"station_id":"ce4bh2h2rcd13ifvqdh0","pricing_plan_id":"cebpf4jnsgd1na2vs0mg"},{"bike_id":"ae9d3aaf-9614-4363-9636-46418d1dc355","system_id":"levelo_inurba_marseille","lat":43.294162,"lon":5.386292,"is_reserved":false,"is_disabled":false,"rental_uris":{"android":"levelo://app?vid=ae9d3aaf-9614-4363-9636-46418d1dc355","ios":"levelo://app?vid=ae9d3aaf-9614-4363-9636-46418d1dc355"},"vehicle_type_id":"4","last_reported":1724094416,"current_range_meters":0,"station_id":"ce4bh2h2rcd13ifvqdh0","pricing_plan_id":"cebpf4jnsgd1na2vs0mg"},{"bike_id":"a090d2d2-3e5a-4d16-a4f2-7345c37e8c57","system_id":"levelo_inurba_marseille","lat":43.28944,"lon":5.36645,"is_reserved":false,"is_disabled":false,"rental_uris":{"android":"levelo://app?vid=a090d2d2-3e5a-4d16-a4f2-7345c37e8c57","ios":"levelo://app?vid=a090d2d2-3e5a-4d16-a4f2-7345c37e8c57"},"vehicle_type_id":"4","last_reported":1724094416,"current_range_meters":8800,"station_id":"ce4bhap2rcd13ifvqek0","pricing_plan_id":"cebpf4jnsgd1na2vs0mg"},{"bike_id":"5de157cb-5f27-45ef-b401-5e0805ae2bc0","system_id":"levelo_inurba_marseille","lat":43.29414,"lon":5.38626,"is_reserved":false,"is_disabled":false,"rental_uris":{"android":"levelo://app?vid=5de157cb-5f27-45ef-b401-5e0805ae2bc0","ios":"levelo://app?vid=5de157cb-5f27-45ef-b401-5e0805ae2bc0"},"vehicle_type_id":"4","last_reported":1724094416,"current_range_meters":0,"station_id":"ce4bh2h2rcd13ifvqdh0","pricing_plan_id":"cebpf4jnsgd1na2vs0mg"},{"bike_id":"63e2c24f-17a4-458d-903d-8c87938ab19d","system_id":"levelo_inurba_marseille","lat":43.294162,"lon":5.386292,"is_reserved":false,"is_disabled":false,"rental_uris":{"android":"levelo://app?vid=63e2c24f-17a4-458d-903d-8c87938ab19d","ios":"levelo://app?vid=63e2c24f-17a4-458d-903d-8c87938ab19d"},"vehicle_type_id":"4","last_reported":1724094416,"current_range_meters":13600,"station_id":"ce4bh2h2rcd13ifvqdh0","pricing_plan_id":"cebpf4jnsgd1na2vs0mg"},{"bike_id":"463c1149-3fd3-4720-bd8a-46aad63a9d03","system_id":"levelo_inurba_marseille","lat":43.2894,"lon":5.36636,"is_reserved":false,"is_disabled":false,"rental_uris":{"android":"levelo://app?vid=463c1149-3fd3-4720-bd8a-46aad63a9d03","ios":"levelo://app?vid=463c1149-3fd3-4720-bd8a-46aad63a9d03"},"vehicle_type_id":"4","last_reported":1724094416,"current_range_meters":800,"station_id":"ce4bhap2rcd13ifvqek0","pricing_plan_id":"cebpf4jnsgd1na2vs0mg"},{"bike_id":"0e47680e-5b70-4e9c-b5be-1fc1f71c3489","system_id":"levelo_inurba_marseille","lat":43.2894,"lon":5.36635,"is_reserved":false,"is_disabled":false,"rental_uris":{"android":"levelo://app?vid=0e47680e-5b70-4e9c-b5be-1fc1f71c3489","ios":"levelo://app?vid=0e47680e-5b70-4e9c-b5be-1fc1f71c3489"},"vehicle_type_id":"4","last_reported":1724094416,"current_range_meters":0,"station_id":"ce4bhap2rcd13ifvqek0","pricing_plan_id":"cebpf4jnsgd1na2vs0mg"},{"bike_id":"1111e986-4930-44ae-a61f-d2fbb1113de7","system_id":"levelo_inurba_marseille","lat":43.28937,"lon":5.3663,"is_reserved":false,"is_disabled":false,"rental_uris":{"android":"levelo://app?vid=1111e986-4930-44ae-a61f-d2fbb1113de7","ios":"levelo://app?vid=1111e986-4930-44ae-a61f-d2fbb1113de7"},"vehicle_type_id":"4","last_reported":1724094416,"current_range_meters":15200,"station_id":"ce4bhap2rcd13ifvqek0","pricing_plan_id":"cebpf4jnsgd1na2vs0mg"},{"bike_id":"53cc0377-d591-422c-b666-180cc5ea29eb","system_id":"levelo_inurba_marseille","lat":43.28936,"lon":5.366236,"is_reserved":false,"is_disabled":false,"rental_uris":{"android":"levelo://app?vid=53cc0377-d591-422c-b666-180cc5ea29eb","ios":"levelo://app?vid=53cc0377-d591-422c-b666-180cc5ea29eb"},"vehicle_type_id":"4","last_reported":1724094416,"current_range_meters":6000,"station_id":"ce4bhap2rcd13ifvqek0","pricing_plan_id":"cebpf4jnsgd1na2vs0mg"},{"bike_id":"4e066f76-5c49-478d-9959-c4fef4bd3e36","system_id":"levelo_inurba_marseille","lat":43.28934,"lon":5.36632,"is_reserved":false,"is_disabled":false,"rental_uris":{"android":"levelo://app?vid=4e066f76-5c49-478d-9959-c4fef4bd3e36","ios":"levelo://app?vid=4e066f76-5c49-478d-9959-c4fef4bd3e36"},"vehicle_type_id":"4","last_reported":1724094416,"current_range_meters":0,"station_id":"ce4bhap2rcd13ifvqek0","pricing_plan_id":"cebpf4jnsgd1na2vs0mg"},{"bike_id":"dc8c3631-a90a-48f4-b710-3c6f00d20971","system_id":"levelo_inurba_marseille","lat":43.289347,"lon":5.363973,"is_reserved":false,"is_disabled":false,"rental_uris":{"android":"levelo://app?vid=dc8c3631-a90a-48f4-b710-3c6f00d20971","ios":"levelo://app?vid=dc8c3631-a90a-48f4-b710-3c6f00d20971"},"vehicle_type_id":"4","last_reported":1724094416,"current_range_meters":0,"station_id":"ce4bhc92rcd13ifvqetg","pricing_plan_id":"cebpf4jnsgd1na2vs0mg"},{"bike_id":"32fb4c04-f248-4546-bbb9-d2729fbd1895","system_id":"levelo_inurba_marseille","lat":43.289468,"lon":5.363719,"is_reserved":false,"is_disabled":false,"rental_uris":{"android":"levelo://app?vid=32fb4c04-f248-4546-bbb9-d2729fbd1895","ios":"levelo://app?vid=32fb4c04-f248-4546-bbb9-d2729fbd1895"},"vehicle_type_id":"4","last_reported":1724094416,"current_range_meters":0,"station_id":"ce4bhc92rcd13ifvqetg","pricing_plan_id":"cebpf4jnsgd1na2vs0mg"},{"bike_id":"f3e1cea1-7710-4144-ae33-c7151c2415df","system_id":"levelo_inurba_marseille","lat":43.289468,"lon":5.363719,"is_reserved":false,"is_disabled":false,"rental_uris":{"android":"levelo://app?vid=f3e1cea1-7710-4144-ae33-c7151c2415df","ios":"levelo://app?vid=f3e1cea1-7710-4144-ae33-c7151c2415df"},"vehicle_type_id":"4","last_reported":1724094416,"current_range_meters":28000,"station_id":"ce4bhc92rcd13ifvqetg","pricing_plan_id":"cebpf4jnsgd1na2vs0mg"},{"bike_id":"c1f87479-72cc-428e-85e6-bab81b3e6cb8","system_id":"levelo_inurba_marseille","lat":43.29269,"lon":5.38433,"is_reserved":false,"is_disabled":false,"rental_uris":{"android":"levelo://app?vid=c1f87479-72cc-428e-85e6-bab81b3e6cb8","ios":"levelo://app?vid=c1f87479-72cc-428e-85e6-bab81b3e6cb8"},"vehicle_type_id":"4","last_reported":1724094416,"current_range_meters":0,"station_id":"ce4bh692rcd13ifvqea0","pricing_plan_id":"cebpf4jnsgd1na2vs0mg"},{"bike_id":"520b2a5d-2b20-42f7-971c-7689c88c1073","system_id":"levelo_inurba_marseille","lat":43.29271,"lon":5.38451,"is_reserved":false,"is_disabled":false,"rental_uris":{"android":"levelo://app?vid=520b2a5d-2b20-42f7-971c-7689c88c1073","ios":"levelo://app?vid=520b2a5d-2b20-42f7-971c-7689c88c1073"},"vehicle_type_id":"4","last_reported":1724094416,"current_range_meters":0,"station_id":"ce4bh692rcd13ifvqea0","pricing_plan_id":"cebpf4jnsgd1na2vs0mg"},{"bike_id":"0a773566-f45a-499f-81b4-5db64680d5e9","system_id":"levelo_inurba_marseille","lat":43.29268,"lon":5.38449,"is_reserved":false,"is_disabled":false,"rental_uris":{"android":"levelo://app?vid=0a773566-f45a-499f-81b4-5db64680d5e9","ios":"levelo://app?vid=0a773566-f45a-499f-81b4-5db64680d5e9"},"vehicle_type_id":"4","last_reported":1724094416,"current_range_meters":24800,"station_id":"ce4bh692rcd13ifvqea0","pricing_plan_id":"cebpf4jnsgd1na2vs0mg"},{"bike_id":"2b0b7fd8-4027-4fb6-8537-b4c353eb282b","system_id":"levelo_inurba_marseille","lat":43.304296,"lon":5.397513,"is_reserved":false,"is_disabled":false,"rental_uris":{"android":"levelo://app?vid=2b0b7fd8-4027-4fb6-8537-b4c353eb282b","ios":"levelo://app?vid=2b0b7fd8-4027-4fb6-8537-b4c353eb282b"},"vehicle_type_id":"4","last_reported":1724094416,"current_range_meters":20000,"station_id":"ce4bh092rcd13ifvqd20","pricing_plan_id":"cebpf4jnsgd1na2vs0mg"},{"bike_id":"f63b9228-1053-4f5a-ba2e-e8abfa540cb7","system_id":"levelo_inurba_marseille","lat":43.29258,"lon":5.38435,"is_reserved":false,"is_disabled":false,"rental_uris":{"android":"levelo://app?vid=f63b9228-1053-4f5a-ba2e-e8abfa540cb7","ios":"levelo://app?vid=f63b9228-1053-4f5a-ba2e-e8abfa540cb7"},"vehicle_type_id":"4","last_reported":1724094416,"current_range_meters":0,"station_id":"ce4bh692rcd13ifvqea0","pricing_plan_id":"cebpf4jnsgd1na2vs0mg"},{"bike_id":"b8734542-50b3-4c45-80a7-fed12626b2c5","system_id":"levelo_inurba_marseille","lat":43.29252,"lon":5.38443,"is_reserved":false,"is_disabled":false,"rental_uris":{"android":"levelo://app?vid=b8734542-50b3-4c45-80a7-fed12626b2c5","ios":"levelo://app?vid=b8734542-50b3-4c45-80a7-fed12626b2c5"},"vehicle_type_id":"4","last_reported":1724094416,"current_range_meters":0,"station_id":"ce4bh692rcd13ifvqea0","pricing_plan_id":"cebpf4jnsgd1na2vs0mg"},{"bike_id":"8e6aee6c-3fc9-4c4e-ad04-be6f14587983","system_id":"levelo_inurba_marseille","lat":43.290103,"lon":5.356114,"is_reserved":false,"is_disabled":false,"rental_uris":{"android":"levelo://app?vid=8e6aee6c-3fc9-4c4e-ad04-be6f14587983","ios":"levelo://app?vid=8e6aee6c-3fc9-4c4e-ad04-be6f14587983"},"vehicle_type_id":"4","last_reported":1724094416,"current_range_meters":1200,"station_id":"ce4bhb92rcd13ifvqen0","pricing_plan_id":"cebpf4jnsgd1na2vs0mg"},{"bike_id":"94c8019c-2f1d-4912-9de7-a84bd8c87712","system_id":"levelo_inurba_marseille","lat":43.290104,"lon":5.356111,"is_reserved":false,"is_disabled":false,"rental_uris":{"android":"levelo://app?vid=94c8019c-2f1d-4912-9de7-a84bd8c87712","ios":"levelo://app?vid=94c8019c-2f1d-4912-9de7-a84bd8c87712"},"vehicle_type_id":"4","last_reported":1724094416,"current_range_meters":31200,"station_id":"ce4bhb92rcd13ifvqen0","pricing_plan_id":"cebpf4jnsgd1na2vs0mg"},{"bike_id":"7bcf36ef-2be3-4057-b435-ff32df443103","system_id":"levelo_inurba_marseille","lat":43.290995,"lon":5.381361,"is_reserved":false,"is_disabled":false,"rental_uris":{"android":"levelo://app?vid=7bcf36ef-2be3-4057-b435-ff32df443103","ios":"levelo://app?vid=7bcf36ef-2be3-4057-b435-ff32df443103"},"vehicle_type_id":"4","last_reported":1724094416,"current_range_meters":2000,"station_id":"ce4bh512rcd13ifvqe2g","pricing_plan_id":"cebpf4jnsgd1na2vs0mg"},{"bike_id":"cc88d0c6-c602-495d-b32d-3a1310eb57a5","system_id":"levelo_inurba_marseille","lat":43.290995,"lon":5.381361,"is_reserved":false,"is_disabled":false,"rental_uris":{"android":"levelo://app?vid=cc88d0c6-c602-495d-b32d-3a1310eb57a5","ios":"levelo://app?vid=cc88d0c6-c602-495d-b32d-3a1310eb57a5"},"vehicle_type_id":"4","last_reported":1724094416,"current_range_meters":1600,"station_id":"ce4bh512rcd13ifvqe2g","pricing_plan_id":"cebpf4jnsgd1na2vs0mg"},{"bike_id":"1f0c6553-1a8c-4b29-9870-e89b9c60ed97","system_id":"levelo_inurba_marseille","lat":43.290995,"lon":5.381361,"is_reserved":false,"is_disabled":false,"rental_uris":{"android":"levelo://app?vid=1f0c6553-1a8c-4b29-9870-e89b9c60ed97","ios":"levelo://app?vid=1f0c6553-1a8c-4b29-9870-e89b9c60ed97"},"vehicle_type_id":"4","last_reported":1724094416,"current_range_meters":800,"station_id":"ce4bh512rcd13ifvqe2g","pricing_plan_id":"cebpf4jnsgd1na2vs0mg"},{"bike_id":"220fe97f-8a3c-4706-bbb7-7a62069428fa","system_id":"levelo_inurba_marseille","lat":43.29535,"lon":5.39028,"is_reserved":false,"is_disabled":false,"rental_uris":{"android":"levelo://app?vid=220fe97f-8a3c-4706-bbb7-7a62069428fa","ios":"levelo://app?vid=220fe97f-8a3c-4706-bbb7-7a62069428fa"},"vehicle_type_id":"4","last_reported":1724094416,"current_range_meters":12400,"station_id":"ce4bh3p2rcd13ifvqdp0","pricing_plan_id":"cebpf4jnsgd1na2vs0mg"},{"bike_id":"c2ac57f1-ee9a-4d6a-b498-2ad5e661540b","system_id":"levelo_inurba_marseille","lat":43.297815,"lon":5.393548,"is_reserved":false,"is_disabled":false,"rental_uris":{"android":"levelo://app?vid=c2ac57f1-ee9a-4d6a-b498-2ad5e661540b","ios":"levelo://app?vid=c2ac57f1-ee9a-4d6a-b498-2ad5e661540b"},"vehicle_type_id":"4","last_reported":1724094416,"current_range_meters":0,"station_id":"chh1huq6cuj3fo74tm60","pricing_plan_id":"cebpf4jnsgd1na2vs0mg"},{"bike_id":"de4e3623-62d9-4052-b195-2f6fbf213faa","system_id":"levelo_inurba_marseille","lat":43.29532,"lon":5.39032,"is_reserved":false,"is_disabled":false,"rental_uris":{"android":"levelo://app?vid=de4e3623-62d9-4052-b195-2f6fbf213faa","ios":"levelo://app?vid=de4e3623-62d9-4052-b195-2f6fbf213faa"},"vehicle_type_id":"4","last_reported":1724094416,"current_range_meters":25200,"station_id":"ce4bh3p2rcd13ifvqdp0","pricing_plan_id":"cebpf4jnsgd1na2vs0mg"},{"bike_id":"84f88c14-5f7d-4757-b831-19700b285813","system_id":"levelo_inurba_marseille","lat":43.290995,"lon":5.381361,"is_reserved":false,"is_disabled":false,"rental_uris":{"android":"levelo://app?vid=84f88c14-5f7d-4757-b831-19700b285813","ios":"levelo://app?vid=84f88c14-5f7d-4757-b831-19700b285813"},"vehicle_type_id":"4","last_reported":1724094416,"current_range_meters":12000,"station_id":"ce4bh512rcd13ifvqe2g","pricing_plan_id":"cebpf4jnsgd1na2vs0mg"},{"bike_id":"190df317-b4ba-4b16-bd8d-250e84642303","system_id":"levelo_inurba_marseille","lat":43.295169,"lon":5.390426,"is_reserved":false,"is_disabled":false,"rental_uris":{"android":"levelo://app?vid=190df317-b4ba-4b16-bd8d-250e84642303","ios":"levelo://app?vid=190df317-b4ba-4b16-bd8d-250e84642303"},"vehicle_type_id":"4","last_reported":1724094416,"current_range_meters":24400,"station_id":"ce4bh3p2rcd13ifvqdp0","pricing_plan_id":"cebpf4jnsgd1na2vs0mg"},{"bike_id":"c713fa35-4d62-4e3a-9e6e-1f822bda8196","system_id":"levelo_inurba_marseille","lat":43.295252,"lon":5.390286,"is_reserved":false,"is_disabled":false,"rental_uris":{"android":"levelo://app?vid=c713fa35-4d62-4e3a-9e6e-1f822bda8196","ios":"levelo://app?vid=c713fa35-4d62-4e3a-9e6e-1f822bda8196"},"vehicle_type_id":"4","last_reported":1724094416,"current_range_meters":10000,"station_id":"ce4bh3p2rcd13ifvqdp0","pricing_plan_id":"cebpf4jnsgd1na2vs0mg"},{"bike_id":"5cb610bc-a0fe-4603-bb8f-c4cb3793b497","system_id":"levelo_inurba_marseille","lat":43.33023,"lon":5.39038,"is_reserved":false,"is_disabled":false,"rental_uris":{"android":"levelo://app?vid=5cb610bc-a0fe-4603-bb8f-c4cb3793b497","ios":"levelo://app?vid=5cb610bc-a0fe-4603-bb8f-c4cb3793b497"},"vehicle_type_id":"4","last_reported":1724094416,"current_range_meters":6800,"station_id":"ce4bhr92rcd13ifvqhrg","pricing_plan_id":"cebpf4jnsgd1na2vs0mg"},{"bike_id":"11a41084-7764-4b03-883a-25de8829c2d8","system_id":"levelo_inurba_marseille","lat":43.33025,"lon":5.39039,"is_reserved":false,"is_disabled":false,"rental_uris":{"android":"levelo://app?vid=11a41084-7764-4b03-883a-25de8829c2d8","ios":"levelo://app?vid=11a41084-7764-4b03-883a-25de8829c2d8"},"vehicle_type_id":"4","last_reported":1724094416,"current_range_meters":11200,"station_id":"ce4bhr92rcd13ifvqhrg","pricing_plan_id":"cebpf4jnsgd1na2vs0mg"},{"bike_id":"ea908f94-6ca2-4937-9992-77cee6404cee","system_id":"levelo_inurba_marseille","lat":43.33025,"lon":5.39039,"is_reserved":false,"is_disabled":false,"rental_uris":{"android":"levelo://app?vid=ea908f94-6ca2-4937-9992-77cee6404cee","ios":"levelo://app?vid=ea908f94-6ca2-4937-9992-77cee6404cee"},"vehicle_type_id":"4","last_reported":1724094416,"current_range_meters":31200,"station_id":"ce4bhr92rcd13ifvqhrg","pricing_plan_id":"cebpf4jnsgd1na2vs0mg"},{"bike_id":"ba175562-558a-48cd-a083-feeea47255f7","system_id":"levelo_inurba_marseille","lat":43.289741,"lon":5.378306,"is_reserved":false,"is_disabled":false,"rental_uris":{"android":"levelo://app?vid=ba175562-558a-48cd-a083-feeea47255f7","ios":"levelo://app?vid=ba175562-558a-48cd-a083-feeea47255f7"},"vehicle_type_id":"4","last_reported":1724094416,"current_range_meters":7200,"station_id":"ce4bh9p2rcd13ifvqed0","pricing_plan_id":"cebpf4jnsgd1na2vs0mg"},{"bike_id":"ea188c12-63f1-4917-8115-0e3adf763a12","system_id":"levelo_inurba_marseille","lat":43.330287,"lon":5.390379,"is_reserved":false,"is_disabled":false,"rental_uris":{"android":"levelo://app?vid=ea188c12-63f1-4917-8115-0e3adf763a12","ios":"levelo://app?vid=ea188c12-63f1-4917-8115-0e3adf763a12"},"vehicle_type_id":"4","last_reported":1724094416,"current_range_meters":13200,"station_id":"ce4bhr92rcd13ifvqhrg","pricing_plan_id":"cebpf4jnsgd1na2vs0mg"},{"bike_id":"a1f77ca5-3240-4b1b-a07e-c4c4a5330094","system_id":"levelo_inurba_marseille","lat":43.33023,"lon":5.39047,"is_reserved":false,"is_disabled":false,"rental_uris":{"android":"levelo://app?vid=a1f77ca5-3240-4b1b-a07e-c4c4a5330094","ios":"levelo://app?vid=a1f77ca5-3240-4b1b-a07e-c4c4a5330094"},"vehicle_type_id":"4","last_reported":1724094416,"current_range_meters":4400,"station_id":"ce4bhr92rcd13ifvqhrg","pricing_plan_id":"cebpf4jnsgd1na2vs0mg"},{"bike_id":"28d054d9-08d1-42bc-a7bc-c2118003b398","system_id":"levelo_inurba_marseille","lat":43.29516,"lon":5.39047,"is_reserved":false,"is_disabled":false,"rental_uris":{"android":"levelo://app?vid=28d054d9-08d1-42bc-a7bc-c2118003b398","ios":"levelo://app?vid=28d054d9-08d1-42bc-a7bc-c2118003b398"},"vehicle_type_id":"4","last_reported":1724094416,"current_range_meters":11600,"station_id":"ce4bh3p2rcd13ifvqdp0","pricing_plan_id":"cebpf4jnsgd1na2vs0mg"},{"bike_id":"4ffa9fe7-d3cb-4f40-8995-d313954a85f3","system_id":"levelo_inurba_marseille","lat":43.295169,"lon":5.390426,"is_reserved":false,"is_disabled":false,"rental_uris":{"android":"levelo://app?vid=4ffa9fe7-d3cb-4f40-8995-d313954a85f3","ios":"levelo://app?vid=4ffa9fe7-d3cb-4f40-8995-d313954a85f3"},"vehicle_type_id":"4","last_reported":1724094416,"current_range_meters":20800,"station_id":"ce4bh3p2rcd13ifvqdp0","pricing_plan_id":"cebpf4jnsgd1na2vs0mg"},{"bike_id":"1c4b7e57-5483-44c3-b48d-7f45b9252aa8","system_id":"levelo_inurba_marseille","lat":43.295169,"lon":5.390426,"is_reserved":false,"is_disabled":false,"rental_uris":{"android":"levelo://app?vid=1c4b7e57-5483-44c3-b48d-7f45b9252aa8","ios":"levelo://app?vid=1c4b7e57-5483-44c3-b48d-7f45b9252aa8"},"vehicle_type_id":"4","last_reported":1724094416,"current_range_meters":4400,"station_id":"ce4bh3p2rcd13ifvqdp0","pricing_plan_id":"cebpf4jnsgd1na2vs0mg"},{"bike_id":"50ab53e5-4dbe-440a-9f11-4746665b47ca","system_id":"levelo_inurba_marseille","lat":43.330358,"lon":5.390788,"is_reserved":false,"is_disabled":false,"rental_uris":{"android":"levelo://app?vid=50ab53e5-4dbe-440a-9f11-4746665b47ca","ios":"levelo://app?vid=50ab53e5-4dbe-440a-9f11-4746665b47ca"},"vehicle_type_id":"4","last_reported":1724094416,"current_range_meters":3200,"station_id":"ce4bhr92rcd13ifvqhrg","pricing_plan_id":"cebpf4jnsgd1na2vs0mg"},{"bike_id":"8a56c075-dc83-4d46-8918-f351ac2f393d","system_id":"levelo_inurba_marseille","lat":43.2901,"lon":5.381269,"is_reserved":false,"is_disabled":false,"rental_uris":{"android":"levelo://app?vid=8a56c075-dc83-4d46-8918-f351ac2f393d","ios":"levelo://app?vid=8a56c075-dc83-4d46-8918-f351ac2f393d"},"vehicle_type_id":"4","last_reported":1724094416,"current_range_meters":8400,"station_id":"ce4bh4p2rcd13ifvqe1g","pricing_plan_id":"cebpf4jnsgd1na2vs0mg"},{"bike_id":"f8f29ea7-67e9-465d-9c41-14d78a3272c2","system_id":"levelo_inurba_marseille","lat":43.28792,"lon":5.36347,"is_reserved":false,"is_disabled":false,"rental_uris":{"android":"levelo://app?vid=f8f29ea7-67e9-465d-9c41-14d78a3272c2","ios":"levelo://app?vid=f8f29ea7-67e9-465d-9c41-14d78a3272c2"},"vehicle_type_id":"4","last_reported":1724094416,"current_range_meters":14400,"station_id":"","pricing_plan_id":"cebpf4jnsgd1na2vs0mg"},{"bike_id":"34953b28-b1ad-45e2-9cfa-92ced8f869a0","system_id":"levelo_inurba_marseille","lat":43.302503,"lon":5.39823,"is_reserved":false,"is_disabled":false,"rental_uris":{"android":"levelo://app?vid=34953b28-b1ad-45e2-9cfa-92ced8f869a0","ios":"levelo://app?vid=34953b28-b1ad-45e2-9cfa-92ced8f869a0"},"vehicle_type_id":"4","last_reported":1724094416,"current_range_meters":11600,"station_id":"","pricing_plan_id":"cebpf4jnsgd1na2vs0mg"},{"bike_id":"101e9ff2-3ce2-481e-9fbe-a3ce3832d82c","system_id":"levelo_inurba_marseille","lat":43.28856,"lon":5.358371,"is_reserved":false,"is_disabled":false,"rental_uris":{"android":"levelo://app?vid=101e9ff2-3ce2-481e-9fbe-a3ce3832d82c","ios":"levelo://app?vid=101e9ff2-3ce2-481e-9fbe-a3ce3832d82c"},"vehicle_type_id":"4","last_reported":1724094416,"current_range_meters":10400,"station_id":"ce4bhb12rcd13ifvqem0","pricing_plan_id":"cebpf4jnsgd1na2vs0mg"},{"bike_id":"84c35260-9b23-4672-bf21-5954b0189263","system_id":"levelo_inurba_marseille","lat":43.28856,"lon":5.358371,"is_reserved":false,"is_disabled":false,"rental_uris":{"android":"levelo://app?vid=84c35260-9b23-4672-bf21-5954b0189263","ios":"levelo://app?vid=84c35260-9b23-4672-bf21-5954b0189263"},"vehicle_type_id":"4","last_reported":1724094416,"current_range_meters":0,"station_id":"ce4bhb12rcd13ifvqem0","pricing_plan_id":"cebpf4jnsgd1na2vs0mg"},{"bike_id":"636140cd-73ed-4f4b-b098-42a3229e4b93","system_id":"levelo_inurba_marseille","lat":43.28856,"lon":5.358371,"is_reserved":false,"is_disabled":false,"rental_uris":{"android":"levelo://app?vid=636140cd-73ed-4f4b-b098-42a3229e4b93","ios":"levelo://app?vid=636140cd-73ed-4f4b-b098-42a3229e4b93"},"vehicle_type_id":"4","last_reported":1724094416,"current_range_meters":800,"station_id":"ce4bhb12rcd13ifvqem0","pricing_plan_id":"cebpf4jnsgd1na2vs0mg"},{"bike_id":"6d12b1b2-0fa4-40e2-808d-6410dabfac64","system_id":"levelo_inurba_marseille","lat":43.28856,"lon":5.358371,"is_reserved":false,"is_disabled":false,"rental_uris":{"android":"levelo://app?vid=6d12b1b2-0fa4-40e2-808d-6410dabfac64","ios":"levelo://app?vid=6d12b1b2-0fa4-40e2-808d-6410dabfac64"},"vehicle_type_id":"4","last_reported":1724094416,"current_range_meters":23200,"station_id":"ce4bhb12rcd13ifvqem0","pricing_plan_id":"cebpf4jnsgd1na2vs0mg"},{"bike_id":"1836cc79-05f9-4e7a-b5bb-2f4ade13265f","system_id":"levelo_inurba_marseille","lat":43.337188,"lon":5.374574,"is_reserved":false,"is_disabled":false,"rental_uris":{"android":"levelo://app?vid=1836cc79-05f9-4e7a-b5bb-2f4ade13265f","ios":"levelo://app?vid=1836cc79-05f9-4e7a-b5bb-2f4ade13265f"},"vehicle_type_id":"4","last_reported":1724094416,"current_range_meters":22800,"station_id":"","pricing_plan_id":"cebpf4jnsgd1na2vs0mg"},{"bike_id":"0e29bb4b-a142-468e-b1d8-2aad49f218eb","system_id":"levelo_inurba_marseille","lat":43.33733,"lon":5.37443,"is_reserved":false,"is_disabled":false,"rental_uris":{"android":"levelo://app?vid=0e29bb4b-a142-468e-b1d8-2aad49f218eb","ios":"levelo://app?vid=0e29bb4b-a142-468e-b1d8-2aad49f218eb"},"vehicle_type_id":"4","last_reported":1724094416,"current_range_meters":26400,"station_id":"","pricing_plan_id":"cebpf4jnsgd1na2vs0mg"},{"bike_id":"b3bc95aa-c280-4f4d-b1b3-df60b5d859ec","system_id":"levelo_inurba_marseille","lat":43.337444,"lon":5.374475,"is_reserved":false,"is_disabled":false,"rental_uris":{"android":"levelo://app?vid=b3bc95aa-c280-4f4d-b1b3-df60b5d859ec","ios":"levelo://app?vid=b3bc95aa-c280-4f4d-b1b3-df60b5d859ec"},"vehicle_type_id":"3","last_reported":1724094416,"current_range_meters":24800,"station_id":"","pricing_plan_id":"cebpf4jnsgd1na2vs0mg"},{"bike_id":"76760641-b256-4667-b2df-508614c2e2c6","system_id":"levelo_inurba_marseille","lat":43.30952,"lon":5.40145,"is_reserved":false,"is_disabled":false,"rental_uris":{"android":"levelo://app?vid=76760641-b256-4667-b2df-508614c2e2c6","ios":"levelo://app?vid=76760641-b256-4667-b2df-508614c2e2c6"},"vehicle_type_id":"4","last_reported":1724094416,"current_range_meters":26400,"station_id":"ce4bgvp2rcd13ifvqct0","pricing_plan_id":"cebpf4jnsgd1na2vs0mg"},{"bike_id":"44951db7-c132-436c-9e62-5ce5fd972c8a","system_id":"levelo_inurba_marseille","lat":43.312609,"lon":5.401662,"is_reserved":false,"is_disabled":false,"rental_uris":{"android":"levelo://app?vid=44951db7-c132-436c-9e62-5ce5fd972c8a","ios":"levelo://app?vid=44951db7-c132-436c-9e62-5ce5fd972c8a"},"vehicle_type_id":"4","last_reported":1724094416,"current_range_meters":6400,"station_id":"ce4bh092rcd13ifvqd30","pricing_plan_id":"cebpf4jnsgd1na2vs0mg"},{"bike_id":"1efa0b4a-e2bc-496e-a256-a2f14c3799dd","system_id":"levelo_inurba_marseille","lat":43.337472,"lon":5.374591,"is_reserved":false,"is_disabled":false,"rental_uris":{"android":"levelo://app?vid=1efa0b4a-e2bc-496e-a256-a2f14c3799dd","ios":"levelo://app?vid=1efa0b4a-e2bc-496e-a256-a2f14c3799dd"},"vehicle_type_id":"4","last_reported":1724094416,"current_range_meters":10400,"station_id":"","pricing_plan_id":"cebpf4jnsgd1na2vs0mg"},{"bike_id":"5a68b2cc-4303-4ef0-9704-120a4e014fc3","system_id":"levelo_inurba_marseille","lat":43.309371,"lon":5.401449,"is_reserved":false,"is_disabled":false,"rental_uris":{"android":"levelo://app?vid=5a68b2cc-4303-4ef0-9704-120a4e014fc3","ios":"levelo://app?vid=5a68b2cc-4303-4ef0-9704-120a4e014fc3"},"vehicle_type_id":"4","last_reported":1724094416,"current_range_meters":29200,"station_id":"ce4bgvp2rcd13ifvqct0","pricing_plan_id":"cebpf4jnsgd1na2vs0mg"},{"bike_id":"54fdf921-46c4-497a-93b1-cbec754b3d62","system_id":"levelo_inurba_marseille","lat":43.33749,"lon":5.37464,"is_reserved":false,"is_disabled":false,"rental_uris":{"android":"levelo://app?vid=54fdf921-46c4-497a-93b1-cbec754b3d62","ios":"levelo://app?vid=54fdf921-46c4-497a-93b1-cbec754b3d62"},"vehicle_type_id":"4","last_reported":1724094416,"current_range_meters":22000,"station_id":"","pricing_plan_id":"cebpf4jnsgd1na2vs0mg"},{"bike_id":"c4032557-ea02-4ca1-8623-f77e5c2ac89e","system_id":"levelo_inurba_marseille","lat":43.309371,"lon":5.401449,"is_reserved":false,"is_disabled":false,"rental_uris":{"android":"levelo://app?vid=c4032557-ea02-4ca1-8623-f77e5c2ac89e","ios":"levelo://app?vid=c4032557-ea02-4ca1-8623-f77e5c2ac89e"},"vehicle_type_id":"4","last_reported":1724094416,"current_range_meters":24800,"station_id":"ce4bgvp2rcd13ifvqct0","pricing_plan_id":"cebpf4jnsgd1na2vs0mg"},