{"last_updated":1714496782,"ttl":30,"version":"2.2","data":{"bikes":[{"bike_id":"e9a50d52-9e84-4dfd-9970-5295119879c3","system_id":"levelo_inurba_marseille","lat":43.31341,"lon":5.367098,"is_reserved":false,"is_disabled":false,"rental_uris":{"android":"levelo://app?vid=e9a50d52-9e84-4dfd-9970-5295119879c3","ios":"levelo://app?vid=e9a50d52-9e84-4dfd-9970-5295119879c3"},"vehicle_type_id":"4","last_reported":1714496782,"current_range_meters":0,"station_id":"ce4bgr92rcd13ifvqc6g","pricing_plan_id":"cebpf4jnsgd1na2vs0mg"},{"bike_id":"b9e38ff9-797a-43d9-b5fc-e8c4fe978099","system_id":"levelo_inurba_marseille","lat":43.31341,"lon":5.367098,"is_reserved":false,"is_disabled":false,"rental_uris":{"android":"levelo://app?vid=b9e38ff9-797a-43d9-b5fc-e8c4fe978099","ios":"levelo://app?vid=b9e38ff9-797a-43d9-b5fc-e8c4fe978099"},"vehicle_type_id":"4","last_reported":1714496782,"current_range_meters":12400,"station_id":"ce4bgr92rcd13ifvqc6g","pricing_plan_id":"cebpf4jnsgd1na2vs0mg"},{"bike_id":"371afdad-64b9-47a0-abc6-5d9241f4efe9","system_id":"levelo_inurba_marseille","lat":43.31341,"lon":5.367098,"is_reserved":false,"is_disabled":false,"rental_uris":{"android":"levelo://app?vid=371afdad-64b9-47a0-abc6-5d9241f4efe9","ios":"levelo://app?vid=371afdad-64b9-47a0-abc6-5d9241f4efe9"},"vehicle_type_id":"4","last_reported":1714496782,"current_range_meters":23600,"station_id":"ce4bgr92rcd13ifvqc6g","pricing_plan_id":"cebpf4jnsgd1na2vs0mg"},{"bike_id":"4f9f2cd6-08cd-4cba-aedc-da498449b2af","system_id":"levelo_inurba_marseille","lat":43.31341,"lon":5.367098,"is_reserved":false,"is_disabled":false,"rental_uris":{"android":"levelo://app?vid=4f9f2cd6-08cd-4cba-aedc-da498449b2af","ios":"levelo://app?vid=4f9f2cd6-08cd-4cba-aedc-da498449b2af"},"vehicle_type_id":"4","last_reported":1714496782,"current_range_meters":0,"station_id":"ce4bgr92rcd13ifvqc6g","pricing_plan_id":"cebpf4jnsgd1na2vs0mg"},{"bike_id":"5ca981ac-49e7-4e2d-8bd3-1edc6cd376e1","system_id":"levelo_inurba_marseille","lat":43.312239,"lon":5.368562,"is_reserved":false,"is_disabled":false,"rental_uris":{"android":"levelo://app?vid=5ca981ac-49e7-4e2d-8bd3-1edc6cd376e1","ios":"levelo://app?vid=5ca981ac-49e7-4e2d-8bd3-1edc6cd376e1"},"vehicle_type_id":"4","last_reported":1714496782,"current_range_meters":4800,"station_id":"ce4bgl92rcd13ifvqbq0","pricing_plan_id":"cebpf4jnsgd1na2vs0mg"},{"bike_id":"18fa062f-f167-4b5f-a138-8d1dae87a8ee","system_id":"levelo_inurba_marseille","lat":43.313391,"lon":5.36706,"is_reserved":false,"is_disabled":false,"rental_uris":{"android":"levelo://app?vid=18fa062f-f167-4b5f-a138-8d1dae87a8ee","ios":"levelo://app?vid=18fa062f-f167-4b5f-a138-8d1dae87a8ee"},"vehicle_type_id":"4","last_reported":1714496782,"current_range_meters":20000,"station_id":"ce4bgr92rcd13ifvqc6g","pricing_plan_id":"cebpf4jnsgd1na2vs0mg"},{"bike_id":"f0bccfa0-d026-4cf1-b1ad-821dfd922513","system_id":"levelo_inurba_marseille","lat":43.3092,"lon":5.36846,"is_reserved":false,"is_disabled":false,"rental_uris":{"android":"levelo://app?vid=f0bccfa0-d026-4cf1-b1ad-821dfd922513","ios":"levelo://app?vid=f0bccfa0-d026-4cf1-b1ad-821dfd922513"},"vehicle_type_id":"4","last_reported":1714496782,"current_range_meters":0,"station_id":"ce4bgn92rcd13ifvqbvg","pricing_plan_id":"cebpf4jnsgd1na2vs0mg"},{"bike_id":"3beb23a2-3726-4dea-bb77-7e6b408012ab","system_id":"levelo_inurba_marseille","lat":43.305706,"lon":5.365654,"is_reserved":false,"is_disabled":false,"rental_uris":{"android":"levelo://app?vid=3beb23a2-3726-4dea-bb77-7e6b408012ab","ios":"levelo://app?vid=3beb23a2-3726-4dea-bb77-7e6b408012ab"},"vehicle_type_id":"4","last_reported":1714496782,"current_range_meters":1600,"station_id":"ce4bgs12rcd13ifvqcag","pricing_plan_id":"cebpf4jnsgd1na2vs0mg"},{"bike_id":"44b925ab-c723-4e14-9a1c-9812e4a3d7ea","system_id":"levelo_inurba_marseille","lat":43.305368,"lon":5.367343,"is_reserved":false,"is_disabled":false,"rental_uris":{"android":"levelo://app?vid=44b925ab-c723-4e14-9a1c-9812e4a3d7ea","ios":"levelo://app?vid=44b925ab-c723-4e14-9a1c-9812e4a3d7ea"},"vehicle_type_id":"4","last_reported":1714496782,"current_range_meters":10800,"station_id":"ce4bgrp2rcd13ifvqc9g","pricing_plan_id":"cebpf4jnsgd1na2vs0mg"},{"bike_id":"f0b0dd89-b709-4d68-8185-700545b96b10","system_id":"levelo_inurba_marseille","lat":43.305989,"lon":5.37225,"is_reserved":false,"is_disabled":false,"rental_uris":{"android":"levelo://app?vid=f0b0dd89-b709-4d68-8185-700545b96b10","ios":"levelo://app?vid=f0b0dd89-b709-4d68-8185-700545b96b10"},"vehicle_type_id":"4","last_reported":1714496782,"current_range_meters":13600,"station_id":"ce4bgqh2rcd13ifvqc4g","pricing_plan_id":"cebpf4jnsgd1na2vs0mg"},{"bike_id":"56d8f3d2-48da-43c5-9685-c984909aef9f","system_id":"levelo_inurba_marseille","lat":43.311299,"lon":5.377647,"is_reserved":false,"is_disabled":false,"rental_uris":{"android":"levelo://app?vid=56d8f3d2-48da-43c5-9685-c984909aef9f","ios":"levelo://app?vid=56d8f3d2-48da-43c5-9685-c984909aef9f"},"vehicle_type_id":"4","last_reported":1714496782,"current_range_meters":0,"station_id":"ce4bgt92rcd13ifvqcg0","pricing_plan_id":"cebpf4jnsgd1na2vs0mg"},{"bike_id":"77444e19-eba2-4a89-9dc8-c8de0f397da1","system_id":"levelo_inurba_marseille","lat":43.307945,"lon":5.376487,"is_reserved":false,"is_disabled":false,"rental_uris":{"android":"levelo://app?vid=77444e19-eba2-4a89-9dc8-c8de0f397da1","ios":"levelo://app?vid=77444e19-eba2-4a89-9dc8-c8de0f397da1"},"vehicle_type_id":"4","last_reported":1714496782,"current_range_meters":28400,"station_id":"ce4bgv92rcd13ifvqcq0","pricing_plan_id":"cebpf4jnsgd1na2vs0mg"},{"bike_id":"60afd9d6-b996-427d-bee4-865097ea07ed","system_id":"levelo_inurba_marseille","lat":43.307945,"lon":5.376487,"is_reserved":false,"is_disabled":false,"rental_uris":{"android":"levelo://app?vid=60afd9d6-b996-427d-bee4-865097ea07ed","ios":"levelo://app?vid=60afd9d6-b996-427d-bee4-865097ea07ed"},"vehicle_type_id":"4","last_reported":1714496782,"current_range_meters":1200,"station_id":"ce4bgv92rcd13ifvqcq0","pricing_plan_id":"cebpf4jnsgd1na2vs0mg"},{"bike_id":"e345d745-39c1-4d04-8775-d2a2cc56b543","system_id":"levelo_inurba_marseille","lat":43.307945,"lon":5.376487,"is_reserved":false,"is_disabled":false,"rental_uris":{"android":"levelo://app?vid=e345d745-39c1-4d04-8775-d2a2cc56b543","ios":"levelo://app?vid=e345d745-39c1-4d04-8775-d2a2cc56b543"},"vehicle_type_id":"4","last_reported":1714496782,"current_range_meters":26400,"station_id":"ce4bgv92rcd13ifvqcq0","pricing_plan_id":"cebpf4jnsgd1na2vs0mg"},{"bike_id":"2d4bb3c4-c65b-4b11-a3de-4eb14fd33671","system_id":"levelo_inurba_marseille","lat":43.317075,"lon":5.377367,"is_reserved":false,"is_disabled":false,"rental_uris":{"android":"levelo://app?vid=2d4bb3c4-c65b-4b11-a3de-4eb14fd33671","ios":"levelo://app?vid=2d4bb3c4-c65b-4b11-a3de-4eb14fd33671"},"vehicle_type_id":"4","last_reported":1714496782,"current_range_meters":13600,"station_id":"ce4bgth2rcd13ifvqch0","pricing_plan_id":"cebpf4jnsgd1na2vs0mg"},{"bike_id":"b042f713-ab12-428f-b598-e553ff8a4abf","system_id":"levelo_inurba_marseille","lat":43.317075,"lon":5.377367,"is_reserved":false,"is_disabled":false,"rental_uris":{"android":"levelo://app?vid=b042f713-ab12-428f-b598-e553ff8a4abf","ios":"levelo://app?vid=b042f713-ab12-428f-b598-e553ff8a4abf"},"vehicle_type_id":"4","last_reported":1714496782,"current_range_meters":17600,"station_id":"ce4bgth2rcd13ifvqch0","pricing_plan_id":"cebpf4jnsgd1na2vs0mg"},{"bike_id":"af7b275b-482c-478d-a6c2-7b710b69ac94","system_id":"levelo_inurba_marseille","lat":43.317075,"lon":5.377367,"is_reserved":false,"is_disabled":false,"rental_uris":{"android":"levelo://app?vid=af7b275b-482c-478d-a6c2-7b710b69ac94","ios":"levelo://app?vid=af7b275b-482c-478d-a6c2-7b710b69ac94"},"vehicle_type_id":"4","last_reported":1714496782,"current_range_meters":7200,"station_id":"ce4bgth2rcd13ifvqch0","pricing_plan_id":"cebpf4jnsgd1na2vs0mg"},{"bike_id":"c141af60-bb58-49cd-8b2d-38749da86625","system_id":"levelo_inurba_marseille","lat":43.30304,"lon":5.368987,"is_reserved":false,"is_disabled":false,"rental_uris":{"android":"levelo://app?vid=c141af60-bb58-49cd-8b2d-38749da86625","ios":"levelo://app?vid=c141af60-bb58-49cd-8b2d-38749da86625"},"vehicle_type_id":"4","last_reported":1714496782,"current_range_meters":19600,"station_id":"ce4bgqh2rcd13ifvqc5g","pricing_plan_id":"cebpf4jnsgd1na2vs0mg"},{"bike_id":"2a7ef6ac-47ea-4e4c-8c12-2a40c3aa22ac","system_id":"levelo_inurba_marseille","lat":43.303046,"lon":5.368981,"is_reserved":false,"is_disabled":false,"rental_uris":{"android":"levelo://app?vid=2a7ef6ac-47ea-4e4c-8c12-2a40c3aa22ac","ios":"levelo://app?vid=2a7ef6ac-47ea-4e4c-8c12-2a40c3aa22ac"},"vehicle_type_id":"4","last_reported":1714496782,"current_range_meters":23600,"station_id":"ce4bgqh2rcd13ifvqc5g","pricing_plan_id":"cebpf4jnsgd1na2vs0mg"},{"bike_id":"590c010e-db7a-431d-add3-ec12a4bfd8c0","system_id":"levelo_inurba_marseille","lat":43.315289,"lon":5.380349,"is_reserved":false,"is_disabled":false,"rental_uris":{"android":"levelo://app?vid=590c010e-db7a-431d-add3-ec12a4bfd8c0","ios":"levelo://app?vid=590c010e-db7a-431d-add3-ec12a4bfd8c0"},"vehicle_type_id":"4","last_reported":1714496782,"current_range_meters":25200,"station_id":"ce4bhsp2rcd13ifvqi50","pricing_plan_id":"cebpf4jnsgd1na2vs0mg"},{"bike_id":"2695d1e2-8090-40e7-9c51-b77bb0cee9d5","system_id":"levelo_inurba_marseille","lat":43.301939,"lon":5.366286,"is_reserved":false,"is_disabled":false,"rental_uris":{"android":"levelo://app?vid=2695d1e2-8090-40e7-9c51-b77bb0cee9d5","ios":"levelo://app?vid=2695d1e2-8090-40e7-9c51-b77bb0cee9d5"},"vehicle_type_id":"4","last_reported":1714496782,"current_range_meters":14400,"station_id":"ce4bgrh2rcd13ifvqc8g","pricing_plan_id":"cebpf4jnsgd1na2vs0mg"},{"bike_id":"bea28cc8-4628-484e-87f0-ed0b73424b9f","system_id":"levelo_inurba_marseille","lat":43.301939,"lon":5.366286,"is_reserved":false,"is_disabled":false,"rental_uris":{"android":"levelo://app?vid=bea28cc8-4628-484e-87f0-ed0b73424b9f","ios":"levelo://app?vid=bea28cc8-4628-484e-87f0-ed0b73424b9f"},"vehicle_type_id":"4","last_reported":1714496782,"current_range_meters":13200,"station_id":"ce4bgrh2rcd13ifvqc8g","pricing_plan_id":"cebpf4jnsgd1na2vs0mg"},{"bike_id":"1bb146ed-3f06-43bc-95f4-0683b30bd4e6","system_id":"levelo_inurba_marseille","lat":43.30465,"lon":5.37892,"is_reserved":false,"is_disabled":false,"rental_uris":{"android":"levelo://app?vid=1bb146ed-3f06-43bc-95f4-0683b30bd4e6","ios":"levelo://app?vid=1bb146ed-3f06-43bc-95f4-0683b30bd4e6"},"vehicle_type_id":"4","last_reported":1714496782,"current_range_meters":0,"station_id":"ce4bgup2rcd13ifvqcn0","pricing_plan_id":"cebpf4jnsgd1na2vs0mg"},{"bike_id":"6b3b5cdf-e309-49cc-8c64-7056c2195172","system_id":"levelo_inurba_marseille","lat":43.304606,"lon":5.379026,"is_reserved":false,"is_disabled":false,"rental_uris":{"android":"levelo://app?vid=6b3b5cdf-e309-49cc-8c64-7056c2195172","ios":"levelo://app?vid=6b3b5cdf-e309-49cc-8c64-7056c2195172"},"vehicle_type_id":"4","last_reported":1714496782,"current_range_meters":2000,"station_id":"ce4bgup2rcd13ifvqcn0","pricing_plan_id":"cebpf4jnsgd1na2vs0mg"},{"bike_id":"478271a2-c857-4c44-88c4-4cdec904e587","system_id":"levelo_inurba_marseille","lat":43.324771,"lon":5.36557,"is_reserved":false,"is_disabled":false,"rental_uris":{"android":"levelo://app?vid=478271a2-c857-4c44-88c4-4cdec904e587","ios":"levelo://app?vid=478271a2-c857-4c44-88c4-4cdec904e587"},"vehicle_type_id":"4","last_reported":1714496782,"current_range_meters":14800,"station_id":"ce4bhs12rcd13ifvqhvg","pricing_plan_id":"cebpf4jnsgd1na2vs0mg"},{"bike_id":"8527c831-0127-4443-9e43-3baae785f1d0","system_id":"levelo_inurba_marseille","lat":43.304606,"lon":5.379026,"is_reserved":false,"is_disabled":false,"rental_uris":{"android":"levelo://app?vid=8527c831-0127-4443-9e43-3baae785f1d0","ios":"levelo://app?vid=8527c831-0127-4443-9e43-3baae785f1d0"},"vehicle_type_id":"4","last_reported":1714496782,"current_range_meters":9200,"station_id":"ce4bgup2rcd13ifvqcn0","pricing_plan_id":"cebpf4jnsgd1na2vs0mg"},{"bike_id":"2c259599-cee2-4872-bfdc-de6fbeaf4147","system_id":"levelo_inurba_marseille","lat":43.304606,"lon":5.379026,"is_reserved":false,"is_disabled":false,"rental_uris":{"android":"levelo://app?vid=2c259599-cee2-4872-bfdc-de6fbeaf4147","ios":"levelo://app?vid=2c259599-cee2-4872-bfdc-de6fbeaf4147"},"vehicle_type_id":"4","last_reported":1714496782,"current_range_meters":400,"station_id":"ce4bgup2rcd13ifvqcn0","pricing_plan_id":"cebpf4jnsgd1na2vs0mg"},{"bike_id":"775b5193-55cb-42f1-b0fa-acd6f40ef433","system_id":"levelo_inurba_marseille","lat":43.324771,"lon":5.36557,"is_reserved":false,"is_disabled":false,"rental_uris":{"android":"levelo://app?vid=775b5193-55cb-42f1-b0fa-acd6f40ef433","ios":"levelo://app?vid=775b5193-55cb-42f1-b0fa-acd6f40ef433"},"vehicle_type_id":"4","last_reported":1714496782,"current_range_meters":29600,"station_id":"ce4bhs12rcd13ifvqhvg","pricing_plan_id":"cebpf4jnsgd1na2vs0mg"},{"bike_id":"caadc003-ff39-41d7-a207-143cea53cb36","system_id":"levelo_inurba_marseille","lat":43.324801,"lon":5.365783,"is_reserved":false,"is_disabled":false,"rental_uris":{"android":"levelo://app?vid=caadc003-ff39-41d7-a207-143cea53cb36","ios":"levelo://app?vid=caadc003-ff39-41d7-a207-143cea53cb36"},"vehicle_type_id":"4","last_reported":1714496782,"current_range_meters":30800,"station_id":"ce4bhs12rcd13ifvqhvg","pricing_plan_id":"cebpf4jnsgd1na2vs0mg"},{"bike_id":"0a4a6ca4-0474-4f68-b089-af26c0c8b25a","system_id":"levelo_inurba_marseille","lat":43.324771,"lon":5.36557,"is_reserved":false,"is_disabled":false,"rental_uris":{"android":"levelo://app?vid=0a4a6ca4-0474-4f68-b089-af26c0c8b25a","ios":"levelo://app?vid=0a4a6ca4-0474-4f68-b089-af26c0c8b25a"},"vehicle_type_id":"4","last_reported":1714496782,"current_range_meters":19600,"station_id":"ce4bhs12rcd13ifvqhvg","pricing_plan_id":"cebpf4jnsgd1na2vs0mg"},{"bike_id":"06ac2027-09f1-4680-aa1f-6ab726213cb9","system_id":"levelo_inurba_marseille","lat":43.324771,"lon":5.36557,"is_reserved":false,"is_disabled":false,"rental_uris":{"android":"levelo://app?vid=06ac2027-09f1-4680-aa1f-6ab726213cb9","ios":"levelo://app?vid=06ac2027-09f1-4680-aa1f-6ab726213cb9"},"vehicle_type_id":"4","last_reported":1714496782,"current_range_meters":9200,"station_id":"ce4bhs12rcd13ifvqhvg","pricing_plan_id":"cebpf4jnsgd1na2vs0mg"},{"bike_id":"7a10f6e8-8083-4b57-a90f-541d4663b3eb","system_id":"levelo_inurba_marseille","lat":43.324771,"lon":5.36557,"is_reserved":false,"is_disabled":false,"rental_uris":{"android":"levelo://app?vid=7a10f6e8-8083-4b57-a90f-541d4663b3eb","ios":"levelo://app?vid=7a10f6e8-8083-4b57-a90f-541d4663b3eb"},"vehicle_type_id":"4","last_reported":1714496782,"current_range_meters":15600,"station_id":"ce4bhs12rcd13ifvqhvg","pricing_plan_id":"cebpf4jnsgd1na2vs0mg"},{"bike_id":"cb5035c4-9e66-46e5-baea-a68bc4206adf","system_id":"levelo_inurba_marseille","lat":43.324832,"lon":5.365887,"is_reserved":false,"is_disabled":false,"rental_uris":{"android":"levelo://app?vid=cb5035c4-9e66-46e5-baea-a68bc4206adf","ios":"levelo://app?vid=cb5035c4-9e66-46e5-baea-a68bc4206adf"},"vehicle_type_id":"4","last_reported":1714496782,"current_range_meters":14400,"station_id":"ce4bhs12rcd13ifvqhvg","pricing_plan_id":"cebpf4jnsgd1na2vs0mg"},{"bike_id":"1c9411c0-d42f-4c9c-954b-623621242b42","system_id":"levelo_inurba_marseille","lat":43.324771,"lon":5.36557,"is_reserved":false,"is_disabled":false,"rental_uris":{"android":"levelo://app?vid=1c9411c0-d42f-4c9c-954b-623621242b42","ios":"levelo://app?vid=1c9411c0-d42f-4c9c-954b-623621242b42"},"vehicle_type_id":"4","last_reported":1714496782,"current_range_meters":13600,"station_id":"ce4bhs12rcd13ifvqhvg","pricing_plan_id":"cebpf4jnsgd1na2vs0mg"},{"bike_id":"e560c9f7-9a68-4c7c-a574-1ae51de44590","system_id":"levelo_inurba_marseille","lat":43.324771,"lon":5.36557,"is_reserved":false,"is_disabled":false,"rental_uris":{"android":"levelo://app?vid=e560c9f7-9a68-4c7c-a574-1ae51de44590","ios":"levelo://app?vid=e560c9f7-9a68-4c7c-a574-1ae51de44590"},"vehicle_type_id":"4","last_reported":1714496782,"current_range_meters":9600,"station_id":"ce4bhs12rcd13ifvqhvg","pricing_plan_id":"cebpf4jnsgd1na2vs0mg"},{"bike_id":"38034195-f3ea-4a5f-9ad9-18410ccfb664","system_id":"levelo_inurba_marseille","lat":43.32483,"lon":5.36573,"is_reserved":false,"is_disabled":false,"rental_uris":{"android":"levelo://app?vid=38034195-f3ea-4a5f-9ad9-18410ccfb664","ios":"levelo://app?vid=38034195-f3ea-4a5f-9ad9-18410ccfb664"},"vehicle_type_id":"4","last_reported":1714496782,"current_range_meters":15200,"station_id":"ce4bhs12rcd13ifvqhvg","pricing_plan_id":"cebpf4jnsgd1na2vs0mg"},{"bike_id":"b542f8ad-0de0-40a1-9ef7-53b385381a12","system_id":"levelo_inurba_marseille","lat":43.324771,"lon":5.36557,"is_reserved":false,"is_disabled":false,"rental_uris":{"android":"levelo://app?vid=b542f8ad-0de0-40a1-9ef7-53b385381a12","ios":"levelo://app?vid=b542f8ad-0de0-40a1-9ef7-53b385381a12"},"vehicle_type_id":"4","last_reported":1714496782,"current_range_meters":8400,"station_id":"ce4bhs12rcd13ifvqhvg","pricing_plan_id":"cebpf4jnsgd1na2vs0mg"},{"bike_id":"ff14dfe6-78af-413d-a3ea-3b224d7ea33d","system_id":"levelo_inurba_marseille","lat":43.324771,"lon":5.36557,"is_reserved":false,"is_disabled":false,"rental_uris":{"android":"levelo://app?vid=ff14dfe6-78af-413d-a3ea-3b224d7ea33d","ios":"levelo://app?vid=ff14dfe6-78af-413d-a3ea-3b224d7ea33d"},"vehicle_type_id":"4","last_reported":1714496782,"current_range_meters":24000,"station_id":"ce4bhs12rcd13ifvqhvg","pricing_plan_id":"cebpf4jnsgd1na2vs0mg"},{"bike_id":"c309f7ba-6ad6-4d3f-a1a7-a3843971cf8b","system_id":"levelo_inurba_marseille","lat":43.324771,"lon":5.36557,"is_reserved":false,"is_disabled":false,"rental_uris":{"android":"levelo://app?vid=c309f7ba-6ad6-4d3f-a1a7-a3843971cf8b","ios":"levelo://app?vid=c309f7ba-6ad6-4d3f-a1a7-a3843971cf8b"},"vehicle_type_id":"4","last_reported":1714496782,"current_range_meters":23600,"station_id":"ce4bhs12rcd13ifvqhvg","pricing_plan_id":"cebpf4jnsgd1na2vs0mg"},{"bike_id":"b21ae7ee-dd87-4fb7-a859-109931d2977d","system_id":"levelo_inurba_marseille","lat":43.324771,"lon":5.36557,"is_reserved":false,"is_disabled":false,"rental_uris":{"android":"levelo://app?vid=b21ae7ee-dd87-4fb7-a859-109931d2977d","ios":"levelo://app?vid=b21ae7ee-dd87-4fb7-a859-109931d2977d"},"vehicle_type_id":"4","last_reported":1714496782,"current_range_meters":14800,"station_id":"ce4bhs12rcd13ifvqhvg","pricing_plan_id":"cebpf4jnsgd1na2vs0mg"},{"bike_id":"a220ad8e-30f9-4404-aa2e-6db3aa6afb45","system_id":"levelo_inurba_marseille","lat":43.324771,"lon":5.36557,"is_reserved":false,"is_disabled":false,"rental_uris":{"android":"levelo://app?vid=a220ad8e-30f9-4404-aa2e-6db3aa6afb45","ios":"levelo://app?vid=a220ad8e-30f9-4404-aa2e-6db3aa6afb45"},"vehicle_type_id":"4","last_reported":1714496782,"current_range_meters":10000,"station_id":"ce4bhs12rcd13ifvqhvg","pricing_plan_id":"cebpf4jnsgd1na2vs0mg"},{"bike_id":"fca0512a-e514-43b3-a37e-665741369b77","system_id":"levelo_inurba_marseille","lat":43.324771,"lon":5.36557,"is_reserved":false,"is_disabled":false,"rental_uris":{"android":"levelo://app?vid=fca0512a-e514-43b3-a37e-665741369b77","ios":"levelo://app?vid=fca0512a-e514-43b3-a37e-665741369b77"},"vehicle_type_id":"4","last_reported":1714496782,"current_range_meters":18400,"station_id":"ce4bhs12rcd13ifvqhvg","pricing_plan_id":"cebpf4jnsgd1na2vs0mg"},{"bike_id":"cee4be46-6111-4f1e-ae19-5c2c45e8026c","system_id":"levelo_inurba_marseille","lat":43.324771,"lon":5.36557,"is_reserved":false,"is_disabled":false,"rental_uris":{"android":"levelo://app?vid=cee4be46-6111-4f1e-ae19-5c2c45e8026c","ios":"levelo://app?vid=cee4be46-6111-4f1e-ae19-5c2c45e8026c"},"vehicle_type_id":"4","last_reported":1714496782,"current_range_meters":20400,"station_id":"ce4bhs12rcd13ifvqhvg","pricing_plan_id":"cebpf4jnsgd1na2vs0mg"},{"bike_id":"505c9fc0-49c3-4c39-ab88-1ba2555dbf58","system_id":"levelo_inurba_marseille","lat":43.32486,"lon":5.36569,"is_reserved":false,"is_disabled":false,"rental_uris":{"android":"levelo://app?vid=505c9fc0-49c3-4c39-ab88-1ba2555dbf58","ios":"levelo://app?vid=505c9fc0-49c3-4c39-ab88-1ba2555dbf58"},"vehicle_type_id":"4","last_reported":1714496782,"current_range_meters":11200,"station_id":"ce4bhs12rcd13ifvqhvg","pricing_plan_id":"cebpf4jnsgd1na2vs0mg"},{"bike_id":"ec9ad42d-7bf5-43ef-a2cf-ce73f78031d9","system_id":"levelo_inurba_marseille","lat":43.324771,"lon":5.36557,"is_reserved":false,"is_disabled":false,"rental_uris":{"android":"levelo://app?vid=ec9ad42d-7bf5-43ef-a2cf-ce73f78031d9","ios":"levelo://app?vid=ec9ad42d-7bf5-43ef-a2cf-ce73f78031d9"},"vehicle_type_id":"4","last_reported":1714496782,"current_range_meters":8400,"station_id":"ce4bhs12rcd13ifvqhvg","pricing_plan_id":"cebpf4jnsgd1na2vs0mg"},{"bike_id":"263ddf92-f97b-4bde-af65-350aba08e4ca","system_id":"levelo_inurba_marseille","lat":43.324771,"lon":5.36557,"is_reserved":false,"is_disabled":false,"rental_uris":{"android":"levelo://app?vid=263ddf92-f97b-4bde-af65-350aba08e4ca","ios":"levelo://app?vid=263ddf92-f97b-4bde-af65-350aba08e4ca"},"vehicle_type_id":"4","last_reported":1714496782,"current_range_meters":11600,"station_id":"ce4bhs12rcd13ifvqhvg","pricing_plan_id":"cebpf4jnsgd1na2vs0mg"},{"bike_id":"d689d75b-2503-4c26-a0fd-e4e182d9b314","system_id":"levelo_inurba_marseille","lat":43.324771,"lon":5.36557,"is_reserved":false,"is_disabled":false,"rental_uris":{"android":"levelo://app?vid=d689d75b-2503-4c26-a0fd-e4e182d9b314","ios":"levelo://app?vid=d689d75b-2503-4c26-a0fd-e4e182d9b314"},"vehicle_type_id":"4","last_reported":1714496782,"current_range_meters":13200,"station_id":"ce4bhs12rcd13ifvqhvg","pricing_plan_id":"cebpf4jnsgd1na2vs0mg"},{"bike_id":"c39c2970-997f-4bd2-bc96-2b2b8a03b798","system_id":"levelo_inurba_marseille","lat":43.310482,"lon":5.383361,"is_reserved":false,"is_disabled":false,"rental_uris":{"android":"levelo://app?vid=c39c2970-997f-4bd2-bc96-2b2b8a03b798","ios":"levelo://app?vid=c39c2970-997f-4bd2-bc96-2b2b8a03b798"},"vehicle_type_id":"4","last_reported":1714496782,"current_range_meters":11600,"station_id":"ce4bgv92rcd13ifvqcr0","pricing_plan_id":"cebpf4jnsgd1na2vs0mg"},{"bike_id":"3233b655-0e42-4745-9352-e7ab6daacfd8","system_id":"levelo_inurba_marseille","lat":43.324771,"lon":5.36557,"is_reserved":false,"is_disabled":false,"rental_uris":{"android":"levelo://app?vid=3233b655-0e42-4745-9352-e7ab6daacfd8","ios":"levelo://app?vid=3233b655-0e42-4745-9352-e7ab6daacfd8"},"vehicle_type_id":"4","last_reported":1714496782,"current_range_meters":30800,"station_id":"ce4bhs12rcd13ifvqhvg","pricing_plan_id":"cebpf4jnsgd1na2vs0mg"},{"bike_id":"839f9b0a-e2de-40b6-a96b-42aee9c17f96","system_id":"levelo_inurba_marseille","lat":43.310804,"lon":5.38359,"is_reserved":false,"is_disabled":false,"rental_uris":{"android":"levelo://app?vid=839f9b0a-e2de-40b6-a96b-42aee9c17f96","ios":"levelo://app?vid=839f9b0a-e2de-40b6-a96b-42aee9c17f96"},"vehicle_type_id":"4","last_reported":1714496782,"current_range_meters":25600,"station_id":"ce4bgv92rcd13ifvqcr0","pricing_plan_id":"cebpf4jnsgd1na2vs0mg"},{"bike_id":"b64b0c32-a6ea-4897-b859-e657ca8e40d5","system_id":"levelo_inurba_marseille","lat":43.324771,"lon":5.36557,"is_reserved":false,"is_disabled":false,"rental_uris":{"android":"levelo://app?vid=b64b0c32-a6ea-4897-b859-e657ca8e40d5","ios":"levelo://app?vid=b64b0c32-a6ea-4897-b859-e657ca8e40d5"},"vehicle_type_id":"4","last_reported":1714496782,"current_range_meters":22800,"station_id":"ce4bhs12rcd13ifvqhvg","pricing_plan_id":"cebpf4jnsgd1na2vs0mg"},{"bike_id":"2cb8d4af-041d-4bec-a228-7f59da5d6549","system_id":"levelo_inurba_marseille","lat":43.32491,"lon":5.36567,"is_reserved":false,"is_disabled":false,"rental_uris":{"android":"levelo://app?vid=2cb8d4af-041d-4bec-a228-7f59da5d6549","ios":"levelo://app?vid=2cb8d4af-041d-4bec-a228-7f59da5d6549"},"vehicle_type_id":"4","last_reported":1714496782,"current_range_meters":2800,"station_id":"ce4bhs12rcd13ifvqhvg","pricing_plan_id":"cebpf4jnsgd1na2vs0mg"},{"bike_id":"7faf0005-eabf-478d-bd01-33ea0f2e1473","system_id":"levelo_inurba_marseille","lat":43.310804,"lon":5.38359,"is_reserved":false,"is_disabled":false,"rental_uris":{"android":"levelo://app?vid=7faf0005-eabf-478d-bd01-33ea0f2e1473","ios":"levelo://app?vid=7faf0005-eabf-478d-bd01-33ea0f2e1473"},"vehicle_type_id":"4","last_reported":1714496782,"current_range_meters":20800,"station_id":"ce4bgv92rcd13ifvqcr0","pricing_plan_id":"cebpf4jnsgd1na2vs0mg"},{"bike_id":"20ee36ab-83ec-4fcb-9465-adbceb8bedfc","system_id":"levelo_inurba_marseille","lat":43.324771,"lon":5.36557,"is_reserved":false,"is_disabled":false,"rental_uris":{"android":"levelo://app?vid=20ee36ab-83ec-4fcb-9465-adbceb8bedfc","ios":"levelo://app?vid=20ee36ab-83ec-4fcb-9465-adbceb8bedfc"},"vehicle_type_id":"4","last_reported":1714496782,"current_range_meters":30400,"station_id":"ce4bhs12rcd13ifvqhvg","pricing_plan_id":"cebpf4jnsgd1na2vs0mg"},{"bike_id":"9669b00c-dbb0-45d0-8e69-f66bf55a21fe","system_id":"levelo_inurba_marseille","lat":43.310804,"lon":5.38359,"is_reserved":false,"is_disabled":false,"rental_uris":{"android":"levelo://app?vid=9669b00c-dbb0-45d0-8e69-f66bf55a21fe","ios":"levelo://app?vid=9669b00c-dbb0-45d0-8e69-f66bf55a21fe"},"vehicle_type_id":"4","last_reported":1714496782,"current_range_meters":23200,"station_id":"ce4bgv92rcd13ifvqcr0","pricing_plan_id":"cebpf4jnsgd1na2vs0mg"},{"bike_id":"26d205b6-b769-46a2-a934-29399af49824","system_id":"levelo_inurba_marseille","lat":43.309039,"lon":5.371797,"is_reserved":false,"is_disabled":false,"rental_uris":{"android":"levelo://app?vid=26d205b6-b769-46a2-a934-29399af49824","ios":"levelo://app?vid=26d205b6-b769-46a2-a934-29399af49824"},"vehicle_type_id":"4","last_reported":1714496782,"current_range_meters":4400,"station_id":"ce4bguh2rcd13ifvqckg","pricing_plan_id":"cebpf4jnsgd1na2vs0mg"},{"bike_id":"a69a7666-57a5-44f1-8c4f-82cef735d3b0","system_id":"levelo_inurba_marseille","lat":43.30143,"lon":5.37413,"is_reserved":false,"is_disabled":false,"rental_uris":{"android":"levelo://app?vid=a69a7666-57a5-44f1-8c4f-82cef735d3b0","ios":"levelo://app?vid=a69a7666-57a5-44f1-8c4f-82cef735d3b0"},"vehicle_type_id":"4","last_reported":1714496782,"current_range_meters":17200,"station_id":"ce4bgs92rcd13ifvqcc0","pricing_plan_id":"cebpf4jnsgd1na2vs0mg"},{"bike_id":"952baf88-6145-4f3f-b32f-66ddd2b06b56","system_id":"levelo_inurba_marseille","lat":43.319935,"lon":5.381699,"is_reserved":false,"is_disabled":false,"rental_uris":{"android":"levelo://app?vid=952baf88-6145-4f3f-b32f-66ddd2b06b56","ios":"levelo://app?vid=952baf88-6145-4f3f-b32f-66ddd2b06b56"},"vehicle_type_id":"4","last_reported":1714496782,"current_range_meters":6400,"station_id":"ce4bhr12rcd13ifvqhpg","pricing_plan_id":"cebpf4jnsgd1na2vs0mg"},{"bike_id":"4b678404-bcb7-469e-8217-1687e76be9e0","system_id":"levelo_inurba_marseille","lat":43.319935,"lon":5.381699,"is_reserved":false,"is_disabled":false,"rental_uris":{"android":"levelo://app?vid=4b678404-bcb7-469e-8217-1687e76be9e0","ios":"levelo://app?vid=4b678404-bcb7-469e-8217-1687e76be9e0"},"vehicle_type_id":"4","last_reported":1714496782,"current_range_meters":23600,"station_id":"ce4bhr12rcd13ifvqhpg","pricing_plan_id":"cebpf4jnsgd1na2vs0mg"},{"bike_id":"4eabf273-d6ab-4f69-aa17-5ce3078e9cfa","system_id":"levelo_inurba_marseille","lat":43.319935,"lon":5.381699,"is_reserved":false,"is_disabled":false,"rental_uris":{"android":"levelo://app?vid=4eabf273-d6ab-4f69-aa17-5ce3078e9cfa","ios":"levelo://app?vid=4eabf273-d6ab-4f69-aa17-5ce3078e9cfa"},"vehicle_type_id":"4","last_reported":1714496782,"current_range_meters":13200,"station_id":"ce4bhr12rcd13ifvqhpg","pricing_plan_id":"cebpf4jnsgd1na2vs0mg"},{"bike_id":"bf7237d8-45ec-4e41-a5f9-2e40df36b0a3","system_id":"levelo_inurba_marseille","lat":43.319935,"lon":5.381699,"is_reserved":false,"is_disabled":false,"rental_uris":{"android":"levelo://app?vid=bf7237d8-45ec-4e41-a5f9-2e40df36b0a3","ios":"levelo://app?vid=bf7237d8-45ec-4e41-a5f9-2e40df36b0a3"},"vehicle_type_id":"4","last_reported":1714496782,"current_range_meters":9600,"station_id":"ce4bhr12rcd13ifvqhpg","pricing_plan_id":"cebpf4jnsgd1na2vs0mg"},{"bike_id":"ad4e83bd-614d-4fae-bc45-2353752384ba","system_id":"levelo_inurba_marseille","lat":43.299222,"lon":5.365554,"is_reserved":false,"is_disabled":false,"rental_uris":{"android":"levelo://app?vid=ad4e83bd-614d-4fae-bc45-2353752384ba","ios":"levelo://app?vid=ad4e83bd-614d-4fae-bc45-2353752384ba"},"vehicle_type_id":"4","last_reported":1714496782,"current_range_meters":30800,"station_id":"ce4bgm92rcd13ifvqbr0","pricing_plan_id":"cebpf4jnsgd1na2vs0mg"},{"bike_id":"8a231d23-6c67-48d2-a244-2c65137a7249","system_id":"levelo_inurba_marseille","lat":43.313571,"lon":5.384829,"is_reserved":false,"is_disabled":false,"rental_uris":{"android":"levelo://app?vid=8a231d23-6c67-48d2-a244-2c65137a7249","ios":"levelo://app?vid=8a231d23-6c67-48d2-a244-2c65137a7249"},"vehicle_type_id":"4","last_reported":1714496782,"current_range_meters":24000,"station_id":"ce4bgt92rcd13ifvqcf0","pricing_plan_id":"cebpf4jnsgd1na2vs0mg"},{"bike_id":"b3d3672a-c67b-44a8-a99d-116beda3e65a","system_id":"levelo_inurba_marseille","lat":43.299724,"lon":5.371829,"is_reserved":false,"is_disabled":false,"rental_uris":{"android":"levelo://app?vid=b3d3672a-c67b-44a8-a99d-116beda3e65a","ios":"levelo://app?vid=b3d3672a-c67b-44a8-a99d-116beda3e65a"},"vehicle_type_id":"4","last_reported":1714496782,"current_range_meters":6000,"station_id":"ce4bgr92rcd13ifvqc7g","pricing_plan_id":"cebpf4jnsgd1na2vs0mg"},{"bike_id":"e02faaaf-ecd5-46e5-96fc-fbedba85b015","system_id":"levelo_inurba_marseille","lat":43.305364,"lon":5.384119,"is_reserved":false,"is_disabled":false,"rental_uris":{"android":"levelo://app?vid=e02faaaf-ecd5-46e5-96fc-fbedba85b015","ios":"levelo://app?vid=e02faaaf-ecd5-46e5-96fc-fbedba85b015"},"vehicle_type_id":"4","last_reported":1714496782,"current_range_meters":2400,"station_id":"ce4bgg92rcd13ifvqb30","pricing_plan_id":"cebpf4jnsgd1na2vs0mg"},{"bike_id":"b190b3a7-aee0-4b11-9433-2099891c9c36","system_id":"levelo_inurba_marseille","lat":43.298433,"lon":5.362774,"is_reserved":false,"is_disabled":false,"rental_uris":{"android":"levelo://app?vid=b190b3a7-aee0-4b11-9433-2099891c9c36","ios":"levelo://app?vid=b190b3a7-aee0-4b11-9433-2099891c9c36"},"vehicle_type_id":"4","last_reported":1714496782,"current_range_meters":8400,"station_id":"ce4bgpp2rcd13ifvqc3g","pricing_plan_id":"cebpf4jnsgd1na2vs0mg"},{"bike_id":"f46339ae-c3c0-4502-9ae5-cf473a7bbb88","system_id":"levelo_inurba_marseille","lat":43.298433,"lon":5.362774,"is_reserved":false,"is_disabled":false,"rental_uris":{"android":"levelo://app?vid=f46339ae-c3c0-4502-9ae5-cf473a7bbb88","ios":"levelo://app?vid=f46339ae-c3c0-4502-9ae5-cf473a7bbb88"},"vehicle_type_id":"4","last_reported":1714496782,"current_range_meters":31600,"station_id":"ce4bgpp2rcd13ifvqc3g","pricing_plan_id":"cebpf4jnsgd1na2vs0mg"},{"bike_id":"2d7a1b3e-6d7b-4689-8dd5-1fa7c33df5ed","system_id":"levelo_inurba_marseille","lat":43.305364,"lon":5.384119,"is_reserved":false,"is_disabled":false,"rental_uris":{"android":"levelo://app?vid=2d7a1b3e-6d7b-4689-8dd5-1fa7c33df5ed","ios":"levelo://app?vid=2d7a1b3e-6d7b-4689-8dd5-1fa7c33df5ed"},"vehicle_type_id":"4","last_reported":1714496782,"current_range_meters":18400,"station_id":"ce4bgg92rcd13ifvqb30","pricing_plan_id":"cebpf4jnsgd1na2vs0mg"},{"bike_id":"21a95461-611a-4820-9332-679d351fba8a","system_id":"levelo_inurba_marseille","lat":43.305364,"lon":5.384119,"is_reserved":false,"is_disabled":false,"rental_uris":{"android":"levelo://app?vid=21a95461-611a-4820-9332-679d351fba8a","ios":"levelo://app?vid=21a95461-611a-4820-9332-679d351fba8a"},"vehicle_type_id":"4","last_reported":1714496782,"current_range_meters":20800,"station_id":"ce4bgg92rcd13ifvqb30","pricing_plan_id":"cebpf4jnsgd1na2vs0mg"},{"bike_id":"e55a0809-44ff-4e28-b27d-58bf8e35eab7","system_id":"levelo_inurba_marseille","lat":43.305364,"lon":5.384119,"is_reserved":false,"is_disabled":false,"rental_uris":{"android":"levelo://app?vid=e55a0809-44ff-4e28-b27d-58bf8e35eab7","ios":"levelo://app?vid=e55a0809-44ff-4e28-b27d-58bf8e35eab7"},"vehicle_type_id":"4","last_reported":1714496782,"current_range_meters":1200,"station_id":"ce4bgg92rcd13ifvqb30","pricing_plan_id":"cebpf4jnsgd1na2vs0mg"},{"bike_id":"0726b45d-b25b-46f7-94a0-58ecc5f63ff5","system_id":"levelo_inurba_marseille","lat":43.298433,"lon":5.362774,"is_reserved":false,"is_disabled":false,"rental_uris":{"android":"levelo://app?vid=0726b45d-b25b-46f7-94a0-58ecc5f63ff5","ios":"levelo://app?vid=0726b45d-b25b-46f7-94a0-58ecc5f63ff5"},"vehicle_type_id":"4","last_reported":1714496782,"current_range_meters":14800,"station_id":"ce4bgpp2rcd13ifvqc3g","pricing_plan_id":"cebpf4jnsgd1na2vs0mg"},{"bike_id":"d56c83ed-0de8-4bc2-b93a-50c7e13761ae","system_id":"levelo_inurba_marseille","lat":43.305364,"lon":5.384119,"is_reserved":false,"is_disabled":false,"rental_uris":{"android":"levelo://app?vid=d56c83ed-0de8-4bc2-b93a-50c7e13761ae","ios":"levelo://app?vid=d56c83ed-0de8-4bc2-b93a-50c7e13761ae"},"vehicle_type_id":"4","last_reported":1714496782,"current_range_meters":20400,"station_id":"ce4bgg92rcd13ifvqb30","pricing_plan_id":"cebpf4jnsgd1na2vs0mg"},{"bike_id":"943c8556-ace0-40af-8a76-64073f59b712","system_id":"levelo_inurba_marseille","lat":43.299243,"lon":5.374807,"is_reserved":false,"is_disabled":false,"rental_uris":{"android":"levelo://app?vid=943c8556-ace0-40af-8a76-64073f59b712","ios":"levelo://app?vid=943c8556-ace0-40af-8a76-64073f59b712"},"vehicle_type_id":"4","last_reported":1714496782,"current_range_meters":28800,"station_id":"ce4bgjh2rcd13ifvqbg0","pricing_plan_id":"cebpf4jnsgd1na2vs0mg"},{"bike_id":"a0178300-aaef-4178-96b0-a4f38a8adfb8","system_id":"levelo_inurba_marseille","lat":43.311722,"lon":5.387247,"is_reserved":false,"is_disabled":false,"rental_uris":{"android":"levelo://app?vid=a0178300-aaef-4178-96b0-a4f38a8adfb8","ios":"levelo://app?vid=a0178300-aaef-4178-96b0-a4f38a8adfb8"},"vehicle_type_id":"4","last_reported":1714496782,"current_range_meters":0,"station_id":"ce4bgv12rcd13ifvqcp0","pricing_plan_id":"cebpf4jnsgd1na2vs0mg"},{"bike_id":"2c43ef6c-0f0f-4286-b7e9-8f678e6c2bfc","system_id":"levelo_inurba_marseille","lat":43.311722,"lon":5.387247,"is_reserved":false,"is_disabled":false,"rental_uris":{"android":"levelo://app?vid=2c43ef6c-0f0f-4286-b7e9-8f678e6c2bfc","ios":"levelo://app?vid=2c43ef6c-0f0f-4286-b7e9-8f678e6c2bfc"},"vehicle_type_id":"4","last_reported":1714496782,"current_range_meters":31200,"station_id":"ce4bgv12rcd13ifvqcp0","pricing_plan_id":"cebpf4jnsgd1na2vs0mg"},{"bike_id":"04adf052-58f7-4508-a4d6-959fea14c14f","system_id":"levelo_inurba_marseille","lat":43.322872,"lon":5.382756,"is_reserved":false,"is_disabled":false,"rental_uris":{"android":"levelo://app?vid=04adf052-58f7-4508-a4d6-959fea14c14f","ios":"levelo://app?vid=04adf052-58f7-4508-a4d6-959fea14c14f"},"vehicle_type_id":"4","last_reported":1714496782,"current_range_meters":4800,"station_id":"ce4bhr12rcd13ifvqhqg","pricing_plan_id":"cebpf4jnsgd1na2vs0mg"},{"bike_id":"726e1e87-cba6-41f7-ad2e-489ae4aa3f9f","system_id":"levelo_inurba_marseille","lat":43.322872,"lon":5.382756,"is_reserved":false,"is_disabled":false,"rental_uris":{"android":"levelo://app?vid=726e1e87-cba6-41f7-ad2e-489ae4aa3f9f","ios":"levelo://app?vid=726e1e87-cba6-41f7-ad2e-489ae4aa3f9f"},"vehicle_type_id":"4","last_reported":1714496782,"current_range_meters":31200,"station_id":"ce4bhr12rcd13ifvqhqg","pricing_plan_id":"cebpf4jnsgd1na2vs0mg"},{"bike_id":"928f0eea-75dd-46b9-b7dc-fb23c5efe5f6","system_id":"levelo_inurba_marseille","lat":43.297163,"lon":5.365866,"is_reserved":false,"is_disabled":false,"rental_uris":{"android":"levelo://app?vid=928f0eea-75dd-46b9-b7dc-fb23c5efe5f6","ios":"levelo://app?vid=928f0eea-75dd-46b9-b7dc-fb23c5efe5f6"},"vehicle_type_id":"4","last_reported":1714496782,"current_range_meters":13200,"station_id":"ce4bgn12rcd13ifvqbt0","pricing_plan_id":"cebpf4jnsgd1na2vs0mg"},{"bike_id":"05293124-4d4b-4c74-b6d8-ee690c7137f7","system_id":"levelo_inurba_marseille","lat":43.297163,"lon":5.365866,"is_reserved":false,"is_disabled":false,"rental_uris":{"android":"levelo://app?vid=05293124-4d4b-4c74-b6d8-ee690c7137f7","ios":"levelo://app?vid=05293124-4d4b-4c74-b6d8-ee690c7137f7"},"vehicle_type_id":"4","last_reported":1714496782,"current_range_meters":20400,"station_id":"ce4bgn12rcd13ifvqbt0","pricing_plan_id":"cebpf4jnsgd1na2vs0mg"},{"bike_id":"d1aed8c1-d01c-42e8-9c9e-2e0535527a68","system_id":"levelo_inurba_marseille","lat":43.29714,"lon":5.36618,"is_reserved":false,"is_disabled":false,"rental_uris":{"android":"levelo://app?vid=d1aed8c1-d01c-42e8-9c9e-2e0535527a68","ios":"levelo://app?vid=d1aed8c1-d01c-42e8-9c9e-2e0535527a68"},"vehicle_type_id":"4","last_reported":1714496782,"current_range_meters":0,"station_id":"ce4bgn12rcd13ifvqbt0","pricing_plan_id":"cebpf4jnsgd1na2vs0mg"},{"bike_id":"d3433900-6b63-49d3-807b-712f8d8fffe2","system_id":"levelo_inurba_marseille","lat":43.297163,"lon":5.365866,"is_reserved":false,"is_disabled":false,"rental_uris":{"android":"levelo://app?vid=d3433900-6b63-49d3-807b-712f8d8fffe2","ios":"levelo://app?vid=d3433900-6b63-49d3-807b-712f8d8fffe2"},"vehicle_type_id":"4","last_reported":1714496782,"current_range_meters":22400,"station_id":"ce4bgn12rcd13ifvqbt0","pricing_plan_id":"cebpf4jnsgd1na2vs0mg"},{"bike_id":"b9e94b95-a0e8-407d-9a62-440091ebca22","system_id":"levelo_inurba_marseille","lat":43.2968,"lon":5.37291,"is_reserved":false,"is_disabled":false,"rental_uris":{"android":"levelo://app?vid=b9e94b95-a0e8-407d-9a62-440091ebca22","ios":"levelo://app?vid=b9e94b95-a0e8-407d-9a62-440091ebca22"},"vehicle_type_id":"4","last_reported":1714496782,"current_range_meters":17600,"station_id":"ce4bgk12rcd13ifvqbj0","pricing_plan_id":"cebpf4jnsgd1na2vs0mg"},{"bike_id":"48c2a459-b5ad-486f-8d01-230cb003e33c","system_id":"levelo_inurba_marseille","lat":43.2968,"lon":5.37291,"is_reserved":false,"is_disabled":false,"rental_uris":{"android":"levelo://app?vid=48c2a459-b5ad-486f-8d01-230cb003e33c","ios":"levelo://app?vid=48c2a459-b5ad-486f-8d01-230cb003e33c"},"vehicle_type_id":"4","last_reported":1714496782,"current_range_meters":14400,"station_id":"ce4bgk12rcd13ifvqbj0","pricing_plan_id":"cebpf4jnsgd1na2vs0mg"},{"bike_id":"54a8690f-f24c-4992-8516-24b28abbacbd","system_id":"levelo_inurba_marseille","lat":43.296131,"lon":5.370791,"is_reserved":false,"is_disabled":false,"rental_uris":{"android":"levelo://app?vid=54a8690f-f24c-4992-8516-24b28abbacbd","ios":"levelo://app?vid=54a8690f-f24c-4992-8516-24b28abbacbd"},"vehicle_type_id":"4","last_reported":1714496782,"current_range_meters":28400,"station_id":"ce4bgnh2rcd13ifvqc0g","pricing_plan_id":"cebpf4jnsgd1na2vs0mg"},{"bike_id":"4c2eda43-f352-4115-9d40-f5a4fd7cc253","system_id":"levelo_inurba_marseille","lat":43.29839,"lon":5.37906,"is_reserved":false,"is_disabled":false,"rental_uris":{"android":"levelo://app?vid=4c2eda43-f352-4115-9d40-f5a4fd7cc253","ios":"levelo://app?vid=4c2eda43-f352-4115-9d40-f5a4fd7cc253"},"vehicle_type_id":"4","last_reported":1714496782,"current_range_meters":0,"station_id":"","pricing_plan_id":"cebpf4jnsgd1na2vs0mg"},{"bike_id":"baf8638e-3ab4-430e-96c2-b7ddb7739d9e","system_id":"levelo_inurba_marseille","lat":43.29573,"lon":5.367355,"is_reserved":false,"is_disabled":false,"rental_uris":{"android":"levelo://app?vid=baf8638e-3ab4-430e-96c2-b7ddb7739d9e","ios":"levelo://app?vid=baf8638e-3ab4-430e-96c2-b7ddb7739d9e"},"vehicle_type_id":"4","last_reported":1714496782,"current_range_meters":400,"station_id":"ce4bgph2rcd13ifvqc2g","pricing_plan_id":"cebpf4jnsgd1na2vs0mg"},{"bike_id":"029bcad0-b235-428c-9f7b-a5f9631dc3c4","system_id":"levelo_inurba_marseille","lat":43.29573,"lon":5.367355,"is_reserved":false,"is_disabled":false,"rental_uris":{"android":"levelo://app?vid=029bcad0-b235-428c-9f7b-a5f9631dc3c4","ios":"levelo://app?vid=029bcad0-b235-428c-9f7b-a5f9631dc3c4"},"vehicle_type_id":"4","last_reported":1714496782,"current_range_meters":22400,"station_id":"ce4bgph2rcd13ifvqc2g","pricing_plan_id":"cebpf4jnsgd1na2vs0mg"},{"bike_id":"cf939c16-069b-4130-bc7e-9e27adb11970","system_id":"levelo_inurba_marseille","lat":43.29573,"lon":5.367355,"is_reserved":false,"is_disabled":false,"rental_uris":{"android":"levelo://app?vid=cf939c16-069b-4130-bc7e-9e27adb11970","ios":"levelo://app?vid=cf939c16-069b-4130-bc7e-9e27adb11970"},"vehicle_type_id":"4","last_reported":1714496782,"current_range_meters":25600,"station_id":"ce4bgph2rcd13ifvqc2g","pricing_plan_id":"cebpf4jnsgd1na2vs0mg"},{"bike_id":"39746e75-a7b3-4b0a-bdb9-766303f9d055","system_id":"levelo_inurba_marseille","lat":43.29573,"lon":5.367355,"is_reserved":false,"is_disabled":false,"rental_uris":{"android":"levelo://app?vid=39746e75-a7b3-4b0a-bdb9-766303f9d055","ios":"levelo://app?vid=39746e75-a7b3-4b0a-bdb9-766303f9d055"},"vehicle_type_id":"4","last_reported":1714496782,"current_range_meters":23600,"station_id":"ce4bgph2rcd13ifvqc2g","pricing_plan_id":"cebpf4jnsgd1na2vs0mg"},{"bike_id":"d7bd3307-53ff-4b84-b7c0-f33fa9d39e3c","system_id":"levelo_inurba_marseille","lat":43.30965,"lon":5.39032,"is_reserved":false,"is_disabled":false,"rental_uris":{"android":"levelo://app?vid=d7bd3307-53ff-4b84-b7c0-f33fa9d39e3c","ios":"levelo://app?vid=d7bd3307-53ff-4b84-b7c0-f33fa9d39e3c"},"vehicle_type_id":"4","last_reported":1714496782,"current_range_meters":17200,"station_id":"ce4bgup2rcd13ifvqco0","pricing_plan_id":"cebpf4jnsgd1na2vs0mg"},{"bike_id":"1347c605-cda5-4dc9-b6fe-defa793bf514","system_id":"levelo_inurba_marseille","lat":43.299028,"lon":5.381509,"is_reserved":false,"is_disabled":false,"rental_uris":{"android":"levelo://app?vid=1347c605-cda5-4dc9-b6fe-defa793bf514","ios":"levelo://app?vid=1347c605-cda5-4dc9-b6fe-defa793bf514"},"vehicle_type_id":"4","last_reported":1714496782,"current_range_meters":800,"station_id":"ce4bgj12rcd13ifvqbc0","pricing_plan_id":"cebpf4jnsgd1na2vs0mg"},{"bike_id":"82e4fb94-294f-4c2c-bc2a-a3371d755a7f","system_id":"levelo_inurba_marseille","lat":43.299075,"lon":5.381531,"is_reserved":false,"is_disabled":false,"rental_uris":{"android":"levelo://app?vid=82e4fb94-294f-4c2c-bc2a-a3371d755a7f","ios":"levelo://app?vid=82e4fb94-294f-4c2c-bc2a-a3371d755a7f"},"vehicle_type_id":"4","last_reported":1714496782,"current_range_meters":2400,"station_id":"","pricing_plan_id":"cebpf4jnsgd1na2vs0mg"},{"bike_id":"e91a6fa5-b985-4610-928f-61bbc4a9ce2c","system_id":"levelo_inurba_marseille","lat":43.31759,"lon":5.39012,"is_reserved":false,"is_disabled":false,"rental_uris":{"android":"levelo://app?vid=e91a6fa5-b985-4610-928f-61bbc4a9ce2c","ios":"levelo://app?vid=e91a6fa5-b985-4610-928f-61bbc4a9ce2c"},"vehicle_type_id":"4","last_reported":1714496782,"current_range_meters":24400,"station_id":"ce4bhqp2rcd13ifvqhng","pricing_plan_id":"cebpf4jnsgd1na2vs0mg"},{"bike_id":"e7f7f8c6-3502-40da-b88a-452fc9534ddc","system_id":"levelo_inurba_marseille","lat":43.317605,"lon":5.390124,"is_reserved":false,"is_disabled":false,"rental_uris":{"android":"levelo://app?vid=e7f7f8c6-3502-40da-b88a-452fc9534ddc","ios":"levelo://app?vid=e7f7f8c6-3502-40da-b88a-452fc9534ddc"},"vehicle_type_id":"4","last_reported":1714496782,"current_range_meters":26400,"station_id":"ce4bhqp2rcd13ifvqhng","pricing_plan_id":"cebpf4jnsgd1na2vs0mg"},{"bike_id":"57ca142f-bd81-4bd2-be4e-bd61cd00f86a","system_id":"levelo_inurba_marseille","lat":43.31757,"lon":5.39014,"is_reserved":false,"is_disabled":false,"rental_uris":{"android":"levelo://app?vid=57ca142f-bd81-4bd2-be4e-bd61cd00f86a","ios":"levelo://app?vid=57ca142f-bd81-4bd2-be4e-bd61cd00f86a"},"vehicle_type_id":"4","last_reported":1714496782,"current_range_meters":20000,"station_id":"ce4bhqp2rcd13ifvqhng","pricing_plan_id":"cebpf4jnsgd1na2vs0mg"},{"bike_id":"160120ba-f068-445d-b9bd-561cc5fe6e33","system_id":"levelo_inurba_marseille","lat":43.31759,"lon":5.39017,"is_reserved":false,"is_disabled":false,"rental_uris":{"android":"levelo://app?vid=160120ba-f068-445d-b9bd-561cc5fe6e33","ios":"levelo://app?vid=160120ba-f068-445d-b9bd-561cc5fe6e33"},"vehicle_type_id":"4","last_reported":1714496782,"current_range_meters":17600,"station_id":"ce4bhqp2rcd13ifvqhng","pricing_plan_id":"cebpf4jnsgd1na2vs0mg"},{"bike_id":"e44a597b-896c-41ec-afed-17b63d931077","system_id":"levelo_inurba_marseille","lat":43.295748,"lon":5.37522,"is_reserved":false,"is_disabled":false,"rental_uris":{"android":"levelo://app?vid=e44a597b-896c-41ec-afed-17b63d931077","ios":"levelo://app?vid=e44a597b-896c-41ec-afed-17b63d931077"},"vehicle_type_id":"4","last_reported":1714496782,"current_range_meters":0,"station_id":"ce4bgh92rcd13ifvqb50","pricing_plan_id":"cebpf4jnsgd1na2vs0mg"},{"bike_id":"166a94cb-261a-4f89-98ff-057de9455730","system_id":"levelo_inurba_marseille","lat":43.317572,"lon":5.390184,"is_reserved":false,"is_disabled":false,"rental_uris":{"android":"levelo://app?vid=166a94cb-261a-4f89-98ff-057de9455730","ios":"levelo://app?vid=166a94cb-261a-4f89-98ff-057de9455730"},"vehicle_type_id":"4","last_reported":1714496782,"current_range_meters":21200,"station_id":"ce4bhqp2rcd13ifvqhng","pricing_plan_id":"cebpf4jnsgd1na2vs0mg"},{"bike_id":"b5271f54-f37d-423a-b48c-8177de38a8f8","system_id":"levelo_inurba_marseille","lat":43.31759,"lon":5.39019,"is_reserved":false,"is_disabled":false,"rental_uris":{"android":"levelo://app?vid=b5271f54-f37d-423a-b48c-8177de38a8f8","ios":"levelo://app?vid=b5271f54-f37d-423a-b48c-8177de38a8f8"},"vehicle_type_id":"4","last_reported":1714496782,"current_range_meters":6000,"station_id":"ce4bhqp2rcd13ifvqhng","pricing_plan_id":"cebpf4jnsgd1na2vs0mg"},{"bike_id":"88b24db4-632b-4045-a01f-3d312d3ba27d","system_id":"levelo_inurba_marseille","lat":43.31763,"lon":5.390177,"is_reserved":false,"is_disabled":false,"rental_uris":{"android":"levelo://app?vid=88b24db4-632b-4045-a01f-3d312d3ba27d","ios":"levelo://app?vid=88b24db4-632b-4045-a01f-3d312d3ba27d"},"vehicle_type_id":"4","last_reported":1714496782,"current_range_meters":19600,"station_id":"ce4bhqp2rcd13ifvqhng","pricing_plan_id":"cebpf4jnsgd1na2vs0mg"},{"bike_id":"7c9a0d23-1e6b-4a12-a9a7-6d97ddb39428","system_id":"levelo_inurba_marseille","lat":43.31766,"lon":5.39017,"is_reserved":false,"is_disabled":false,"rental_uris":{"android":"levelo://app?vid=7c9a0d23-1e6b-4a12-a9a7-6d97ddb39428","ios":"levelo://app?vid=7c9a0d23-1e6b-4a12-a9a7-6d97ddb39428"},"vehicle_type_id":"4","last_reported":1714496782,"current_range_meters":15200,"station_id":"ce4bhqp2rcd13ifvqhng","pricing_plan_id":"cebpf4jnsgd1na2vs0mg"},{"bike_id":"f55b98f1-7bc2-4efe-92c3-bd68f99aa2b2","system_id":"levelo_inurba_marseille","lat":43.31764,"lon":5.39018,"is_reserved":false,"is_disabled":false,"rental_uris":{"android":"levelo://app?vid=f55b98f1-7bc2-4efe-92c3-bd68f99aa2b2","ios":"levelo://app?vid=f55b98f1-7bc2-4efe-92c3-bd68f99aa2b2"},"vehicle_type_id":"4","last_reported":1714496782,"current_range_meters":20000,"station_id":"ce4bhqp2rcd13ifvqhng","pricing_plan_id":"cebpf4jnsgd1na2vs0mg"},{"bike_id":"b1addad9-e6b9-42db-aafc-ca3fa67234a4","system_id":"levelo_inurba_marseille","lat":43.3176,"lon":5.39021,"is_reserved":false,"is_disabled":false,"rental_uris":{"android":"levelo://app?vid=b1addad9-e6b9-42db-aafc-ca3fa67234a4","ios":"levelo://app?vid=b1addad9-e6b9-42db-aafc-ca3fa67234a4"},"vehicle_type_id":"4","last_reported":1714496782,"current_range_meters":28400,"station_id":"ce4bhqp2rcd13ifvqhng","pricing_plan_id":"cebpf4jnsgd1na2vs0mg"},{"bike_id":"80b60a5c-e16e-4998-b3db-aec15265f24e","system_id":"levelo_inurba_marseille","lat":43.3176,"lon":5.39021,"is_reserved":false,"is_disabled":false,"rental_uris":{"android":"levelo://app?vid=80b60a5c-e16e-4998-b3db-aec15265f24e","ios":"levelo://app?vid=80b60a5c-e16e-4998-b3db-aec15265f24e"},"vehicle_type_id":"4","last_reported":1714496782,"current_range_meters":5200,"station_id":"ce4bhqp2rcd13ifvqhng","pricing_plan_id":"cebpf4jnsgd1na2vs0mg"},{"bike_id":"9b1f0b76-8d20-47d6-bff5-c2eea49877ab","system_id":"levelo_inurba_marseille","lat":43.3176,"lon":5.39022,"is_reserved":false,"is_disabled":false,"rental_uris":{"android":"levelo://app?vid=9b1f0b76-8d20-47d6-bff5-c2eea49877ab","ios":"levelo://app?vid=9b1f0b76-8d20-47d6-bff5-c2eea49877ab"},"vehicle_type_id":"4","last_reported":1714496782,"current_range_meters":10800,"station_id":"ce4bhqp2rcd13ifvqhng","pricing_plan_id":"cebpf4jnsgd1na2vs0mg"},{"bike_id":"77efcea7-0dcc-416d-9d14-2ee7b9085bd0","system_id":"levelo_inurba_marseille","lat":43.31759,"lon":5.39023,"is_reserved":false,"is_disabled":false,"rental_uris":{"android":"levelo://app?vid=77efcea7-0dcc-416d-9d14-2ee7b9085bd0","ios":"levelo://app?vid=77efcea7-0dcc-416d-9d14-2ee7b9085bd0"},"vehicle_type_id":"4","last_reported":1714496782,"current_range_meters":0,"station_id":"ce4bhqp2rcd13ifvqhng","pricing_plan_id":"cebpf4jnsgd1na2vs0mg"},{"bike_id":"9835d808-20ce-4599-a546-cb85181704ea","system_id":"levelo_inurba_marseille","lat":43.31759,"lon":5.39024,"is_reserved":false,"is_disabled":false,"rental_uris":{"android":"levelo://app?vid=9835d808-20ce-4599-a546-cb85181704ea","ios":"levelo://app?vid=9835d808-20ce-4599-a546-cb85181704ea"},"vehicle_type_id":"4","last_reported":1714496782,"current_range_meters":22400,"station_id":"ce4bhqp2rcd13ifvqhng","pricing_plan_id":"cebpf4jnsgd1na2vs0mg"},{"bike_id":"2e64cf89-cbe3-42d0-b113-d9d62502467d","system_id":"levelo_inurba_marseille","lat":43.304274,"lon":5.388873,"is_reserved":false,"is_disabled":false,"rental_uris":{"android":"levelo://app?vid=2e64cf89-cbe3-42d0-b113-d9d62502467d","ios":"levelo://app?vid=2e64cf89-cbe3-42d0-b113-d9d62502467d"},"vehicle_type_id":"4","last_reported":1714496782,"current_range_meters":9600,"station_id":"ce4bgk12rcd13ifvqbi0","pricing_plan_id":"cebpf4jnsgd1na2vs0mg"},{"bike_id":"37242e48-b0e9-4a6e-b541-d08e7b35f1ed","system_id":"levelo_inurba_marseille","lat":43.31759,"lon":5.39029,"is_reserved":false,"is_disabled":false,"rental_uris":{"android":"levelo://app?vid=37242e48-b0e9-4a6e-b541-d08e7b35f1ed","ios":"levelo://app?vid=37242e48-b0e9-4a6e-b541-d08e7b35f1ed"},"vehicle_type_id":"4","last_reported":1714496782,"current_range_meters":27600,"station_id":"ce4bhqp2rcd13ifvqhng","pricing_plan_id":"cebpf4jnsgd1na2vs0mg"},{"bike_id":"3e90fa85-c942-47c4-a797-7ff343ed3b41","system_id":"levelo_inurba_marseille","lat":43.31759,"lon":5.3903,"is_reserved":false,"is_disabled":false,"rental_uris":{"android":"levelo://app?vid=3e90fa85-c942-47c4-a797-7ff343ed3b41","ios":"levelo://app?vid=3e90fa85-c942-47c4-a797-7ff343ed3b41"},"vehicle_type_id":"4","last_reported":1714496782,"current_range_meters":31200,"station_id":"ce4bhqp2rcd13ifvqhng","pricing_plan_id":"cebpf4jnsgd1na2vs0mg"},{"bike_id":"8a93a62c-514c-4e55-9579-a47f6ab500d3","system_id":"levelo_inurba_marseille","lat":43.29812,"lon":5.38102,"is_reserved":false,"is_disabled":false,"rental_uris":{"android":"levelo://app?vid=8a93a62c-514c-4e55-9579-a47f6ab500d3","ios":"levelo://app?vid=8a93a62c-514c-4e55-9579-a47f6ab500d3"},"vehicle_type_id":"4","last_reported":1714496782,"current_range_meters":13200,"station_id":"ce4bgip2rcd13ifvqbb0","pricing_plan_id":"cebpf4jnsgd1na2vs0mg"},{"bike_id":"85cc422c-2575-4754-9304-235321be6f5c","system_id":"levelo_inurba_marseille","lat":43.296778,"lon":5.378163,"is_reserved":false,"is_disabled":false,"rental_uris":{"android":"levelo://app?vid=85cc422c-2575-4754-9304-235321be6f5c","ios":"levelo://app?vid=85cc422c-2575-4754-9304-235321be6f5c"},"vehicle_type_id":"4","last_reported":1714496782,"current_range_meters":22000,"station_id":"","pricing_plan_id":"cebpf4jnsgd1na2vs0mg"},{"bike_id":"a5118331-fb65-4a15-8a7d-189662fc397a","system_id":"levelo_inurba_marseille","lat":43.298037,"lon":5.381066,"is_reserved":false,"is_disabled":false,"rental_uris":{"android":"levelo://app?vid=a5118331-fb65-4a15-8a7d-189662fc397a","ios":"levelo://app?vid=a5118331-fb65-4a15-8a7d-189662fc397a"},"vehicle_type_id":"4","last_reported":1714496782,"current_range_meters":12800,"station_id":"ce4bgip2rcd13ifvqbb0","pricing_plan_id":"cebpf4jnsgd1na2vs0mg"},{"bike_id":"028a0d91-aabc-4f15-9b94-5c3da390287f","system_id":"levelo_inurba_marseille","lat":43.298037,"lon":5.381066,"is_reserved":false,"is_disabled":false,"rental_uris":{"android":"levelo://app?vid=028a0d91-aabc-4f15-9b94-5c3da390287f","ios":"levelo://app?vid=028a0d91-aabc-4f15-9b94-5c3da390287f"},"vehicle_type_id":"4","last_reported":1714496782,"current_range_meters":10000,"station_id":"ce4bgip2rcd13ifvqbb0","pricing_plan_id":"cebpf4jnsgd1na2vs0mg"},{"bike_id":"bba216c6-3d9b-4800-939d-e187a25ea378","system_id":"levelo_inurba_marseille","lat":43.2958,"lon":5.37515,"is_reserved":false,"is_disabled":false,"rental_uris":{"android":"levelo://app?vid=bba216c6-3d9b-4800-939d-e187a25ea378","ios":"levelo://app?vid=bba216c6-3d9b-4800-939d-e187a25ea378"},"vehicle_type_id":"4","last_reported":1714496782,"current_range_meters":0,"station_id":"ce4bgh92rcd13ifvqb50","pricing_plan_id":"cebpf4jnsgd1na2vs0mg"},{"bike_id":"9e69ddef-1cd4-4ae6-9ee0-edbd7da856aa","system_id":"levelo_inurba_marseille","lat":43.304278,"lon":5.388868,"is_reserved":false,"is_disabled":false,"rental_uris":{"android":"levelo://app?vid=9e69ddef-1cd4-4ae6-9ee0-edbd7da856aa","ios":"levelo://app?vid=9e69ddef-1cd4-4ae6-9ee0-edbd7da856aa"},"vehicle_type_id":"4","last_reported":1714496782,"current_range_meters":3600,"station_id":"ce4bgk12rcd13ifvqbi0","pricing_plan_id":"cebpf4jnsgd1na2vs0mg"},{"bike_id":"ad1c2cd5-7efa-460b-982e-eae006946f1e","system_id":"levelo_inurba_marseille","lat":43.298037,"lon":5.381066,"is_reserved":false,"is_disabled":false,"rental_uris":{"android":"levelo://app?vid=ad1c2cd5-7efa-460b-982e-eae006946f1e","ios":"levelo://app?vid=ad1c2cd5-7efa-460b-982e-eae006946f1e"},"vehicle_type_id":"4","last_reported":1714496782,"current_range_meters":2000,"station_id":"ce4bgip2rcd13ifvqbb0","pricing_plan_id":"cebpf4jnsgd1na2vs0mg"},{"bike_id":"ce624caa-3fef-4dd6-ba3f-8dcd1d235081","system_id":"levelo_inurba_marseille","lat":43.304274,"lon":5.388873,"is_reserved":false,"is_disabled":false,"rental_uris":{"android":"levelo://app?vid=ce624caa-3fef-4dd6-ba3f-8dcd1d235081","ios":"levelo://app?vid=ce624caa-3fef-4dd6-ba3f-8dcd1d235081"},"vehicle_type_id":"4","last_reported":1714496782,"current_range_meters":10000,"station_id":"ce4bgk12rcd13ifvqbi0","pricing_plan_id":"cebpf4jnsgd1na2vs0mg"},{"bike_id":"84a1436d-d363-447a-819d-6e191b2b8b9d","system_id":"levelo_inurba_marseille","lat":43.304274,"lon":5.388873,"is_reserved":false,"is_disabled":false,"rental_uris":{"android":"levelo://app?vid=84a1436d-d363-447a-819d-6e191b2b8b9d","ios":"levelo://app?vid=84a1436d-d363-447a-819d-6e191b2b8b9d"},"vehicle_type_id":"4","last_reported":1714496782,"current_range_meters":17600,"station_id":"ce4bgk12rcd13ifvqbi0","pricing_plan_id":"cebpf4jnsgd1na2vs0mg"},{"bike_id":"f51201b6-3226-4f42-a6f2-4db9732dcc30","system_id":"levelo_inurba_marseille","lat":43.29538,"lon":5.373756,"is_reserved":false,"is_disabled":false,"rental_uris":{"android":"levelo://app?vid=f51201b6-3226-4f42-a6f2-4db9732dcc30","ios":"levelo://app?vid=f51201b6-3226-4f42-a6f2-4db9732dcc30"},"vehicle_type_id":"4","last_reported":1714496782,"current_range_meters":14800,"station_id":"","pricing_plan_id":"cebpf4jnsgd1na2vs0mg"},{"bike_id":"af156a55-10e8-48dc-bde7-d8fcf6d874aa","system_id":"levelo_inurba_marseille","lat":43.298037,"lon":5.381066,"is_reserved":false,"is_disabled":false,"rental_uris":{"android":"levelo://app?vid=af156a55-10e8-48dc-bde7-d8fcf6d874aa","ios":"levelo://app?vid=af156a55-10e8-48dc-bde7-d8fcf6d874aa"},"vehicle_type_id":"4","last_reported":1714496782,"current_range_meters":15600,"station_id":"ce4bgip2rcd13ifvqbb0","pricing_plan_id":"cebpf4jnsgd1na2vs0mg"},{"bike_id":"1b8cb55e-233e-48c4-bc22-25d4a71f46a3","system_id":"levelo_inurba_marseille","lat":43.295468,"lon":5.374698,"is_reserved":false,"is_disabled":false,"rental_uris":{"android":"levelo://app?vid=1b8cb55e-233e-48c4-bc22-25d4a71f46a3","ios":"levelo://app?vid=1b8cb55e-233e-48c4-bc22-25d4a71f46a3"},"vehicle_type_id":"4","last_reported":1714496782,"current_range_meters":13600,"station_id":"ce4bgkp2rcd13ifvqbmg","pricing_plan_id":"cebpf4jnsgd1na2vs0mg"},{"bike_id":"926591af-57dd-4491-9e2b-fb6fd06af3b7","system_id":"levelo_inurba_marseille","lat":43.295402,"lon":5.374991,"is_reserved":false,"is_disabled":false,"rental_uris":{"android":"levelo://app?vid=926591af-57dd-4491-9e2b-fb6fd06af3b7","ios":"levelo://app?vid=926591af-57dd-4491-9e2b-fb6fd06af3b7"},"vehicle_type_id":"4","last_reported":1714496782,"current_range_meters":23200,"station_id":"ce4bgh92rcd13ifvqb50","pricing_plan_id":"cebpf4jnsgd1na2vs0mg"},{"bike_id":"182d15b8-aaf9-4216-b507-aae0b2120a3f","system_id":"levelo_inurba_marseille","lat":43.296003,"lon":5.379876,"is_reserved":false,"is_disabled":false,"rental_uris":{"android":"levelo://app?vid=182d15b8-aaf9-4216-b507-aae0b2120a3f","ios":"levelo://app?vid=182d15b8-aaf9-4216-b507-aae0b2120a3f"},"vehicle_type_id":"4","last_reported":1714496782,"current_range_meters":2800,"station_id":"","pricing_plan_id":"cebpf4jnsgd1na2vs0mg"},{"bike_id":"50ba30a7-4676-4969-b698-80d33bb4cd89","system_id":"levelo_inurba_marseille","lat":43.32365,"lon":5.38874,"is_reserved":false,"is_disabled":false,"rental_uris":{"android":"levelo://app?vid=50ba30a7-4676-4969-b698-80d33bb4cd89","ios":"levelo://app?vid=50ba30a7-4676-4969-b698-80d33bb4cd89"},"vehicle_type_id":"4","last_reported":1714496782,"current_range_meters":2800,"station_id":"ce4bhqp2rcd13ifvqhog","pricing_plan_id":"cebpf4jnsgd1na2vs0mg"},{"bike_id":"7be34543-7de1-4ccd-80dc-a7d6d72abb72","system_id":"levelo_inurba_marseille","lat":43.32367,"lon":5.388836,"is_reserved":false,"is_disabled":false,"rental_uris":{"android":"levelo://app?vid=7be34543-7de1-4ccd-80dc-a7d6d72abb72","ios":"levelo://app?vid=7be34543-7de1-4ccd-80dc-a7d6d72abb72"},"vehicle_type_id":"4","last_reported":1714496782,"current_range_meters":13200,"station_id":"ce4bhqp2rcd13ifvqhog","pricing_plan_id":"cebpf4jnsgd1na2vs0mg"},{"bike_id":"b4ca9327-927a-4234-8265-711e2b4bfdb2","system_id":"levelo_inurba_marseille","lat":43.32367,"lon":5.388836,"is_reserved":false,"is_disabled":false,"rental_uris":{"android":"levelo://app?vid=b4ca9327-927a-4234-8265-711e2b4bfdb2","ios":"levelo://app?vid=b4ca9327-927a-4234-8265-711e2b4bfdb2"},"vehicle_type_id":"4","last_reported":1714496782,"current_range_meters":25200,"station_id":"ce4bhqp2rcd13ifvqhog","pricing_plan_id":"cebpf4jnsgd1na2vs0mg"},{"bike_id":"2527e999-45d3-4877-8cce-1ac48ad483ad","system_id":"levelo_inurba_marseille","lat":43.32367,"lon":5.388836,"is_reserved":false,"is_disabled":false,"rental_uris":{"android":"levelo://app?vid=2527e999-45d3-4877-8cce-1ac48ad483ad","ios":"levelo://app?vid=2527e999-45d3-4877-8cce-1ac48ad483ad"},"vehicle_type_id":"4","last_reported":1714496782,"current_range_meters":2400,"station_id":"ce4bhqp2rcd13ifvqhog","pricing_plan_id":"cebpf4jnsgd1na2vs0mg"},{"bike_id":"011de703-ad22-414e-8ab6-56d9b5eaa48f","system_id":"levelo_inurba_marseille","lat":43.296015,"lon":5.381057,"is_reserved":false,"is_disabled":false,"rental_uris":{"android":"levelo://app?vid=011de703-ad22-414e-8ab6-56d9b5eaa48f","ios":"levelo://app?vid=011de703-ad22-414e-8ab6-56d9b5eaa48f"},"vehicle_type_id":"4","last_reported":1714496782,"current_range_meters":4800,"station_id":"ce4bgl12rcd13ifvqbo0","pricing_plan_id":"cebpf4jnsgd1na2vs0mg"},{"bike_id":"20978f5b-f827-497c-8fb4-678a423ef728","system_id":"levelo_inurba_marseille","lat":43.293367,"lon":5.372187,"is_reserved":false,"is_disabled":false,"rental_uris":{"android":"levelo://app?vid=20978f5b-f827-497c-8fb4-678a423ef728","ios":"levelo://app?vid=20978f5b-f827-497c-8fb4-678a423ef728"},"vehicle_type_id":"4","last_reported":1714496782,"current_range_meters":6400,"station_id":"ce4bgh92rcd13ifvqb40","pricing_plan_id":"cebpf4jnsgd1na2vs0mg"},{"bike_id":"eec06d06-d905-4b7a-8517-34b9ee64f8bc","system_id":"levelo_inurba_marseille","lat":43.29312,"lon":5.37182,"is_reserved":false,"is_disabled":false,"rental_uris":{"android":"levelo://app?vid=eec06d06-d905-4b7a-8517-34b9ee64f8bc","ios":"levelo://app?vid=eec06d06-d905-4b7a-8517-34b9ee64f8bc"},"vehicle_type_id":"4","last_reported":1714496782,"current_range_meters":14400,"station_id":"ce4bgh92rcd13ifvqb40","pricing_plan_id":"cebpf4jnsgd1na2vs0mg"},{"bike_id":"cd2bfd83-ba17-49e8-a48c-8f43fa014828","system_id":"levelo_inurba_marseille","lat":43.293249,"lon":5.371578,"is_reserved":false,"is_disabled":false,"rental_uris":{"android":"levelo://app?vid=cd2bfd83-ba17-49e8-a48c-8f43fa014828","ios":"levelo://app?vid=cd2bfd83-ba17-49e8-a48c-8f43fa014828"},"vehicle_type_id":"4","last_reported":1714496782,"current_range_meters":30800,"station_id":"ce4bgh92rcd13ifvqb40","pricing_plan_id":"cebpf4jnsgd1na2vs0mg"},{"bike_id":"2cdea9fc-6e70-4bdb-a7d4-a2af6499c4b3","system_id":"levelo_inurba_marseille","lat":43.29274,"lon":5.36835,"is_reserved":false,"is_disabled":false,"rental_uris":{"android":"levelo://app?vid=2cdea9fc-6e70-4bdb-a7d4-a2af6499c4b3","ios":"levelo://app?vid=2cdea9fc-6e70-4bdb-a7d4-a2af6499c4b3"},"vehicle_type_id":"4","last_reported":1714496782,"current_range_meters":0,"station_id":"ce4bhbp2rcd13ifvqesg","pricing_plan_id":"cebpf4jnsgd1na2vs0mg"},{"bike_id":"8458ec4e-4af8-44c7-a66a-11f6ea64930c","system_id":"levelo_inurba_marseille","lat":43.293442,"lon":5.374374,"is_reserved":false,"is_disabled":false,"rental_uris":{"android":"levelo://app?vid=8458ec4e-4af8-44c7-a66a-11f6ea64930c","ios":"levelo://app?vid=8458ec4e-4af8-44c7-a66a-11f6ea64930c"},"vehicle_type_id":"4","last_reported":1714496782,"current_range_meters":16000,"station_id":"","pricing_plan_id":"cebpf4jnsgd1na2vs0mg"},{"bike_id":"d173fb7d-590f-4a1b-a037-e245a6ef8517","system_id":"levelo_inurba_marseille","lat":43.2927,"lon":5.36848,"is_reserved":false,"is_disabled":false,"rental_uris":{"android":"levelo://app?vid=d173fb7d-590f-4a1b-a037-e245a6ef8517","ios":"levelo://app?vid=d173fb7d-590f-4a1b-a037-e245a6ef8517"},"vehicle_type_id":"4","last_reported":1714496782,"current_range_meters":0,"station_id":"ce4bhbp2rcd13ifvqesg","pricing_plan_id":"cebpf4jnsgd1na2vs0mg"},{"bike_id":"09f7cb5d-9edd-47d2-a04e-f1b90dc48fc4","system_id":"levelo_inurba_marseille","lat":43.292749,"lon":5.368402,"is_reserved":false,"is_disabled":false,"rental_uris":{"android":"levelo://app?vid=09f7cb5d-9edd-47d2-a04e-f1b90dc48fc4","ios":"levelo://app?vid=09f7cb5d-9edd-47d2-a04e-f1b90dc48fc4"},"vehicle_type_id":"4","last_reported":1714496782,"current_range_meters":20800,"station_id":"ce4bhbp2rcd13ifvqesg","pricing_plan_id":"cebpf4jnsgd1na2vs0mg"},{"bike_id":"c4a15058-0e14-49d7-a9ba-3c98ecf6cbf1","system_id":"levelo_inurba_marseille","lat":43.293009,"lon":5.374584,"is_reserved":false,"is_disabled":false,"rental_uris":{"android":"levelo://app?vid=c4a15058-0e14-49d7-a9ba-3c98ecf6cbf1","ios":"levelo://app?vid=c4a15058-0e14-49d7-a9ba-3c98ecf6cbf1"},"vehicle_type_id":"4","last_reported":1714496782,"current_range_meters":2800,"station_id":"ce4bgi12rcd13ifvqb70","pricing_plan_id":"cebpf4jnsgd1na2vs0mg"},{"bike_id":"b22a7e74-8b41-47c3-8ee1-d25c25d58716","system_id":"levelo_inurba_marseille","lat":43.293009,"lon":5.374584,"is_reserved":false,"is_disabled":false,"rental_uris":{"android":"levelo://app?vid=b22a7e74-8b41-47c3-8ee1-d25c25d58716","ios":"levelo://app?vid=b22a7e74-8b41-47c3-8ee1-d25c25d58716"},"vehicle_type_id":"4","last_reported":1714496782,"current_range_meters":10800,"station_id":"ce4bgi12rcd13ifvqb70","pricing_plan_id":"cebpf4jnsgd1na2vs0mg"},{"bike_id":"2eaff081-e8b3-471a-bf35-e02c834a83b2","system_id":"levelo_inurba_marseille","lat":43.29318,"lon":5.37462,"is_reserved":false,"is_disabled":false,"rental_uris":{"android":"levelo://app?vid=2eaff081-e8b3-471a-bf35-e02c834a83b2","ios":"levelo://app?vid=2eaff081-e8b3-471a-bf35-e02c834a83b2"},"vehicle_type_id":"4","last_reported":1714496782,"current_range_meters":12000,"station_id":"ce4bgi12rcd13ifvqb70","pricing_plan_id":"cebpf4jnsgd1na2vs0mg"},{"bike_id":"cd66dc78-50b3-4dc0-9a08-f796adbbcd17","system_id":"levelo_inurba_marseille","lat":43.293009,"lon":5.374584,"is_reserved":false,"is_disabled":false,"rental_uris":{"android":"levelo://app?vid=cd66dc78-50b3-4dc0-9a08-f796adbbcd17","ios":"levelo://app?vid=cd66dc78-50b3-4dc0-9a08-f796adbbcd17"},"vehicle_type_id":"4","last_reported":1714496782,"current_range_meters":10000,"station_id":"ce4bgi12rcd13ifvqb70","pricing_plan_id":"cebpf4jnsgd1na2vs0mg"},{"bike_id":"fd09015e-4fb2-46f0-8213-cf4c76624033","system_id":"levelo_inurba_marseille","lat":43.29311,"lon":5.37459,"is_reserved":false,"is_disabled":false,"rental_uris":{"android":"levelo://app?vid=fd09015e-4fb2-46f0-8213-cf4c76624033","ios":"levelo://app?vid=fd09015e-4fb2-46f0-8213-cf4c76624033"},"vehicle_type_id":"4","last_reported":1714496782,"current_range_meters":18400,"station_id":"ce4bgi12rcd13ifvqb70","pricing_plan_id":"cebpf4jnsgd1na2vs0mg"},{"bike_id":"7b59931d-3780-47d8-962f-4806aeeeff02","system_id":"levelo_inurba_marseille","lat":43.29312,"lon":5.37465,"is_reserved":false,"is_disabled":false,"rental_uris":{"android":"levelo://app?vid=7b59931d-3780-47d8-962f-4806aeeeff02","ios":"levelo://app?vid=7b59931d-3780-47d8-962f-4806aeeeff02"},"vehicle_type_id":"4","last_reported":1714496782,"current_range_meters":20800,"station_id":"ce4bgi12rcd13ifvqb70","pricing_plan_id":"cebpf4jnsgd1na2vs0mg"},{"bike_id":"05ec3035-4b80-40c4-a8bd-bb30501619ad","system_id":"levelo_inurba_marseille","lat":43.305994,"lon":5.393687,"is_reserved":false,"is_disabled":false,"rental_uris":{"android":"levelo://app?vid=05ec3035-4b80-40c4-a8bd-bb30501619ad","ios":"levelo://app?vid=05ec3035-4b80-40c4-a8bd-bb30501619ad"},"vehicle_type_id":"4","last_reported":1714496782,"current_range_meters":14000,"station_id":"ce4bh0p2rcd13ifvqd80","pricing_plan_id":"cebpf4jnsgd1na2vs0mg"},{"bike_id":"caa819ca-3fb3-409b-ab8a-06bc96b8e981","system_id":"levelo_inurba_marseille","lat":43.29305,"lon":5.37463,"is_reserved":false,"is_disabled":false,"rental_uris":{"android":"levelo://app?vid=caa819ca-3fb3-409b-ab8a-06bc96b8e981","ios":"levelo://app?vid=caa819ca-3fb3-409b-ab8a-06bc96b8e981"},"vehicle_type_id":"4","last_reported":1714496782,"current_range_meters":7600,"station_id":"ce4bgi12rcd13ifvqb70","pricing_plan_id":"cebpf4jnsgd1na2vs0mg"},{"bike_id":"9dfae3dc-c847-4e76-804d-35cee83b4d5a","system_id":"levelo_inurba_marseille","lat":43.30604,"lon":5.39353,"is_reserved":false,"is_disabled":false,"rental_uris":{"android":"levelo://app?vid=9dfae3dc-c847-4e76-804d-35cee83b4d5a","ios":"levelo://app?vid=9dfae3dc-c847-4e76-804d-35cee83b4d5a"},"vehicle_type_id":"4","last_reported":1714496782,"current_range_meters":0,"station_id":"ce4bh0p2rcd13ifvqd80","pricing_plan_id":"cebpf4jnsgd1na2vs0mg"},{"bike_id":"68f029d9-08a6-41bc-ab38-16a652ede373","system_id":"levelo_inurba_marseille","lat":43.305994,"lon":5.393687,"is_reserved":false,"is_disabled":false,"rental_uris":{"android":"levelo://app?vid=68f029d9-08a6-41bc-ab38-16a652ede373","ios":"levelo://app?vid=68f029d9-08a6-41bc-ab38-16a652ede373"},"vehicle_type_id":"4","last_reported":1714496782,"current_range_meters":1600,"station_id":"ce4bh0p2rcd13ifvqd80","pricing_plan_id":"cebpf4jnsgd1na2vs0mg"},{"bike_id":"49e15cdf-0aeb-48fc-b654-ad77aa499826","system_id":"levelo_inurba_marseille","lat":43.305994,"lon":5.393687,"is_reserved":false,"is_disabled":false,"rental_uris":{"android":"levelo://app?vid=49e15cdf-0aeb-48fc-b654-ad77aa499826","ios":"levelo://app?vid=49e15cdf-0aeb-48fc-b654-ad77aa499826"},"vehicle_type_id":"4","last_reported":1714496782,"current_range_meters":4000,"station_id":"ce4bh0p2rcd13ifvqd80","pricing_plan_id":"cebpf4jnsgd1na2vs0mg"},{"bike_id":"afa98e61-688f-441e-9070-81ac7d21aabe","system_id":"levelo_inurba_marseille","lat":43.292863,"lon":5.374603,"is_reserved":false,"is_disabled":false,"rental_uris":{"android":"levelo://app?vid=afa98e61-688f-441e-9070-81ac7d21aabe","ios":"levelo://app?vid=afa98e61-688f-441e-9070-81ac7d21aabe"},"vehicle_type_id":"4","last_reported":1714496782,"current_range_meters":0,"station_id":"ce4bgi12rcd13ifvqb70","pricing_plan_id":"cebpf4jnsgd1na2vs0mg"},{"bike_id":"4e93615b-23ff-4332-bf6f-6058d6fa5afb","system_id":"levelo_inurba_marseille","lat":43.30301,"lon":5.392,"is_reserved":false,"is_disabled":false,"rental_uris":{"android":"levelo://app?vid=4e93615b-23ff-4332-bf6f-6058d6fa5afb","ios":"levelo://app?vid=4e93615b-23ff-4332-bf6f-6058d6fa5afb"},"vehicle_type_id":"4","last_reported":1714496782,"current_range_meters":0,"station_id":"ce4bgkh2rcd13ifvqbk0","pricing_plan_id":"cebpf4jnsgd1na2vs0mg"},{"bike_id":"df716cb4-3cef-4bcb-8d3d-022dceb2ebe4","system_id":"levelo_inurba_marseille","lat":43.29224,"lon":5.36302,"is_reserved":false,"is_disabled":false,"rental_uris":{"android":"levelo://app?vid=df716cb4-3cef-4bcb-8d3d-022dceb2ebe4","ios":"levelo://app?vid=df716cb4-3cef-4bcb-8d3d-022dceb2ebe4"},"vehicle_type_id":"4","last_reported":1714496782,"current_range_meters":23200,"station_id":"","pricing_plan_id":"cebpf4jnsgd1na2vs0mg"},{"bike_id":"dd6f87dc-671f-4d3c-b5a6-f69099978e44","system_id":"levelo_inurba_marseille","lat":43.303002,"lon":5.392142,"is_reserved":false,"is_disabled":false,"rental_uris":{"android":"levelo://app?vid=dd6f87dc-671f-4d3c-b5a6-f69099978e44","ios":"levelo://app?vid=dd6f87dc-671f-4d3c-b5a6-f69099978e44"},"vehicle_type_id":"4","last_reported":1714496782,"current_range_meters":9600,"station_id":"ce4bgkh2rcd13ifvqbk0","pricing_plan_id":"cebpf4jnsgd1na2vs0mg"},{"bike_id":"a1feba79-38e6-4b93-9a1d-d6792547999d","system_id":"levelo_inurba_marseille","lat":43.302992,"lon":5.392136,"is_reserved":false,"is_disabled":false,"rental_uris":{"android":"levelo://app?vid=a1feba79-38e6-4b93-9a1d-d6792547999d","ios":"levelo://app?vid=a1feba79-38e6-4b93-9a1d-d6792547999d"},"vehicle_type_id":"4","last_reported":1714496782,"current_range_meters":9600,"station_id":"ce4bgkh2rcd13ifvqbk0","pricing_plan_id":"cebpf4jnsgd1na2vs0mg"},{"bike_id":"e6dce66b-5eb5-4aff-a409-b9803ae79da6","system_id":"levelo_inurba_marseille","lat":43.303002,"lon":5.392142,"is_reserved":false,"is_disabled":false,"rental_uris":{"android":"levelo://app?vid=e6dce66b-5eb5-4aff-a409-b9803ae79da6","ios":"levelo://app?vid=e6dce66b-5eb5-4aff-a409-b9803ae79da6"},"vehicle_type_id":"4","last_reported":1714496782,"current_range_meters":3200,"station_id":"ce4bgkh2rcd13ifvqbk0","pricing_plan_id":"cebpf4jnsgd1na2vs0mg"},{"bike_id":"5e56c61d-963f-42e4-85ad-40ff34ac91b6","system_id":"levelo_inurba_marseille","lat":43.302992,"lon":5.392136,"is_reserved":false,"is_disabled":false,"rental_uris":{"android":"levelo://app?vid=5e56c61d-963f-42e4-85ad-40ff34ac91b6","ios":"levelo://app?vid=5e56c61d-963f-42e4-85ad-40ff34ac91b6"},"vehicle_type_id":"4","last_reported":1714496782,"current_range_meters":21200,"station_id":"ce4bgkh2rcd13ifvqbk0","pricing_plan_id":"cebpf4jnsgd1na2vs0mg"},{"bike_id":"a47962dd-91be-4c6a-99ac-3b1141c3b24e","system_id":"levelo_inurba_marseille","lat":43.302992,"lon":5.392136,"is_reserved":false,"is_disabled":false,"rental_uris":{"android":"levelo://app?vid=a47962dd-91be-4c6a-99ac-3b1141c3b24e","ios":"levelo://app?vid=a47962dd-91be-4c6a-99ac-3b1141c3b24e"},"vehicle_type_id":"4","last_reported":1714496782,"current_range_meters":6000,"station_id":"ce4bgkh2rcd13ifvqbk0","pricing_plan_id":"cebpf4jnsgd1na2vs0mg"},{"bike_id":"0aa98e50-3b32-4c31-87e0-ebbc2c98da52","system_id":"levelo_inurba_marseille","lat":43.2936,"lon":5.37835,"is_reserved":false,"is_disabled":false,"rental_uris":{"android":"levelo://app?vid=0aa98e50-3b32-4c31-87e0-ebbc2c98da52","ios":"levelo://app?vid=0aa98e50-3b32-4c31-87e0-ebbc2c98da52"},"vehicle_type_id":"4","last_reported":1714496782,"current_range_meters":15600,"station_id":"ce4bgjh2rcd13ifvqbf0","pricing_plan_id":"cebpf4jnsgd1na2vs0mg"},{"bike_id":"ed55ee50-7b44-4c48-92a5-dfc83d3f228c","system_id":"levelo_inurba_marseille","lat":43.302992,"lon":5.392136,"is_reserved":false,"is_disabled":false,"rental_uris":{"android":"levelo://app?vid=ed55ee50-7b44-4c48-92a5-dfc83d3f228c","ios":"levelo://app?vid=ed55ee50-7b44-4c48-92a5-dfc83d3f228c"},"vehicle_type_id":"4","last_reported":1714496782,"current_range_meters":26400,"station_id":"ce4bgkh2rcd13ifvqbk0","pricing_plan_id":"cebpf4jnsgd1na2vs0mg"},{"bike_id":"bc134cab-5dc8-4942-a21a-efc1d88f90a6","system_id":"levelo_inurba_marseille","lat":43.302992,"lon":5.392136,"is_reserved":false,"is_disabled":false,"rental_uris":{"android":"levelo://app?vid=bc134cab-5dc8-4942-a21a-efc1d88f90a6","ios":"levelo://app?vid=bc134cab-5dc8-4942-a21a-efc1d88f90a6"},"vehicle_type_id":"4","last_reported":1714496782,"current_range_meters":5600,"station_id":"ce4bgkh2rcd13ifvqbk0","pricing_plan_id":"cebpf4jnsgd1na2vs0mg"},{"bike_id":"4ffd6e24-55a8-4946-8bcf-76a1d9e7d90e","system_id":"levelo_inurba_marseille","lat":43.305181,"lon":5.39369,"is_reserved":false,"is_disabled":false,"rental_uris":{"android":"levelo://app?vid=4ffd6e24-55a8-4946-8bcf-76a1d9e7d90e","ios":"levelo://app?vid=4ffd6e24-55a8-4946-8bcf-76a1d9e7d90e"},"vehicle_type_id":"4","last_reported":1714496782,"current_range_meters":1600,"station_id":"","pricing_plan_id":"cebpf4jnsgd1na2vs0mg"},{"bike_id":"c5fffcb9-528e-4403-9e1a-154b45e3ec2e","system_id":"levelo_inurba_marseille","lat":43.292311,"lon":5.360731,"is_reserved":false,"is_disabled":false,"rental_uris":{"android":"levelo://app?vid=c5fffcb9-528e-4403-9e1a-154b45e3ec2e","ios":"levelo://app?vid=c5fffcb9-528e-4403-9e1a-154b45e3ec2e"},"vehicle_type_id":"4","last_reported":1714496782,"current_range_meters":26000,"station_id":"ce4bhbh2rcd13ifvqeqg","pricing_plan_id":"cebpf4jnsgd1na2vs0mg"},{"bike_id":"81f9d0e1-9400-42ff-b6d5-f9ec011962eb","system_id":"levelo_inurba_marseille","lat":43.292311,"lon":5.360731,"is_reserved":false,"is_disabled":false,"rental_uris":{"android":"levelo://app?vid=81f9d0e1-9400-42ff-b6d5-f9ec011962eb","ios":"levelo://app?vid=81f9d0e1-9400-42ff-b6d5-f9ec011962eb"},"vehicle_type_id":"4","last_reported":1714496782,"current_range_meters":15600,"station_id":"ce4bhbh2rcd13ifvqeqg","pricing_plan_id":"cebpf4jnsgd1na2vs0mg"},{"bike_id":"50e48ea9-2b50-49bd-a950-f1cd7f955fd8","system_id":"levelo_inurba_marseille","lat":43.292311,"lon":5.360731,"is_reserved":false,"is_disabled":false,"rental_uris":{"android":"levelo://app?vid=50e48ea9-2b50-49bd-a950-f1cd7f955fd8","ios":"levelo://app?vid=50e48ea9-2b50-49bd-a950-f1cd7f955fd8"},"vehicle_type_id":"4","last_reported":1714496782,"current_range_meters":7200,"station_id":"ce4bhbh2rcd13ifvqeqg","pricing_plan_id":"cebpf4jnsgd1na2vs0mg"},{"bike_id":"023d154b-fe4d-4fdc-863d-2a143e297a44","system_id":"levelo_inurba_marseille","lat":43.292311,"lon":5.360731,"is_reserved":false,"is_disabled":false,"rental_uris":{"android":"levelo://app?vid=023d154b-fe4d-4fdc-863d-2a143e297a44","ios":"levelo://app?vid=023d154b-fe4d-4fdc-863d-2a143e297a44"},"vehicle_type_id":"4","last_reported":1714496782,"current_range_meters":25600,"station_id":"ce4bhbh2rcd13ifvqeqg","pricing_plan_id":"cebpf4jnsgd1na2vs0mg"},{"bike_id":"3643ba50-aa29-4e9a-be3b-f3e4e36c8d5e","system_id":"levelo_inurba_marseille","lat":43.294162,"lon":5.386292,"is_reserved":false,"is_disabled":false,"rental_uris":{"android":"levelo://app?vid=3643ba50-aa29-4e9a-be3b-f3e4e36c8d5e","ios":"levelo://app?vid=3643ba50-aa29-4e9a-be3b-f3e4e36c8d5e"},"vehicle_type_id":"4","last_reported":1714496782,"current_range_meters":15200,"station_id":"ce4bh2h2rcd13ifvqdh0","pricing_plan_id":"cebpf4jnsgd1na2vs0mg"},{"bike_id":"e8db8fcc-13ae-4884-9aaf-740a8d560aec","system_id":"levelo_inurba_marseille","lat":43.292311,"lon":5.360731,"is_reserved":false,"is_disabled":false,"rental_uris":{"android":"levelo://app?vid=e8db8fcc-13ae-4884-9aaf-740a8d560aec","ios":"levelo://app?vid=e8db8fcc-13ae-4884-9aaf-740a8d560aec"},"vehicle_type_id":"4","last_reported":1714496782,"current_range_meters":0,"station_id":"ce4bhbh2rcd13ifvqeqg","pricing_plan_id":"cebpf4jnsgd1na2vs0mg"},{"bike_id":"c9fb7da0-ce14-49d4-9f68-9278b0d83054","system_id":"levelo_inurba_marseille","lat":43.292311,"lon":5.360731,"is_reserved":false,"is_disabled":false,"rental_uris":{"android":"levelo://app?vid=c9fb7da0-ce14-49d4-9f68-9278b0d83054","ios":"levelo://app?vid=c9fb7da0-ce14-49d4-9f68-9278b0d83054"},"vehicle_type_id":"4","last_reported":1714496782,"current_range_meters":0,"station_id":"ce4bhbh2rcd13ifvqeqg","pricing_plan_id":"cebpf4jnsgd1na2vs0mg"},{"bike_id":"d4f9f030-b3af-4d9a-b73d-618062483218","system_id":"levelo_inurba_marseille","lat":43.292311,"lon":5.360731,"is_reserved":false,"is_disabled":false,"rental_uris":{"android":"levelo://app?vid=d4f9f030-b3af-4d9a-b73d-618062483218","ios":"levelo://app?vid=d4f9f030-b3af-4d9a-b73d-618062483218"},"vehicle_type_id":"4","last_reported":1714496782,"current_range_meters":15200,"station_id":"ce4bhbh2rcd13ifvqeqg","pricing_plan_id":"cebpf4jnsgd1na2vs0mg"},{"bike_id":"4a3b7a2d-d3e9-4211-a33d-bde1dd5fcf5b","system_id":"levelo_inurba_marseille","lat":43.2923,"lon":5.36051,"is_reserved":false,"is_disabled":false,"rental_uris":{"android":"levelo://app?vid=4a3b7a2d-d3e9-4211-a33d-bde1dd5fcf5b","ios":"levelo://app?vid=4a3b7a2d-d3e9-4211-a33d-bde1dd5fcf5b"},"vehicle_type_id":"4","last_reported":1714496782,"current_range_meters":19200,"station_id":"ce4bhbh2rcd13ifvqeqg","pricing_plan_id":"cebpf4jnsgd1na2vs0mg"},{"bike_id":"7112fb97-402e-46d1-ab75-113e88d3eac1","system_id":"levelo_inurba_marseille","lat":43.292311,"lon":5.360731,"is_reserved":false,"is_disabled":false,"rental_uris":{"android":"levelo://app?vid=7112fb97-402e-46d1-ab75-113e88d3eac1","ios":"levelo://app?vid=7112fb97-402e-46d1-ab75-113e88d3eac1"},"vehicle_type_id":"4","last_reported":1714496782,"current_range_meters":23600,"station_id":"ce4bhbh2rcd13ifvqeqg","pricing_plan_id":"cebpf4jnsgd1na2vs0mg"},{"bike_id":"c4ab4f22-5b82-45b8-b65d-25559bd595e0","system_id":"levelo_inurba_marseille","lat":43.30085,"lon":5.390856,"is_reserved":false,"is_disabled":false,"rental_uris":{"android":"levelo://app?vid=c4ab4f22-5b82-45b8-b65d-25559bd595e0","ios":"levelo://app?vid=c4ab4f22-5b82-45b8-b65d-25559bd595e0"},"vehicle_type_id":"4","last_reported":1714496782,"current_range_meters":20800,"station_id":"ce4bh192rcd13ifvqdb0","pricing_plan_id":"cebpf4jnsgd1na2vs0mg"},{"bike_id":"08ef8e4f-34b7-4fdc-ba93-f6b9e4cd4904","system_id":"levelo_inurba_marseille","lat":43.292311,"lon":5.360731,"is_reserved":false,"is_disabled":false,"rental_uris":{"android":"levelo://app?vid=08ef8e4f-34b7-4fdc-ba93-f6b9e4cd4904","ios":"levelo://app?vid=08ef8e4f-34b7-4fdc-ba93-f6b9e4cd4904"},"vehicle_type_id":"4","last_reported":1714496782,"current_range_meters":11600,"station_id":"ce4bhbh2rcd13ifvqeqg","pricing_plan_id":"cebpf4jnsgd1na2vs0mg"},{"bike_id":"c1a55f4d-bd97-4696-8841-06af1fd81c65","system_id":"levelo_inurba_marseille","lat":43.30085,"lon":5.390856,"is_reserved":false,"is_disabled":false,"rental_uris":{"android":"levelo://app?vid=c1a55f4d-bd97-4696-8841-06af1fd81c65","ios":"levelo://app?vid=c1a55f4d-bd97-4696-8841-06af1fd81c65"},"vehicle_type_id":"4","last_reported":1714496782,"current_range_meters":8400,"station_id":"ce4bh192rcd13ifvqdb0","pricing_plan_id":"cebpf4jnsgd1na2vs0mg"},{"bike_id":"b44b072d-0001-4543-8906-909361297092","system_id":"levelo_inurba_marseille","lat":43.298764,"lon":5.388973,"is_reserved":false,"is_disabled":false,"rental_uris":{"android":"levelo://app?vid=b44b072d-0001-4543-8906-909361297092","ios":"levelo://app?vid=b44b072d-0001-4543-8906-909361297092"},"vehicle_type_id":"4","last_reported":1714496782,"current_range_meters":31200,"station_id":"ce4bh392rcd13ifvqdl0","pricing_plan_id":"cebpf4jnsgd1na2vs0mg"},{"bike_id":"ec5c67b3-7aa2-46ec-b1d7-c64141593381","system_id":"levelo_inurba_marseille","lat":43.298885,"lon":5.389204,"is_reserved":false,"is_disabled":false,"rental_uris":{"android":"levelo://app?vid=ec5c67b3-7aa2-46ec-b1d7-c64141593381","ios":"levelo://app?vid=ec5c67b3-7aa2-46ec-b1d7-c64141593381"},"vehicle_type_id":"4","last_reported":1714496782,"current_range_meters":3200,"station_id":"ce4bh392rcd13ifvqdl0","pricing_plan_id":"cebpf4jnsgd1na2vs0mg"},{"bike_id":"96e96fed-67c1-4202-b01d-4d2cd73a025d","system_id":"levelo_inurba_marseille","lat":43.298764,"lon":5.388973,"is_reserved":false,"is_disabled":false,"rental_uris":{"android":"levelo://app?vid=96e96fed-67c1-4202-b01d-4d2cd73a025d","ios":"levelo://app?vid=96e96fed-67c1-4202-b01d-4d2cd73a025d"},"vehicle_type_id":"4","last_reported":1714496782,"current_range_meters":21600,"station_id":"ce4bh392rcd13ifvqdl0","pricing_plan_id":"cebpf4jnsgd1na2vs0mg"},{"bike_id":"5c5efff7-2d49-4787-b8c6-1cde5d61d274","system_id":"levelo_inurba_marseille","lat":43.298764,"lon":5.388973,"is_reserved":false,"is_disabled":false,"rental_uris":{"android":"levelo://app?vid=5c5efff7-2d49-4787-b8c6-1cde5d61d274","ios":"levelo://app?vid=5c5efff7-2d49-4787-b8c6-1cde5d61d274"},"vehicle_type_id":"4","last_reported":1714496782,"current_range_meters":0,"station_id":"ce4bh392rcd13ifvqdl0","pricing_plan_id":"cebpf4jnsgd1na2vs0mg"},{"bike_id":"1e73e31c-ac2e-4273-b19d-6f9c9f8da571","system_id":"levelo_inurba_marseille","lat":43.312669,"lon":5.396495,"is_reserved":false,"is_disabled":false,"rental_uris":{"android":"levelo://app?vid=1e73e31c-ac2e-4273-b19d-6f9c9f8da571","ios":"levelo://app?vid=1e73e31c-ac2e-4273-b19d-6f9c9f8da571"},"vehicle_type_id":"4","last_reported":1714496782,"current_range_meters":16400,"station_id":"","pricing_plan_id":"cebpf4jnsgd1na2vs0mg"},{"bike_id":"f7f71d66-1239-4c73-97aa-bf57050fdf5d","system_id":"levelo_inurba_marseille","lat":43.295897,"lon":5.385726,"is_reserved":false,"is_disabled":false,"rental_uris":{"android":"levelo://app?vid=f7f71d66-1239-4c73-97aa-bf57050fdf5d","ios":"levelo://app?vid=f7f71d66-1239-4c73-97aa-bf57050fdf5d"},"vehicle_type_id":"4","last_reported":1714496782,"current_range_meters":0,"station_id":"ce4bgvp2rcd13ifvqct0","pricing_plan_id":"cebpf4jnsgd1na2vs0mg"},{"bike_id":"86b7c826-8cac-4e5a-b6b2-59ca90dd7e2b","system_id":"levelo_inurba_marseille","lat":43.291994,"lon":5.357886,"is_reserved":false,"is_disabled":false,"rental_uris":{"android":"levelo://app?vid=86b7c826-8cac-4e5a-b6b2-59ca90dd7e2b","ios":"levelo://app?vid=86b7c826-8cac-4e5a-b6b2-59ca90dd7e2b"},"vehicle_type_id":"4","last_reported":1714496782,"current_range_meters":16400,"station_id":"ce4bhb12rcd13ifvqel0","pricing_plan_id":"cebpf4jnsgd1na2vs0mg"},{"bike_id":"0b885fa0-238d-40ab-825d-61884681ab21","system_id":"levelo_inurba_marseille","lat":43.308962,"lon":5.39642,"is_reserved":false,"is_disabled":false,"rental_uris":{"android":"levelo://app?vid=0b885fa0-238d-40ab-825d-61884681ab21","ios":"levelo://app?vid=0b885fa0-238d-40ab-825d-61884681ab21"},"vehicle_type_id":"4","last_reported":1714496782,"current_range_meters":1200,"station_id":"ce4bh012rcd13ifvqcv0","pricing_plan_id":"cebpf4jnsgd1na2vs0mg"},{"bike_id":"5442e8f8-35d4-4624-9167-062729989e78","system_id":"levelo_inurba_marseille","lat":43.313291,"lon":5.396838,"is_reserved":false,"is_disabled":false,"rental_uris":{"android":"levelo://app?vid=5442e8f8-35d4-4624-9167-062729989e78","ios":"levelo://app?vid=5442e8f8-35d4-4624-9167-062729989e78"},"vehicle_type_id":"4","last_reported":1714496782,"current_range_meters":28800,"station_id":"ce4bgvp2rcd13ifvqcu0","pricing_plan_id":"cebpf4jnsgd1na2vs0mg"},{"bike_id":"7dfc3d6b-de61-4887-83d6-6d91ec64810c","system_id":"levelo_inurba_marseille","lat":43.31333,"lon":5.39688,"is_reserved":false,"is_disabled":false,"rental_uris":{"android":"levelo://app?vid=7dfc3d6b-de61-4887-83d6-6d91ec64810c","ios":"levelo://app?vid=7dfc3d6b-de61-4887-83d6-6d91ec64810c"},"vehicle_type_id":"4","last_reported":1714496782,"current_range_meters":16400,"station_id":"ce4bgvp2rcd13ifvqcu0","pricing_plan_id":"cebpf4jnsgd1na2vs0mg"},{"bike_id":"bd7f50e0-feb4-43ab-9ca5-987f81f1021f","system_id":"levelo_inurba_marseille","lat":43.292005,"lon":5.357875,"is_reserved":false,"is_disabled":false,"rental_uris":{"android":"levelo://app?vid=bd7f50e0-feb4-43ab-9ca5-987f81f1021f","ios":"levelo://app?vid=bd7f50e0-feb4-43ab-9ca5-987f81f1021f"},"vehicle_type_id":"4","last_reported":1714496782,"current_range_meters":24400,"station_id":"ce4bhb12rcd13ifvqel0","pricing_plan_id":"cebpf4jnsgd1na2vs0mg"},{"bike_id":"1aa9f5b2-7fc6-46a5-869b-d498cba758c7","system_id":"levelo_inurba_marseille","lat":43.308955,"lon":5.396455,"is_reserved":false,"is_disabled":false,"rental_uris":{"android":"levelo://app?vid=1aa9f5b2-7fc6-46a5-869b-d498cba758c7","ios":"levelo://app?vid=1aa9f5b2-7fc6-46a5-869b-d498cba758c7"},"vehicle_type_id":"4","last_reported":1714496782,"current_range_meters":12800,"station_id":"ce4bh012rcd13ifvqcv0","pricing_plan_id":"cebpf4jnsgd1na2vs0mg"},{"bike_id":"497b472c-1e4c-4ec1-a0ef-5ec93918edd4","system_id":"levelo_inurba_marseille","lat":43.31334,"lon":5.39691,"is_reserved":false,"is_disabled":false,"rental_uris":{"android":"levelo://app?vid=497b472c-1e4c-4ec1-a0ef-5ec93918edd4","ios":"levelo://app?vid=497b472c-1e4c-4ec1-a0ef-5ec93918edd4"},"vehicle_type_id":"4","last_reported":1714496782,"current_range_meters":18400,"station_id":"ce4bgvp2rcd13ifvqcu0","pricing_plan_id":"cebpf4jnsgd1na2vs0mg"},{"bike_id":"611df8c9-6ed1-45ec-bbe2-214faf738afb","system_id":"levelo_inurba_marseille","lat":43.31328,"lon":5.39692,"is_reserved":false,"is_disabled":false,"rental_uris":{"android":"levelo://app?vid=611df8c9-6ed1-45ec-bbe2-214faf738afb","ios":"levelo://app?vid=611df8c9-6ed1-45ec-bbe2-214faf738afb"},"vehicle_type_id":"4","last_reported":1714496782,"current_range_meters":10800,"station_id":"ce4bgvp2rcd13ifvqcu0","pricing_plan_id":"cebpf4jnsgd1na2vs0mg"},{"bike_id":"327432dd-4f95-49c3-b23e-dcfec707efb6","system_id":"levelo_inurba_marseille","lat":43.291994,"lon":5.357886,"is_reserved":false,"is_disabled":false,"rental_uris":{"android":"levelo://app?vid=327432dd-4f95-49c3-b23e-dcfec707efb6","ios":"levelo://app?vid=327432dd-4f95-49c3-b23e-dcfec707efb6"},"vehicle_type_id":"4","last_reported":1714496782,"current_range_meters":7200,"station_id":"ce4bhb12rcd13ifvqel0","pricing_plan_id":"cebpf4jnsgd1na2vs0mg"},{"bike_id":"fb0a30bb-c0b6-4c34-a68f-059f412ec8cc","system_id":"levelo_inurba_marseille","lat":43.31331,"lon":5.39693,"is_reserved":false,"is_disabled":false,"rental_uris":{"android":"levelo://app?vid=fb0a30bb-c0b6-4c34-a68f-059f412ec8cc","ios":"levelo://app?vid=fb0a30bb-c0b6-4c34-a68f-059f412ec8cc"},"vehicle_type_id":"4","last_reported":1714496782,"current_range_meters":7200,"station_id":"ce4bgvp2rcd13ifvqcu0","pricing_plan_id":"cebpf4jnsgd1na2vs0mg"},{"bike_id":"e3ac45c7-1b60-45bc-8d41-fa436573dc35","system_id":"levelo_inurba_marseille","lat":43.313291,"lon":5.396838,"is_reserved":false,"is_disabled":false,"rental_uris":{"android":"levelo://app?vid=e3ac45c7-1b60-45bc-8d41-fa436573dc35","ios":"levelo://app?vid=e3ac45c7-1b60-45bc-8d41-fa436573dc35"},"vehicle_type_id":"4","last_reported":1714496782,"current_range_meters":14000,"station_id":"ce4bgvp2rcd13ifvqcu0","pricing_plan_id":"cebpf4jnsgd1na2vs0mg"},{"bike_id":"7b86aec5-5b09-4911-af7f-8d93bfe914d3","system_id":"levelo_inurba_marseille","lat":43.313291,"lon":5.396838,"is_reserved":false,"is_disabled":false,"rental_uris":{"android":"levelo://app?vid=7b86aec5-5b09-4911-af7f-8d93bfe914d3","ios":"levelo://app?vid=7b86aec5-5b09-4911-af7f-8d93bfe914d3"},"vehicle_type_id":"4","last_reported":1714496782,"current_range_meters":8400,"station_id":"ce4bgvp2rcd13ifvqcu0","pricing_plan_id":"cebpf4jnsgd1na2vs0mg"},{"bike_id":"4035da31-bd60-47b7-863f-fd90ca86de07","system_id":"levelo_inurba_marseille","lat":43.309038,"lon":5.396546,"is_reserved":false,"is_disabled":false,"rental_uris":{"android":"levelo://app?vid=4035da31-bd60-47b7-863f-fd90ca86de07","ios":"levelo://app?vid=4035da31-bd60-47b7-863f-fd90ca86de07"},"vehicle_type_id":"4","last_reported":1714496782,"current_range_meters":14000,"station_id":"ce4bh012rcd13ifvqcv0","pricing_plan_id":"cebpf4jnsgd1na2vs0mg"},{"bike_id":"e27c6b69-dd14-494b-9dd1-86ea64283078","system_id":"levelo_inurba_marseille","lat":43.31328,"lon":5.39695,"is_reserved":false,"is_disabled":false,"rental_uris":{"android":"levelo://app?vid=e27c6b69-dd14-494b-9dd1-86ea64283078","ios":"levelo://app?vid=e27c6b69-dd14-494b-9dd1-86ea64283078"},"vehicle_type_id":"4","last_reported":1714496782,"current_range_meters":29600,"station_id":"ce4bgvp2rcd13ifvqcu0","pricing_plan_id":"cebpf4jnsgd1na2vs0mg"},{"bike_id":"07eb3451-3644-4725-acc8-d2f6ba587822","system_id":"levelo_inurba_marseille","lat":43.313291,"lon":5.396838,"is_reserved":false,"is_disabled":false,"rental_uris":{"android":"levelo://app?vid=07eb3451-3644-4725-acc8-d2f6ba587822","ios":"levelo://app?vid=07eb3451-3644-4725-acc8-d2f6ba587822"},"vehicle_type_id":"4","last_reported":1714496782,"current_range_meters":2000,"station_id":"ce4bgvp2rcd13ifvqcu0","pricing_plan_id":"cebpf4jnsgd1na2vs0mg"},{"bike_id":"9d6f32af-5a39-4704-8373-377a3f8097f9","system_id":"levelo_inurba_marseille","lat":43.31334,"lon":5.39696,"is_reserved":false,"is_disabled":false,"rental_uris":{"android":"levelo://app?vid=9d6f32af-5a39-4704-8373-377a3f8097f9","ios":"levelo://app?vid=9d6f32af-5a39-4704-8373-377a3f8097f9"},"vehicle_type_id":"4","last_reported":1714496782,"current_range_meters":10000,"station_id":"ce4bgvp2rcd13ifvqcu0","pricing_plan_id":"cebpf4jnsgd1na2vs0mg"},{"bike_id":"7ea34245-364a-4a5f-87f8-fbb061548b50","system_id":"levelo_inurba_marseille","lat":43.3133,"lon":5.397,"is_reserved":false,"is_disabled":false,"rental_uris":{"android":"levelo://app?vid=7ea34245-364a-4a5f-87f8-fbb061548b50","ios":"levelo://app?vid=7ea34245-364a-4a5f-87f8-fbb061548b50"},"vehicle_type_id":"4","last_reported":1714496782,"current_range_meters":6000,"station_id":"ce4bgvp2rcd13ifvqcu0","pricing_plan_id":"cebpf4jnsgd1na2vs0mg"},{"bike_id":"80bf169c-ccfa-4c24-b395-15c776f6337a","system_id":"levelo_inurba_marseille","lat":43.313291,"lon":5.396838,"is_reserved":false,"is_disabled":false,"rental_uris":{"android":"levelo://app?vid=80bf169c-ccfa-4c24-b395-15c776f6337a","ios":"levelo://app?vid=80bf169c-ccfa-4c24-b395-15c776f6337a"},"vehicle_type_id":"4","last_reported":1714496782,"current_range_meters":30800,"station_id":"ce4bgvp2rcd13ifvqcu0","pricing_plan_id":"cebpf4jnsgd1na2vs0mg"},{"bike_id":"454561ee-2789-484d-9b43-ba259a876a1f","system_id":"levelo_inurba_marseille","lat":43.29529,"lon":5.385581,"is_reserved":false,"is_disabled":false,"rental_uris":{"android":"levelo://app?vid=454561ee-2789-484d-9b43-ba259a876a1f","ios":"levelo://app?vid=454561ee-2789-484d-9b43-ba259a876a1f"},"vehicle_type_id":"4","last_reported":1714496782,"current_range_meters":10400,"station_id":"ce4bgih2rcd13ifvqba0","pricing_plan_id":"cebpf4jnsgd1na2vs0mg"},{"bike_id":"7f2343e3-8960-46e0-a177-c6b83e0cd173","system_id":"levelo_inurba_marseille","lat":43.29538,"lon":5.38538,"is_reserved":false,"is_disabled":false,"rental_uris":{"android":"levelo://app?vid=7f2343e3-8960-46e0-a177-c6b83e0cd173","ios":"levelo://app?vid=7f2343e3-8960-46e0-a177-c6b83e0cd173"},"vehicle_type_id":"4","last_reported":1714496782,"current_range_meters":24400,"station_id":"ce4bgih2rcd13ifvqba0","pricing_plan_id":"cebpf4jnsgd1na2vs0mg"},{"bike_id":"09f26323-8ecf-4479-872b-091f6b90f008","system_id":"levelo_inurba_marseille","lat":43.29538,"lon":5.38542,"is_reserved":false,"is_disabled":false,"rental_uris":{"android":"levelo://app?vid=09f26323-8ecf-4479-872b-091f6b90f008","ios":"levelo://app?vid=09f26323-8ecf-4479-872b-091f6b90f008"},"vehicle_type_id":"4","last_reported":1714496782,"current_range_meters":12400,"station_id":"ce4bgih2rcd13ifvqba0","pricing_plan_id":"cebpf4jnsgd1na2vs0mg"},{"bike_id":"d9721965-9b09-461d-bfc3-7aa5f829b747","system_id":"levelo_inurba_marseille","lat":43.29529,"lon":5.385581,"is_reserved":false,"is_disabled":false,"rental_uris":{"android":"levelo://app?vid=d9721965-9b09-461d-bfc3-7aa5f829b747","ios":"levelo://app?vid=d9721965-9b09-461d-bfc3-7aa5f829b747"},"vehicle_type_id":"4","last_reported":1714496782,"current_range_meters":4400,"station_id":"ce4bgih2rcd13ifvqba0","pricing_plan_id":"cebpf4jnsgd1na2vs0mg"},{"bike_id":"102d8458-8cbf-48a7-989c-8b41787610ee","system_id":"levelo_inurba_marseille","lat":43.29529,"lon":5.385581,"is_reserved":false,"is_disabled":false,"rental_uris":{"android":"levelo://app?vid=102d8458-8cbf-48a7-989c-8b41787610ee","ios":"levelo://app?vid=102d8458-8cbf-48a7-989c-8b41787610ee"},"vehicle_type_id":"4","last_reported":1714496782,"current_range_meters":25200,"station_id":"ce4bgih2rcd13ifvqba0","pricing_plan_id":"cebpf4jnsgd1na2vs0mg"},{"bike_id":"a148ed25-1845-46f0-86cc-adfb463b5425","system_id":"levelo_inurba_marseille","lat":43.29535,"lon":5.38541,"is_reserved":false,"is_disabled":false,"rental_uris":{"android":"levelo://app?vid=a148ed25-1845-46f0-86cc-adfb463b5425","ios":"levelo://app?vid=a148ed25-1845-46f0-86cc-adfb463b5425"},"vehicle_type_id":"4","last_reported":1714496782,"current_range_meters":18800,"station_id":"ce4bgih2rcd13ifvqba0","pricing_plan_id":"cebpf4jnsgd1na2vs0mg"},{"bike_id":"11ce6ba3-be98-4202-9107-01bb3ccd2976","system_id":"levelo_inurba_marseille","lat":43.29529,"lon":5.385581,"is_reserved":false,"is_disabled":false,"rental_uris":{"android":"levelo://app?vid=11ce6ba3-be98-4202-9107-01bb3ccd2976","ios":"levelo://app?vid=11ce6ba3-be98-4202-9107-01bb3ccd2976"},"vehicle_type_id":"4","last_reported":1714496782,"current_range_meters":31200,"station_id":"ce4bgih2rcd13ifvqba0","pricing_plan_id":"cebpf4jnsgd1na2vs0mg"},{"bike_id":"02457b79-801f-4569-b72e-a7b34df090df","system_id":"levelo_inurba_marseille","lat":43.295322,"lon":5.385374,"is_reserved":false,"is_disabled":false,"rental_uris":{"android":"levelo://app?vid=02457b79-801f-4569-b72e-a7b34df090df","ios":"levelo://app?vid=02457b79-801f-4569-b72e-a7b34df090df"},"vehicle_type_id":"4","last_reported":1714496782,"current_range_meters":11200,"station_id":"ce4bgih2rcd13ifvqba0","pricing_plan_id":"cebpf4jnsgd1na2vs0mg"},{"bike_id":"ee7dcc0c-45bc-4e76-8c20-a44d533c3859","system_id":"levelo_inurba_marseille","lat":43.29529,"lon":5.385581,"is_reserved":false,"is_disabled":false,"rental_uris":{"android":"levelo://app?vid=ee7dcc0c-45bc-4e76-8c20-a44d533c3859","ios":"levelo://app?vid=ee7dcc0c-45bc-4e76-8c20-a44d533c3859"},"vehicle_type_id":"4","last_reported":1714496782,"current_range_meters":28400,"station_id":"ce4bgih2rcd13ifvqba0","pricing_plan_id":"cebpf4jnsgd1na2vs0mg"},{"bike_id":"1c39e55a-4d48-4226-b61f-1bf7dd5f017b","system_id":"levelo_inurba_marseille","lat":43.29529,"lon":5.385581,"is_reserved":false,"is_disabled":false,"rental_uris":{"android":"levelo://app?vid=1c39e55a-4d48-4226-b61f-1bf7dd5f017b","ios":"levelo://app?vid=1c39e55a-4d48-4226-b61f-1bf7dd5f017b"},"vehicle_type_id":"4","last_reported":1714496782,"current_range_meters":12400,"station_id":"ce4bgih2rcd13ifvqba0","pricing_plan_id":"cebpf4jnsgd1na2vs0mg"},{"bike_id":"d51e2d9a-71ff-4e35-9189-cc5c15101735","system_id":"levelo_inurba_marseille","lat":43.295343,"lon":5.385443,"is_reserved":false,"is_disabled":false,"rental_uris":{"android":"levelo://app?vid=d51e2d9a-71ff-4e35-9189-cc5c15101735","ios":"levelo://app?vid=d51e2d9a-71ff-4e35-9189-cc5c15101735"},"vehicle_type_id":"4","last_reported":1714496782,"current_range_meters":14800,"station_id":"ce4bgih2rcd13ifvqba0","pricing_plan_id":"cebpf4jnsgd1na2vs0mg"},{"bike_id":"ba2ca9d8-90c6-438f-98fe-d6e733175632","system_id":"levelo_inurba_marseille","lat":43.29529,"lon":5.385581,"is_reserved":false,"is_disabled":false,"rental_uris":{"android":"levelo://app?vid=ba2ca9d8-90c6-438f-98fe-d6e733175632","ios":"levelo://app?vid=ba2ca9d8-90c6-438f-98fe-d6e733175632"},"vehicle_type_id":"4","last_reported":1714496782,"current_range_meters":8000,"station_id":"ce4bgih2rcd13ifvqba0","pricing_plan_id":"cebpf4jnsgd1na2vs0mg"},{"bike_id":"207f4426-4978-4d7d-ad3f-f4c8cc3cbcca","system_id":"levelo_inurba_marseille","lat":43.29529,"lon":5.385581,"is_reserved":false,"is_disabled":false,"rental_uris":{"android":"levelo://app?vid=207f4426-4978-4d7d-ad3f-f4c8cc3cbcca","ios":"levelo://app?vid=207f4426-4978-4d7d-ad3f-f4c8cc3cbcca"},"vehicle_type_id":"4","last_reported":1714496782,"current_range_meters":12800,"station_id":"ce4bgih2rcd13ifvqba0","pricing_plan_id":"cebpf4jnsgd1na2vs0mg"},{"bike_id":"9dcadea9-4530-4caa-8f69-177ecb7eb124","system_id":"levelo_inurba_marseille","lat":43.29537,"lon":5.38551,"is_reserved":false,"is_disabled":false,"rental_uris":{"android":"levelo://app?vid=9dcadea9-4530-4caa-8f69-177ecb7eb124","ios":"levelo://app?vid=9dcadea9-4530-4caa-8f69-177ecb7eb124"},"vehicle_type_id":"4","last_reported":1714496782,"current_range_meters":8800,"station_id":"ce4bgih2rcd13ifvqba0","pricing_plan_id":"cebpf4jnsgd1na2vs0mg"},{"bike_id":"6188a4d6-6552-48d0-999b-bd2b8b71822d","system_id":"levelo_inurba_marseille","lat":43.29533,"lon":5.38544,"is_reserved":false,"is_disabled":false,"rental_uris":{"android":"levelo://app?vid=6188a4d6-6552-48d0-999b-bd2b8b71822d","ios":"levelo://app?vid=6188a4d6-6552-48d0-999b-bd2b8b71822d"},"vehicle_type_id":"4","last_reported":1714496782,"current_range_meters":26000,"station_id":"ce4bgih2rcd13ifvqba0","pricing_plan_id":"cebpf4jnsgd1na2vs0mg"},{"bike_id":"c1e8505a-fbaf-43d3-9096-2d00de17abff","system_id":"levelo_inurba_marseille","lat":43.2953,"lon":5.3854,"is_reserved":false,"is_disabled":false,"rental_uris":{"android":"levelo://app?vid=c1e8505a-fbaf-43d3-9096-2d00de17abff","ios":"levelo://app?vid=c1e8505a-fbaf-43d3-9096-2d00de17abff"},"vehicle_type_id":"4","last_reported":1714496782,"current_range_meters":17200,"station_id":"ce4bgih2rcd13ifvqba0","pricing_plan_id":"cebpf4jnsgd1na2vs0mg"},{"bike_id":"68e48b7e-9659-4145-a0fc-6bc891253fb0","system_id":"levelo_inurba_marseille","lat":43.29529,"lon":5.385581,"is_reserved":false,"is_disabled":false,"rental_uris":{"android":"levelo://app?vid=68e48b7e-9659-4145-a0fc-6bc891253fb0","ios":"levelo://app?vid=68e48b7e-9659-4145-a0fc-6bc891253fb0"},"vehicle_type_id":"4","last_reported":1714496782,"current_range_meters":30800,"station_id":"ce4bgih2rcd13ifvqba0","pricing_plan_id":"cebpf4jnsgd1na2vs0mg"},{"bike_id":"5e549621-12e2-4268-995d-09470df23d0e","system_id":"levelo_inurba_marseille","lat":43.29529,"lon":5.385581,"is_reserved":false,"is_disabled":false,"rental_uris":{"android":"levelo://app?vid=5e549621-12e2-4268-995d-09470df23d0e","ios":"levelo://app?vid=5e549621-12e2-4268-995d-09470df23d0e"},"vehicle_type_id":"4","last_reported":1714496782,"current_range_meters":30400,"station_id":"ce4bgih2rcd13ifvqba0","pricing_plan_id":"cebpf4jnsgd1na2vs0mg"},{"bike_id":"f74018d5-309e-44ef-85e4-cae9bda8c26b","system_id":"levelo_inurba_marseille","lat":43.29529,"lon":5.385581,"is_reserved":false,"is_disabled":false,"rental_uris":{"android":"levelo://app?vid=f74018d5-309e-44ef-85e4-cae9bda8c26b","ios":"levelo://app?vid=f74018d5-309e-44ef-85e4-cae9bda8c26b"},"vehicle_type_id":"4","last_reported":1714496782,"current_range_meters":24000,"station_id":"ce4bgih2rcd13ifvqba0","pricing_plan_id":"cebpf4jnsgd1na2vs0mg"},{"bike_id":"f272d697-6852-4d00-834a-2153abe017ac","system_id":"levelo_inurba_marseille","lat":43.29529,"lon":5.385581,"is_reserved":false,"is_disabled":false,"rental_uris":{"android":"levelo://app?vid=f272d697-6852-4d00-834a-2153abe017ac","ios":"levelo://app?vid=f272d697-6852-4d00-834a-2153abe017ac"},"vehicle_type_id":"4","last_reported":1714496782,"current_range_meters":2400,"station_id":"ce4bgih2rcd13ifvqba0","pricing_plan_id":"cebpf4jnsgd1na2vs0mg"},{"bike_id":"a5f9302c-9774-4a84-8fea-5dfa1dee4656","system_id":"levelo_inurba_marseille","lat":43.290779,"lon":5.371482,"is_reserved":false,"is_disabled":false,"rental_uris":{"android":"levelo://app?vid=a5f9302c-9774-4a84-8fea-5dfa1dee4656","ios":"levelo://app?vid=a5f9302c-9774-4a84-8fea-5dfa1dee4656"},"vehicle_type_id":"4","last_reported":1714496782,"current_range_meters":10400,"station_id":"ce4bh5p2rcd13ifvqe4g","pricing_plan_id":"cebpf4jnsgd1na2vs0mg"},{"bike_id":"8ec8dfe5-73f4-4ab7-9644-cf65f318b2cb","system_id":"levelo_inurba_marseille","lat":43.290779,"lon":5.371482,"is_reserved":false,"is_disabled":false,"rental_uris":{"android":"levelo://app?vid=8ec8dfe5-73f4-4ab7-9644-cf65f318b2cb","ios":"levelo://app?vid=8ec8dfe5-73f4-4ab7-9644-cf65f318b2cb"},"vehicle_type_id":"4","last_reported":1714496782,"current_range_meters":12800,"station_id":"ce4bh5p2rcd13ifvqe4g","pricing_plan_id":"cebpf4jnsgd1na2vs0mg"},{"bike_id":"4a1620c6-82d2-4396-9b0f-11c1df903f6b","system_id":"levelo_inurba_marseille","lat":43.290779,"lon":5.371482,"is_reserved":false,"is_disabled":false,"rental_uris":{"android":"levelo://app?vid=4a1620c6-82d2-4396-9b0f-11c1df903f6b","ios":"levelo://app?vid=4a1620c6-82d2-4396-9b0f-11c1df903f6b"},