{"last_updated":1758204637,"ttl":60,"version":"2.2","data":{"bikes":[{"bike_id":"d63f7700-e8f5-48e8-852e-396e8619aaf2","system_id":"levelo_inurba_marseille","lat":43.231831,"lon":5.399941,"is_reserved":false,"is_disabled":false,"rental_uris":{"android":"levelo://app?vid=d63f7700-e8f5-48e8-852e-396e8619aaf2","ios":"levelo://app?vid=d63f7700-e8f5-48e8-852e-396e8619aaf2"},"vehicle_type_id":"4","last_reported":1758204637,"current_range_meters":2800,"station_id":"ce4bhn12rcd13ifvqgqg","pricing_plan_id":"cebpf4jnsgd1na2vs0mg"},{"bike_id":"6d6f14b5-f401-471f-b78c-34fdba29c972","system_id":"levelo_inurba_marseille","lat":43.25001,"lon":5.3892,"is_reserved":false,"is_disabled":false,"rental_uris":{"android":"levelo://app?vid=6d6f14b5-f401-471f-b78c-34fdba29c972","ios":"levelo://app?vid=6d6f14b5-f401-471f-b78c-34fdba29c972"},"vehicle_type_id":"4","last_reported":1758204637,"current_range_meters":2800,"station_id":"ce4bhgp2rcd13ifvqfd0","pricing_plan_id":"cebpf4jnsgd1na2vs0mg"},{"bike_id":"7ba2cb02-7fbe-44bd-a0ce-b1ca7f631c11","system_id":"levelo_inurba_marseille","lat":43.24544,"lon":5.39515,"is_reserved":false,"is_disabled":false,"rental_uris":{"android":"levelo://app?vid=7ba2cb02-7fbe-44bd-a0ce-b1ca7f631c11","ios":"levelo://app?vid=7ba2cb02-7fbe-44bd-a0ce-b1ca7f631c11"},"vehicle_type_id":"4","last_reported":1758204637,"current_range_meters":2800,"station_id":"ce4bhlp2rcd13ifvqgjg","pricing_plan_id":"cebpf4jnsgd1na2vs0mg"},{"bike_id":"15e78221-9cdf-4864-945b-f2ca8e103858","system_id":"levelo_inurba_marseille","lat":43.30642,"lon":5.40092,"is_reserved":false,"is_disabled":false,"rental_uris":{"android":"levelo://app?vid=15e78221-9cdf-4864-945b-f2ca8e103858","ios":"levelo://app?vid=15e78221-9cdf-4864-945b-f2ca8e103858"},"vehicle_type_id":"4","last_reported":1758204637,"current_range_meters":3200,"station_id":"ce4bh112rcd13ifvqda0","pricing_plan_id":"cebpf4jnsgd1na2vs0mg"},{"bike_id":"963594a3-a8f2-42be-97f7-fe84c3e4c8ee","system_id":"levelo_inurba_marseille","lat":43.304181,"lon":5.412714,"is_reserved":false,"is_disabled":false,"rental_uris":{"android":"levelo://app?vid=963594a3-a8f2-42be-97f7-fe84c3e4c8ee","ios":"levelo://app?vid=963594a3-a8f2-42be-97f7-fe84c3e4c8ee"},"vehicle_type_id":"4","last_reported":1758204637,"current_range_meters":3200,"station_id":"ce4bhop2rcd13ifvqh8g","pricing_plan_id":"cebpf4jnsgd1na2vs0mg"},{"bike_id":"919693a6-256a-4fff-94bc-6084b488c27f","system_id":"levelo_inurba_marseille","lat":43.282662,"lon":5.350535,"is_reserved":false,"is_disabled":false,"rental_uris":{"android":"levelo://app?vid=919693a6-256a-4fff-94bc-6084b488c27f","ios":"levelo://app?vid=919693a6-256a-4fff-94bc-6084b488c27f"},"vehicle_type_id":"4","last_reported":1758204637,"current_range_meters":3200,"station_id":"ce4bhbp2rcd13ifvqerg","pricing_plan_id":"cebpf4jnsgd1na2vs0mg"},{"bike_id":"8ef783bb-453e-4f55-9c1b-2bdfe492f6cb","system_id":"levelo_inurba_marseille","lat":43.29089,"lon":5.38133,"is_reserved":false,"is_disabled":false,"rental_uris":{"android":"levelo://app?vid=8ef783bb-453e-4f55-9c1b-2bdfe492f6cb","ios":"levelo://app?vid=8ef783bb-453e-4f55-9c1b-2bdfe492f6cb"},"vehicle_type_id":"4","last_reported":1758204637,"current_range_meters":3200,"station_id":"ce4bh512rcd13ifvqe2g","pricing_plan_id":"cebpf4jnsgd1na2vs0mg"},{"bike_id":"5b1a3548-4384-418f-b6b2-16eb93ba4829","system_id":"levelo_inurba_marseille","lat":43.28683,"lon":5.36363,"is_reserved":false,"is_disabled":true,"rental_uris":{"android":"levelo://app?vid=5b1a3548-4384-418f-b6b2-16eb93ba4829","ios":"levelo://app?vid=5b1a3548-4384-418f-b6b2-16eb93ba4829"},"vehicle_type_id":"4","last_reported":1758204637,"current_range_meters":4000,"station_id":"ce4bhah2rcd13ifvqej0","pricing_plan_id":"cebpf4jnsgd1na2vs0mg"},{"bike_id":"c12e28be-ed9a-4d59-b162-713f0ee68c5a","system_id":"levelo_inurba_marseille","lat":43.29803,"lon":5.38087,"is_reserved":false,"is_disabled":false,"rental_uris":{"android":"levelo://app?vid=c12e28be-ed9a-4d59-b162-713f0ee68c5a","ios":"levelo://app?vid=c12e28be-ed9a-4d59-b162-713f0ee68c5a"},"vehicle_type_id":"4","last_reported":1758204637,"current_range_meters":4000,"station_id":"ce4bgip2rcd13ifvqbb0","pricing_plan_id":"cebpf4jnsgd1na2vs0mg"},{"bike_id":"046ba709-b940-4fa3-9690-1d81db536e4b","system_id":"levelo_inurba_marseille","lat":43.22566,"lon":5.4159,"is_reserved":false,"is_disabled":false,"rental_uris":{"android":"levelo://app?vid=046ba709-b940-4fa3-9690-1d81db536e4b","ios":"levelo://app?vid=046ba709-b940-4fa3-9690-1d81db536e4b"},"vehicle_type_id":"4","last_reported":1758204637,"current_range_meters":4000,"station_id":"st_d2o4gvlbi1j2169b742g","pricing_plan_id":"cebpf4jnsgd1na2vs0mg"},{"bike_id":"eaf648ff-2e20-4a45-b878-7239083bc80c","system_id":"levelo_inurba_marseille","lat":43.27549,"lon":5.38406,"is_reserved":false,"is_disabled":false,"rental_uris":{"android":"levelo://app?vid=eaf648ff-2e20-4a45-b878-7239083bc80c","ios":"levelo://app?vid=eaf648ff-2e20-4a45-b878-7239083bc80c"},"vehicle_type_id":"4","last_reported":1758204637,"current_range_meters":4000,"station_id":"ce4bhh92rcd13ifvqfi0","pricing_plan_id":"cebpf4jnsgd1na2vs0mg"},{"bike_id":"f17b9428-e807-40ae-8b0d-355c1eebb842","system_id":"levelo_inurba_marseille","lat":43.27834,"lon":5.39217,"is_reserved":false,"is_disabled":false,"rental_uris":{"android":"levelo://app?vid=f17b9428-e807-40ae-8b0d-355c1eebb842","ios":"levelo://app?vid=f17b9428-e807-40ae-8b0d-355c1eebb842"},"vehicle_type_id":"4","last_reported":1758204637,"current_range_meters":4000,"station_id":"ce4bhjp2rcd13ifvqga0","pricing_plan_id":"cebpf4jnsgd1na2vs0mg"},{"bike_id":"4523295c-4f88-40db-90ee-beed2cf9bbe8","system_id":"levelo_inurba_marseille","lat":43.25333,"lon":5.42169,"is_reserved":false,"is_disabled":false,"rental_uris":{"android":"levelo://app?vid=4523295c-4f88-40db-90ee-beed2cf9bbe8","ios":"levelo://app?vid=4523295c-4f88-40db-90ee-beed2cf9bbe8"},"vehicle_type_id":"4","last_reported":1758204637,"current_range_meters":3200,"station_id":"st_d2m65c5bi1j21697t3ng","pricing_plan_id":"cebpf4jnsgd1na2vs0mg"},{"bike_id":"247b78f9-98b6-461e-822c-948f10b5a159","system_id":"levelo_inurba_marseille","lat":43.28469,"lon":5.38427,"is_reserved":false,"is_disabled":false,"rental_uris":{"android":"levelo://app?vid=247b78f9-98b6-461e-822c-948f10b5a159","ios":"levelo://app?vid=247b78f9-98b6-461e-822c-948f10b5a159"},"vehicle_type_id":"4","last_reported":1758204637,"current_range_meters":4400,"station_id":"ce4bh512rcd13ifvqe3g","pricing_plan_id":"cebpf4jnsgd1na2vs0mg"},{"bike_id":"a240c3da-b208-4733-a49b-0cc542d28ae2","system_id":"levelo_inurba_marseille","lat":43.2319,"lon":5.39984,"is_reserved":false,"is_disabled":false,"rental_uris":{"android":"levelo://app?vid=a240c3da-b208-4733-a49b-0cc542d28ae2","ios":"levelo://app?vid=a240c3da-b208-4733-a49b-0cc542d28ae2"},"vehicle_type_id":"4","last_reported":1758204637,"current_range_meters":4400,"station_id":"ce4bhn12rcd13ifvqgqg","pricing_plan_id":"cebpf4jnsgd1na2vs0mg"},{"bike_id":"387d6da7-6ff4-4b9d-8f58-4e0c8a9373dd","system_id":"levelo_inurba_marseille","lat":43.26057,"lon":5.39391,"is_reserved":false,"is_disabled":false,"rental_uris":{"android":"levelo://app?vid=387d6da7-6ff4-4b9d-8f58-4e0c8a9373dd","ios":"levelo://app?vid=387d6da7-6ff4-4b9d-8f58-4e0c8a9373dd"},"vehicle_type_id":"4","last_reported":1758204637,"current_range_meters":4800,"station_id":"ce4bhh92rcd13ifvqfj0","pricing_plan_id":"cebpf4jnsgd1na2vs0mg"},{"bike_id":"775af279-8ac9-4585-9121-809be9b13265","system_id":"levelo_inurba_marseille","lat":43.33765,"lon":5.37436,"is_reserved":false,"is_disabled":false,"rental_uris":{"android":"levelo://app?vid=775af279-8ac9-4585-9121-809be9b13265","ios":"levelo://app?vid=775af279-8ac9-4585-9121-809be9b13265"},"vehicle_type_id":"4","last_reported":1758204637,"current_range_meters":4800,"station_id":"","pricing_plan_id":"cebpf4jnsgd1na2vs0mg"},{"bike_id":"72436c3b-1b2f-4ad5-8a52-45222d4f907c","system_id":"levelo_inurba_marseille","lat":43.24787,"lon":5.37448,"is_reserved":false,"is_disabled":false,"rental_uris":{"android":"levelo://app?vid=72436c3b-1b2f-4ad5-8a52-45222d4f907c","ios":"levelo://app?vid=72436c3b-1b2f-4ad5-8a52-45222d4f907c"},"vehicle_type_id":"4","last_reported":1758204637,"current_range_meters":5600,"station_id":"","pricing_plan_id":"cebpf4jnsgd1na2vs0mg"},{"bike_id":"337d1480-c22f-4643-baf4-c1be90fb6271","system_id":"levelo_inurba_marseille","lat":43.28726,"lon":5.36098,"is_reserved":false,"is_disabled":false,"rental_uris":{"android":"levelo://app?vid=337d1480-c22f-4643-baf4-c1be90fb6271","ios":"levelo://app?vid=337d1480-c22f-4643-baf4-c1be90fb6271"},"vehicle_type_id":"4","last_reported":1758204637,"current_range_meters":5600,"station_id":"cki0cbj6b192h4jlfktg","pricing_plan_id":"cebpf4jnsgd1na2vs0mg"},{"bike_id":"7c28f568-b04e-4cc3-8ff3-26c05b21c86b","system_id":"levelo_inurba_marseille","lat":43.32331,"lon":5.40612,"is_reserved":false,"is_disabled":false,"rental_uris":{"android":"levelo://app?vid=7c28f568-b04e-4cc3-8ff3-26c05b21c86b","ios":"levelo://app?vid=7c28f568-b04e-4cc3-8ff3-26c05b21c86b"},"vehicle_type_id":"4","last_reported":1758204637,"current_range_meters":6000,"station_id":"ce4bhq92rcd13ifvqhjg","pricing_plan_id":"cebpf4jnsgd1na2vs0mg"},{"bike_id":"5ac5607b-854b-4de1-9573-1b0413d15c6f","system_id":"levelo_inurba_marseille","lat":43.29618,"lon":5.37426,"is_reserved":false,"is_disabled":false,"rental_uris":{"android":"levelo://app?vid=5ac5607b-854b-4de1-9573-1b0413d15c6f","ios":"levelo://app?vid=5ac5607b-854b-4de1-9573-1b0413d15c6f"},"vehicle_type_id":"4","last_reported":1758204637,"current_range_meters":6000,"station_id":"","pricing_plan_id":"cebpf4jnsgd1na2vs0mg"},{"bike_id":"e5ef59d1-dfed-4c07-be56-19e2527e23ff","system_id":"levelo_inurba_marseille","lat":43.285653,"lon":5.350031,"is_reserved":false,"is_disabled":false,"rental_uris":{"android":"levelo://app?vid=e5ef59d1-dfed-4c07-be56-19e2527e23ff","ios":"levelo://app?vid=e5ef59d1-dfed-4c07-be56-19e2527e23ff"},"vehicle_type_id":"4","last_reported":1758204637,"current_range_meters":6000,"station_id":"ce4bgj92rcd13ifvqbe0","pricing_plan_id":"cebpf4jnsgd1na2vs0mg"},{"bike_id":"bc287559-3696-4138-aea3-44986a2a2eb3","system_id":"levelo_inurba_marseille","lat":43.3204,"lon":5.4159,"is_reserved":false,"is_disabled":false,"rental_uris":{"android":"levelo://app?vid=bc287559-3696-4138-aea3-44986a2a2eb3","ios":"levelo://app?vid=bc287559-3696-4138-aea3-44986a2a2eb3"},"vehicle_type_id":"4","last_reported":1758204637,"current_range_meters":6400,"station_id":"ce4bhq92rcd13ifvqhkg","pricing_plan_id":"cebpf4jnsgd1na2vs0mg"},{"bike_id":"e820c689-e974-4315-9bed-010e44b9c698","system_id":"levelo_inurba_marseille","lat":43.28128,"lon":5.3502,"is_reserved":false,"is_disabled":false,"rental_uris":{"android":"levelo://app?vid=e820c689-e974-4315-9bed-010e44b9c698","ios":"levelo://app?vid=e820c689-e974-4315-9bed-010e44b9c698"},"vehicle_type_id":"4","last_reported":1758204637,"current_range_meters":6800,"station_id":"","pricing_plan_id":"cebpf4jnsgd1na2vs0mg"},{"bike_id":"bc279c75-a956-49ea-9ad5-d082cd25689e","system_id":"levelo_inurba_marseille","lat":43.29039,"lon":5.37572,"is_reserved":false,"is_disabled":false,"rental_uris":{"android":"levelo://app?vid=bc279c75-a956-49ea-9ad5-d082cd25689e","ios":"levelo://app?vid=bc279c75-a956-49ea-9ad5-d082cd25689e"},"vehicle_type_id":"4","last_reported":1758204637,"current_range_meters":6800,"station_id":"ce4bh692rcd13ifvqe90","pricing_plan_id":"cebpf4jnsgd1na2vs0mg"},{"bike_id":"db7aab90-58dd-44be-9b39-2f213c694301","system_id":"levelo_inurba_marseille","lat":43.24388,"lon":5.3706,"is_reserved":false,"is_disabled":false,"rental_uris":{"android":"levelo://app?vid=db7aab90-58dd-44be-9b39-2f213c694301","ios":"levelo://app?vid=db7aab90-58dd-44be-9b39-2f213c694301"},"vehicle_type_id":"4","last_reported":1758204637,"current_range_meters":6800,"station_id":"ce4bhhh2rcd13ifvqfk0","pricing_plan_id":"cebpf4jnsgd1na2vs0mg"},{"bike_id":"5cebaa99-7be9-4a3f-9cc0-5cdfdaef03f0","system_id":"levelo_inurba_marseille","lat":43.225319,"lon":5.348348,"is_reserved":false,"is_disabled":false,"rental_uris":{"android":"levelo://app?vid=5cebaa99-7be9-4a3f-9cc0-5cdfdaef03f0","ios":"levelo://app?vid=5cebaa99-7be9-4a3f-9cc0-5cdfdaef03f0"},"vehicle_type_id":"4","last_reported":1758204637,"current_range_meters":6800,"station_id":"","pricing_plan_id":"cebpf4jnsgd1na2vs0mg"},{"bike_id":"003515e8-8117-44bb-979d-5f47e8d50fda","system_id":"levelo_inurba_marseille","lat":43.30648,"lon":5.37578,"is_reserved":false,"is_disabled":false,"rental_uris":{"android":"levelo://app?vid=003515e8-8117-44bb-979d-5f47e8d50fda","ios":"levelo://app?vid=003515e8-8117-44bb-979d-5f47e8d50fda"},"vehicle_type_id":"4","last_reported":1758204637,"current_range_meters":7200,"station_id":"","pricing_plan_id":"cebpf4jnsgd1na2vs0mg"},{"bike_id":"ca5a1340-d41e-49f3-95f8-599734e0a36c","system_id":"levelo_inurba_marseille","lat":43.225336,"lon":5.348339,"is_reserved":false,"is_disabled":false,"rental_uris":{"android":"levelo://app?vid=ca5a1340-d41e-49f3-95f8-599734e0a36c","ios":"levelo://app?vid=ca5a1340-d41e-49f3-95f8-599734e0a36c"},"vehicle_type_id":"4","last_reported":1758204637,"current_range_meters":7200,"station_id":"","pricing_plan_id":"cebpf4jnsgd1na2vs0mg"},{"bike_id":"bfd0faf1-6c95-444a-a9d2-e48c5486085d","system_id":"levelo_inurba_marseille","lat":43.28605,"lon":5.37065,"is_reserved":false,"is_disabled":false,"rental_uris":{"android":"levelo://app?vid=bfd0faf1-6c95-444a-a9d2-e48c5486085d","ios":"levelo://app?vid=bfd0faf1-6c95-444a-a9d2-e48c5486085d"},"vehicle_type_id":"4","last_reported":1758204637,"current_range_meters":7200,"station_id":"ce4bht12rcd13ifvqi60","pricing_plan_id":"cebpf4jnsgd1na2vs0mg"},{"bike_id":"25b2da70-3345-491c-80f8-92888481b5a8","system_id":"levelo_inurba_marseille","lat":43.30111,"lon":5.37459,"is_reserved":false,"is_disabled":true,"rental_uris":{"android":"levelo://app?vid=25b2da70-3345-491c-80f8-92888481b5a8","ios":"levelo://app?vid=25b2da70-3345-491c-80f8-92888481b5a8"},"vehicle_type_id":"4","last_reported":1758204637,"current_range_meters":7200,"station_id":"","pricing_plan_id":"cebpf4jnsgd1na2vs0mg"},{"bike_id":"66ced2fc-5f79-4a47-a8b8-9115c67d3e7c","system_id":"levelo_inurba_marseille","lat":43.32667,"lon":5.41017,"is_reserved":false,"is_disabled":false,"rental_uris":{"android":"levelo://app?vid=66ced2fc-5f79-4a47-a8b8-9115c67d3e7c","ios":"levelo://app?vid=66ced2fc-5f79-4a47-a8b8-9115c67d3e7c"},"vehicle_type_id":"4","last_reported":1758204637,"current_range_meters":8000,"station_id":"ce4bhpp2rcd13ifvqhgg","pricing_plan_id":"cebpf4jnsgd1na2vs0mg"},{"bike_id":"537146fd-77f3-4a7e-aef6-61209f803e53","system_id":"levelo_inurba_marseille","lat":43.3028,"lon":5.37676,"is_reserved":false,"is_disabled":true,"rental_uris":{"android":"levelo://app?vid=537146fd-77f3-4a7e-aef6-61209f803e53","ios":"levelo://app?vid=537146fd-77f3-4a7e-aef6-61209f803e53"},"vehicle_type_id":"4","last_reported":1758204637,"current_range_meters":8000,"station_id":"","pricing_plan_id":"cebpf4jnsgd1na2vs0mg"},{"bike_id":"a6da0cc9-ca81-4dde-a4c9-388dc5058d43","system_id":"levelo_inurba_marseille","lat":43.28445,"lon":5.39199,"is_reserved":false,"is_disabled":false,"rental_uris":{"android":"levelo://app?vid=a6da0cc9-ca81-4dde-a4c9-388dc5058d43","ios":"levelo://app?vid=a6da0cc9-ca81-4dde-a4c9-388dc5058d43"},"vehicle_type_id":"4","last_reported":1758204637,"current_range_meters":8000,"station_id":"ce4bhoh2rcd13ifvqh5g","pricing_plan_id":"cebpf4jnsgd1na2vs0mg"},{"bike_id":"b4982662-2742-4a01-be8b-254417115f8d","system_id":"levelo_inurba_marseille","lat":43.2978,"lon":5.37124,"is_reserved":false,"is_disabled":false,"rental_uris":{"android":"levelo://app?vid=b4982662-2742-4a01-be8b-254417115f8d","ios":"levelo://app?vid=b4982662-2742-4a01-be8b-254417115f8d"},"vehicle_type_id":"4","last_reported":1758204637,"current_range_meters":8400,"station_id":"","pricing_plan_id":"cebpf4jnsgd1na2vs0mg"},{"bike_id":"7279ac59-3549-4c76-8e07-a14f2f6b7b29","system_id":"levelo_inurba_marseille","lat":43.24068,"lon":5.3776,"is_reserved":false,"is_disabled":false,"rental_uris":{"android":"levelo://app?vid=7279ac59-3549-4c76-8e07-a14f2f6b7b29","ios":"levelo://app?vid=7279ac59-3549-4c76-8e07-a14f2f6b7b29"},"vehicle_type_id":"4","last_reported":1758204637,"current_range_meters":8400,"station_id":"ce4bhnp2rcd13ifvqgvg","pricing_plan_id":"cebpf4jnsgd1na2vs0mg"},{"bike_id":"190d0825-c1b9-4efd-8a03-d87285d4a5b6","system_id":"levelo_inurba_marseille","lat":43.29806,"lon":5.37718,"is_reserved":false,"is_disabled":false,"rental_uris":{"android":"levelo://app?vid=190d0825-c1b9-4efd-8a03-d87285d4a5b6","ios":"levelo://app?vid=190d0825-c1b9-4efd-8a03-d87285d4a5b6"},"vehicle_type_id":"4","last_reported":1758204637,"current_range_meters":8400,"station_id":"","pricing_plan_id":"cebpf4jnsgd1na2vs0mg"},{"bike_id":"783a175e-4b6a-4772-afae-ea0fe7835227","system_id":"levelo_inurba_marseille","lat":43.225309,"lon":5.348292,"is_reserved":false,"is_disabled":false,"rental_uris":{"android":"levelo://app?vid=783a175e-4b6a-4772-afae-ea0fe7835227","ios":"levelo://app?vid=783a175e-4b6a-4772-afae-ea0fe7835227"},"vehicle_type_id":"4","last_reported":1758204637,"current_range_meters":8800,"station_id":"","pricing_plan_id":"cebpf4jnsgd1na2vs0mg"},{"bike_id":"faa37f29-c675-4797-8b4a-25ea271781cc","system_id":"levelo_inurba_marseille","lat":43.28937,"lon":5.36638,"is_reserved":false,"is_disabled":false,"rental_uris":{"android":"levelo://app?vid=faa37f29-c675-4797-8b4a-25ea271781cc","ios":"levelo://app?vid=faa37f29-c675-4797-8b4a-25ea271781cc"},"vehicle_type_id":"4","last_reported":1758204637,"current_range_meters":8800,"station_id":"ce4bhap2rcd13ifvqek0","pricing_plan_id":"cebpf4jnsgd1na2vs0mg"},{"bike_id":"9adc18f5-31cd-4e7e-9886-49d8bdb93d7e","system_id":"levelo_inurba_marseille","lat":43.24164,"lon":5.36393,"is_reserved":false,"is_disabled":false,"rental_uris":{"android":"levelo://app?vid=9adc18f5-31cd-4e7e-9886-49d8bdb93d7e","ios":"levelo://app?vid=9adc18f5-31cd-4e7e-9886-49d8bdb93d7e"},"vehicle_type_id":"4","last_reported":1758204637,"current_range_meters":9200,"station_id":"cpo36qri1sfpv3e86is0","pricing_plan_id":"cebpf4jnsgd1na2vs0mg"},{"bike_id":"3b8b87b4-c2d4-49fb-97c9-8b8f774a7e66","system_id":"levelo_inurba_marseille","lat":43.337444,"lon":5.374475,"is_reserved":false,"is_disabled":false,"rental_uris":{"android":"levelo://app?vid=3b8b87b4-c2d4-49fb-97c9-8b8f774a7e66","ios":"levelo://app?vid=3b8b87b4-c2d4-49fb-97c9-8b8f774a7e66"},"vehicle_type_id":"4","last_reported":1758204637,"current_range_meters":9200,"station_id":"","pricing_plan_id":"cebpf4jnsgd1na2vs0mg"},{"bike_id":"7c53e1e0-9efc-4c15-9c29-668d4dac4c59","system_id":"levelo_inurba_marseille","lat":43.22511,"lon":5.34848,"is_reserved":false,"is_disabled":false,"rental_uris":{"android":"levelo://app?vid=7c53e1e0-9efc-4c15-9c29-668d4dac4c59","ios":"levelo://app?vid=7c53e1e0-9efc-4c15-9c29-668d4dac4c59"},"vehicle_type_id":"4","last_reported":1758204637,"current_range_meters":9200,"station_id":"","pricing_plan_id":"cebpf4jnsgd1na2vs0mg"},{"bike_id":"2522cf36-6536-4b55-b4fc-0e480bdd8620","system_id":"levelo_inurba_marseille","lat":43.3014,"lon":5.38766,"is_reserved":false,"is_disabled":false,"rental_uris":{"android":"levelo://app?vid=2522cf36-6536-4b55-b4fc-0e480bdd8620","ios":"levelo://app?vid=2522cf36-6536-4b55-b4fc-0e480bdd8620"},"vehicle_type_id":"4","last_reported":1758204637,"current_range_meters":9600,"station_id":"","pricing_plan_id":"cebpf4jnsgd1na2vs0mg"},{"bike_id":"346ca87c-eea1-40f8-b4dd-e5ad76d2102c","system_id":"levelo_inurba_marseille","lat":43.3035,"lon":5.41876,"is_reserved":false,"is_disabled":false,"rental_uris":{"android":"levelo://app?vid=346ca87c-eea1-40f8-b4dd-e5ad76d2102c","ios":"levelo://app?vid=346ca87c-eea1-40f8-b4dd-e5ad76d2102c"},"vehicle_type_id":"4","last_reported":1758204637,"current_range_meters":8000,"station_id":"ce4bhop2rcd13ifvqh7g","pricing_plan_id":"cebpf4jnsgd1na2vs0mg"},{"bike_id":"45afe5f4-5cbe-49c2-a913-33c967100178","system_id":"levelo_inurba_marseille","lat":43.29776,"lon":5.380931,"is_reserved":false,"is_disabled":false,"rental_uris":{"android":"levelo://app?vid=45afe5f4-5cbe-49c2-a913-33c967100178","ios":"levelo://app?vid=45afe5f4-5cbe-49c2-a913-33c967100178"},"vehicle_type_id":"4","last_reported":1758204637,"current_range_meters":9600,"station_id":"","pricing_plan_id":"cebpf4jnsgd1na2vs0mg"},{"bike_id":"6ef0fc04-04e2-4f90-aeab-5d734e0a1d9b","system_id":"levelo_inurba_marseille","lat":43.29959,"lon":5.41314,"is_reserved":false,"is_disabled":false,"rental_uris":{"android":"levelo://app?vid=6ef0fc04-04e2-4f90-aeab-5d734e0a1d9b","ios":"levelo://app?vid=6ef0fc04-04e2-4f90-aeab-5d734e0a1d9b"},"vehicle_type_id":"4","last_reported":1758204637,"current_range_meters":9600,"station_id":"ce4bhp12rcd13ifvqh9g","pricing_plan_id":"cebpf4jnsgd1na2vs0mg"},{"bike_id":"65f4a11a-3c4a-42ce-8f2f-7130c1e9cb0b","system_id":"levelo_inurba_marseille","lat":43.30927,"lon":5.40139,"is_reserved":false,"is_disabled":false,"rental_uris":{"android":"levelo://app?vid=65f4a11a-3c4a-42ce-8f2f-7130c1e9cb0b","ios":"levelo://app?vid=65f4a11a-3c4a-42ce-8f2f-7130c1e9cb0b"},"vehicle_type_id":"4","last_reported":1758204637,"current_range_meters":9600,"station_id":"ce4bgvp2rcd13ifvqct0","pricing_plan_id":"cebpf4jnsgd1na2vs0mg"},{"bike_id":"0f274675-bb26-4b43-beb3-8bcb4e981744","system_id":"levelo_inurba_marseille","lat":43.27371,"lon":5.36261,"is_reserved":false,"is_disabled":false,"rental_uris":{"android":"levelo://app?vid=0f274675-bb26-4b43-beb3-8bcb4e981744","ios":"levelo://app?vid=0f274675-bb26-4b43-beb3-8bcb4e981744"},"vehicle_type_id":"4","last_reported":1758204637,"current_range_meters":10000,"station_id":"ce4bhbh2rcd13ifvqeo0","pricing_plan_id":"cebpf4jnsgd1na2vs0mg"},{"bike_id":"f7254990-f51d-45fe-83e3-57aceffccbc4","system_id":"levelo_inurba_marseille","lat":43.22571,"lon":5.41616,"is_reserved":false,"is_disabled":false,"rental_uris":{"android":"levelo://app?vid=f7254990-f51d-45fe-83e3-57aceffccbc4","ios":"levelo://app?vid=f7254990-f51d-45fe-83e3-57aceffccbc4"},"vehicle_type_id":"4","last_reported":1758204637,"current_range_meters":10800,"station_id":"st_d2o4gvlbi1j2169b742g","pricing_plan_id":"cebpf4jnsgd1na2vs0mg"},{"bike_id":"55dfb17a-dc13-4669-82ac-2c676d600c2d","system_id":"levelo_inurba_marseille","lat":43.31351,"lon":5.37936,"is_reserved":false,"is_disabled":false,"rental_uris":{"android":"levelo://app?vid=55dfb17a-dc13-4669-82ac-2c676d600c2d","ios":"levelo://app?vid=55dfb17a-dc13-4669-82ac-2c676d600c2d"},"vehicle_type_id":"4","last_reported":1758204637,"current_range_meters":10800,"station_id":"","pricing_plan_id":"cebpf4jnsgd1na2vs0mg"},{"bike_id":"d507ce46-00f5-4d3f-ba03-b31a89c0d325","system_id":"levelo_inurba_marseille","lat":43.225353,"lon":5.348406,"is_reserved":false,"is_disabled":false,"rental_uris":{"android":"levelo://app?vid=d507ce46-00f5-4d3f-ba03-b31a89c0d325","ios":"levelo://app?vid=d507ce46-00f5-4d3f-ba03-b31a89c0d325"},"vehicle_type_id":"4","last_reported":1758204637,"current_range_meters":10800,"station_id":"","pricing_plan_id":"cebpf4jnsgd1na2vs0mg"},{"bike_id":"23a0f8ab-8772-41d1-992d-7689f63dcc26","system_id":"levelo_inurba_marseille","lat":43.29431,"lon":5.39752,"is_reserved":false,"is_disabled":false,"rental_uris":{"android":"levelo://app?vid=23a0f8ab-8772-41d1-992d-7689f63dcc26","ios":"levelo://app?vid=23a0f8ab-8772-41d1-992d-7689f63dcc26"},"vehicle_type_id":"4","last_reported":1758204637,"current_range_meters":10800,"station_id":"ce4bh3h2rcd13ifvqdo0","pricing_plan_id":"cebpf4jnsgd1na2vs0mg"},{"bike_id":"125010e9-6c6a-4530-9012-5e9f4cd58556","system_id":"levelo_inurba_marseille","lat":43.29518,"lon":5.37498,"is_reserved":false,"is_disabled":false,"rental_uris":{"android":"levelo://app?vid=125010e9-6c6a-4530-9012-5e9f4cd58556","ios":"levelo://app?vid=125010e9-6c6a-4530-9012-5e9f4cd58556"},"vehicle_type_id":"4","last_reported":1758204637,"current_range_meters":10800,"station_id":"","pricing_plan_id":"cebpf4jnsgd1na2vs0mg"},{"bike_id":"e087ea4b-f4b7-4cde-969b-27e7ad2630fb","system_id":"levelo_inurba_marseille","lat":43.3009,"lon":5.39067,"is_reserved":false,"is_disabled":false,"rental_uris":{"android":"levelo://app?vid=e087ea4b-f4b7-4cde-969b-27e7ad2630fb","ios":"levelo://app?vid=e087ea4b-f4b7-4cde-969b-27e7ad2630fb"},"vehicle_type_id":"4","last_reported":1758204637,"current_range_meters":10800,"station_id":"ce4bh192rcd13ifvqdb0","pricing_plan_id":"cebpf4jnsgd1na2vs0mg"},{"bike_id":"98452285-9004-478c-90a2-d4d96d66703d","system_id":"levelo_inurba_marseille","lat":43.2843,"lon":5.39195,"is_reserved":false,"is_disabled":false,"rental_uris":{"android":"levelo://app?vid=98452285-9004-478c-90a2-d4d96d66703d","ios":"levelo://app?vid=98452285-9004-478c-90a2-d4d96d66703d"},"vehicle_type_id":"4","last_reported":1758204637,"current_range_meters":11200,"station_id":"ce4bhoh2rcd13ifvqh5g","pricing_plan_id":"cebpf4jnsgd1na2vs0mg"},{"bike_id":"285bcec8-ebb3-4de2-b2da-27047a006a21","system_id":"levelo_inurba_marseille","lat":43.306,"lon":5.37234,"is_reserved":false,"is_disabled":false,"rental_uris":{"android":"levelo://app?vid=285bcec8-ebb3-4de2-b2da-27047a006a21","ios":"levelo://app?vid=285bcec8-ebb3-4de2-b2da-27047a006a21"},"vehicle_type_id":"4","last_reported":1758204637,"current_range_meters":11200,"station_id":"ce4bgqh2rcd13ifvqc4g","pricing_plan_id":"cebpf4jnsgd1na2vs0mg"},{"bike_id":"5701fe9c-3e98-4b9f-a910-5eb395d4e5d3","system_id":"levelo_inurba_marseille","lat":43.305389,"lon":5.384223,"is_reserved":false,"is_disabled":false,"rental_uris":{"android":"levelo://app?vid=5701fe9c-3e98-4b9f-a910-5eb395d4e5d3","ios":"levelo://app?vid=5701fe9c-3e98-4b9f-a910-5eb395d4e5d3"},"vehicle_type_id":"4","last_reported":1758204637,"current_range_meters":11200,"station_id":"ce4bgg92rcd13ifvqb30","pricing_plan_id":"cebpf4jnsgd1na2vs0mg"},{"bike_id":"cec88ccf-d88f-4a48-839d-60406e7c7ea2","system_id":"levelo_inurba_marseille","lat":43.22568,"lon":5.41626,"is_reserved":false,"is_disabled":false,"rental_uris":{"android":"levelo://app?vid=cec88ccf-d88f-4a48-839d-60406e7c7ea2","ios":"levelo://app?vid=cec88ccf-d88f-4a48-839d-60406e7c7ea2"},"vehicle_type_id":"4","last_reported":1758204637,"current_range_meters":11200,"station_id":"st_d2o4gvlbi1j2169b742g","pricing_plan_id":"cebpf4jnsgd1na2vs0mg"},{"bike_id":"36a36316-429b-41ed-a6a8-f3bf887ac510","system_id":"levelo_inurba_marseille","lat":43.28262,"lon":5.35063,"is_reserved":false,"is_disabled":false,"rental_uris":{"android":"levelo://app?vid=36a36316-429b-41ed-a6a8-f3bf887ac510","ios":"levelo://app?vid=36a36316-429b-41ed-a6a8-f3bf887ac510"},"vehicle_type_id":"4","last_reported":1758204637,"current_range_meters":11600,"station_id":"ce4bhbp2rcd13ifvqerg","pricing_plan_id":"cebpf4jnsgd1na2vs0mg"},{"bike_id":"e5848676-616e-4202-9058-c3e0c66fbf68","system_id":"levelo_inurba_marseille","lat":43.22568,"lon":5.41608,"is_reserved":false,"is_disabled":false,"rental_uris":{"android":"levelo://app?vid=e5848676-616e-4202-9058-c3e0c66fbf68","ios":"levelo://app?vid=e5848676-616e-4202-9058-c3e0c66fbf68"},"vehicle_type_id":"4","last_reported":1758204637,"current_range_meters":12000,"station_id":"st_d2o4gvlbi1j2169b742g","pricing_plan_id":"cebpf4jnsgd1na2vs0mg"},{"bike_id":"13515985-2964-41c8-bf58-20951b40c534","system_id":"levelo_inurba_marseille","lat":43.24787,"lon":5.3744,"is_reserved":false,"is_disabled":false,"rental_uris":{"android":"levelo://app?vid=13515985-2964-41c8-bf58-20951b40c534","ios":"levelo://app?vid=13515985-2964-41c8-bf58-20951b40c534"},"vehicle_type_id":"4","last_reported":1758204637,"current_range_meters":12000,"station_id":"","pricing_plan_id":"cebpf4jnsgd1na2vs0mg"},{"bike_id":"cf66592a-d8fa-4c6c-9927-5d7a9fef5026","system_id":"levelo_inurba_marseille","lat":43.2628,"lon":5.39861,"is_reserved":false,"is_disabled":false,"rental_uris":{"android":"levelo://app?vid=cf66592a-d8fa-4c6c-9927-5d7a9fef5026","ios":"levelo://app?vid=cf66592a-d8fa-4c6c-9927-5d7a9fef5026"},"vehicle_type_id":"4","last_reported":1758204637,"current_range_meters":12000,"station_id":"","pricing_plan_id":"cebpf4jnsgd1na2vs0mg"},{"bike_id":"28397c5d-9c35-4e60-a790-b706541b7fd2","system_id":"levelo_inurba_marseille","lat":43.24645,"lon":5.38893,"is_reserved":false,"is_disabled":false,"rental_uris":{"android":"levelo://app?vid=28397c5d-9c35-4e60-a790-b706541b7fd2","ios":"levelo://app?vid=28397c5d-9c35-4e60-a790-b706541b7fd2"},"vehicle_type_id":"4","last_reported":1758204637,"current_range_meters":12000,"station_id":"ce4bhg12rcd13ifvqf60","pricing_plan_id":"cebpf4jnsgd1na2vs0mg"},{"bike_id":"f0c86a88-7d6d-4746-be90-272ab3296d00","system_id":"levelo_inurba_marseille","lat":43.25784,"lon":5.41011,"is_reserved":false,"is_disabled":false,"rental_uris":{"android":"levelo://app?vid=f0c86a88-7d6d-4746-be90-272ab3296d00","ios":"levelo://app?vid=f0c86a88-7d6d-4746-be90-272ab3296d00"},"vehicle_type_id":"4","last_reported":1758204637,"current_range_meters":12400,"station_id":"","pricing_plan_id":"cebpf4jnsgd1na2vs0mg"},{"bike_id":"f7695c77-ea93-4af5-8b93-74cd41889aa0","system_id":"levelo_inurba_marseille","lat":43.28932,"lon":5.36626,"is_reserved":false,"is_disabled":false,"rental_uris":{"android":"levelo://app?vid=f7695c77-ea93-4af5-8b93-74cd41889aa0","ios":"levelo://app?vid=f7695c77-ea93-4af5-8b93-74cd41889aa0"},"vehicle_type_id":"4","last_reported":1758204637,"current_range_meters":12400,"station_id":"ce4bhap2rcd13ifvqek0","pricing_plan_id":"cebpf4jnsgd1na2vs0mg"},{"bike_id":"d1788760-0706-4b90-8999-db00a9e42210","system_id":"levelo_inurba_marseille","lat":43.32797,"lon":5.41011,"is_reserved":false,"is_disabled":false,"rental_uris":{"android":"levelo://app?vid=d1788760-0706-4b90-8999-db00a9e42210","ios":"levelo://app?vid=d1788760-0706-4b90-8999-db00a9e42210"},"vehicle_type_id":"4","last_reported":1758204637,"current_range_meters":12400,"station_id":"","pricing_plan_id":"cebpf4jnsgd1na2vs0mg"},{"bike_id":"9a768031-a8f5-4cd6-a5dd-52473d048ee3","system_id":"levelo_inurba_marseille","lat":43.28039,"lon":5.36945,"is_reserved":false,"is_disabled":false,"rental_uris":{"android":"levelo://app?vid=9a768031-a8f5-4cd6-a5dd-52473d048ee3","ios":"levelo://app?vid=9a768031-a8f5-4cd6-a5dd-52473d048ee3"},"vehicle_type_id":"4","last_reported":1758204637,"current_range_meters":12400,"station_id":"ce4bha12rcd13ifvqef0","pricing_plan_id":"cebpf4jnsgd1na2vs0mg"},{"bike_id":"c43c906d-f8c0-4fcb-b8d6-ff91ee15560f","system_id":"levelo_inurba_marseille","lat":43.22564,"lon":5.41607,"is_reserved":false,"is_disabled":false,"rental_uris":{"android":"levelo://app?vid=c43c906d-f8c0-4fcb-b8d6-ff91ee15560f","ios":"levelo://app?vid=c43c906d-f8c0-4fcb-b8d6-ff91ee15560f"},"vehicle_type_id":"4","last_reported":1758204637,"current_range_meters":12800,"station_id":"st_d2o4gvlbi1j2169b742g","pricing_plan_id":"cebpf4jnsgd1na2vs0mg"},{"bike_id":"5f6e1d11-efed-40c0-977a-a35fc4a95869","system_id":"levelo_inurba_marseille","lat":43.2466,"lon":5.38165,"is_reserved":false,"is_disabled":false,"rental_uris":{"android":"levelo://app?vid=5f6e1d11-efed-40c0-977a-a35fc4a95869","ios":"levelo://app?vid=5f6e1d11-efed-40c0-977a-a35fc4a95869"},"vehicle_type_id":"4","last_reported":1758204637,"current_range_meters":12800,"station_id":"ce4bhih2rcd13ifvqfr0","pricing_plan_id":"cebpf4jnsgd1na2vs0mg"},{"bike_id":"5167bd12-57b2-49e5-a6cc-b362a501b969","system_id":"levelo_inurba_marseille","lat":43.25351,"lon":5.42156,"is_reserved":false,"is_disabled":false,"rental_uris":{"android":"levelo://app?vid=5167bd12-57b2-49e5-a6cc-b362a501b969","ios":"levelo://app?vid=5167bd12-57b2-49e5-a6cc-b362a501b969"},"vehicle_type_id":"4","last_reported":1758204637,"current_range_meters":13600,"station_id":"st_d2m65c5bi1j21697t3ng","pricing_plan_id":"cebpf4jnsgd1na2vs0mg"},{"bike_id":"727f9f5d-093a-49ff-85ad-e67e231862dd","system_id":"levelo_inurba_marseille","lat":43.290441,"lon":5.35904,"is_reserved":false,"is_disabled":false,"rental_uris":{"android":"levelo://app?vid=727f9f5d-093a-49ff-85ad-e67e231862dd","ios":"levelo://app?vid=727f9f5d-093a-49ff-85ad-e67e231862dd"},"vehicle_type_id":"4","last_reported":1758204637,"current_range_meters":12800,"station_id":"ce4bha92rcd13ifvqeg0","pricing_plan_id":"cebpf4jnsgd1na2vs0mg"},{"bike_id":"c9919643-5674-4c54-9e5c-03c9b4fef8ff","system_id":"levelo_inurba_marseille","lat":43.23182,"lon":5.399802,"is_reserved":false,"is_disabled":false,"rental_uris":{"android":"levelo://app?vid=c9919643-5674-4c54-9e5c-03c9b4fef8ff","ios":"levelo://app?vid=c9919643-5674-4c54-9e5c-03c9b4fef8ff"},"vehicle_type_id":"4","last_reported":1758204637,"current_range_meters":14000,"station_id":"ce4bhn12rcd13ifvqgqg","pricing_plan_id":"cebpf4jnsgd1na2vs0mg"},{"bike_id":"330bdf43-76e9-494d-a32f-05963c5d64bb","system_id":"levelo_inurba_marseille","lat":43.21187,"lon":5.35075,"is_reserved":false,"is_disabled":false,"rental_uris":{"android":"levelo://app?vid=330bdf43-76e9-494d-a32f-05963c5d64bb","ios":"levelo://app?vid=330bdf43-76e9-494d-a32f-05963c5d64bb"},"vehicle_type_id":"4","last_reported":1758204637,"current_range_meters":14000,"station_id":"","pricing_plan_id":"cebpf4jnsgd1na2vs0mg"},{"bike_id":"9310d86a-198f-4085-92c7-03a0615003ca","system_id":"levelo_inurba_marseille","lat":43.2902,"lon":5.38637,"is_reserved":false,"is_disabled":false,"rental_uris":{"android":"levelo://app?vid=9310d86a-198f-4085-92c7-03a0615003ca","ios":"levelo://app?vid=9310d86a-198f-4085-92c7-03a0615003ca"},"vehicle_type_id":"4","last_reported":1758204637,"current_range_meters":14000,"station_id":"ce4bh4p2rcd13ifvqe0g","pricing_plan_id":"cebpf4jnsgd1na2vs0mg"},{"bike_id":"80a9a218-f77f-42ce-8136-b0dceb9fc366","system_id":"levelo_inurba_marseille","lat":43.267867,"lon":5.394102,"is_reserved":false,"is_disabled":false,"rental_uris":{"android":"levelo://app?vid=80a9a218-f77f-42ce-8136-b0dceb9fc366","ios":"levelo://app?vid=80a9a218-f77f-42ce-8136-b0dceb9fc366"},"vehicle_type_id":"4","last_reported":1758204637,"current_range_meters":14400,"station_id":"ce4bhh12rcd13ifvqfg0","pricing_plan_id":"cebpf4jnsgd1na2vs0mg"},{"bike_id":"d9f0ae84-d732-44f5-b420-064e325a0d60","system_id":"levelo_inurba_marseille","lat":43.320183,"lon":5.381343,"is_reserved":false,"is_disabled":false,"rental_uris":{"android":"levelo://app?vid=d9f0ae84-d732-44f5-b420-064e325a0d60","ios":"levelo://app?vid=d9f0ae84-d732-44f5-b420-064e325a0d60"},"vehicle_type_id":"4","last_reported":1758204637,"current_range_meters":14400,"station_id":"","pricing_plan_id":"cebpf4jnsgd1na2vs0mg"},{"bike_id":"fa0847a4-8d8b-47a2-9c0d-c16fe7a48c9b","system_id":"levelo_inurba_marseille","lat":43.330285,"lon":5.390556,"is_reserved":false,"is_disabled":false,"rental_uris":{"android":"levelo://app?vid=fa0847a4-8d8b-47a2-9c0d-c16fe7a48c9b","ios":"levelo://app?vid=fa0847a4-8d8b-47a2-9c0d-c16fe7a48c9b"},"vehicle_type_id":"4","last_reported":1758204637,"current_range_meters":14400,"station_id":"","pricing_plan_id":"cebpf4jnsgd1na2vs0mg"},{"bike_id":"42323a1a-489c-43cb-90ae-c675b27444d5","system_id":"levelo_inurba_marseille","lat":43.21642,"lon":5.3437,"is_reserved":false,"is_disabled":false,"rental_uris":{"android":"levelo://app?vid=42323a1a-489c-43cb-90ae-c675b27444d5","ios":"levelo://app?vid=42323a1a-489c-43cb-90ae-c675b27444d5"},"vehicle_type_id":"4","last_reported":1758204637,"current_range_meters":14400,"station_id":"","pricing_plan_id":"cebpf4jnsgd1na2vs0mg"},{"bike_id":"7cb0d75d-55f1-485a-a7ee-f82fa36e662b","system_id":"levelo_inurba_marseille","lat":43.30377,"lon":5.44135,"is_reserved":false,"is_disabled":false,"rental_uris":{"android":"levelo://app?vid=7cb0d75d-55f1-485a-a7ee-f82fa36e662b","ios":"levelo://app?vid=7cb0d75d-55f1-485a-a7ee-f82fa36e662b"},"vehicle_type_id":"4","last_reported":1758204637,"current_range_meters":14400,"station_id":"","pricing_plan_id":"cebpf4jnsgd1na2vs0mg"},{"bike_id":"9b2e79d8-152a-4810-bb96-2ac973c6de3b","system_id":"levelo_inurba_marseille","lat":43.246582,"lon":5.395653,"is_reserved":false,"is_disabled":false,"rental_uris":{"android":"levelo://app?vid=9b2e79d8-152a-4810-bb96-2ac973c6de3b","ios":"levelo://app?vid=9b2e79d8-152a-4810-bb96-2ac973c6de3b"},"vehicle_type_id":"4","last_reported":1758204637,"current_range_meters":14400,"station_id":"ce4bhlp2rcd13ifvqgjg","pricing_plan_id":"cebpf4jnsgd1na2vs0mg"},{"bike_id":"08128352-d0a0-4f5f-a684-879e4974aa4c","system_id":"levelo_inurba_marseille","lat":43.225588,"lon":5.416474,"is_reserved":false,"is_disabled":false,"rental_uris":{"android":"levelo://app?vid=08128352-d0a0-4f5f-a684-879e4974aa4c","ios":"levelo://app?vid=08128352-d0a0-4f5f-a684-879e4974aa4c"},"vehicle_type_id":"4","last_reported":1758204637,"current_range_meters":14400,"station_id":"st_d2o4gvlbi1j2169b742g","pricing_plan_id":"cebpf4jnsgd1na2vs0mg"},{"bike_id":"be9ee84b-9ec1-497c-800c-5907ad1418ae","system_id":"levelo_inurba_marseille","lat":43.22555,"lon":5.41618,"is_reserved":false,"is_disabled":false,"rental_uris":{"android":"levelo://app?vid=be9ee84b-9ec1-497c-800c-5907ad1418ae","ios":"levelo://app?vid=be9ee84b-9ec1-497c-800c-5907ad1418ae"},"vehicle_type_id":"4","last_reported":1758204637,"current_range_meters":14400,"station_id":"st_d2o4gvlbi1j2169b742g","pricing_plan_id":"cebpf4jnsgd1na2vs0mg"},{"bike_id":"a740f00f-a20b-4210-a4ab-4e77b8d25655","system_id":"levelo_inurba_marseille","lat":43.324,"lon":5.38848,"is_reserved":false,"is_disabled":false,"rental_uris":{"android":"levelo://app?vid=a740f00f-a20b-4210-a4ab-4e77b8d25655","ios":"levelo://app?vid=a740f00f-a20b-4210-a4ab-4e77b8d25655"},"vehicle_type_id":"4","last_reported":1758204637,"current_range_meters":14800,"station_id":"ce4bhqp2rcd13ifvqhog","pricing_plan_id":"cebpf4jnsgd1na2vs0mg"},{"bike_id":"a4faa1fd-62ee-404a-aff8-b79ea6b6b5d2","system_id":"levelo_inurba_marseille","lat":43.32986,"lon":5.39245,"is_reserved":false,"is_disabled":false,"rental_uris":{"android":"levelo://app?vid=a4faa1fd-62ee-404a-aff8-b79ea6b6b5d2","ios":"levelo://app?vid=a4faa1fd-62ee-404a-aff8-b79ea6b6b5d2"},"vehicle_type_id":"4","last_reported":1758204637,"current_range_meters":14800,"station_id":"","pricing_plan_id":"cebpf4jnsgd1na2vs0mg"},{"bike_id":"fec1ab5e-22d2-4edf-971a-cb3946551fc1","system_id":"levelo_inurba_marseille","lat":43.28416,"lon":5.34972,"is_reserved":false,"is_disabled":false,"rental_uris":{"android":"levelo://app?vid=fec1ab5e-22d2-4edf-971a-cb3946551fc1","ios":"levelo://app?vid=fec1ab5e-22d2-4edf-971a-cb3946551fc1"},"vehicle_type_id":"4","last_reported":1758204637,"current_range_meters":14800,"station_id":"ce4bhbh2rcd13ifvqepg","pricing_plan_id":"cebpf4jnsgd1na2vs0mg"},{"bike_id":"4ca8dda9-9450-4592-ae7e-73b1e2d04654","system_id":"levelo_inurba_marseille","lat":43.25499,"lon":5.37652,"is_reserved":false,"is_disabled":false,"rental_uris":{"android":"levelo://app?vid=4ca8dda9-9450-4592-ae7e-73b1e2d04654","ios":"levelo://app?vid=4ca8dda9-9450-4592-ae7e-73b1e2d04654"},"vehicle_type_id":"4","last_reported":1758204637,"current_range_meters":14800,"station_id":"ce4bhh12rcd13ifvqff0","pricing_plan_id":"cebpf4jnsgd1na2vs0mg"},{"bike_id":"3c32a9bb-d6c3-427e-976f-83ba89f55151","system_id":"levelo_inurba_marseille","lat":43.22566,"lon":5.41619,"is_reserved":false,"is_disabled":false,"rental_uris":{"android":"levelo://app?vid=3c32a9bb-d6c3-427e-976f-83ba89f55151","ios":"levelo://app?vid=3c32a9bb-d6c3-427e-976f-83ba89f55151"},"vehicle_type_id":"4","last_reported":1758204637,"current_range_meters":14800,"station_id":"st_d2o4gvlbi1j2169b742g","pricing_plan_id":"cebpf4jnsgd1na2vs0mg"},{"bike_id":"22f0687d-25d3-4094-9c4a-293a61e189a6","system_id":"levelo_inurba_marseille","lat":43.2463,"lon":5.39626,"is_reserved":false,"is_disabled":false,"rental_uris":{"android":"levelo://app?vid=22f0687d-25d3-4094-9c4a-293a61e189a6","ios":"levelo://app?vid=22f0687d-25d3-4094-9c4a-293a61e189a6"},"vehicle_type_id":"4","last_reported":1758204637,"current_range_meters":14800,"station_id":"","pricing_plan_id":"cebpf4jnsgd1na2vs0mg"},{"bike_id":"5a74ab2f-4a92-406d-a3c2-702febec28c3","system_id":"levelo_inurba_marseille","lat":43.2842,"lon":5.349946,"is_reserved":false,"is_disabled":false,"rental_uris":{"android":"levelo://app?vid=5a74ab2f-4a92-406d-a3c2-702febec28c3","ios":"levelo://app?vid=5a74ab2f-4a92-406d-a3c2-702febec28c3"},"vehicle_type_id":"4","last_reported":1758204637,"current_range_meters":14800,"station_id":"ce4bhbh2rcd13ifvqepg","pricing_plan_id":"cebpf4jnsgd1na2vs0mg"},{"bike_id":"6fe5ee4d-d638-47ed-9e67-4166b3f93870","system_id":"levelo_inurba_marseille","lat":43.253425,"lon":5.421742,"is_reserved":false,"is_disabled":false,"rental_uris":{"android":"levelo://app?vid=6fe5ee4d-d638-47ed-9e67-4166b3f93870","ios":"levelo://app?vid=6fe5ee4d-d638-47ed-9e67-4166b3f93870"},"vehicle_type_id":"4","last_reported":1758204637,"current_range_meters":15200,"station_id":"ce4bhmh2rcd13ifvqgmg","pricing_plan_id":"cebpf4jnsgd1na2vs0mg"},{"bike_id":"387df40b-196d-4110-b07e-49df90fda22c","system_id":"levelo_inurba_marseille","lat":43.25336,"lon":5.42159,"is_reserved":false,"is_disabled":false,"rental_uris":{"android":"levelo://app?vid=387df40b-196d-4110-b07e-49df90fda22c","ios":"levelo://app?vid=387df40b-196d-4110-b07e-49df90fda22c"},"vehicle_type_id":"4","last_reported":1758204637,"current_range_meters":15200,"station_id":"st_d2m65c5bi1j21697t3ng","pricing_plan_id":"cebpf4jnsgd1na2vs0mg"},{"bike_id":"a0a76531-5f1b-4b69-9ce0-bec523f8d1ae","system_id":"levelo_inurba_marseille","lat":43.23217,"lon":5.3558,"is_reserved":false,"is_disabled":false,"rental_uris":{"android":"levelo://app?vid=a0a76531-5f1b-4b69-9ce0-bec523f8d1ae","ios":"levelo://app?vid=a0a76531-5f1b-4b69-9ce0-bec523f8d1ae"},"vehicle_type_id":"4","last_reported":1758204637,"current_range_meters":15200,"station_id":"ce4bhu92rcd13ifvqi70","pricing_plan_id":"cebpf4jnsgd1na2vs0mg"},{"bike_id":"49300ff4-8613-468d-b172-cad7287b53b9","system_id":"levelo_inurba_marseille","lat":43.28043,"lon":5.36943,"is_reserved":false,"is_disabled":false,"rental_uris":{"android":"levelo://app?vid=49300ff4-8613-468d-b172-cad7287b53b9","ios":"levelo://app?vid=49300ff4-8613-468d-b172-cad7287b53b9"},"vehicle_type_id":"4","last_reported":1758204637,"current_range_meters":14800,"station_id":"ce4bha12rcd13ifvqef0","pricing_plan_id":"cebpf4jnsgd1na2vs0mg"},{"bike_id":"e10ee02b-e0d3-42b8-b743-728ec32829a6","system_id":"levelo_inurba_marseille","lat":43.26054,"lon":5.39396,"is_reserved":false,"is_disabled":false,"rental_uris":{"android":"levelo://app?vid=e10ee02b-e0d3-42b8-b743-728ec32829a6","ios":"levelo://app?vid=e10ee02b-e0d3-42b8-b743-728ec32829a6"},"vehicle_type_id":"4","last_reported":1758204637,"current_range_meters":14800,"station_id":"ce4bhh92rcd13ifvqfj0","pricing_plan_id":"cebpf4jnsgd1na2vs0mg"},{"bike_id":"ff44f1ad-2efa-4491-b8e1-7e77aa981a6b","system_id":"levelo_inurba_marseille","lat":43.30121,"lon":5.37444,"is_reserved":false,"is_disabled":true,"rental_uris":{"android":"levelo://app?vid=ff44f1ad-2efa-4491-b8e1-7e77aa981a6b","ios":"levelo://app?vid=ff44f1ad-2efa-4491-b8e1-7e77aa981a6b"},"vehicle_type_id":"4","last_reported":1758204637,"current_range_meters":15200,"station_id":"","pricing_plan_id":"cebpf4jnsgd1na2vs0mg"},{"bike_id":"28748757-025b-4662-ad5f-4b143cff5213","system_id":"levelo_inurba_marseille","lat":43.22931,"lon":5.35381,"is_reserved":false,"is_disabled":false,"rental_uris":{"android":"levelo://app?vid=28748757-025b-4662-ad5f-4b143cff5213","ios":"levelo://app?vid=28748757-025b-4662-ad5f-4b143cff5213"},"vehicle_type_id":"4","last_reported":1758204637,"current_range_meters":15200,"station_id":"cpo3532slgdg3j2ikp40","pricing_plan_id":"cebpf4jnsgd1na2vs0mg"},{"bike_id":"8412b71c-4d99-44ae-bd2f-a87a8d58f48e","system_id":"levelo_inurba_marseille","lat":43.26212,"lon":5.37476,"is_reserved":false,"is_disabled":false,"rental_uris":{"android":"levelo://app?vid=8412b71c-4d99-44ae-bd2f-a87a8d58f48e","ios":"levelo://app?vid=8412b71c-4d99-44ae-bd2f-a87a8d58f48e"},"vehicle_type_id":"4","last_reported":1758204637,"current_range_meters":16000,"station_id":"ce4bhgp2rcd13ifvqfc0","pricing_plan_id":"cebpf4jnsgd1na2vs0mg"},{"bike_id":"0e050691-9cca-45a9-aa58-b18039b7acf3","system_id":"levelo_inurba_marseille","lat":43.24785,"lon":5.37446,"is_reserved":false,"is_disabled":false,"rental_uris":{"android":"levelo://app?vid=0e050691-9cca-45a9-aa58-b18039b7acf3","ios":"levelo://app?vid=0e050691-9cca-45a9-aa58-b18039b7acf3"},"vehicle_type_id":"4","last_reported":1758204637,"current_range_meters":16000,"station_id":"","pricing_plan_id":"cebpf4jnsgd1na2vs0mg"},{"bike_id":"5e118356-24a8-4268-959d-a9df624cef60","system_id":"levelo_inurba_marseille","lat":43.297503,"lon":5.383734,"is_reserved":false,"is_disabled":false,"rental_uris":{"android":"levelo://app?vid=5e118356-24a8-4268-959d-a9df624cef60","ios":"levelo://app?vid=5e118356-24a8-4268-959d-a9df624cef60"},"vehicle_type_id":"4","last_reported":1758204637,"current_range_meters":16000,"station_id":"","pricing_plan_id":"cebpf4jnsgd1na2vs0mg"},{"bike_id":"39d09d67-9dd9-483e-9547-a089c144d393","system_id":"levelo_inurba_marseille","lat":43.27172,"lon":5.40985,"is_reserved":false,"is_disabled":false,"rental_uris":{"android":"levelo://app?vid=39d09d67-9dd9-483e-9547-a089c144d393","ios":"levelo://app?vid=39d09d67-9dd9-483e-9547-a089c144d393"},"vehicle_type_id":"4","last_reported":1758204637,"current_range_meters":16000,"station_id":"ce4bhl12rcd13ifvqgf0","pricing_plan_id":"cebpf4jnsgd1na2vs0mg"},{"bike_id":"762683df-7f9d-4e9d-8a13-17408f7ece99","system_id":"levelo_inurba_marseille","lat":43.25518,"lon":5.37637,"is_reserved":false,"is_disabled":false,"rental_uris":{"android":"levelo://app?vid=762683df-7f9d-4e9d-8a13-17408f7ece99","ios":"levelo://app?vid=762683df-7f9d-4e9d-8a13-17408f7ece99"},"vehicle_type_id":"4","last_reported":1758204637,"current_range_meters":16400,"station_id":"ce4bhh12rcd13ifvqff0","pricing_plan_id":"cebpf4jnsgd1na2vs0mg"},{"bike_id":"e942f984-8fe7-48d1-8f04-3806656b9996","system_id":"levelo_inurba_marseille","lat":43.33606,"lon":5.37913,"is_reserved":false,"is_disabled":false,"rental_uris":{"android":"levelo://app?vid=e942f984-8fe7-48d1-8f04-3806656b9996","ios":"levelo://app?vid=e942f984-8fe7-48d1-8f04-3806656b9996"},"vehicle_type_id":"4","last_reported":1758204637,"current_range_meters":16400,"station_id":"","pricing_plan_id":"cebpf4jnsgd1na2vs0mg"},{"bike_id":"7eed94c4-182d-4460-826b-78b4ef60c719","system_id":"levelo_inurba_marseille","lat":43.295859,"lon":5.375163,"is_reserved":false,"is_disabled":false,"rental_uris":{"android":"levelo://app?vid=7eed94c4-182d-4460-826b-78b4ef60c719","ios":"levelo://app?vid=7eed94c4-182d-4460-826b-78b4ef60c719"},"vehicle_type_id":"4","last_reported":1758204637,"current_range_meters":16400,"station_id":"","pricing_plan_id":"cebpf4jnsgd1na2vs0mg"},{"bike_id":"9d8b4944-013e-4958-9415-40d7b5ee9701","system_id":"levelo_inurba_marseille","lat":43.3163,"lon":5.38166,"is_reserved":false,"is_disabled":false,"rental_uris":{"android":"levelo://app?vid=9d8b4944-013e-4958-9415-40d7b5ee9701","ios":"levelo://app?vid=9d8b4944-013e-4958-9415-40d7b5ee9701"},"vehicle_type_id":"4","last_reported":1758204637,"current_range_meters":16400,"station_id":"","pricing_plan_id":"cebpf4jnsgd1na2vs0mg"},{"bike_id":"ea39772d-ffe9-44f3-988b-26739781ef58","system_id":"levelo_inurba_marseille","lat":43.23067,"lon":5.35486,"is_reserved":false,"is_disabled":false,"rental_uris":{"android":"levelo://app?vid=ea39772d-ffe9-44f3-988b-26739781ef58","ios":"levelo://app?vid=ea39772d-ffe9-44f3-988b-26739781ef58"},"vehicle_type_id":"4","last_reported":1758204637,"current_range_meters":16400,"station_id":"cpo3342slgdg3j2ifvpg","pricing_plan_id":"cebpf4jnsgd1na2vs0mg"},{"bike_id":"5233f8ac-153a-47ce-b60b-9aac62d593d1","system_id":"levelo_inurba_marseille","lat":43.29263,"lon":5.37616,"is_reserved":false,"is_disabled":false,"rental_uris":{"android":"levelo://app?vid=5233f8ac-153a-47ce-b60b-9aac62d593d1","ios":"levelo://app?vid=5233f8ac-153a-47ce-b60b-9aac62d593d1"},"vehicle_type_id":"4","last_reported":1758204637,"current_range_meters":16400,"station_id":"ce4bgi12rcd13ifvqb80","pricing_plan_id":"cebpf4jnsgd1na2vs0mg"},{"bike_id":"40a16e10-c9dd-40a9-80de-0bbe781e2b83","system_id":"levelo_inurba_marseille","lat":43.25942,"lon":5.408948,"is_reserved":false,"is_disabled":false,"rental_uris":{"android":"levelo://app?vid=40a16e10-c9dd-40a9-80de-0bbe781e2b83","ios":"levelo://app?vid=40a16e10-c9dd-40a9-80de-0bbe781e2b83"},"vehicle_type_id":"4","last_reported":1758204637,"current_range_meters":16400,"station_id":"ce4bhm92rcd13ifvqglg","pricing_plan_id":"cebpf4jnsgd1na2vs0mg"},{"bike_id":"470d4358-bf02-4d41-90ab-011c9c2ffb88","system_id":"levelo_inurba_marseille","lat":43.26782,"lon":5.39417,"is_reserved":false,"is_disabled":false,"rental_uris":{"android":"levelo://app?vid=470d4358-bf02-4d41-90ab-011c9c2ffb88","ios":"levelo://app?vid=470d4358-bf02-4d41-90ab-011c9c2ffb88"},"vehicle_type_id":"4","last_reported":1758204637,"current_range_meters":16400,"station_id":"ce4bhh12rcd13ifvqfg0","pricing_plan_id":"cebpf4jnsgd1na2vs0mg"},{"bike_id":"3fccfccb-72a4-423c-b760-6577dbb851b7","system_id":"levelo_inurba_marseille","lat":43.30467,"lon":5.37897,"is_reserved":false,"is_disabled":false,"rental_uris":{"android":"levelo://app?vid=3fccfccb-72a4-423c-b760-6577dbb851b7","ios":"levelo://app?vid=3fccfccb-72a4-423c-b760-6577dbb851b7"},"vehicle_type_id":"4","last_reported":1758204637,"current_range_meters":16400,"station_id":"","pricing_plan_id":"cebpf4jnsgd1na2vs0mg"},{"bike_id":"0a318574-dec2-45a4-9bc2-5516b8a4515a","system_id":"levelo_inurba_marseille","lat":43.32364,"lon":5.38882,"is_reserved":false,"is_disabled":false,"rental_uris":{"android":"levelo://app?vid=0a318574-dec2-45a4-9bc2-5516b8a4515a","ios":"levelo://app?vid=0a318574-dec2-45a4-9bc2-5516b8a4515a"},"vehicle_type_id":"4","last_reported":1758204637,"current_range_meters":16400,"station_id":"ce4bhqp2rcd13ifvqhog","pricing_plan_id":"cebpf4jnsgd1na2vs0mg"},{"bike_id":"f9418cc9-c64d-43d9-9060-3aeedd69cdee","system_id":"levelo_inurba_marseille","lat":43.33091,"lon":5.3786,"is_reserved":false,"is_disabled":false,"rental_uris":{"android":"levelo://app?vid=f9418cc9-c64d-43d9-9060-3aeedd69cdee","ios":"levelo://app?vid=f9418cc9-c64d-43d9-9060-3aeedd69cdee"},"vehicle_type_id":"4","last_reported":1758204637,"current_range_meters":16400,"station_id":"","pricing_plan_id":"cebpf4jnsgd1na2vs0mg"},{"bike_id":"53e32093-87d7-47a8-a5be-30a834c8135a","system_id":"levelo_inurba_marseille","lat":43.32357,"lon":5.36723,"is_reserved":false,"is_disabled":false,"rental_uris":{"android":"levelo://app?vid=53e32093-87d7-47a8-a5be-30a834c8135a","ios":"levelo://app?vid=53e32093-87d7-47a8-a5be-30a834c8135a"},"vehicle_type_id":"4","last_reported":1758204637,"current_range_meters":16800,"station_id":"ce4bhsh2rcd13ifvqi2g","pricing_plan_id":"cebpf4jnsgd1na2vs0mg"},{"bike_id":"fb78ea42-e26f-45b3-a617-d3474b811b72","system_id":"levelo_inurba_marseille","lat":43.29889,"lon":5.37923,"is_reserved":false,"is_disabled":false,"rental_uris":{"android":"levelo://app?vid=fb78ea42-e26f-45b3-a617-d3474b811b72","ios":"levelo://app?vid=fb78ea42-e26f-45b3-a617-d3474b811b72"},"vehicle_type_id":"4","last_reported":1758204637,"current_range_meters":16800,"station_id":"","pricing_plan_id":"cebpf4jnsgd1na2vs0mg"},{"bike_id":"20779ce2-c509-48f8-99ef-118fe3e2bd5b","system_id":"levelo_inurba_marseille","lat":43.25924,"lon":5.40891,"is_reserved":false,"is_disabled":false,"rental_uris":{"android":"levelo://app?vid=20779ce2-c509-48f8-99ef-118fe3e2bd5b","ios":"levelo://app?vid=20779ce2-c509-48f8-99ef-118fe3e2bd5b"},"vehicle_type_id":"4","last_reported":1758204637,"current_range_meters":16800,"station_id":"ce4bhm92rcd13ifvqglg","pricing_plan_id":"cebpf4jnsgd1na2vs0mg"},{"bike_id":"b25adf95-68c5-41e2-aa28-8625655a128d","system_id":"levelo_inurba_marseille","lat":43.24783,"lon":5.37436,"is_reserved":false,"is_disabled":false,"rental_uris":{"android":"levelo://app?vid=b25adf95-68c5-41e2-aa28-8625655a128d","ios":"levelo://app?vid=b25adf95-68c5-41e2-aa28-8625655a128d"},"vehicle_type_id":"4","last_reported":1758204637,"current_range_meters":16800,"station_id":"","pricing_plan_id":"cebpf4jnsgd1na2vs0mg"},{"bike_id":"451ae771-58be-453e-b598-0eb072531331","system_id":"levelo_inurba_marseille","lat":43.318057,"lon":5.423971,"is_reserved":false,"is_disabled":false,"rental_uris":{"android":"levelo://app?vid=451ae771-58be-453e-b598-0eb072531331","ios":"levelo://app?vid=451ae771-58be-453e-b598-0eb072531331"},"vehicle_type_id":"4","last_reported":1758204637,"current_range_meters":16800,"station_id":"ce4bhp92rcd13ifvqhbg","pricing_plan_id":"cebpf4jnsgd1na2vs0mg"},{"bike_id":"0d82b35c-17e7-4268-966b-cc4ee5eb3f1c","system_id":"levelo_inurba_marseille","lat":43.231848,"lon":5.399792,"is_reserved":false,"is_disabled":false,"rental_uris":{"android":"levelo://app?vid=0d82b35c-17e7-4268-966b-cc4ee5eb3f1c","ios":"levelo://app?vid=0d82b35c-17e7-4268-966b-cc4ee5eb3f1c"},"vehicle_type_id":"4","last_reported":1758204637,"current_range_meters":16800,"station_id":"ce4bhn12rcd13ifvqgqg","pricing_plan_id":"cebpf4jnsgd1na2vs0mg"},{"bike_id":"846c9b95-05b4-43cb-9579-5cf105383003","system_id":"levelo_inurba_marseille","lat":43.2418,"lon":5.39707,"is_reserved":false,"is_disabled":false,"rental_uris":{"android":"levelo://app?vid=846c9b95-05b4-43cb-9579-5cf105383003","ios":"levelo://app?vid=846c9b95-05b4-43cb-9579-5cf105383003"},"vehicle_type_id":"4","last_reported":1758204637,"current_range_meters":16800,"station_id":"ce4bhn12rcd13ifvqgpg","pricing_plan_id":"cebpf4jnsgd1na2vs0mg"},{"bike_id":"553f8368-9fc7-4fab-ab6b-4ab64407d3bf","system_id":"levelo_inurba_marseille","lat":43.28855,"lon":5.42513,"is_reserved":false,"is_disabled":false,"rental_uris":{"android":"levelo://app?vid=553f8368-9fc7-4fab-ab6b-4ab64407d3bf","ios":"levelo://app?vid=553f8368-9fc7-4fab-ab6b-4ab64407d3bf"},"vehicle_type_id":"4","last_reported":1758204637,"current_range_meters":16800,"station_id":"","pricing_plan_id":"cebpf4jnsgd1na2vs0mg"},{"bike_id":"5b30e86f-9dcf-4ee0-bf89-371e1ef0f15b","system_id":"levelo_inurba_marseille","lat":43.21755,"lon":5.34607,"is_reserved":false,"is_disabled":false,"rental_uris":{"android":"levelo://app?vid=5b30e86f-9dcf-4ee0-bf89-371e1ef0f15b","ios":"levelo://app?vid=5b30e86f-9dcf-4ee0-bf89-371e1ef0f15b"},"vehicle_type_id":"4","last_reported":1758204637,"current_range_meters":16800,"station_id":"","pricing_plan_id":"cebpf4jnsgd1na2vs0mg"},{"bike_id":"7e8cd986-6f52-4c93-a2db-b8b516f00cbd","system_id":"levelo_inurba_marseille","lat":43.24802,"lon":5.37454,"is_reserved":false,"is_disabled":false,"rental_uris":{"android":"levelo://app?vid=7e8cd986-6f52-4c93-a2db-b8b516f00cbd","ios":"levelo://app?vid=7e8cd986-6f52-4c93-a2db-b8b516f00cbd"},"vehicle_type_id":"4","last_reported":1758204637,"current_range_meters":17200,"station_id":"ce4bhgh2rcd13ifvqfb0","pricing_plan_id":"cebpf4jnsgd1na2vs0mg"},{"bike_id":"04011106-2640-4202-b90a-82fc0692cc82","system_id":"levelo_inurba_marseille","lat":43.29779,"lon":5.37115,"is_reserved":false,"is_disabled":false,"rental_uris":{"android":"levelo://app?vid=04011106-2640-4202-b90a-82fc0692cc82","ios":"levelo://app?vid=04011106-2640-4202-b90a-82fc0692cc82"},"vehicle_type_id":"4","last_reported":1758204637,"current_range_meters":17200,"station_id":"","pricing_plan_id":"cebpf4jnsgd1na2vs0mg"},{"bike_id":"de37f633-f69b-4cdd-a018-5b87acf7377e","system_id":"levelo_inurba_marseille","lat":43.30433,"lon":5.38885,"is_reserved":false,"is_disabled":false,"rental_uris":{"android":"levelo://app?vid=de37f633-f69b-4cdd-a018-5b87acf7377e","ios":"levelo://app?vid=de37f633-f69b-4cdd-a018-5b87acf7377e"},"vehicle_type_id":"4","last_reported":1758204637,"current_range_meters":17200,"station_id":"ce4bgk12rcd13ifvqbi0","pricing_plan_id":"cebpf4jnsgd1na2vs0mg"},{"bike_id":"bf6e6d27-c09e-4725-9fbc-20073fd5a515","system_id":"levelo_inurba_marseille","lat":43.289376,"lon":5.396214,"is_reserved":false,"is_disabled":false,"rental_uris":{"android":"levelo://app?vid=bf6e6d27-c09e-4725-9fbc-20073fd5a515","ios":"levelo://app?vid=bf6e6d27-c09e-4725-9fbc-20073fd5a515"},"vehicle_type_id":"4","last_reported":1758204637,"current_range_meters":17200,"station_id":"","pricing_plan_id":"cebpf4jnsgd1na2vs0mg"},{"bike_id":"0960e3dd-c358-4474-bd10-8223758e1f6b","system_id":"levelo_inurba_marseille","lat":43.296996,"lon":5.376855,"is_reserved":false,"is_disabled":false,"rental_uris":{"android":"levelo://app?vid=0960e3dd-c358-4474-bd10-8223758e1f6b","ios":"levelo://app?vid=0960e3dd-c358-4474-bd10-8223758e1f6b"},"vehicle_type_id":"4","last_reported":1758204637,"current_range_meters":17200,"station_id":"","pricing_plan_id":"cebpf4jnsgd1na2vs0mg"},{"bike_id":"949ddb31-d5b6-4303-bec6-8d3797222471","system_id":"levelo_inurba_marseille","lat":43.30184,"lon":5.36621,"is_reserved":false,"is_disabled":false,"rental_uris":{"android":"levelo://app?vid=949ddb31-d5b6-4303-bec6-8d3797222471","ios":"levelo://app?vid=949ddb31-d5b6-4303-bec6-8d3797222471"},"vehicle_type_id":"4","last_reported":1758204637,"current_range_meters":17200,"station_id":"ce4bgrh2rcd13ifvqc8g","pricing_plan_id":"cebpf4jnsgd1na2vs0mg"},{"bike_id":"06319b1f-bb7d-4df8-beb6-4cc890d4ea37","system_id":"levelo_inurba_marseille","lat":43.337677,"lon":5.374445,"is_reserved":false,"is_disabled":false,"rental_uris":{"android":"levelo://app?vid=06319b1f-bb7d-4df8-beb6-4cc890d4ea37","ios":"levelo://app?vid=06319b1f-bb7d-4df8-beb6-4cc890d4ea37"},"vehicle_type_id":"4","last_reported":1758204637,"current_range_meters":17600,"station_id":"","pricing_plan_id":"cebpf4jnsgd1na2vs0mg"},{"bike_id":"b847636c-4b9d-40a9-b01d-91badab06e0c","system_id":"levelo_inurba_marseille","lat":43.269373,"lon":5.402902,"is_reserved":false,"is_disabled":false,"rental_uris":{"android":"levelo://app?vid=b847636c-4b9d-40a9-b01d-91badab06e0c","ios":"levelo://app?vid=b847636c-4b9d-40a9-b01d-91badab06e0c"},"vehicle_type_id":"4","last_reported":1758204637,"current_range_meters":17600,"station_id":"cjm6bp8fraef2m0cb0m0","pricing_plan_id":"cebpf4jnsgd1na2vs0mg"},{"bike_id":"f7f331d1-6739-465a-94a3-5c17cad7fb54","system_id":"levelo_inurba_marseille","lat":43.31272,"lon":5.40167,"is_reserved":false,"is_disabled":false,"rental_uris":{"android":"levelo://app?vid=f7f331d1-6739-465a-94a3-5c17cad7fb54","ios":"levelo://app?vid=f7f331d1-6739-465a-94a3-5c17cad7fb54"},"vehicle_type_id":"4","last_reported":1758204637,"current_range_meters":17200,"station_id":"ce4bh092rcd13ifvqd30","pricing_plan_id":"cebpf4jnsgd1na2vs0mg"},{"bike_id":"4b25ad77-301b-4be3-89f8-94f9df20251d","system_id":"levelo_inurba_marseille","lat":43.27497,"lon":5.42471,"is_reserved":false,"is_disabled":true,"rental_uris":{"android":"levelo://app?vid=4b25ad77-301b-4be3-89f8-94f9df20251d","ios":"levelo://app?vid=4b25ad77-301b-4be3-89f8-94f9df20251d"},"vehicle_type_id":"4","last_reported":1758204637,"current_range_meters":17600,"station_id":"ce4bhn92rcd13ifvqgrg","pricing_plan_id":"cebpf4jnsgd1na2vs0mg"},{"bike_id":"f9ccf06f-79e1-49e1-b249-6072bfdb072f","system_id":"levelo_inurba_marseille","lat":43.320093,"lon":5.381621,"is_reserved":false,"is_disabled":false,"rental_uris":{"android":"levelo://app?vid=f9ccf06f-79e1-49e1-b249-6072bfdb072f","ios":"levelo://app?vid=f9ccf06f-79e1-49e1-b249-6072bfdb072f"},"vehicle_type_id":"4","last_reported":1758204637,"current_range_meters":17600,"station_id":"ce4bhr12rcd13ifvqhpg","pricing_plan_id":"cebpf4jnsgd1na2vs0mg"},{"bike_id":"f4f303df-fd89-4a02-8677-3c24b6d98687","system_id":"levelo_inurba_marseille","lat":43.28258,"lon":5.35059,"is_reserved":false,"is_disabled":false,"rental_uris":{"android":"levelo://app?vid=f4f303df-fd89-4a02-8677-3c24b6d98687","ios":"levelo://app?vid=f4f303df-fd89-4a02-8677-3c24b6d98687"},"vehicle_type_id":"4","last_reported":1758204637,"current_range_meters":18000,"station_id":"ce4bhbp2rcd13ifvqerg","pricing_plan_id":"cebpf4jnsgd1na2vs0mg"},{"bike_id":"98f9931d-eaa1-48bc-b572-12ab11209c3b","system_id":"levelo_inurba_marseille","lat":43.333009,"lon":5.410255,"is_reserved":false,"is_disabled":false,"rental_uris":{"android":"levelo://app?vid=98f9931d-eaa1-48bc-b572-12ab11209c3b","ios":"levelo://app?vid=98f9931d-eaa1-48bc-b572-12ab11209c3b"},"vehicle_type_id":"4","last_reported":1758204637,"current_range_meters":18000,"station_id":"","pricing_plan_id":"cebpf4jnsgd1na2vs0mg"},{"bike_id":"c5bb089a-257d-4ea2-8754-2d38a353b56f","system_id":"levelo_inurba_marseille","lat":43.264931,"lon":5.395391,"is_reserved":false,"is_disabled":false,"rental_uris":{"android":"levelo://app?vid=c5bb089a-257d-4ea2-8754-2d38a353b56f","ios":"levelo://app?vid=c5bb089a-257d-4ea2-8754-2d38a353b56f"},"vehicle_type_id":"4","last_reported":1758204637,"current_range_meters":18000,"station_id":"ce4bhi12rcd13ifvqfq0","pricing_plan_id":"cebpf4jnsgd1na2vs0mg"},{"bike_id":"43d57fd4-047e-4ac8-97e5-ec9b96239472","system_id":"levelo_inurba_marseille","lat":43.3292,"lon":5.39075,"is_reserved":false,"is_disabled":false,"rental_uris":{"android":"levelo://app?vid=43d57fd4-047e-4ac8-97e5-ec9b96239472","ios":"levelo://app?vid=43d57fd4-047e-4ac8-97e5-ec9b96239472"},"vehicle_type_id":"4","last_reported":1758204637,"current_range_meters":18000,"station_id":"","pricing_plan_id":"cebpf4jnsgd1na2vs0mg"},{"bike_id":"83981190-f3d9-45bf-a46e-4ee5e9cd6e7e","system_id":"levelo_inurba_marseille","lat":43.23191,"lon":5.39977,"is_reserved":false,"is_disabled":false,"rental_uris":{"android":"levelo://app?vid=83981190-f3d9-45bf-a46e-4ee5e9cd6e7e","ios":"levelo://app?vid=83981190-f3d9-45bf-a46e-4ee5e9cd6e7e"},"vehicle_type_id":"4","last_reported":1758204637,"current_range_meters":18800,"station_id":"ce4bhn12rcd13ifvqgqg","pricing_plan_id":"cebpf4jnsgd1na2vs0mg"},{"bike_id":"40d2c9b3-035b-4c31-891a-02fc47e85307","system_id":"levelo_inurba_marseille","lat":43.30604,"lon":5.37236,"is_reserved":false,"is_disabled":false,"rental_uris":{"android":"levelo://app?vid=40d2c9b3-035b-4c31-891a-02fc47e85307","ios":"levelo://app?vid=40d2c9b3-035b-4c31-891a-02fc47e85307"},"vehicle_type_id":"4","last_reported":1758204637,"current_range_meters":18000,"station_id":"ce4bgqh2rcd13ifvqc4g","pricing_plan_id":"cebpf4jnsgd1na2vs0mg"},{"bike_id":"9c0693b2-33f4-40d9-85fa-754a770a9d54","system_id":"levelo_inurba_marseille","lat":43.295188,"lon":5.390328,"is_reserved":false,"is_disabled":false,"rental_uris":{"android":"levelo://app?vid=9c0693b2-33f4-40d9-85fa-754a770a9d54","ios":"levelo://app?vid=9c0693b2-33f4-40d9-85fa-754a770a9d54"},"vehicle_type_id":"4","last_reported":1758204637,"current_range_meters":18800,"station_id":"ce4bh312rcd13ifvqdj0","pricing_plan_id":"cebpf4jnsgd1na2vs0mg"},{"bike_id":"955adcee-3523-4c1a-bb72-39e1d939766d","system_id":"levelo_inurba_marseille","lat":43.2737,"lon":5.36256,"is_reserved":false,"is_disabled":false,"rental_uris":{"android":"levelo://app?vid=955adcee-3523-4c1a-bb72-39e1d939766d","ios":"levelo://app?vid=955adcee-3523-4c1a-bb72-39e1d939766d"},"vehicle_type_id":"4","last_reported":1758204637,"current_range_meters":18800,"station_id":"ce4bhbh2rcd13ifvqeo0","pricing_plan_id":"cebpf4jnsgd1na2vs0mg"},{"bike_id":"f85a8c4d-f9d0-4136-9b57-8bfb28db950c","system_id":"levelo_inurba_marseille","lat":43.31873,"lon":5.3741,"is_reserved":false,"is_disabled":false,"rental_uris":{"android":"levelo://app?vid=f85a8c4d-f9d0-4136-9b57-8bfb28db950c","ios":"levelo://app?vid=f85a8c4d-f9d0-4136-9b57-8bfb28db950c"},"vehicle_type_id":"4","last_reported":1758204637,"current_range_meters":19200,"station_id":"","pricing_plan_id":"cebpf4jnsgd1na2vs0mg"},{"bike_id":"c8dba32d-5874-475a-8590-f1962b5dc97f","system_id":"levelo_inurba_marseille","lat":43.25974,"lon":5.40906,"is_reserved":false,"is_disabled":false,"rental_uris":{"android":"levelo://app?vid=c8dba32d-5874-475a-8590-f1962b5dc97f","ios":"levelo://app?vid=c8dba32d-5874-475a-8590-f1962b5dc97f"},"vehicle_type_id":"4","last_reported":1758204637,"current_range_meters":19200,"station_id":"ce4bhm92rcd13ifvqglg","pricing_plan_id":"cebpf4jnsgd1na2vs0mg"},{"bike_id":"10f7ac28-385f-445e-af47-a879756a52aa","system_id":"levelo_inurba_marseille","lat":43.29229,"lon":5.36074,"is_reserved":false,"is_disabled":false,"rental_uris":{"android":"levelo://app?vid=10f7ac28-385f-445e-af47-a879756a52aa","ios":"levelo://app?vid=10f7ac28-385f-445e-af47-a879756a52aa"},"vehicle_type_id":"4","last_reported":1758204637,"current_range_meters":18800,"station_id":"ce4bhbh2rcd13ifvqeqg","pricing_plan_id":"cebpf4jnsgd1na2vs0mg"},{"bike_id":"661b7b30-1c6e-4b5a-9dce-a36169c22975","system_id":"levelo_inurba_marseille","lat":43.26938,"lon":5.40265,"is_reserved":false,"is_disabled":false,"rental_uris":{"android":"levelo://app?vid=661b7b30-1c6e-4b5a-9dce-a36169c22975","ios":"levelo://app?vid=661b7b30-1c6e-4b5a-9dce-a36169c22975"},"vehicle_type_id":"4","last_reported":1758204637,"current_range_meters":19200,"station_id":"cjm6bp8fraef2m0cb0m0","pricing_plan_id":"cebpf4jnsgd1na2vs0mg"},{"bike_id":"f80f286b-7a56-4916-9daa-b293d6e4cd69","system_id":"levelo_inurba_marseille","lat":43.28105,"lon":5.37827,"is_reserved":false,"is_disabled":false,"rental_uris":{"android":"levelo://app?vid=f80f286b-7a56-4916-9daa-b293d6e4cd69","ios":"levelo://app?vid=f80f286b-7a56-4916-9daa-b293d6e4cd69"},"vehicle_type_id":"4","last_reported":1758204637,"current_range_meters":19200,"station_id":"ce4bha12rcd13ifvqee0","pricing_plan_id":"cebpf4jnsgd1na2vs0mg"},{"bike_id":"e0246414-3999-4db9-bd0b-f51449ab33e7","system_id":"levelo_inurba_marseille","lat":43.31118,"lon":5.37771,"is_reserved":false,"is_disabled":false,"rental_uris":{"android":"levelo://app?vid=e0246414-3999-4db9-bd0b-f51449ab33e7","ios":"levelo://app?vid=e0246414-3999-4db9-bd0b-f51449ab33e7"},"vehicle_type_id":"4","last_reported":1758204637,"current_range_meters":19200,"station_id":"ce4bgt92rcd13ifvqcg0","pricing_plan_id":"cebpf4jnsgd1na2vs0mg"},{"bike_id":"b9ae8c93-c745-413a-9386-68df571f8cad","system_id":"levelo_inurba_marseille","lat":43.21756,"lon":5.34612,"is_reserved":false,"is_disabled":false,"rental_uris":{"android":"levelo://app?vid=b9ae8c93-c745-413a-9386-68df571f8cad","ios":"levelo://app?vid=b9ae8c93-c745-413a-9386-68df571f8cad"},"vehicle_type_id":"4","last_reported":1758204637,"current_range_meters":19600,"station_id":"st_cvj6r9ubvosntc0bgbag","pricing_plan_id":"cebpf4jnsgd1na2vs0mg"},{"bike_id":"8e3adc30-a015-4f62-b090-a5dc9a7364b6","system_id":"levelo_inurba_marseille","lat":43.26218,"lon":5.37432,"is_reserved":false,"is_disabled":false,"rental_uris":{"android":"levelo://app?vid=8e3adc30-a015-4f62-b090-a5dc9a7364b6","ios":"levelo://app?vid=8e3adc30-a015-4f62-b090-a5dc9a7364b6"},"vehicle_type_id":"4","last_reported":1758204637,"current_range_meters":19600,"station_id":"ce4bhgp2rcd13ifvqfc0","pricing_plan_id":"cebpf4jnsgd1na2vs0mg"},{"bike_id":"85ce6911-9740-4dee-9b33-3d2747d8a02f","system_id":"levelo_inurba_marseille","lat":43.26183,"lon":5.37318,"is_reserved":false,"is_disabled":false,"rental_uris":{"android":"levelo://app?vid=85ce6911-9740-4dee-9b33-3d2747d8a02f","ios":"levelo://app?vid=85ce6911-9740-4dee-9b33-3d2747d8a02f"},"vehicle_type_id":"4","last_reported":1758204637,"current_range_meters":19600,"station_id":"ce4bhhh2rcd13ifvqfk0","pricing_plan_id":"cebpf4jnsgd1na2vs0mg"},{"bike_id":"eb6f1acc-c218-4afa-9f2b-20b4b6cab092","system_id":"levelo_inurba_marseille","lat":43.23205,"lon":5.35555,"is_reserved":false,"is_disabled":false,"rental_uris":{"android":"levelo://app?vid=eb6f1acc-c218-4afa-9f2b-20b4b6cab092","ios":"levelo://app?vid=eb6f1acc-c218-4afa-9f2b-20b4b6cab092"},"vehicle_type_id":"4","last_reported":1758204637,"current_range_meters":19600,"station_id":"ce4bhu92rcd13ifvqi70","pricing_plan_id":"cebpf4jnsgd1na2vs0mg"},{"bike_id":"a16730b0-f401-449d-b575-51c5ef435c05","system_id":"levelo_inurba_marseille","lat":43.25497,"lon":5.37625,"is_reserved":false,"is_disabled":false,"rental_uris":{"android":"levelo://app?vid=a16730b0-f401-449d-b575-51c5ef435c05","ios":"levelo://app?vid=a16730b0-f401-449d-b575-51c5ef435c05"},"vehicle_type_id":"4","last_reported":1758204637,"current_range_meters":19600,"station_id":"ce4bhh12rcd13ifvqff0","pricing_plan_id":"cebpf4jnsgd1na2vs0mg"},{"bike_id":"521f3477-d211-45af-ad08-0707e438c42b","system_id":"levelo_inurba_marseille","lat":43.29101,"lon":5.38151,"is_reserved":false,"is_disabled":false,"rental_uris":{"android":"levelo://app?vid=521f3477-d211-45af-ad08-0707e438c42b","ios":"levelo://app?vid=521f3477-d211-45af-ad08-0707e438c42b"},"vehicle_type_id":"4","last_reported":1758204637,"current_range_meters":19600,"station_id":"ce4bh512rcd13ifvqe2g","pricing_plan_id":"cebpf4jnsgd1na2vs0mg"},{"bike_id":"4abca0ae-0961-4088-acf8-b726c17e4a30","system_id":"levelo_inurba_marseille","lat":43.28155,"lon":5.42642,"is_reserved":false,"is_disabled":false,"rental_uris":{"android":"levelo://app?vid=4abca0ae-0961-4088-acf8-b726c17e4a30","ios":"levelo://app?vid=4abca0ae-0961-4088-acf8-b726c17e4a30"},"vehicle_type_id":"4","last_reported":1758204637,"current_range_meters":19600,"station_id":"ce4bhnh2rcd13ifvqgug","pricing_plan_id":"cebpf4jnsgd1na2vs0mg"},{"bike_id":"ff6e8faf-7f1f-43ab-a2f4-20e0a65a01a0","system_id":"levelo_inurba_marseille","lat":43.26002,"lon":5.37551,"is_reserved":false,"is_disabled":false,"rental_uris":{"android":"levelo://app?vid=ff6e8faf-7f1f-43ab-a2f4-20e0a65a01a0","ios":"levelo://app?vid=ff6e8faf-7f1f-43ab-a2f4-20e0a65a01a0"},"vehicle_type_id":"4","last_reported":1758204637,"current_range_meters":20000,"station_id":"ce4bhgh2rcd13ifvqfa0","pricing_plan_id":"cebpf4jnsgd1na2vs0mg"},{"bike_id":"c5e95224-360e-4c4c-b6ca-a337a16371e5","system_id":"levelo_inurba_marseille","lat":43.26556,"lon":5.37281,"is_reserved":false,"is_disabled":false,"rental_uris":{"android":"levelo://app?vid=c5e95224-360e-4c4c-b6ca-a337a16371e5","ios":"levelo://app?vid=c5e95224-360e-4c4c-b6ca-a337a16371e5"},"vehicle_type_id":"4","last_reported":1758204637,"current_range_meters":20400,"station_id":"ce4bhg12rcd13ifvqf70","pricing_plan_id":"cebpf4jnsgd1na2vs0mg"},{"bike_id":"ae3c6860-137c-43a1-b582-d172d787e7f4","system_id":"levelo_inurba_marseille","lat":43.23069,"lon":5.35481,"is_reserved":false,"is_disabled":false,"rental_uris":{"android":"levelo://app?vid=ae3c6860-137c-43a1-b582-d172d787e7f4","ios":"levelo://app?vid=ae3c6860-137c-43a1-b582-d172d787e7f4"},"vehicle_type_id":"4","last_reported":1758204637,"current_range_meters":20400,"station_id":"cpo3342slgdg3j2ifvpg","pricing_plan_id":"cebpf4jnsgd1na2vs0mg"},{"bike_id":"f5e43710-6a46-4f9a-b9da-1933f48c5cbf","system_id":"levelo_inurba_marseille","lat":43.26222,"lon":5.40445,"is_reserved":false,"is_disabled":false,"rental_uris":{"android":"levelo://app?vid=f5e43710-6a46-4f9a-b9da-1933f48c5cbf","ios":"levelo://app?vid=f5e43710-6a46-4f9a-b9da-1933f48c5cbf"},"vehicle_type_id":"4","last_reported":1758204637,"current_range_meters":20400,"station_id":"ce4bhmh2rcd13ifvqgmg","pricing_plan_id":"cebpf4jnsgd1na2vs0mg"},{"bike_id":"052ac7f7-8209-4382-bb6c-11e32ea04f53","system_id":"levelo_inurba_marseille","lat":43.31483,"lon":5.37306,"is_reserved":false,"is_disabled":false,"rental_uris":{"android":"levelo://app?vid=052ac7f7-8209-4382-bb6c-11e32ea04f53","ios":"levelo://app?vid=052ac7f7-8209-4382-bb6c-11e32ea04f53"},"vehicle_type_id":"4","last_reported":1758204637,"current_range_meters":20400,"station_id":"ce4bgt12rcd13ifvqcd0","pricing_plan_id":"cebpf4jnsgd1na2vs0mg"},{"bike_id":"835975a0-27c7-47e7-bc1c-b8ba0b505127","system_id":"levelo_inurba_marseille","lat":43.3258,"lon":5.37813,"is_reserved":false,"is_disabled":false,"rental_uris":{"android":"levelo://app?vid=835975a0-27c7-47e7-bc1c-b8ba0b505127","ios":"levelo://app?vid=835975a0-27c7-47e7-bc1c-b8ba0b505127"},"vehicle_type_id":"4","last_reported":1758204637,"current_range_meters":20400,"station_id":"","pricing_plan_id":"cebpf4jnsgd1na2vs0mg"},{"bike_id":"6884234d-aee2-47bf-bda3-fe35572f70c5","system_id":"levelo_inurba_marseille","lat":43.28259,"lon":5.35063,"is_reserved":false,"is_disabled":false,"rental_uris":{"android":"levelo://app?vid=6884234d-aee2-47bf-bda3-fe35572f70c5","ios":"levelo://app?vid=6884234d-aee2-47bf-bda3-fe35572f70c5"},"vehicle_type_id":"4","last_reported":1758204637,"current_range_meters":20400,"station_id":"ce4bhbp2rcd13ifvqerg","pricing_plan_id":"cebpf4jnsgd1na2vs0mg"},{"bike_id":"ffb82cbb-08f2-4ba4-a609-1bcc4654ae6f","system_id":"levelo_inurba_marseille","lat":43.31489,"lon":5.37299,"is_reserved":false,"is_disabled":false,"rental_uris":{"android":"levelo://app?vid=ffb82cbb-08f2-4ba4-a609-1bcc4654ae6f","ios":"levelo://app?vid=ffb82cbb-08f2-4ba4-a609-1bcc4654ae6f"},"vehicle_type_id":"4","last_reported":1758204637,"current_range_meters":20000,"station_id":"ce4bgt12rcd13ifvqcd0","pricing_plan_id":"cebpf4jnsgd1na2vs0mg"},{"bike_id":"3badd594-e030-40e3-94fd-fa82b2606392","system_id":"levelo_inurba_marseille","lat":43.29795,"lon":5.38078,"is_reserved":false,"is_disabled":false,"rental_uris":{"android":"levelo://app?vid=3badd594-e030-40e3-94fd-fa82b2606392","ios":"levelo://app?vid=3badd594-e030-40e3-94fd-fa82b2606392"},"vehicle_type_id":"4","last_reported":1758204637,"current_range_meters":20400,"station_id":"ce4bgip2rcd13ifvqbb0","pricing_plan_id":"cebpf4jnsgd1na2vs0mg"},{"bike_id":"c4706891-6ce1-4440-91ff-a3ecf2ff007e","system_id":"levelo_inurba_marseille","lat":43.26374,"lon":5.40075,"is_reserved":false,"is_disabled":false,"rental_uris":{"android":"levelo://app?vid=c4706891-6ce1-4440-91ff-a3ecf2ff007e","ios":"levelo://app?vid=c4706891-6ce1-4440-91ff-a3ecf2ff007e"},"vehicle_type_id":"4","last_reported":1758204637,"current_range_meters":20800,"station_id":"","pricing_plan_id":"cebpf4jnsgd1na2vs0mg"},{"bike_id":"0d424dd3-bf23-47fa-a353-86e65cd752f6","system_id":"levelo_inurba_marseille","lat":43.231836,"lon":5.399899,"is_reserved":false,"is_disabled":false,"rental_uris":{"android":"levelo://app?vid=0d424dd3-bf23-47fa-a353-86e65cd752f6","ios":"levelo://app?vid=0d424dd3-bf23-47fa-a353-86e65cd752f6"},"vehicle_type_id":"4","last_reported":1758204637,"current_range_meters":20800,"station_id":"ce4bhn12rcd13ifvqgqg","pricing_plan_id":"cebpf4jnsgd1na2vs0mg"},{"bike_id":"96061432-67f2-41b7-af71-67e87a135d24","system_id":"levelo_inurba_marseille","lat":43.29299,"lon":5.37159,"is_reserved":false,"is_disabled":false,"rental_uris":{"android":"levelo://app?vid=96061432-67f2-41b7-af71-67e87a135d24","ios":"levelo://app?vid=96061432-67f2-41b7-af71-67e87a135d24"},"vehicle_type_id":"4","last_reported":1758204637,"current_range_meters":20800,"station_id":"","pricing_plan_id":"cebpf4jnsgd1na2vs0mg"},{"bike_id":"7acef77e-dd9a-457a-bb97-f3e10516cf40","system_id":"levelo_inurba_marseille","lat":43.2826,"lon":5.35054,"is_reserved":false,"is_disabled":false,"rental_uris":{"android":"levelo://app?vid=7acef77e-dd9a-457a-bb97-f3e10516cf40","ios":"levelo://app?vid=7acef77e-dd9a-457a-bb97-f3e10516cf40"},"vehicle_type_id":"4","last_reported":1758204637,"current_range_meters":20800,"station_id":"ce4bhbp2rcd13ifvqerg","pricing_plan_id":"cebpf4jnsgd1na2vs0mg"},{"bike_id":"af8cd0a2-39fe-4563-b815-8a81ee544ffe","system_id":"levelo_inurba_marseille","lat":43.26568,"lon":5.38986,"is_reserved":false,"is_disabled":false,"rental_uris":{"android":"levelo://app?vid=af8cd0a2-39fe-4563-b815-8a81ee544ffe","ios":"levelo://app?vid=af8cd0a2-39fe-4563-b815-8a81ee544ffe"},"vehicle_type_id":"4","last_reported":1758204637,"current_range_meters":20800,"station_id":"ce4bhe12rcd13ifvqf30","pricing_plan_id":"cebpf4jnsgd1na2vs0mg"},{"bike_id":"a42c28ba-a52d-4120-b642-c93fdd63e7ce","system_id":"levelo_inurba_marseille","lat":43.2534,"lon":5.42178,"is_reserved":false,"is_disabled":false,"rental_uris":{"android":"levelo://app?vid=a42c28ba-a52d-4120-b642-c93fdd63e7ce","ios":"levelo://app?vid=a42c28ba-a52d-4120-b642-c93fdd63e7ce"},"vehicle_type_id":"4","last_reported":1758204637,"current_range_meters":20800,"station_id":"st_d2m65c5bi1j21697t3ng","pricing_plan_id":"cebpf4jnsgd1na2vs0mg"},{"bike_id":"a29e8025-e350-4740-80f0-bd6a236f976a","system_id":"levelo_inurba_marseille","lat":43.31995,"lon":5.38157,"is_reserved":false,"is_disabled":false,"rental_uris":{"android":"levelo://app?vid=a29e8025-e350-4740-80f0-bd6a236f976a","ios":"levelo://app?vid=a29e8025-e350-4740-80f0-bd6a236f976a"},"vehicle_type_id":"4","last_reported":1758204637,"current_range_meters":20800,"station_id":"ce4bhr12rcd13ifvqhpg","pricing_plan_id":"cebpf4jnsgd1na2vs0mg"},{"bike_id":"d9d041e3-a1da-4339-bb46-4e289c25138c","system_id":"levelo_inurba_marseille","lat":43.23193,"lon":5.39976,"is_reserved":false,"is_disabled":false,"rental_uris":{"android":"levelo://app?vid=d9d041e3-a1da-4339-bb46-4e289c25138c","ios":"levelo://app?vid=d9d041e3-a1da-4339-bb46-4e289c25138c"},"vehicle_type_id":"4","last_reported":1758204637,"current_range_meters":20800,"station_id":"ce4bhn12rcd13ifvqgqg","pricing_plan_id":"cebpf4jnsgd1na2vs0mg"},{"bike_id":"af92115d-6f7a-49ce-a65e-77f9182df835","system_id":"levelo_inurba_marseille","lat":43.21751,"lon":5.34568,"is_reserved":false,"is_disabled":true,"rental_uris":{"android":"levelo://app?vid=af92115d-6f7a-49ce-a65e-77f9182df835","ios":"levelo://app?vid=af92115d-6f7a-49ce-a65e-77f9182df835"},"vehicle_type_id":"4","last_reported":1758204637,"current_range_meters":21600,"station_id":"st_cvj6r9ubvosntc0bgbag","pricing_plan_id":"cebpf4jnsgd1na2vs0mg"},{"bike_id":"cb40f28e-d197-4b8e-a2a9-c0befd66e1fd","system_id":"levelo_inurba_marseille","lat":43.28258,"lon":5.35071,"is_reserved":false,"is_disabled":false,"rental_uris":{"android":"levelo://app?vid=cb40f28e-d197-4b8e-a2a9-c0befd66e1fd","ios":"levelo://app?vid=cb40f28e-d197-4b8e-a2a9-c0befd66e1fd"},"vehicle_type_id":"4","last_reported":1758204637,"current_range_meters":21600,"station_id":"ce4bhbp2rcd13ifvqerg","pricing_plan_id":"cebpf4jnsgd1na2vs0mg"},{"bike_id":"676728c4-3ea8-4dd5-aa61-a21c27b9eddb","system_id":"levelo_inurba_marseille","lat":43.23193,"lon":5.39958,"is_reserved":false,"is_disabled":false,"rental_uris":{"android":"levelo://app?vid=676728c4-3ea8-4dd5-aa61-a21c27b9eddb","ios":"levelo://app?vid=676728c4-3ea8-4dd5-aa61-a21c27b9eddb"},"vehicle_type_id":"4","last_reported":1758204637,"current_range_meters":21600,"station_id":"ce4bhn12rcd13ifvqgqg","pricing_plan_id":"cebpf4jnsgd1na2vs0mg"},{"bike_id":"24596368-297f-43e4-9234-83cfb0e9a2e6","system_id":"levelo_inurba_marseille","lat":43.29165,"lon":5.37162,"is_reserved":false,"is_disabled":false,"rental_uris":{"android":"levelo://app?vid=24596368-297f-43e4-9234-83cfb0e9a2e6","ios":"levelo://app?vid=24596368-297f-43e4-9234-83cfb0e9a2e6"},"vehicle_type_id":"4","last_reported":1758204637,"current_range_meters":20400,"station_id":"ce4bha92rcd13ifvqeh0","pricing_plan_id":"cebpf4jnsgd1na2vs0mg"},{"bike_id":"cb753e8b-9f88-4cfc-950d-b9fd710490b5","system_id":"levelo_inurba_marseille","lat":43.26218,"lon":5.4045,"is_reserved":false,"is_disabled":false,"rental_uris":{"android":"levelo://app?vid=cb753e8b-9f88-4cfc-950d-b9fd710490b5","ios":"levelo://app?vid=cb753e8b-9f88-4cfc-950d-b9fd710490b5"},"vehicle_type_id":"4","last_reported":1758204637,"current_range_meters":21600,"station_id":"ce4bhmh2rcd13ifvqgmg","pricing_plan_id":"cebpf4jnsgd1na2vs0mg"},{"bike_id":"e8995cdb-e556-4a76-b1d9-dc2da1da085b","system_id":"levelo_inurba_marseille","lat":43.24179,"lon":5.39732,"is_reserved":false,"is_disabled":false,"rental_uris":{"android":"levelo://app?vid=e8995cdb-e556-4a76-b1d9-dc2da1da085b","ios":"levelo://app?vid=e8995cdb-e556-4a76-b1d9-dc2da1da085b"},"vehicle_type_id":"4","last_reported":1758204637,"current_range_meters":21600,"station_id":"ce4bhn12rcd13ifvqgpg","pricing_plan_id":"cebpf4jnsgd1na2vs0mg"},{"bike_id":"2836ce26-b1f8-4176-8d47-1ab6bd539431","system_id":"levelo_inurba_marseille","lat":43.32334,"lon":5.4062,"is_reserved":false,"is_disabled":false,"rental_uris":{"android":"levelo://app?vid=2836ce26-b1f8-4176-8d47-1ab6bd539431","ios":"levelo://app?vid=2836ce26-b1f8-4176-8d47-1ab6bd539431"},"vehicle_type_id":"4","last_reported":1758204637,"current_range_meters":21600,"station_id":"ce4bhq92rcd13ifvqhjg","pricing_plan_id":"cebpf4jnsgd1na2vs0mg"},{"bike_id":"2a9f54ac-1c3f-4d70-ae1d-384402687328","system_id":"levelo_inurba_marseille","lat":43.281548,"lon":5.426416,"is_reserved":false,"is_disabled":false,"rental_uris":{"android":"levelo://app?vid=2a9f54ac-1c3f-4d70-ae1d-384402687328","ios":"levelo://app?vid=2a9f54ac-1c3f-4d70-ae1d-384402687328"},"vehicle_type_id":"4","last_reported":1758204637,"current_range_meters":22000,"station_id":"ce4bhnh2rcd13ifvqgug","pricing_plan_id":"cebpf4jnsgd1na2vs0mg"},{"bike_id":"69e4fba7-97c9-4c69-aa09-9c8d46a78e26","system_id":"levelo_inurba_marseille","lat":43.282562,"lon":5.350792,"is_reserved":false,"is_disabled":false,"rental_uris":{"android":"levelo://app?vid=69e4fba7-97c9-4c69-aa09-9c8d46a78e26","ios":"levelo://app?vid=69e4fba7-97c9-4c69-aa09-9c8d46a78e26"},"vehicle_type_id":"4","last_reported":1758204637,"current_range_meters":22000,"station_id":"ce4bhbp2rcd13ifvqerg","pricing_plan_id":"cebpf4jnsgd1na2vs0mg"},{"bike_id":"3aa8f330-9e5c-43f5-9006-28603a78ce43","system_id":"levelo_inurba_marseille","lat":43.27371,"lon":5.36255,"is_reserved":false,"is_disabled":false,"rental_uris":{"android":"levelo://app?vid=3aa8f330-9e5c-43f5-9006-28603a78ce43","ios":"levelo://app?vid=3aa8f330-9e5c-43f5-9006-28603a78ce43"},"vehicle_type_id":"4","last_reported":1758204637,"current_range_meters":22000,"station_id":"ce4bhbh2rcd13ifvqeo0","pricing_plan_id":"cebpf4jnsgd1na2vs0mg"},{"bike_id":"8151fcd3-a081-44db-bedd-a19e70d64ee1","system_id":"levelo_inurba_marseille","lat":43.247116,"lon":5.407597,"is_reserved":false,"is_disabled":false,"rental_uris":{"android":"levelo://app?vid=8151fcd3-a081-44db-bedd-a19e70d64ee1","ios":"levelo://app?vid=8151fcd3-a081-44db-bedd-a19e70d64ee1"},"vehicle_type_id":"4","last_reported":1758204637,"current_range_meters":22000,"station_id":"st_d2ngiaodas8pm72gd1h0","pricing_plan_id":"cebpf4jnsgd1na2vs0mg"},{"bike_id":"a8e2cfd7-9242-409b-bc55-7224082bbb9f","system_id":"levelo_inurba_marseille","lat":43.28416,"lon":5.34968,"is_reserved":false,"is_disabled":false,"rental_uris":{"android":"levelo://app?vid=a8e2cfd7-9242-409b-bc55-7224082bbb9f","ios":"levelo://app?vid=a8e2cfd7-9242-409b-bc55-7224082bbb9f"},"vehicle_type_id":"4","last_reported":1758204637,"current_range_meters":22400,"station_id":"ce4bhbh2rcd13ifvqepg","pricing_plan_id":"cebpf4jnsgd1na2vs0mg"},{"bike_id":"7c11d7ef-d1a3-4180-9e17-be3c0b4eeda1","system_id":"levelo_inurba_marseille","lat":43.31288,"lon":5.38492,"is_reserved":false,"is_disabled":false,"rental_uris":{"android":"levelo://app?vid=7c11d7ef-d1a3-4180-9e17-be3c0b4eeda1","ios":"levelo://app?vid=7c11d7ef-d1a3-4180-9e17-be3c0b4eeda1"},"vehicle_type_id":"4","last_reported":1758204637,"current_range_meters":22400,"station_id":"","pricing_plan_id":"cebpf4jnsgd1na2vs0mg"},{"bike_id":"5304049e-91d5-46c7-b1ae-caae14291e88","system_id":"levelo_inurba_marseille","lat":43.29267,"lon":5.37612,"is_reserved":false,"is_disabled":true,"rental_uris":{"android":"levelo://app?vid=5304049e-91d5-46c7-b1ae-caae14291e88","ios":"levelo://app?vid=5304049e-91d5-46c7-b1ae-caae14291e88"},"vehicle_type_id":"4","last_reported":1758204637,"current_range_meters":22400,"station_id":"ce4bgi12rcd13ifvqb80","pricing_plan_id":"cebpf4jnsgd1na2vs0mg"},{"bike_id":"77220845-d4da-4dd0-af51-3f9c65c54509","system_id":"levelo_inurba_marseille","lat":43.21752,"lon":5.34611,"is_reserved":false,"is_disabled":false,"rental_uris":{"android":"levelo://app?vid=77220845-d4da-4dd0-af51-3f9c65c54509","ios":"levelo://app?vid=77220845-d4da-4dd0-af51-3f9c65c54509"},"vehicle_type_id":"4","last_reported":1758204637,"current_range_meters":22400,"station_id":"","pricing_plan_id":"cebpf4jnsgd1na2vs0mg"},{"bike_id":"c80b0aa8-dc3d-4305-a9f1-abcf2bce60c8","system_id":"levelo_inurba_marseille","lat":43.23197,"lon":5.35542,"is_reserved":false,"is_disabled":false,"rental_uris":{"android":"levelo://app?vid=c80b0aa8-dc3d-4305-a9f1-abcf2bce60c8","ios":"levelo://app?vid=c80b0aa8-dc3d-4305-a9f1-abcf2bce60c8"},"vehicle_type_id":"4","last_reported":1758204637,"current_range_meters":22400,"station_id":"ce4bhu92rcd13ifvqi70","pricing_plan_id":"cebpf4jnsgd1na2vs0mg"},{"bike_id":"af0490b6-c1c9-4895-8a15-568d23e0a730","system_id":"levelo_inurba_marseille","lat":43.28063,"lon":5.40766,"is_reserved":false,"is_disabled":false,"rental_uris":{"android":"levelo://app?vid=af0490b6-c1c9-4895-8a15-568d23e0a730","ios":"levelo://app?vid=af0490b6-c1c9-4895-8a15-568d23e0a730"},"vehicle_type_id":"4","last_reported":1758204637,"current_range_meters":22400,"station_id":"","pricing_plan_id":"cebpf4jnsgd1na2vs0mg"},{"bike_id":"67df8158-2909-41b3-8de5-88ec92603a08","system_id":"levelo_inurba_marseille","lat":43.293422,"lon":5.377594,"is_reserved":false,"is_disabled":false,"rental_uris":{"android":"levelo://app?vid=67df8158-2909-41b3-8de5-88ec92603a08","ios":"levelo://app?vid=67df8158-2909-41b3-8de5-88ec92603a08"},"vehicle_type_id":"4","last_reported":1758204637,"current_range_meters":22400,"station_id":"","pricing_plan_id":"cebpf4jnsgd1na2vs0mg"},{"bike_id":"0dba9f84-481c-48f4-8d71-9018dbb589a6","system_id":"levelo_inurba_marseille","lat":43.24785,"lon":5.3744,"is_reserved":false,"is_disabled":false,"rental_uris":{"android":"levelo://app?vid=0dba9f84-481c-48f4-8d71-9018dbb589a6","ios":"levelo://app?vid=0dba9f84-481c-48f4-8d71-9018dbb589a6"},"vehicle_type_id":"4","last_reported":1758204637,"current_range_meters":22400,"station_id":"","pricing_plan_id":"cebpf4jnsgd1na2vs0mg"},{"bike_id":"3d158a28-bece-4b10-9f82-ab3eb3313408","system_id":"levelo_inurba_marseille","lat":43.337485,"lon":5.374512,"is_reserved":false,"is_disabled":false,"rental_uris":{"android":"levelo://app?vid=3d158a28-bece-4b10-9f82-ab3eb3313408","ios":"levelo://app?vid=3d158a28-bece-4b10-9f82-ab3eb3313408"},"vehicle_type_id":"4","last_reported":1758204637,"current_range_meters":22400,"station_id":"","pricing_plan_id":"cebpf4jnsgd1na2vs0mg"},{"bike_id":"01506b0f-e157-4743-aa1c-a0319d319497","system_id":"levelo_inurba_marseille","lat":43.293,"lon":5.37164,"is_reserved":false,"is_disabled":false,"rental_uris":{"android":"levelo://app?vid=01506b0f-e157-4743-aa1c-a0319d319497","ios":"levelo://app?vid=01506b0f-e157-4743-aa1c-a0319d319497"},"vehicle_type_id":"4","last_reported":1758204637,"current_range_meters":22400,"station_id":"","pricing_plan_id":"cebpf4jnsgd1na2vs0mg"},{"bike_id":"5613f75e-13dd-421b-b027-149ea8b149c7","system_id":"levelo_inurba_marseille","lat":43.2463,"lon":5.43134,"is_reserved":false,"is_disabled":false,"rental_uris":{"android":"levelo://app?vid=5613f75e-13dd-421b-b027-149ea8b149c7","ios":"levelo://app?vid=5613f75e-13dd-421b-b027-149ea8b149c7"},"vehicle_type_id":"4","last_reported":1758204637,"current_range_meters":22400,"station_id":"st_d2m6c4gdas8pm72e190g","pricing_plan_id":"cebpf4jnsgd1na2vs0mg"},{"bike_id":"104506e8-a34b-4817-865e-58c40117684f","system_id":"levelo_inurba_marseille","lat":43.29552,"lon":5.42289,"is_reserved":false,"is_disabled":false,"rental_uris":{"android":"levelo://app?vid=104506e8-a34b-4817-865e-58c40117684f","ios":"levelo://app?vid=104506e8-a34b-4817-865e-58c40117684f"},"vehicle_type_id":"4","last_reported":1758204637,"current_range_meters":22000,"station_id":"ce4bhph2rcd13ifvqhdg","pricing_plan_id":"cebpf4jnsgd1na2vs0mg"},{"bike_id":"b810ec46-97ab-4356-95f9-0c9d02506d5a","system_id":"levelo_inurba_marseille","lat":43.24458,"lon":5.39039,"is_reserved":false,"is_disabled":false,"rental_uris":{"android":"levelo://app?vid=b810ec46-97ab-4356-95f9-0c9d02506d5a","ios":"levelo://app?vid=b810ec46-97ab-4356-95f9-0c9d02506d5a"},"vehicle_type_id":"4","last_reported":1758204637,"current_range_meters":22800,"station_id":"","pricing_plan_id":"cebpf4jnsgd1na2vs0mg"},{"bike_id":"43656096-3901-4c1c-ba91-d79ba028e521","system_id":"levelo_inurba_marseille","lat":43.2749,"lon":5.42451,"is_reserved":false,"is_disabled":true,"rental_uris":{"android":"levelo://app?vid=43656096-3901-4c1c-ba91-d79ba028e521","ios":"levelo://app?vid=43656096-3901-4c1c-ba91-d79ba028e521"},"vehicle_type_id":"4","last_reported":1758204637,"current_range_meters":22800,"station_id":"ce4bhn92rcd13ifvqgrg","pricing_plan_id":"cebpf4jnsgd1na2vs0mg"},{"bike_id":"95d962d9-cb2b-4eb0-9057-df7f94fd1747","system_id":"levelo_inurba_marseille","lat":43.25939,"lon":5.409056,"is_reserved":false,"is_disabled":false,"rental_uris":{"android":"levelo://app?vid=95d962d9-cb2b-4eb0-9057-df7f94fd1747","ios":"levelo://app?vid=95d962d9-cb2b-4eb0-9057-df7f94fd1747"},"vehicle_type_id":"4","last_reported":1758204637,"current_range_meters":22800,"station_id":"ce4bhm92rcd13ifvqglg","pricing_plan_id":"cebpf4jnsgd1na2vs0mg"},{"bike_id":"f02088f3-ca67-429c-af81-eb0b6f28c33e","system_id":"levelo_inurba_marseille","lat":43.29525,"lon":5.3855,"is_reserved":false,"is_disabled":false,"rental_uris":{"android":"levelo://app?vid=f02088f3-ca67-429c-af81-eb0b6f28c33e","ios":"levelo://app?vid=f02088f3-ca67-429c-af81-eb0b6f28c33e"},"vehicle_type_id":"4","last_reported":1758204637,"current_range_meters":22800,"station_id":"ce4bgih2rcd13ifvqba0","pricing_plan_id":"cebpf4jnsgd1na2vs0mg"},{"bike_id":"fa04fbd4-83e8-40b3-968d-fa7925a28ab2","system_id":"levelo_inurba_marseille","lat":43.225335,"lon":5.348288,"is_reserved":false,"is_disabled":false,"rental_uris":{"android":"levelo://app?vid=fa04fbd4-83e8-40b3-968d-fa7925a28ab2","ios":"levelo://app?vid=fa04fbd4-83e8-40b3-968d-fa7925a28ab2"},"vehicle_type_id":"4","last_reported":1758204637,"current_range_meters":22800,"station_id":"","pricing_plan_id":"cebpf4jnsgd1na2vs0mg"},{"bike_id":"52c1866c-6391-43b9-b476-d0ce7d1e17f9","system_id":"levelo_inurba_marseille","lat":43.25085,"lon":5.39526,"is_reserved":false,"is_disabled":false,"rental_uris":{"android":"levelo://app?vid=52c1866c-6391-43b9-b476-d0ce7d1e17f9","ios":"levelo://app?vid=52c1866c-6391-43b9-b476-d0ce7d1e17f9"},"vehicle_type_id":"4","last_reported":1758204637,"current_range_meters":22800,"station_id":"ce4bhm12rcd13ifvqgkg","pricing_plan_id":"cebpf4jnsgd1na2vs0mg"},{"bike_id":"ca6cfb19-1dc3-4908-b50d-fcb1e1ef8339","system_id":"levelo_inurba_marseille","lat":43.273648,"lon":5.362608,"is_reserved":false,"is_disabled":false,"rental_uris":{"android":"levelo://app?vid=ca6cfb19-1dc3-4908-b50d-fcb1e1ef8339","ios":"levelo://app?vid=ca6cfb19-1dc3-4908-b50d-fcb1e1ef8339"},"vehicle_type_id":"4","last_reported":1758204637,"current_range_meters":22800,"station_id":"ce4bhbh2rcd13ifvqeo0","pricing_plan_id":"cebpf4jnsgd1na2vs0mg"},{"bike_id":"0f7caa9f-1d1a-40d7-9b4a-2f8720e63681","system_id":"levelo_inurba_marseille","lat":43.30848,"lon":5.37507,"is_reserved":false,"is_disabled":false,"rental_uris":{"android":"levelo://app?vid=0f7caa9f-1d1a-40d7-9b4a-2f8720e63681","ios":"levelo://app?vid=0f7caa9f-1d1a-40d7-9b4a-2f8720e63681"},"vehicle_type_id":"4","last_reported":1758204637,"current_range_meters":23200,"station_id":"","pricing_plan_id":"cebpf4jnsgd1na2vs0mg"},{"bike_id":"2c734c36-442f-468e-ab47-e34ad5183e32","system_id":"levelo_inurba_marseille","lat":43.25772,"lon":5.41047,"is_reserved":false,"is_disabled":false,"rental_uris":{"android":"levelo://app?vid=2c734c36-442f-468e-ab47-e34ad5183e32","ios":"levelo://app?vid=2c734c36-442f-468e-ab47-e34ad5183e32"},"vehicle_type_id":"4","last_reported":1758204637,"current_range_meters":23200,"station_id":"","pricing_plan_id":"cebpf4jnsgd1na2vs0mg"},{"bike_id":"dcb28453-9e69-4332-a131-11b8454a7683","system_id":"levelo_inurba_marseille","lat":43.25732,"lon":5.38298,"is_reserved":false,"is_disabled":false,"rental_uris":{"android":"levelo://app?vid=dcb28453-9e69-4332-a131-11b8454a7683","ios":"levelo://app?vid=dcb28453-9e69-4332-a131-11b8454a7683"},"vehicle_type_id":"4","last_reported":1758204637,"current_range_meters":23200,"station_id":"ce4bhih2rcd13ifvqfs0","pricing_plan_id":"cebpf4jnsgd1na2vs0mg"},{"bike_id":"2c14a0db-da1e-478a-b7fc-bccd94aff04f","system_id":"levelo_inurba_marseille","lat":43.27368,"lon":5.3626,"is_reserved":false,"is_disabled":false,"rental_uris":{"android":"levelo://app?vid=2c14a0db-da1e-478a-b7fc-bccd94aff04f","ios":"levelo://app?vid=2c14a0db-da1e-478a-b7fc-bccd94aff04f"},"vehicle_type_id":"4","last_reported":1758204637,"current_range_meters":23200,"station_id":"ce4bhbh2rcd13ifvqeo0","pricing_plan_id":"cebpf4jnsgd1na2vs0mg"},{"bike_id":"830b9b55-b582-49a9-8acf-457ace5fb670","system_id":"levelo_inurba_marseille","lat":43.22555,"lon":5.4163,"is_reserved":false,"is_disabled":false,"rental_uris":{"android":"levelo://app?vid=830b9b55-b582-49a9-8acf-457ace5fb670","ios":"levelo://app?vid=830b9b55-b582-49a9-8acf-457ace5fb670"},"vehicle_type_id":"4","last_reported":1758204637,"current_range_meters":23200,"station_id":"st_d2o4gvlbi1j2169b742g","pricing_plan_id":"cebpf4jnsgd1na2vs0mg"},{"bike_id":"ba874d31-eda1-4fd2-a1a5-fed97a382294","system_id":"levelo_inurba_marseille","lat":43.284603,"lon":5.358796,"is_reserved":false,"is_disabled":false,"rental_uris":{"android":"levelo://app?vid=ba874d31-eda1-4fd2-a1a5-fed97a382294","ios":"levelo://app?vid=ba874d31-eda1-4fd2-a1a5-fed97a382294"},"vehicle_type_id":"4","last_reported":1758204637,"current_range_meters":23200,"station_id":"ce4bhah2rcd13ifvqei0","pricing_plan_id":"cebpf4jnsgd1na2vs0mg"},{"bike_id":"64398267-0ca7-4e1f-be2f-a2b71eab5d9d","system_id":"levelo_inurba_marseille","lat":43.30243,"lon":5.40061,"is_reserved":false,"is_disabled":false,"rental_uris":{"android":"levelo://app?vid=64398267-0ca7-4e1f-be2f-a2b71eab5d9d","ios":"levelo://app?vid=64398267-0ca7-4e1f-be2f-a2b71eab5d9d"},"vehicle_type_id":"4","last_reported":1758204637,"current_range_meters":22800,"station_id":"ce4bgvh2rcd13ifvqcs0","pricing_plan_id":"cebpf4jnsgd1na2vs0mg"},{"bike_id":"a07a513e-e5a9-4481-8592-d991379bc662","system_id":"levelo_inurba_marseille","lat":43.337536,"lon":5.374536,"is_reserved":false,"is_disabled":false,"rental_uris":{"android":"levelo://app?vid=a07a513e-e5a9-4481-8592-d991379bc662","ios":"levelo://app?vid=a07a513e-e5a9-4481-8592-d991379bc662"},"vehicle_type_id":"4","last_reported":1758204637,"current_range_meters":23200,"station_id":"","pricing_plan_id":"cebpf4jnsgd1na2vs0mg"},{"bike_id":"b54d06bf-82d9-48cb-ae8d-065a5bec2925","system_id":"levelo_inurba_marseille","lat":43.26855,"lon":5.40301,"is_reserved":false,"is_disabled":false,"rental_uris":{"android":"levelo://app?vid=b54d06bf-82d9-48cb-ae8d-065a5bec2925","ios":"levelo://app?vid=b54d06bf-82d9-48cb-ae8d-065a5bec2925"},"vehicle_type_id":"4","last_reported":1758204637,"current_range_meters":24400,"station_id":"","pricing_plan_id":"cebpf4jnsgd1na2vs0mg"},{"bike_id":"34c637cb-e7ca-4009-8d57-10268b7bf6f2","system_id":"levelo_inurba_marseille","lat":43.25932,"lon":5.40906,"is_reserved":false,"is_disabled":false,"rental_uris":{"android":"levelo://app?vid=34c637cb-e7ca-4009-8d57-10268b7bf6f2","ios":"levelo://app?vid=34c637cb-e7ca-4009-8d57-10268b7bf6f2"},"vehicle_type_id":"4","last_reported":1758204637,"current_range_meters":24000,"station_id":"ce4bhm92rcd13ifvqglg","pricing_plan_id":"cebpf4jnsgd1na2vs0mg"},{"bike_id":"5e84cc5e-e843-4ee1-b068-3ad8e752cf93","system_id":"levelo_inurba_marseille","lat":43.24948,"lon":5.40489,"is_reserved":false,"is_disabled":false,"rental_uris":{"android":"levelo://app?vid=5e84cc5e-e843-4ee1-b068-3ad8e752cf93","ios":"levelo://app?vid=5e84cc5e-e843-4ee1-b068-3ad8e752cf93"},"vehicle_type_id":"4","last_reported":1758204637,"current_range_meters":24000,"station_id":"st_d2ngiaodas8pm72gd1h0","pricing_plan_id":"cebpf4jnsgd1na2vs0mg"},{"bike_id":"a0826990-c8da-4478-b081-3c0239354bc0","system_id":"levelo_inurba_marseille","lat":43.2855,"lon":5.3782,"is_reserved":false,"is_disabled":false,"rental_uris":{"android":"levelo://app?vid=a0826990-c8da-4478-b081-3c0239354bc0","ios":"levelo://app?vid=a0826990-c8da-4478-b081-3c0239354bc0"},"vehicle_type_id":"4","last_reported":1758204637,"current_range_meters":24000,"station_id":"","pricing_plan_id":"cebpf4jnsgd1na2vs0mg"},{"bike_id":"e1054e14-fa29-4043-9d58-775f973de809","system_id":"levelo_inurba_marseille","lat":43.23961,"lon":5.36625,"is_reserved":false,"is_disabled":false,"rental_uris":{"android":"levelo://app?vid=e1054e14-fa29-4043-9d58-775f973de809","ios":"levelo://app?vid=e1054e14-fa29-4043-9d58-775f973de809"},"vehicle_type_id":"4","last_reported":1758204637,"current_range_meters":24000,"station_id":"ce4bhi12rcd13ifvqfp0","pricing_plan_id":"cebpf4jnsgd1na2vs0mg"},{"bike_id":"7b742172-3760-408a-a721-f0cf28bf2d5f","system_id":"levelo_inurba_marseille","lat":43.315338,"lon":5.380455,"is_reserved":false,"is_disabled":false,"rental_uris":{"android":"levelo://app?vid=7b742172-3760-408a-a721-f0cf28bf2d5f","ios":"levelo://app?vid=7b742172-3760-408a-a721-f0cf28bf2d5f"},"vehicle_type_id":"4","last_reported":1758204637,"current_range_meters":24000,"station_id":"ce4bhsp2rcd13ifvqi50","pricing_plan_id":"cebpf4jnsgd1na2vs0mg"},{"bike_id":"e7e51501-dfd3-4b3f-a123-02c58adb66d9","system_id":"levelo_inurba_marseille","lat":43.25498,"lon":5.37664,"is_reserved":false,"is_disabled":false,"rental_uris":{"android":"levelo://app?vid=e7e51501-dfd3-4b3f-a123-02c58adb66d9","ios":"levelo://app?vid=e7e51501-dfd3-4b3f-a123-02c58adb66d9"},"vehicle_type_id":"4","last_reported":1758204637,"current_range_meters":24000,"station_id":"ce4bhh12rcd13ifvqff0","pricing_plan_id":"cebpf4jnsgd1na2vs0mg"},{"bike_id":"21e8d484-954a-4298-a8e8-49a3b033cb2d","system_id":"levelo_inurba_marseille","lat":43.229296,"lon":5.353765,"is_reserved":false,"is_disabled":false,"rental_uris":{"android":"levelo://app?vid=21e8d484-954a-4298-a8e8-49a3b033cb2d","ios":"levelo://app?vid=21e8d484-954a-4298-a8e8-49a3b033cb2d"},"vehicle_type_id":"4","last_reported":1758204637,"current_range_meters":24000,"station_id":"","pricing_plan_id":"cebpf4jnsgd1na2vs0mg"},{"bike_id":"3edab8b5-08ab-4bd7-a8e3-46e14fec2b69","system_id":"levelo_inurba_marseille","lat":43.22585,"lon":5.41628,"is_reserved":false,"is_disabled":false,"rental_uris":{"android":"levelo://app?vid=3edab8b5-08ab-4bd7-a8e3-46e14fec2b69","ios":"levelo://app?vid=3edab8b5-08ab-4bd7-a8e3-46e14fec2b69"},"vehicle_type_id":"4","last_reported":1758204637,"current_range_meters":24000,"station_id":"st_d2o4gvlbi1j2169b742g","pricing_plan_id":"cebpf4jnsgd1na2vs0mg"},{"bike_id":"f28f103f-e828-4237-83fb-dbf01ed528dd","system_id":"levelo_inurba_marseille","lat":43.30601,"lon":5.37237,"is_reserved":false,"is_disabled":false,"rental_uris":{"android":"levelo://app?vid=f28f103f-e828-4237-83fb-dbf01ed528dd","ios":"levelo://app?vid=f28f103f-e828-4237-83fb-dbf01ed528dd"},"vehicle_type_id":"4","last_reported":1758204637,"current_range_meters":24000,"station_id":"ce4bgqh2rcd13ifvqc4g","pricing_plan_id":"cebpf4jnsgd1na2vs0mg"},{"bike_id":"d8bc7ead-753b-4987-ad2d-860e532bb6b6","system_id":"levelo_inurba_marseille","lat":43.25331,"lon":5.42162,"is_reserved":false,"is_disabled":false,"rental_uris":{"android":"levelo://app?vid=d8bc7ead-753b-4987-ad2d-860e532bb6b6","ios":"levelo://app?vid=d8bc7ead-753b-4987-ad2d-860e532bb6b6"},"vehicle_type_id":"4","last_reported":1758204637,"current_range_meters":21600,"station_id":"st_d2m65c5bi1j21697t3ng","pricing_plan_id":"cebpf4jnsgd1na2vs0mg"},{"bike_id":"034adc5a-bc4b-47b7-b1fd-f2c6fe02d964","system_id":"levelo_inurba_marseille","lat":43.2846,"lon":5.35878,"is_reserved":false,"is_disabled":false,"rental_uris":{"android":"levelo://app?vid=034adc5a-bc4b-47b7-b1fd-f2c6fe02d964","ios":"levelo://app?vid=034adc5a-bc4b-47b7-b1fd-f2c6fe02d964"},"vehicle_type_id":"4","last_reported":1758204637,"current_range_meters":24000,"station_id":"ce4bhah2rcd13ifvqei0","pricing_plan_id":"cebpf4jnsgd1na2vs0mg"},{"bike_id":"68adab37-f5ad-4072-b58a-fe6c68285ca6","system_id":"levelo_inurba_marseille","lat":43.30657,"lon":5.37731,"is_reserved":false,"is_disabled":false,"rental_uris":{"android":"levelo://app?vid=68adab37-f5ad-4072-b58a-fe6c68285ca6","ios":"levelo://app?vid=68adab37-f5ad-4072-b58a-fe6c68285ca6"},"vehicle_type_id":"4","last_reported":1758204637,"current_range_meters":24400,"station_id":"","pricing_plan_id":"cebpf4jnsgd1na2vs0mg"},{"bike_id":"a8b6f990-9193-488f-8b67-41bbbb6abcc1","system_id":"levelo_inurba_marseille","lat":43.22555,"lon":5.41634,"is_reserved":false,"is_disabled":false,"rental_uris":{"android":"levelo://app?vid=a8b6f990-9193-488f-8b67-41bbbb6abcc1","ios":"levelo://app?vid=a8b6f990-9193-488f-8b67-41bbbb6abcc1"},"vehicle_type_id":"4","last_reported":1758204637,"current_range_meters":24400,"station_id":"st_d2o4gvlbi1j2169b742g","pricing_plan_id":"cebpf4jnsgd1na2vs0mg"},