{"last_updated":1752091905,"ttl":60,"version":"2.2","data":{"bikes":[{"bike_id":"cd20cfea-2f2f-444d-a882-a49b6cf370eb","system_id":"levelo_inurba_marseille","lat":43.337444,"lon":5.374475,"is_reserved":false,"is_disabled":true,"rental_uris":{"android":"levelo://app?vid=cd20cfea-2f2f-444d-a882-a49b6cf370eb","ios":"levelo://app?vid=cd20cfea-2f2f-444d-a882-a49b6cf370eb"},"vehicle_type_id":"4","last_reported":1752091906,"current_range_meters":0,"station_id":"","pricing_plan_id":"cebpf4jnsgd1na2vs0mg"},{"bike_id":"3da29fb8-fc97-44c6-b9ac-31dd456b2fd4","system_id":"levelo_inurba_marseille","lat":43.33771,"lon":5.37424,"is_reserved":false,"is_disabled":true,"rental_uris":{"android":"levelo://app?vid=3da29fb8-fc97-44c6-b9ac-31dd456b2fd4","ios":"levelo://app?vid=3da29fb8-fc97-44c6-b9ac-31dd456b2fd4"},"vehicle_type_id":"4","last_reported":1752091906,"current_range_meters":0,"station_id":"","pricing_plan_id":"cebpf4jnsgd1na2vs0mg"},{"bike_id":"01861ad8-a8d7-4be6-816e-651927c87584","system_id":"levelo_inurba_marseille","lat":43.33751,"lon":5.37456,"is_reserved":false,"is_disabled":true,"rental_uris":{"android":"levelo://app?vid=01861ad8-a8d7-4be6-816e-651927c87584","ios":"levelo://app?vid=01861ad8-a8d7-4be6-816e-651927c87584"},"vehicle_type_id":"4","last_reported":1752091906,"current_range_meters":0,"station_id":"","pricing_plan_id":"cebpf4jnsgd1na2vs0mg"},{"bike_id":"53b1a31e-8ada-40c0-8d64-113a81233c84","system_id":"levelo_inurba_marseille","lat":43.36401,"lon":5.31934,"is_reserved":false,"is_disabled":true,"rental_uris":{"android":"levelo://app?vid=53b1a31e-8ada-40c0-8d64-113a81233c84","ios":"levelo://app?vid=53b1a31e-8ada-40c0-8d64-113a81233c84"},"vehicle_type_id":"4","last_reported":1752091906,"current_range_meters":0,"station_id":"","pricing_plan_id":"cebpf4jnsgd1na2vs0mg"},{"bike_id":"4369c7ec-3cba-4ecd-af1d-e7ca4e9d3edd","system_id":"levelo_inurba_marseille","lat":43.25813,"lon":5.38874,"is_reserved":false,"is_disabled":true,"rental_uris":{"android":"levelo://app?vid=4369c7ec-3cba-4ecd-af1d-e7ca4e9d3edd","ios":"levelo://app?vid=4369c7ec-3cba-4ecd-af1d-e7ca4e9d3edd"},"vehicle_type_id":"4","last_reported":1752091906,"current_range_meters":0,"station_id":"","pricing_plan_id":"cebpf4jnsgd1na2vs0mg"},{"bike_id":"c25337ca-c33e-4117-bf63-d699bc716fa6","system_id":"levelo_inurba_marseille","lat":43.31514,"lon":5.37406,"is_reserved":false,"is_disabled":true,"rental_uris":{"android":"levelo://app?vid=c25337ca-c33e-4117-bf63-d699bc716fa6","ios":"levelo://app?vid=c25337ca-c33e-4117-bf63-d699bc716fa6"},"vehicle_type_id":"4","last_reported":1752091906,"current_range_meters":0,"station_id":"","pricing_plan_id":"cebpf4jnsgd1na2vs0mg"},{"bike_id":"d962f4b7-9e0c-4ba5-acbd-52bfa5bc9933","system_id":"levelo_inurba_marseille","lat":43.24674,"lon":5.38158,"is_reserved":false,"is_disabled":true,"rental_uris":{"android":"levelo://app?vid=d962f4b7-9e0c-4ba5-acbd-52bfa5bc9933","ios":"levelo://app?vid=d962f4b7-9e0c-4ba5-acbd-52bfa5bc9933"},"vehicle_type_id":"4","last_reported":1752091906,"current_range_meters":0,"station_id":"ce4bhih2rcd13ifvqfr0","pricing_plan_id":"cebpf4jnsgd1na2vs0mg"},{"bike_id":"e562ad4e-a577-4b7b-a74e-7e00b9c0f52f","system_id":"levelo_inurba_marseille","lat":43.225027,"lon":5.347812,"is_reserved":false,"is_disabled":true,"rental_uris":{"android":"levelo://app?vid=e562ad4e-a577-4b7b-a74e-7e00b9c0f52f","ios":"levelo://app?vid=e562ad4e-a577-4b7b-a74e-7e00b9c0f52f"},"vehicle_type_id":"4","last_reported":1752091906,"current_range_meters":0,"station_id":"st_cvj5dfep6f1abm77gieg","pricing_plan_id":"cebpf4jnsgd1na2vs0mg"},{"bike_id":"336eaf6b-6955-4ef9-8dfa-abf06b057d2c","system_id":"levelo_inurba_marseille","lat":43.21183,"lon":5.35066,"is_reserved":false,"is_disabled":true,"rental_uris":{"android":"levelo://app?vid=336eaf6b-6955-4ef9-8dfa-abf06b057d2c","ios":"levelo://app?vid=336eaf6b-6955-4ef9-8dfa-abf06b057d2c"},"vehicle_type_id":"4","last_reported":1752091906,"current_range_meters":0,"station_id":"st_cvj6sg6p6f1abm77japg","pricing_plan_id":"cebpf4jnsgd1na2vs0mg"},{"bike_id":"6661cbd2-6ba2-4b46-b15e-1188df0f29d7","system_id":"levelo_inurba_marseille","lat":43.21193,"lon":5.35074,"is_reserved":false,"is_disabled":true,"rental_uris":{"android":"levelo://app?vid=6661cbd2-6ba2-4b46-b15e-1188df0f29d7","ios":"levelo://app?vid=6661cbd2-6ba2-4b46-b15e-1188df0f29d7"},"vehicle_type_id":"4","last_reported":1752091906,"current_range_meters":0,"station_id":"st_cvj6sg6p6f1abm77japg","pricing_plan_id":"cebpf4jnsgd1na2vs0mg"},{"bike_id":"fd53d0ea-5c3c-4d81-b369-851b8a5d4a7d","system_id":"levelo_inurba_marseille","lat":43.2926,"lon":5.40904,"is_reserved":false,"is_disabled":true,"rental_uris":{"android":"levelo://app?vid=fd53d0ea-5c3c-4d81-b369-851b8a5d4a7d","ios":"levelo://app?vid=fd53d0ea-5c3c-4d81-b369-851b8a5d4a7d"},"vehicle_type_id":"4","last_reported":1752091906,"current_range_meters":400,"station_id":"ce4bh192rcd13ifvqdc0","pricing_plan_id":"cebpf4jnsgd1na2vs0mg"},{"bike_id":"18e99f7d-6b59-4685-a459-c7489d9fa6bc","system_id":"levelo_inurba_marseille","lat":43.29512,"lon":5.394,"is_reserved":false,"is_disabled":true,"rental_uris":{"android":"levelo://app?vid=18e99f7d-6b59-4685-a459-c7489d9fa6bc","ios":"levelo://app?vid=18e99f7d-6b59-4685-a459-c7489d9fa6bc"},"vehicle_type_id":"4","last_reported":1752091906,"current_range_meters":400,"station_id":"ce4bh292rcd13ifvqdf0","pricing_plan_id":"cebpf4jnsgd1na2vs0mg"},{"bike_id":"9dbe87cc-21c9-4b6c-952c-c09e35887f80","system_id":"levelo_inurba_marseille","lat":43.21735,"lon":5.34622,"is_reserved":false,"is_disabled":true,"rental_uris":{"android":"levelo://app?vid=9dbe87cc-21c9-4b6c-952c-c09e35887f80","ios":"levelo://app?vid=9dbe87cc-21c9-4b6c-952c-c09e35887f80"},"vehicle_type_id":"4","last_reported":1752091906,"current_range_meters":400,"station_id":"st_cvj6r9ubvosntc0bgbag","pricing_plan_id":"cebpf4jnsgd1na2vs0mg"},{"bike_id":"b0b530cb-8e04-428c-b614-08514a7177ff","system_id":"levelo_inurba_marseille","lat":43.29525,"lon":5.38538,"is_reserved":false,"is_disabled":true,"rental_uris":{"android":"levelo://app?vid=b0b530cb-8e04-428c-b614-08514a7177ff","ios":"levelo://app?vid=b0b530cb-8e04-428c-b614-08514a7177ff"},"vehicle_type_id":"4","last_reported":1752091906,"current_range_meters":800,"station_id":"ce4bgih2rcd13ifvqba0","pricing_plan_id":"cebpf4jnsgd1na2vs0mg"},{"bike_id":"4997186b-b0a3-484c-b0ff-4a2dc95beeff","system_id":"levelo_inurba_marseille","lat":43.31168,"lon":5.38718,"is_reserved":false,"is_disabled":true,"rental_uris":{"android":"levelo://app?vid=4997186b-b0a3-484c-b0ff-4a2dc95beeff","ios":"levelo://app?vid=4997186b-b0a3-484c-b0ff-4a2dc95beeff"},"vehicle_type_id":"4","last_reported":1752091906,"current_range_meters":800,"station_id":"ce4bgv12rcd13ifvqcp0","pricing_plan_id":"cebpf4jnsgd1na2vs0mg"},{"bike_id":"9bffcc2a-a737-4983-b0c0-97d673ede80f","system_id":"levelo_inurba_marseille","lat":43.29552,"lon":5.42297,"is_reserved":false,"is_disabled":true,"rental_uris":{"android":"levelo://app?vid=9bffcc2a-a737-4983-b0c0-97d673ede80f","ios":"levelo://app?vid=9bffcc2a-a737-4983-b0c0-97d673ede80f"},"vehicle_type_id":"4","last_reported":1752091906,"current_range_meters":800,"station_id":"ce4bhph2rcd13ifvqhdg","pricing_plan_id":"cebpf4jnsgd1na2vs0mg"},{"bike_id":"5745f131-cd4a-4ac9-bdc2-7385b3c3e0a5","system_id":"levelo_inurba_marseille","lat":43.217553,"lon":5.345903,"is_reserved":false,"is_disabled":true,"rental_uris":{"android":"levelo://app?vid=5745f131-cd4a-4ac9-bdc2-7385b3c3e0a5","ios":"levelo://app?vid=5745f131-cd4a-4ac9-bdc2-7385b3c3e0a5"},"vehicle_type_id":"4","last_reported":1752091906,"current_range_meters":800,"station_id":"st_cvj6r9ubvosntc0bgbag","pricing_plan_id":"cebpf4jnsgd1na2vs0mg"},{"bike_id":"2581b7c5-1b42-4417-a9e6-cbdbedb7a2dd","system_id":"levelo_inurba_marseille","lat":43.21763,"lon":5.34606,"is_reserved":false,"is_disabled":true,"rental_uris":{"android":"levelo://app?vid=2581b7c5-1b42-4417-a9e6-cbdbedb7a2dd","ios":"levelo://app?vid=2581b7c5-1b42-4417-a9e6-cbdbedb7a2dd"},"vehicle_type_id":"4","last_reported":1752091906,"current_range_meters":800,"station_id":"st_cvj6r9ubvosntc0bgbag","pricing_plan_id":"cebpf4jnsgd1na2vs0mg"},{"bike_id":"b8fcd1b8-e383-4c4c-a466-f8393a965939","system_id":"levelo_inurba_marseille","lat":43.21743,"lon":5.34601,"is_reserved":false,"is_disabled":true,"rental_uris":{"android":"levelo://app?vid=b8fcd1b8-e383-4c4c-a466-f8393a965939","ios":"levelo://app?vid=b8fcd1b8-e383-4c4c-a466-f8393a965939"},"vehicle_type_id":"4","last_reported":1752091906,"current_range_meters":1200,"station_id":"","pricing_plan_id":"cebpf4jnsgd1na2vs0mg"},{"bike_id":"acd61c62-30f4-4010-bdfd-2dd0ad9e241c","system_id":"levelo_inurba_marseille","lat":43.33139,"lon":5.38586,"is_reserved":false,"is_disabled":true,"rental_uris":{"android":"levelo://app?vid=acd61c62-30f4-4010-bdfd-2dd0ad9e241c","ios":"levelo://app?vid=acd61c62-30f4-4010-bdfd-2dd0ad9e241c"},"vehicle_type_id":"4","last_reported":1752091906,"current_range_meters":1200,"station_id":"","pricing_plan_id":"cebpf4jnsgd1na2vs0mg"},{"bike_id":"51dd0268-7bf2-41f2-8c9b-4ee3c662ee43","system_id":"levelo_inurba_marseille","lat":43.29856,"lon":5.36319,"is_reserved":false,"is_disabled":false,"rental_uris":{"android":"levelo://app?vid=51dd0268-7bf2-41f2-8c9b-4ee3c662ee43","ios":"levelo://app?vid=51dd0268-7bf2-41f2-8c9b-4ee3c662ee43"},"vehicle_type_id":"4","last_reported":1752091906,"current_range_meters":1600,"station_id":"","pricing_plan_id":"cebpf4jnsgd1na2vs0mg"},{"bike_id":"928ee048-bc4e-4e67-a569-694e5e0e7ec2","system_id":"levelo_inurba_marseille","lat":43.29534,"lon":5.38549,"is_reserved":false,"is_disabled":true,"rental_uris":{"android":"levelo://app?vid=928ee048-bc4e-4e67-a569-694e5e0e7ec2","ios":"levelo://app?vid=928ee048-bc4e-4e67-a569-694e5e0e7ec2"},"vehicle_type_id":"4","last_reported":1752091906,"current_range_meters":1600,"station_id":"ce4bgih2rcd13ifvqba0","pricing_plan_id":"cebpf4jnsgd1na2vs0mg"},{"bike_id":"fa8503c5-42e2-432b-9afc-570d7ac635cf","system_id":"levelo_inurba_marseille","lat":43.29502,"lon":5.38587,"is_reserved":false,"is_disabled":true,"rental_uris":{"android":"levelo://app?vid=fa8503c5-42e2-432b-9afc-570d7ac635cf","ios":"levelo://app?vid=fa8503c5-42e2-432b-9afc-570d7ac635cf"},"vehicle_type_id":"4","last_reported":1752091906,"current_range_meters":1600,"station_id":"ce4bgih2rcd13ifvqba0","pricing_plan_id":"cebpf4jnsgd1na2vs0mg"},{"bike_id":"5d01362d-7a99-4066-b2ed-0750b8e9df16","system_id":"levelo_inurba_marseille","lat":43.31317,"lon":5.39697,"is_reserved":false,"is_disabled":true,"rental_uris":{"android":"levelo://app?vid=5d01362d-7a99-4066-b2ed-0750b8e9df16","ios":"levelo://app?vid=5d01362d-7a99-4066-b2ed-0750b8e9df16"},"vehicle_type_id":"4","last_reported":1752091906,"current_range_meters":1600,"station_id":"ce4bgvp2rcd13ifvqcu0","pricing_plan_id":"cebpf4jnsgd1na2vs0mg"},{"bike_id":"49429407-b6dc-4315-8885-cec0ffe0454e","system_id":"levelo_inurba_marseille","lat":43.27996,"lon":5.40015,"is_reserved":false,"is_disabled":true,"rental_uris":{"android":"levelo://app?vid=49429407-b6dc-4315-8885-cec0ffe0454e","ios":"levelo://app?vid=49429407-b6dc-4315-8885-cec0ffe0454e"},"vehicle_type_id":"4","last_reported":1752091906,"current_range_meters":1600,"station_id":"ce4bho92rcd13ifvqh4g","pricing_plan_id":"cebpf4jnsgd1na2vs0mg"},{"bike_id":"37f2becd-23f9-4f13-a711-38b8024eeec7","system_id":"levelo_inurba_marseille","lat":43.33768,"lon":5.37516,"is_reserved":false,"is_disabled":true,"rental_uris":{"android":"levelo://app?vid=37f2becd-23f9-4f13-a711-38b8024eeec7","ios":"levelo://app?vid=37f2becd-23f9-4f13-a711-38b8024eeec7"},"vehicle_type_id":"4","last_reported":1752091906,"current_range_meters":2000,"station_id":"","pricing_plan_id":"cebpf4jnsgd1na2vs0mg"},{"bike_id":"cf704c8e-768a-41b4-aee2-3328dd94cad1","system_id":"levelo_inurba_marseille","lat":43.31504,"lon":5.373,"is_reserved":false,"is_disabled":true,"rental_uris":{"android":"levelo://app?vid=cf704c8e-768a-41b4-aee2-3328dd94cad1","ios":"levelo://app?vid=cf704c8e-768a-41b4-aee2-3328dd94cad1"},"vehicle_type_id":"4","last_reported":1752091906,"current_range_meters":2000,"station_id":"ce4bgt12rcd13ifvqcd0","pricing_plan_id":"cebpf4jnsgd1na2vs0mg"},{"bike_id":"02eef5bb-bebf-48c4-9448-a1b433de6a12","system_id":"levelo_inurba_marseille","lat":43.29033,"lon":5.38646,"is_reserved":false,"is_disabled":true,"rental_uris":{"android":"levelo://app?vid=02eef5bb-bebf-48c4-9448-a1b433de6a12","ios":"levelo://app?vid=02eef5bb-bebf-48c4-9448-a1b433de6a12"},"vehicle_type_id":"4","last_reported":1752091906,"current_range_meters":2000,"station_id":"ce4bh4p2rcd13ifvqe0g","pricing_plan_id":"cebpf4jnsgd1na2vs0mg"},{"bike_id":"62893b96-be1d-44fa-8716-f4ec76a9bd3e","system_id":"levelo_inurba_marseille","lat":43.27833,"lon":5.39189,"is_reserved":false,"is_disabled":true,"rental_uris":{"android":"levelo://app?vid=62893b96-be1d-44fa-8716-f4ec76a9bd3e","ios":"levelo://app?vid=62893b96-be1d-44fa-8716-f4ec76a9bd3e"},"vehicle_type_id":"4","last_reported":1752091906,"current_range_meters":2000,"station_id":"ce4bhjp2rcd13ifvqga0","pricing_plan_id":"cebpf4jnsgd1na2vs0mg"},{"bike_id":"2c423baa-ecca-420a-87d7-ad0b7e0b9ebb","system_id":"levelo_inurba_marseille","lat":43.28069,"lon":5.35349,"is_reserved":false,"is_disabled":false,"rental_uris":{"android":"levelo://app?vid=2c423baa-ecca-420a-87d7-ad0b7e0b9ebb","ios":"levelo://app?vid=2c423baa-ecca-420a-87d7-ad0b7e0b9ebb"},"vehicle_type_id":"4","last_reported":1752091906,"current_range_meters":2800,"station_id":"","pricing_plan_id":"cebpf4jnsgd1na2vs0mg"},{"bike_id":"c8c76ad1-1d6f-4966-8d4f-6e82952b57d6","system_id":"levelo_inurba_marseille","lat":43.28941,"lon":5.36384,"is_reserved":false,"is_disabled":false,"rental_uris":{"android":"levelo://app?vid=c8c76ad1-1d6f-4966-8d4f-6e82952b57d6","ios":"levelo://app?vid=c8c76ad1-1d6f-4966-8d4f-6e82952b57d6"},"vehicle_type_id":"4","last_reported":1752091906,"current_range_meters":2800,"station_id":"ce4bhc92rcd13ifvqetg","pricing_plan_id":"cebpf4jnsgd1na2vs0mg"},{"bike_id":"1ea07c30-7637-4836-8280-b70950b610b5","system_id":"levelo_inurba_marseille","lat":43.22489,"lon":5.34753,"is_reserved":false,"is_disabled":false,"rental_uris":{"android":"levelo://app?vid=1ea07c30-7637-4836-8280-b70950b610b5","ios":"levelo://app?vid=1ea07c30-7637-4836-8280-b70950b610b5"},"vehicle_type_id":"4","last_reported":1752091906,"current_range_meters":2800,"station_id":"st_cvj5dfep6f1abm77gieg","pricing_plan_id":"cebpf4jnsgd1na2vs0mg"},{"bike_id":"9faa0a21-b470-4fab-80b6-46813acf3d58","system_id":"levelo_inurba_marseille","lat":43.29535,"lon":5.38548,"is_reserved":false,"is_disabled":false,"rental_uris":{"android":"levelo://app?vid=9faa0a21-b470-4fab-80b6-46813acf3d58","ios":"levelo://app?vid=9faa0a21-b470-4fab-80b6-46813acf3d58"},"vehicle_type_id":"4","last_reported":1752091906,"current_range_meters":3200,"station_id":"ce4bgih2rcd13ifvqba0","pricing_plan_id":"cebpf4jnsgd1na2vs0mg"},{"bike_id":"92df376d-d806-47e6-8d77-b65b5a9bbbfa","system_id":"levelo_inurba_marseille","lat":43.31168,"lon":5.38717,"is_reserved":false,"is_disabled":false,"rental_uris":{"android":"levelo://app?vid=92df376d-d806-47e6-8d77-b65b5a9bbbfa","ios":"levelo://app?vid=92df376d-d806-47e6-8d77-b65b5a9bbbfa"},"vehicle_type_id":"4","last_reported":1752091906,"current_range_meters":3200,"station_id":"ce4bgv12rcd13ifvqcp0","pricing_plan_id":"cebpf4jnsgd1na2vs0mg"},{"bike_id":"84da73e1-3873-4139-a748-621cc105f699","system_id":"levelo_inurba_marseille","lat":43.26029,"lon":5.37543,"is_reserved":false,"is_disabled":false,"rental_uris":{"android":"levelo://app?vid=84da73e1-3873-4139-a748-621cc105f699","ios":"levelo://app?vid=84da73e1-3873-4139-a748-621cc105f699"},"vehicle_type_id":"4","last_reported":1752091906,"current_range_meters":3600,"station_id":"ce4bhgh2rcd13ifvqfa0","pricing_plan_id":"cebpf4jnsgd1na2vs0mg"},{"bike_id":"9ca2be03-2113-45dc-9828-1bb07fb2bb21","system_id":"levelo_inurba_marseille","lat":43.29519,"lon":5.37514,"is_reserved":false,"is_disabled":false,"rental_uris":{"android":"levelo://app?vid=9ca2be03-2113-45dc-9828-1bb07fb2bb21","ios":"levelo://app?vid=9ca2be03-2113-45dc-9828-1bb07fb2bb21"},"vehicle_type_id":"4","last_reported":1752091906,"current_range_meters":4000,"station_id":"ce4bgkp2rcd13ifvqbmg","pricing_plan_id":"cebpf4jnsgd1na2vs0mg"},{"bike_id":"0c8f92f0-34dd-4528-ac9a-218976babbcb","system_id":"levelo_inurba_marseille","lat":43.297057,"lon":5.376893,"is_reserved":false,"is_disabled":false,"rental_uris":{"android":"levelo://app?vid=0c8f92f0-34dd-4528-ac9a-218976babbcb","ios":"levelo://app?vid=0c8f92f0-34dd-4528-ac9a-218976babbcb"},"vehicle_type_id":"4","last_reported":1752091906,"current_range_meters":4400,"station_id":"ce4bgkh2rcd13ifvqbl0","pricing_plan_id":"cebpf4jnsgd1na2vs0mg"},{"bike_id":"2dcb1272-28af-4fe2-9dda-29757b7fd1d0","system_id":"levelo_inurba_marseille","lat":43.29079,"lon":5.35632,"is_reserved":false,"is_disabled":false,"rental_uris":{"android":"levelo://app?vid=2dcb1272-28af-4fe2-9dda-29757b7fd1d0","ios":"levelo://app?vid=2dcb1272-28af-4fe2-9dda-29757b7fd1d0"},"vehicle_type_id":"4","last_reported":1752091906,"current_range_meters":4400,"station_id":"ce4bhb92rcd13ifvqen0","pricing_plan_id":"cebpf4jnsgd1na2vs0mg"},{"bike_id":"070dfed6-4cde-4010-aa9c-07e500401406","system_id":"levelo_inurba_marseille","lat":43.27847,"lon":5.39221,"is_reserved":false,"is_disabled":false,"rental_uris":{"android":"levelo://app?vid=070dfed6-4cde-4010-aa9c-07e500401406","ios":"levelo://app?vid=070dfed6-4cde-4010-aa9c-07e500401406"},"vehicle_type_id":"4","last_reported":1752091906,"current_range_meters":4400,"station_id":"ce4bhjp2rcd13ifvqga0","pricing_plan_id":"cebpf4jnsgd1na2vs0mg"},{"bike_id":"db841109-9b56-4777-86e2-06fbf4ef1649","system_id":"levelo_inurba_marseille","lat":43.31112,"lon":5.39736,"is_reserved":false,"is_disabled":false,"rental_uris":{"android":"levelo://app?vid=db841109-9b56-4777-86e2-06fbf4ef1649","ios":"levelo://app?vid=db841109-9b56-4777-86e2-06fbf4ef1649"},"vehicle_type_id":"4","last_reported":1752091906,"current_range_meters":4800,"station_id":"","pricing_plan_id":"cebpf4jnsgd1na2vs0mg"},{"bike_id":"21125524-0161-4962-a15f-7df1d7a02f0f","system_id":"levelo_inurba_marseille","lat":43.29068,"lon":5.3717,"is_reserved":false,"is_disabled":false,"rental_uris":{"android":"levelo://app?vid=21125524-0161-4962-a15f-7df1d7a02f0f","ios":"levelo://app?vid=21125524-0161-4962-a15f-7df1d7a02f0f"},"vehicle_type_id":"4","last_reported":1752091906,"current_range_meters":4800,"station_id":"ce4bh5p2rcd13ifvqe4g","pricing_plan_id":"cebpf4jnsgd1na2vs0mg"},{"bike_id":"5c2e93ea-4cf8-4b3a-bc5b-9f49d3d84f9f","system_id":"levelo_inurba_marseille","lat":43.31074,"lon":5.38372,"is_reserved":false,"is_disabled":false,"rental_uris":{"android":"levelo://app?vid=5c2e93ea-4cf8-4b3a-bc5b-9f49d3d84f9f","ios":"levelo://app?vid=5c2e93ea-4cf8-4b3a-bc5b-9f49d3d84f9f"},"vehicle_type_id":"4","last_reported":1752091906,"current_range_meters":6000,"station_id":"ce4bgv92rcd13ifvqcr0","pricing_plan_id":"cebpf4jnsgd1na2vs0mg"},{"bike_id":"888522e3-39b6-4ff3-ad74-ff6c6f771157","system_id":"levelo_inurba_marseille","lat":43.295014,"lon":5.402679,"is_reserved":false,"is_disabled":false,"rental_uris":{"android":"levelo://app?vid=888522e3-39b6-4ff3-ad74-ff6c6f771157","ios":"levelo://app?vid=888522e3-39b6-4ff3-ad74-ff6c6f771157"},"vehicle_type_id":"4","last_reported":1752091906,"current_range_meters":6400,"station_id":"","pricing_plan_id":"cebpf4jnsgd1na2vs0mg"},{"bike_id":"4e946835-2a52-4c77-9826-9a248c082cae","system_id":"levelo_inurba_marseille","lat":43.29529,"lon":5.38546,"is_reserved":false,"is_disabled":false,"rental_uris":{"android":"levelo://app?vid=4e946835-2a52-4c77-9826-9a248c082cae","ios":"levelo://app?vid=4e946835-2a52-4c77-9826-9a248c082cae"},"vehicle_type_id":"4","last_reported":1752091906,"current_range_meters":6400,"station_id":"ce4bgih2rcd13ifvqba0","pricing_plan_id":"cebpf4jnsgd1na2vs0mg"},{"bike_id":"91894078-2595-459f-939f-1394b3672480","system_id":"levelo_inurba_marseille","lat":43.29591,"lon":5.38124,"is_reserved":false,"is_disabled":false,"rental_uris":{"android":"levelo://app?vid=91894078-2595-459f-939f-1394b3672480","ios":"levelo://app?vid=91894078-2595-459f-939f-1394b3672480"},"vehicle_type_id":"4","last_reported":1752091906,"current_range_meters":6400,"station_id":"ce4bgl12rcd13ifvqbo0","pricing_plan_id":"cebpf4jnsgd1na2vs0mg"},{"bike_id":"c7746f2a-fd15-4444-b8ef-bc14308d2cf6","system_id":"levelo_inurba_marseille","lat":43.31759,"lon":5.39014,"is_reserved":false,"is_disabled":false,"rental_uris":{"android":"levelo://app?vid=c7746f2a-fd15-4444-b8ef-bc14308d2cf6","ios":"levelo://app?vid=c7746f2a-fd15-4444-b8ef-bc14308d2cf6"},"vehicle_type_id":"4","last_reported":1752091906,"current_range_meters":6400,"station_id":"ce4bhqp2rcd13ifvqhng","pricing_plan_id":"cebpf4jnsgd1na2vs0mg"},{"bike_id":"36c528f8-717c-46bf-a674-a6b15784d9ca","system_id":"levelo_inurba_marseille","lat":43.29527,"lon":5.38556,"is_reserved":false,"is_disabled":false,"rental_uris":{"android":"levelo://app?vid=36c528f8-717c-46bf-a674-a6b15784d9ca","ios":"levelo://app?vid=36c528f8-717c-46bf-a674-a6b15784d9ca"},"vehicle_type_id":"4","last_reported":1752091906,"current_range_meters":6800,"station_id":"ce4bgih2rcd13ifvqba0","pricing_plan_id":"cebpf4jnsgd1na2vs0mg"},{"bike_id":"cf56d996-4b0d-4195-a628-d068dab6c1dc","system_id":"levelo_inurba_marseille","lat":43.29706,"lon":5.36597,"is_reserved":false,"is_disabled":false,"rental_uris":{"android":"levelo://app?vid=cf56d996-4b0d-4195-a628-d068dab6c1dc","ios":"levelo://app?vid=cf56d996-4b0d-4195-a628-d068dab6c1dc"},"vehicle_type_id":"4","last_reported":1752091906,"current_range_meters":6800,"station_id":"ce4bgn12rcd13ifvqbt0","pricing_plan_id":"cebpf4jnsgd1na2vs0mg"},{"bike_id":"67a45585-930f-4a51-b5c7-db1585564219","system_id":"levelo_inurba_marseille","lat":43.29969,"lon":5.38495,"is_reserved":false,"is_disabled":false,"rental_uris":{"android":"levelo://app?vid=67a45585-930f-4a51-b5c7-db1585564219","ios":"levelo://app?vid=67a45585-930f-4a51-b5c7-db1585564219"},"vehicle_type_id":"4","last_reported":1752091906,"current_range_meters":7200,"station_id":"","pricing_plan_id":"cebpf4jnsgd1na2vs0mg"},{"bike_id":"25ccadab-f5cb-482d-ab5d-ca4ea4ae9c90","system_id":"levelo_inurba_marseille","lat":43.29257,"lon":5.38489,"is_reserved":false,"is_disabled":false,"rental_uris":{"android":"levelo://app?vid=25ccadab-f5cb-482d-ab5d-ca4ea4ae9c90","ios":"levelo://app?vid=25ccadab-f5cb-482d-ab5d-ca4ea4ae9c90"},"vehicle_type_id":"4","last_reported":1752091906,"current_range_meters":7200,"station_id":"","pricing_plan_id":"cebpf4jnsgd1na2vs0mg"},{"bike_id":"97b636d4-ce76-4469-91f2-cb71a35c75e9","system_id":"levelo_inurba_marseille","lat":43.29533,"lon":5.38682,"is_reserved":false,"is_disabled":false,"rental_uris":{"android":"levelo://app?vid=97b636d4-ce76-4469-91f2-cb71a35c75e9","ios":"levelo://app?vid=97b636d4-ce76-4469-91f2-cb71a35c75e9"},"vehicle_type_id":"4","last_reported":1752091906,"current_range_meters":7200,"station_id":"","pricing_plan_id":"cebpf4jnsgd1na2vs0mg"},{"bike_id":"2983c8d8-29dc-4262-823e-185c4d341f47","system_id":"levelo_inurba_marseille","lat":43.28218,"lon":5.42621,"is_reserved":false,"is_disabled":false,"rental_uris":{"android":"levelo://app?vid=2983c8d8-29dc-4262-823e-185c4d341f47","ios":"levelo://app?vid=2983c8d8-29dc-4262-823e-185c4d341f47"},"vehicle_type_id":"4","last_reported":1752091906,"current_range_meters":7200,"station_id":"","pricing_plan_id":"cebpf4jnsgd1na2vs0mg"},{"bike_id":"36524c7a-1036-4f20-b68a-9cec9c417c93","system_id":"levelo_inurba_marseille","lat":43.301455,"lon":5.380767,"is_reserved":false,"is_disabled":false,"rental_uris":{"android":"levelo://app?vid=36524c7a-1036-4f20-b68a-9cec9c417c93","ios":"levelo://app?vid=36524c7a-1036-4f20-b68a-9cec9c417c93"},"vehicle_type_id":"4","last_reported":1752091906,"current_range_meters":7200,"station_id":"ce4bgjp2rcd13ifvqbh0","pricing_plan_id":"cebpf4jnsgd1na2vs0mg"},{"bike_id":"1547b48e-69a3-4f6b-a8f7-d1a9dab37716","system_id":"levelo_inurba_marseille","lat":43.28415,"lon":5.34976,"is_reserved":false,"is_disabled":false,"rental_uris":{"android":"levelo://app?vid=1547b48e-69a3-4f6b-a8f7-d1a9dab37716","ios":"levelo://app?vid=1547b48e-69a3-4f6b-a8f7-d1a9dab37716"},"vehicle_type_id":"4","last_reported":1752091906,"current_range_meters":7200,"station_id":"ce4bhbh2rcd13ifvqepg","pricing_plan_id":"cebpf4jnsgd1na2vs0mg"},{"bike_id":"38195d54-ea5b-4aca-b32f-4172dae1b0cf","system_id":"levelo_inurba_marseille","lat":43.28345,"lon":5.38105,"is_reserved":false,"is_disabled":false,"rental_uris":{"android":"levelo://app?vid=38195d54-ea5b-4aca-b32f-4172dae1b0cf","ios":"levelo://app?vid=38195d54-ea5b-4aca-b32f-4172dae1b0cf"},"vehicle_type_id":"4","last_reported":1752091906,"current_range_meters":8000,"station_id":"ce4bh412rcd13ifvqdr0","pricing_plan_id":"cebpf4jnsgd1na2vs0mg"},{"bike_id":"3df1c0df-d05a-4bea-849c-abc2e766ee95","system_id":"levelo_inurba_marseille","lat":43.29272,"lon":5.38448,"is_reserved":false,"is_disabled":false,"rental_uris":{"android":"levelo://app?vid=3df1c0df-d05a-4bea-849c-abc2e766ee95","ios":"levelo://app?vid=3df1c0df-d05a-4bea-849c-abc2e766ee95"},"vehicle_type_id":"4","last_reported":1752091906,"current_range_meters":8000,"station_id":"ce4bh692rcd13ifvqea0","pricing_plan_id":"cebpf4jnsgd1na2vs0mg"},{"bike_id":"682e9b5b-b761-4de3-aaf8-5f07d9aa59cb","system_id":"levelo_inurba_marseille","lat":43.27168,"lon":5.40998,"is_reserved":false,"is_disabled":false,"rental_uris":{"android":"levelo://app?vid=682e9b5b-b761-4de3-aaf8-5f07d9aa59cb","ios":"levelo://app?vid=682e9b5b-b761-4de3-aaf8-5f07d9aa59cb"},"vehicle_type_id":"4","last_reported":1752091906,"current_range_meters":8000,"station_id":"ce4bhl12rcd13ifvqgf0","pricing_plan_id":"cebpf4jnsgd1na2vs0mg"},{"bike_id":"ba81a38c-6064-4fc1-b7a0-195226f80302","system_id":"levelo_inurba_marseille","lat":43.26937,"lon":5.40252,"is_reserved":false,"is_disabled":false,"rental_uris":{"android":"levelo://app?vid=ba81a38c-6064-4fc1-b7a0-195226f80302","ios":"levelo://app?vid=ba81a38c-6064-4fc1-b7a0-195226f80302"},"vehicle_type_id":"4","last_reported":1752091906,"current_range_meters":8400,"station_id":"cjm6bp8fraef2m0cb0m0","pricing_plan_id":"cebpf4jnsgd1na2vs0mg"},{"bike_id":"dfe1b682-637a-43a7-a154-ee4bf060bf2f","system_id":"levelo_inurba_marseille","lat":43.29307,"lon":5.37719,"is_reserved":false,"is_disabled":false,"rental_uris":{"android":"levelo://app?vid=dfe1b682-637a-43a7-a154-ee4bf060bf2f","ios":"levelo://app?vid=dfe1b682-637a-43a7-a154-ee4bf060bf2f"},"vehicle_type_id":"4","last_reported":1752091906,"current_range_meters":8800,"station_id":"","pricing_plan_id":"cebpf4jnsgd1na2vs0mg"},{"bike_id":"34717bc7-c0c6-4f13-8161-8fdff899c67a","system_id":"levelo_inurba_marseille","lat":43.29694,"lon":5.37283,"is_reserved":false,"is_disabled":false,"rental_uris":{"android":"levelo://app?vid=34717bc7-c0c6-4f13-8161-8fdff899c67a","ios":"levelo://app?vid=34717bc7-c0c6-4f13-8161-8fdff899c67a"},"vehicle_type_id":"4","last_reported":1752091906,"current_range_meters":8800,"station_id":"ce4bgk12rcd13ifvqbj0","pricing_plan_id":"cebpf4jnsgd1na2vs0mg"},{"bike_id":"8a96c0fb-75ef-4fac-b9fe-a6f68ce5909b","system_id":"levelo_inurba_marseille","lat":43.31164,"lon":5.38717,"is_reserved":false,"is_disabled":false,"rental_uris":{"android":"levelo://app?vid=8a96c0fb-75ef-4fac-b9fe-a6f68ce5909b","ios":"levelo://app?vid=8a96c0fb-75ef-4fac-b9fe-a6f68ce5909b"},"vehicle_type_id":"4","last_reported":1752091906,"current_range_meters":8800,"station_id":"ce4bgv12rcd13ifvqcp0","pricing_plan_id":"cebpf4jnsgd1na2vs0mg"},{"bike_id":"419e3291-7f8b-44c0-9926-e4dc37e03a6a","system_id":"levelo_inurba_marseille","lat":43.27806,"lon":5.40717,"is_reserved":false,"is_disabled":false,"rental_uris":{"android":"levelo://app?vid=419e3291-7f8b-44c0-9926-e4dc37e03a6a","ios":"levelo://app?vid=419e3291-7f8b-44c0-9926-e4dc37e03a6a"},"vehicle_type_id":"4","last_reported":1752091906,"current_range_meters":8800,"station_id":"ce4bhnh2rcd13ifvqgtg","pricing_plan_id":"cebpf4jnsgd1na2vs0mg"},{"bike_id":"3030cb07-c041-4d87-a253-8c849c24aa85","system_id":"levelo_inurba_marseille","lat":43.32615,"lon":5.36224,"is_reserved":false,"is_disabled":false,"rental_uris":{"android":"levelo://app?vid=3030cb07-c041-4d87-a253-8c849c24aa85","ios":"levelo://app?vid=3030cb07-c041-4d87-a253-8c849c24aa85"},"vehicle_type_id":"4","last_reported":1752091906,"current_range_meters":9200,"station_id":"","pricing_plan_id":"cebpf4jnsgd1na2vs0mg"},{"bike_id":"0717f2f4-bbc9-4953-a5db-28a893f9a1cb","system_id":"levelo_inurba_marseille","lat":43.29928,"lon":5.36551,"is_reserved":false,"is_disabled":false,"rental_uris":{"android":"levelo://app?vid=0717f2f4-bbc9-4953-a5db-28a893f9a1cb","ios":"levelo://app?vid=0717f2f4-bbc9-4953-a5db-28a893f9a1cb"},"vehicle_type_id":"4","last_reported":1752091906,"current_range_meters":9200,"station_id":"ce4bgm92rcd13ifvqbr0","pricing_plan_id":"cebpf4jnsgd1na2vs0mg"},{"bike_id":"7f84eb8c-904c-40fa-aa57-f9874689d928","system_id":"levelo_inurba_marseille","lat":43.29585,"lon":5.36732,"is_reserved":false,"is_disabled":false,"rental_uris":{"android":"levelo://app?vid=7f84eb8c-904c-40fa-aa57-f9874689d928","ios":"levelo://app?vid=7f84eb8c-904c-40fa-aa57-f9874689d928"},"vehicle_type_id":"4","last_reported":1752091906,"current_range_meters":9200,"station_id":"ce4bgph2rcd13ifvqc2g","pricing_plan_id":"cebpf4jnsgd1na2vs0mg"},{"bike_id":"b4d289b2-81fa-4fe6-992c-75c84b6f11a4","system_id":"levelo_inurba_marseille","lat":43.29827,"lon":5.36281,"is_reserved":false,"is_disabled":false,"rental_uris":{"android":"levelo://app?vid=b4d289b2-81fa-4fe6-992c-75c84b6f11a4","ios":"levelo://app?vid=b4d289b2-81fa-4fe6-992c-75c84b6f11a4"},"vehicle_type_id":"4","last_reported":1752091906,"current_range_meters":9200,"station_id":"ce4bgpp2rcd13ifvqc3g","pricing_plan_id":"cebpf4jnsgd1na2vs0mg"},{"bike_id":"2a398f7f-dc03-4869-a522-0251455e20a5","system_id":"levelo_inurba_marseille","lat":43.29849,"lon":5.3629,"is_reserved":false,"is_disabled":false,"rental_uris":{"android":"levelo://app?vid=2a398f7f-dc03-4869-a522-0251455e20a5","ios":"levelo://app?vid=2a398f7f-dc03-4869-a522-0251455e20a5"},"vehicle_type_id":"4","last_reported":1752091906,"current_range_meters":9200,"station_id":"ce4bgpp2rcd13ifvqc3g","pricing_plan_id":"cebpf4jnsgd1na2vs0mg"},{"bike_id":"6a4dfeb7-a058-4d81-8f0b-d6a2d26e6c37","system_id":"levelo_inurba_marseille","lat":43.24545,"lon":5.39521,"is_reserved":false,"is_disabled":false,"rental_uris":{"android":"levelo://app?vid=6a4dfeb7-a058-4d81-8f0b-d6a2d26e6c37","ios":"levelo://app?vid=6a4dfeb7-a058-4d81-8f0b-d6a2d26e6c37"},"vehicle_type_id":"4","last_reported":1752091906,"current_range_meters":9200,"station_id":"ce4bhlp2rcd13ifvqgjg","pricing_plan_id":"cebpf4jnsgd1na2vs0mg"},{"bike_id":"3cf9ec73-be5b-4cc1-ab34-5c778d402477","system_id":"levelo_inurba_marseille","lat":43.309492,"lon":5.390258,"is_reserved":false,"is_disabled":false,"rental_uris":{"android":"levelo://app?vid=3cf9ec73-be5b-4cc1-ab34-5c778d402477","ios":"levelo://app?vid=3cf9ec73-be5b-4cc1-ab34-5c778d402477"},"vehicle_type_id":"4","last_reported":1752091906,"current_range_meters":9600,"station_id":"ce4bgup2rcd13ifvqco0","pricing_plan_id":"cebpf4jnsgd1na2vs0mg"},{"bike_id":"47985910-2817-4888-aa25-b90770f54d2d","system_id":"levelo_inurba_marseille","lat":43.288889,"lon":5.366472,"is_reserved":false,"is_disabled":false,"rental_uris":{"android":"levelo://app?vid=47985910-2817-4888-aa25-b90770f54d2d","ios":"levelo://app?vid=47985910-2817-4888-aa25-b90770f54d2d"},"vehicle_type_id":"4","last_reported":1752091906,"current_range_meters":9600,"station_id":"ce4bhah2rcd13ifvqej0","pricing_plan_id":"cebpf4jnsgd1na2vs0mg"},{"bike_id":"3a9a4bfd-6318-4e0f-9290-98e436895370","system_id":"levelo_inurba_marseille","lat":43.24548,"lon":5.3952,"is_reserved":false,"is_disabled":false,"rental_uris":{"android":"levelo://app?vid=3a9a4bfd-6318-4e0f-9290-98e436895370","ios":"levelo://app?vid=3a9a4bfd-6318-4e0f-9290-98e436895370"},"vehicle_type_id":"4","last_reported":1752091906,"current_range_meters":9600,"station_id":"ce4bhlp2rcd13ifvqgjg","pricing_plan_id":"cebpf4jnsgd1na2vs0mg"},{"bike_id":"d711b587-f8ad-4f24-93ca-5f89e8aac7f3","system_id":"levelo_inurba_marseille","lat":43.24164,"lon":5.36391,"is_reserved":false,"is_disabled":false,"rental_uris":{"android":"levelo://app?vid=d711b587-f8ad-4f24-93ca-5f89e8aac7f3","ios":"levelo://app?vid=d711b587-f8ad-4f24-93ca-5f89e8aac7f3"},"vehicle_type_id":"4","last_reported":1752091906,"current_range_meters":9600,"station_id":"cpo36qri1sfpv3e86is0","pricing_plan_id":"cebpf4jnsgd1na2vs0mg"},{"bike_id":"2860a59d-5730-4f81-9bb8-40d9cbb40e59","system_id":"levelo_inurba_marseille","lat":43.30782,"lon":5.37645,"is_reserved":false,"is_disabled":false,"rental_uris":{"android":"levelo://app?vid=2860a59d-5730-4f81-9bb8-40d9cbb40e59","ios":"levelo://app?vid=2860a59d-5730-4f81-9bb8-40d9cbb40e59"},"vehicle_type_id":"4","last_reported":1752091906,"current_range_meters":10000,"station_id":"ce4bgv92rcd13ifvqcq0","pricing_plan_id":"cebpf4jnsgd1na2vs0mg"},{"bike_id":"dc7c513c-98bb-4590-b385-ea555e7e2325","system_id":"levelo_inurba_marseille","lat":43.28669,"lon":5.36344,"is_reserved":false,"is_disabled":false,"rental_uris":{"android":"levelo://app?vid=dc7c513c-98bb-4590-b385-ea555e7e2325","ios":"levelo://app?vid=dc7c513c-98bb-4590-b385-ea555e7e2325"},"vehicle_type_id":"4","last_reported":1752091906,"current_range_meters":10000,"station_id":"ce4bhah2rcd13ifvqej0","pricing_plan_id":"cebpf4jnsgd1na2vs0mg"},{"bike_id":"5db44857-9ed0-4850-a05a-f2fc6bd5fa46","system_id":"levelo_inurba_marseille","lat":43.27977,"lon":5.38476,"is_reserved":false,"is_disabled":false,"rental_uris":{"android":"levelo://app?vid=5db44857-9ed0-4850-a05a-f2fc6bd5fa46","ios":"levelo://app?vid=5db44857-9ed0-4850-a05a-f2fc6bd5fa46"},"vehicle_type_id":"4","last_reported":1752091906,"current_range_meters":10800,"station_id":"","pricing_plan_id":"cebpf4jnsgd1na2vs0mg"},{"bike_id":"b5b2175b-a0a3-4706-b82f-9df93a54c45d","system_id":"levelo_inurba_marseille","lat":43.29844,"lon":5.36281,"is_reserved":false,"is_disabled":false,"rental_uris":{"android":"levelo://app?vid=b5b2175b-a0a3-4706-b82f-9df93a54c45d","ios":"levelo://app?vid=b5b2175b-a0a3-4706-b82f-9df93a54c45d"},"vehicle_type_id":"4","last_reported":1752091906,"current_range_meters":10800,"station_id":"ce4bgpp2rcd13ifvqc3g","pricing_plan_id":"cebpf4jnsgd1na2vs0mg"},{"bike_id":"667db970-196d-4630-b533-e2791d372ab5","system_id":"levelo_inurba_marseille","lat":43.30299,"lon":5.39209,"is_reserved":false,"is_disabled":false,"rental_uris":{"android":"levelo://app?vid=667db970-196d-4630-b533-e2791d372ab5","ios":"levelo://app?vid=667db970-196d-4630-b533-e2791d372ab5"},"vehicle_type_id":"4","last_reported":1752091906,"current_range_meters":11200,"station_id":"ce4bgkh2rcd13ifvqbk0","pricing_plan_id":"cebpf4jnsgd1na2vs0mg"},{"bike_id":"81cc65f1-7573-4f20-9869-391e68f5ba08","system_id":"levelo_inurba_marseille","lat":43.2951,"lon":5.37508,"is_reserved":false,"is_disabled":false,"rental_uris":{"android":"levelo://app?vid=81cc65f1-7573-4f20-9869-391e68f5ba08","ios":"levelo://app?vid=81cc65f1-7573-4f20-9869-391e68f5ba08"},"vehicle_type_id":"4","last_reported":1752091906,"current_range_meters":11200,"station_id":"ce4bgkp2rcd13ifvqbmg","pricing_plan_id":"cebpf4jnsgd1na2vs0mg"},{"bike_id":"c755e005-68e2-45aa-b9f6-b869a4f8bd0d","system_id":"levelo_inurba_marseille","lat":43.29579,"lon":5.36739,"is_reserved":false,"is_disabled":false,"rental_uris":{"android":"levelo://app?vid=c755e005-68e2-45aa-b9f6-b869a4f8bd0d","ios":"levelo://app?vid=c755e005-68e2-45aa-b9f6-b869a4f8bd0d"},"vehicle_type_id":"4","last_reported":1752091906,"current_range_meters":11200,"station_id":"ce4bgph2rcd13ifvqc2g","pricing_plan_id":"cebpf4jnsgd1na2vs0mg"},{"bike_id":"85339cdc-4037-4417-9054-e722f7e495c5","system_id":"levelo_inurba_marseille","lat":43.27365,"lon":5.36253,"is_reserved":false,"is_disabled":false,"rental_uris":{"android":"levelo://app?vid=85339cdc-4037-4417-9054-e722f7e495c5","ios":"levelo://app?vid=85339cdc-4037-4417-9054-e722f7e495c5"},"vehicle_type_id":"4","last_reported":1752091906,"current_range_meters":11200,"station_id":"ce4bhbh2rcd13ifvqeo0","pricing_plan_id":"cebpf4jnsgd1na2vs0mg"},{"bike_id":"86b9b08b-1620-4bce-b388-6a966eb11cb3","system_id":"levelo_inurba_marseille","lat":43.248087,"lon":5.374503,"is_reserved":false,"is_disabled":false,"rental_uris":{"android":"levelo://app?vid=86b9b08b-1620-4bce-b388-6a966eb11cb3","ios":"levelo://app?vid=86b9b08b-1620-4bce-b388-6a966eb11cb3"},"vehicle_type_id":"4","last_reported":1752091906,"current_range_meters":11200,"station_id":"ce4bhgh2rcd13ifvqfb0","pricing_plan_id":"cebpf4jnsgd1na2vs0mg"},{"bike_id":"84e7e709-4e4f-4764-818c-af719435bfca","system_id":"levelo_inurba_marseille","lat":43.31992,"lon":5.3725,"is_reserved":false,"is_disabled":false,"rental_uris":{"android":"levelo://app?vid=84e7e709-4e4f-4764-818c-af719435bfca","ios":"levelo://app?vid=84e7e709-4e4f-4764-818c-af719435bfca"},"vehicle_type_id":"4","last_reported":1752091906,"current_range_meters":11600,"station_id":"","pricing_plan_id":"cebpf4jnsgd1na2vs0mg"},{"bike_id":"4d54afe2-8c16-4c89-b1cb-811c1bbb1cc9","system_id":"levelo_inurba_marseille","lat":43.310782,"lon":5.38354,"is_reserved":false,"is_disabled":false,"rental_uris":{"android":"levelo://app?vid=4d54afe2-8c16-4c89-b1cb-811c1bbb1cc9","ios":"levelo://app?vid=4d54afe2-8c16-4c89-b1cb-811c1bbb1cc9"},"vehicle_type_id":"4","last_reported":1752091906,"current_range_meters":11600,"station_id":"","pricing_plan_id":"cebpf4jnsgd1na2vs0mg"},{"bike_id":"957c9fd8-60ec-435e-a220-a477e3b473e9","system_id":"levelo_inurba_marseille","lat":43.28928,"lon":5.38384,"is_reserved":false,"is_disabled":false,"rental_uris":{"android":"levelo://app?vid=957c9fd8-60ec-435e-a220-a477e3b473e9","ios":"levelo://app?vid=957c9fd8-60ec-435e-a220-a477e3b473e9"},"vehicle_type_id":"4","last_reported":1752091906,"current_range_meters":11600,"station_id":"ce4bh612rcd13ifvqe6g","pricing_plan_id":"cebpf4jnsgd1na2vs0mg"},{"bike_id":"b03698a4-2414-4a6a-8a8e-7a3066d44e1c","system_id":"levelo_inurba_marseille","lat":43.26012,"lon":5.41749,"is_reserved":false,"is_disabled":false,"rental_uris":{"android":"levelo://app?vid=b03698a4-2414-4a6a-8a8e-7a3066d44e1c","ios":"levelo://app?vid=b03698a4-2414-4a6a-8a8e-7a3066d44e1c"},"vehicle_type_id":"4","last_reported":1752091906,"current_range_meters":12000,"station_id":"","pricing_plan_id":"cebpf4jnsgd1na2vs0mg"},{"bike_id":"f573a8fb-f1f8-47c4-901e-ddf2739a5cca","system_id":"levelo_inurba_marseille","lat":43.36009,"lon":5.32506,"is_reserved":false,"is_disabled":false,"rental_uris":{"android":"levelo://app?vid=f573a8fb-f1f8-47c4-901e-ddf2739a5cca","ios":"levelo://app?vid=f573a8fb-f1f8-47c4-901e-ddf2739a5cca"},"vehicle_type_id":"4","last_reported":1752091906,"current_range_meters":12000,"station_id":"","pricing_plan_id":"cebpf4jnsgd1na2vs0mg"},{"bike_id":"c2b72fe0-bae6-4c7b-ad48-9e771b203dc8","system_id":"levelo_inurba_marseille","lat":43.31371,"lon":5.38446,"is_reserved":false,"is_disabled":false,"rental_uris":{"android":"levelo://app?vid=c2b72fe0-bae6-4c7b-ad48-9e771b203dc8","ios":"levelo://app?vid=c2b72fe0-bae6-4c7b-ad48-9e771b203dc8"},"vehicle_type_id":"4","last_reported":1752091906,"current_range_meters":12000,"station_id":"ce4bgt92rcd13ifvqcf0","pricing_plan_id":"cebpf4jnsgd1na2vs0mg"},{"bike_id":"04fab7d7-e7c6-43bb-bcc7-594e1b20303e","system_id":"levelo_inurba_marseille","lat":43.31534,"lon":5.38015,"is_reserved":false,"is_disabled":false,"rental_uris":{"android":"levelo://app?vid=04fab7d7-e7c6-43bb-bcc7-594e1b20303e","ios":"levelo://app?vid=04fab7d7-e7c6-43bb-bcc7-594e1b20303e"},"vehicle_type_id":"4","last_reported":1752091906,"current_range_meters":12000,"station_id":"ce4bhsp2rcd13ifvqi50","pricing_plan_id":"cebpf4jnsgd1na2vs0mg"},{"bike_id":"53919a90-267a-4543-85c6-768e0b2f13d8","system_id":"levelo_inurba_marseille","lat":43.24175,"lon":5.36405,"is_reserved":false,"is_disabled":false,"rental_uris":{"android":"levelo://app?vid=53919a90-267a-4543-85c6-768e0b2f13d8","ios":"levelo://app?vid=53919a90-267a-4543-85c6-768e0b2f13d8"},"vehicle_type_id":"4","last_reported":1752091906,"current_range_meters":12000,"station_id":"cpo36qri1sfpv3e86is0","pricing_plan_id":"cebpf4jnsgd1na2vs0mg"},{"bike_id":"4975b22d-8c48-452f-bd19-7a9d3ed7c378","system_id":"levelo_inurba_marseille","lat":43.29676,"lon":5.37424,"is_reserved":false,"is_disabled":false,"rental_uris":{"android":"levelo://app?vid=4975b22d-8c48-452f-bd19-7a9d3ed7c378","ios":"levelo://app?vid=4975b22d-8c48-452f-bd19-7a9d3ed7c378"},"vehicle_type_id":"4","last_reported":1752091906,"current_range_meters":12800,"station_id":"","pricing_plan_id":"cebpf4jnsgd1na2vs0mg"},{"bike_id":"36e76314-fa80-4485-b447-fece7dc5466f","system_id":"levelo_inurba_marseille","lat":43.290313,"lon":5.386482,"is_reserved":false,"is_disabled":false,"rental_uris":{"android":"levelo://app?vid=36e76314-fa80-4485-b447-fece7dc5466f","ios":"levelo://app?vid=36e76314-fa80-4485-b447-fece7dc5466f"},"vehicle_type_id":"4","last_reported":1752091906,"current_range_meters":12800,"station_id":"ce4bh4p2rcd13ifvqe0g","pricing_plan_id":"cebpf4jnsgd1na2vs0mg"},{"bike_id":"c514ad25-b83c-4d10-a595-57ae5a32aef4","system_id":"levelo_inurba_marseille","lat":43.22936,"lon":5.35372,"is_reserved":false,"is_disabled":false,"rental_uris":{"android":"levelo://app?vid=c514ad25-b83c-4d10-a595-57ae5a32aef4","ios":"levelo://app?vid=c514ad25-b83c-4d10-a595-57ae5a32aef4"},"vehicle_type_id":"4","last_reported":1752091906,"current_range_meters":12800,"station_id":"cpo3532slgdg3j2ikp40","pricing_plan_id":"cebpf4jnsgd1na2vs0mg"},{"bike_id":"d40cbb38-5376-4c32-8b44-5ac54a6ebccc","system_id":"levelo_inurba_marseille","lat":43.29816,"lon":5.36271,"is_reserved":false,"is_disabled":false,"rental_uris":{"android":"levelo://app?vid=d40cbb38-5376-4c32-8b44-5ac54a6ebccc","ios":"levelo://app?vid=d40cbb38-5376-4c32-8b44-5ac54a6ebccc"},"vehicle_type_id":"4","last_reported":1752091906,"current_range_meters":13600,"station_id":"ce4bgpp2rcd13ifvqc3g","pricing_plan_id":"cebpf4jnsgd1na2vs0mg"},{"bike_id":"b2caa530-bb19-4cc6-a6bd-61e3e1d7432e","system_id":"levelo_inurba_marseille","lat":43.33763,"lon":5.37461,"is_reserved":false,"is_disabled":false,"rental_uris":{"android":"levelo://app?vid=b2caa530-bb19-4cc6-a6bd-61e3e1d7432e","ios":"levelo://app?vid=b2caa530-bb19-4cc6-a6bd-61e3e1d7432e"},"vehicle_type_id":"4","last_reported":1752091906,"current_range_meters":14000,"station_id":"","pricing_plan_id":"cebpf4jnsgd1na2vs0mg"},{"bike_id":"93d6be08-2471-48d7-9948-c35dc9626201","system_id":"levelo_inurba_marseille","lat":43.31714,"lon":5.37647,"is_reserved":false,"is_disabled":false,"rental_uris":{"android":"levelo://app?vid=93d6be08-2471-48d7-9948-c35dc9626201","ios":"levelo://app?vid=93d6be08-2471-48d7-9948-c35dc9626201"},"vehicle_type_id":"4","last_reported":1752091906,"current_range_meters":14000,"station_id":"","pricing_plan_id":"cebpf4jnsgd1na2vs0mg"},{"bike_id":"f5c16f07-bc6f-4121-91a7-5ad90eec4f34","system_id":"levelo_inurba_marseille","lat":43.31182,"lon":5.37314,"is_reserved":false,"is_disabled":false,"rental_uris":{"android":"levelo://app?vid=f5c16f07-bc6f-4121-91a7-5ad90eec4f34","ios":"levelo://app?vid=f5c16f07-bc6f-4121-91a7-5ad90eec4f34"},"vehicle_type_id":"4","last_reported":1752091906,"current_range_meters":14000,"station_id":"","pricing_plan_id":"cebpf4jnsgd1na2vs0mg"},{"bike_id":"4ce069a8-d7d3-4997-8f58-36f2380354c5","system_id":"levelo_inurba_marseille","lat":43.30882,"lon":5.37192,"is_reserved":false,"is_disabled":false,"rental_uris":{"android":"levelo://app?vid=4ce069a8-d7d3-4997-8f58-36f2380354c5","ios":"levelo://app?vid=4ce069a8-d7d3-4997-8f58-36f2380354c5"},"vehicle_type_id":"4","last_reported":1752091906,"current_range_meters":14000,"station_id":"ce4bguh2rcd13ifvqckg","pricing_plan_id":"cebpf4jnsgd1na2vs0mg"},{"bike_id":"ec8c5aa7-4afc-40cc-acaa-a813d13c4c09","system_id":"levelo_inurba_marseille","lat":43.29883,"lon":5.38891,"is_reserved":false,"is_disabled":false,"rental_uris":{"android":"levelo://app?vid=ec8c5aa7-4afc-40cc-acaa-a813d13c4c09","ios":"levelo://app?vid=ec8c5aa7-4afc-40cc-acaa-a813d13c4c09"},"vehicle_type_id":"4","last_reported":1752091906,"current_range_meters":14000,"station_id":"ce4bh392rcd13ifvqdl0","pricing_plan_id":"cebpf4jnsgd1na2vs0mg"},{"bike_id":"449ed129-2f06-47da-936f-6e63a3609258","system_id":"levelo_inurba_marseille","lat":43.23187,"lon":5.35546,"is_reserved":false,"is_disabled":false,"rental_uris":{"android":"levelo://app?vid=449ed129-2f06-47da-936f-6e63a3609258","ios":"levelo://app?vid=449ed129-2f06-47da-936f-6e63a3609258"},"vehicle_type_id":"4","last_reported":1752091906,"current_range_meters":14000,"station_id":"ce4bhu92rcd13ifvqi70","pricing_plan_id":"cebpf4jnsgd1na2vs0mg"},{"bike_id":"b6d9b946-f66a-4c6f-96e5-5d23e176360c","system_id":"levelo_inurba_marseille","lat":43.31315,"lon":5.38172,"is_reserved":false,"is_disabled":false,"rental_uris":{"android":"levelo://app?vid=b6d9b946-f66a-4c6f-96e5-5d23e176360c","ios":"levelo://app?vid=b6d9b946-f66a-4c6f-96e5-5d23e176360c"},"vehicle_type_id":"4","last_reported":1752091906,"current_range_meters":14400,"station_id":"","pricing_plan_id":"cebpf4jnsgd1na2vs0mg"},{"bike_id":"b757ffbb-2b71-4330-9f60-5f8a9d46d16e","system_id":"levelo_inurba_marseille","lat":43.29662,"lon":5.37116,"is_reserved":false,"is_disabled":false,"rental_uris":{"android":"levelo://app?vid=b757ffbb-2b71-4330-9f60-5f8a9d46d16e","ios":"levelo://app?vid=b757ffbb-2b71-4330-9f60-5f8a9d46d16e"},"vehicle_type_id":"4","last_reported":1752091906,"current_range_meters":14400,"station_id":"","pricing_plan_id":"cebpf4jnsgd1na2vs0mg"},{"bike_id":"b353c41f-ea74-4754-abc8-403d1384eeb3","system_id":"levelo_inurba_marseille","lat":43.298324,"lon":5.362942,"is_reserved":false,"is_disabled":false,"rental_uris":{"android":"levelo://app?vid=b353c41f-ea74-4754-abc8-403d1384eeb3","ios":"levelo://app?vid=b353c41f-ea74-4754-abc8-403d1384eeb3"},"vehicle_type_id":"4","last_reported":1752091906,"current_range_meters":14400,"station_id":"ce4bgpp2rcd13ifvqc3g","pricing_plan_id":"cebpf4jnsgd1na2vs0mg"},{"bike_id":"b789bf5f-2cad-4b42-911f-af7f1aa516cd","system_id":"levelo_inurba_marseille","lat":43.29413,"lon":5.38609,"is_reserved":false,"is_disabled":false,"rental_uris":{"android":"levelo://app?vid=b789bf5f-2cad-4b42-911f-af7f1aa516cd","ios":"levelo://app?vid=b789bf5f-2cad-4b42-911f-af7f1aa516cd"},"vehicle_type_id":"4","last_reported":1752091906,"current_range_meters":14400,"station_id":"ce4bh2h2rcd13ifvqdh0","pricing_plan_id":"cebpf4jnsgd1na2vs0mg"},{"bike_id":"83a9844c-3869-48bb-8653-e97b488065b6","system_id":"levelo_inurba_marseille","lat":43.27364,"lon":5.362502,"is_reserved":false,"is_disabled":false,"rental_uris":{"android":"levelo://app?vid=83a9844c-3869-48bb-8653-e97b488065b6","ios":"levelo://app?vid=83a9844c-3869-48bb-8653-e97b488065b6"},"vehicle_type_id":"4","last_reported":1752091906,"current_range_meters":14400,"station_id":"ce4bhbh2rcd13ifvqeo0","pricing_plan_id":"cebpf4jnsgd1na2vs0mg"},{"bike_id":"6e5c2657-ccb8-4153-8b94-2143bc427a03","system_id":"levelo_inurba_marseille","lat":43.225,"lon":5.34776,"is_reserved":false,"is_disabled":false,"rental_uris":{"android":"levelo://app?vid=6e5c2657-ccb8-4153-8b94-2143bc427a03","ios":"levelo://app?vid=6e5c2657-ccb8-4153-8b94-2143bc427a03"},"vehicle_type_id":"4","last_reported":1752091906,"current_range_meters":14400,"station_id":"st_cvj5dfep6f1abm77gieg","pricing_plan_id":"cebpf4jnsgd1na2vs0mg"},{"bike_id":"430167f3-0b1b-46ce-ab53-df9da93c2bd5","system_id":"levelo_inurba_marseille","lat":43.29819,"lon":5.36219,"is_reserved":false,"is_disabled":false,"rental_uris":{"android":"levelo://app?vid=430167f3-0b1b-46ce-ab53-df9da93c2bd5","ios":"levelo://app?vid=430167f3-0b1b-46ce-ab53-df9da93c2bd5"},"vehicle_type_id":"4","last_reported":1752091906,"current_range_meters":14800,"station_id":"","pricing_plan_id":"cebpf4jnsgd1na2vs0mg"},{"bike_id":"a36d0f0b-1d61-451b-8128-72e7a76cb801","system_id":"levelo_inurba_marseille","lat":43.29841,"lon":5.36283,"is_reserved":false,"is_disabled":false,"rental_uris":{"android":"levelo://app?vid=a36d0f0b-1d61-451b-8128-72e7a76cb801","ios":"levelo://app?vid=a36d0f0b-1d61-451b-8128-72e7a76cb801"},"vehicle_type_id":"4","last_reported":1752091906,"current_range_meters":14800,"station_id":"ce4bgpp2rcd13ifvqc3g","pricing_plan_id":"cebpf4jnsgd1na2vs0mg"},{"bike_id":"cd241c9c-2798-4e9f-bea8-0a3722bddbc3","system_id":"levelo_inurba_marseille","lat":43.26934,"lon":5.40257,"is_reserved":false,"is_disabled":false,"rental_uris":{"android":"levelo://app?vid=cd241c9c-2798-4e9f-bea8-0a3722bddbc3","ios":"levelo://app?vid=cd241c9c-2798-4e9f-bea8-0a3722bddbc3"},"vehicle_type_id":"4","last_reported":1752091906,"current_range_meters":14800,"station_id":"cjm6bp8fraef2m0cb0m0","pricing_plan_id":"cebpf4jnsgd1na2vs0mg"},{"bike_id":"1be39311-cfa5-4cbb-b93d-fb0870d6e611","system_id":"levelo_inurba_marseille","lat":43.21199,"lon":5.35102,"is_reserved":false,"is_disabled":false,"rental_uris":{"android":"levelo://app?vid=1be39311-cfa5-4cbb-b93d-fb0870d6e611","ios":"levelo://app?vid=1be39311-cfa5-4cbb-b93d-fb0870d6e611"},"vehicle_type_id":"4","last_reported":1752091906,"current_range_meters":14800,"station_id":"st_cvj6sg6p6f1abm77japg","pricing_plan_id":"cebpf4jnsgd1na2vs0mg"},{"bike_id":"917c1e3f-5b8d-42a7-9e04-b84d565f7d14","system_id":"levelo_inurba_marseille","lat":43.2928,"lon":5.36839,"is_reserved":false,"is_disabled":false,"rental_uris":{"android":"levelo://app?vid=917c1e3f-5b8d-42a7-9e04-b84d565f7d14","ios":"levelo://app?vid=917c1e3f-5b8d-42a7-9e04-b84d565f7d14"},"vehicle_type_id":"4","last_reported":1752091906,"current_range_meters":15200,"station_id":"","pricing_plan_id":"cebpf4jnsgd1na2vs0mg"},{"bike_id":"75d3b45d-81e0-4cf5-838f-651dccc5c36e","system_id":"levelo_inurba_marseille","lat":43.30602,"lon":5.37217,"is_reserved":false,"is_disabled":false,"rental_uris":{"android":"levelo://app?vid=75d3b45d-81e0-4cf5-838f-651dccc5c36e","ios":"levelo://app?vid=75d3b45d-81e0-4cf5-838f-651dccc5c36e"},"vehicle_type_id":"4","last_reported":1752091906,"current_range_meters":15200,"station_id":"ce4bgqh2rcd13ifvqc4g","pricing_plan_id":"cebpf4jnsgd1na2vs0mg"},{"bike_id":"b2f5ef92-03ba-4e0d-ab3d-784090c7b3eb","system_id":"levelo_inurba_marseille","lat":43.31987,"lon":5.38159,"is_reserved":false,"is_disabled":false,"rental_uris":{"android":"levelo://app?vid=b2f5ef92-03ba-4e0d-ab3d-784090c7b3eb","ios":"levelo://app?vid=b2f5ef92-03ba-4e0d-ab3d-784090c7b3eb"},"vehicle_type_id":"4","last_reported":1752091906,"current_range_meters":15200,"station_id":"ce4bhr12rcd13ifvqhpg","pricing_plan_id":"cebpf4jnsgd1na2vs0mg"},{"bike_id":"29ce6995-f0a4-4687-ba62-206c3a8f7a7f","system_id":"levelo_inurba_marseille","lat":43.24167,"lon":5.36386,"is_reserved":false,"is_disabled":false,"rental_uris":{"android":"levelo://app?vid=29ce6995-f0a4-4687-ba62-206c3a8f7a7f","ios":"levelo://app?vid=29ce6995-f0a4-4687-ba62-206c3a8f7a7f"},"vehicle_type_id":"4","last_reported":1752091906,"current_range_meters":15200,"station_id":"cpo36qri1sfpv3e86is0","pricing_plan_id":"cebpf4jnsgd1na2vs0mg"},{"bike_id":"320f2a33-deaa-4e0a-a3d5-c39ce8ad680a","system_id":"levelo_inurba_marseille","lat":43.31564,"lon":5.37445,"is_reserved":false,"is_disabled":false,"rental_uris":{"android":"levelo://app?vid=320f2a33-deaa-4e0a-a3d5-c39ce8ad680a","ios":"levelo://app?vid=320f2a33-deaa-4e0a-a3d5-c39ce8ad680a"},"vehicle_type_id":"4","last_reported":1752091906,"current_range_meters":16000,"station_id":"","pricing_plan_id":"cebpf4jnsgd1na2vs0mg"},{"bike_id":"4a69cd1c-a9bd-4bb6-b294-335eb9c2ac5d","system_id":"levelo_inurba_marseille","lat":43.266865,"lon":5.382016,"is_reserved":false,"is_disabled":false,"rental_uris":{"android":"levelo://app?vid=4a69cd1c-a9bd-4bb6-b294-335eb9c2ac5d","ios":"levelo://app?vid=4a69cd1c-a9bd-4bb6-b294-335eb9c2ac5d"},"vehicle_type_id":"4","last_reported":1752091906,"current_range_meters":16000,"station_id":"","pricing_plan_id":"cebpf4jnsgd1na2vs0mg"},{"bike_id":"91828ce3-3c2e-42f4-8cdb-398219522ac1","system_id":"levelo_inurba_marseille","lat":43.27628,"lon":5.36098,"is_reserved":false,"is_disabled":false,"rental_uris":{"android":"levelo://app?vid=91828ce3-3c2e-42f4-8cdb-398219522ac1","ios":"levelo://app?vid=91828ce3-3c2e-42f4-8cdb-398219522ac1"},"vehicle_type_id":"4","last_reported":1752091906,"current_range_meters":16000,"station_id":"ce4bgj92rcd13ifvqbe0","pricing_plan_id":"cebpf4jnsgd1na2vs0mg"},{"bike_id":"84d20852-2b20-4e8c-a22c-3f7df165829d","system_id":"levelo_inurba_marseille","lat":43.28933,"lon":5.36632,"is_reserved":false,"is_disabled":false,"rental_uris":{"android":"levelo://app?vid=84d20852-2b20-4e8c-a22c-3f7df165829d","ios":"levelo://app?vid=84d20852-2b20-4e8c-a22c-3f7df165829d"},"vehicle_type_id":"4","last_reported":1752091906,"current_range_meters":16000,"station_id":"ce4bhap2rcd13ifvqek0","pricing_plan_id":"cebpf4jnsgd1na2vs0mg"},{"bike_id":"b9aad953-9bed-4824-834b-f3f50fd8c58d","system_id":"levelo_inurba_marseille","lat":43.284159,"lon":5.349939,"is_reserved":false,"is_disabled":false,"rental_uris":{"android":"levelo://app?vid=b9aad953-9bed-4824-834b-f3f50fd8c58d","ios":"levelo://app?vid=b9aad953-9bed-4824-834b-f3f50fd8c58d"},"vehicle_type_id":"4","last_reported":1752091906,"current_range_meters":16000,"station_id":"ce4bhbh2rcd13ifvqepg","pricing_plan_id":"cebpf4jnsgd1na2vs0mg"},{"bike_id":"68baba8b-1ce6-419d-82a8-b75da3e9856c","system_id":"levelo_inurba_marseille","lat":43.24801,"lon":5.37477,"is_reserved":false,"is_disabled":false,"rental_uris":{"android":"levelo://app?vid=68baba8b-1ce6-419d-82a8-b75da3e9856c","ios":"levelo://app?vid=68baba8b-1ce6-419d-82a8-b75da3e9856c"},"vehicle_type_id":"4","last_reported":1752091906,"current_range_meters":16000,"station_id":"ce4bhgh2rcd13ifvqfb0","pricing_plan_id":"cebpf4jnsgd1na2vs0mg"},{"bike_id":"23210e1a-5174-4d90-979a-f335537cdfee","system_id":"levelo_inurba_marseille","lat":43.29709,"lon":5.36599,"is_reserved":false,"is_disabled":false,"rental_uris":{"android":"levelo://app?vid=23210e1a-5174-4d90-979a-f335537cdfee","ios":"levelo://app?vid=23210e1a-5174-4d90-979a-f335537cdfee"},"vehicle_type_id":"4","last_reported":1752091906,"current_range_meters":16400,"station_id":"ce4bgn12rcd13ifvqbt0","pricing_plan_id":"cebpf4jnsgd1na2vs0mg"},{"bike_id":"8170178b-9ff4-4d8d-91ed-567d861e6b6a","system_id":"levelo_inurba_marseille","lat":43.29838,"lon":5.36289,"is_reserved":false,"is_disabled":false,"rental_uris":{"android":"levelo://app?vid=8170178b-9ff4-4d8d-91ed-567d861e6b6a","ios":"levelo://app?vid=8170178b-9ff4-4d8d-91ed-567d861e6b6a"},"vehicle_type_id":"4","last_reported":1752091906,"current_range_meters":16400,"station_id":"ce4bgpp2rcd13ifvqc3g","pricing_plan_id":"cebpf4jnsgd1na2vs0mg"},{"bike_id":"367485b7-87d1-4616-a7ee-358054e3543b","system_id":"levelo_inurba_marseille","lat":43.27371,"lon":5.36265,"is_reserved":false,"is_disabled":false,"rental_uris":{"android":"levelo://app?vid=367485b7-87d1-4616-a7ee-358054e3543b","ios":"levelo://app?vid=367485b7-87d1-4616-a7ee-358054e3543b"},"vehicle_type_id":"4","last_reported":1752091906,"current_range_meters":16400,"station_id":"ce4bhbh2rcd13ifvqeo0","pricing_plan_id":"cebpf4jnsgd1na2vs0mg"},{"bike_id":"2a2c2ba3-f4e7-4476-b21e-559d75857b71","system_id":"levelo_inurba_marseille","lat":43.27075,"lon":5.42288,"is_reserved":false,"is_disabled":false,"rental_uris":{"android":"levelo://app?vid=2a2c2ba3-f4e7-4476-b21e-559d75857b71","ios":"levelo://app?vid=2a2c2ba3-f4e7-4476-b21e-559d75857b71"},"vehicle_type_id":"4","last_reported":1752091906,"current_range_meters":16400,"station_id":"ce4bhk92rcd13ifvqgb0","pricing_plan_id":"cebpf4jnsgd1na2vs0mg"},{"bike_id":"7dd4258d-8fe1-466b-bba8-036a896c4262","system_id":"levelo_inurba_marseille","lat":43.23168,"lon":5.35603,"is_reserved":false,"is_disabled":false,"rental_uris":{"android":"levelo://app?vid=7dd4258d-8fe1-466b-bba8-036a896c4262","ios":"levelo://app?vid=7dd4258d-8fe1-466b-bba8-036a896c4262"},"vehicle_type_id":"4","last_reported":1752091906,"current_range_meters":16400,"station_id":"ce4bhu92rcd13ifvqi70","pricing_plan_id":"cebpf4jnsgd1na2vs0mg"},{"bike_id":"0fa48bc3-8e35-4e88-b5e6-8eec63c1e163","system_id":"levelo_inurba_marseille","lat":43.28042,"lon":5.36949,"is_reserved":false,"is_disabled":false,"rental_uris":{"android":"levelo://app?vid=0fa48bc3-8e35-4e88-b5e6-8eec63c1e163","ios":"levelo://app?vid=0fa48bc3-8e35-4e88-b5e6-8eec63c1e163"},"vehicle_type_id":"4","last_reported":1752091906,"current_range_meters":16800,"station_id":"ce4bha12rcd13ifvqef0","pricing_plan_id":"cebpf4jnsgd1na2vs0mg"},{"bike_id":"1ee3caf5-59c2-452b-913a-5b7e597c4fb3","system_id":"levelo_inurba_marseille","lat":43.27367,"lon":5.36234,"is_reserved":false,"is_disabled":false,"rental_uris":{"android":"levelo://app?vid=1ee3caf5-59c2-452b-913a-5b7e597c4fb3","ios":"levelo://app?vid=1ee3caf5-59c2-452b-913a-5b7e597c4fb3"},"vehicle_type_id":"4","last_reported":1752091906,"current_range_meters":16800,"station_id":"ce4bhbh2rcd13ifvqeo0","pricing_plan_id":"cebpf4jnsgd1na2vs0mg"},{"bike_id":"63069c05-defb-4201-9f1d-58ce40c0447c","system_id":"levelo_inurba_marseille","lat":43.25501,"lon":5.37649,"is_reserved":false,"is_disabled":false,"rental_uris":{"android":"levelo://app?vid=63069c05-defb-4201-9f1d-58ce40c0447c","ios":"levelo://app?vid=63069c05-defb-4201-9f1d-58ce40c0447c"},"vehicle_type_id":"4","last_reported":1752091906,"current_range_meters":16800,"station_id":"ce4bhh12rcd13ifvqff0","pricing_plan_id":"cebpf4jnsgd1na2vs0mg"},{"bike_id":"36c387ea-be50-4028-8ecc-21605fe3e879","system_id":"levelo_inurba_marseille","lat":43.29359,"lon":5.42863,"is_reserved":false,"is_disabled":false,"rental_uris":{"android":"levelo://app?vid=36c387ea-be50-4028-8ecc-21605fe3e879","ios":"levelo://app?vid=36c387ea-be50-4028-8ecc-21605fe3e879"},"vehicle_type_id":"4","last_reported":1752091906,"current_range_meters":17200,"station_id":"","pricing_plan_id":"cebpf4jnsgd1na2vs0mg"},{"bike_id":"feaa7e3a-cbe4-4489-be11-8a12d7eec173","system_id":"levelo_inurba_marseille","lat":43.25174,"lon":5.42493,"is_reserved":false,"is_disabled":false,"rental_uris":{"android":"levelo://app?vid=feaa7e3a-cbe4-4489-be11-8a12d7eec173","ios":"levelo://app?vid=feaa7e3a-cbe4-4489-be11-8a12d7eec173"},"vehicle_type_id":"4","last_reported":1752091906,"current_range_meters":17200,"station_id":"","pricing_plan_id":"cebpf4jnsgd1na2vs0mg"},{"bike_id":"d55fd1a7-1cd7-4acd-90f9-e0e142dda3b0","system_id":"levelo_inurba_marseille","lat":43.29836,"lon":5.36269,"is_reserved":false,"is_disabled":false,"rental_uris":{"android":"levelo://app?vid=d55fd1a7-1cd7-4acd-90f9-e0e142dda3b0","ios":"levelo://app?vid=d55fd1a7-1cd7-4acd-90f9-e0e142dda3b0"},"vehicle_type_id":"4","last_reported":1752091906,"current_range_meters":17200,"station_id":"ce4bgpp2rcd13ifvqc3g","pricing_plan_id":"cebpf4jnsgd1na2vs0mg"},{"bike_id":"ddbd51e0-f795-465c-9127-73bba304e469","system_id":"levelo_inurba_marseille","lat":43.29852,"lon":5.36267,"is_reserved":false,"is_disabled":false,"rental_uris":{"android":"levelo://app?vid=ddbd51e0-f795-465c-9127-73bba304e469","ios":"levelo://app?vid=ddbd51e0-f795-465c-9127-73bba304e469"},"vehicle_type_id":"4","last_reported":1752091906,"current_range_meters":17200,"station_id":"ce4bgpp2rcd13ifvqc3g","pricing_plan_id":"cebpf4jnsgd1na2vs0mg"},{"bike_id":"bb3f82b1-82f9-48bb-890e-0765d480a647","system_id":"levelo_inurba_marseille","lat":43.28355,"lon":5.38098,"is_reserved":false,"is_disabled":false,"rental_uris":{"android":"levelo://app?vid=bb3f82b1-82f9-48bb-890e-0765d480a647","ios":"levelo://app?vid=bb3f82b1-82f9-48bb-890e-0765d480a647"},"vehicle_type_id":"4","last_reported":1752091906,"current_range_meters":17200,"station_id":"ce4bh412rcd13ifvqdr0","pricing_plan_id":"cebpf4jnsgd1na2vs0mg"},{"bike_id":"208b1f81-7d2b-4f4c-b1ff-37c45f720262","system_id":"levelo_inurba_marseille","lat":43.28661,"lon":5.36345,"is_reserved":false,"is_disabled":false,"rental_uris":{"android":"levelo://app?vid=208b1f81-7d2b-4f4c-b1ff-37c45f720262","ios":"levelo://app?vid=208b1f81-7d2b-4f4c-b1ff-37c45f720262"},"vehicle_type_id":"4","last_reported":1752091906,"current_range_meters":17200,"station_id":"ce4bhah2rcd13ifvqej0","pricing_plan_id":"cebpf4jnsgd1na2vs0mg"},{"bike_id":"f317e926-256f-4d08-9c9f-da826b354f1d","system_id":"levelo_inurba_marseille","lat":43.28929,"lon":5.36632,"is_reserved":false,"is_disabled":false,"rental_uris":{"android":"levelo://app?vid=f317e926-256f-4d08-9c9f-da826b354f1d","ios":"levelo://app?vid=f317e926-256f-4d08-9c9f-da826b354f1d"},"vehicle_type_id":"4","last_reported":1752091906,"current_range_meters":17200,"station_id":"ce4bhap2rcd13ifvqek0","pricing_plan_id":"cebpf4jnsgd1na2vs0mg"},{"bike_id":"3c2be974-f10a-47a0-ae30-b9e120db49ce","system_id":"levelo_inurba_marseille","lat":43.25483,"lon":5.37659,"is_reserved":false,"is_disabled":false,"rental_uris":{"android":"levelo://app?vid=3c2be974-f10a-47a0-ae30-b9e120db49ce","ios":"levelo://app?vid=3c2be974-f10a-47a0-ae30-b9e120db49ce"},"vehicle_type_id":"4","last_reported":1752091906,"current_range_meters":17200,"station_id":"ce4bhh12rcd13ifvqff0","pricing_plan_id":"cebpf4jnsgd1na2vs0mg"},{"bike_id":"ccc07c80-a21e-4758-9b6e-7a892dd6155c","system_id":"levelo_inurba_marseille","lat":43.25728,"lon":5.41102,"is_reserved":false,"is_disabled":false,"rental_uris":{"android":"levelo://app?vid=ccc07c80-a21e-4758-9b6e-7a892dd6155c","ios":"levelo://app?vid=ccc07c80-a21e-4758-9b6e-7a892dd6155c"},"vehicle_type_id":"4","last_reported":1752091906,"current_range_meters":17200,"station_id":"ce4bhkp2rcd13ifvqgd0","pricing_plan_id":"cebpf4jnsgd1na2vs0mg"},{"bike_id":"23701682-690f-4425-a3d2-8f4361a4f088","system_id":"levelo_inurba_marseille","lat":43.25121,"lon":5.40317,"is_reserved":false,"is_disabled":false,"rental_uris":{"android":"levelo://app?vid=23701682-690f-4425-a3d2-8f4361a4f088","ios":"levelo://app?vid=23701682-690f-4425-a3d2-8f4361a4f088"},"vehicle_type_id":"4","last_reported":1752091906,"current_range_meters":17200,"station_id":"ce4bhlh2rcd13ifvqgig","pricing_plan_id":"cebpf4jnsgd1na2vs0mg"},{"bike_id":"87d13c3c-9453-4492-8a8f-f2b4c8e828c6","system_id":"levelo_inurba_marseille","lat":43.26177,"lon":5.37049,"is_reserved":false,"is_disabled":false,"rental_uris":{"android":"levelo://app?vid=87d13c3c-9453-4492-8a8f-f2b4c8e828c6","ios":"levelo://app?vid=87d13c3c-9453-4492-8a8f-f2b4c8e828c6"},"vehicle_type_id":"4","last_reported":1752091906,"current_range_meters":17600,"station_id":"","pricing_plan_id":"cebpf4jnsgd1na2vs0mg"},{"bike_id":"ffa315fe-c57f-4f4a-9002-c7fbfa5de94b","system_id":"levelo_inurba_marseille","lat":43.294233,"lon":5.382025,"is_reserved":false,"is_disabled":false,"rental_uris":{"android":"levelo://app?vid=ffa315fe-c57f-4f4a-9002-c7fbfa5de94b","ios":"levelo://app?vid=ffa315fe-c57f-4f4a-9002-c7fbfa5de94b"},"vehicle_type_id":"4","last_reported":1752091906,"current_range_meters":17600,"station_id":"ce4bgj92rcd13ifvqbd0","pricing_plan_id":"cebpf4jnsgd1na2vs0mg"},{"bike_id":"1b26abc8-b8fe-4e9b-b83b-27143047f377","system_id":"levelo_inurba_marseille","lat":43.29912,"lon":5.37479,"is_reserved":false,"is_disabled":false,"rental_uris":{"android":"levelo://app?vid=1b26abc8-b8fe-4e9b-b83b-27143047f377","ios":"levelo://app?vid=1b26abc8-b8fe-4e9b-b83b-27143047f377"},"vehicle_type_id":"4","last_reported":1752091906,"current_range_meters":17600,"station_id":"ce4bgjh2rcd13ifvqbg0","pricing_plan_id":"cebpf4jnsgd1na2vs0mg"},{"bike_id":"b9324aff-c1f0-4d69-8eb7-ff77949cddef","system_id":"levelo_inurba_marseille","lat":43.29539,"lon":5.36584,"is_reserved":false,"is_disabled":false,"rental_uris":{"android":"levelo://app?vid=b9324aff-c1f0-4d69-8eb7-ff77949cddef","ios":"levelo://app?vid=b9324aff-c1f0-4d69-8eb7-ff77949cddef"},"vehicle_type_id":"4","last_reported":1752091906,"current_range_meters":17600,"station_id":"ce4bgph2rcd13ifvqc2g","pricing_plan_id":"cebpf4jnsgd1na2vs0mg"},{"bike_id":"44524ba1-d16c-41a7-a4bd-e7ee395d7c81","system_id":"levelo_inurba_marseille","lat":43.29848,"lon":5.36277,"is_reserved":false,"is_disabled":false,"rental_uris":{"android":"levelo://app?vid=44524ba1-d16c-41a7-a4bd-e7ee395d7c81","ios":"levelo://app?vid=44524ba1-d16c-41a7-a4bd-e7ee395d7c81"},"vehicle_type_id":"4","last_reported":1752091906,"current_range_meters":17600,"station_id":"ce4bgpp2rcd13ifvqc3g","pricing_plan_id":"cebpf4jnsgd1na2vs0mg"},{"bike_id":"f54105b2-be92-42f1-b289-5a7acd7fce43","system_id":"levelo_inurba_marseille","lat":43.28032,"lon":5.36946,"is_reserved":false,"is_disabled":false,"rental_uris":{"android":"levelo://app?vid=f54105b2-be92-42f1-b289-5a7acd7fce43","ios":"levelo://app?vid=f54105b2-be92-42f1-b289-5a7acd7fce43"},"vehicle_type_id":"4","last_reported":1752091906,"current_range_meters":17600,"station_id":"ce4bha12rcd13ifvqef0","pricing_plan_id":"cebpf4jnsgd1na2vs0mg"},{"bike_id":"f373e4a8-33e3-4f72-ae8e-e7ab386910f4","system_id":"levelo_inurba_marseille","lat":43.22503,"lon":5.34774,"is_reserved":false,"is_disabled":false,"rental_uris":{"android":"levelo://app?vid=f373e4a8-33e3-4f72-ae8e-e7ab386910f4","ios":"levelo://app?vid=f373e4a8-33e3-4f72-ae8e-e7ab386910f4"},"vehicle_type_id":"4","last_reported":1752091906,"current_range_meters":17600,"station_id":"st_cvj5dfep6f1abm77gieg","pricing_plan_id":"cebpf4jnsgd1na2vs0mg"},{"bike_id":"069759f3-8488-4973-b337-5e447fc27e24","system_id":"levelo_inurba_marseille","lat":43.21198,"lon":5.35084,"is_reserved":false,"is_disabled":false,"rental_uris":{"android":"levelo://app?vid=069759f3-8488-4973-b337-5e447fc27e24","ios":"levelo://app?vid=069759f3-8488-4973-b337-5e447fc27e24"},"vehicle_type_id":"4","last_reported":1752091906,"current_range_meters":17600,"station_id":"st_cvj6sg6p6f1abm77japg","pricing_plan_id":"cebpf4jnsgd1na2vs0mg"},{"bike_id":"cade331f-a6e3-4d01-8bc4-dd218718d65a","system_id":"levelo_inurba_marseille","lat":43.33768,"lon":5.37474,"is_reserved":false,"is_disabled":false,"rental_uris":{"android":"levelo://app?vid=cade331f-a6e3-4d01-8bc4-dd218718d65a","ios":"levelo://app?vid=cade331f-a6e3-4d01-8bc4-dd218718d65a"},"vehicle_type_id":"4","last_reported":1752091906,"current_range_meters":18000,"station_id":"","pricing_plan_id":"cebpf4jnsgd1na2vs0mg"},{"bike_id":"2e0f720f-409b-4756-8049-80b0bed49f70","system_id":"levelo_inurba_marseille","lat":43.29218,"lon":5.38454,"is_reserved":false,"is_disabled":false,"rental_uris":{"android":"levelo://app?vid=2e0f720f-409b-4756-8049-80b0bed49f70","ios":"levelo://app?vid=2e0f720f-409b-4756-8049-80b0bed49f70"},"vehicle_type_id":"4","last_reported":1752091906,"current_range_meters":18000,"station_id":"ce4bh692rcd13ifvqea0","pricing_plan_id":"cebpf4jnsgd1na2vs0mg"},{"bike_id":"357a5c78-8eda-42c9-9119-393eaa7d4d57","system_id":"levelo_inurba_marseille","lat":43.289381,"lon":5.366429,"is_reserved":false,"is_disabled":false,"rental_uris":{"android":"levelo://app?vid=357a5c78-8eda-42c9-9119-393eaa7d4d57","ios":"levelo://app?vid=357a5c78-8eda-42c9-9119-393eaa7d4d57"},"vehicle_type_id":"4","last_reported":1752091906,"current_range_meters":18000,"station_id":"ce4bhap2rcd13ifvqek0","pricing_plan_id":"cebpf4jnsgd1na2vs0mg"},{"bike_id":"9f5e74ce-2459-4c6f-a171-f6d1e8a1ed83","system_id":"levelo_inurba_marseille","lat":43.31844,"lon":5.37568,"is_reserved":false,"is_disabled":false,"rental_uris":{"android":"levelo://app?vid=9f5e74ce-2459-4c6f-a171-f6d1e8a1ed83","ios":"levelo://app?vid=9f5e74ce-2459-4c6f-a171-f6d1e8a1ed83"},"vehicle_type_id":"4","last_reported":1752091906,"current_range_meters":18800,"station_id":"","pricing_plan_id":"cebpf4jnsgd1na2vs0mg"},{"bike_id":"fde530d0-eeed-4692-bb9c-2c65ba0cdd9f","system_id":"levelo_inurba_marseille","lat":43.30846,"lon":5.42564,"is_reserved":false,"is_disabled":false,"rental_uris":{"android":"levelo://app?vid=fde530d0-eeed-4692-bb9c-2c65ba0cdd9f","ios":"levelo://app?vid=fde530d0-eeed-4692-bb9c-2c65ba0cdd9f"},"vehicle_type_id":"4","last_reported":1752091906,"current_range_meters":18800,"station_id":"","pricing_plan_id":"cebpf4jnsgd1na2vs0mg"},{"bike_id":"e87d9566-a837-4c78-acc9-8a1366e1f719","system_id":"levelo_inurba_marseille","lat":43.2958,"lon":5.3673,"is_reserved":false,"is_disabled":false,"rental_uris":{"android":"levelo://app?vid=e87d9566-a837-4c78-acc9-8a1366e1f719","ios":"levelo://app?vid=e87d9566-a837-4c78-acc9-8a1366e1f719"},"vehicle_type_id":"4","last_reported":1752091906,"current_range_meters":18800,"station_id":"ce4bgph2rcd13ifvqc2g","pricing_plan_id":"cebpf4jnsgd1na2vs0mg"},{"bike_id":"4a961b2e-dda7-402f-979a-e01427f73a97","system_id":"levelo_inurba_marseille","lat":43.29418,"lon":5.38605,"is_reserved":false,"is_disabled":false,"rental_uris":{"android":"levelo://app?vid=4a961b2e-dda7-402f-979a-e01427f73a97","ios":"levelo://app?vid=4a961b2e-dda7-402f-979a-e01427f73a97"},"vehicle_type_id":"4","last_reported":1752091906,"current_range_meters":18800,"station_id":"ce4bh2h2rcd13ifvqdh0","pricing_plan_id":"cebpf4jnsgd1na2vs0mg"},{"bike_id":"7bb3c565-6e75-43af-9d31-ebbf73e1bdf0","system_id":"levelo_inurba_marseille","lat":43.29255,"lon":5.3843,"is_reserved":false,"is_disabled":false,"rental_uris":{"android":"levelo://app?vid=7bb3c565-6e75-43af-9d31-ebbf73e1bdf0","ios":"levelo://app?vid=7bb3c565-6e75-43af-9d31-ebbf73e1bdf0"},"vehicle_type_id":"4","last_reported":1752091906,"current_range_meters":18800,"station_id":"ce4bh692rcd13ifvqea0","pricing_plan_id":"cebpf4jnsgd1na2vs0mg"},{"bike_id":"fe27ac97-0f74-4552-8e6e-e72682e0cef8","system_id":"levelo_inurba_marseille","lat":43.28109,"lon":5.37836,"is_reserved":false,"is_disabled":false,"rental_uris":{"android":"levelo://app?vid=fe27ac97-0f74-4552-8e6e-e72682e0cef8","ios":"levelo://app?vid=fe27ac97-0f74-4552-8e6e-e72682e0cef8"},"vehicle_type_id":"4","last_reported":1752091906,"current_range_meters":18800,"station_id":"ce4bha12rcd13ifvqee0","pricing_plan_id":"cebpf4jnsgd1na2vs0mg"},{"bike_id":"933a165a-1128-4688-a81d-9a8de9945039","system_id":"levelo_inurba_marseille","lat":43.32045,"lon":5.41557,"is_reserved":false,"is_disabled":false,"rental_uris":{"android":"levelo://app?vid=933a165a-1128-4688-a81d-9a8de9945039","ios":"levelo://app?vid=933a165a-1128-4688-a81d-9a8de9945039"},"vehicle_type_id":"4","last_reported":1752091906,"current_range_meters":18800,"station_id":"ce4bhq92rcd13ifvqhkg","pricing_plan_id":"cebpf4jnsgd1na2vs0mg"},{"bike_id":"fa87fcb5-aacb-41a1-a789-0296bbd02085","system_id":"levelo_inurba_marseille","lat":43.24576,"lon":5.37382,"is_reserved":false,"is_disabled":false,"rental_uris":{"android":"levelo://app?vid=fa87fcb5-aacb-41a1-a789-0296bbd02085","ios":"levelo://app?vid=fa87fcb5-aacb-41a1-a789-0296bbd02085"},"vehicle_type_id":"4","last_reported":1752091906,"current_range_meters":19200,"station_id":"","pricing_plan_id":"cebpf4jnsgd1na2vs0mg"},{"bike_id":"4e209b0c-855f-4b51-8120-2faef8673853","system_id":"levelo_inurba_marseille","lat":43.30611,"lon":5.36866,"is_reserved":false,"is_disabled":false,"rental_uris":{"android":"levelo://app?vid=4e209b0c-855f-4b51-8120-2faef8673853","ios":"levelo://app?vid=4e209b0c-855f-4b51-8120-2faef8673853"},"vehicle_type_id":"4","last_reported":1752091906,"current_range_meters":19200,"station_id":"","pricing_plan_id":"cebpf4jnsgd1na2vs0mg"},{"bike_id":"1f298f9a-7bc8-4e5e-bc65-be9cf068bf3c","system_id":"levelo_inurba_marseille","lat":43.29932,"lon":5.36559,"is_reserved":false,"is_disabled":false,"rental_uris":{"android":"levelo://app?vid=1f298f9a-7bc8-4e5e-bc65-be9cf068bf3c","ios":"levelo://app?vid=1f298f9a-7bc8-4e5e-bc65-be9cf068bf3c"},"vehicle_type_id":"4","last_reported":1752091906,"current_range_meters":19200,"station_id":"ce4bgm92rcd13ifvqbr0","pricing_plan_id":"cebpf4jnsgd1na2vs0mg"},{"bike_id":"1a0629c8-a985-4bcb-b93c-a01981cf8e4e","system_id":"levelo_inurba_marseille","lat":43.298467,"lon":5.362778,"is_reserved":false,"is_disabled":false,"rental_uris":{"android":"levelo://app?vid=1a0629c8-a985-4bcb-b93c-a01981cf8e4e","ios":"levelo://app?vid=1a0629c8-a985-4bcb-b93c-a01981cf8e4e"},"vehicle_type_id":"4","last_reported":1752091906,"current_range_meters":19200,"station_id":"ce4bgpp2rcd13ifvqc3g","pricing_plan_id":"cebpf4jnsgd1na2vs0mg"},{"bike_id":"96df3c30-ec38-4a8c-8c80-83f88f68fd74","system_id":"levelo_inurba_marseille","lat":43.30136,"lon":5.39866,"is_reserved":false,"is_disabled":false,"rental_uris":{"android":"levelo://app?vid=96df3c30-ec38-4a8c-8c80-83f88f68fd74","ios":"levelo://app?vid=96df3c30-ec38-4a8c-8c80-83f88f68fd74"},"vehicle_type_id":"4","last_reported":1752091906,"current_range_meters":19200,"station_id":"ce4bh0h2rcd13ifvqd40","pricing_plan_id":"cebpf4jnsgd1na2vs0mg"},{"bike_id":"16504750-9ea4-4578-bdb3-74f2c4b8493b","system_id":"levelo_inurba_marseille","lat":43.287048,"lon":5.373667,"is_reserved":false,"is_disabled":false,"rental_uris":{"android":"levelo://app?vid=16504750-9ea4-4578-bdb3-74f2c4b8493b","ios":"levelo://app?vid=16504750-9ea4-4578-bdb3-74f2c4b8493b"},"vehicle_type_id":"4","last_reported":1752091906,"current_range_meters":19200,"station_id":"ce4bh3p2rcd13ifvqdq0","pricing_plan_id":"cebpf4jnsgd1na2vs0mg"},{"bike_id":"e2bb7ee9-ac0d-44b3-bb61-6afabc57f457","system_id":"levelo_inurba_marseille","lat":43.27397,"lon":5.36253,"is_reserved":false,"is_disabled":false,"rental_uris":{"android":"levelo://app?vid=e2bb7ee9-ac0d-44b3-bb61-6afabc57f457","ios":"levelo://app?vid=e2bb7ee9-ac0d-44b3-bb61-6afabc57f457"},"vehicle_type_id":"4","last_reported":1752091906,"current_range_meters":19200,"station_id":"ce4bhbh2rcd13ifvqeo0","pricing_plan_id":"cebpf4jnsgd1na2vs0mg"},{"bike_id":"bd147f79-c283-4f31-a165-8f1198471f01","system_id":"levelo_inurba_marseille","lat":43.27379,"lon":5.36248,"is_reserved":false,"is_disabled":false,"rental_uris":{"android":"levelo://app?vid=bd147f79-c283-4f31-a165-8f1198471f01","ios":"levelo://app?vid=bd147f79-c283-4f31-a165-8f1198471f01"},"vehicle_type_id":"4","last_reported":1752091906,"current_range_meters":19200,"station_id":"ce4bhbh2rcd13ifvqeo0","pricing_plan_id":"cebpf4jnsgd1na2vs0mg"},{"bike_id":"0e055446-1a25-4d64-8b1f-e6595d6f372e","system_id":"levelo_inurba_marseille","lat":43.28611,"lon":5.35115,"is_reserved":false,"is_disabled":false,"rental_uris":{"android":"levelo://app?vid=0e055446-1a25-4d64-8b1f-e6595d6f372e","ios":"levelo://app?vid=0e055446-1a25-4d64-8b1f-e6595d6f372e"},"vehicle_type_id":"4","last_reported":1752091906,"current_range_meters":19200,"station_id":"ce4bhch2rcd13ifvqeug","pricing_plan_id":"cebpf4jnsgd1na2vs0mg"},{"bike_id":"349ff3b8-c875-4c6d-ad28-0372560d9cc3","system_id":"levelo_inurba_marseille","lat":43.2603,"lon":5.37541,"is_reserved":false,"is_disabled":false,"rental_uris":{"android":"levelo://app?vid=349ff3b8-c875-4c6d-ad28-0372560d9cc3","ios":"levelo://app?vid=349ff3b8-c875-4c6d-ad28-0372560d9cc3"},"vehicle_type_id":"4","last_reported":1752091906,"current_range_meters":19200,"station_id":"ce4bhgh2rcd13ifvqfa0","pricing_plan_id":"cebpf4jnsgd1na2vs0mg"},{"bike_id":"89c88601-23fc-46eb-8f34-723cccb1bf9d","system_id":"levelo_inurba_marseille","lat":43.274932,"lon":5.424517,"is_reserved":false,"is_disabled":false,"rental_uris":{"android":"levelo://app?vid=89c88601-23fc-46eb-8f34-723cccb1bf9d","ios":"levelo://app?vid=89c88601-23fc-46eb-8f34-723cccb1bf9d"},"vehicle_type_id":"4","last_reported":1752091906,"current_range_meters":19200,"station_id":"ce4bhn92rcd13ifvqgrg","pricing_plan_id":"cebpf4jnsgd1na2vs0mg"},{"bike_id":"b819aa2d-013e-453d-bafc-a375c1dc7036","system_id":"levelo_inurba_marseille","lat":43.240802,"lon":5.377552,"is_reserved":false,"is_disabled":false,"rental_uris":{"android":"levelo://app?vid=b819aa2d-013e-453d-bafc-a375c1dc7036","ios":"levelo://app?vid=b819aa2d-013e-453d-bafc-a375c1dc7036"},"vehicle_type_id":"4","last_reported":1752091906,"current_range_meters":19200,"station_id":"ce4bhnp2rcd13ifvqgvg","pricing_plan_id":"cebpf4jnsgd1na2vs0mg"},{"bike_id":"744de9c5-5760-4c22-96e4-d65a1e22d14f","system_id":"levelo_inurba_marseille","lat":43.32045,"lon":5.40931,"is_reserved":false,"is_disabled":false,"rental_uris":{"android":"levelo://app?vid=744de9c5-5760-4c22-96e4-d65a1e22d14f","ios":"levelo://app?vid=744de9c5-5760-4c22-96e4-d65a1e22d14f"},"vehicle_type_id":"4","last_reported":1752091906,"current_range_meters":19600,"station_id":"","pricing_plan_id":"cebpf4jnsgd1na2vs0mg"},{"bike_id":"bd5228ab-002e-4f81-bbd3-2baf5452f591","system_id":"levelo_inurba_marseille","lat":43.278282,"lon":5.414378,"is_reserved":false,"is_disabled":false,"rental_uris":{"android":"levelo://app?vid=bd5228ab-002e-4f81-bbd3-2baf5452f591","ios":"levelo://app?vid=bd5228ab-002e-4f81-bbd3-2baf5452f591"},"vehicle_type_id":"4","last_reported":1752091906,"current_range_meters":19600,"station_id":"","pricing_plan_id":"cebpf4jnsgd1na2vs0mg"},{"bike_id":"61e73686-589d-460f-94f6-12d5fdfa4f2b","system_id":"levelo_inurba_marseille","lat":43.29524,"lon":5.36296,"is_reserved":false,"is_disabled":false,"rental_uris":{"android":"levelo://app?vid=61e73686-589d-460f-94f6-12d5fdfa4f2b","ios":"levelo://app?vid=61e73686-589d-460f-94f6-12d5fdfa4f2b"},"vehicle_type_id":"4","last_reported":1752091906,"current_range_meters":19600,"station_id":"","pricing_plan_id":"cebpf4jnsgd1na2vs0mg"},{"bike_id":"33ca56ee-489a-4240-9d4c-667abf911c67","system_id":"levelo_inurba_marseille","lat":43.27381,"lon":5.36259,"is_reserved":false,"is_disabled":false,"rental_uris":{"android":"levelo://app?vid=33ca56ee-489a-4240-9d4c-667abf911c67","ios":"levelo://app?vid=33ca56ee-489a-4240-9d4c-667abf911c67"},"vehicle_type_id":"4","last_reported":1752091906,"current_range_meters":19600,"station_id":"ce4bhbh2rcd13ifvqeo0","pricing_plan_id":"cebpf4jnsgd1na2vs0mg"},{"bike_id":"d84fcb78-434e-4857-a59b-bf1ff23ff44a","system_id":"levelo_inurba_marseille","lat":43.28156,"lon":5.4263,"is_reserved":false,"is_disabled":false,"rental_uris":{"android":"levelo://app?vid=d84fcb78-434e-4857-a59b-bf1ff23ff44a","ios":"levelo://app?vid=d84fcb78-434e-4857-a59b-bf1ff23ff44a"},"vehicle_type_id":"4","last_reported":1752091906,"current_range_meters":19600,"station_id":"ce4bhnh2rcd13ifvqgug","pricing_plan_id":"cebpf4jnsgd1na2vs0mg"},{"bike_id":"ee1ac907-8623-4d00-ac01-d41dd90be9fe","system_id":"levelo_inurba_marseille","lat":43.21186,"lon":5.35069,"is_reserved":false,"is_disabled":false,"rental_uris":{"android":"levelo://app?vid=ee1ac907-8623-4d00-ac01-d41dd90be9fe","ios":"levelo://app?vid=ee1ac907-8623-4d00-ac01-d41dd90be9fe"},"vehicle_type_id":"4","last_reported":1752091906,"current_range_meters":19600,"station_id":"st_cvj6sg6p6f1abm77japg","pricing_plan_id":"cebpf4jnsgd1na2vs0mg"},{"bike_id":"cc63da02-fffb-4f4c-8416-18cf7673613b","system_id":"levelo_inurba_marseille","lat":43.31075,"lon":5.40049,"is_reserved":false,"is_disabled":false,"rental_uris":{"android":"levelo://app?vid=cc63da02-fffb-4f4c-8416-18cf7673613b","ios":"levelo://app?vid=cc63da02-fffb-4f4c-8416-18cf7673613b"},"vehicle_type_id":"4","last_reported":1752091906,"current_range_meters":20000,"station_id":"","pricing_plan_id":"cebpf4jnsgd1na2vs0mg"},{"bike_id":"24b17f7b-dff1-4936-b27a-7c2c6813a894","system_id":"levelo_inurba_marseille","lat":43.24572,"lon":5.37348,"is_reserved":false,"is_disabled":false,"rental_uris":{"android":"levelo://app?vid=24b17f7b-dff1-4936-b27a-7c2c6813a894","ios":"levelo://app?vid=24b17f7b-dff1-4936-b27a-7c2c6813a894"},"vehicle_type_id":"4","last_reported":1752091906,"current_range_meters":20000,"station_id":"","pricing_plan_id":"cebpf4jnsgd1na2vs0mg"},{"bike_id":"8f106ceb-a149-4ea0-a8b1-5f240bb4a40c","system_id":"levelo_inurba_marseille","lat":43.29524,"lon":5.38552,"is_reserved":false,"is_disabled":false,"rental_uris":{"android":"levelo://app?vid=8f106ceb-a149-4ea0-a8b1-5f240bb4a40c","ios":"levelo://app?vid=8f106ceb-a149-4ea0-a8b1-5f240bb4a40c"},"vehicle_type_id":"4","last_reported":1752091906,"current_range_meters":20000,"station_id":"ce4bgih2rcd13ifvqba0","pricing_plan_id":"cebpf4jnsgd1na2vs0mg"},{"bike_id":"4a8e1ba7-6a98-4773-8aa5-c978babfdc0d","system_id":"levelo_inurba_marseille","lat":43.27599,"lon":5.36117,"is_reserved":false,"is_disabled":false,"rental_uris":{"android":"levelo://app?vid=4a8e1ba7-6a98-4773-8aa5-c978babfdc0d","ios":"levelo://app?vid=4a8e1ba7-6a98-4773-8aa5-c978babfdc0d"},"vehicle_type_id":"4","last_reported":1752091906,"current_range_meters":20000,"station_id":"ce4bgj92rcd13ifvqbe0","pricing_plan_id":"cebpf4jnsgd1na2vs0mg"},{"bike_id":"65fdd2c1-c8f4-4825-8b79-c37ae423f19e","system_id":"levelo_inurba_marseille","lat":43.29843,"lon":5.36277,"is_reserved":false,"is_disabled":false,"rental_uris":{"android":"levelo://app?vid=65fdd2c1-c8f4-4825-8b79-c37ae423f19e","ios":"levelo://app?vid=65fdd2c1-c8f4-4825-8b79-c37ae423f19e"},"vehicle_type_id":"4","last_reported":1752091906,"current_range_meters":20000,"station_id":"ce4bgpp2rcd13ifvqc3g","pricing_plan_id":"cebpf4jnsgd1na2vs0mg"},{"bike_id":"55eb3ee3-207d-45c9-a356-7e275a6ee08e","system_id":"levelo_inurba_marseille","lat":43.322208,"lon":5.407363,"is_reserved":false,"is_disabled":false,"rental_uris":{"android":"levelo://app?vid=55eb3ee3-207d-45c9-a356-7e275a6ee08e","ios":"levelo://app?vid=55eb3ee3-207d-45c9-a356-7e275a6ee08e"},"vehicle_type_id":"4","last_reported":1752091906,"current_range_meters":20000,"station_id":"ce4bh092rcd13ifvqd30","pricing_plan_id":"cebpf4jnsgd1na2vs0mg"},{"bike_id":"d283b3ce-28ad-4b5e-a397-4f25536715d1","system_id":"levelo_inurba_marseille","lat":43.27375,"lon":5.36285,"is_reserved":false,"is_disabled":false,"rental_uris":{"android":"levelo://app?vid=d283b3ce-28ad-4b5e-a397-4f25536715d1","ios":"levelo://app?vid=d283b3ce-28ad-4b5e-a397-4f25536715d1"},"vehicle_type_id":"4","last_reported":1752091906,"current_range_meters":20000,"station_id":"ce4bhbh2rcd13ifvqeo0","pricing_plan_id":"cebpf4jnsgd1na2vs0mg"},{"bike_id":"10c59449-1e22-41d8-be57-73de9f1e8e96","system_id":"levelo_inurba_marseille","lat":43.28412,"lon":5.34989,"is_reserved":false,"is_disabled":false,"rental_uris":{"android":"levelo://app?vid=10c59449-1e22-41d8-be57-73de9f1e8e96","ios":"levelo://app?vid=10c59449-1e22-41d8-be57-73de9f1e8e96"},"vehicle_type_id":"4","last_reported":1752091906,"current_range_meters":20000,"station_id":"ce4bhbh2rcd13ifvqepg","pricing_plan_id":"cebpf4jnsgd1na2vs0mg"},{"bike_id":"ab5d5fcf-9aa2-47fc-bf4e-dd8601d15f1c","system_id":"levelo_inurba_marseille","lat":43.28407,"lon":5.34973,"is_reserved":false,"is_disabled":false,"rental_uris":{"android":"levelo://app?vid=ab5d5fcf-9aa2-47fc-bf4e-dd8601d15f1c","ios":"levelo://app?vid=ab5d5fcf-9aa2-47fc-bf4e-dd8601d15f1c"},"vehicle_type_id":"4","last_reported":1752091906,"current_range_meters":20000,"station_id":"ce4bhbh2rcd13ifvqepg","pricing_plan_id":"cebpf4jnsgd1na2vs0mg"},{"bike_id":"4862dd01-ab5f-44e3-aaab-615bc41d1b9b","system_id":"levelo_inurba_marseille","lat":43.29523,"lon":5.38548,"is_reserved":false,"is_disabled":false,"rental_uris":{"android":"levelo://app?vid=4862dd01-ab5f-44e3-aaab-615bc41d1b9b","ios":"levelo://app?vid=4862dd01-ab5f-44e3-aaab-615bc41d1b9b"},"vehicle_type_id":"4","last_reported":1752091906,"current_range_meters":20400,"station_id":"ce4bgih2rcd13ifvqba0","pricing_plan_id":"cebpf4jnsgd1na2vs0mg"},{"bike_id":"b4d8d9b6-8f39-4827-8724-5d2f5305e387","system_id":"levelo_inurba_marseille","lat":43.28355,"lon":5.38107,"is_reserved":false,"is_disabled":false,"rental_uris":{"android":"levelo://app?vid=b4d8d9b6-8f39-4827-8724-5d2f5305e387","ios":"levelo://app?vid=b4d8d9b6-8f39-4827-8724-5d2f5305e387"},"vehicle_type_id":"4","last_reported":1752091906,"current_range_meters":20400,"station_id":"ce4bh412rcd13ifvqdr0","pricing_plan_id":"cebpf4jnsgd1na2vs0mg"},{"bike_id":"938fb6c9-7d2c-4117-acbb-022329bd2243","system_id":"levelo_inurba_marseille","lat":43.29033,"lon":5.38659,"is_reserved":false,"is_disabled":false,"rental_uris":{"android":"levelo://app?vid=938fb6c9-7d2c-4117-acbb-022329bd2243","ios":"levelo://app?vid=938fb6c9-7d2c-4117-acbb-022329bd2243"},"vehicle_type_id":"4","last_reported":1752091906,"current_range_meters":20400,"station_id":"ce4bh4p2rcd13ifvqe0g","pricing_plan_id":"cebpf4jnsgd1na2vs0mg"},{"bike_id":"bc7165e3-a5da-49f9-9eb7-2482c6d384cd","system_id":"levelo_inurba_marseille","lat":43.29257,"lon":5.38433,"is_reserved":false,"is_disabled":false,"rental_uris":{"android":"levelo://app?vid=bc7165e3-a5da-49f9-9eb7-2482c6d384cd","ios":"levelo://app?vid=bc7165e3-a5da-49f9-9eb7-2482c6d384cd"},"vehicle_type_id":"4","last_reported":1752091906,"current_range_meters":20400,"station_id":"ce4bh692rcd13ifvqea0","pricing_plan_id":"cebpf4jnsgd1na2vs0mg"},{"bike_id":"4bc4988a-b6fb-4674-b785-fd41e7c27e73","system_id":"levelo_inurba_marseille","lat":43.32657,"lon":5.40989,"is_reserved":false,"is_disabled":false,"rental_uris":{"android":"levelo://app?vid=4bc4988a-b6fb-4674-b785-fd41e7c27e73","ios":"levelo://app?vid=4bc4988a-b6fb-4674-b785-fd41e7c27e73"},"vehicle_type_id":"4","last_reported":1752091906,"current_range_meters":20400,"station_id":"ce4bhpp2rcd13ifvqhgg","pricing_plan_id":"cebpf4jnsgd1na2vs0mg"},{"bike_id":"8f89e4f3-495a-4317-bd6d-37a19186d65b","system_id":"levelo_inurba_marseille","lat":43.33723,"lon":5.39217,"is_reserved":false,"is_disabled":false,"rental_uris":{"android":"levelo://app?vid=8f89e4f3-495a-4317-bd6d-37a19186d65b","ios":"levelo://app?vid=8f89e4f3-495a-4317-bd6d-37a19186d65b"},"vehicle_type_id":"4","last_reported":1752091906,"current_range_meters":20400,"station_id":"ce4bhr92rcd13ifvqhsg","pricing_plan_id":"cebpf4jnsgd1na2vs0mg"},{"bike_id":"ee8f64bf-0d80-4020-b535-a49594587b6c","system_id":"levelo_inurba_marseille","lat":43.295948,"lon":5.380848,"is_reserved":false,"is_disabled":false,"rental_uris":{"android":"levelo://app?vid=ee8f64bf-0d80-4020-b535-a49594587b6c","ios":"levelo://app?vid=ee8f64bf-0d80-4020-b535-a49594587b6c"},"vehicle_type_id":"4","last_reported":1752091906,"current_range_meters":20800,"station_id":"ce4bgl12rcd13ifvqbo0","pricing_plan_id":"cebpf4jnsgd1na2vs0mg"},{"bike_id":"f6e12bcd-25b5-462d-8eab-ec51e8c78acc","system_id":"levelo_inurba_marseille","lat":43.29517,"lon":5.39045,"is_reserved":false,"is_disabled":false,"rental_uris":{"android":"levelo://app?vid=f6e12bcd-25b5-462d-8eab-ec51e8c78acc","ios":"levelo://app?vid=f6e12bcd-25b5-462d-8eab-ec51e8c78acc"},"vehicle_type_id":"4","last_reported":1752091906,"current_range_meters":20800,"station_id":"ce4bh3p2rcd13ifvqdp0","pricing_plan_id":"cebpf4jnsgd1na2vs0mg"},{"bike_id":"d6183b14-14ca-44c7-b355-9bc124d67e93","system_id":"levelo_inurba_marseille","lat":43.31496,"lon":5.38002,"is_reserved":false,"is_disabled":false,"rental_uris":{"android":"levelo://app?vid=d6183b14-14ca-44c7-b355-9bc124d67e93","ios":"levelo://app?vid=d6183b14-14ca-44c7-b355-9bc124d67e93"},"vehicle_type_id":"4","last_reported":1752091906,"current_range_meters":20800,"station_id":"ce4bhsp2rcd13ifvqi50","pricing_plan_id":"cebpf4jnsgd1na2vs0mg"},{"bike_id":"b178789f-7b8a-418d-a82a-9fb878f985fe","system_id":"levelo_inurba_marseille","lat":43.26799,"lon":5.40267,"is_reserved":false,"is_disabled":false,"rental_uris":{"android":"levelo://app?vid=b178789f-7b8a-418d-a82a-9fb878f985fe","ios":"levelo://app?vid=b178789f-7b8a-418d-a82a-9fb878f985fe"},"vehicle_type_id":"4","last_reported":1752091906,"current_range_meters":20800,"station_id":"ce501612rcd8frsf0b60","pricing_plan_id":"cebpf4jnsgd1na2vs0mg"},{"bike_id":"4da5d463-3ec2-4443-a38b-2551d2f31039","system_id":"levelo_inurba_marseille","lat":43.22504,"lon":5.34774,"is_reserved":false,"is_disabled":false,"rental_uris":{"android":"levelo://app?vid=4da5d463-3ec2-4443-a38b-2551d2f31039","ios":"levelo://app?vid=4da5d463-3ec2-4443-a38b-2551d2f31039"},"vehicle_type_id":"4","last_reported":1752091906,"current_range_meters":20800,"station_id":"st_cvj5dfep6f1abm77gieg","pricing_plan_id":"cebpf4jnsgd1na2vs0mg"},{"bike_id":"8e9dc1f2-8175-422b-a036-9b176fe883a5","system_id":"levelo_inurba_marseille","lat":43.31915,"lon":5.37351,"is_reserved":false,"is_disabled":false,"rental_uris":{"android":"levelo://app?vid=8e9dc1f2-8175-422b-a036-9b176fe883a5","ios":"levelo://app?vid=8e9dc1f2-8175-422b-a036-9b176fe883a5"},"vehicle_type_id":"4","last_reported":1752091906,"current_range_meters":21600,"station_id":"","pricing_plan_id":"cebpf4jnsgd1na2vs0mg"},{"bike_id":"ab521df9-ab36-4a3d-a446-31ee393c87dd","system_id":"levelo_inurba_marseille","lat":43.30858,"lon":5.40386,"is_reserved":false,"is_disabled":false,"rental_uris":{"android":"levelo://app?vid=ab521df9-ab36-4a3d-a446-31ee393c87dd","ios":"levelo://app?vid=ab521df9-ab36-4a3d-a446-31ee393c87dd"},"vehicle_type_id":"4","last_reported":1752091906,"current_range_meters":21600,"station_id":"","pricing_plan_id":"cebpf4jnsgd1na2vs0mg"},{"bike_id":"a37c81c5-d096-4e6d-b1b3-5bbb8251fbd0","system_id":"levelo_inurba_marseille","lat":43.24343,"lon":5.37099,"is_reserved":false,"is_disabled":false,"rental_uris":{"android":"levelo://app?vid=a37c81c5-d096-4e6d-b1b3-5bbb8251fbd0","ios":"levelo://app?vid=a37c81c5-d096-4e6d-b1b3-5bbb8251fbd0"},"vehicle_type_id":"4","last_reported":1752091906,"current_range_meters":21600,"station_id":"","pricing_plan_id":"cebpf4jnsgd1na2vs0mg"},{"bike_id":"169cf9b6-73ba-4d53-aec8-9a6ccc27fa1a","system_id":"levelo_inurba_marseille","lat":43.29607,"lon":5.37725,"is_reserved":false,"is_disabled":false,"rental_uris":{"android":"levelo://app?vid=169cf9b6-73ba-4d53-aec8-9a6ccc27fa1a","ios":"levelo://app?vid=169cf9b6-73ba-4d53-aec8-9a6ccc27fa1a"},"vehicle_type_id":"4","last_reported":1752091906,"current_range_meters":21600,"station_id":"ce4bgi92rcd13ifvqb90","pricing_plan_id":"cebpf4jnsgd1na2vs0mg"},{"bike_id":"84f9f16e-f525-4e94-a3a7-d39743888c44","system_id":"levelo_inurba_marseille","lat":43.29854,"lon":5.36296,"is_reserved":false,"is_disabled":false,"rental_uris":{"android":"levelo://app?vid=84f9f16e-f525-4e94-a3a7-d39743888c44","ios":"levelo://app?vid=84f9f16e-f525-4e94-a3a7-d39743888c44"},"vehicle_type_id":"4","last_reported":1752091906,"current_range_meters":21600,"station_id":"ce4bgpp2rcd13ifvqc3g","pricing_plan_id":"cebpf4jnsgd1na2vs0mg"},{"bike_id":"dcf54dfb-1fba-41b7-82bd-01546757be34","system_id":"levelo_inurba_marseille","lat":43.3107,"lon":5.38358,"is_reserved":false,"is_disabled":false,"rental_uris":{"android":"levelo://app?vid=dcf54dfb-1fba-41b7-82bd-01546757be34","ios":"levelo://app?vid=dcf54dfb-1fba-41b7-82bd-01546757be34"},"vehicle_type_id":"4","last_reported":1752091906,"current_range_meters":21600,"station_id":"ce4bgv92rcd13ifvqcr0","pricing_plan_id":"cebpf4jnsgd1na2vs0mg"},{"bike_id":"e510ade2-3bf1-4e76-bfa8-7ebe6d4288a2","system_id":"levelo_inurba_marseille","lat":43.2841,"lon":5.3498,"is_reserved":false,"is_disabled":false,"rental_uris":{"android":"levelo://app?vid=e510ade2-3bf1-4e76-bfa8-7ebe6d4288a2","ios":"levelo://app?vid=e510ade2-3bf1-4e76-bfa8-7ebe6d4288a2"},"vehicle_type_id":"4","last_reported":1752091906,"current_range_meters":21600,"station_id":"ce4bhbh2rcd13ifvqepg","pricing_plan_id":"cebpf4jnsgd1na2vs0mg"},{"bike_id":"f75c2fa7-762f-4d5d-8b04-d939d2e1c618","system_id":"levelo_inurba_marseille","lat":43.30302,"lon":5.3921,"is_reserved":false,"is_disabled":false,"rental_uris":{"android":"levelo://app?vid=f75c2fa7-762f-4d5d-8b04-d939d2e1c618","ios":"levelo://app?vid=f75c2fa7-762f-4d5d-8b04-d939d2e1c618"},"vehicle_type_id":"4","last_reported":1752091906,"current_range_meters":22000,"station_id":"ce4bgkh2rcd13ifvqbk0","pricing_plan_id":"cebpf4jnsgd1na2vs0mg"},{"bike_id":"3f2dff62-5fb7-4977-ae17-413db93e5527","system_id":"levelo_inurba_marseille","lat":43.28613,"lon":5.3511,"is_reserved":false,"is_disabled":false,"rental_uris":{"android":"levelo://app?vid=3f2dff62-5fb7-4977-ae17-413db93e5527","ios":"levelo://app?vid=3f2dff62-5fb7-4977-ae17-413db93e5527"},"vehicle_type_id":"4","last_reported":1752091906,"current_range_meters":22000,"station_id":"ce4bhch2rcd13ifvqeug","pricing_plan_id":"cebpf4jnsgd1na2vs0mg"},{"bike_id":"beaac4dc-b17b-475f-a59b-757750d58bbb","system_id":"levelo_inurba_marseille","lat":43.2465,"lon":5.38894,"is_reserved":false,"is_disabled":false,"rental_uris":{"android":"levelo://app?vid=beaac4dc-b17b-475f-a59b-757750d58bbb","ios":"levelo://app?vid=beaac4dc-b17b-475f-a59b-757750d58bbb"},"vehicle_type_id":"4","last_reported":1752091906,"current_range_meters":22000,"station_id":"ce4bhg12rcd13ifvqf60","pricing_plan_id":"cebpf4jnsgd1na2vs0mg"},{"bike_id":"6f2802e3-e1b6-4005-ba2b-967610798642","system_id":"levelo_inurba_marseille","lat":43.255,"lon":5.3765,"is_reserved":false,"is_disabled":false,"rental_uris":{"android":"levelo://app?vid=6f2802e3-e1b6-4005-ba2b-967610798642","ios":"levelo://app?vid=6f2802e3-e1b6-4005-ba2b-967610798642"},"vehicle_type_id":"4","last_reported":1752091906,"current_range_meters":22000,"station_id":"ce4bhh12rcd13ifvqff0","pricing_plan_id":"cebpf4jnsgd1na2vs0mg"},{"bike_id":"2ef0b213-c0d8-49f2-9334-562120cc0d55","system_id":"levelo_inurba_marseille","lat":43.31526,"lon":5.38037,"is_reserved":false,"is_disabled":false,"rental_uris":{"android":"levelo://app?vid=2ef0b213-c0d8-49f2-9334-562120cc0d55","ios":"levelo://app?vid=2ef0b213-c0d8-49f2-9334-562120cc0d55"},"vehicle_type_id":"4","last_reported":1752091906,"current_range_meters":22000,"station_id":"ce4bhsp2rcd13ifvqi50","pricing_plan_id":"cebpf4jnsgd1na2vs0mg"},{"bike_id":"29a0a180-d29f-4a4e-a71b-d1d9d42cb217","system_id":"levelo_inurba_marseille","lat":43.21179,"lon":5.35071,"is_reserved":false,"is_disabled":false,"rental_uris":{"android":"levelo://app?vid=29a0a180-d29f-4a4e-a71b-d1d9d42cb217","ios":"levelo://app?vid=29a0a180-d29f-4a4e-a71b-d1d9d42cb217"},"vehicle_type_id":"4","last_reported":1752091906,"current_range_meters":22000,"station_id":"st_cvj6sg6p6f1abm77japg","pricing_plan_id":"cebpf4jnsgd1na2vs0mg"},{"bike_id":"a5a6c2c1-2d48-4581-8647-6eab6c0bbb54","system_id":"levelo_inurba_marseille","lat":43.269003,"lon":5.369211,"is_reserved":false,"is_disabled":false,"rental_uris":{"android":"levelo://app?vid=a5a6c2c1-2d48-4581-8647-6eab6c0bbb54","ios":"levelo://app?vid=a5a6c2c1-2d48-4581-8647-6eab6c0bbb54"},"vehicle_type_id":"4","last_reported":1752091906,"current_range_meters":22400,"station_id":"","pricing_plan_id":"cebpf4jnsgd1na2vs0mg"},{"bike_id":"ca82af78-77e6-4092-9d8e-80a6b4175624","system_id":"levelo_inurba_marseille","lat":43.29758,"lon":5.46018,"is_reserved":false,"is_disabled":false,"rental_uris":{"android":"levelo://app?vid=ca82af78-77e6-4092-9d8e-80a6b4175624","ios":"levelo://app?vid=ca82af78-77e6-4092-9d8e-80a6b4175624"},"vehicle_type_id":"4","last_reported":1752091906,"current_range_meters":22400,"station_id":"","pricing_plan_id":"cebpf4jnsgd1na2vs0mg"},{"bike_id":"3e10134f-0d30-42b2-88ed-5b5956204000","system_id":"levelo_inurba_marseille","lat":43.29594,"lon":5.3673,"is_reserved":false,"is_disabled":false,"rental_uris":{"android":"levelo://app?vid=3e10134f-0d30-42b2-88ed-5b5956204000","ios":"levelo://app?vid=3e10134f-0d30-42b2-88ed-5b5956204000"},"vehicle_type_id":"4","last_reported":1752091906,"current_range_meters":22400,"station_id":"ce4bgph2rcd13ifvqc2g","pricing_plan_id":"cebpf4jnsgd1na2vs0mg"},{"bike_id":"71b00ef7-b14d-4c72-a64e-f0ec6ac9dee3","system_id":"levelo_inurba_marseille","lat":43.28355,"lon":5.38098,"is_reserved":false,"is_disabled":false,"rental_uris":{"android":"levelo://app?vid=71b00ef7-b14d-4c72-a64e-f0ec6ac9dee3","ios":"levelo://app?vid=71b00ef7-b14d-4c72-a64e-f0ec6ac9dee3"},"vehicle_type_id":"4","last_reported":1752091906,"current_range_meters":22400,"station_id":"ce4bh412rcd13ifvqdr0","pricing_plan_id":"cebpf4jnsgd1na2vs0mg"},{"bike_id":"3cd3d80f-eb1e-4cbd-966f-3923b3686969","system_id":"levelo_inurba_marseille","lat":43.28024,"lon":5.36956,"is_reserved":false,"is_disabled":false,"rental_uris":{"android":"levelo://app?vid=3cd3d80f-eb1e-4cbd-966f-3923b3686969","ios":"levelo://app?vid=3cd3d80f-eb1e-4cbd-966f-3923b3686969"},"vehicle_type_id":"4","last_reported":1752091906,"current_range_meters":22400,"station_id":"ce4bha12rcd13ifvqef0","pricing_plan_id":"cebpf4jnsgd1na2vs0mg"},{"bike_id":"e6989adc-6233-4d8a-a6e1-1029981db1ec","system_id":"levelo_inurba_marseille","lat":43.28668,"lon":5.36355,"is_reserved":false,"is_disabled":false,"rental_uris":{"android":"levelo://app?vid=e6989adc-6233-4d8a-a6e1-1029981db1ec","ios":"levelo://app?vid=e6989adc-6233-4d8a-a6e1-1029981db1ec"},"vehicle_type_id":"4","last_reported":1752091906,"current_range_meters":22400,"station_id":"ce4bhah2rcd13ifvqej0","pricing_plan_id":"cebpf4jnsgd1na2vs0mg"},{"bike_id":"dff0af8b-adaf-419e-8250-aabcdc4a82fb","system_id":"levelo_inurba_marseille","lat":43.28929,"lon":5.36622,"is_reserved":false,"is_disabled":false,"rental_uris":{"android":"levelo://app?vid=dff0af8b-adaf-419e-8250-aabcdc4a82fb","ios":"levelo://app?vid=dff0af8b-adaf-419e-8250-aabcdc4a82fb"},"vehicle_type_id":"4","last_reported":1752091906,"current_range_meters":22400,"station_id":"ce4bhap2rcd13ifvqek0","pricing_plan_id":"cebpf4jnsgd1na2vs0mg"},{"bike_id":"311f2055-c291-4783-81ba-4f757d7fc74e","system_id":"levelo_inurba_marseille","lat":43.3043,"lon":5.41273,"is_reserved":false,"is_disabled":false,"rental_uris":{"android":"levelo://app?vid=311f2055-c291-4783-81ba-4f757d7fc74e","ios":"levelo://app?vid=311f2055-c291-4783-81ba-4f757d7fc74e"},"vehicle_type_id":"4","last_reported":1752091906,"current_range_meters":22400,"station_id":"ce4bhop2rcd13ifvqh8g","pricing_plan_id":"cebpf4jnsgd1na2vs0mg"},{"bike_id":"e3a75ee9-c614-467b-8cc2-f813bcef2ab1","system_id":"levelo_inurba_marseille","lat":43.33743,"lon":5.3919,"is_reserved":false,"is_disabled":false,"rental_uris":{"android":"levelo://app?vid=e3a75ee9-c614-467b-8cc2-f813bcef2ab1","ios":"levelo://app?vid=e3a75ee9-c614-467b-8cc2-f813bcef2ab1"},"vehicle_type_id":"4","last_reported":1752091906,"current_range_meters":22400,"station_id":"ce4bhr92rcd13ifvqhsg","pricing_plan_id":"cebpf4jnsgd1na2vs0mg"},{"bike_id":"2a459f96-6b53-43f7-b70c-1135b0d88aea","system_id":"levelo_inurba_marseille","lat":43.232,"lon":5.35559,"is_reserved":false,"is_disabled":false,"rental_uris":{"android":"levelo://app?vid=2a459f96-6b53-43f7-b70c-1135b0d88aea","ios":"levelo://app?vid=2a459f96-6b53-43f7-b70c-1135b0d88aea"},"vehicle_type_id":"4","last_reported":1752091906,"current_range_meters":22400,"station_id":"ce4bhu92rcd13ifvqi70","pricing_plan_id":"cebpf4jnsgd1na2vs0mg"},{"bike_id":"a3d06fdd-d90f-4da8-9200-8f61c005f0a2","system_id":"levelo_inurba_marseille","lat":43.22501,"lon":5.34776,"is_reserved":false,"is_disabled":false,"rental_uris":{"android":"levelo://app?vid=a3d06fdd-d90f-4da8-9200-8f61c005f0a2","ios":"levelo://app?vid=a3d06fdd-d90f-4da8-9200-8f61c005f0a2"},"vehicle_type_id":"4","last_reported":1752091906,"current_range_meters":22400,"station_id":"st_cvj5dfep6f1abm77gieg","pricing_plan_id":"cebpf4jnsgd1na2vs0mg"},{"bike_id":"82201c9a-59c8-4691-b60a-828bec2da703","system_id":"levelo_inurba_marseille","lat":43.26161,"lon":5.37468,"is_reserved":false,"is_disabled":false,"rental_uris":{"android":"levelo://app?vid=82201c9a-59c8-4691-b60a-828bec2da703","ios":"levelo://app?vid=82201c9a-59c8-4691-b60a-828bec2da703"},"vehicle_type_id":"4","last_reported":1752091906,"current_range_meters":22800,"station_id":"","pricing_plan_id":"cebpf4jnsgd1na2vs0mg"},{"bike_id":"b622dadd-cca6-42e7-87d2-efc245e16d3b","system_id":"levelo_inurba_marseille","lat":43.29858,"lon":5.36238,"is_reserved":false,"is_disabled":false,"rental_uris":{"android":"levelo://app?vid=b622dadd-cca6-42e7-87d2-efc245e16d3b","ios":"levelo://app?vid=b622dadd-cca6-42e7-87d2-efc245e16d3b"},"vehicle_type_id":"4","last_reported":1752091906,"current_range_meters":22800,"station_id":"ce4bgpp2rcd13ifvqc3g","pricing_plan_id":"cebpf4jnsgd1na2vs0mg"},{"bike_id":"3b18546f-c950-4cd2-b929-a82db98c31a1","system_id":"levelo_inurba_marseille","lat":43.29973,"lon":5.37187,"is_reserved":false,"is_disabled":false,"rental_uris":{"android":"levelo://app?vid=3b18546f-c950-4cd2-b929-a82db98c31a1","ios":"levelo://app?vid=3b18546f-c950-4cd2-b929-a82db98c31a1"},"vehicle_type_id":"4","last_reported":1752091906,"current_range_meters":22800,"station_id":"ce4bgr92rcd13ifvqc7g","pricing_plan_id":"cebpf4jnsgd1na2vs0mg"},{"bike_id":"e4f40379-8458-4b6c-b15e-206aa2151a28","system_id":"levelo_inurba_marseille","lat":43.29623,"lon":5.40595,"is_reserved":false,"is_disabled":false,"rental_uris":{"android":"levelo://app?vid=e4f40379-8458-4b6c-b15e-206aa2151a28","ios":"levelo://app?vid=e4f40379-8458-4b6c-b15e-206aa2151a28"},"vehicle_type_id":"4","last_reported":1752091906,"current_range_meters":22800,"station_id":"ce4bh0h2rcd13ifvqd60","pricing_plan_id":"cebpf4jnsgd1na2vs0mg"},