{"last_updated":1737165870,"ttl":60,"version":"2.2","data":{"bikes":[{"bike_id":"15be9ed1-9cf5-4ebb-ae1b-8f82a5c52ade","system_id":"levelo_inurba_marseille","lat":43.30313,"lon":5.40446,"is_reserved":false,"is_disabled":false,"rental_uris":{"android":"levelo://app?vid=15be9ed1-9cf5-4ebb-ae1b-8f82a5c52ade","ios":"levelo://app?vid=15be9ed1-9cf5-4ebb-ae1b-8f82a5c52ade"},"vehicle_type_id":"4","last_reported":1737165870,"current_range_meters":36800,"station_id":"ce4bh012rcd13ifvqd10","pricing_plan_id":"cebpf4jnsgd1na2vs0mg"},{"bike_id":"0f881e68-539f-46b7-ac38-4fc68735aa91","system_id":"levelo_inurba_marseille","lat":43.28659,"lon":5.36343,"is_reserved":false,"is_disabled":false,"rental_uris":{"android":"levelo://app?vid=0f881e68-539f-46b7-ac38-4fc68735aa91","ios":"levelo://app?vid=0f881e68-539f-46b7-ac38-4fc68735aa91"},"vehicle_type_id":"4","last_reported":1737165870,"current_range_meters":38800,"station_id":"ce4bhah2rcd13ifvqej0","pricing_plan_id":"cebpf4jnsgd1na2vs0mg"},{"bike_id":"02441001-2171-4533-8d00-cde9d711c640","system_id":"levelo_inurba_marseille","lat":43.23965,"lon":5.36619,"is_reserved":false,"is_disabled":false,"rental_uris":{"android":"levelo://app?vid=02441001-2171-4533-8d00-cde9d711c640","ios":"levelo://app?vid=02441001-2171-4533-8d00-cde9d711c640"},"vehicle_type_id":"4","last_reported":1737165870,"current_range_meters":35600,"station_id":"ce4bhi12rcd13ifvqfp0","pricing_plan_id":"cebpf4jnsgd1na2vs0mg"},{"bike_id":"83423ef3-b993-424a-99e2-60978295cc1a","system_id":"levelo_inurba_marseille","lat":43.27979,"lon":5.41657,"is_reserved":false,"is_disabled":false,"rental_uris":{"android":"levelo://app?vid=83423ef3-b993-424a-99e2-60978295cc1a","ios":"levelo://app?vid=83423ef3-b993-424a-99e2-60978295cc1a"},"vehicle_type_id":"4","last_reported":1737165870,"current_range_meters":11200,"station_id":"ce4bho12rcd13ifvqh1g","pricing_plan_id":"cebpf4jnsgd1na2vs0mg"},{"bike_id":"e84b691f-df6c-4038-8188-902ca43a09e5","system_id":"levelo_inurba_marseille","lat":43.30682,"lon":5.40046,"is_reserved":false,"is_disabled":false,"rental_uris":{"android":"levelo://app?vid=e84b691f-df6c-4038-8188-902ca43a09e5","ios":"levelo://app?vid=e84b691f-df6c-4038-8188-902ca43a09e5"},"vehicle_type_id":"4","last_reported":1737165870,"current_range_meters":38800,"station_id":"","pricing_plan_id":"cebpf4jnsgd1na2vs0mg"},{"bike_id":"ffba9e4f-6eab-475c-a02b-053418152215","system_id":"levelo_inurba_marseille","lat":43.25504,"lon":5.37647,"is_reserved":false,"is_disabled":false,"rental_uris":{"android":"levelo://app?vid=ffba9e4f-6eab-475c-a02b-053418152215","ios":"levelo://app?vid=ffba9e4f-6eab-475c-a02b-053418152215"},"vehicle_type_id":"4","last_reported":1737165870,"current_range_meters":39200,"station_id":"ce4bhh12rcd13ifvqff0","pricing_plan_id":"cebpf4jnsgd1na2vs0mg"},{"bike_id":"b3cba4ee-4550-47d5-b440-5d744bbdbb65","system_id":"levelo_inurba_marseille","lat":43.29624,"lon":5.40579,"is_reserved":false,"is_disabled":false,"rental_uris":{"android":"levelo://app?vid=b3cba4ee-4550-47d5-b440-5d744bbdbb65","ios":"levelo://app?vid=b3cba4ee-4550-47d5-b440-5d744bbdbb65"},"vehicle_type_id":"4","last_reported":1737165870,"current_range_meters":38800,"station_id":"ce4bh0h2rcd13ifvqd60","pricing_plan_id":"cebpf4jnsgd1na2vs0mg"},{"bike_id":"12dd2448-1029-4b7c-89ec-d387df87cf8f","system_id":"levelo_inurba_marseille","lat":43.30793,"lon":5.38147,"is_reserved":false,"is_disabled":false,"rental_uris":{"android":"levelo://app?vid=12dd2448-1029-4b7c-89ec-d387df87cf8f","ios":"levelo://app?vid=12dd2448-1029-4b7c-89ec-d387df87cf8f"},"vehicle_type_id":"4","last_reported":1737165870,"current_range_meters":38800,"station_id":"ce4bgt12rcd13ifvqce0","pricing_plan_id":"cebpf4jnsgd1na2vs0mg"},{"bike_id":"c86b28e8-8d5a-470d-9cf2-27fc2f94c6b2","system_id":"levelo_inurba_marseille","lat":43.28114,"lon":5.37862,"is_reserved":false,"is_disabled":false,"rental_uris":{"android":"levelo://app?vid=c86b28e8-8d5a-470d-9cf2-27fc2f94c6b2","ios":"levelo://app?vid=c86b28e8-8d5a-470d-9cf2-27fc2f94c6b2"},"vehicle_type_id":"4","last_reported":1737165870,"current_range_meters":17200,"station_id":"ce4bha12rcd13ifvqee0","pricing_plan_id":"cebpf4jnsgd1na2vs0mg"},{"bike_id":"b5f69fe0-a4a5-4828-bcfc-720b5636daf0","system_id":"levelo_inurba_marseille","lat":43.23965,"lon":5.36627,"is_reserved":false,"is_disabled":false,"rental_uris":{"android":"levelo://app?vid=b5f69fe0-a4a5-4828-bcfc-720b5636daf0","ios":"levelo://app?vid=b5f69fe0-a4a5-4828-bcfc-720b5636daf0"},"vehicle_type_id":"4","last_reported":1737165870,"current_range_meters":10000,"station_id":"ce4bhi12rcd13ifvqfp0","pricing_plan_id":"cebpf4jnsgd1na2vs0mg"},{"bike_id":"aea0287f-4f91-4afc-9a41-49d56054a64b","system_id":"levelo_inurba_marseille","lat":43.317,"lon":5.40453,"is_reserved":false,"is_disabled":false,"rental_uris":{"android":"levelo://app?vid=aea0287f-4f91-4afc-9a41-49d56054a64b","ios":"levelo://app?vid=aea0287f-4f91-4afc-9a41-49d56054a64b"},"vehicle_type_id":"4","last_reported":1737165870,"current_range_meters":17600,"station_id":"ce4bh012rcd13ifvqd00","pricing_plan_id":"cebpf4jnsgd1na2vs0mg"},{"bike_id":"5ff1c1c1-92c2-43f7-8f5e-7f9a3f2cf9a0","system_id":"levelo_inurba_marseille","lat":43.24167,"lon":5.3971,"is_reserved":false,"is_disabled":false,"rental_uris":{"android":"levelo://app?vid=5ff1c1c1-92c2-43f7-8f5e-7f9a3f2cf9a0","ios":"levelo://app?vid=5ff1c1c1-92c2-43f7-8f5e-7f9a3f2cf9a0"},"vehicle_type_id":"4","last_reported":1737165870,"current_range_meters":38800,"station_id":"ce4bhn12rcd13ifvqgpg","pricing_plan_id":"cebpf4jnsgd1na2vs0mg"},{"bike_id":"da0080f8-7d77-4266-9654-4ff013a18db1","system_id":"levelo_inurba_marseille","lat":43.31167,"lon":5.38712,"is_reserved":false,"is_disabled":false,"rental_uris":{"android":"levelo://app?vid=da0080f8-7d77-4266-9654-4ff013a18db1","ios":"levelo://app?vid=da0080f8-7d77-4266-9654-4ff013a18db1"},"vehicle_type_id":"4","last_reported":1737165870,"current_range_meters":30000,"station_id":"ce4bgv12rcd13ifvqcp0","pricing_plan_id":"cebpf4jnsgd1na2vs0mg"},{"bike_id":"01605beb-4537-4676-a338-55111b0cf0a7","system_id":"levelo_inurba_marseille","lat":43.28693,"lon":5.37409,"is_reserved":false,"is_disabled":false,"rental_uris":{"android":"levelo://app?vid=01605beb-4537-4676-a338-55111b0cf0a7","ios":"levelo://app?vid=01605beb-4537-4676-a338-55111b0cf0a7"},"vehicle_type_id":"4","last_reported":1737165870,"current_range_meters":8000,"station_id":"ce4bh3p2rcd13ifvqdq0","pricing_plan_id":"cebpf4jnsgd1na2vs0mg"},{"bike_id":"f57aec44-1728-458c-a50e-548d613a9de7","system_id":"levelo_inurba_marseille","lat":43.31367,"lon":5.39724,"is_reserved":false,"is_disabled":false,"rental_uris":{"android":"levelo://app?vid=f57aec44-1728-458c-a50e-548d613a9de7","ios":"levelo://app?vid=f57aec44-1728-458c-a50e-548d613a9de7"},"vehicle_type_id":"4","last_reported":1737165870,"current_range_meters":38000,"station_id":"","pricing_plan_id":"cebpf4jnsgd1na2vs0mg"},{"bike_id":"a5dcdfc0-546b-4a35-a983-5f8da8f6014c","system_id":"levelo_inurba_marseille","lat":43.30882,"lon":5.40146,"is_reserved":false,"is_disabled":false,"rental_uris":{"android":"levelo://app?vid=a5dcdfc0-546b-4a35-a983-5f8da8f6014c","ios":"levelo://app?vid=a5dcdfc0-546b-4a35-a983-5f8da8f6014c"},"vehicle_type_id":"4","last_reported":1737165870,"current_range_meters":38400,"station_id":"","pricing_plan_id":"cebpf4jnsgd1na2vs0mg"},{"bike_id":"32c048c3-e81a-4a29-a33e-90248ec2bdf0","system_id":"levelo_inurba_marseille","lat":43.313644,"lon":5.384976,"is_reserved":false,"is_disabled":false,"rental_uris":{"android":"levelo://app?vid=32c048c3-e81a-4a29-a33e-90248ec2bdf0","ios":"levelo://app?vid=32c048c3-e81a-4a29-a33e-90248ec2bdf0"},"vehicle_type_id":"4","last_reported":1737165870,"current_range_meters":38000,"station_id":"ce4bgt92rcd13ifvqcf0","pricing_plan_id":"cebpf4jnsgd1na2vs0mg"},{"bike_id":"d8876122-ff1e-42bb-a9ac-c66c39d72467","system_id":"levelo_inurba_marseille","lat":43.24392,"lon":5.37051,"is_reserved":false,"is_disabled":false,"rental_uris":{"android":"levelo://app?vid=d8876122-ff1e-42bb-a9ac-c66c39d72467","ios":"levelo://app?vid=d8876122-ff1e-42bb-a9ac-c66c39d72467"},"vehicle_type_id":"4","last_reported":1737165870,"current_range_meters":28400,"station_id":"ce4bhhh2rcd13ifvqfk0","pricing_plan_id":"cebpf4jnsgd1na2vs0mg"},{"bike_id":"29cb8a32-e9f9-4658-bd20-77050ade4ff3","system_id":"levelo_inurba_marseille","lat":43.30877,"lon":5.39634,"is_reserved":false,"is_disabled":false,"rental_uris":{"android":"levelo://app?vid=29cb8a32-e9f9-4658-bd20-77050ade4ff3","ios":"levelo://app?vid=29cb8a32-e9f9-4658-bd20-77050ade4ff3"},"vehicle_type_id":"4","last_reported":1737165870,"current_range_meters":28800,"station_id":"ce4bh012rcd13ifvqcv0","pricing_plan_id":"cebpf4jnsgd1na2vs0mg"},{"bike_id":"c22b1f21-8fa9-43f7-b474-851f04d9cabe","system_id":"levelo_inurba_marseille","lat":43.27827,"lon":5.39209,"is_reserved":false,"is_disabled":false,"rental_uris":{"android":"levelo://app?vid=c22b1f21-8fa9-43f7-b474-851f04d9cabe","ios":"levelo://app?vid=c22b1f21-8fa9-43f7-b474-851f04d9cabe"},"vehicle_type_id":"4","last_reported":1737165870,"current_range_meters":24000,"station_id":"ce4bhjp2rcd13ifvqga0","pricing_plan_id":"cebpf4jnsgd1na2vs0mg"},{"bike_id":"b8fec1c1-401a-47ca-bedf-01b3cfadb88f","system_id":"levelo_inurba_marseille","lat":43.31278,"lon":5.40161,"is_reserved":false,"is_disabled":false,"rental_uris":{"android":"levelo://app?vid=b8fec1c1-401a-47ca-bedf-01b3cfadb88f","ios":"levelo://app?vid=b8fec1c1-401a-47ca-bedf-01b3cfadb88f"},"vehicle_type_id":"4","last_reported":1737165870,"current_range_meters":35200,"station_id":"ce4bh092rcd13ifvqd30","pricing_plan_id":"cebpf4jnsgd1na2vs0mg"},{"bike_id":"453b4a42-026b-40d5-9f5c-2f1a04698821","system_id":"levelo_inurba_marseille","lat":43.3125,"lon":5.40183,"is_reserved":false,"is_disabled":false,"rental_uris":{"android":"levelo://app?vid=453b4a42-026b-40d5-9f5c-2f1a04698821","ios":"levelo://app?vid=453b4a42-026b-40d5-9f5c-2f1a04698821"},"vehicle_type_id":"4","last_reported":1737165870,"current_range_meters":38800,"station_id":"ce4bh092rcd13ifvqd30","pricing_plan_id":"cebpf4jnsgd1na2vs0mg"},{"bike_id":"e61e1f5e-4a92-48d3-a7ca-c12197871b5f","system_id":"levelo_inurba_marseille","lat":43.31208,"lon":5.36903,"is_reserved":false,"is_disabled":false,"rental_uris":{"android":"levelo://app?vid=e61e1f5e-4a92-48d3-a7ca-c12197871b5f","ios":"levelo://app?vid=e61e1f5e-4a92-48d3-a7ca-c12197871b5f"},"vehicle_type_id":"4","last_reported":1737165870,"current_range_meters":38800,"station_id":"ce4bgl92rcd13ifvqbq0","pricing_plan_id":"cebpf4jnsgd1na2vs0mg"},{"bike_id":"e43a3f1c-ee0a-457c-aaad-c3802d020976","system_id":"levelo_inurba_marseille","lat":43.28442,"lon":5.39184,"is_reserved":false,"is_disabled":false,"rental_uris":{"android":"levelo://app?vid=e43a3f1c-ee0a-457c-aaad-c3802d020976","ios":"levelo://app?vid=e43a3f1c-ee0a-457c-aaad-c3802d020976"},"vehicle_type_id":"4","last_reported":1737165870,"current_range_meters":38000,"station_id":"ce4bhoh2rcd13ifvqh5g","pricing_plan_id":"cebpf4jnsgd1na2vs0mg"},{"bike_id":"afff1649-59f3-4475-b17f-4286047a72cf","system_id":"levelo_inurba_marseille","lat":43.30918,"lon":5.40143,"is_reserved":false,"is_disabled":false,"rental_uris":{"android":"levelo://app?vid=afff1649-59f3-4475-b17f-4286047a72cf","ios":"levelo://app?vid=afff1649-59f3-4475-b17f-4286047a72cf"},"vehicle_type_id":"4","last_reported":1737165870,"current_range_meters":20000,"station_id":"ce4bgvp2rcd13ifvqct0","pricing_plan_id":"cebpf4jnsgd1na2vs0mg"},{"bike_id":"f3c94274-f861-4c89-8bb1-1ebe1a531935","system_id":"levelo_inurba_marseille","lat":43.24989,"lon":5.3886,"is_reserved":false,"is_disabled":false,"rental_uris":{"android":"levelo://app?vid=f3c94274-f861-4c89-8bb1-1ebe1a531935","ios":"levelo://app?vid=f3c94274-f861-4c89-8bb1-1ebe1a531935"},"vehicle_type_id":"4","last_reported":1737165870,"current_range_meters":3200,"station_id":"ce4bhgp2rcd13ifvqfd0","pricing_plan_id":"cebpf4jnsgd1na2vs0mg"},{"bike_id":"40d0191c-e810-4a36-a422-bc4c430d36d5","system_id":"levelo_inurba_marseille","lat":43.28152,"lon":5.42654,"is_reserved":false,"is_disabled":false,"rental_uris":{"android":"levelo://app?vid=40d0191c-e810-4a36-a422-bc4c430d36d5","ios":"levelo://app?vid=40d0191c-e810-4a36-a422-bc4c430d36d5"},"vehicle_type_id":"4","last_reported":1737165870,"current_range_meters":20000,"station_id":"ce4bhnh2rcd13ifvqgug","pricing_plan_id":"cebpf4jnsgd1na2vs0mg"},{"bike_id":"ea820ade-d81d-428e-82b9-7f165f7e8e75","system_id":"levelo_inurba_marseille","lat":43.31822,"lon":5.37396,"is_reserved":false,"is_disabled":false,"rental_uris":{"android":"levelo://app?vid=ea820ade-d81d-428e-82b9-7f165f7e8e75","ios":"levelo://app?vid=ea820ade-d81d-428e-82b9-7f165f7e8e75"},"vehicle_type_id":"4","last_reported":1737165870,"current_range_meters":24800,"station_id":"","pricing_plan_id":"cebpf4jnsgd1na2vs0mg"},{"bike_id":"ff4b68f1-ba61-49bc-bc42-1ee83da4c2ee","system_id":"levelo_inurba_marseille","lat":43.308901,"lon":5.39639,"is_reserved":false,"is_disabled":false,"rental_uris":{"android":"levelo://app?vid=ff4b68f1-ba61-49bc-bc42-1ee83da4c2ee","ios":"levelo://app?vid=ff4b68f1-ba61-49bc-bc42-1ee83da4c2ee"},"vehicle_type_id":"4","last_reported":1737165870,"current_range_meters":37600,"station_id":"ce4bh012rcd13ifvqcv0","pricing_plan_id":"cebpf4jnsgd1na2vs0mg"},{"bike_id":"84020291-e3ee-488e-a74c-f035fe041e83","system_id":"levelo_inurba_marseille","lat":43.26931,"lon":5.40258,"is_reserved":false,"is_disabled":false,"rental_uris":{"android":"levelo://app?vid=84020291-e3ee-488e-a74c-f035fe041e83","ios":"levelo://app?vid=84020291-e3ee-488e-a74c-f035fe041e83"},"vehicle_type_id":"4","last_reported":1737165870,"current_range_meters":38000,"station_id":"cjm6bp8fraef2m0cb0m0","pricing_plan_id":"cebpf4jnsgd1na2vs0mg"},{"bike_id":"15c9bac7-063b-4008-8233-689b3351f329","system_id":"levelo_inurba_marseille","lat":43.24801,"lon":5.37464,"is_reserved":false,"is_disabled":false,"rental_uris":{"android":"levelo://app?vid=15c9bac7-063b-4008-8233-689b3351f329","ios":"levelo://app?vid=15c9bac7-063b-4008-8233-689b3351f329"},"vehicle_type_id":"4","last_reported":1737165870,"current_range_meters":38800,"station_id":"ce4bhgh2rcd13ifvqfb0","pricing_plan_id":"cebpf4jnsgd1na2vs0mg"},{"bike_id":"8c854656-dcbb-4282-96d8-4a8ea876f913","system_id":"levelo_inurba_marseille","lat":43.30318,"lon":5.4045,"is_reserved":false,"is_disabled":false,"rental_uris":{"android":"levelo://app?vid=8c854656-dcbb-4282-96d8-4a8ea876f913","ios":"levelo://app?vid=8c854656-dcbb-4282-96d8-4a8ea876f913"},"vehicle_type_id":"4","last_reported":1737165870,"current_range_meters":33200,"station_id":"ce4bh012rcd13ifvqd10","pricing_plan_id":"cebpf4jnsgd1na2vs0mg"},{"bike_id":"d8fbafb8-c367-43a8-89ce-c028dba221aa","system_id":"levelo_inurba_marseille","lat":43.29207,"lon":5.40921,"is_reserved":false,"is_disabled":false,"rental_uris":{"android":"levelo://app?vid=d8fbafb8-c367-43a8-89ce-c028dba221aa","ios":"levelo://app?vid=d8fbafb8-c367-43a8-89ce-c028dba221aa"},"vehicle_type_id":"4","last_reported":1737165870,"current_range_meters":38800,"station_id":"","pricing_plan_id":"cebpf4jnsgd1na2vs0mg"},{"bike_id":"996cc7ad-31ae-48de-8584-bf53e40d5297","system_id":"levelo_inurba_marseille","lat":43.28111,"lon":5.37821,"is_reserved":false,"is_disabled":true,"rental_uris":{"android":"levelo://app?vid=996cc7ad-31ae-48de-8584-bf53e40d5297","ios":"levelo://app?vid=996cc7ad-31ae-48de-8584-bf53e40d5297"},"vehicle_type_id":"4","last_reported":1737165870,"current_range_meters":2000,"station_id":"ce4bha12rcd13ifvqee0","pricing_plan_id":"cebpf4jnsgd1na2vs0mg"},{"bike_id":"b672b566-ae6e-4181-a2cb-0155be334a04","system_id":"levelo_inurba_marseille","lat":43.2894,"lon":5.36627,"is_reserved":false,"is_disabled":true,"rental_uris":{"android":"levelo://app?vid=b672b566-ae6e-4181-a2cb-0155be334a04","ios":"levelo://app?vid=b672b566-ae6e-4181-a2cb-0155be334a04"},"vehicle_type_id":"4","last_reported":1737165870,"current_range_meters":1200,"station_id":"ce4bhap2rcd13ifvqek0","pricing_plan_id":"cebpf4jnsgd1na2vs0mg"},{"bike_id":"264e5736-5f1f-488b-9894-7a93e48763e1","system_id":"levelo_inurba_marseille","lat":43.2846,"lon":5.35876,"is_reserved":false,"is_disabled":false,"rental_uris":{"android":"levelo://app?vid=264e5736-5f1f-488b-9894-7a93e48763e1","ios":"levelo://app?vid=264e5736-5f1f-488b-9894-7a93e48763e1"},"vehicle_type_id":"4","last_reported":1737165870,"current_range_meters":14800,"station_id":"ce4bhah2rcd13ifvqei0","pricing_plan_id":"cebpf4jnsgd1na2vs0mg"},{"bike_id":"fd32118a-1e10-4bd3-9c96-03160537b3f3","system_id":"levelo_inurba_marseille","lat":43.28704,"lon":5.36086,"is_reserved":false,"is_disabled":false,"rental_uris":{"android":"levelo://app?vid=fd32118a-1e10-4bd3-9c96-03160537b3f3","ios":"levelo://app?vid=fd32118a-1e10-4bd3-9c96-03160537b3f3"},"vehicle_type_id":"4","last_reported":1737165870,"current_range_meters":24800,"station_id":"cki0cbj6b192h4jlfktg","pricing_plan_id":"cebpf4jnsgd1na2vs0mg"},{"bike_id":"691b9807-39e4-49d3-99ef-db40ae478116","system_id":"levelo_inurba_marseille","lat":43.28282,"lon":5.35069,"is_reserved":false,"is_disabled":false,"rental_uris":{"android":"levelo://app?vid=691b9807-39e4-49d3-99ef-db40ae478116","ios":"levelo://app?vid=691b9807-39e4-49d3-99ef-db40ae478116"},"vehicle_type_id":"4","last_reported":1737165870,"current_range_meters":38000,"station_id":"ce4bhbp2rcd13ifvqerg","pricing_plan_id":"cebpf4jnsgd1na2vs0mg"},{"bike_id":"66ec8711-3dbc-48f7-b091-25773ac6b77c","system_id":"levelo_inurba_marseille","lat":43.28185,"lon":5.44249,"is_reserved":false,"is_disabled":true,"rental_uris":{"android":"levelo://app?vid=66ec8711-3dbc-48f7-b091-25773ac6b77c","ios":"levelo://app?vid=66ec8711-3dbc-48f7-b091-25773ac6b77c"},"vehicle_type_id":"4","last_reported":1737165870,"current_range_meters":0,"station_id":"","pricing_plan_id":"cebpf4jnsgd1na2vs0mg"},{"bike_id":"5e143f2e-5809-48e3-af3c-832b93623f81","system_id":"levelo_inurba_marseille","lat":43.29782,"lon":5.40413,"is_reserved":false,"is_disabled":false,"rental_uris":{"android":"levelo://app?vid=5e143f2e-5809-48e3-af3c-832b93623f81","ios":"levelo://app?vid=5e143f2e-5809-48e3-af3c-832b93623f81"},"vehicle_type_id":"4","last_reported":1737165870,"current_range_meters":39200,"station_id":"ce4bh112rcd13ifvqd90","pricing_plan_id":"cebpf4jnsgd1na2vs0mg"},{"bike_id":"b00fa8b1-43f4-4cb6-87c6-8c029bc12829","system_id":"levelo_inurba_marseille","lat":43.27372,"lon":5.36264,"is_reserved":false,"is_disabled":false,"rental_uris":{"android":"levelo://app?vid=b00fa8b1-43f4-4cb6-87c6-8c029bc12829","ios":"levelo://app?vid=b00fa8b1-43f4-4cb6-87c6-8c029bc12829"},"vehicle_type_id":"4","last_reported":1737165870,"current_range_meters":25600,"station_id":"ce4bhbh2rcd13ifvqeo0","pricing_plan_id":"cebpf4jnsgd1na2vs0mg"},{"bike_id":"205bad44-c621-4d52-b263-e1e130d381fc","system_id":"levelo_inurba_marseille","lat":43.30442,"lon":5.39724,"is_reserved":false,"is_disabled":false,"rental_uris":{"android":"levelo://app?vid=205bad44-c621-4d52-b263-e1e130d381fc","ios":"levelo://app?vid=205bad44-c621-4d52-b263-e1e130d381fc"},"vehicle_type_id":"4","last_reported":1737165870,"current_range_meters":15200,"station_id":"ce4bh092rcd13ifvqd20","pricing_plan_id":"cebpf4jnsgd1na2vs0mg"},{"bike_id":"b6727c2a-0037-431b-96be-59029d8169fa","system_id":"levelo_inurba_marseille","lat":43.3123,"lon":5.36813,"is_reserved":false,"is_disabled":false,"rental_uris":{"android":"levelo://app?vid=b6727c2a-0037-431b-96be-59029d8169fa","ios":"levelo://app?vid=b6727c2a-0037-431b-96be-59029d8169fa"},"vehicle_type_id":"4","last_reported":1737165870,"current_range_meters":28400,"station_id":"ce4bgl92rcd13ifvqbq0","pricing_plan_id":"cebpf4jnsgd1na2vs0mg"},{"bike_id":"0ce2ff96-cf7c-44da-8785-cacc89ceb5f3","system_id":"levelo_inurba_marseille","lat":43.27562,"lon":5.38415,"is_reserved":false,"is_disabled":false,"rental_uris":{"android":"levelo://app?vid=0ce2ff96-cf7c-44da-8785-cacc89ceb5f3","ios":"levelo://app?vid=0ce2ff96-cf7c-44da-8785-cacc89ceb5f3"},"vehicle_type_id":"4","last_reported":1737165870,"current_range_meters":38800,"station_id":"ce4bhh92rcd13ifvqfi0","pricing_plan_id":"cebpf4jnsgd1na2vs0mg"},{"bike_id":"fae596ec-c4c8-4303-a419-c17ca93b0494","system_id":"levelo_inurba_marseille","lat":43.28279,"lon":5.35058,"is_reserved":false,"is_disabled":false,"rental_uris":{"android":"levelo://app?vid=fae596ec-c4c8-4303-a419-c17ca93b0494","ios":"levelo://app?vid=fae596ec-c4c8-4303-a419-c17ca93b0494"},"vehicle_type_id":"4","last_reported":1737165870,"current_range_meters":16400,"station_id":"ce4bhbp2rcd13ifvqerg","pricing_plan_id":"cebpf4jnsgd1na2vs0mg"},{"bike_id":"4db02bf0-6e87-4f69-8331-383a454d338f","system_id":"levelo_inurba_marseille","lat":43.25112,"lon":5.4034,"is_reserved":false,"is_disabled":false,"rental_uris":{"android":"levelo://app?vid=4db02bf0-6e87-4f69-8331-383a454d338f","ios":"levelo://app?vid=4db02bf0-6e87-4f69-8331-383a454d338f"},"vehicle_type_id":"4","last_reported":1737165870,"current_range_meters":17200,"station_id":"ce4bhlh2rcd13ifvqgig","pricing_plan_id":"cebpf4jnsgd1na2vs0mg"},{"bike_id":"8a976244-dead-4ea1-8752-b392d9189278","system_id":"levelo_inurba_marseille","lat":43.28937,"lon":5.36411,"is_reserved":false,"is_disabled":false,"rental_uris":{"android":"levelo://app?vid=8a976244-dead-4ea1-8752-b392d9189278","ios":"levelo://app?vid=8a976244-dead-4ea1-8752-b392d9189278"},"vehicle_type_id":"4","last_reported":1737165870,"current_range_meters":36800,"station_id":"ce4bhc92rcd13ifvqetg","pricing_plan_id":"cebpf4jnsgd1na2vs0mg"},{"bike_id":"404c84e1-2412-41f4-a3e3-c0c5dcae08ab","system_id":"levelo_inurba_marseille","lat":43.290036,"lon":5.356188,"is_reserved":false,"is_disabled":false,"rental_uris":{"android":"levelo://app?vid=404c84e1-2412-41f4-a3e3-c0c5dcae08ab","ios":"levelo://app?vid=404c84e1-2412-41f4-a3e3-c0c5dcae08ab"},"vehicle_type_id":"4","last_reported":1737165870,"current_range_meters":38400,"station_id":"ce4bhb92rcd13ifvqen0","pricing_plan_id":"cebpf4jnsgd1na2vs0mg"},{"bike_id":"7290a960-a5a5-4813-ae34-1769183e58f7","system_id":"levelo_inurba_marseille","lat":43.30658,"lon":5.40065,"is_reserved":false,"is_disabled":false,"rental_uris":{"android":"levelo://app?vid=7290a960-a5a5-4813-ae34-1769183e58f7","ios":"levelo://app?vid=7290a960-a5a5-4813-ae34-1769183e58f7"},"vehicle_type_id":"4","last_reported":1737165870,"current_range_meters":8800,"station_id":"ce4bh112rcd13ifvqda0","pricing_plan_id":"cebpf4jnsgd1na2vs0mg"},{"bike_id":"d538085c-342a-4314-81c7-b4e115511ca7","system_id":"levelo_inurba_marseille","lat":43.30307,"lon":5.40447,"is_reserved":false,"is_disabled":false,"rental_uris":{"android":"levelo://app?vid=d538085c-342a-4314-81c7-b4e115511ca7","ios":"levelo://app?vid=d538085c-342a-4314-81c7-b4e115511ca7"},"vehicle_type_id":"4","last_reported":1737165870,"current_range_meters":30800,"station_id":"ce4bh012rcd13ifvqd10","pricing_plan_id":"cebpf4jnsgd1na2vs0mg"},{"bike_id":"2ee0ccc1-a9e0-4e15-a20f-a75b9ce52b18","system_id":"levelo_inurba_marseille","lat":43.28473,"lon":5.35877,"is_reserved":false,"is_disabled":false,"rental_uris":{"android":"levelo://app?vid=2ee0ccc1-a9e0-4e15-a20f-a75b9ce52b18","ios":"levelo://app?vid=2ee0ccc1-a9e0-4e15-a20f-a75b9ce52b18"},"vehicle_type_id":"4","last_reported":1737165870,"current_range_meters":38800,"station_id":"ce4bhah2rcd13ifvqei0","pricing_plan_id":"cebpf4jnsgd1na2vs0mg"},{"bike_id":"06cbc3c2-e2d5-43e1-b11b-e14f02e91dcf","system_id":"levelo_inurba_marseille","lat":43.29006,"lon":5.3558,"is_reserved":false,"is_disabled":false,"rental_uris":{"android":"levelo://app?vid=06cbc3c2-e2d5-43e1-b11b-e14f02e91dcf","ios":"levelo://app?vid=06cbc3c2-e2d5-43e1-b11b-e14f02e91dcf"},"vehicle_type_id":"4","last_reported":1737165870,"current_range_meters":38000,"station_id":"ce4bhb92rcd13ifvqen0","pricing_plan_id":"cebpf4jnsgd1na2vs0mg"},{"bike_id":"ddd0f931-cbac-4c6f-a954-99f4c395d4da","system_id":"levelo_inurba_marseille","lat":43.27974,"lon":5.38688,"is_reserved":false,"is_disabled":false,"rental_uris":{"android":"levelo://app?vid=ddd0f931-cbac-4c6f-a954-99f4c395d4da","ios":"levelo://app?vid=ddd0f931-cbac-4c6f-a954-99f4c395d4da"},"vehicle_type_id":"4","last_reported":1737165870,"current_range_meters":36400,"station_id":"ce4bhg12rcd13ifvqf80","pricing_plan_id":"cebpf4jnsgd1na2vs0mg"},{"bike_id":"e44d3b46-7a6c-48a1-bfde-c63c43f92cf0","system_id":"levelo_inurba_marseille","lat":43.28646,"lon":5.35057,"is_reserved":false,"is_disabled":false,"rental_uris":{"android":"levelo://app?vid=e44d3b46-7a6c-48a1-bfde-c63c43f92cf0","ios":"levelo://app?vid=e44d3b46-7a6c-48a1-bfde-c63c43f92cf0"},"vehicle_type_id":"4","last_reported":1737165870,"current_range_meters":30800,"station_id":"ce4bhch2rcd13ifvqeug","pricing_plan_id":"cebpf4jnsgd1na2vs0mg"},{"bike_id":"25332f52-1e5b-488b-9e27-b2b6a2102903","system_id":"levelo_inurba_marseille","lat":43.28932,"lon":5.36638,"is_reserved":false,"is_disabled":false,"rental_uris":{"android":"levelo://app?vid=25332f52-1e5b-488b-9e27-b2b6a2102903","ios":"levelo://app?vid=25332f52-1e5b-488b-9e27-b2b6a2102903"},"vehicle_type_id":"4","last_reported":1737165870,"current_range_meters":38800,"station_id":"ce4bhap2rcd13ifvqek0","pricing_plan_id":"cebpf4jnsgd1na2vs0mg"},{"bike_id":"034764a4-57b8-404a-9faa-15d67a8b57f9","system_id":"levelo_inurba_marseille","lat":43.28068,"lon":5.39658,"is_reserved":false,"is_disabled":false,"rental_uris":{"android":"levelo://app?vid=034764a4-57b8-404a-9faa-15d67a8b57f9","ios":"levelo://app?vid=034764a4-57b8-404a-9faa-15d67a8b57f9"},"vehicle_type_id":"4","last_reported":1737165870,"current_range_meters":8000,"station_id":"ce4bho12rcd13ifvqh2g","pricing_plan_id":"cebpf4jnsgd1na2vs0mg"},{"bike_id":"0dc6f470-e107-4a62-9e24-59aa7a910dcd","system_id":"levelo_inurba_marseille","lat":43.30935,"lon":5.40135,"is_reserved":false,"is_disabled":false,"rental_uris":{"android":"levelo://app?vid=0dc6f470-e107-4a62-9e24-59aa7a910dcd","ios":"levelo://app?vid=0dc6f470-e107-4a62-9e24-59aa7a910dcd"},"vehicle_type_id":"4","last_reported":1737165870,"current_range_meters":33600,"station_id":"ce4bgvp2rcd13ifvqct0","pricing_plan_id":"cebpf4jnsgd1na2vs0mg"},{"bike_id":"a8e68905-4196-41cc-90d8-ce6a1fbe0294","system_id":"levelo_inurba_marseille","lat":43.27895,"lon":5.37994,"is_reserved":false,"is_disabled":false,"rental_uris":{"android":"levelo://app?vid=a8e68905-4196-41cc-90d8-ce6a1fbe0294","ios":"levelo://app?vid=a8e68905-4196-41cc-90d8-ce6a1fbe0294"},"vehicle_type_id":"4","last_reported":1737165870,"current_range_meters":4000,"station_id":"ce4bhf92rcd13ifvqf50","pricing_plan_id":"cebpf4jnsgd1na2vs0mg"},{"bike_id":"50dff923-6637-4623-b3c6-12a3cea221cd","system_id":"levelo_inurba_marseille","lat":43.28447,"lon":5.35897,"is_reserved":false,"is_disabled":false,"rental_uris":{"android":"levelo://app?vid=50dff923-6637-4623-b3c6-12a3cea221cd","ios":"levelo://app?vid=50dff923-6637-4623-b3c6-12a3cea221cd"},"vehicle_type_id":"4","last_reported":1737165870,"current_range_meters":38800,"station_id":"ce4bhah2rcd13ifvqei0","pricing_plan_id":"cebpf4jnsgd1na2vs0mg"},{"bike_id":"8926b51e-df5d-4d8d-9a11-c3df764a0fbf","system_id":"levelo_inurba_marseille","lat":43.30796,"lon":5.37633,"is_reserved":false,"is_disabled":false,"rental_uris":{"android":"levelo://app?vid=8926b51e-df5d-4d8d-9a11-c3df764a0fbf","ios":"levelo://app?vid=8926b51e-df5d-4d8d-9a11-c3df764a0fbf"},"vehicle_type_id":"4","last_reported":1737165870,"current_range_meters":30400,"station_id":"ce4bgv92rcd13ifvqcq0","pricing_plan_id":"cebpf4jnsgd1na2vs0mg"},{"bike_id":"e1eea23d-75a8-456c-b1ac-bde77546b9f8","system_id":"levelo_inurba_marseille","lat":43.28444,"lon":5.39185,"is_reserved":false,"is_disabled":false,"rental_uris":{"android":"levelo://app?vid=e1eea23d-75a8-456c-b1ac-bde77546b9f8","ios":"levelo://app?vid=e1eea23d-75a8-456c-b1ac-bde77546b9f8"},"vehicle_type_id":"4","last_reported":1737165870,"current_range_meters":38800,"station_id":"ce4bhoh2rcd13ifvqh5g","pricing_plan_id":"cebpf4jnsgd1na2vs0mg"},{"bike_id":"335add6e-5c1e-455f-ae9b-7387a8e18f37","system_id":"levelo_inurba_marseille","lat":43.27358,"lon":5.3626,"is_reserved":false,"is_disabled":false,"rental_uris":{"android":"levelo://app?vid=335add6e-5c1e-455f-ae9b-7387a8e18f37","ios":"levelo://app?vid=335add6e-5c1e-455f-ae9b-7387a8e18f37"},"vehicle_type_id":"4","last_reported":1737165870,"current_range_meters":11200,"station_id":"ce4bhbh2rcd13ifvqeo0","pricing_plan_id":"cebpf4jnsgd1na2vs0mg"},{"bike_id":"c6b2298b-e3ea-4ff5-9aea-4dedd2e2a126","system_id":"levelo_inurba_marseille","lat":43.295315,"lon":5.390136,"is_reserved":false,"is_disabled":true,"rental_uris":{"android":"levelo://app?vid=c6b2298b-e3ea-4ff5-9aea-4dedd2e2a126","ios":"levelo://app?vid=c6b2298b-e3ea-4ff5-9aea-4dedd2e2a126"},"vehicle_type_id":"4","last_reported":1737165870,"current_range_meters":30400,"station_id":"ce4bh3p2rcd13ifvqdp0","pricing_plan_id":"cebpf4jnsgd1na2vs0mg"},{"bike_id":"6802b89c-8da4-4173-a497-131430ef9a30","system_id":"levelo_inurba_marseille","lat":43.29751,"lon":5.38115,"is_reserved":false,"is_disabled":false,"rental_uris":{"android":"levelo://app?vid=6802b89c-8da4-4173-a497-131430ef9a30","ios":"levelo://app?vid=6802b89c-8da4-4173-a497-131430ef9a30"},"vehicle_type_id":"4","last_reported":1737165870,"current_range_meters":4800,"station_id":"","pricing_plan_id":"cebpf4jnsgd1na2vs0mg"},{"bike_id":"a7235c95-ae81-406d-8ca5-290dcb232d31","system_id":"levelo_inurba_marseille","lat":43.28611,"lon":5.37055,"is_reserved":false,"is_disabled":false,"rental_uris":{"android":"levelo://app?vid=a7235c95-ae81-406d-8ca5-290dcb232d31","ios":"levelo://app?vid=a7235c95-ae81-406d-8ca5-290dcb232d31"},"vehicle_type_id":"4","last_reported":1737165870,"current_range_meters":30400,"station_id":"ce4bht12rcd13ifvqi60","pricing_plan_id":"cebpf4jnsgd1na2vs0mg"},{"bike_id":"c73975e6-ce75-4567-b1ed-6f701549cfcd","system_id":"levelo_inurba_marseille","lat":43.25862,"lon":5.39908,"is_reserved":false,"is_disabled":false,"rental_uris":{"android":"levelo://app?vid=c73975e6-ce75-4567-b1ed-6f701549cfcd","ios":"levelo://app?vid=c73975e6-ce75-4567-b1ed-6f701549cfcd"},"vehicle_type_id":"4","last_reported":1737165870,"current_range_meters":28400,"station_id":"ce4bhl92rcd13ifvqghg","pricing_plan_id":"cebpf4jnsgd1na2vs0mg"},{"bike_id":"e174d81a-f0d8-4ee0-a732-d6081a625def","system_id":"levelo_inurba_marseille","lat":43.27175,"lon":5.40988,"is_reserved":false,"is_disabled":false,"rental_uris":{"android":"levelo://app?vid=e174d81a-f0d8-4ee0-a732-d6081a625def","ios":"levelo://app?vid=e174d81a-f0d8-4ee0-a732-d6081a625def"},"vehicle_type_id":"4","last_reported":1737165870,"current_range_meters":39200,"station_id":"ce4bhl12rcd13ifvqgf0","pricing_plan_id":"cebpf4jnsgd1na2vs0mg"},{"bike_id":"6ea4d259-06b8-4e0f-9494-4eae2040b46d","system_id":"levelo_inurba_marseille","lat":43.24161,"lon":5.39702,"is_reserved":false,"is_disabled":false,"rental_uris":{"android":"levelo://app?vid=6ea4d259-06b8-4e0f-9494-4eae2040b46d","ios":"levelo://app?vid=6ea4d259-06b8-4e0f-9494-4eae2040b46d"},"vehicle_type_id":"4","last_reported":1737165870,"current_range_meters":26800,"station_id":"ce4bhn12rcd13ifvqgpg","pricing_plan_id":"cebpf4jnsgd1na2vs0mg"},{"bike_id":"1d203d2b-5bd0-4db1-859e-70bb291edded","system_id":"levelo_inurba_marseille","lat":43.29242,"lon":5.40898,"is_reserved":false,"is_disabled":false,"rental_uris":{"android":"levelo://app?vid=1d203d2b-5bd0-4db1-859e-70bb291edded","ios":"levelo://app?vid=1d203d2b-5bd0-4db1-859e-70bb291edded"},"vehicle_type_id":"4","last_reported":1737165870,"current_range_meters":38800,"station_id":"ce4bh192rcd13ifvqdc0","pricing_plan_id":"cebpf4jnsgd1na2vs0mg"},{"bike_id":"b148288c-2873-49ad-b940-1e1b71e69393","system_id":"levelo_inurba_marseille","lat":43.23143,"lon":5.43714,"is_reserved":false,"is_disabled":false,"rental_uris":{"android":"levelo://app?vid=b148288c-2873-49ad-b940-1e1b71e69393","ios":"levelo://app?vid=b148288c-2873-49ad-b940-1e1b71e69393"},"vehicle_type_id":"4","last_reported":1737165870,"current_range_meters":30800,"station_id":"ce4bhmp2rcd13ifvqgog","pricing_plan_id":"cebpf4jnsgd1na2vs0mg"},{"bike_id":"0aacbbb4-b4df-4112-9f3e-9c8b0c3a36b2","system_id":"levelo_inurba_marseille","lat":43.24387,"lon":5.37053,"is_reserved":false,"is_disabled":false,"rental_uris":{"android":"levelo://app?vid=0aacbbb4-b4df-4112-9f3e-9c8b0c3a36b2","ios":"levelo://app?vid=0aacbbb4-b4df-4112-9f3e-9c8b0c3a36b2"},"vehicle_type_id":"4","last_reported":1737165870,"current_range_meters":38800,"station_id":"ce4bhhh2rcd13ifvqfk0","pricing_plan_id":"cebpf4jnsgd1na2vs0mg"},{"bike_id":"4195a369-a7ca-4062-b0c4-11dcec0d9a33","system_id":"levelo_inurba_marseille","lat":43.30297,"lon":5.39202,"is_reserved":false,"is_disabled":true,"rental_uris":{"android":"levelo://app?vid=4195a369-a7ca-4062-b0c4-11dcec0d9a33","ios":"levelo://app?vid=4195a369-a7ca-4062-b0c4-11dcec0d9a33"},"vehicle_type_id":"4","last_reported":1737165870,"current_range_meters":38000,"station_id":"ce4bgkh2rcd13ifvqbk0","pricing_plan_id":"cebpf4jnsgd1na2vs0mg"},{"bike_id":"1c47bd0b-03b1-499e-b800-21ee976a9516","system_id":"levelo_inurba_marseille","lat":43.25877,"lon":5.39915,"is_reserved":false,"is_disabled":false,"rental_uris":{"android":"levelo://app?vid=1c47bd0b-03b1-499e-b800-21ee976a9516","ios":"levelo://app?vid=1c47bd0b-03b1-499e-b800-21ee976a9516"},"vehicle_type_id":"4","last_reported":1737165870,"current_range_meters":31200,"station_id":"ce4bhl92rcd13ifvqghg","pricing_plan_id":"cebpf4jnsgd1na2vs0mg"},{"bike_id":"0e185278-5fef-4252-b735-34d2e15d0e00","system_id":"levelo_inurba_marseille","lat":43.29188,"lon":5.35809,"is_reserved":false,"is_disabled":false,"rental_uris":{"android":"levelo://app?vid=0e185278-5fef-4252-b735-34d2e15d0e00","ios":"levelo://app?vid=0e185278-5fef-4252-b735-34d2e15d0e00"},"vehicle_type_id":"4","last_reported":1737165870,"current_range_meters":7200,"station_id":"ce4bhb12rcd13ifvqel0","pricing_plan_id":"cebpf4jnsgd1na2vs0mg"},{"bike_id":"891d5aa4-b1b0-4e0c-90ac-49e97bf9c382","system_id":"levelo_inurba_marseille","lat":43.23187,"lon":5.40005,"is_reserved":false,"is_disabled":false,"rental_uris":{"android":"levelo://app?vid=891d5aa4-b1b0-4e0c-90ac-49e97bf9c382","ios":"levelo://app?vid=891d5aa4-b1b0-4e0c-90ac-49e97bf9c382"},"vehicle_type_id":"4","last_reported":1737165870,"current_range_meters":31200,"station_id":"ce4bhn12rcd13ifvqgqg","pricing_plan_id":"cebpf4jnsgd1na2vs0mg"},{"bike_id":"91b88721-cfc7-400f-b894-013d5e1df8c0","system_id":"levelo_inurba_marseille","lat":43.30893,"lon":5.39606,"is_reserved":false,"is_disabled":false,"rental_uris":{"android":"levelo://app?vid=91b88721-cfc7-400f-b894-013d5e1df8c0","ios":"levelo://app?vid=91b88721-cfc7-400f-b894-013d5e1df8c0"},"vehicle_type_id":"4","last_reported":1737165870,"current_range_meters":21600,"station_id":"ce4bh012rcd13ifvqcv0","pricing_plan_id":"cebpf4jnsgd1na2vs0mg"},{"bike_id":"77762a9c-0185-4cbd-94a7-6ad9ec8b319e","system_id":"levelo_inurba_marseille","lat":43.290466,"lon":5.359148,"is_reserved":false,"is_disabled":false,"rental_uris":{"android":"levelo://app?vid=77762a9c-0185-4cbd-94a7-6ad9ec8b319e","ios":"levelo://app?vid=77762a9c-0185-4cbd-94a7-6ad9ec8b319e"},"vehicle_type_id":"4","last_reported":1737165870,"current_range_meters":29600,"station_id":"ce4bha92rcd13ifvqeg0","pricing_plan_id":"cebpf4jnsgd1na2vs0mg"},{"bike_id":"357eaeda-fef2-41f2-9ad0-621ae2cc5c09","system_id":"levelo_inurba_marseille","lat":43.33768,"lon":5.37496,"is_reserved":false,"is_disabled":false,"rental_uris":{"android":"levelo://app?vid=357eaeda-fef2-41f2-9ad0-621ae2cc5c09","ios":"levelo://app?vid=357eaeda-fef2-41f2-9ad0-621ae2cc5c09"},"vehicle_type_id":"4","last_reported":1737165870,"current_range_meters":33600,"station_id":"","pricing_plan_id":"cebpf4jnsgd1na2vs0mg"},{"bike_id":"54c9f7de-8fe5-4fd6-a934-8372e9cad70a","system_id":"levelo_inurba_marseille","lat":43.28852,"lon":5.3933,"is_reserved":false,"is_disabled":false,"rental_uris":{"android":"levelo://app?vid=54c9f7de-8fe5-4fd6-a934-8372e9cad70a","ios":"levelo://app?vid=54c9f7de-8fe5-4fd6-a934-8372e9cad70a"},"vehicle_type_id":"4","last_reported":1737165870,"current_range_meters":24400,"station_id":"ce4bh2p2rcd13ifvqdi0","pricing_plan_id":"cebpf4jnsgd1na2vs0mg"},{"bike_id":"863581bf-4740-457c-9a9b-0e3dac23703c","system_id":"levelo_inurba_marseille","lat":43.31068,"lon":5.38345,"is_reserved":false,"is_disabled":false,"rental_uris":{"android":"levelo://app?vid=863581bf-4740-457c-9a9b-0e3dac23703c","ios":"levelo://app?vid=863581bf-4740-457c-9a9b-0e3dac23703c"},"vehicle_type_id":"4","last_reported":1737165870,"current_range_meters":15200,"station_id":"ce4bgv92rcd13ifvqcr0","pricing_plan_id":"cebpf4jnsgd1na2vs0mg"},{"bike_id":"965180f8-1362-4aa2-b1a9-a6f654197703","system_id":"levelo_inurba_marseille","lat":43.23176,"lon":5.40005,"is_reserved":false,"is_disabled":false,"rental_uris":{"android":"levelo://app?vid=965180f8-1362-4aa2-b1a9-a6f654197703","ios":"levelo://app?vid=965180f8-1362-4aa2-b1a9-a6f654197703"},"vehicle_type_id":"4","last_reported":1737165870,"current_range_meters":38800,"station_id":"ce4bhn12rcd13ifvqgqg","pricing_plan_id":"cebpf4jnsgd1na2vs0mg"},{"bike_id":"b034b553-114b-4cfc-829d-01c5c89561f4","system_id":"levelo_inurba_marseille","lat":43.27589,"lon":5.42366,"is_reserved":false,"is_disabled":false,"rental_uris":{"android":"levelo://app?vid=b034b553-114b-4cfc-829d-01c5c89561f4","ios":"levelo://app?vid=b034b553-114b-4cfc-829d-01c5c89561f4"},"vehicle_type_id":"4","last_reported":1737165870,"current_range_meters":8800,"station_id":"","pricing_plan_id":"cebpf4jnsgd1na2vs0mg"},{"bike_id":"c16af295-34ba-47e2-83f5-588ec70db48a","system_id":"levelo_inurba_marseille","lat":43.29013,"lon":5.40067,"is_reserved":false,"is_disabled":false,"rental_uris":{"android":"levelo://app?vid=c16af295-34ba-47e2-83f5-588ec70db48a","ios":"levelo://app?vid=c16af295-34ba-47e2-83f5-588ec70db48a"},"vehicle_type_id":"4","last_reported":1737165870,"current_range_meters":38800,"station_id":"","pricing_plan_id":"cebpf4jnsgd1na2vs0mg"},{"bike_id":"312b622b-01c5-426d-8513-fedfcbcce3bf","system_id":"levelo_inurba_marseille","lat":43.30823,"lon":5.43575,"is_reserved":false,"is_disabled":false,"rental_uris":{"android":"levelo://app?vid=312b622b-01c5-426d-8513-fedfcbcce3bf","ios":"levelo://app?vid=312b622b-01c5-426d-8513-fedfcbcce3bf"},"vehicle_type_id":"4","last_reported":1737165870,"current_range_meters":23200,"station_id":"ce4bhph2rcd13ifvqheg","pricing_plan_id":"cebpf4jnsgd1na2vs0mg"},{"bike_id":"a90ae30c-66aa-49bc-8d81-67c17854523b","system_id":"levelo_inurba_marseille","lat":43.28464,"lon":5.35877,"is_reserved":false,"is_disabled":false,"rental_uris":{"android":"levelo://app?vid=a90ae30c-66aa-49bc-8d81-67c17854523b","ios":"levelo://app?vid=a90ae30c-66aa-49bc-8d81-67c17854523b"},"vehicle_type_id":"4","last_reported":1737165870,"current_range_meters":36400,"station_id":"ce4bhah2rcd13ifvqei0","pricing_plan_id":"cebpf4jnsgd1na2vs0mg"},{"bike_id":"01e1c8b1-a097-42f4-9d00-9a160ca3dd88","system_id":"levelo_inurba_marseille","lat":43.27384,"lon":5.39409,"is_reserved":false,"is_disabled":false,"rental_uris":{"android":"levelo://app?vid=01e1c8b1-a097-42f4-9d00-9a160ca3dd88","ios":"levelo://app?vid=01e1c8b1-a097-42f4-9d00-9a160ca3dd88"},"vehicle_type_id":"4","last_reported":1737165870,"current_range_meters":36800,"station_id":"ce4bhdp2rcd13ifvqf20","pricing_plan_id":"cebpf4jnsgd1na2vs0mg"},{"bike_id":"7975a0c2-37ee-487f-804f-1164e539cf9a","system_id":"levelo_inurba_marseille","lat":43.2467,"lon":5.38154,"is_reserved":false,"is_disabled":false,"rental_uris":{"android":"levelo://app?vid=7975a0c2-37ee-487f-804f-1164e539cf9a","ios":"levelo://app?vid=7975a0c2-37ee-487f-804f-1164e539cf9a"},"vehicle_type_id":"4","last_reported":1737165870,"current_range_meters":38800,"station_id":"ce4bhih2rcd13ifvqfr0","pricing_plan_id":"cebpf4jnsgd1na2vs0mg"},{"bike_id":"b3672519-b36f-4954-8d8e-69d0bbe73a14","system_id":"levelo_inurba_marseille","lat":43.2558,"lon":5.38241,"is_reserved":false,"is_disabled":false,"rental_uris":{"android":"levelo://app?vid=b3672519-b36f-4954-8d8e-69d0bbe73a14","ios":"levelo://app?vid=b3672519-b36f-4954-8d8e-69d0bbe73a14"},"vehicle_type_id":"4","last_reported":1737165870,"current_range_meters":32800,"station_id":"ce4bhih2rcd13ifvqfs0","pricing_plan_id":"cebpf4jnsgd1na2vs0mg"},{"bike_id":"503cdc04-d4e5-49c8-a5cb-4bfd40417ea9","system_id":"levelo_inurba_marseille","lat":43.31168,"lon":5.38718,"is_reserved":false,"is_disabled":false,"rental_uris":{"android":"levelo://app?vid=503cdc04-d4e5-49c8-a5cb-4bfd40417ea9","ios":"levelo://app?vid=503cdc04-d4e5-49c8-a5cb-4bfd40417ea9"},"vehicle_type_id":"4","last_reported":1737165870,"current_range_meters":33200,"station_id":"ce4bgv12rcd13ifvqcp0","pricing_plan_id":"cebpf4jnsgd1na2vs0mg"},{"bike_id":"01a07bd9-36a1-4c19-a88b-7c9e3a6ee490","system_id":"levelo_inurba_marseille","lat":43.25081,"lon":5.39504,"is_reserved":false,"is_disabled":false,"rental_uris":{"android":"levelo://app?vid=01a07bd9-36a1-4c19-a88b-7c9e3a6ee490","ios":"levelo://app?vid=01a07bd9-36a1-4c19-a88b-7c9e3a6ee490"},"vehicle_type_id":"4","last_reported":1737165870,"current_range_meters":37600,"station_id":"ce4bhm12rcd13ifvqgkg","pricing_plan_id":"cebpf4jnsgd1na2vs0mg"},{"bike_id":"2a3b699b-a78d-4b73-b754-0a42dc395da3","system_id":"levelo_inurba_marseille","lat":43.30178,"lon":5.37358,"is_reserved":false,"is_disabled":false,"rental_uris":{"android":"levelo://app?vid=2a3b699b-a78d-4b73-b754-0a42dc395da3","ios":"levelo://app?vid=2a3b699b-a78d-4b73-b754-0a42dc395da3"},"vehicle_type_id":"4","last_reported":1737165870,"current_range_meters":38800,"station_id":"ce4bgs92rcd13ifvqcc0","pricing_plan_id":"cebpf4jnsgd1na2vs0mg"},{"bike_id":"d615d74e-143c-44d0-9a61-fef9d499e25b","system_id":"levelo_inurba_marseille","lat":43.26029,"lon":5.37547,"is_reserved":false,"is_disabled":false,"rental_uris":{"android":"levelo://app?vid=d615d74e-143c-44d0-9a61-fef9d499e25b","ios":"levelo://app?vid=d615d74e-143c-44d0-9a61-fef9d499e25b"},"vehicle_type_id":"4","last_reported":1737165870,"current_range_meters":38800,"station_id":"ce4bhgh2rcd13ifvqfa0","pricing_plan_id":"cebpf4jnsgd1na2vs0mg"},{"bike_id":"4ffb2fd7-5f5b-4f82-8ddf-9fe95e000c38","system_id":"levelo_inurba_marseille","lat":43.25373,"lon":5.41652,"is_reserved":false,"is_disabled":true,"rental_uris":{"android":"levelo://app?vid=4ffb2fd7-5f5b-4f82-8ddf-9fe95e000c38","ios":"levelo://app?vid=4ffb2fd7-5f5b-4f82-8ddf-9fe95e000c38"},"vehicle_type_id":"4","last_reported":1737165870,"current_range_meters":400,"station_id":"","pricing_plan_id":"cebpf4jnsgd1na2vs0mg"},{"bike_id":"9be957d2-26d1-49a4-9f85-b06ee3432064","system_id":"levelo_inurba_marseille","lat":43.33731,"lon":5.39189,"is_reserved":false,"is_disabled":false,"rental_uris":{"android":"levelo://app?vid=9be957d2-26d1-49a4-9f85-b06ee3432064","ios":"levelo://app?vid=9be957d2-26d1-49a4-9f85-b06ee3432064"},"vehicle_type_id":"4","last_reported":1737165870,"current_range_meters":28000,"station_id":"ce4bhr92rcd13ifvqhsg","pricing_plan_id":"cebpf4jnsgd1na2vs0mg"},{"bike_id":"0e431ba6-2ca8-4886-8c92-261db676533e","system_id":"levelo_inurba_marseille","lat":43.2846,"lon":5.35873,"is_reserved":false,"is_disabled":false,"rental_uris":{"android":"levelo://app?vid=0e431ba6-2ca8-4886-8c92-261db676533e","ios":"levelo://app?vid=0e431ba6-2ca8-4886-8c92-261db676533e"},"vehicle_type_id":"4","last_reported":1737165870,"current_range_meters":30800,"station_id":"ce4bhah2rcd13ifvqei0","pricing_plan_id":"cebpf4jnsgd1na2vs0mg"},{"bike_id":"7474cf9f-a50a-4064-8ee9-625b0bfc2233","system_id":"levelo_inurba_marseille","lat":43.29148,"lon":5.37151,"is_reserved":false,"is_disabled":true,"rental_uris":{"android":"levelo://app?vid=7474cf9f-a50a-4064-8ee9-625b0bfc2233","ios":"levelo://app?vid=7474cf9f-a50a-4064-8ee9-625b0bfc2233"},"vehicle_type_id":"4","last_reported":1737165870,"current_range_meters":0,"station_id":"ce4bha92rcd13ifvqeh0","pricing_plan_id":"cebpf4jnsgd1na2vs0mg"},{"bike_id":"9d571973-919f-4d9a-8263-16469bc08d16","system_id":"levelo_inurba_marseille","lat":43.31272,"lon":5.38371,"is_reserved":false,"is_disabled":false,"rental_uris":{"android":"levelo://app?vid=9d571973-919f-4d9a-8263-16469bc08d16","ios":"levelo://app?vid=9d571973-919f-4d9a-8263-16469bc08d16"},"vehicle_type_id":"4","last_reported":1737165870,"current_range_meters":18000,"station_id":"","pricing_plan_id":"cebpf4jnsgd1na2vs0mg"},{"bike_id":"93eaaa03-9c47-4080-88a3-408e4b6ee6c4","system_id":"levelo_inurba_marseille","lat":43.30874,"lon":5.37206,"is_reserved":false,"is_disabled":true,"rental_uris":{"android":"levelo://app?vid=93eaaa03-9c47-4080-88a3-408e4b6ee6c4","ios":"levelo://app?vid=93eaaa03-9c47-4080-88a3-408e4b6ee6c4"},"vehicle_type_id":"4","last_reported":1737165870,"current_range_meters":0,"station_id":"ce4bguh2rcd13ifvqckg","pricing_plan_id":"cebpf4jnsgd1na2vs0mg"},{"bike_id":"fd153fd4-8c71-4200-95f4-e02852c298c7","system_id":"levelo_inurba_marseille","lat":43.25084,"lon":5.39513,"is_reserved":false,"is_disabled":false,"rental_uris":{"android":"levelo://app?vid=fd153fd4-8c71-4200-95f4-e02852c298c7","ios":"levelo://app?vid=fd153fd4-8c71-4200-95f4-e02852c298c7"},"vehicle_type_id":"4","last_reported":1737165870,"current_range_meters":38000,"station_id":"ce4bhm12rcd13ifvqgkg","pricing_plan_id":"cebpf4jnsgd1na2vs0mg"},{"bike_id":"bdd103a3-1000-427a-86a5-dc091d61902e","system_id":"levelo_inurba_marseille","lat":43.24162,"lon":5.39693,"is_reserved":false,"is_disabled":false,"rental_uris":{"android":"levelo://app?vid=bdd103a3-1000-427a-86a5-dc091d61902e","ios":"levelo://app?vid=bdd103a3-1000-427a-86a5-dc091d61902e"},"vehicle_type_id":"4","last_reported":1737165870,"current_range_meters":24400,"station_id":"ce4bhn12rcd13ifvqgpg","pricing_plan_id":"cebpf4jnsgd1na2vs0mg"},{"bike_id":"2fa40be4-237a-4713-9b7d-7f32afaf1503","system_id":"levelo_inurba_marseille","lat":43.29788,"lon":5.38087,"is_reserved":false,"is_disabled":true,"rental_uris":{"android":"levelo://app?vid=2fa40be4-237a-4713-9b7d-7f32afaf1503","ios":"levelo://app?vid=2fa40be4-237a-4713-9b7d-7f32afaf1503"},"vehicle_type_id":"4","last_reported":1737165870,"current_range_meters":36000,"station_id":"ce4bgip2rcd13ifvqbb0","pricing_plan_id":"cebpf4jnsgd1na2vs0mg"},{"bike_id":"a8cadae5-86ce-44a1-afff-878cc34ffe0b","system_id":"levelo_inurba_marseille","lat":43.24654,"lon":5.38139,"is_reserved":false,"is_disabled":false,"rental_uris":{"android":"levelo://app?vid=a8cadae5-86ce-44a1-afff-878cc34ffe0b","ios":"levelo://app?vid=a8cadae5-86ce-44a1-afff-878cc34ffe0b"},"vehicle_type_id":"4","last_reported":1737165870,"current_range_meters":8400,"station_id":"ce4bhih2rcd13ifvqfr0","pricing_plan_id":"cebpf4jnsgd1na2vs0mg"},{"bike_id":"2b06177c-21a4-4000-9872-a16383eb7f13","system_id":"levelo_inurba_marseille","lat":43.29794,"lon":5.40404,"is_reserved":false,"is_disabled":false,"rental_uris":{"android":"levelo://app?vid=2b06177c-21a4-4000-9872-a16383eb7f13","ios":"levelo://app?vid=2b06177c-21a4-4000-9872-a16383eb7f13"},"vehicle_type_id":"4","last_reported":1737165870,"current_range_meters":39200,"station_id":"ce4bh112rcd13ifvqd90","pricing_plan_id":"cebpf4jnsgd1na2vs0mg"},{"bike_id":"2ed2c465-7afc-4456-bb98-74121b1a973f","system_id":"levelo_inurba_marseille","lat":43.31165,"lon":5.38709,"is_reserved":false,"is_disabled":false,"rental_uris":{"android":"levelo://app?vid=2ed2c465-7afc-4456-bb98-74121b1a973f","ios":"levelo://app?vid=2ed2c465-7afc-4456-bb98-74121b1a973f"},"vehicle_type_id":"4","last_reported":1737165870,"current_range_meters":38800,"station_id":"ce4bgv12rcd13ifvqcp0","pricing_plan_id":"cebpf4jnsgd1na2vs0mg"},{"bike_id":"16f6bb15-2a9a-4945-a1f1-ef033407af4e","system_id":"levelo_inurba_marseille","lat":43.2867,"lon":5.38677,"is_reserved":false,"is_disabled":false,"rental_uris":{"android":"levelo://app?vid=16f6bb15-2a9a-4945-a1f1-ef033407af4e","ios":"levelo://app?vid=16f6bb15-2a9a-4945-a1f1-ef033407af4e"},"vehicle_type_id":"4","last_reported":1737165870,"current_range_meters":23200,"station_id":"ce4bh492rcd13ifvqdug","pricing_plan_id":"cebpf4jnsgd1na2vs0mg"},{"bike_id":"de1f8d9a-961d-41a2-ac6e-036d6954faf1","system_id":"levelo_inurba_marseille","lat":43.33034,"lon":5.39027,"is_reserved":false,"is_disabled":false,"rental_uris":{"android":"levelo://app?vid=de1f8d9a-961d-41a2-ac6e-036d6954faf1","ios":"levelo://app?vid=de1f8d9a-961d-41a2-ac6e-036d6954faf1"},"vehicle_type_id":"4","last_reported":1737165870,"current_range_meters":30000,"station_id":"ce4bhr92rcd13ifvqhrg","pricing_plan_id":"cebpf4jnsgd1na2vs0mg"},{"bike_id":"e0253450-c7b5-4733-9baa-fb060c3eef88","system_id":"levelo_inurba_marseille","lat":43.24617,"lon":5.38901,"is_reserved":false,"is_disabled":false,"rental_uris":{"android":"levelo://app?vid=e0253450-c7b5-4733-9baa-fb060c3eef88","ios":"levelo://app?vid=e0253450-c7b5-4733-9baa-fb060c3eef88"},"vehicle_type_id":"4","last_reported":1737165870,"current_range_meters":35200,"station_id":"ce4bhg12rcd13ifvqf60","pricing_plan_id":"cebpf4jnsgd1na2vs0mg"},{"bike_id":"1e54990a-c5ca-47e0-bda7-781a2b523702","system_id":"levelo_inurba_marseille","lat":43.28456,"lon":5.35874,"is_reserved":false,"is_disabled":false,"rental_uris":{"android":"levelo://app?vid=1e54990a-c5ca-47e0-bda7-781a2b523702","ios":"levelo://app?vid=1e54990a-c5ca-47e0-bda7-781a2b523702"},"vehicle_type_id":"4","last_reported":1737165870,"current_range_meters":22000,"station_id":"ce4bhah2rcd13ifvqei0","pricing_plan_id":"cebpf4jnsgd1na2vs0mg"},{"bike_id":"6e2d34e8-0cfc-462e-a352-d0455c7f78af","system_id":"levelo_inurba_marseille","lat":43.29252,"lon":5.40901,"is_reserved":false,"is_disabled":false,"rental_uris":{"android":"levelo://app?vid=6e2d34e8-0cfc-462e-a352-d0455c7f78af","ios":"levelo://app?vid=6e2d34e8-0cfc-462e-a352-d0455c7f78af"},"vehicle_type_id":"4","last_reported":1737165870,"current_range_meters":38000,"station_id":"ce4bh192rcd13ifvqdc0","pricing_plan_id":"cebpf4jnsgd1na2vs0mg"},{"bike_id":"2101a568-921f-4929-92b6-d4db4c4e5776","system_id":"levelo_inurba_marseille","lat":43.29005,"lon":5.35602,"is_reserved":false,"is_disabled":false,"rental_uris":{"android":"levelo://app?vid=2101a568-921f-4929-92b6-d4db4c4e5776","ios":"levelo://app?vid=2101a568-921f-4929-92b6-d4db4c4e5776"},"vehicle_type_id":"4","last_reported":1737165870,"current_range_meters":37600,"station_id":"ce4bhb92rcd13ifvqen0","pricing_plan_id":"cebpf4jnsgd1na2vs0mg"},{"bike_id":"72ee35ea-34ee-4b89-a819-27a2e564f7ec","system_id":"levelo_inurba_marseille","lat":43.25824,"lon":5.39433,"is_reserved":false,"is_disabled":false,"rental_uris":{"android":"levelo://app?vid=72ee35ea-34ee-4b89-a819-27a2e564f7ec","ios":"levelo://app?vid=72ee35ea-34ee-4b89-a819-27a2e564f7ec"},"vehicle_type_id":"4","last_reported":1737165870,"current_range_meters":14000,"station_id":"ce4bhip2rcd13ifvqft0","pricing_plan_id":"cebpf4jnsgd1na2vs0mg"},{"bike_id":"fae143cc-e0b7-42e0-ac41-6327643321d0","system_id":"levelo_inurba_marseille","lat":43.25833,"lon":5.39415,"is_reserved":false,"is_disabled":false,"rental_uris":{"android":"levelo://app?vid=fae143cc-e0b7-42e0-ac41-6327643321d0","ios":"levelo://app?vid=fae143cc-e0b7-42e0-ac41-6327643321d0"},"vehicle_type_id":"4","last_reported":1737165870,"current_range_meters":34000,"station_id":"ce4bhip2rcd13ifvqft0","pricing_plan_id":"cebpf4jnsgd1na2vs0mg"},{"bike_id":"06ba7cdd-0114-43e0-b37e-17f50586e28b","system_id":"levelo_inurba_marseille","lat":43.30897,"lon":5.3963,"is_reserved":false,"is_disabled":false,"rental_uris":{"android":"levelo://app?vid=06ba7cdd-0114-43e0-b37e-17f50586e28b","ios":"levelo://app?vid=06ba7cdd-0114-43e0-b37e-17f50586e28b"},"vehicle_type_id":"4","last_reported":1737165870,"current_range_meters":24400,"station_id":"ce4bh012rcd13ifvqcv0","pricing_plan_id":"cebpf4jnsgd1na2vs0mg"},{"bike_id":"3b86c408-dab3-4c6f-80eb-a86687ef0e80","system_id":"levelo_inurba_marseille","lat":43.30757,"lon":5.37654,"is_reserved":false,"is_disabled":false,"rental_uris":{"android":"levelo://app?vid=3b86c408-dab3-4c6f-80eb-a86687ef0e80","ios":"levelo://app?vid=3b86c408-dab3-4c6f-80eb-a86687ef0e80"},"vehicle_type_id":"4","last_reported":1737165870,"current_range_meters":16000,"station_id":"ce4bgv92rcd13ifvqcq0","pricing_plan_id":"cebpf4jnsgd1na2vs0mg"},{"bike_id":"bbbb65ee-7bd9-45c8-9ae6-33a5e1e600b8","system_id":"levelo_inurba_marseille","lat":43.28615,"lon":5.35105,"is_reserved":false,"is_disabled":false,"rental_uris":{"android":"levelo://app?vid=bbbb65ee-7bd9-45c8-9ae6-33a5e1e600b8","ios":"levelo://app?vid=bbbb65ee-7bd9-45c8-9ae6-33a5e1e600b8"},"vehicle_type_id":"4","last_reported":1737165870,"current_range_meters":16400,"station_id":"ce4bhch2rcd13ifvqeug","pricing_plan_id":"cebpf4jnsgd1na2vs0mg"},{"bike_id":"20ff09b8-a222-445d-b049-232d89fb3e88","system_id":"levelo_inurba_marseille","lat":43.30928,"lon":5.40146,"is_reserved":false,"is_disabled":false,"rental_uris":{"android":"levelo://app?vid=20ff09b8-a222-445d-b049-232d89fb3e88","ios":"levelo://app?vid=20ff09b8-a222-445d-b049-232d89fb3e88"},"vehicle_type_id":"4","last_reported":1737165870,"current_range_meters":38800,"station_id":"ce4bgvp2rcd13ifvqct0","pricing_plan_id":"cebpf4jnsgd1na2vs0mg"},{"bike_id":"f4a4a406-b0a5-42fc-9236-32e93ac6f6b2","system_id":"levelo_inurba_marseille","lat":43.23155,"lon":5.43701,"is_reserved":false,"is_disabled":true,"rental_uris":{"android":"levelo://app?vid=f4a4a406-b0a5-42fc-9236-32e93ac6f6b2","ios":"levelo://app?vid=f4a4a406-b0a5-42fc-9236-32e93ac6f6b2"},"vehicle_type_id":"4","last_reported":1737165870,"current_range_meters":30800,"station_id":"ce4bhmp2rcd13ifvqgog","pricing_plan_id":"cebpf4jnsgd1na2vs0mg"},{"bike_id":"e41ae004-35f3-4a84-9470-334d3f185da1","system_id":"levelo_inurba_marseille","lat":43.31501,"lon":5.37273,"is_reserved":false,"is_disabled":false,"rental_uris":{"android":"levelo://app?vid=e41ae004-35f3-4a84-9470-334d3f185da1","ios":"levelo://app?vid=e41ae004-35f3-4a84-9470-334d3f185da1"},"vehicle_type_id":"4","last_reported":1737165870,"current_range_meters":38800,"station_id":"ce4bgt12rcd13ifvqcd0","pricing_plan_id":"cebpf4jnsgd1na2vs0mg"},{"bike_id":"29f57eee-1531-46d8-941b-78675a4eb39d","system_id":"levelo_inurba_marseille","lat":43.33019,"lon":5.3904,"is_reserved":false,"is_disabled":false,"rental_uris":{"android":"levelo://app?vid=29f57eee-1531-46d8-941b-78675a4eb39d","ios":"levelo://app?vid=29f57eee-1531-46d8-941b-78675a4eb39d"},"vehicle_type_id":"4","last_reported":1737165870,"current_range_meters":11600,"station_id":"ce4bhr92rcd13ifvqhrg","pricing_plan_id":"cebpf4jnsgd1na2vs0mg"},{"bike_id":"4d7dc323-6666-4be9-a627-f2c5a8c93a8b","system_id":"levelo_inurba_marseille","lat":43.30596,"lon":5.3935,"is_reserved":false,"is_disabled":false,"rental_uris":{"android":"levelo://app?vid=4d7dc323-6666-4be9-a627-f2c5a8c93a8b","ios":"levelo://app?vid=4d7dc323-6666-4be9-a627-f2c5a8c93a8b"},"vehicle_type_id":"4","last_reported":1737165870,"current_range_meters":19600,"station_id":"ce4bh0p2rcd13ifvqd80","pricing_plan_id":"cebpf4jnsgd1na2vs0mg"},{"bike_id":"0f8a6241-7b84-426e-9fe5-e45583d860b3","system_id":"levelo_inurba_marseille","lat":43.31895,"lon":5.40724,"is_reserved":false,"is_disabled":false,"rental_uris":{"android":"levelo://app?vid=0f8a6241-7b84-426e-9fe5-e45583d860b3","ios":"levelo://app?vid=0f8a6241-7b84-426e-9fe5-e45583d860b3"},"vehicle_type_id":"4","last_reported":1737165870,"current_range_meters":37600,"station_id":"ce4bhq12rcd13ifvqhig","pricing_plan_id":"cebpf4jnsgd1na2vs0mg"},{"bike_id":"11cc40fc-2886-40cc-8b38-432bf44a4683","system_id":"levelo_inurba_marseille","lat":43.30462,"lon":5.3889,"is_reserved":false,"is_disabled":false,"rental_uris":{"android":"levelo://app?vid=11cc40fc-2886-40cc-8b38-432bf44a4683","ios":"levelo://app?vid=11cc40fc-2886-40cc-8b38-432bf44a4683"},"vehicle_type_id":"4","last_reported":1737165870,"current_range_meters":38000,"station_id":"ce4bgk12rcd13ifvqbi0","pricing_plan_id":"cebpf4jnsgd1na2vs0mg"},{"bike_id":"908a3229-e651-4c42-8314-ecef54f2d2a9","system_id":"levelo_inurba_marseille","lat":43.31198,"lon":5.38691,"is_reserved":false,"is_disabled":false,"rental_uris":{"android":"levelo://app?vid=908a3229-e651-4c42-8314-ecef54f2d2a9","ios":"levelo://app?vid=908a3229-e651-4c42-8314-ecef54f2d2a9"},"vehicle_type_id":"4","last_reported":1737165870,"current_range_meters":18800,"station_id":"ce4bgv12rcd13ifvqcp0","pricing_plan_id":"cebpf4jnsgd1na2vs0mg"},{"bike_id":"f2b9871f-1186-41e6-8a60-001205f747a7","system_id":"levelo_inurba_marseille","lat":43.24681,"lon":5.38146,"is_reserved":false,"is_disabled":false,"rental_uris":{"android":"levelo://app?vid=f2b9871f-1186-41e6-8a60-001205f747a7","ios":"levelo://app?vid=f2b9871f-1186-41e6-8a60-001205f747a7"},"vehicle_type_id":"4","last_reported":1737165870,"current_range_meters":9600,"station_id":"ce4bhih2rcd13ifvqfr0","pricing_plan_id":"cebpf4jnsgd1na2vs0mg"},{"bike_id":"67c549d5-ce81-408a-a146-d43915340e7f","system_id":"levelo_inurba_marseille","lat":43.337309,"lon":5.391781,"is_reserved":false,"is_disabled":false,"rental_uris":{"android":"levelo://app?vid=67c549d5-ce81-408a-a146-d43915340e7f","ios":"levelo://app?vid=67c549d5-ce81-408a-a146-d43915340e7f"},"vehicle_type_id":"4","last_reported":1737165870,"current_range_meters":38800,"station_id":"ce4bhr92rcd13ifvqhsg","pricing_plan_id":"cebpf4jnsgd1na2vs0mg"},{"bike_id":"fa546e5c-a68a-4a86-a5bb-1d856af38d7e","system_id":"levelo_inurba_marseille","lat":43.23614,"lon":5.43609,"is_reserved":false,"is_disabled":true,"rental_uris":{"android":"levelo://app?vid=fa546e5c-a68a-4a86-a5bb-1d856af38d7e","ios":"levelo://app?vid=fa546e5c-a68a-4a86-a5bb-1d856af38d7e"},"vehicle_type_id":"4","last_reported":1737165870,"current_range_meters":0,"station_id":"","pricing_plan_id":"cebpf4jnsgd1na2vs0mg"},{"bike_id":"34b4297c-3aa9-49ec-8c3e-4dc835fa76e0","system_id":"levelo_inurba_marseille","lat":43.31318,"lon":5.39718,"is_reserved":false,"is_disabled":false,"rental_uris":{"android":"levelo://app?vid=34b4297c-3aa9-49ec-8c3e-4dc835fa76e0","ios":"levelo://app?vid=34b4297c-3aa9-49ec-8c3e-4dc835fa76e0"},"vehicle_type_id":"4","last_reported":1737165870,"current_range_meters":30400,"station_id":"ce4bgvp2rcd13ifvqcu0","pricing_plan_id":"cebpf4jnsgd1na2vs0mg"},{"bike_id":"4fc0c57c-9434-4284-b3f6-df22c1d51df1","system_id":"levelo_inurba_marseille","lat":43.2481,"lon":5.37455,"is_reserved":false,"is_disabled":false,"rental_uris":{"android":"levelo://app?vid=4fc0c57c-9434-4284-b3f6-df22c1d51df1","ios":"levelo://app?vid=4fc0c57c-9434-4284-b3f6-df22c1d51df1"},"vehicle_type_id":"4","last_reported":1737165870,"current_range_meters":33600,"station_id":"ce4bhgh2rcd13ifvqfb0","pricing_plan_id":"cebpf4jnsgd1na2vs0mg"},{"bike_id":"9e637052-b4f4-45d4-b25c-d5db2b7373ff","system_id":"levelo_inurba_marseille","lat":43.26048,"lon":5.39394,"is_reserved":false,"is_disabled":false,"rental_uris":{"android":"levelo://app?vid=9e637052-b4f4-45d4-b25c-d5db2b7373ff","ios":"levelo://app?vid=9e637052-b4f4-45d4-b25c-d5db2b7373ff"},"vehicle_type_id":"4","last_reported":1737165870,"current_range_meters":24000,"station_id":"ce4bhh92rcd13ifvqfj0","pricing_plan_id":"cebpf4jnsgd1na2vs0mg"},{"bike_id":"f7d7974d-3656-4ef0-b182-9cc31261d5cf","system_id":"levelo_inurba_marseille","lat":43.30176,"lon":5.39825,"is_reserved":false,"is_disabled":false,"rental_uris":{"android":"levelo://app?vid=f7d7974d-3656-4ef0-b182-9cc31261d5cf","ios":"levelo://app?vid=f7d7974d-3656-4ef0-b182-9cc31261d5cf"},"vehicle_type_id":"4","last_reported":1737165870,"current_range_meters":38800,"station_id":"ce4bh0h2rcd13ifvqd40","pricing_plan_id":"cebpf4jnsgd1na2vs0mg"},{"bike_id":"b3bdae09-75e3-4ffe-9142-e4ae1a8f5a20","system_id":"levelo_inurba_marseille","lat":43.3265,"lon":5.4098,"is_reserved":false,"is_disabled":false,"rental_uris":{"android":"levelo://app?vid=b3bdae09-75e3-4ffe-9142-e4ae1a8f5a20","ios":"levelo://app?vid=b3bdae09-75e3-4ffe-9142-e4ae1a8f5a20"},"vehicle_type_id":"4","last_reported":1737165870,"current_range_meters":8400,"station_id":"ce4bhpp2rcd13ifvqhgg","pricing_plan_id":"cebpf4jnsgd1na2vs0mg"},{"bike_id":"48389a4d-3522-4d2d-a678-108033b697ac","system_id":"levelo_inurba_marseille","lat":43.27905,"lon":5.38025,"is_reserved":false,"is_disabled":false,"rental_uris":{"android":"levelo://app?vid=48389a4d-3522-4d2d-a678-108033b697ac","ios":"levelo://app?vid=48389a4d-3522-4d2d-a678-108033b697ac"},"vehicle_type_id":"4","last_reported":1737165870,"current_range_meters":9600,"station_id":"ce4bhf92rcd13ifvqf50","pricing_plan_id":"cebpf4jnsgd1na2vs0mg"},{"bike_id":"34709e64-d1c8-4538-88a5-33805792c0a5","system_id":"levelo_inurba_marseille","lat":43.25826,"lon":5.39427,"is_reserved":false,"is_disabled":false,"rental_uris":{"android":"levelo://app?vid=34709e64-d1c8-4538-88a5-33805792c0a5","ios":"levelo://app?vid=34709e64-d1c8-4538-88a5-33805792c0a5"},"vehicle_type_id":"4","last_reported":1737165870,"current_range_meters":37600,"station_id":"ce4bhip2rcd13ifvqft0","pricing_plan_id":"cebpf4jnsgd1na2vs0mg"},{"bike_id":"d4c5158e-511e-4c0e-af6f-6a3bbf5cc0e5","system_id":"levelo_inurba_marseille","lat":43.27118,"lon":5.42248,"is_reserved":false,"is_disabled":true,"rental_uris":{"android":"levelo://app?vid=d4c5158e-511e-4c0e-af6f-6a3bbf5cc0e5","ios":"levelo://app?vid=d4c5158e-511e-4c0e-af6f-6a3bbf5cc0e5"},"vehicle_type_id":"4","last_reported":1737165870,"current_range_meters":0,"station_id":"","pricing_plan_id":"cebpf4jnsgd1na2vs0mg"},{"bike_id":"91a0d350-08a1-4b43-925d-f4d42e6edb37","system_id":"levelo_inurba_marseille","lat":43.29966,"lon":5.38492,"is_reserved":false,"is_disabled":false,"rental_uris":{"android":"levelo://app?vid=91a0d350-08a1-4b43-925d-f4d42e6edb37","ios":"levelo://app?vid=91a0d350-08a1-4b43-925d-f4d42e6edb37"},"vehicle_type_id":"4","last_reported":1737165870,"current_range_meters":38400,"station_id":"ce4bgj92rcd13ifvqbd0","pricing_plan_id":"cebpf4jnsgd1na2vs0mg"},{"bike_id":"ec7a3cae-2d4f-4c1b-a818-5bc6fa0dbf9a","system_id":"levelo_inurba_marseille","lat":43.312165,"lon":5.368669,"is_reserved":false,"is_disabled":false,"rental_uris":{"android":"levelo://app?vid=ec7a3cae-2d4f-4c1b-a818-5bc6fa0dbf9a","ios":"levelo://app?vid=ec7a3cae-2d4f-4c1b-a818-5bc6fa0dbf9a"},"vehicle_type_id":"4","last_reported":1737165870,"current_range_meters":38800,"station_id":"ce4bgl92rcd13ifvqbq0","pricing_plan_id":"cebpf4jnsgd1na2vs0mg"},{"bike_id":"37feb261-44b2-4b27-b3ae-078664007b08","system_id":"levelo_inurba_marseille","lat":43.32468,"lon":5.36563,"is_reserved":false,"is_disabled":false,"rental_uris":{"android":"levelo://app?vid=37feb261-44b2-4b27-b3ae-078664007b08","ios":"levelo://app?vid=37feb261-44b2-4b27-b3ae-078664007b08"},"vehicle_type_id":"4","last_reported":1737165870,"current_range_meters":8000,"station_id":"ce4bhs12rcd13ifvqhvg","pricing_plan_id":"cebpf4jnsgd1na2vs0mg"},{"bike_id":"4fde6ab5-286c-4c38-abd8-f85fbb4e25ac","system_id":"levelo_inurba_marseille","lat":43.28712,"lon":5.39964,"is_reserved":false,"is_disabled":false,"rental_uris":{"android":"levelo://app?vid=4fde6ab5-286c-4c38-abd8-f85fbb4e25ac","ios":"levelo://app?vid=4fde6ab5-286c-4c38-abd8-f85fbb4e25ac"},"vehicle_type_id":"4","last_reported":1737165870,"current_range_meters":35200,"station_id":"ce4bho92rcd13ifvqh3g","pricing_plan_id":"cebpf4jnsgd1na2vs0mg"},{"bike_id":"f8aad85d-54d6-4ca2-81ac-46c1a831eb57","system_id":"levelo_inurba_marseille","lat":43.28076,"lon":5.39661,"is_reserved":false,"is_disabled":false,"rental_uris":{"android":"levelo://app?vid=f8aad85d-54d6-4ca2-81ac-46c1a831eb57","ios":"levelo://app?vid=f8aad85d-54d6-4ca2-81ac-46c1a831eb57"},"vehicle_type_id":"4","last_reported":1737165870,"current_range_meters":35600,"station_id":"ce4bho12rcd13ifvqh2g","pricing_plan_id":"cebpf4jnsgd1na2vs0mg"},{"bike_id":"6c78eede-12bd-44fe-bdd5-15bdcf3e3cdc","system_id":"levelo_inurba_marseille","lat":43.28364,"lon":5.38647,"is_reserved":false,"is_disabled":false,"rental_uris":{"android":"levelo://app?vid=6c78eede-12bd-44fe-bdd5-15bdcf3e3cdc","ios":"levelo://app?vid=6c78eede-12bd-44fe-bdd5-15bdcf3e3cdc"},"vehicle_type_id":"4","last_reported":1737165870,"current_range_meters":38800,"station_id":"ce4bh492rcd13ifvqdvg","pricing_plan_id":"cebpf4jnsgd1na2vs0mg"},{"bike_id":"15d0e428-92a2-4ce5-9dfa-de49af04e1a0","system_id":"levelo_inurba_marseille","lat":43.28726,"lon":5.37322,"is_reserved":false,"is_disabled":false,"rental_uris":{"android":"levelo://app?vid=15d0e428-92a2-4ce5-9dfa-de49af04e1a0","ios":"levelo://app?vid=15d0e428-92a2-4ce5-9dfa-de49af04e1a0"},"vehicle_type_id":"4","last_reported":1737165870,"current_range_meters":26800,"station_id":"","pricing_plan_id":"cebpf4jnsgd1na2vs0mg"},{"bike_id":"56b8e9bc-f750-4815-bc98-9098414d16db","system_id":"levelo_inurba_marseille","lat":43.23215,"lon":5.35556,"is_reserved":false,"is_disabled":true,"rental_uris":{"android":"levelo://app?vid=56b8e9bc-f750-4815-bc98-9098414d16db","ios":"levelo://app?vid=56b8e9bc-f750-4815-bc98-9098414d16db"},"vehicle_type_id":"4","last_reported":1737165870,"current_range_meters":0,"station_id":"ce4bhu92rcd13ifvqi70","pricing_plan_id":"cebpf4jnsgd1na2vs0mg"},{"bike_id":"0e91b70c-1e42-4d65-a90a-72cbd40954b0","system_id":"levelo_inurba_marseille","lat":43.31896,"lon":5.37408,"is_reserved":false,"is_disabled":false,"rental_uris":{"android":"levelo://app?vid=0e91b70c-1e42-4d65-a90a-72cbd40954b0","ios":"levelo://app?vid=0e91b70c-1e42-4d65-a90a-72cbd40954b0"},"vehicle_type_id":"4","last_reported":1737165870,"current_range_meters":12800,"station_id":"","pricing_plan_id":"cebpf4jnsgd1na2vs0mg"},{"bike_id":"a4fcc6fc-d624-482e-bc29-ec0a0a3eb429","system_id":"levelo_inurba_marseille","lat":43.30312,"lon":5.40445,"is_reserved":false,"is_disabled":false,"rental_uris":{"android":"levelo://app?vid=a4fcc6fc-d624-482e-bc29-ec0a0a3eb429","ios":"levelo://app?vid=a4fcc6fc-d624-482e-bc29-ec0a0a3eb429"},"vehicle_type_id":"4","last_reported":1737165870,"current_range_meters":22400,"station_id":"ce4bh012rcd13ifvqd10","pricing_plan_id":"cebpf4jnsgd1na2vs0mg"},{"bike_id":"4916c5da-e318-4472-84cf-aee3a54ce3c4","system_id":"levelo_inurba_marseille","lat":43.24642,"lon":5.43505,"is_reserved":false,"is_disabled":true,"rental_uris":{"android":"levelo://app?vid=4916c5da-e318-4472-84cf-aee3a54ce3c4","ios":"levelo://app?vid=4916c5da-e318-4472-84cf-aee3a54ce3c4"},"vehicle_type_id":"4","last_reported":1737165870,"current_range_meters":0,"station_id":"","pricing_plan_id":"cebpf4jnsgd1na2vs0mg"},{"bike_id":"476669f5-e9f1-4e60-98c4-0e855d07e3b3","system_id":"levelo_inurba_marseille","lat":43.30512,"lon":5.37835,"is_reserved":false,"is_disabled":false,"rental_uris":{"android":"levelo://app?vid=476669f5-e9f1-4e60-98c4-0e855d07e3b3","ios":"levelo://app?vid=476669f5-e9f1-4e60-98c4-0e855d07e3b3"},"vehicle_type_id":"4","last_reported":1737165870,"current_range_meters":38400,"station_id":"","pricing_plan_id":"cebpf4jnsgd1na2vs0mg"},{"bike_id":"03dd5e55-62ae-4427-a444-f4d5425e5e7a","system_id":"levelo_inurba_marseille","lat":43.30857,"lon":5.37589,"is_reserved":false,"is_disabled":false,"rental_uris":{"android":"levelo://app?vid=03dd5e55-62ae-4427-a444-f4d5425e5e7a","ios":"levelo://app?vid=03dd5e55-62ae-4427-a444-f4d5425e5e7a"},"vehicle_type_id":"4","last_reported":1737165870,"current_range_meters":38800,"station_id":"","pricing_plan_id":"cebpf4jnsgd1na2vs0mg"},{"bike_id":"c60c9972-38a7-49b0-9555-c0f589822982","system_id":"levelo_inurba_marseille","lat":43.34143,"lon":5.409023,"is_reserved":false,"is_disabled":false,"rental_uris":{"android":"levelo://app?vid=c60c9972-38a7-49b0-9555-c0f589822982","ios":"levelo://app?vid=c60c9972-38a7-49b0-9555-c0f589822982"},"vehicle_type_id":"4","last_reported":1737165870,"current_range_meters":32800,"station_id":"ce4bhqh2rcd13ifvqhlg","pricing_plan_id":"cebpf4jnsgd1na2vs0mg"},{"bike_id":"1b0abdf0-ebc9-477b-9a5c-20d604bc88e3","system_id":"levelo_inurba_marseille","lat":43.25083,"lon":5.39508,"is_reserved":false,"is_disabled":false,"rental_uris":{"android":"levelo://app?vid=1b0abdf0-ebc9-477b-9a5c-20d604bc88e3","ios":"levelo://app?vid=1b0abdf0-ebc9-477b-9a5c-20d604bc88e3"},"vehicle_type_id":"4","last_reported":1737165870,"current_range_meters":38800,"station_id":"ce4bhm12rcd13ifvqgkg","pricing_plan_id":"cebpf4jnsgd1na2vs0mg"},{"bike_id":"424dca1e-8779-4b6f-842e-21c8a559ff8d","system_id":"levelo_inurba_marseille","lat":43.28716,"lon":5.36078,"is_reserved":false,"is_disabled":false,"rental_uris":{"android":"levelo://app?vid=424dca1e-8779-4b6f-842e-21c8a559ff8d","ios":"levelo://app?vid=424dca1e-8779-4b6f-842e-21c8a559ff8d"},"vehicle_type_id":"4","last_reported":1737165870,"current_range_meters":36800,"station_id":"cki0cbj6b192h4jlfktg","pricing_plan_id":"cebpf4jnsgd1na2vs0mg"},{"bike_id":"b987a07f-a5e3-45e2-9549-2a61720f39ae","system_id":"levelo_inurba_marseille","lat":43.28684,"lon":5.37419,"is_reserved":false,"is_disabled":false,"rental_uris":{"android":"levelo://app?vid=b987a07f-a5e3-45e2-9549-2a61720f39ae","ios":"levelo://app?vid=b987a07f-a5e3-45e2-9549-2a61720f39ae"},"vehicle_type_id":"4","last_reported":1737165870,"current_range_meters":36800,"station_id":"ce4bh3p2rcd13ifvqdq0","pricing_plan_id":"cebpf4jnsgd1na2vs0mg"},{"bike_id":"6058ae9f-7230-4dc1-8303-9dfef7b41dd4","system_id":"levelo_inurba_marseille","lat":43.30295,"lon":5.39206,"is_reserved":false,"is_disabled":false,"rental_uris":{"android":"levelo://app?vid=6058ae9f-7230-4dc1-8303-9dfef7b41dd4","ios":"levelo://app?vid=6058ae9f-7230-4dc1-8303-9dfef7b41dd4"},"vehicle_type_id":"4","last_reported":1737165870,"current_range_meters":12800,"station_id":"ce4bgkh2rcd13ifvqbk0","pricing_plan_id":"cebpf4jnsgd1na2vs0mg"},{"bike_id":"57cb6125-13ef-4b3f-8c04-c66200689843","system_id":"levelo_inurba_marseille","lat":43.30885,"lon":5.39632,"is_reserved":false,"is_disabled":false,"rental_uris":{"android":"levelo://app?vid=57cb6125-13ef-4b3f-8c04-c66200689843","ios":"levelo://app?vid=57cb6125-13ef-4b3f-8c04-c66200689843"},"vehicle_type_id":"4","last_reported":1737165870,"current_range_meters":38800,"station_id":"ce4bh012rcd13ifvqcv0","pricing_plan_id":"cebpf4jnsgd1na2vs0mg"},{"bike_id":"86c7bcd5-50d0-4563-893c-49e1cfe89779","system_id":"levelo_inurba_marseille","lat":43.29726,"lon":5.376778,"is_reserved":false,"is_disabled":false,"rental_uris":{"android":"levelo://app?vid=86c7bcd5-50d0-4563-893c-49e1cfe89779","ios":"levelo://app?vid=86c7bcd5-50d0-4563-893c-49e1cfe89779"},"vehicle_type_id":"4","last_reported":1737165870,"current_range_meters":19200,"station_id":"ce4bgkh2rcd13ifvqbl0","pricing_plan_id":"cebpf4jnsgd1na2vs0mg"},{"bike_id":"22465212-93af-4e0b-b803-6ee82bba56d5","system_id":"levelo_inurba_marseille","lat":43.33763,"lon":5.37492,"is_reserved":false,"is_disabled":false,"rental_uris":{"android":"levelo://app?vid=22465212-93af-4e0b-b803-6ee82bba56d5","ios":"levelo://app?vid=22465212-93af-4e0b-b803-6ee82bba56d5"},"vehicle_type_id":"4","last_reported":1737165870,"current_range_meters":30800,"station_id":"","pricing_plan_id":"cebpf4jnsgd1na2vs0mg"},{"bike_id":"383804a9-bc85-4456-8f1f-230200312aa2","system_id":"levelo_inurba_marseille","lat":43.29047,"lon":5.39961,"is_reserved":false,"is_disabled":false,"rental_uris":{"android":"levelo://app?vid=383804a9-bc85-4456-8f1f-230200312aa2","ios":"levelo://app?vid=383804a9-bc85-4456-8f1f-230200312aa2"},"vehicle_type_id":"4","last_reported":1737165870,"current_range_meters":38800,"station_id":"ce4bh392rcd13ifvqdm0","pricing_plan_id":"cebpf4jnsgd1na2vs0mg"},{"bike_id":"979d7a5c-00ce-4dcf-a15c-0fc9c9e35c10","system_id":"levelo_inurba_marseille","lat":43.33783,"lon":5.37456,"is_reserved":false,"is_disabled":false,"rental_uris":{"android":"levelo://app?vid=979d7a5c-00ce-4dcf-a15c-0fc9c9e35c10","ios":"levelo://app?vid=979d7a5c-00ce-4dcf-a15c-0fc9c9e35c10"},"vehicle_type_id":"4","last_reported":1737165870,"current_range_meters":27200,"station_id":"","pricing_plan_id":"cebpf4jnsgd1na2vs0mg"},{"bike_id":"730df4ba-4772-4a0e-9e4a-bb6bde6caaeb","system_id":"levelo_inurba_marseille","lat":43.30141,"lon":5.39873,"is_reserved":false,"is_disabled":true,"rental_uris":{"android":"levelo://app?vid=730df4ba-4772-4a0e-9e4a-bb6bde6caaeb","ios":"levelo://app?vid=730df4ba-4772-4a0e-9e4a-bb6bde6caaeb"},"vehicle_type_id":"4","last_reported":1737165870,"current_range_meters":36800,"station_id":"ce4bh0h2rcd13ifvqd40","pricing_plan_id":"cebpf4jnsgd1na2vs0mg"},{"bike_id":"2669dc48-d52c-4df4-a185-3258641e3a0a","system_id":"levelo_inurba_marseille","lat":43.2799,"lon":5.38739,"is_reserved":false,"is_disabled":true,"rental_uris":{"android":"levelo://app?vid=2669dc48-d52c-4df4-a185-3258641e3a0a","ios":"levelo://app?vid=2669dc48-d52c-4df4-a185-3258641e3a0a"},"vehicle_type_id":"4","last_reported":1737165870,"current_range_meters":1200,"station_id":"ce4bhg12rcd13ifvqf80","pricing_plan_id":"cebpf4jnsgd1na2vs0mg"},{"bike_id":"a9761dde-4c88-4594-b55b-2341bdc2a36d","system_id":"levelo_inurba_marseille","lat":43.30581,"lon":5.37222,"is_reserved":false,"is_disabled":false,"rental_uris":{"android":"levelo://app?vid=a9761dde-4c88-4594-b55b-2341bdc2a36d","ios":"levelo://app?vid=a9761dde-4c88-4594-b55b-2341bdc2a36d"},"vehicle_type_id":"4","last_reported":1737165870,"current_range_meters":24400,"station_id":"ce4bgqh2rcd13ifvqc4g","pricing_plan_id":"cebpf4jnsgd1na2vs0mg"},{"bike_id":"492bb2a4-bb26-45e4-9edc-d3f9691e28d1","system_id":"levelo_inurba_marseille","lat":43.31765,"lon":5.39002,"is_reserved":false,"is_disabled":false,"rental_uris":{"android":"levelo://app?vid=492bb2a4-bb26-45e4-9edc-d3f9691e28d1","ios":"levelo://app?vid=492bb2a4-bb26-45e4-9edc-d3f9691e28d1"},"vehicle_type_id":"4","last_reported":1737165870,"current_range_meters":38000,"station_id":"ce4bhqp2rcd13ifvqhng","pricing_plan_id":"cebpf4jnsgd1na2vs0mg"},{"bike_id":"b0ae9043-30ae-4be6-bba1-965e81baaec3","system_id":"levelo_inurba_marseille","lat":43.28611,"lon":5.370584,"is_reserved":false,"is_disabled":false,"rental_uris":{"android":"levelo://app?vid=b0ae9043-30ae-4be6-bba1-965e81baaec3","ios":"levelo://app?vid=b0ae9043-30ae-4be6-bba1-965e81baaec3"},"vehicle_type_id":"4","last_reported":1737165870,"current_range_meters":22800,"station_id":"ce4bht12rcd13ifvqi60","pricing_plan_id":"cebpf4jnsgd1na2vs0mg"},{"bike_id":"2852113b-49ee-4cbf-9a16-ea68797906c2","system_id":"levelo_inurba_marseille","lat":43.33767,"lon":5.37416,"is_reserved":false,"is_disabled":false,"rental_uris":{"android":"levelo://app?vid=2852113b-49ee-4cbf-9a16-ea68797906c2","ios":"levelo://app?vid=2852113b-49ee-4cbf-9a16-ea68797906c2"},"vehicle_type_id":"4","last_reported":1737165870,"current_range_meters":37600,"station_id":"","pricing_plan_id":"cebpf4jnsgd1na2vs0mg"},{"bike_id":"f44c6782-5650-44af-bdfe-5de6412a3d83","system_id":"levelo_inurba_marseille","lat":43.30317,"lon":5.36901,"is_reserved":false,"is_disabled":false,"rental_uris":{"android":"levelo://app?vid=f44c6782-5650-44af-bdfe-5de6412a3d83","ios":"levelo://app?vid=f44c6782-5650-44af-bdfe-5de6412a3d83"},"vehicle_type_id":"4","last_reported":1737165870,"current_range_meters":31200,"station_id":"ce4bgqh2rcd13ifvqc5g","pricing_plan_id":"cebpf4jnsgd1na2vs0mg"},{"bike_id":"d3bcae62-6d5d-45f6-acfa-c8b6603a3285","system_id":"levelo_inurba_marseille","lat":43.31462,"lon":5.38956,"is_reserved":false,"is_disabled":false,"rental_uris":{"android":"levelo://app?vid=d3bcae62-6d5d-45f6-acfa-c8b6603a3285","ios":"levelo://app?vid=d3bcae62-6d5d-45f6-acfa-c8b6603a3285"},"vehicle_type_id":"4","last_reported":1737165870,"current_range_meters":28000,"station_id":"","pricing_plan_id":"cebpf4jnsgd1na2vs0mg"},{"bike_id":"b663f53e-1e42-4f0c-a05f-fde242cb0184","system_id":"levelo_inurba_marseille","lat":43.28614,"lon":5.35098,"is_reserved":false,"is_disabled":false,"rental_uris":{"android":"levelo://app?vid=b663f53e-1e42-4f0c-a05f-fde242cb0184","ios":"levelo://app?vid=b663f53e-1e42-4f0c-a05f-fde242cb0184"},"vehicle_type_id":"4","last_reported":1737165870,"current_range_meters":27200,"station_id":"ce4bhch2rcd13ifvqeug","pricing_plan_id":"cebpf4jnsgd1na2vs0mg"},{"bike_id":"642bb700-8dbb-42db-a943-18edeccd7c0a","system_id":"levelo_inurba_marseille","lat":43.27818,"lon":5.40741,"is_reserved":false,"is_disabled":false,"rental_uris":{"android":"levelo://app?vid=642bb700-8dbb-42db-a943-18edeccd7c0a","ios":"levelo://app?vid=642bb700-8dbb-42db-a943-18edeccd7c0a"},"vehicle_type_id":"4","last_reported":1737165870,"current_range_meters":38800,"station_id":"ce4bhnh2rcd13ifvqgtg","pricing_plan_id":"cebpf4jnsgd1na2vs0mg"},{"bike_id":"1db2e11f-620f-403f-b1b3-cd7ce8d8adee","system_id":"levelo_inurba_marseille","lat":43.28824,"lon":5.35848,"is_reserved":false,"is_disabled":false,"rental_uris":{"android":"levelo://app?vid=1db2e11f-620f-403f-b1b3-cd7ce8d8adee","ios":"levelo://app?vid=1db2e11f-620f-403f-b1b3-cd7ce8d8adee"},"vehicle_type_id":"4","last_reported":1737165870,"current_range_meters":14800,"station_id":"ce4bhb12rcd13ifvqem0","pricing_plan_id":"cebpf4jnsgd1na2vs0mg"},{"bike_id":"82eafdac-bd81-479d-a7b0-05db8ca76c26","system_id":"levelo_inurba_marseille","lat":43.25824,"lon":5.39429,"is_reserved":false,"is_disabled":true,"rental_uris":{"android":"levelo://app?vid=82eafdac-bd81-479d-a7b0-05db8ca76c26","ios":"levelo://app?vid=82eafdac-bd81-479d-a7b0-05db8ca76c26"},"vehicle_type_id":"4","last_reported":1737165870,"current_range_meters":1200,"station_id":"ce4bhip2rcd13ifvqft0","pricing_plan_id":"cebpf4jnsgd1na2vs0mg"},{"bike_id":"cefc250c-1baa-4a78-8fed-eb20c7fbb95c","system_id":"levelo_inurba_marseille","lat":43.231901,"lon":5.355568,"is_reserved":false,"is_disabled":false,"rental_uris":{"android":"levelo://app?vid=cefc250c-1baa-4a78-8fed-eb20c7fbb95c","ios":"levelo://app?vid=cefc250c-1baa-4a78-8fed-eb20c7fbb95c"},"vehicle_type_id":"4","last_reported":1737165870,"current_range_meters":38400,"station_id":"ce4bhu92rcd13ifvqi70","pricing_plan_id":"cebpf4jnsgd1na2vs0mg"},{"bike_id":"6a7366d7-ed8c-4629-bf0c-70c2abcda36d","system_id":"levelo_inurba_marseille","lat":43.23224,"lon":5.35487,"is_reserved":false,"is_disabled":false,"rental_uris":{"android":"levelo://app?vid=6a7366d7-ed8c-4629-bf0c-70c2abcda36d","ios":"levelo://app?vid=6a7366d7-ed8c-4629-bf0c-70c2abcda36d"},"vehicle_type_id":"4","last_reported":1737165870,"current_range_meters":38800,"station_id":"","pricing_plan_id":"cebpf4jnsgd1na2vs0mg"},{"bike_id":"2bfb81d2-63b8-4cd2-b9a9-33760811e6c2","system_id":"levelo_inurba_marseille","lat":43.24646,"lon":5.38893,"is_reserved":false,"is_disabled":false,"rental_uris":{"android":"levelo://app?vid=2bfb81d2-63b8-4cd2-b9a9-33760811e6c2","ios":"levelo://app?vid=2bfb81d2-63b8-4cd2-b9a9-33760811e6c2"},"vehicle_type_id":"4","last_reported":1737165870,"current_range_meters":39200,"station_id":"ce4bhg12rcd13ifvqf60","pricing_plan_id":"cebpf4jnsgd1na2vs0mg"},{"bike_id":"4952567e-ae9a-453a-9c43-02e48bde0e3b","system_id":"levelo_inurba_marseille","lat":43.269451,"lon":5.402527,"is_reserved":false,"is_disabled":false,"rental_uris":{"android":"levelo://app?vid=4952567e-ae9a-453a-9c43-02e48bde0e3b","ios":"levelo://app?vid=4952567e-ae9a-453a-9c43-02e48bde0e3b"},"vehicle_type_id":"4","last_reported":1737165870,"current_range_meters":30800,"station_id":"cjm6bp8fraef2m0cb0m0","pricing_plan_id":"cebpf4jnsgd1na2vs0mg"},{"bike_id":"92815373-594e-473e-8a91-850f96a6d88f","system_id":"levelo_inurba_marseille","lat":43.3112,"lon":5.37762,"is_reserved":false,"is_disabled":false,"rental_uris":{"android":"levelo://app?vid=92815373-594e-473e-8a91-850f96a6d88f","ios":"levelo://app?vid=92815373-594e-473e-8a91-850f96a6d88f"},"vehicle_type_id":"4","last_reported":1737165870,"current_range_meters":28400,"station_id":"ce4bgt92rcd13ifvqcg0","pricing_plan_id":"cebpf4jnsgd1na2vs0mg"},{"bike_id":"c5e9582c-f791-48cb-b29f-91f8675f074e","system_id":"levelo_inurba_marseille","lat":43.31998,"lon":5.38145,"is_reserved":false,"is_disabled":false,"rental_uris":{"android":"levelo://app?vid=c5e9582c-f791-48cb-b29f-91f8675f074e","ios":"levelo://app?vid=c5e9582c-f791-48cb-b29f-91f8675f074e"},"vehicle_type_id":"4","last_reported":1737165870,"current_range_meters":38800,"station_id":"ce4bhr12rcd13ifvqhpg","pricing_plan_id":"cebpf4jnsgd1na2vs0mg"},{"bike_id":"35deb437-7ef2-4ee7-9ea5-27ce0001ca7b","system_id":"levelo_inurba_marseille","lat":43.26066,"lon":5.39397,"is_reserved":false,"is_disabled":false,"rental_uris":{"android":"levelo://app?vid=35deb437-7ef2-4ee7-9ea5-27ce0001ca7b","ios":"levelo://app?vid=35deb437-7ef2-4ee7-9ea5-27ce0001ca7b"},"vehicle_type_id":"4","last_reported":1737165870,"current_range_meters":38800,"station_id":"ce4bhh92rcd13ifvqfj0","pricing_plan_id":"cebpf4jnsgd1na2vs0mg"},{"bike_id":"8950ad97-12b3-4231-a25a-a92e6e418d6d","system_id":"levelo_inurba_marseille","lat":43.28617,"lon":5.37077,"is_reserved":false,"is_disabled":false,"rental_uris":{"android":"levelo://app?vid=8950ad97-12b3-4231-a25a-a92e6e418d6d","ios":"levelo://app?vid=8950ad97-12b3-4231-a25a-a92e6e418d6d"},"vehicle_type_id":"4","last_reported":1737165870,"current_range_meters":16800,"station_id":"ce4bht12rcd13ifvqi60","pricing_plan_id":"cebpf4jnsgd1na2vs0mg"},{"bike_id":"3f365e46-1820-41a8-b556-5a78950765a9","system_id":"levelo_inurba_marseille","lat":43.28379,"lon":5.38627,"is_reserved":false,"is_disabled":false,"rental_uris":{"android":"levelo://app?vid=3f365e46-1820-41a8-b556-5a78950765a9","ios":"levelo://app?vid=3f365e46-1820-41a8-b556-5a78950765a9"},"vehicle_type_id":"4","last_reported":1737165870,"current_range_meters":38800,"station_id":"ce4bh492rcd13ifvqdvg","pricing_plan_id":"cebpf4jnsgd1na2vs0mg"},{"bike_id":"f2390374-e060-4fe1-bcfa-cb2711193e58","system_id":"levelo_inurba_marseille","lat":43.25077,"lon":5.39516,"is_reserved":false,"is_disabled":false,"rental_uris":{"android":"levelo://app?vid=f2390374-e060-4fe1-bcfa-cb2711193e58","ios":"levelo://app?vid=f2390374-e060-4fe1-bcfa-cb2711193e58"},"vehicle_type_id":"4","last_reported":1737165870,"current_range_meters":12000,"station_id":"ce4bhm12rcd13ifvqgkg","pricing_plan_id":"cebpf4jnsgd1na2vs0mg"},{"bike_id":"12aeebdf-9e20-443e-a190-514b03e8d72a","system_id":"levelo_inurba_marseille","lat":43.30868,"lon":5.3722,"is_reserved":false,"is_disabled":false,"rental_uris":{"android":"levelo://app?vid=12aeebdf-9e20-443e-a190-514b03e8d72a","ios":"levelo://app?vid=12aeebdf-9e20-443e-a190-514b03e8d72a"},"vehicle_type_id":"4","last_reported":1737165870,"current_range_meters":38000,"station_id":"","pricing_plan_id":"cebpf4jnsgd1na2vs0mg"},{"bike_id":"3baee328-1960-43a9-a18f-d51a435b6348","system_id":"levelo_inurba_marseille","lat":43.27814,"lon":5.40722,"is_reserved":false,"is_disabled":false,"rental_uris":{"android":"levelo://app?vid=3baee328-1960-43a9-a18f-d51a435b6348","ios":"levelo://app?vid=3baee328-1960-43a9-a18f-d51a435b6348"},"vehicle_type_id":"4","last_reported":1737165870,"current_range_meters":31200,"station_id":"ce4bhnh2rcd13ifvqgtg","pricing_plan_id":"cebpf4jnsgd1na2vs0mg"},{"bike_id":"1803bcce-5410-4043-899f-585e033b34fc","system_id":"levelo_inurba_marseille","lat":43.30139,"lon":5.39875,"is_reserved":false,"is_disabled":false,"rental_uris":{"android":"levelo://app?vid=1803bcce-5410-4043-899f-585e033b34fc","ios":"levelo://app?vid=1803bcce-5410-4043-899f-585e033b34fc"},"vehicle_type_id":"4","last_reported":1737165870,"current_range_meters":24800,"station_id":"ce4bh0h2rcd13ifvqd40","pricing_plan_id":"cebpf4jnsgd1na2vs0mg"},{"bike_id":"a8c1b154-f41c-4d41-9d3c-cf0101fd1f79","system_id":"levelo_inurba_marseille","lat":43.31319,"lon":5.39688,"is_reserved":false,"is_disabled":false,"rental_uris":{"android":"levelo://app?vid=a8c1b154-f41c-4d41-9d3c-cf0101fd1f79","ios":"levelo://app?vid=a8c1b154-f41c-4d41-9d3c-cf0101fd1f79"},"vehicle_type_id":"4","last_reported":1737165870,"current_range_meters":38000,"station_id":"ce4bgvp2rcd13ifvqcu0","pricing_plan_id":"cebpf4jnsgd1na2vs0mg"},{"bike_id":"fb0e3bf0-d49f-4b40-9e9c-373475dbd664","system_id":"levelo_inurba_marseille","lat":43.28129,"lon":5.3786,"is_reserved":false,"is_disabled":false,"rental_uris":{"android":"levelo://app?vid=fb0e3bf0-d49f-4b40-9e9c-373475dbd664","ios":"levelo://app?vid=fb0e3bf0-d49f-4b40-9e9c-373475dbd664"},"vehicle_type_id":"4","last_reported":1737165870,"current_range_meters":10800,"station_id":"ce4bha12rcd13ifvqee0","pricing_plan_id":"cebpf4jnsgd1na2vs0mg"},{"bike_id":"cd4a107c-2d72-46d4-9e07-4d6e3e144097","system_id":"levelo_inurba_marseille","lat":43.29556,"lon":5.42291,"is_reserved":false,"is_disabled":false,"rental_uris":{"android":"levelo://app?vid=cd4a107c-2d72-46d4-9e07-4d6e3e144097","ios":"levelo://app?vid=cd4a107c-2d72-46d4-9e07-4d6e3e144097"},"vehicle_type_id":"4","last_reported":1737165870,"current_range_meters":38800,"station_id":"ce4bhph2rcd13ifvqhdg","pricing_plan_id":"cebpf4jnsgd1na2vs0mg"},{"bike_id":"7ae468b0-0e73-4609-b947-3b7dfb1c3890","system_id":"levelo_inurba_marseille","lat":43.28386,"lon":5.3754,"is_reserved":false,"is_disabled":false,"rental_uris":{"android":"levelo://app?vid=7ae468b0-0e73-4609-b947-3b7dfb1c3890","ios":"levelo://app?vid=7ae468b0-0e73-4609-b947-3b7dfb1c3890"},"vehicle_type_id":"4","last_reported":1737165870,"current_range_meters":33600,"station_id":"ce4bh412rcd13ifvqds0","pricing_plan_id":"cebpf4jnsgd1na2vs0mg"},{"bike_id":"c4ab3838-1d61-4e29-a39f-fbac00aa12d4","system_id":"levelo_inurba_marseille","lat":43.31206,"lon":5.36839,"is_reserved":false,"is_disabled":false,"rental_uris":{"android":"levelo://app?vid=c4ab3838-1d61-4e29-a39f-fbac00aa12d4","ios":"levelo://app?vid=c4ab3838-1d61-4e29-a39f-fbac00aa12d4"},"vehicle_type_id":"4","last_reported":1737165870,"current_range_meters":38000,"station_id":"ce4bgl92rcd13ifvqbq0","pricing_plan_id":"cebpf4jnsgd1na2vs0mg"},{"bike_id":"54a3efb5-08d3-4f3d-934b-412f3f6ff3fa","system_id":"levelo_inurba_marseille","lat":43.30537,"lon":5.36695,"is_reserved":false,"is_disabled":false,"rental_uris":{"android":"levelo://app?vid=54a3efb5-08d3-4f3d-934b-412f3f6ff3fa","ios":"levelo://app?vid=54a3efb5-08d3-4f3d-934b-412f3f6ff3fa"},"vehicle_type_id":"4","last_reported":1737165870,"current_range_meters":8800,"station_id":"ce4bgrp2rcd13ifvqc9g","pricing_plan_id":"cebpf4jnsgd1na2vs0mg"},{"bike_id":"93975b06-de8f-4399-8ee9-2a17ac4808e7","system_id":"levelo_inurba_marseille","lat":43.29059,"lon":5.37586,"is_reserved":false,"is_disabled":false,"rental_uris":{"android":"levelo://app?vid=93975b06-de8f-4399-8ee9-2a17ac4808e7","ios":"levelo://app?vid=93975b06-de8f-4399-8ee9-2a17ac4808e7"},"vehicle_type_id":"4","last_reported":1737165870,"current_range_meters":38000,"station_id":"ce4bh692rcd13ifvqe90","pricing_plan_id":"cebpf4jnsgd1na2vs0mg"},{"bike_id":"f2c783a8-7055-416f-befb-999574086276","system_id":"levelo_inurba_marseille","lat":43.29036,"lon":5.39963,"is_reserved":false,"is_disabled":false,"rental_uris":{"android":"levelo://app?vid=f2c783a8-7055-416f-befb-999574086276","ios":"levelo://app?vid=f2c783a8-7055-416f-befb-999574086276"},"vehicle_type_id":"4","last_reported":1737165870,"current_range_meters":33200,"station_id":"ce4bh392rcd13ifvqdm0","pricing_plan_id":"cebpf4jnsgd1na2vs0mg"},{"bike_id":"29115170-c3f9-497a-8ac2-7733237abe9e","system_id":"levelo_inurba_marseille","lat":43.30785,"lon":5.37645,"is_reserved":false,"is_disabled":false,"rental_uris":{"android":"levelo://app?vid=29115170-c3f9-497a-8ac2-7733237abe9e","ios":"levelo://app?vid=29115170-c3f9-497a-8ac2-7733237abe9e"},"vehicle_type_id":"4","last_reported":1737165870,"current_range_meters":28000,"station_id":"ce4bgv92rcd13ifvqcq0","pricing_plan_id":"cebpf4jnsgd1na2vs0mg"},{"bike_id":"98a546cf-d228-4c59-82bb-3f9c74d664be","system_id":"levelo_inurba_marseille","lat":43.29305,"lon":5.37436,"is_reserved":false,"is_disabled":false,"rental_uris":{"android":"levelo://app?vid=98a546cf-d228-4c59-82bb-3f9c74d664be","ios":"levelo://app?vid=98a546cf-d228-4c59-82bb-3f9c74d664be"},"vehicle_type_id":"4","last_reported":1737165870,"current_range_meters":9600,"station_id":"ce4bgi12rcd13ifvqb70","pricing_plan_id":"cebpf4jnsgd1na2vs0mg"},{"bike_id":"246f2aa1-d855-40ee-b8e2-0e541013d632","system_id":"levelo_inurba_marseille","lat":43.27815,"lon":5.40739,"is_reserved":false,"is_disabled":false,"rental_uris":{"android":"levelo://app?vid=246f2aa1-d855-40ee-b8e2-0e541013d632","ios":"levelo://app?vid=246f2aa1-d855-40ee-b8e2-0e541013d632"},"vehicle_type_id":"4","last_reported":1737165870,"current_range_meters":3200,"station_id":"ce4bhnh2rcd13ifvqgtg","pricing_plan_id":"cebpf4jnsgd1na2vs0mg"},{"bike_id":"c248864c-e161-4718-8c42-20a1064043b4","system_id":"levelo_inurba_marseille","lat":43.284,"lon":5.37531,"is_reserved":false,"is_disabled":false,"rental_uris":{"android":"levelo://app?vid=c248864c-e161-4718-8c42-20a1064043b4","ios":"levelo://app?vid=c248864c-e161-4718-8c42-20a1064043b4"},"vehicle_type_id":"4","last_reported":1737165870,"current_range_meters":23200,"station_id":"ce4bh412rcd13ifvqds0","pricing_plan_id":"cebpf4jnsgd1na2vs0mg"},{"bike_id":"7802f421-1c53-4fcb-b117-f9e526affd2e","system_id":"levelo_inurba_marseille","lat":43.3123,"lon":5.36869,"is_reserved":false,"is_disabled":false,"rental_uris":{"android":"levelo://app?vid=7802f421-1c53-4fcb-b117-f9e526affd2e","ios":"levelo://app?vid=7802f421-1c53-4fcb-b117-f9e526affd2e"},"vehicle_type_id":"4","last_reported":1737165870,"current_range_meters":37600,"station_id":"ce4bgl92rcd13ifvqbq0","pricing_plan_id":"cebpf4jnsgd1na2vs0mg"},{"bike_id":"72ca0742-1df6-4026-87cc-098e9e8db1ab","system_id":"levelo_inurba_marseille","lat":43.23956,"lon":5.36629,"is_reserved":false,"is_disabled":false,"rental_uris":{"android":"levelo://app?vid=72ca0742-1df6-4026-87cc-098e9e8db1ab","ios":"levelo://app?vid=72ca0742-1df6-4026-87cc-098e9e8db1ab"},"vehicle_type_id":"4","last_reported":1737165870,"current_range_meters":26800,"station_id":"ce4bhi12rcd13ifvqfp0","pricing_plan_id":"cebpf4jnsgd1na2vs0mg"},{"bike_id":"1e2f115e-489f-4c45-b5ad-3280ad4c66fe","system_id":"levelo_inurba_marseille","lat":43.31691,"lon":5.43704,"is_reserved":false,"is_disabled":false,"rental_uris":{"android":"levelo://app?vid=1e2f115e-489f-4c45-b5ad-3280ad4c66fe","ios":"levelo://app?vid=1e2f115e-489f-4c45-b5ad-3280ad4c66fe"},"vehicle_type_id":"4","last_reported":1737165870,"current_range_meters":20800,"station_id":"ce4bhp92rcd13ifvqhcg","pricing_plan_id":"cebpf4jnsgd1na2vs0mg"},{"bike_id":"e9948edc-04e6-4552-b1df-26d3e5828acf","system_id":"levelo_inurba_marseille","lat":43.25822,"lon":5.39438,"is_reserved":false,"is_disabled":false,"rental_uris":{"android":"levelo://app?vid=e9948edc-04e6-4552-b1df-26d3e5828acf","ios":"levelo://app?vid=e9948edc-04e6-4552-b1df-26d3e5828acf"},"vehicle_type_id":"4","last_reported":1737165870,"current_range_meters":4400,"station_id":"ce4bhip2rcd13ifvqft0","pricing_plan_id":"cebpf4jnsgd1na2vs0mg"},{"bike_id":"99ee94b8-cdd4-4237-8287-de2fd426fc26","system_id":"levelo_inurba_marseille","lat":43.30255,"lon":5.40059,"is_reserved":false,"is_disabled":false,"rental_uris":{"android":"levelo://app?vid=99ee94b8-cdd4-4237-8287-de2fd426fc26","ios":"levelo://app?vid=99ee94b8-cdd4-4237-8287-de2fd426fc26"},"vehicle_type_id":"4","last_reported":1737165870,"current_range_meters":36400,"station_id":"ce4bgvh2rcd13ifvqcs0","pricing_plan_id":"cebpf4jnsgd1na2vs0mg"},{"bike_id":"5ed39e30-6df6-4cb7-b9e5-8eddd4f008ab","system_id":"levelo_inurba_marseille","lat":43.303376,"lon":5.391054,"is_reserved":false,"is_disabled":true,"rental_uris":{"android":"levelo://app?vid=5ed39e30-6df6-4cb7-b9e5-8eddd4f008ab","ios":"levelo://app?vid=5ed39e30-6df6-4cb7-b9e5-8eddd4f008ab"},"vehicle_type_id":"4","last_reported":1737165870,"current_range_meters":0,"station_id":"ce4bgkh2rcd13ifvqbk0","pricing_plan_id":"cebpf4jnsgd1na2vs0mg"},{"bike_id":"5f14310a-75fd-4a5b-a1bd-aaf290600cc6","system_id":"levelo_inurba_marseille","lat":43.25496,"lon":5.3765,"is_reserved":false,"is_disabled":false,"rental_uris":{"android":"levelo://app?vid=5f14310a-75fd-4a5b-a1bd-aaf290600cc6","ios":"levelo://app?vid=5f14310a-75fd-4a5b-a1bd-aaf290600cc6"},"vehicle_type_id":"4","last_reported":1737165870,"current_range_meters":38000,"station_id":"ce4bhh12rcd13ifvqff0","pricing_plan_id":"cebpf4jnsgd1na2vs0mg"},{"bike_id":"e27e74b2-2c71-43d5-8029-588d7007cb32","system_id":"levelo_inurba_marseille","lat":43.31633,"lon":5.37787,"is_reserved":false,"is_disabled":false,"rental_uris":{"android":"levelo://app?vid=e27e74b2-2c71-43d5-8029-588d7007cb32","ios":"levelo://app?vid=e27e74b2-2c71-43d5-8029-588d7007cb32"},"vehicle_type_id":"4","last_reported":1737165870,"current_range_meters":35200,"station_id":"ce4bgth2rcd13ifvqch0","pricing_plan_id":"cebpf4jnsgd1na2vs0mg"},{"bike_id":"0b938576-3591-451b-87bf-9390e1a3ed62","system_id":"levelo_inurba_marseille","lat":43.30631,"lon":5.40068,"is_reserved":false,"is_disabled":false,"rental_uris":{"android":"levelo://app?vid=0b938576-3591-451b-87bf-9390e1a3ed62","ios":"levelo://app?vid=0b938576-3591-451b-87bf-9390e1a3ed62"},"vehicle_type_id":"4","last_reported":1737165870,"current_range_meters":22800,"station_id":"ce4bh112rcd13ifvqda0","pricing_plan_id":"cebpf4jnsgd1na2vs0mg"},{"bike_id":"7383474c-b45a-4438-837c-99d7ae866fe7","system_id":"levelo_inurba_marseille","lat":43.26054,"lon":5.39394,"is_reserved":false,"is_disabled":false,"rental_uris":{"android":"levelo://app?vid=7383474c-b45a-4438-837c-99d7ae866fe7","ios":"levelo://app?vid=7383474c-b45a-4438-837c-99d7ae866fe7"},"vehicle_type_id":"4","last_reported":1737165870,"current_range_meters":38800,"station_id":"ce4bhh92rcd13ifvqfj0","pricing_plan_id":"cebpf4jnsgd1na2vs0mg"},{"bike_id":"4b62f61e-9a6c-4324-9eb8-ea40df5b2b54","system_id":"levelo_inurba_marseille","lat":43.2843,"lon":5.35915,"is_reserved":false,"is_disabled":false,"rental_uris":{"android":"levelo://app?vid=4b62f61e-9a6c-4324-9eb8-ea40df5b2b54","ios":"levelo://app?vid=4b62f61e-9a6c-4324-9eb8-ea40df5b2b54"},"vehicle_type_id":"4","last_reported":1737165870,"current_range_meters":38800,"station_id":"ce4bhah2rcd13ifvqei0","pricing_plan_id":"cebpf4jnsgd1na2vs0mg"},{"bike_id":"0352da0f-67b9-4f9c-95b6-4b5452c943f6","system_id":"levelo_inurba_marseille","lat":43.27867,"lon":5.37983,"is_reserved":false,"is_disabled":false,"rental_uris":{"android":"levelo://app?vid=0352da0f-67b9-4f9c-95b6-4b5452c943f6","ios":"levelo://app?vid=0352da0f-67b9-4f9c-95b6-4b5452c943f6"},"vehicle_type_id":"4","last_reported":1737165870,"current_range_meters":30800,"station_id":"","pricing_plan_id":"cebpf4jnsgd1na2vs0mg"},{"bike_id":"61b0c2f3-448f-49d3-8a4a-899110ba1116","system_id":"levelo_inurba_marseille","lat":43.32343,"lon":5.40611,"is_reserved":false,"is_disabled":false,"rental_uris":{"android":"levelo://app?vid=61b0c2f3-448f-49d3-8a4a-899110ba1116","ios":"levelo://app?vid=61b0c2f3-448f-49d3-8a4a-899110ba1116"},"vehicle_type_id":"4","last_reported":1737165870,"current_range_meters":34800,"station_id":"ce4bhq92rcd13ifvqhjg","pricing_plan_id":"cebpf4jnsgd1na2vs0mg"},{"bike_id":"35855600-b7a7-4a4d-b402-fa49f62670ff","system_id":"levelo_inurba_marseille","lat":43.31115,"lon":5.37761,"is_reserved":false,"is_disabled":false,"rental_uris":{"android":"levelo://app?vid=35855600-b7a7-4a4d-b402-fa49f62670ff","ios":"levelo://app?vid=35855600-b7a7-4a4d-b402-fa49f62670ff"},"vehicle_type_id":"4","last_reported":1737165870,"current_range_meters":38800,"station_id":"ce4bgt92rcd13ifvqcg0","pricing_plan_id":"cebpf4jnsgd1na2vs0mg"},{"bike_id":"0c06eeb6-c68d-4436-bc0a-579bb379ca0d","system_id":"levelo_inurba_marseille","lat":43.24723,"lon":5.37755,"is_reserved":false,"is_disabled":true,"rental_uris":{"android":"levelo://app?vid=0c06eeb6-c68d-4436-bc0a-579bb379ca0d","ios":"levelo://app?vid=0c06eeb6-c68d-4436-bc0a-579bb379ca0d"},"vehicle_type_id":"4","last_reported":1737165870,"current_range_meters":37600,"station_id":"","pricing_plan_id":"cebpf4jnsgd1na2vs0mg"},{"bike_id":"44bccd7b-e954-4fef-a58a-1bfa0b432213","system_id":"levelo_inurba_marseille","lat":43.282648,"lon":5.350957,"is_reserved":false,"is_disabled":false,"rental_uris":{"android":"levelo://app?vid=44bccd7b-e954-4fef-a58a-1bfa0b432213","ios":"levelo://app?vid=44bccd7b-e954-4fef-a58a-1bfa0b432213"},"vehicle_type_id":"4","last_reported":1737165870,"current_range_meters":38800,"station_id":"ce4bhbp2rcd13ifvqerg","pricing_plan_id":"cebpf4jnsgd1na2vs0mg"},{"bike_id":"230bef5b-3f3d-4ae2-901e-7cede6e0c8f2","system_id":"levelo_inurba_marseille","lat":43.30807,"lon":5.37631,"is_reserved":false,"is_disabled":false,"rental_uris":{"android":"levelo://app?vid=230bef5b-3f3d-4ae2-901e-7cede6e0c8f2","ios":"levelo://app?vid=230bef5b-3f3d-4ae2-901e-7cede6e0c8f2"},"vehicle_type_id":"4","last_reported":1737165870,"current_range_meters":21600,"station_id":"ce4bgv92rcd13ifvqcq0","pricing_plan_id":"cebpf4jnsgd1na2vs0mg"},{"bike_id":"ef74c085-e254-493f-8bad-ac87926b563d","system_id":"levelo_inurba_marseille","lat":43.2926,"lon":5.4091,"is_reserved":false,"is_disabled":false,"rental_uris":{"android":"levelo://app?vid=ef74c085-e254-493f-8bad-ac87926b563d","ios":"levelo://app?vid=ef74c085-e254-493f-8bad-ac87926b563d"},"vehicle_type_id":"4","last_reported":1737165870,"current_range_meters":38800,"station_id":"ce4bh192rcd13ifvqdc0","pricing_plan_id":"cebpf4jnsgd1na2vs0mg"},{"bike_id":"a3b707c7-6307-4e5f-a8e6-8113aef1245e","system_id":"levelo_inurba_marseille","lat":43.28408,"lon":5.37515,"is_reserved":false,"is_disabled":false,"rental_uris":{"android":"levelo://app?vid=a3b707c7-6307-4e5f-a8e6-8113aef1245e","ios":"levelo://app?vid=a3b707c7-6307-4e5f-a8e6-8113aef1245e"},"vehicle_type_id":"4","last_reported":1737165870,"current_range_meters":30800,"station_id":"ce4bh412rcd13ifvqds0","pricing_plan_id":"cebpf4jnsgd1na2vs0mg"},{"bike_id":"fe90f7a6-3920-456a-9451-50d213b7000f","system_id":"levelo_inurba_marseille","lat":43.28479,"lon":5.38439,"is_reserved":false,"is_disabled":true,"rental_uris":{"android":"levelo://app?vid=fe90f7a6-3920-456a-9451-50d213b7000f","ios":"levelo://app?vid=fe90f7a6-3920-456a-9451-50d213b7000f"},"vehicle_type_id":"4","last_reported":1737165870,"current_range_meters":0,"station_id":"ce4bh512rcd13ifvqe3g","pricing_plan_id":"cebpf4jnsgd1na2vs0mg"},{"bike_id":"3958b03d-b591-4d79-80a4-059614f22dc2","system_id":"levelo_inurba_marseille","lat":43.2989,"lon":5.43656,"is_reserved":false,"is_disabled":false,"rental_uris":{"android":"levelo://app?vid=3958b03d-b591-4d79-80a4-059614f22dc2","ios":"levelo://app?vid=3958b03d-b591-4d79-80a4-059614f22dc2"},"vehicle_type_id":"4","last_reported":1737165870,"current_range_meters":36800,"station_id":"ce4bhpp2rcd13ifvqhfg","pricing_plan_id":"cebpf4jnsgd1na2vs0mg"},{"bike_id":"92898562-49cc-4f43-ac91-6d966f42eaa4","system_id":"levelo_inurba_marseille","lat":43.29622,"lon":5.40614,"is_reserved":false,"is_disabled":false,"rental_uris":{"android":"levelo://app?vid=92898562-49cc-4f43-ac91-6d966f42eaa4","ios":"levelo://app?vid=92898562-49cc-4f43-ac91-6d966f42eaa4"},"vehicle_type_id":"4","last_reported":1737165870,"current_range_meters":26800,"station_id":"ce4bh0h2rcd13ifvqd60","pricing_plan_id":"cebpf4jnsgd1na2vs0mg"},{"bike_id":"910d1690-8e74-46e9-a779-620892417947","system_id":"levelo_inurba_marseille","lat":43.27074,"lon":5.42254,"is_reserved":false,"is_disabled":false,"rental_uris":{"android":"levelo://app?vid=910d1690-8e74-46e9-a779-620892417947","ios":"levelo://app?vid=910d1690-8e74-46e9-a779-620892417947"},"vehicle_type_id":"4","last_reported":1737165870,"current_range_meters":35600,"station_id":"ce4bhk92rcd13ifvqgb0","pricing_plan_id":"cebpf4jnsgd1na2vs0mg"},{"bike_id":"0c423eec-d519-47e7-8855-4b34b85a2cc8","system_id":"levelo_inurba_marseille","lat":43.31477,"lon":5.37297,"is_reserved":false,"is_disabled":false,"rental_uris":{"android":"levelo://app?vid=0c423eec-d519-47e7-8855-4b34b85a2cc8","ios":"levelo://app?vid=0c423eec-d519-47e7-8855-4b34b85a2cc8"},"vehicle_type_id":"4","last_reported":1737165870,"current_range_meters":6800,"station_id":"ce4bgt12rcd13ifvqcd0","pricing_plan_id":"cebpf4jnsgd1na2vs0mg"},{"bike_id":"7252053a-5c68-45c3-bb6b-f5e7c6b31b2d","system_id":"levelo_inurba_marseille","lat":43.27626,"lon":5.36101,"is_reserved":false,"is_disabled":false,"rental_uris":{"android":"levelo://app?vid=7252053a-5c68-45c3-bb6b-f5e7c6b31b2d","ios":"levelo://app?vid=7252053a-5c68-45c3-bb6b-f5e7c6b31b2d"},"vehicle_type_id":"4","last_reported":1737165870,"current_range_meters":37600,"station_id":"ce4bgj92rcd13ifvqbe0","pricing_plan_id":"cebpf4jnsgd1na2vs0mg"},{"bike_id":"dbc84289-e424-421f-8922-80495ae94fa1","system_id":"levelo_inurba_marseille","lat":43.30579,"lon":5.39352,"is_reserved":false,"is_disabled":true,"rental_uris":{"android":"levelo://app?vid=dbc84289-e424-421f-8922-80495ae94fa1","ios":"levelo://app?vid=dbc84289-e424-421f-8922-80495ae94fa1"},"vehicle_type_id":"4","last_reported":1737165870,"current_range_meters":24400,"station_id":"ce4bh0p2rcd13ifvqd80","pricing_plan_id":"cebpf4jnsgd1na2vs0mg"},