{"last_updated":1761628300,"ttl":60,"version":"2.2","data":{"bikes":[{"bike_id":"e6555b31-0966-4654-b0ec-95b569070487","system_id":"levelo_inurba_marseille","lat":43.309308,"lon":5.401348,"is_reserved":false,"is_disabled":false,"rental_uris":{"android":"levelo://app?vid=e6555b31-0966-4654-b0ec-95b569070487","ios":"levelo://app?vid=e6555b31-0966-4654-b0ec-95b569070487"},"vehicle_type_id":"4","last_reported":1761628300,"current_range_meters":2800,"station_id":"ce4bhp12rcd13ifvqh9g","pricing_plan_id":"cebpf4jnsgd1na2vs0mg"},{"bike_id":"6685b72d-bc6c-4473-970f-cfe39ccfd2f4","system_id":"levelo_inurba_marseille","lat":43.28344,"lon":5.38099,"is_reserved":false,"is_disabled":false,"rental_uris":{"android":"levelo://app?vid=6685b72d-bc6c-4473-970f-cfe39ccfd2f4","ios":"levelo://app?vid=6685b72d-bc6c-4473-970f-cfe39ccfd2f4"},"vehicle_type_id":"4","last_reported":1761628300,"current_range_meters":2800,"station_id":"ce4bh412rcd13ifvqdr0","pricing_plan_id":"cebpf4jnsgd1na2vs0mg"},{"bike_id":"e1aa20f8-799a-4567-bfd0-31e71eee617f","system_id":"levelo_inurba_marseille","lat":43.31437,"lon":5.38885,"is_reserved":false,"is_disabled":true,"rental_uris":{"android":"levelo://app?vid=e1aa20f8-799a-4567-bfd0-31e71eee617f","ios":"levelo://app?vid=e1aa20f8-799a-4567-bfd0-31e71eee617f"},"vehicle_type_id":"4","last_reported":1761628300,"current_range_meters":4000,"station_id":"","pricing_plan_id":"cebpf4jnsgd1na2vs0mg"},{"bike_id":"778c5aa6-d083-47d6-97fb-ffbc29c8cba0","system_id":"levelo_inurba_marseille","lat":43.246344,"lon":5.431491,"is_reserved":false,"is_disabled":false,"rental_uris":{"android":"levelo://app?vid=778c5aa6-d083-47d6-97fb-ffbc29c8cba0","ios":"levelo://app?vid=778c5aa6-d083-47d6-97fb-ffbc29c8cba0"},"vehicle_type_id":"4","last_reported":1761628300,"current_range_meters":4000,"station_id":"st_d2m6c4gdas8pm72e190g","pricing_plan_id":"cebpf4jnsgd1na2vs0mg"},{"bike_id":"dd539c3d-8244-460c-97df-764a86a3f675","system_id":"levelo_inurba_marseille","lat":43.286285,"lon":5.359264,"is_reserved":false,"is_disabled":false,"rental_uris":{"android":"levelo://app?vid=dd539c3d-8244-460c-97df-764a86a3f675","ios":"levelo://app?vid=dd539c3d-8244-460c-97df-764a86a3f675"},"vehicle_type_id":"4","last_reported":1761628300,"current_range_meters":4400,"station_id":"","pricing_plan_id":"cebpf4jnsgd1na2vs0mg"},{"bike_id":"2511db91-008c-4aa3-88b0-a77624a34b5a","system_id":"levelo_inurba_marseille","lat":43.288355,"lon":5.357215,"is_reserved":false,"is_disabled":false,"rental_uris":{"android":"levelo://app?vid=2511db91-008c-4aa3-88b0-a77624a34b5a","ios":"levelo://app?vid=2511db91-008c-4aa3-88b0-a77624a34b5a"},"vehicle_type_id":"4","last_reported":1761628300,"current_range_meters":4400,"station_id":"","pricing_plan_id":"cebpf4jnsgd1na2vs0mg"},{"bike_id":"4c90d9f1-f8e1-4645-a95e-881f88d371be","system_id":"levelo_inurba_marseille","lat":43.29905,"lon":5.38454,"is_reserved":false,"is_disabled":false,"rental_uris":{"android":"levelo://app?vid=4c90d9f1-f8e1-4645-a95e-881f88d371be","ios":"levelo://app?vid=4c90d9f1-f8e1-4645-a95e-881f88d371be"},"vehicle_type_id":"4","last_reported":1761628300,"current_range_meters":4800,"station_id":"","pricing_plan_id":"cebpf4jnsgd1na2vs0mg"},{"bike_id":"eec377d5-30d5-4a2b-b306-5f7476e21ff5","system_id":"levelo_inurba_marseille","lat":43.309039,"lon":5.368456,"is_reserved":false,"is_disabled":false,"rental_uris":{"android":"levelo://app?vid=eec377d5-30d5-4a2b-b306-5f7476e21ff5","ios":"levelo://app?vid=eec377d5-30d5-4a2b-b306-5f7476e21ff5"},"vehicle_type_id":"4","last_reported":1761628300,"current_range_meters":4800,"station_id":"ce4bgn92rcd13ifvqbvg","pricing_plan_id":"cebpf4jnsgd1na2vs0mg"},{"bike_id":"830b8615-b5f4-418b-a764-60a1b6252511","system_id":"levelo_inurba_marseille","lat":43.26209,"lon":5.37459,"is_reserved":false,"is_disabled":false,"rental_uris":{"android":"levelo://app?vid=830b8615-b5f4-418b-a764-60a1b6252511","ios":"levelo://app?vid=830b8615-b5f4-418b-a764-60a1b6252511"},"vehicle_type_id":"4","last_reported":1761628300,"current_range_meters":5600,"station_id":"ce4bhgp2rcd13ifvqfc0","pricing_plan_id":"cebpf4jnsgd1na2vs0mg"},{"bike_id":"86480c45-7470-47af-bbc3-b3682a415d15","system_id":"levelo_inurba_marseille","lat":43.30686,"lon":5.40105,"is_reserved":false,"is_disabled":false,"rental_uris":{"android":"levelo://app?vid=86480c45-7470-47af-bbc3-b3682a415d15","ios":"levelo://app?vid=86480c45-7470-47af-bbc3-b3682a415d15"},"vehicle_type_id":"4","last_reported":1761628300,"current_range_meters":5600,"station_id":"ce4bh112rcd13ifvqda0","pricing_plan_id":"cebpf4jnsgd1na2vs0mg"},{"bike_id":"c0b81f28-bbba-4247-a74b-c55a34b31846","system_id":"levelo_inurba_marseille","lat":43.33258,"lon":5.41086,"is_reserved":false,"is_disabled":true,"rental_uris":{"android":"levelo://app?vid=c0b81f28-bbba-4247-a74b-c55a34b31846","ios":"levelo://app?vid=c0b81f28-bbba-4247-a74b-c55a34b31846"},"vehicle_type_id":"4","last_reported":1761628300,"current_range_meters":6000,"station_id":"","pricing_plan_id":"cebpf4jnsgd1na2vs0mg"},{"bike_id":"9b9e1901-d7a9-426b-9568-6a3af329dc7a","system_id":"levelo_inurba_marseille","lat":43.240886,"lon":5.402297,"is_reserved":false,"is_disabled":false,"rental_uris":{"android":"levelo://app?vid=9b9e1901-d7a9-426b-9568-6a3af329dc7a","ios":"levelo://app?vid=9b9e1901-d7a9-426b-9568-6a3af329dc7a"},"vehicle_type_id":"4","last_reported":1761628300,"current_range_meters":6000,"station_id":"","pricing_plan_id":"cebpf4jnsgd1na2vs0mg"},{"bike_id":"c500b805-273b-40a5-87fe-d7feb3ca4025","system_id":"levelo_inurba_marseille","lat":43.288288,"lon":5.358565,"is_reserved":false,"is_disabled":false,"rental_uris":{"android":"levelo://app?vid=c500b805-273b-40a5-87fe-d7feb3ca4025","ios":"levelo://app?vid=c500b805-273b-40a5-87fe-d7feb3ca4025"},"vehicle_type_id":"4","last_reported":1761628300,"current_range_meters":6000,"station_id":"ce4bhb12rcd13ifvqem0","pricing_plan_id":"cebpf4jnsgd1na2vs0mg"},{"bike_id":"4ade9d83-f2d5-4d19-a54e-74fbd9ec2b53","system_id":"levelo_inurba_marseille","lat":43.31058,"lon":5.40137,"is_reserved":false,"is_disabled":false,"rental_uris":{"android":"levelo://app?vid=4ade9d83-f2d5-4d19-a54e-74fbd9ec2b53","ios":"levelo://app?vid=4ade9d83-f2d5-4d19-a54e-74fbd9ec2b53"},"vehicle_type_id":"4","last_reported":1761628300,"current_range_meters":6000,"station_id":"","pricing_plan_id":"cebpf4jnsgd1na2vs0mg"},{"bike_id":"367c708e-939d-4116-af04-3a417d3565dc","system_id":"levelo_inurba_marseille","lat":43.30163,"lon":5.38095,"is_reserved":false,"is_disabled":false,"rental_uris":{"android":"levelo://app?vid=367c708e-939d-4116-af04-3a417d3565dc","ios":"levelo://app?vid=367c708e-939d-4116-af04-3a417d3565dc"},"vehicle_type_id":"4","last_reported":1761628300,"current_range_meters":6000,"station_id":"ce4bgjp2rcd13ifvqbh0","pricing_plan_id":"cebpf4jnsgd1na2vs0mg"},{"bike_id":"41d45b45-3a52-4b5a-b2b3-1e62d5490ada","system_id":"levelo_inurba_marseille","lat":43.285273,"lon":5.44097,"is_reserved":false,"is_disabled":false,"rental_uris":{"android":"levelo://app?vid=41d45b45-3a52-4b5a-b2b3-1e62d5490ada","ios":"levelo://app?vid=41d45b45-3a52-4b5a-b2b3-1e62d5490ada"},"vehicle_type_id":"4","last_reported":1761628300,"current_range_meters":6400,"station_id":"st_d3j3df2ikq2c7380ej80","pricing_plan_id":"cebpf4jnsgd1na2vs0mg"},{"bike_id":"7a9e75ac-e42e-4b12-867a-e251014dfc8a","system_id":"levelo_inurba_marseille","lat":43.246701,"lon":5.381645,"is_reserved":false,"is_disabled":false,"rental_uris":{"android":"levelo://app?vid=7a9e75ac-e42e-4b12-867a-e251014dfc8a","ios":"levelo://app?vid=7a9e75ac-e42e-4b12-867a-e251014dfc8a"},"vehicle_type_id":"4","last_reported":1761628300,"current_range_meters":6800,"station_id":"ce4bhih2rcd13ifvqfr0","pricing_plan_id":"cebpf4jnsgd1na2vs0mg"},{"bike_id":"64b75b4a-3497-4861-8cc2-90dd62cd9f5e","system_id":"levelo_inurba_marseille","lat":43.293003,"lon":5.434493,"is_reserved":false,"is_disabled":false,"rental_uris":{"android":"levelo://app?vid=64b75b4a-3497-4861-8cc2-90dd62cd9f5e","ios":"levelo://app?vid=64b75b4a-3497-4861-8cc2-90dd62cd9f5e"},"vehicle_type_id":"4","last_reported":1761628300,"current_range_meters":6800,"station_id":"","pricing_plan_id":"cebpf4jnsgd1na2vs0mg"},{"bike_id":"3ea13603-c9ad-4550-9948-b83f47812af6","system_id":"levelo_inurba_marseille","lat":43.29091,"lon":5.36606,"is_reserved":false,"is_disabled":false,"rental_uris":{"android":"levelo://app?vid=3ea13603-c9ad-4550-9948-b83f47812af6","ios":"levelo://app?vid=3ea13603-c9ad-4550-9948-b83f47812af6"},"vehicle_type_id":"4","last_reported":1761628300,"current_range_meters":6800,"station_id":"","pricing_plan_id":"cebpf4jnsgd1na2vs0mg"},{"bike_id":"e4ccce50-4824-4895-aa8c-033835526f23","system_id":"levelo_inurba_marseille","lat":43.318783,"lon":5.399912,"is_reserved":false,"is_disabled":false,"rental_uris":{"android":"levelo://app?vid=e4ccce50-4824-4895-aa8c-033835526f23","ios":"levelo://app?vid=e4ccce50-4824-4895-aa8c-033835526f23"},"vehicle_type_id":"4","last_reported":1761628300,"current_range_meters":6800,"station_id":"","pricing_plan_id":"cebpf4jnsgd1na2vs0mg"},{"bike_id":"de5cece4-6186-4ccb-b70e-a25e8bd3fc86","system_id":"levelo_inurba_marseille","lat":43.337444,"lon":5.374475,"is_reserved":false,"is_disabled":false,"rental_uris":{"android":"levelo://app?vid=de5cece4-6186-4ccb-b70e-a25e8bd3fc86","ios":"levelo://app?vid=de5cece4-6186-4ccb-b70e-a25e8bd3fc86"},"vehicle_type_id":"4","last_reported":1761628300,"current_range_meters":6800,"station_id":"","pricing_plan_id":"cebpf4jnsgd1na2vs0mg"},{"bike_id":"8847af5d-c1ad-4d8d-a5c1-273c3b41c105","system_id":"levelo_inurba_marseille","lat":43.322487,"lon":5.419629,"is_reserved":false,"is_disabled":false,"rental_uris":{"android":"levelo://app?vid=8847af5d-c1ad-4d8d-a5c1-273c3b41c105","ios":"levelo://app?vid=8847af5d-c1ad-4d8d-a5c1-273c3b41c105"},"vehicle_type_id":"4","last_reported":1761628300,"current_range_meters":7200,"station_id":"","pricing_plan_id":"cebpf4jnsgd1na2vs0mg"},{"bike_id":"807c45e1-c444-4655-84cd-f1adc343f75a","system_id":"levelo_inurba_marseille","lat":43.30324,"lon":5.40443,"is_reserved":false,"is_disabled":false,"rental_uris":{"android":"levelo://app?vid=807c45e1-c444-4655-84cd-f1adc343f75a","ios":"levelo://app?vid=807c45e1-c444-4655-84cd-f1adc343f75a"},"vehicle_type_id":"4","last_reported":1761628300,"current_range_meters":7200,"station_id":"ce4bh012rcd13ifvqd10","pricing_plan_id":"cebpf4jnsgd1na2vs0mg"},{"bike_id":"5f246e82-c670-465f-938e-2af9701fc24b","system_id":"levelo_inurba_marseille","lat":43.25085,"lon":5.39522,"is_reserved":false,"is_disabled":false,"rental_uris":{"android":"levelo://app?vid=5f246e82-c670-465f-938e-2af9701fc24b","ios":"levelo://app?vid=5f246e82-c670-465f-938e-2af9701fc24b"},"vehicle_type_id":"4","last_reported":1761628300,"current_range_meters":7200,"station_id":"ce4bhm12rcd13ifvqgkg","pricing_plan_id":"cebpf4jnsgd1na2vs0mg"},{"bike_id":"f9a5da86-4720-4169-ac0d-2310b363c678","system_id":"levelo_inurba_marseille","lat":43.270602,"lon":5.402655,"is_reserved":false,"is_disabled":false,"rental_uris":{"android":"levelo://app?vid=f9a5da86-4720-4169-ac0d-2310b363c678","ios":"levelo://app?vid=f9a5da86-4720-4169-ac0d-2310b363c678"},"vehicle_type_id":"4","last_reported":1761628300,"current_range_meters":7200,"station_id":"ce4bhk92rcd13ifvqgc0","pricing_plan_id":"cebpf4jnsgd1na2vs0mg"},{"bike_id":"1554c415-a81a-4305-9953-297598636a65","system_id":"levelo_inurba_marseille","lat":43.28696,"lon":5.37937,"is_reserved":false,"is_disabled":false,"rental_uris":{"android":"levelo://app?vid=1554c415-a81a-4305-9953-297598636a65","ios":"levelo://app?vid=1554c415-a81a-4305-9953-297598636a65"},"vehicle_type_id":"4","last_reported":1761628300,"current_range_meters":8000,"station_id":"","pricing_plan_id":"cebpf4jnsgd1na2vs0mg"},{"bike_id":"ca207ec1-3c7c-4bc9-a489-74e664507542","system_id":"levelo_inurba_marseille","lat":43.24631,"lon":5.43154,"is_reserved":false,"is_disabled":false,"rental_uris":{"android":"levelo://app?vid=ca207ec1-3c7c-4bc9-a489-74e664507542","ios":"levelo://app?vid=ca207ec1-3c7c-4bc9-a489-74e664507542"},"vehicle_type_id":"4","last_reported":1761628300,"current_range_meters":8000,"station_id":"st_d2m6c4gdas8pm72e190g","pricing_plan_id":"cebpf4jnsgd1na2vs0mg"},{"bike_id":"4f08e88b-0cde-493b-bef9-f5e86e069fae","system_id":"levelo_inurba_marseille","lat":43.28575,"lon":5.39505,"is_reserved":false,"is_disabled":false,"rental_uris":{"android":"levelo://app?vid=4f08e88b-0cde-493b-bef9-f5e86e069fae","ios":"levelo://app?vid=4f08e88b-0cde-493b-bef9-f5e86e069fae"},"vehicle_type_id":"4","last_reported":1761628300,"current_range_meters":8000,"station_id":"ce4bh292rcd13ifvqdg0","pricing_plan_id":"cebpf4jnsgd1na2vs0mg"},{"bike_id":"7348219f-62a2-4f61-9dc3-4c6ae6e126f0","system_id":"levelo_inurba_marseille","lat":43.33755,"lon":5.37455,"is_reserved":false,"is_disabled":false,"rental_uris":{"android":"levelo://app?vid=7348219f-62a2-4f61-9dc3-4c6ae6e126f0","ios":"levelo://app?vid=7348219f-62a2-4f61-9dc3-4c6ae6e126f0"},"vehicle_type_id":"4","last_reported":1761628300,"current_range_meters":8400,"station_id":"","pricing_plan_id":"cebpf4jnsgd1na2vs0mg"},{"bike_id":"02ad6a69-948e-4714-ab05-a0ff6b80ef20","system_id":"levelo_inurba_marseille","lat":43.27927,"lon":5.39538,"is_reserved":false,"is_disabled":false,"rental_uris":{"android":"levelo://app?vid=02ad6a69-948e-4714-ab05-a0ff6b80ef20","ios":"levelo://app?vid=02ad6a69-948e-4714-ab05-a0ff6b80ef20"},"vehicle_type_id":"4","last_reported":1761628300,"current_range_meters":8400,"station_id":"ce4bhf92rcd13ifvqf40","pricing_plan_id":"cebpf4jnsgd1na2vs0mg"},{"bike_id":"ef4e0d5b-3e99-4ff6-a010-5338cf809c70","system_id":"levelo_inurba_marseille","lat":43.32655,"lon":5.40992,"is_reserved":false,"is_disabled":false,"rental_uris":{"android":"levelo://app?vid=ef4e0d5b-3e99-4ff6-a010-5338cf809c70","ios":"levelo://app?vid=ef4e0d5b-3e99-4ff6-a010-5338cf809c70"},"vehicle_type_id":"4","last_reported":1761628300,"current_range_meters":8400,"station_id":"ce4bhpp2rcd13ifvqhgg","pricing_plan_id":"cebpf4jnsgd1na2vs0mg"},{"bike_id":"74ad1e51-e842-41b7-aab9-70c940e25f55","system_id":"levelo_inurba_marseille","lat":43.21744,"lon":5.34606,"is_reserved":false,"is_disabled":true,"rental_uris":{"android":"levelo://app?vid=74ad1e51-e842-41b7-aab9-70c940e25f55","ios":"levelo://app?vid=74ad1e51-e842-41b7-aab9-70c940e25f55"},"vehicle_type_id":"4","last_reported":1761628300,"current_range_meters":8400,"station_id":"st_cvj6r9ubvosntc0bgbag","pricing_plan_id":"cebpf4jnsgd1na2vs0mg"},{"bike_id":"347eb2db-1df7-4746-bdc8-5c9e2c4e7281","system_id":"levelo_inurba_marseille","lat":43.29757,"lon":5.4279,"is_reserved":false,"is_disabled":false,"rental_uris":{"android":"levelo://app?vid=347eb2db-1df7-4746-bdc8-5c9e2c4e7281","ios":"levelo://app?vid=347eb2db-1df7-4746-bdc8-5c9e2c4e7281"},"vehicle_type_id":"4","last_reported":1761628300,"current_range_meters":8400,"station_id":"st_d3md5207bmas73dh9klg","pricing_plan_id":"cebpf4jnsgd1na2vs0mg"},{"bike_id":"a91ed2f9-870b-4c37-bf0a-cc5a26a905b3","system_id":"levelo_inurba_marseille","lat":43.281602,"lon":5.426603,"is_reserved":false,"is_disabled":false,"rental_uris":{"android":"levelo://app?vid=a91ed2f9-870b-4c37-bf0a-cc5a26a905b3","ios":"levelo://app?vid=a91ed2f9-870b-4c37-bf0a-cc5a26a905b3"},"vehicle_type_id":"4","last_reported":1761628300,"current_range_meters":8800,"station_id":"ce4bhnh2rcd13ifvqgug","pricing_plan_id":"cebpf4jnsgd1na2vs0mg"},{"bike_id":"b9aed265-7bb5-4917-9a1f-df45ce79c285","system_id":"levelo_inurba_marseille","lat":43.25004,"lon":5.38932,"is_reserved":false,"is_disabled":false,"rental_uris":{"android":"levelo://app?vid=b9aed265-7bb5-4917-9a1f-df45ce79c285","ios":"levelo://app?vid=b9aed265-7bb5-4917-9a1f-df45ce79c285"},"vehicle_type_id":"4","last_reported":1761628300,"current_range_meters":8800,"station_id":"ce4bhgp2rcd13ifvqfd0","pricing_plan_id":"cebpf4jnsgd1na2vs0mg"},{"bike_id":"9e766c0e-118a-4b7d-8f04-112f1f817cd3","system_id":"levelo_inurba_marseille","lat":43.28972,"lon":5.37831,"is_reserved":false,"is_disabled":true,"rental_uris":{"android":"levelo://app?vid=9e766c0e-118a-4b7d-8f04-112f1f817cd3","ios":"levelo://app?vid=9e766c0e-118a-4b7d-8f04-112f1f817cd3"},"vehicle_type_id":"4","last_reported":1761628300,"current_range_meters":8800,"station_id":"ce4bh9p2rcd13ifvqed0","pricing_plan_id":"cebpf4jnsgd1na2vs0mg"},{"bike_id":"c896b697-d7c3-47ea-81cb-50811f76c96f","system_id":"levelo_inurba_marseille","lat":43.25083,"lon":5.39519,"is_reserved":false,"is_disabled":false,"rental_uris":{"android":"levelo://app?vid=c896b697-d7c3-47ea-81cb-50811f76c96f","ios":"levelo://app?vid=c896b697-d7c3-47ea-81cb-50811f76c96f"},"vehicle_type_id":"4","last_reported":1761628300,"current_range_meters":9200,"station_id":"ce4bhm12rcd13ifvqgkg","pricing_plan_id":"cebpf4jnsgd1na2vs0mg"},{"bike_id":"b83891d3-7971-45ae-9af3-651a6e6209e2","system_id":"levelo_inurba_marseille","lat":43.23187,"lon":5.35574,"is_reserved":false,"is_disabled":true,"rental_uris":{"android":"levelo://app?vid=b83891d3-7971-45ae-9af3-651a6e6209e2","ios":"levelo://app?vid=b83891d3-7971-45ae-9af3-651a6e6209e2"},"vehicle_type_id":"4","last_reported":1761628300,"current_range_meters":9600,"station_id":"ce4bhu92rcd13ifvqi70","pricing_plan_id":"cebpf4jnsgd1na2vs0mg"},{"bike_id":"f5adc0f6-8f78-420c-a3cc-2381696afa4a","system_id":"levelo_inurba_marseille","lat":43.288618,"lon":5.425151,"is_reserved":false,"is_disabled":false,"rental_uris":{"android":"levelo://app?vid=f5adc0f6-8f78-420c-a3cc-2381696afa4a","ios":"levelo://app?vid=f5adc0f6-8f78-420c-a3cc-2381696afa4a"},"vehicle_type_id":"4","last_reported":1761628300,"current_range_meters":9600,"station_id":"st_d3b462108ojc7389ooeg","pricing_plan_id":"cebpf4jnsgd1na2vs0mg"},{"bike_id":"6faabf34-5f72-4f39-83c5-41b2c566509f","system_id":"levelo_inurba_marseille","lat":43.24088,"lon":5.37732,"is_reserved":false,"is_disabled":false,"rental_uris":{"android":"levelo://app?vid=6faabf34-5f72-4f39-83c5-41b2c566509f","ios":"levelo://app?vid=6faabf34-5f72-4f39-83c5-41b2c566509f"},"vehicle_type_id":"4","last_reported":1761628300,"current_range_meters":9600,"station_id":"ce4bhnp2rcd13ifvqgvg","pricing_plan_id":"cebpf4jnsgd1na2vs0mg"},{"bike_id":"0d30d321-a5c1-4df9-bb01-58285c66b73b","system_id":"levelo_inurba_marseille","lat":43.29184,"lon":5.35798,"is_reserved":false,"is_disabled":true,"rental_uris":{"android":"levelo://app?vid=0d30d321-a5c1-4df9-bb01-58285c66b73b","ios":"levelo://app?vid=0d30d321-a5c1-4df9-bb01-58285c66b73b"},"vehicle_type_id":"4","last_reported":1761628300,"current_range_meters":9600,"station_id":"ce4bhb12rcd13ifvqel0","pricing_plan_id":"cebpf4jnsgd1na2vs0mg"},{"bike_id":"0eef425c-a804-48aa-836c-a7dd18ebe477","system_id":"levelo_inurba_marseille","lat":43.297058,"lon":5.36602,"is_reserved":false,"is_disabled":false,"rental_uris":{"android":"levelo://app?vid=0eef425c-a804-48aa-836c-a7dd18ebe477","ios":"levelo://app?vid=0eef425c-a804-48aa-836c-a7dd18ebe477"},"vehicle_type_id":"4","last_reported":1761628300,"current_range_meters":9600,"station_id":"ce4bgn12rcd13ifvqbt0","pricing_plan_id":"cebpf4jnsgd1na2vs0mg"},{"bike_id":"33536d63-32c5-4dda-b600-be1d3fbb9bcc","system_id":"levelo_inurba_marseille","lat":43.211914,"lon":5.350787,"is_reserved":false,"is_disabled":true,"rental_uris":{"android":"levelo://app?vid=33536d63-32c5-4dda-b600-be1d3fbb9bcc","ios":"levelo://app?vid=33536d63-32c5-4dda-b600-be1d3fbb9bcc"},"vehicle_type_id":"4","last_reported":1761628300,"current_range_meters":10000,"station_id":"","pricing_plan_id":"cebpf4jnsgd1na2vs0mg"},{"bike_id":"d0c081ad-3486-48c9-8966-70405df77a5b","system_id":"levelo_inurba_marseille","lat":43.229346,"lon":5.353781,"is_reserved":false,"is_disabled":false,"rental_uris":{"android":"levelo://app?vid=d0c081ad-3486-48c9-8966-70405df77a5b","ios":"levelo://app?vid=d0c081ad-3486-48c9-8966-70405df77a5b"},"vehicle_type_id":"4","last_reported":1761628300,"current_range_meters":10000,"station_id":"cpo3532slgdg3j2ikp40","pricing_plan_id":"cebpf4jnsgd1na2vs0mg"},{"bike_id":"2319520a-fc10-4ea5-a5ca-d3a4702f6c7b","system_id":"levelo_inurba_marseille","lat":43.29901,"lon":5.43681,"is_reserved":false,"is_disabled":true,"rental_uris":{"android":"levelo://app?vid=2319520a-fc10-4ea5-a5ca-d3a4702f6c7b","ios":"levelo://app?vid=2319520a-fc10-4ea5-a5ca-d3a4702f6c7b"},"vehicle_type_id":"4","last_reported":1761628300,"current_range_meters":10000,"station_id":"ce4bhpp2rcd13ifvqhfg","pricing_plan_id":"cebpf4jnsgd1na2vs0mg"},{"bike_id":"bbbf3dbb-fbe2-4b7e-bfad-c027ca4e1c25","system_id":"levelo_inurba_marseille","lat":43.28484,"lon":5.483964,"is_reserved":false,"is_disabled":false,"rental_uris":{"android":"levelo://app?vid=bbbf3dbb-fbe2-4b7e-bfad-c027ca4e1c25","ios":"levelo://app?vid=bbbf3dbb-fbe2-4b7e-bfad-c027ca4e1c25"},"vehicle_type_id":"4","last_reported":1761628300,"current_range_meters":10000,"station_id":"st_d3svhcjqgbts73a3dn0g","pricing_plan_id":"cebpf4jnsgd1na2vs0mg"},{"bike_id":"ebf72d06-78f4-4cdd-a535-03c2730db1cb","system_id":"levelo_inurba_marseille","lat":43.264938,"lon":5.395486,"is_reserved":false,"is_disabled":false,"rental_uris":{"android":"levelo://app?vid=ebf72d06-78f4-4cdd-a535-03c2730db1cb","ios":"levelo://app?vid=ebf72d06-78f4-4cdd-a535-03c2730db1cb"},"vehicle_type_id":"4","last_reported":1761628300,"current_range_meters":10000,"station_id":"ce4bhi12rcd13ifvqfq0","pricing_plan_id":"cebpf4jnsgd1na2vs0mg"},{"bike_id":"20f45349-3f98-403d-8636-0b1f40024741","system_id":"levelo_inurba_marseille","lat":43.27494,"lon":5.42456,"is_reserved":false,"is_disabled":false,"rental_uris":{"android":"levelo://app?vid=20f45349-3f98-403d-8636-0b1f40024741","ios":"levelo://app?vid=20f45349-3f98-403d-8636-0b1f40024741"},"vehicle_type_id":"4","last_reported":1761628300,"current_range_meters":10000,"station_id":"ce4bhn92rcd13ifvqgrg","pricing_plan_id":"cebpf4jnsgd1na2vs0mg"},{"bike_id":"2ccbca66-7d28-4303-81be-74d019784a2f","system_id":"levelo_inurba_marseille","lat":43.28459,"lon":5.35902,"is_reserved":false,"is_disabled":false,"rental_uris":{"android":"levelo://app?vid=2ccbca66-7d28-4303-81be-74d019784a2f","ios":"levelo://app?vid=2ccbca66-7d28-4303-81be-74d019784a2f"},"vehicle_type_id":"4","last_reported":1761628300,"current_range_meters":10000,"station_id":"ce4bhah2rcd13ifvqei0","pricing_plan_id":"cebpf4jnsgd1na2vs0mg"},{"bike_id":"1568d1a4-3aa5-4875-9567-3df6911b9cb3","system_id":"levelo_inurba_marseille","lat":43.28673,"lon":5.38669,"is_reserved":false,"is_disabled":false,"rental_uris":{"android":"levelo://app?vid=1568d1a4-3aa5-4875-9567-3df6911b9cb3","ios":"levelo://app?vid=1568d1a4-3aa5-4875-9567-3df6911b9cb3"},"vehicle_type_id":"4","last_reported":1761628300,"current_range_meters":10000,"station_id":"ce4bh492rcd13ifvqdug","pricing_plan_id":"cebpf4jnsgd1na2vs0mg"},{"bike_id":"8c71c05b-dd29-470b-8b05-4159f459865a","system_id":"levelo_inurba_marseille","lat":43.27672,"lon":5.38886,"is_reserved":false,"is_disabled":false,"rental_uris":{"android":"levelo://app?vid=8c71c05b-dd29-470b-8b05-4159f459865a","ios":"levelo://app?vid=8c71c05b-dd29-470b-8b05-4159f459865a"},"vehicle_type_id":"4","last_reported":1761628300,"current_range_meters":10000,"station_id":"ce4bhi12rcd13ifvqfo0","pricing_plan_id":"cebpf4jnsgd1na2vs0mg"},{"bike_id":"d27eecaf-5e06-4d97-91c0-1e45a44bf2cb","system_id":"levelo_inurba_marseille","lat":43.28336,"lon":5.43381,"is_reserved":false,"is_disabled":false,"rental_uris":{"android":"levelo://app?vid=d27eecaf-5e06-4d97-91c0-1e45a44bf2cb","ios":"levelo://app?vid=d27eecaf-5e06-4d97-91c0-1e45a44bf2cb"},"vehicle_type_id":"4","last_reported":1761628300,"current_range_meters":10000,"station_id":"","pricing_plan_id":"cebpf4jnsgd1na2vs0mg"},{"bike_id":"9676870c-82b8-448a-acb6-868f0fb26c65","system_id":"levelo_inurba_marseille","lat":43.229321,"lon":5.353776,"is_reserved":false,"is_disabled":false,"rental_uris":{"android":"levelo://app?vid=9676870c-82b8-448a-acb6-868f0fb26c65","ios":"levelo://app?vid=9676870c-82b8-448a-acb6-868f0fb26c65"},"vehicle_type_id":"4","last_reported":1761628300,"current_range_meters":10800,"station_id":"cpo3532slgdg3j2ikp40","pricing_plan_id":"cebpf4jnsgd1na2vs0mg"},{"bike_id":"191a89c3-b6b5-4197-8447-4616b7a34a12","system_id":"levelo_inurba_marseille","lat":43.298997,"lon":5.436653,"is_reserved":false,"is_disabled":false,"rental_uris":{"android":"levelo://app?vid=191a89c3-b6b5-4197-8447-4616b7a34a12","ios":"levelo://app?vid=191a89c3-b6b5-4197-8447-4616b7a34a12"},"vehicle_type_id":"4","last_reported":1761628300,"current_range_meters":10800,"station_id":"ce4bhpp2rcd13ifvqhfg","pricing_plan_id":"cebpf4jnsgd1na2vs0mg"},{"bike_id":"72692e77-b537-477c-ba7d-fdff69794bfb","system_id":"levelo_inurba_marseille","lat":43.253311,"lon":5.422477,"is_reserved":false,"is_disabled":false,"rental_uris":{"android":"levelo://app?vid=72692e77-b537-477c-ba7d-fdff69794bfb","ios":"levelo://app?vid=72692e77-b537-477c-ba7d-fdff69794bfb"},"vehicle_type_id":"4","last_reported":1761628300,"current_range_meters":10800,"station_id":"","pricing_plan_id":"cebpf4jnsgd1na2vs0mg"},{"bike_id":"eea3c3c3-734f-4fd3-8061-ed84cfe47b38","system_id":"levelo_inurba_marseille","lat":43.32567,"lon":5.39144,"is_reserved":false,"is_disabled":false,"rental_uris":{"android":"levelo://app?vid=eea3c3c3-734f-4fd3-8061-ed84cfe47b38","ios":"levelo://app?vid=eea3c3c3-734f-4fd3-8061-ed84cfe47b38"},"vehicle_type_id":"4","last_reported":1761628300,"current_range_meters":10800,"station_id":"","pricing_plan_id":"cebpf4jnsgd1na2vs0mg"},{"bike_id":"2ffaf36b-78a2-4412-9181-612a14fd4464","system_id":"levelo_inurba_marseille","lat":43.261972,"lon":5.374617,"is_reserved":false,"is_disabled":false,"rental_uris":{"android":"levelo://app?vid=2ffaf36b-78a2-4412-9181-612a14fd4464","ios":"levelo://app?vid=2ffaf36b-78a2-4412-9181-612a14fd4464"},"vehicle_type_id":"4","last_reported":1761628300,"current_range_meters":10800,"station_id":"ce4bhgp2rcd13ifvqfc0","pricing_plan_id":"cebpf4jnsgd1na2vs0mg"},{"bike_id":"64457180-0458-4262-8d27-1d5e4cba4c96","system_id":"levelo_inurba_marseille","lat":43.23203,"lon":5.39993,"is_reserved":false,"is_disabled":false,"rental_uris":{"android":"levelo://app?vid=64457180-0458-4262-8d27-1d5e4cba4c96","ios":"levelo://app?vid=64457180-0458-4262-8d27-1d5e4cba4c96"},"vehicle_type_id":"4","last_reported":1761628300,"current_range_meters":10800,"station_id":"ce4bhn12rcd13ifvqgqg","pricing_plan_id":"cebpf4jnsgd1na2vs0mg"},{"bike_id":"6b27b53b-ade4-4e59-9555-b40b30fb2fb2","system_id":"levelo_inurba_marseille","lat":43.253355,"lon":5.421676,"is_reserved":false,"is_disabled":false,"rental_uris":{"android":"levelo://app?vid=6b27b53b-ade4-4e59-9555-b40b30fb2fb2","ios":"levelo://app?vid=6b27b53b-ade4-4e59-9555-b40b30fb2fb2"},"vehicle_type_id":"4","last_reported":1761628300,"current_range_meters":10800,"station_id":"st_d2m65c5bi1j21697t3ng","pricing_plan_id":"cebpf4jnsgd1na2vs0mg"},{"bike_id":"cb7f068c-39ce-4be0-b9b9-05a5ac0d4c21","system_id":"levelo_inurba_marseille","lat":43.24642,"lon":5.43167,"is_reserved":false,"is_disabled":false,"rental_uris":{"android":"levelo://app?vid=cb7f068c-39ce-4be0-b9b9-05a5ac0d4c21","ios":"levelo://app?vid=cb7f068c-39ce-4be0-b9b9-05a5ac0d4c21"},"vehicle_type_id":"4","last_reported":1761628300,"current_range_meters":10800,"station_id":"st_d2m6c4gdas8pm72e190g","pricing_plan_id":"cebpf4jnsgd1na2vs0mg"},{"bike_id":"26764af5-8b4a-4def-9430-e49986f6aa42","system_id":"levelo_inurba_marseille","lat":43.282098,"lon":5.390663,"is_reserved":false,"is_disabled":false,"rental_uris":{"android":"levelo://app?vid=26764af5-8b4a-4def-9430-e49986f6aa42","ios":"levelo://app?vid=26764af5-8b4a-4def-9430-e49986f6aa42"},"vehicle_type_id":"4","last_reported":1761628300,"current_range_meters":11200,"station_id":"ce4bhn92rcd13ifvqgsg","pricing_plan_id":"cebpf4jnsgd1na2vs0mg"},{"bike_id":"a3100ff0-76ab-498b-bebf-b9c52f3d2538","system_id":"levelo_inurba_marseille","lat":43.285477,"lon":5.484464,"is_reserved":false,"is_disabled":false,"rental_uris":{"android":"levelo://app?vid=a3100ff0-76ab-498b-bebf-b9c52f3d2538","ios":"levelo://app?vid=a3100ff0-76ab-498b-bebf-b9c52f3d2538"},"vehicle_type_id":"4","last_reported":1761628300,"current_range_meters":11200,"station_id":"","pricing_plan_id":"cebpf4jnsgd1na2vs0mg"},{"bike_id":"4c888f7a-a3cd-4aff-ab0b-fe318b78464b","system_id":"levelo_inurba_marseille","lat":43.217392,"lon":5.34602,"is_reserved":false,"is_disabled":false,"rental_uris":{"android":"levelo://app?vid=4c888f7a-a3cd-4aff-ab0b-fe318b78464b","ios":"levelo://app?vid=4c888f7a-a3cd-4aff-ab0b-fe318b78464b"},"vehicle_type_id":"4","last_reported":1761628300,"current_range_meters":11200,"station_id":"st_cvj6r9ubvosntc0bgbag","pricing_plan_id":"cebpf4jnsgd1na2vs0mg"},{"bike_id":"763dedad-f3f7-4198-bc42-a8f8d4bc1d9e","system_id":"levelo_inurba_marseille","lat":43.229299,"lon":5.35381,"is_reserved":false,"is_disabled":false,"rental_uris":{"android":"levelo://app?vid=763dedad-f3f7-4198-bc42-a8f8d4bc1d9e","ios":"levelo://app?vid=763dedad-f3f7-4198-bc42-a8f8d4bc1d9e"},"vehicle_type_id":"4","last_reported":1761628300,"current_range_meters":11200,"station_id":"cpo3532slgdg3j2ikp40","pricing_plan_id":"cebpf4jnsgd1na2vs0mg"},{"bike_id":"375cdc44-e200-4989-8112-7296caa559df","system_id":"levelo_inurba_marseille","lat":43.29677,"lon":5.37305,"is_reserved":false,"is_disabled":false,"rental_uris":{"android":"levelo://app?vid=375cdc44-e200-4989-8112-7296caa559df","ios":"levelo://app?vid=375cdc44-e200-4989-8112-7296caa559df"},"vehicle_type_id":"4","last_reported":1761628300,"current_range_meters":11600,"station_id":"ce4bgk12rcd13ifvqbj0","pricing_plan_id":"cebpf4jnsgd1na2vs0mg"},{"bike_id":"1880ebb9-7edb-463e-976b-226e958b9ebe","system_id":"levelo_inurba_marseille","lat":43.31097,"lon":5.37487,"is_reserved":false,"is_disabled":false,"rental_uris":{"android":"levelo://app?vid=1880ebb9-7edb-463e-976b-226e958b9ebe","ios":"levelo://app?vid=1880ebb9-7edb-463e-976b-226e958b9ebe"},"vehicle_type_id":"4","last_reported":1761628300,"current_range_meters":12000,"station_id":"ce4bgt12rcd13ifvqce0","pricing_plan_id":"cebpf4jnsgd1na2vs0mg"},{"bike_id":"b01345a9-3177-4e79-9c99-6d05d38922cb","system_id":"levelo_inurba_marseille","lat":43.25083,"lon":5.39493,"is_reserved":false,"is_disabled":false,"rental_uris":{"android":"levelo://app?vid=b01345a9-3177-4e79-9c99-6d05d38922cb","ios":"levelo://app?vid=b01345a9-3177-4e79-9c99-6d05d38922cb"},"vehicle_type_id":"4","last_reported":1761628300,"current_range_meters":12000,"station_id":"ce4bhm12rcd13ifvqgkg","pricing_plan_id":"cebpf4jnsgd1na2vs0mg"},{"bike_id":"46318416-7c91-428c-b90a-595c0083141a","system_id":"levelo_inurba_marseille","lat":43.23193,"lon":5.39984,"is_reserved":false,"is_disabled":false,"rental_uris":{"android":"levelo://app?vid=46318416-7c91-428c-b90a-595c0083141a","ios":"levelo://app?vid=46318416-7c91-428c-b90a-595c0083141a"},"vehicle_type_id":"4","last_reported":1761628300,"current_range_meters":12000,"station_id":"ce4bhn12rcd13ifvqgqg","pricing_plan_id":"cebpf4jnsgd1na2vs0mg"},{"bike_id":"f3673a60-efd2-465f-aa18-cb0baaf105f7","system_id":"levelo_inurba_marseille","lat":43.31043,"lon":5.40069,"is_reserved":false,"is_disabled":false,"rental_uris":{"android":"levelo://app?vid=f3673a60-efd2-465f-aa18-cb0baaf105f7","ios":"levelo://app?vid=f3673a60-efd2-465f-aa18-cb0baaf105f7"},"vehicle_type_id":"4","last_reported":1761628300,"current_range_meters":12000,"station_id":"","pricing_plan_id":"cebpf4jnsgd1na2vs0mg"},{"bike_id":"d840e009-d66a-4263-964b-f2c1c855217d","system_id":"levelo_inurba_marseille","lat":43.2975,"lon":5.42759,"is_reserved":false,"is_disabled":false,"rental_uris":{"android":"levelo://app?vid=d840e009-d66a-4263-964b-f2c1c855217d","ios":"levelo://app?vid=d840e009-d66a-4263-964b-f2c1c855217d"},"vehicle_type_id":"4","last_reported":1761628300,"current_range_meters":12000,"station_id":"st_d3md5207bmas73dh9klg","pricing_plan_id":"cebpf4jnsgd1na2vs0mg"},{"bike_id":"ff806bd2-c7e9-493a-9703-ad992684e451","system_id":"levelo_inurba_marseille","lat":43.296263,"lon":5.377142,"is_reserved":false,"is_disabled":false,"rental_uris":{"android":"levelo://app?vid=ff806bd2-c7e9-493a-9703-ad992684e451","ios":"levelo://app?vid=ff806bd2-c7e9-493a-9703-ad992684e451"},"vehicle_type_id":"4","last_reported":1761628300,"current_range_meters":12400,"station_id":"","pricing_plan_id":"cebpf4jnsgd1na2vs0mg"},{"bike_id":"a507e789-f440-40a8-85cf-09841d81676c","system_id":"levelo_inurba_marseille","lat":43.22518,"lon":5.34831,"is_reserved":false,"is_disabled":false,"rental_uris":{"android":"levelo://app?vid=a507e789-f440-40a8-85cf-09841d81676c","ios":"levelo://app?vid=a507e789-f440-40a8-85cf-09841d81676c"},"vehicle_type_id":"4","last_reported":1761628300,"current_range_meters":12400,"station_id":"st_cvj5dfep6f1abm77gieg","pricing_plan_id":"cebpf4jnsgd1na2vs0mg"},{"bike_id":"0045d293-fc25-4f9a-9434-47036bd87e67","system_id":"levelo_inurba_marseille","lat":43.229299,"lon":5.353837,"is_reserved":false,"is_disabled":false,"rental_uris":{"android":"levelo://app?vid=0045d293-fc25-4f9a-9434-47036bd87e67","ios":"levelo://app?vid=0045d293-fc25-4f9a-9434-47036bd87e67"},"vehicle_type_id":"4","last_reported":1761628300,"current_range_meters":12400,"station_id":"cpo3532slgdg3j2ikp40","pricing_plan_id":"cebpf4jnsgd1na2vs0mg"},{"bike_id":"4bf9d265-8b82-4e6d-af96-57b56fdfaed3","system_id":"levelo_inurba_marseille","lat":43.29757,"lon":5.427858,"is_reserved":false,"is_disabled":false,"rental_uris":{"android":"levelo://app?vid=4bf9d265-8b82-4e6d-af96-57b56fdfaed3","ios":"levelo://app?vid=4bf9d265-8b82-4e6d-af96-57b56fdfaed3"},"vehicle_type_id":"4","last_reported":1761628300,"current_range_meters":12800,"station_id":"st_d3md5207bmas73dh9klg","pricing_plan_id":"cebpf4jnsgd1na2vs0mg"},{"bike_id":"61582872-d791-4b1e-b140-850838a7e879","system_id":"levelo_inurba_marseille","lat":43.241684,"lon":5.364112,"is_reserved":false,"is_disabled":false,"rental_uris":{"android":"levelo://app?vid=61582872-d791-4b1e-b140-850838a7e879","ios":"levelo://app?vid=61582872-d791-4b1e-b140-850838a7e879"},"vehicle_type_id":"4","last_reported":1761628300,"current_range_meters":12800,"station_id":"cpo36qri1sfpv3e86is0","pricing_plan_id":"cebpf4jnsgd1na2vs0mg"},{"bike_id":"dbcbcef0-4b5f-446e-9d2e-80d991993c2b","system_id":"levelo_inurba_marseille","lat":43.29543,"lon":5.40233,"is_reserved":false,"is_disabled":false,"rental_uris":{"android":"levelo://app?vid=dbcbcef0-4b5f-446e-9d2e-80d991993c2b","ios":"levelo://app?vid=dbcbcef0-4b5f-446e-9d2e-80d991993c2b"},"vehicle_type_id":"4","last_reported":1761628300,"current_range_meters":12800,"station_id":"","pricing_plan_id":"cebpf4jnsgd1na2vs0mg"},{"bike_id":"a7cb79b6-f063-412f-a2f8-8ac4c19f5c06","system_id":"levelo_inurba_marseille","lat":43.27078,"lon":5.42283,"is_reserved":false,"is_disabled":false,"rental_uris":{"android":"levelo://app?vid=a7cb79b6-f063-412f-a2f8-8ac4c19f5c06","ios":"levelo://app?vid=a7cb79b6-f063-412f-a2f8-8ac4c19f5c06"},"vehicle_type_id":"4","last_reported":1761628300,"current_range_meters":12800,"station_id":"ce4bhk92rcd13ifvqgb0","pricing_plan_id":"cebpf4jnsgd1na2vs0mg"},{"bike_id":"9fbd96ee-563a-43f7-87fd-6fffaeedac55","system_id":"levelo_inurba_marseille","lat":43.25873,"lon":5.39914,"is_reserved":false,"is_disabled":true,"rental_uris":{"android":"levelo://app?vid=9fbd96ee-563a-43f7-87fd-6fffaeedac55","ios":"levelo://app?vid=9fbd96ee-563a-43f7-87fd-6fffaeedac55"},"vehicle_type_id":"4","last_reported":1761628300,"current_range_meters":12800,"station_id":"ce4bhl92rcd13ifvqghg","pricing_plan_id":"cebpf4jnsgd1na2vs0mg"},{"bike_id":"7b1b6fda-acbf-4bcc-9c4e-eb02a7bb672a","system_id":"levelo_inurba_marseille","lat":43.241603,"lon":5.364078,"is_reserved":false,"is_disabled":false,"rental_uris":{"android":"levelo://app?vid=7b1b6fda-acbf-4bcc-9c4e-eb02a7bb672a","ios":"levelo://app?vid=7b1b6fda-acbf-4bcc-9c4e-eb02a7bb672a"},"vehicle_type_id":"4","last_reported":1761628300,"current_range_meters":13600,"station_id":"cpo36qri1sfpv3e86is0","pricing_plan_id":"cebpf4jnsgd1na2vs0mg"},{"bike_id":"883bc9b4-cfb9-4127-8706-5d33bb052860","system_id":"levelo_inurba_marseille","lat":43.247993,"lon":5.374655,"is_reserved":false,"is_disabled":false,"rental_uris":{"android":"levelo://app?vid=883bc9b4-cfb9-4127-8706-5d33bb052860","ios":"levelo://app?vid=883bc9b4-cfb9-4127-8706-5d33bb052860"},"vehicle_type_id":"4","last_reported":1761628300,"current_range_meters":13600,"station_id":"ce4bhgh2rcd13ifvqfb0","pricing_plan_id":"cebpf4jnsgd1na2vs0mg"},{"bike_id":"21781a70-201c-4092-a5e0-70fe14e2283d","system_id":"levelo_inurba_marseille","lat":43.2857,"lon":5.39508,"is_reserved":false,"is_disabled":false,"rental_uris":{"android":"levelo://app?vid=21781a70-201c-4092-a5e0-70fe14e2283d","ios":"levelo://app?vid=21781a70-201c-4092-a5e0-70fe14e2283d"},"vehicle_type_id":"4","last_reported":1761628300,"current_range_meters":13600,"station_id":"ce4bh292rcd13ifvqdg0","pricing_plan_id":"cebpf4jnsgd1na2vs0mg"},{"bike_id":"266488d3-4677-4b2c-b163-8d1ad61d8414","system_id":"levelo_inurba_marseille","lat":43.284807,"lon":5.384381,"is_reserved":false,"is_disabled":true,"rental_uris":{"android":"levelo://app?vid=266488d3-4677-4b2c-b163-8d1ad61d8414","ios":"levelo://app?vid=266488d3-4677-4b2c-b163-8d1ad61d8414"},"vehicle_type_id":"4","last_reported":1761628300,"current_range_meters":13600,"station_id":"ce4bh512rcd13ifvqe3g","pricing_plan_id":"cebpf4jnsgd1na2vs0mg"},{"bike_id":"59344117-e8c3-4467-a613-75b1dc85bf2b","system_id":"levelo_inurba_marseille","lat":43.31356,"lon":5.384951,"is_reserved":false,"is_disabled":false,"rental_uris":{"android":"levelo://app?vid=59344117-e8c3-4467-a613-75b1dc85bf2b","ios":"levelo://app?vid=59344117-e8c3-4467-a613-75b1dc85bf2b"},"vehicle_type_id":"4","last_reported":1761628300,"current_range_meters":14000,"station_id":"ce4bgt92rcd13ifvqcf0","pricing_plan_id":"cebpf4jnsgd1na2vs0mg"},{"bike_id":"e5369f4b-2c24-4cfa-8c10-2d08b4a405fb","system_id":"levelo_inurba_marseille","lat":43.311195,"lon":5.377665,"is_reserved":false,"is_disabled":false,"rental_uris":{"android":"levelo://app?vid=e5369f4b-2c24-4cfa-8c10-2d08b4a405fb","ios":"levelo://app?vid=e5369f4b-2c24-4cfa-8c10-2d08b4a405fb"},"vehicle_type_id":"4","last_reported":1761628300,"current_range_meters":14400,"station_id":"ce4bgt92rcd13ifvqcg0","pricing_plan_id":"cebpf4jnsgd1na2vs0mg"},{"bike_id":"d7b556e6-ac3d-4fe4-b136-c7cd05c756e3","system_id":"levelo_inurba_marseille","lat":43.23067,"lon":5.354974,"is_reserved":false,"is_disabled":false,"rental_uris":{"android":"levelo://app?vid=d7b556e6-ac3d-4fe4-b136-c7cd05c756e3","ios":"levelo://app?vid=d7b556e6-ac3d-4fe4-b136-c7cd05c756e3"},"vehicle_type_id":"4","last_reported":1761628300,"current_range_meters":14400,"station_id":"cpo3342slgdg3j2ifvpg","pricing_plan_id":"cebpf4jnsgd1na2vs0mg"},{"bike_id":"f568391f-b71f-4807-9099-53eb6b0dc22d","system_id":"levelo_inurba_marseille","lat":43.29754,"lon":5.38142,"is_reserved":false,"is_disabled":false,"rental_uris":{"android":"levelo://app?vid=f568391f-b71f-4807-9099-53eb6b0dc22d","ios":"levelo://app?vid=f568391f-b71f-4807-9099-53eb6b0dc22d"},"vehicle_type_id":"4","last_reported":1761628300,"current_range_meters":14400,"station_id":"","pricing_plan_id":"cebpf4jnsgd1na2vs0mg"},{"bike_id":"a630ed88-3f05-4926-bbab-8387ab6b6a28","system_id":"levelo_inurba_marseille","lat":43.231545,"lon":5.437042,"is_reserved":false,"is_disabled":true,"rental_uris":{"android":"levelo://app?vid=a630ed88-3f05-4926-bbab-8387ab6b6a28","ios":"levelo://app?vid=a630ed88-3f05-4926-bbab-8387ab6b6a28"},"vehicle_type_id":"4","last_reported":1761628300,"current_range_meters":14400,"station_id":"ce4bhmp2rcd13ifvqgog","pricing_plan_id":"cebpf4jnsgd1na2vs0mg"},{"bike_id":"d5ca831f-8041-403e-ada8-7b4196c3d5be","system_id":"levelo_inurba_marseille","lat":43.293714,"lon":5.379385,"is_reserved":false,"is_disabled":false,"rental_uris":{"android":"levelo://app?vid=d5ca831f-8041-403e-ada8-7b4196c3d5be","ios":"levelo://app?vid=d5ca831f-8041-403e-ada8-7b4196c3d5be"},"vehicle_type_id":"4","last_reported":1761628300,"current_range_meters":14400,"station_id":"","pricing_plan_id":"cebpf4jnsgd1na2vs0mg"},{"bike_id":"4d166009-4ea7-4ae0-b0d1-9b30d6cb8a98","system_id":"levelo_inurba_marseille","lat":43.31529,"lon":5.38046,"is_reserved":false,"is_disabled":false,"rental_uris":{"android":"levelo://app?vid=4d166009-4ea7-4ae0-b0d1-9b30d6cb8a98","ios":"levelo://app?vid=4d166009-4ea7-4ae0-b0d1-9b30d6cb8a98"},"vehicle_type_id":"4","last_reported":1761628300,"current_range_meters":14800,"station_id":"ce4bhsp2rcd13ifvqi50","pricing_plan_id":"cebpf4jnsgd1na2vs0mg"},{"bike_id":"dd0e11df-91b2-4fe8-ab4f-8b24853fccce","system_id":"levelo_inurba_marseille","lat":43.30602,"lon":5.39352,"is_reserved":false,"is_disabled":false,"rental_uris":{"android":"levelo://app?vid=dd0e11df-91b2-4fe8-ab4f-8b24853fccce","ios":"levelo://app?vid=dd0e11df-91b2-4fe8-ab4f-8b24853fccce"},"vehicle_type_id":"4","last_reported":1761628300,"current_range_meters":14800,"station_id":"ce4bh0p2rcd13ifvqd80","pricing_plan_id":"cebpf4jnsgd1na2vs0mg"},{"bike_id":"faf45a1a-fb97-44b5-9013-2bb82707466b","system_id":"levelo_inurba_marseille","lat":43.29922,"lon":5.36525,"is_reserved":false,"is_disabled":false,"rental_uris":{"android":"levelo://app?vid=faf45a1a-fb97-44b5-9013-2bb82707466b","ios":"levelo://app?vid=faf45a1a-fb97-44b5-9013-2bb82707466b"},"vehicle_type_id":"4","last_reported":1761628300,"current_range_meters":15200,"station_id":"ce4bgm92rcd13ifvqbr0","pricing_plan_id":"cebpf4jnsgd1na2vs0mg"},{"bike_id":"db88a8a5-5637-4384-a6d7-41d8f099747a","system_id":"levelo_inurba_marseille","lat":43.312379,"lon":5.368484,"is_reserved":false,"is_disabled":false,"rental_uris":{"android":"levelo://app?vid=db88a8a5-5637-4384-a6d7-41d8f099747a","ios":"levelo://app?vid=db88a8a5-5637-4384-a6d7-41d8f099747a"},"vehicle_type_id":"4","last_reported":1761628300,"current_range_meters":15200,"station_id":"ce4bgr92rcd13ifvqc6g","pricing_plan_id":"cebpf4jnsgd1na2vs0mg"},{"bike_id":"2494bb61-c5b2-4e8c-8a6f-16c2d1512e23","system_id":"levelo_inurba_marseille","lat":43.23191,"lon":5.39988,"is_reserved":false,"is_disabled":false,"rental_uris":{"android":"levelo://app?vid=2494bb61-c5b2-4e8c-8a6f-16c2d1512e23","ios":"levelo://app?vid=2494bb61-c5b2-4e8c-8a6f-16c2d1512e23"},"vehicle_type_id":"4","last_reported":1761628300,"current_range_meters":15200,"station_id":"ce4bhn12rcd13ifvqgqg","pricing_plan_id":"cebpf4jnsgd1na2vs0mg"},{"bike_id":"e00a5637-7ff1-4c27-b189-efba53dc7fa3","system_id":"levelo_inurba_marseille","lat":43.25099,"lon":5.39521,"is_reserved":false,"is_disabled":false,"rental_uris":{"android":"levelo://app?vid=e00a5637-7ff1-4c27-b189-efba53dc7fa3","ios":"levelo://app?vid=e00a5637-7ff1-4c27-b189-efba53dc7fa3"},"vehicle_type_id":"4","last_reported":1761628300,"current_range_meters":15200,"station_id":"ce4bhm12rcd13ifvqgkg","pricing_plan_id":"cebpf4jnsgd1na2vs0mg"},{"bike_id":"aec0f9eb-e0f6-4b82-bfc3-b592242c41c1","system_id":"levelo_inurba_marseille","lat":43.29254,"lon":5.40909,"is_reserved":false,"is_disabled":false,"rental_uris":{"android":"levelo://app?vid=aec0f9eb-e0f6-4b82-bfc3-b592242c41c1","ios":"levelo://app?vid=aec0f9eb-e0f6-4b82-bfc3-b592242c41c1"},"vehicle_type_id":"4","last_reported":1761628300,"current_range_meters":15200,"station_id":"ce4bh192rcd13ifvqdc0","pricing_plan_id":"cebpf4jnsgd1na2vs0mg"},{"bike_id":"e1ca1064-3ac1-495e-b8d2-df8047d11b2e","system_id":"levelo_inurba_marseille","lat":43.284827,"lon":5.483864,"is_reserved":false,"is_disabled":false,"rental_uris":{"android":"levelo://app?vid=e1ca1064-3ac1-495e-b8d2-df8047d11b2e","ios":"levelo://app?vid=e1ca1064-3ac1-495e-b8d2-df8047d11b2e"},"vehicle_type_id":"4","last_reported":1761628300,"current_range_meters":15200,"station_id":"st_d3svhcjqgbts73a3dn0g","pricing_plan_id":"cebpf4jnsgd1na2vs0mg"},{"bike_id":"c37ff396-a3f3-48da-8562-48f95e54f6c2","system_id":"levelo_inurba_marseille","lat":43.28709,"lon":5.37401,"is_reserved":false,"is_disabled":true,"rental_uris":{"android":"levelo://app?vid=c37ff396-a3f3-48da-8562-48f95e54f6c2","ios":"levelo://app?vid=c37ff396-a3f3-48da-8562-48f95e54f6c2"},"vehicle_type_id":"4","last_reported":1761628300,"current_range_meters":15200,"station_id":"ce4bh3p2rcd13ifvqdq0","pricing_plan_id":"cebpf4jnsgd1na2vs0mg"},{"bike_id":"d5a49dbd-284f-44d1-bf21-988be425a5e5","system_id":"levelo_inurba_marseille","lat":43.255815,"lon":5.382423,"is_reserved":false,"is_disabled":true,"rental_uris":{"android":"levelo://app?vid=d5a49dbd-284f-44d1-bf21-988be425a5e5","ios":"levelo://app?vid=d5a49dbd-284f-44d1-bf21-988be425a5e5"},"vehicle_type_id":"4","last_reported":1761628300,"current_range_meters":16000,"station_id":"ce4bhih2rcd13ifvqfs0","pricing_plan_id":"cebpf4jnsgd1na2vs0mg"},{"bike_id":"151cbc1b-b747-447f-9afc-6c7aba884f5c","system_id":"levelo_inurba_marseille","lat":43.28859,"lon":5.42511,"is_reserved":false,"is_disabled":false,"rental_uris":{"android":"levelo://app?vid=151cbc1b-b747-447f-9afc-6c7aba884f5c","ios":"levelo://app?vid=151cbc1b-b747-447f-9afc-6c7aba884f5c"},"vehicle_type_id":"4","last_reported":1761628300,"current_range_meters":16000,"station_id":"st_d3b462108ojc7389ooeg","pricing_plan_id":"cebpf4jnsgd1na2vs0mg"},{"bike_id":"8c1f3a6f-7344-45af-82d9-6a06cac2acee","system_id":"levelo_inurba_marseille","lat":43.284093,"lon":5.37519,"is_reserved":false,"is_disabled":false,"rental_uris":{"android":"levelo://app?vid=8c1f3a6f-7344-45af-82d9-6a06cac2acee","ios":"levelo://app?vid=8c1f3a6f-7344-45af-82d9-6a06cac2acee"},"vehicle_type_id":"4","last_reported":1761628300,"current_range_meters":16000,"station_id":"ce4bh412rcd13ifvqds0","pricing_plan_id":"cebpf4jnsgd1na2vs0mg"},{"bike_id":"e8b00d39-8726-45ab-902a-db5ebf514149","system_id":"levelo_inurba_marseille","lat":43.240524,"lon":5.377672,"is_reserved":false,"is_disabled":false,"rental_uris":{"android":"levelo://app?vid=e8b00d39-8726-45ab-902a-db5ebf514149","ios":"levelo://app?vid=e8b00d39-8726-45ab-902a-db5ebf514149"},"vehicle_type_id":"4","last_reported":1761628300,"current_range_meters":16400,"station_id":"ce4bhnp2rcd13ifvqgvg","pricing_plan_id":"cebpf4jnsgd1na2vs0mg"},{"bike_id":"2283896b-c941-41b3-a4e2-ac2bcf8551df","system_id":"levelo_inurba_marseille","lat":43.306465,"lon":5.400701,"is_reserved":false,"is_disabled":false,"rental_uris":{"android":"levelo://app?vid=2283896b-c941-41b3-a4e2-ac2bcf8551df","ios":"levelo://app?vid=2283896b-c941-41b3-a4e2-ac2bcf8551df"},"vehicle_type_id":"4","last_reported":1761628300,"current_range_meters":16400,"station_id":"ce4bh112rcd13ifvqda0","pricing_plan_id":"cebpf4jnsgd1na2vs0mg"},{"bike_id":"310e927d-d5b8-4a6f-82be-2d623690659d","system_id":"levelo_inurba_marseille","lat":43.312857,"lon":5.377904,"is_reserved":false,"is_disabled":false,"rental_uris":{"android":"levelo://app?vid=310e927d-d5b8-4a6f-82be-2d623690659d","ios":"levelo://app?vid=310e927d-d5b8-4a6f-82be-2d623690659d"},"vehicle_type_id":"4","last_reported":1761628300,"current_range_meters":16400,"station_id":"","pricing_plan_id":"cebpf4jnsgd1na2vs0mg"},{"bike_id":"dccef0b1-edb3-49b5-866c-43e10e5763cc","system_id":"levelo_inurba_marseille","lat":43.288109,"lon":5.43841,"is_reserved":false,"is_disabled":false,"rental_uris":{"android":"levelo://app?vid=dccef0b1-edb3-49b5-866c-43e10e5763cc","ios":"levelo://app?vid=dccef0b1-edb3-49b5-866c-43e10e5763cc"},"vehicle_type_id":"4","last_reported":1761628300,"current_range_meters":16400,"station_id":"","pricing_plan_id":"cebpf4jnsgd1na2vs0mg"},{"bike_id":"8957da31-2549-4ab6-abc0-615293ac1acd","system_id":"levelo_inurba_marseille","lat":43.265586,"lon":5.390154,"is_reserved":false,"is_disabled":true,"rental_uris":{"android":"levelo://app?vid=8957da31-2549-4ab6-abc0-615293ac1acd","ios":"levelo://app?vid=8957da31-2549-4ab6-abc0-615293ac1acd"},"vehicle_type_id":"4","last_reported":1761628300,"current_range_meters":16400,"station_id":"ce4bhe12rcd13ifvqf30","pricing_plan_id":"cebpf4jnsgd1na2vs0mg"},{"bike_id":"dced2bcc-e95f-44ce-b7d8-7bb47def612a","system_id":"levelo_inurba_marseille","lat":43.230625,"lon":5.354879,"is_reserved":false,"is_disabled":false,"rental_uris":{"android":"levelo://app?vid=dced2bcc-e95f-44ce-b7d8-7bb47def612a","ios":"levelo://app?vid=dced2bcc-e95f-44ce-b7d8-7bb47def612a"},"vehicle_type_id":"4","last_reported":1761628300,"current_range_meters":16400,"station_id":"cpo3342slgdg3j2ifvpg","pricing_plan_id":"cebpf4jnsgd1na2vs0mg"},{"bike_id":"0e92e58a-a68d-4440-a2a1-0e87cddba988","system_id":"levelo_inurba_marseille","lat":43.246677,"lon":5.381602,"is_reserved":false,"is_disabled":false,"rental_uris":{"android":"levelo://app?vid=0e92e58a-a68d-4440-a2a1-0e87cddba988","ios":"levelo://app?vid=0e92e58a-a68d-4440-a2a1-0e87cddba988"},"vehicle_type_id":"4","last_reported":1761628300,"current_range_meters":16400,"station_id":"ce4bhih2rcd13ifvqfr0","pricing_plan_id":"cebpf4jnsgd1na2vs0mg"},{"bike_id":"0f9c37b7-53c0-4d99-961c-bcf34d79a7ca","system_id":"levelo_inurba_marseille","lat":43.308911,"lon":5.396339,"is_reserved":false,"is_disabled":false,"rental_uris":{"android":"levelo://app?vid=0f9c37b7-53c0-4d99-961c-bcf34d79a7ca","ios":"levelo://app?vid=0f9c37b7-53c0-4d99-961c-bcf34d79a7ca"},"vehicle_type_id":"4","last_reported":1761628300,"current_range_meters":16400,"station_id":"ce4bh012rcd13ifvqcv0","pricing_plan_id":"cebpf4jnsgd1na2vs0mg"},{"bike_id":"b3591f96-ba6e-4338-ad17-363b3d528fad","system_id":"levelo_inurba_marseille","lat":43.30886,"lon":5.371987,"is_reserved":false,"is_disabled":true,"rental_uris":{"android":"levelo://app?vid=b3591f96-ba6e-4338-ad17-363b3d528fad","ios":"levelo://app?vid=b3591f96-ba6e-4338-ad17-363b3d528fad"},"vehicle_type_id":"4","last_reported":1761628300,"current_range_meters":16800,"station_id":"ce4bguh2rcd13ifvqckg","pricing_plan_id":"cebpf4jnsgd1na2vs0mg"},{"bike_id":"94e6b0aa-f8c9-477e-8091-c3a189e0f238","system_id":"levelo_inurba_marseille","lat":43.29685,"lon":5.38107,"is_reserved":false,"is_disabled":false,"rental_uris":{"android":"levelo://app?vid=94e6b0aa-f8c9-477e-8091-c3a189e0f238","ios":"levelo://app?vid=94e6b0aa-f8c9-477e-8091-c3a189e0f238"},"vehicle_type_id":"4","last_reported":1761628300,"current_range_meters":16800,"station_id":"","pricing_plan_id":"cebpf4jnsgd1na2vs0mg"},{"bike_id":"8062c369-ff3b-4a48-b2ef-d270e82c4cf4","system_id":"levelo_inurba_marseille","lat":43.230627,"lon":5.354947,"is_reserved":false,"is_disabled":false,"rental_uris":{"android":"levelo://app?vid=8062c369-ff3b-4a48-b2ef-d270e82c4cf4","ios":"levelo://app?vid=8062c369-ff3b-4a48-b2ef-d270e82c4cf4"},"vehicle_type_id":"4","last_reported":1761628300,"current_range_meters":16800,"station_id":"cpo3342slgdg3j2ifvpg","pricing_plan_id":"cebpf4jnsgd1na2vs0mg"},{"bike_id":"a72ba818-7371-4726-9234-a81be08b4f21","system_id":"levelo_inurba_marseille","lat":43.29117,"lon":5.38146,"is_reserved":false,"is_disabled":true,"rental_uris":{"android":"levelo://app?vid=a72ba818-7371-4726-9234-a81be08b4f21","ios":"levelo://app?vid=a72ba818-7371-4726-9234-a81be08b4f21"},"vehicle_type_id":"4","last_reported":1761628300,"current_range_meters":16800,"station_id":"ce4bh512rcd13ifvqe2g","pricing_plan_id":"cebpf4jnsgd1na2vs0mg"},{"bike_id":"f4ae8a8d-d71a-4e48-9339-66550bde7b84","system_id":"levelo_inurba_marseille","lat":43.296782,"lon":5.378637,"is_reserved":false,"is_disabled":false,"rental_uris":{"android":"levelo://app?vid=f4ae8a8d-d71a-4e48-9339-66550bde7b84","ios":"levelo://app?vid=f4ae8a8d-d71a-4e48-9339-66550bde7b84"},"vehicle_type_id":"4","last_reported":1761628300,"current_range_meters":16800,"station_id":"","pricing_plan_id":"cebpf4jnsgd1na2vs0mg"},{"bike_id":"2be3bf9b-39f4-4c37-8c01-9e9bcabe1c53","system_id":"levelo_inurba_marseille","lat":43.33741,"lon":5.37444,"is_reserved":false,"is_disabled":false,"rental_uris":{"android":"levelo://app?vid=2be3bf9b-39f4-4c37-8c01-9e9bcabe1c53","ios":"levelo://app?vid=2be3bf9b-39f4-4c37-8c01-9e9bcabe1c53"},"vehicle_type_id":"4","last_reported":1761628300,"current_range_meters":16800,"station_id":"","pricing_plan_id":"cebpf4jnsgd1na2vs0mg"},{"bike_id":"49ed0d39-51fe-4cd4-8527-50556baa8749","system_id":"levelo_inurba_marseille","lat":43.22529,"lon":5.34831,"is_reserved":false,"is_disabled":false,"rental_uris":{"android":"levelo://app?vid=49ed0d39-51fe-4cd4-8527-50556baa8749","ios":"levelo://app?vid=49ed0d39-51fe-4cd4-8527-50556baa8749"},"vehicle_type_id":"4","last_reported":1761628300,"current_range_meters":16800,"station_id":"","pricing_plan_id":"cebpf4jnsgd1na2vs0mg"},{"bike_id":"87a515db-426d-4f18-b2c3-ba5fadd6c431","system_id":"levelo_inurba_marseille","lat":43.309283,"lon":5.401436,"is_reserved":false,"is_disabled":false,"rental_uris":{"android":"levelo://app?vid=87a515db-426d-4f18-b2c3-ba5fadd6c431","ios":"levelo://app?vid=87a515db-426d-4f18-b2c3-ba5fadd6c431"},"vehicle_type_id":"4","last_reported":1761628300,"current_range_meters":16800,"station_id":"ce4bgvp2rcd13ifvqct0","pricing_plan_id":"cebpf4jnsgd1na2vs0mg"},{"bike_id":"ae8ebe94-fc0f-4409-8f77-39eb5c613a67","system_id":"levelo_inurba_marseille","lat":43.337444,"lon":5.374475,"is_reserved":false,"is_disabled":false,"rental_uris":{"android":"levelo://app?vid=ae8ebe94-fc0f-4409-8f77-39eb5c613a67","ios":"levelo://app?vid=ae8ebe94-fc0f-4409-8f77-39eb5c613a67"},"vehicle_type_id":"4","last_reported":1761628300,"current_range_meters":17200,"station_id":"","pricing_plan_id":"cebpf4jnsgd1na2vs0mg"},{"bike_id":"89dc8d2c-2ca5-41a0-bdca-cb4530a7a44d","system_id":"levelo_inurba_marseille","lat":43.30651,"lon":5.40091,"is_reserved":false,"is_disabled":false,"rental_uris":{"android":"levelo://app?vid=89dc8d2c-2ca5-41a0-bdca-cb4530a7a44d","ios":"levelo://app?vid=89dc8d2c-2ca5-41a0-bdca-cb4530a7a44d"},"vehicle_type_id":"4","last_reported":1761628300,"current_range_meters":17200,"station_id":"ce4bh112rcd13ifvqda0","pricing_plan_id":"cebpf4jnsgd1na2vs0mg"},{"bike_id":"316ded5d-28c9-4663-be5c-04dc90d5b34c","system_id":"levelo_inurba_marseille","lat":43.2843,"lon":5.38804,"is_reserved":false,"is_disabled":false,"rental_uris":{"android":"levelo://app?vid=316ded5d-28c9-4663-be5c-04dc90d5b34c","ios":"levelo://app?vid=316ded5d-28c9-4663-be5c-04dc90d5b34c"},"vehicle_type_id":"4","last_reported":1761628300,"current_range_meters":17200,"station_id":"","pricing_plan_id":"cebpf4jnsgd1na2vs0mg"},{"bike_id":"87878ea2-b2bc-4e11-a8d9-1e17965dfb23","system_id":"levelo_inurba_marseille","lat":43.309315,"lon":5.401382,"is_reserved":false,"is_disabled":false,"rental_uris":{"android":"levelo://app?vid=87878ea2-b2bc-4e11-a8d9-1e17965dfb23","ios":"levelo://app?vid=87878ea2-b2bc-4e11-a8d9-1e17965dfb23"},"vehicle_type_id":"4","last_reported":1761628300,"current_range_meters":17200,"station_id":"ce4bgvp2rcd13ifvqct0","pricing_plan_id":"cebpf4jnsgd1na2vs0mg"},{"bike_id":"7ef1c635-05bd-452a-889d-91b6aef98c6f","system_id":"levelo_inurba_marseille","lat":43.28941,"lon":5.3639,"is_reserved":false,"is_disabled":false,"rental_uris":{"android":"levelo://app?vid=7ef1c635-05bd-452a-889d-91b6aef98c6f","ios":"levelo://app?vid=7ef1c635-05bd-452a-889d-91b6aef98c6f"},"vehicle_type_id":"4","last_reported":1761628300,"current_range_meters":17200,"station_id":"ce4bhc92rcd13ifvqetg","pricing_plan_id":"cebpf4jnsgd1na2vs0mg"},{"bike_id":"32d7653e-b033-4183-b4c0-f44169bb9067","system_id":"levelo_inurba_marseille","lat":43.32706,"lon":5.39212,"is_reserved":false,"is_disabled":false,"rental_uris":{"android":"levelo://app?vid=32d7653e-b033-4183-b4c0-f44169bb9067","ios":"levelo://app?vid=32d7653e-b033-4183-b4c0-f44169bb9067"},"vehicle_type_id":"4","last_reported":1761628300,"current_range_meters":17200,"station_id":"","pricing_plan_id":"cebpf4jnsgd1na2vs0mg"},{"bike_id":"7b0deda0-50a7-4549-b2d7-08023f45e3cd","system_id":"levelo_inurba_marseille","lat":43.279463,"lon":5.410396,"is_reserved":false,"is_disabled":false,"rental_uris":{"android":"levelo://app?vid=7b0deda0-50a7-4549-b2d7-08023f45e3cd","ios":"levelo://app?vid=7b0deda0-50a7-4549-b2d7-08023f45e3cd"},"vehicle_type_id":"4","last_reported":1761628300,"current_range_meters":17200,"station_id":"ce4bhnp2rcd13ifvqh0g","pricing_plan_id":"cebpf4jnsgd1na2vs0mg"},{"bike_id":"85377363-cbd4-45ea-ab32-d8f5e1c2d1e3","system_id":"levelo_inurba_marseille","lat":43.247986,"lon":5.374477,"is_reserved":false,"is_disabled":true,"rental_uris":{"android":"levelo://app?vid=85377363-cbd4-45ea-ab32-d8f5e1c2d1e3","ios":"levelo://app?vid=85377363-cbd4-45ea-ab32-d8f5e1c2d1e3"},"vehicle_type_id":"4","last_reported":1761628300,"current_range_meters":17600,"station_id":"ce4bhgh2rcd13ifvqfb0","pricing_plan_id":"cebpf4jnsgd1na2vs0mg"},{"bike_id":"5ce9bf87-766f-4e87-8278-f1edb00a1ed1","system_id":"levelo_inurba_marseille","lat":43.28083,"lon":5.39644,"is_reserved":false,"is_disabled":false,"rental_uris":{"android":"levelo://app?vid=5ce9bf87-766f-4e87-8278-f1edb00a1ed1","ios":"levelo://app?vid=5ce9bf87-766f-4e87-8278-f1edb00a1ed1"},"vehicle_type_id":"4","last_reported":1761628300,"current_range_meters":17600,"station_id":"ce4bho12rcd13ifvqh2g","pricing_plan_id":"cebpf4jnsgd1na2vs0mg"},{"bike_id":"30be3bd8-ecb4-4749-acf1-2b8d8d14222d","system_id":"levelo_inurba_marseille","lat":43.27915,"lon":5.395784,"is_reserved":false,"is_disabled":false,"rental_uris":{"android":"levelo://app?vid=30be3bd8-ecb4-4749-acf1-2b8d8d14222d","ios":"levelo://app?vid=30be3bd8-ecb4-4749-acf1-2b8d8d14222d"},"vehicle_type_id":"4","last_reported":1761628300,"current_range_meters":17600,"station_id":"ce4bhf92rcd13ifvqf40","pricing_plan_id":"cebpf4jnsgd1na2vs0mg"},{"bike_id":"12290040-f680-4a70-bf85-cbaa9172ef65","system_id":"levelo_inurba_marseille","lat":43.29588,"lon":5.36739,"is_reserved":false,"is_disabled":false,"rental_uris":{"android":"levelo://app?vid=12290040-f680-4a70-bf85-cbaa9172ef65","ios":"levelo://app?vid=12290040-f680-4a70-bf85-cbaa9172ef65"},"vehicle_type_id":"4","last_reported":1761628300,"current_range_meters":17600,"station_id":"ce4bgph2rcd13ifvqc2g","pricing_plan_id":"cebpf4jnsgd1na2vs0mg"},{"bike_id":"f5dc89e2-f42b-4da6-82e6-d21ce7949692","system_id":"levelo_inurba_marseille","lat":43.314883,"lon":5.373115,"is_reserved":false,"is_disabled":false,"rental_uris":{"android":"levelo://app?vid=f5dc89e2-f42b-4da6-82e6-d21ce7949692","ios":"levelo://app?vid=f5dc89e2-f42b-4da6-82e6-d21ce7949692"},"vehicle_type_id":"4","last_reported":1761628300,"current_range_meters":17600,"station_id":"","pricing_plan_id":"cebpf4jnsgd1na2vs0mg"},{"bike_id":"4abf8525-6d54-46af-b310-c9c3a2c8c704","system_id":"levelo_inurba_marseille","lat":43.250935,"lon":5.395039,"is_reserved":false,"is_disabled":false,"rental_uris":{"android":"levelo://app?vid=4abf8525-6d54-46af-b310-c9c3a2c8c704","ios":"levelo://app?vid=4abf8525-6d54-46af-b310-c9c3a2c8c704"},"vehicle_type_id":"4","last_reported":1761628300,"current_range_meters":17600,"station_id":"ce4bhm12rcd13ifvqgkg","pricing_plan_id":"cebpf4jnsgd1na2vs0mg"},{"bike_id":"a65c194f-896e-42d2-9f19-306607c93418","system_id":"levelo_inurba_marseille","lat":43.305393,"lon":5.384286,"is_reserved":false,"is_disabled":false,"rental_uris":{"android":"levelo://app?vid=a65c194f-896e-42d2-9f19-306607c93418","ios":"levelo://app?vid=a65c194f-896e-42d2-9f19-306607c93418"},"vehicle_type_id":"4","last_reported":1761628300,"current_range_meters":18000,"station_id":"ce4bgg92rcd13ifvqb30","pricing_plan_id":"cebpf4jnsgd1na2vs0mg"},{"bike_id":"24dff1b6-2009-47dc-b14c-5cea613f5a6b","system_id":"levelo_inurba_marseille","lat":43.28945,"lon":5.39633,"is_reserved":false,"is_disabled":false,"rental_uris":{"android":"levelo://app?vid=24dff1b6-2009-47dc-b14c-5cea613f5a6b","ios":"levelo://app?vid=24dff1b6-2009-47dc-b14c-5cea613f5a6b"},"vehicle_type_id":"4","last_reported":1761628300,"current_range_meters":18000,"station_id":"ce4bh3h2rcd13ifvqdn0","pricing_plan_id":"cebpf4jnsgd1na2vs0mg"},{"bike_id":"681d38b5-a75b-4764-af13-b68c82b21e57","system_id":"levelo_inurba_marseille","lat":43.27911,"lon":5.39591,"is_reserved":false,"is_disabled":false,"rental_uris":{"android":"levelo://app?vid=681d38b5-a75b-4764-af13-b68c82b21e57","ios":"levelo://app?vid=681d38b5-a75b-4764-af13-b68c82b21e57"},"vehicle_type_id":"4","last_reported":1761628300,"current_range_meters":18000,"station_id":"ce4bhf92rcd13ifvqf40","pricing_plan_id":"cebpf4jnsgd1na2vs0mg"},{"bike_id":"c5357aaa-f358-42dd-a7b4-114e2fddc718","system_id":"levelo_inurba_marseille","lat":43.248034,"lon":5.374546,"is_reserved":false,"is_disabled":false,"rental_uris":{"android":"levelo://app?vid=c5357aaa-f358-42dd-a7b4-114e2fddc718","ios":"levelo://app?vid=c5357aaa-f358-42dd-a7b4-114e2fddc718"},"vehicle_type_id":"4","last_reported":1761628300,"current_range_meters":18000,"station_id":"ce4bhgh2rcd13ifvqfb0","pricing_plan_id":"cebpf4jnsgd1na2vs0mg"},{"bike_id":"b4a309fe-8f60-43ba-a855-0fea0dadb79a","system_id":"levelo_inurba_marseille","lat":43.29041,"lon":5.39973,"is_reserved":false,"is_disabled":false,"rental_uris":{"android":"levelo://app?vid=b4a309fe-8f60-43ba-a855-0fea0dadb79a","ios":"levelo://app?vid=b4a309fe-8f60-43ba-a855-0fea0dadb79a"},"vehicle_type_id":"4","last_reported":1761628300,"current_range_meters":18000,"station_id":"ce4bh392rcd13ifvqdm0","pricing_plan_id":"cebpf4jnsgd1na2vs0mg"},{"bike_id":"021e2773-71f7-4902-84c6-5e91af9a8aba","system_id":"levelo_inurba_marseille","lat":43.295958,"lon":5.395984,"is_reserved":false,"is_disabled":false,"rental_uris":{"android":"levelo://app?vid=021e2773-71f7-4902-84c6-5e91af9a8aba","ios":"levelo://app?vid=021e2773-71f7-4902-84c6-5e91af9a8aba"},"vehicle_type_id":"4","last_reported":1761628300,"current_range_meters":18000,"station_id":"","pricing_plan_id":"cebpf4jnsgd1na2vs0mg"},{"bike_id":"eaed6499-9973-47d4-9735-9e2c2bd97da4","system_id":"levelo_inurba_marseille","lat":43.28534,"lon":5.441088,"is_reserved":false,"is_disabled":false,"rental_uris":{"android":"levelo://app?vid=eaed6499-9973-47d4-9735-9e2c2bd97da4","ios":"levelo://app?vid=eaed6499-9973-47d4-9735-9e2c2bd97da4"},"vehicle_type_id":"4","last_reported":1761628300,"current_range_meters":18000,"station_id":"st_d3j3df2ikq2c7380ej80","pricing_plan_id":"cebpf4jnsgd1na2vs0mg"},{"bike_id":"d413d8bf-4c9f-4587-9711-663fc6c13bcc","system_id":"levelo_inurba_marseille","lat":43.279485,"lon":5.410421,"is_reserved":false,"is_disabled":false,"rental_uris":{"android":"levelo://app?vid=d413d8bf-4c9f-4587-9711-663fc6c13bcc","ios":"levelo://app?vid=d413d8bf-4c9f-4587-9711-663fc6c13bcc"},"vehicle_type_id":"4","last_reported":1761628300,"current_range_meters":18000,"station_id":"ce4bhnp2rcd13ifvqh0g","pricing_plan_id":"cebpf4jnsgd1na2vs0mg"},{"bike_id":"02dd205b-e97c-4104-9683-066d2523fd3f","system_id":"levelo_inurba_marseille","lat":43.23069,"lon":5.354911,"is_reserved":false,"is_disabled":false,"rental_uris":{"android":"levelo://app?vid=02dd205b-e97c-4104-9683-066d2523fd3f","ios":"levelo://app?vid=02dd205b-e97c-4104-9683-066d2523fd3f"},"vehicle_type_id":"4","last_reported":1761628300,"current_range_meters":18000,"station_id":"cpo3342slgdg3j2ifvpg","pricing_plan_id":"cebpf4jnsgd1na2vs0mg"},{"bike_id":"171b3e59-1807-4739-ba67-021aa68e67e1","system_id":"levelo_inurba_marseille","lat":43.290264,"lon":5.381486,"is_reserved":false,"is_disabled":false,"rental_uris":{"android":"levelo://app?vid=171b3e59-1807-4739-ba67-021aa68e67e1","ios":"levelo://app?vid=171b3e59-1807-4739-ba67-021aa68e67e1"},"vehicle_type_id":"4","last_reported":1761628300,"current_range_meters":18800,"station_id":"ce4bh4p2rcd13ifvqe1g","pricing_plan_id":"cebpf4jnsgd1na2vs0mg"},{"bike_id":"f0cd30bf-6306-4225-a0d9-5667067846be","system_id":"levelo_inurba_marseille","lat":43.284665,"lon":5.358977,"is_reserved":false,"is_disabled":false,"rental_uris":{"android":"levelo://app?vid=f0cd30bf-6306-4225-a0d9-5667067846be","ios":"levelo://app?vid=f0cd30bf-6306-4225-a0d9-5667067846be"},"vehicle_type_id":"4","last_reported":1761628300,"current_range_meters":18800,"station_id":"ce4bhah2rcd13ifvqei0","pricing_plan_id":"cebpf4jnsgd1na2vs0mg"},{"bike_id":"11ef3bae-f74c-4d6c-9e1c-74445fbc74b3","system_id":"levelo_inurba_marseille","lat":43.255103,"lon":5.37657,"is_reserved":false,"is_disabled":false,"rental_uris":{"android":"levelo://app?vid=11ef3bae-f74c-4d6c-9e1c-74445fbc74b3","ios":"levelo://app?vid=11ef3bae-f74c-4d6c-9e1c-74445fbc74b3"},"vehicle_type_id":"4","last_reported":1761628300,"current_range_meters":18800,"station_id":"ce4bhh12rcd13ifvqff0","pricing_plan_id":"cebpf4jnsgd1na2vs0mg"},{"bike_id":"61967feb-e12c-4a00-860f-7fde9b2ab549","system_id":"levelo_inurba_marseille","lat":43.27316,"lon":5.39083,"is_reserved":false,"is_disabled":false,"rental_uris":{"android":"levelo://app?vid=61967feb-e12c-4a00-860f-7fde9b2ab549","ios":"levelo://app?vid=61967feb-e12c-4a00-860f-7fde9b2ab549"},"vehicle_type_id":"4","last_reported":1761628300,"current_range_meters":19200,"station_id":"ce4bhgp2rcd13ifvqfe0","pricing_plan_id":"cebpf4jnsgd1na2vs0mg"},{"bike_id":"51a7e268-9562-4b96-8e84-f568b0acc7b7","system_id":"levelo_inurba_marseille","lat":43.247969,"lon":5.37456,"is_reserved":false,"is_disabled":false,"rental_uris":{"android":"levelo://app?vid=51a7e268-9562-4b96-8e84-f568b0acc7b7","ios":"levelo://app?vid=51a7e268-9562-4b96-8e84-f568b0acc7b7"},"vehicle_type_id":"4","last_reported":1761628300,"current_range_meters":19200,"station_id":"","pricing_plan_id":"cebpf4jnsgd1na2vs0mg"},{"bike_id":"53d23df3-0441-45e2-bfbf-abbc16391f8f","system_id":"levelo_inurba_marseille","lat":43.27608,"lon":5.36095,"is_reserved":false,"is_disabled":false,"rental_uris":{"android":"levelo://app?vid=53d23df3-0441-45e2-bfbf-abbc16391f8f","ios":"levelo://app?vid=53d23df3-0441-45e2-bfbf-abbc16391f8f"},"vehicle_type_id":"4","last_reported":1761628300,"current_range_meters":19200,"station_id":"ce4bgj92rcd13ifvqbe0","pricing_plan_id":"cebpf4jnsgd1na2vs0mg"},{"bike_id":"ef60aad2-190e-42d1-8a6e-f4713c7c306a","system_id":"levelo_inurba_marseille","lat":43.29043,"lon":5.39973,"is_reserved":false,"is_disabled":false,"rental_uris":{"android":"levelo://app?vid=ef60aad2-190e-42d1-8a6e-f4713c7c306a","ios":"levelo://app?vid=ef60aad2-190e-42d1-8a6e-f4713c7c306a"},"vehicle_type_id":"4","last_reported":1761628300,"current_range_meters":19200,"station_id":"ce4bh392rcd13ifvqdm0","pricing_plan_id":"cebpf4jnsgd1na2vs0mg"},{"bike_id":"8743deb1-3e1b-4fe6-ab63-b75dc0a57f17","system_id":"levelo_inurba_marseille","lat":43.230672,"lon":5.354905,"is_reserved":false,"is_disabled":false,"rental_uris":{"android":"levelo://app?vid=8743deb1-3e1b-4fe6-ab63-b75dc0a57f17","ios":"levelo://app?vid=8743deb1-3e1b-4fe6-ab63-b75dc0a57f17"},"vehicle_type_id":"4","last_reported":1761628300,"current_range_meters":19200,"station_id":"cpo3342slgdg3j2ifvpg","pricing_plan_id":"cebpf4jnsgd1na2vs0mg"},{"bike_id":"414bcc2a-2f6f-40f2-9661-8f896caff74c","system_id":"levelo_inurba_marseille","lat":43.291816,"lon":5.393277,"is_reserved":false,"is_disabled":false,"rental_uris":{"android":"levelo://app?vid=414bcc2a-2f6f-40f2-9661-8f896caff74c","ios":"levelo://app?vid=414bcc2a-2f6f-40f2-9661-8f896caff74c"},"vehicle_type_id":"4","last_reported":1761628300,"current_range_meters":19200,"station_id":"ce4bh192rcd13ifvqdd0","pricing_plan_id":"cebpf4jnsgd1na2vs0mg"},{"bike_id":"29622fdd-0089-4cf5-b878-91be039036cc","system_id":"levelo_inurba_marseille","lat":43.253395,"lon":5.421665,"is_reserved":false,"is_disabled":false,"rental_uris":{"android":"levelo://app?vid=29622fdd-0089-4cf5-b878-91be039036cc","ios":"levelo://app?vid=29622fdd-0089-4cf5-b878-91be039036cc"},"vehicle_type_id":"4","last_reported":1761628300,"current_range_meters":19600,"station_id":"st_d2m65c5bi1j21697t3ng","pricing_plan_id":"cebpf4jnsgd1na2vs0mg"},{"bike_id":"54317329-1b14-4957-8f07-2baa7436d39c","system_id":"levelo_inurba_marseille","lat":43.286226,"lon":5.351012,"is_reserved":false,"is_disabled":false,"rental_uris":{"android":"levelo://app?vid=54317329-1b14-4957-8f07-2baa7436d39c","ios":"levelo://app?vid=54317329-1b14-4957-8f07-2baa7436d39c"},"vehicle_type_id":"4","last_reported":1761628300,"current_range_meters":19600,"station_id":"ce4bhch2rcd13ifvqeug","pricing_plan_id":"cebpf4jnsgd1na2vs0mg"},{"bike_id":"6daca031-efb5-4517-911c-f1bf58b277b7","system_id":"levelo_inurba_marseille","lat":43.211863,"lon":5.350853,"is_reserved":false,"is_disabled":false,"rental_uris":{"android":"levelo://app?vid=6daca031-efb5-4517-911c-f1bf58b277b7","ios":"levelo://app?vid=6daca031-efb5-4517-911c-f1bf58b277b7"},"vehicle_type_id":"4","last_reported":1761628300,"current_range_meters":19600,"station_id":"st_cvj6sg6p6f1abm77japg","pricing_plan_id":"cebpf4jnsgd1na2vs0mg"},{"bike_id":"375de74a-a6d2-44a3-b043-8387ee6c02b5","system_id":"levelo_inurba_marseille","lat":43.275,"lon":5.42428,"is_reserved":false,"is_disabled":false,"rental_uris":{"android":"levelo://app?vid=375de74a-a6d2-44a3-b043-8387ee6c02b5","ios":"levelo://app?vid=375de74a-a6d2-44a3-b043-8387ee6c02b5"},"vehicle_type_id":"4","last_reported":1761628300,"current_range_meters":19600,"station_id":"ce4bhn92rcd13ifvqgrg","pricing_plan_id":"cebpf4jnsgd1na2vs0mg"},{"bike_id":"d02d2cc9-f4dd-45d9-9f0d-fdbe18c89495","system_id":"levelo_inurba_marseille","lat":43.29756,"lon":5.427836,"is_reserved":false,"is_disabled":false,"rental_uris":{"android":"levelo://app?vid=d02d2cc9-f4dd-45d9-9f0d-fdbe18c89495","ios":"levelo://app?vid=d02d2cc9-f4dd-45d9-9f0d-fdbe18c89495"},"vehicle_type_id":"4","last_reported":1761628300,"current_range_meters":19600,"station_id":"st_d3md5207bmas73dh9klg","pricing_plan_id":"cebpf4jnsgd1na2vs0mg"},{"bike_id":"0b874bc5-80d6-4565-b9e7-c796afbac60b","system_id":"levelo_inurba_marseille","lat":43.27486,"lon":5.4246,"is_reserved":false,"is_disabled":false,"rental_uris":{"android":"levelo://app?vid=0b874bc5-80d6-4565-b9e7-c796afbac60b","ios":"levelo://app?vid=0b874bc5-80d6-4565-b9e7-c796afbac60b"},"vehicle_type_id":"4","last_reported":1761628300,"current_range_meters":19600,"station_id":"ce4bhn92rcd13ifvqgrg","pricing_plan_id":"cebpf4jnsgd1na2vs0mg"},{"bike_id":"b08c1f00-bda5-44b6-8ef7-9496bb3768e3","system_id":"levelo_inurba_marseille","lat":43.31347,"lon":5.36754,"is_reserved":false,"is_disabled":false,"rental_uris":{"android":"levelo://app?vid=b08c1f00-bda5-44b6-8ef7-9496bb3768e3","ios":"levelo://app?vid=b08c1f00-bda5-44b6-8ef7-9496bb3768e3"},"vehicle_type_id":"4","last_reported":1761628300,"current_range_meters":19600,"station_id":"ce4bgr92rcd13ifvqc6g","pricing_plan_id":"cebpf4jnsgd1na2vs0mg"},{"bike_id":"6ce8387a-7217-4885-b90c-41215d188545","system_id":"levelo_inurba_marseille","lat":43.288657,"lon":5.409319,"is_reserved":false,"is_disabled":false,"rental_uris":{"android":"levelo://app?vid=6ce8387a-7217-4885-b90c-41215d188545","ios":"levelo://app?vid=6ce8387a-7217-4885-b90c-41215d188545"},"vehicle_type_id":"4","last_reported":1761628300,"current_range_meters":19600,"station_id":"","pricing_plan_id":"cebpf4jnsgd1na2vs0mg"},{"bike_id":"3c172d5e-4be3-4447-81d6-5d4b4efa8bc0","system_id":"levelo_inurba_marseille","lat":43.265437,"lon":5.385358,"is_reserved":false,"is_disabled":false,"rental_uris":{"android":"levelo://app?vid=3c172d5e-4be3-4447-81d6-5d4b4efa8bc0","ios":"levelo://app?vid=3c172d5e-4be3-4447-81d6-5d4b4efa8bc0"},"vehicle_type_id":"4","last_reported":1761628300,"current_range_meters":19600,"station_id":"","pricing_plan_id":"cebpf4jnsgd1na2vs0mg"},{"bike_id":"120a8546-b550-4908-ae90-0fcc0e4af2d8","system_id":"levelo_inurba_marseille","lat":43.278172,"lon":5.407127,"is_reserved":false,"is_disabled":false,"rental_uris":{"android":"levelo://app?vid=120a8546-b550-4908-ae90-0fcc0e4af2d8","ios":"levelo://app?vid=120a8546-b550-4908-ae90-0fcc0e4af2d8"},"vehicle_type_id":"4","last_reported":1761628300,"current_range_meters":20000,"station_id":"ce4bhnh2rcd13ifvqgtg","pricing_plan_id":"cebpf4jnsgd1na2vs0mg"},{"bike_id":"9cb0835f-d8bd-4b0d-af2f-9fec4e9f2305","system_id":"levelo_inurba_marseille","lat":43.248003,"lon":5.374537,"is_reserved":false,"is_disabled":false,"rental_uris":{"android":"levelo://app?vid=9cb0835f-d8bd-4b0d-af2f-9fec4e9f2305","ios":"levelo://app?vid=9cb0835f-d8bd-4b0d-af2f-9fec4e9f2305"},"vehicle_type_id":"4","last_reported":1761628300,"current_range_meters":20000,"station_id":"ce4bhgh2rcd13ifvqfb0","pricing_plan_id":"cebpf4jnsgd1na2vs0mg"},{"bike_id":"4ac7887c-1364-4417-9eed-22a7eb5f3d99","system_id":"levelo_inurba_marseille","lat":43.246666,"lon":5.38154,"is_reserved":false,"is_disabled":false,"rental_uris":{"android":"levelo://app?vid=4ac7887c-1364-4417-9eed-22a7eb5f3d99","ios":"levelo://app?vid=4ac7887c-1364-4417-9eed-22a7eb5f3d99"},"vehicle_type_id":"4","last_reported":1761628300,"current_range_meters":20000,"station_id":"ce4bhih2rcd13ifvqfr0","pricing_plan_id":"cebpf4jnsgd1na2vs0mg"},{"bike_id":"04459ab2-22e4-4de6-b288-50087f0d8551","system_id":"levelo_inurba_marseille","lat":43.2987,"lon":5.37938,"is_reserved":false,"is_disabled":false,"rental_uris":{"android":"levelo://app?vid=04459ab2-22e4-4de6-b288-50087f0d8551","ios":"levelo://app?vid=04459ab2-22e4-4de6-b288-50087f0d8551"},"vehicle_type_id":"4","last_reported":1761628300,"current_range_meters":20000,"station_id":"","pricing_plan_id":"cebpf4jnsgd1na2vs0mg"},{"bike_id":"5b6ef39d-b21a-4022-ba9f-c49a60cef04c","system_id":"levelo_inurba_marseille","lat":43.3089,"lon":5.39648,"is_reserved":false,"is_disabled":false,"rental_uris":{"android":"levelo://app?vid=5b6ef39d-b21a-4022-ba9f-c49a60cef04c","ios":"levelo://app?vid=5b6ef39d-b21a-4022-ba9f-c49a60cef04c"},"vehicle_type_id":"4","last_reported":1761628300,"current_range_meters":20000,"station_id":"ce4bh012rcd13ifvqcv0","pricing_plan_id":"cebpf4jnsgd1na2vs0mg"},{"bike_id":"1ff14011-1bb3-49a1-9941-97d38a0c81be","system_id":"levelo_inurba_marseille","lat":43.250941,"lon":5.395009,"is_reserved":false,"is_disabled":false,"rental_uris":{"android":"levelo://app?vid=1ff14011-1bb3-49a1-9941-97d38a0c81be","ios":"levelo://app?vid=1ff14011-1bb3-49a1-9941-97d38a0c81be"},"vehicle_type_id":"4","last_reported":1761628300,"current_range_meters":20000,"station_id":"ce4bhm12rcd13ifvqgkg","pricing_plan_id":"cebpf4jnsgd1na2vs0mg"},{"bike_id":"f810a554-2efc-4ac7-b25f-2a33c0bed870","system_id":"levelo_inurba_marseille","lat":43.25594,"lon":5.3824,"is_reserved":false,"is_disabled":false,"rental_uris":{"android":"levelo://app?vid=f810a554-2efc-4ac7-b25f-2a33c0bed870","ios":"levelo://app?vid=f810a554-2efc-4ac7-b25f-2a33c0bed870"},"vehicle_type_id":"4","last_reported":1761628300,"current_range_meters":20000,"station_id":"ce4bhih2rcd13ifvqfs0","pricing_plan_id":"cebpf4jnsgd1na2vs0mg"},{"bike_id":"14fed8bf-0e52-4b67-9780-8d00ed00b796","system_id":"levelo_inurba_marseille","lat":43.25088,"lon":5.3951,"is_reserved":false,"is_disabled":false,"rental_uris":{"android":"levelo://app?vid=14fed8bf-0e52-4b67-9780-8d00ed00b796","ios":"levelo://app?vid=14fed8bf-0e52-4b67-9780-8d00ed00b796"},"vehicle_type_id":"4","last_reported":1761628300,"current_range_meters":20000,"station_id":"ce4bhm12rcd13ifvqgkg","pricing_plan_id":"cebpf4jnsgd1na2vs0mg"},{"bike_id":"16de42e1-ed7d-49a4-b760-2a7da13bf74e","system_id":"levelo_inurba_marseille","lat":43.28919,"lon":5.36377,"is_reserved":false,"is_disabled":false,"rental_uris":{"android":"levelo://app?vid=16de42e1-ed7d-49a4-b760-2a7da13bf74e","ios":"levelo://app?vid=16de42e1-ed7d-49a4-b760-2a7da13bf74e"},"vehicle_type_id":"4","last_reported":1761628300,"current_range_meters":20000,"station_id":"ce4bhc92rcd13ifvqetg","pricing_plan_id":"cebpf4jnsgd1na2vs0mg"},{"bike_id":"96b93a83-82f2-4d31-acb8-139fbce4500d","system_id":"levelo_inurba_marseille","lat":43.229286,"lon":5.353797,"is_reserved":false,"is_disabled":false,"rental_uris":{"android":"levelo://app?vid=96b93a83-82f2-4d31-acb8-139fbce4500d","ios":"levelo://app?vid=96b93a83-82f2-4d31-acb8-139fbce4500d"},"vehicle_type_id":"4","last_reported":1761628300,"current_range_meters":20000,"station_id":"cpo3532slgdg3j2ikp40","pricing_plan_id":"cebpf4jnsgd1na2vs0mg"},{"bike_id":"226913b6-b7b9-4183-8d38-b7cb83db3cc9","system_id":"levelo_inurba_marseille","lat":43.311694,"lon":5.387161,"is_reserved":false,"is_disabled":false,"rental_uris":{"android":"levelo://app?vid=226913b6-b7b9-4183-8d38-b7cb83db3cc9","ios":"levelo://app?vid=226913b6-b7b9-4183-8d38-b7cb83db3cc9"},"vehicle_type_id":"4","last_reported":1761628300,"current_range_meters":20400,"station_id":"ce4bgv12rcd13ifvqcp0","pricing_plan_id":"cebpf4jnsgd1na2vs0mg"},{"bike_id":"e0a4f949-1a60-4f6f-b340-a65037eb5bf2","system_id":"levelo_inurba_marseille","lat":43.28854,"lon":5.39326,"is_reserved":false,"is_disabled":false,"rental_uris":{"android":"levelo://app?vid=e0a4f949-1a60-4f6f-b340-a65037eb5bf2","ios":"levelo://app?vid=e0a4f949-1a60-4f6f-b340-a65037eb5bf2"},"vehicle_type_id":"4","last_reported":1761628300,"current_range_meters":20400,"station_id":"ce4bh2p2rcd13ifvqdi0","pricing_plan_id":"cebpf4jnsgd1na2vs0mg"},{"bike_id":"941eca81-61b6-4376-acbb-773a2fc9f625","system_id":"levelo_inurba_marseille","lat":43.320936,"lon":5.367755,"is_reserved":false,"is_disabled":false,"rental_uris":{"android":"levelo://app?vid=941eca81-61b6-4376-acbb-773a2fc9f625","ios":"levelo://app?vid=941eca81-61b6-4376-acbb-773a2fc9f625"},"vehicle_type_id":"4","last_reported":1761628300,"current_range_meters":20400,"station_id":"ce4bhrh2rcd13ifvqhug","pricing_plan_id":"cebpf4jnsgd1na2vs0mg"},{"bike_id":"aa0e7e4b-f890-4f53-a40a-615d9f77115a","system_id":"levelo_inurba_marseille","lat":43.32113,"lon":5.367769,"is_reserved":false,"is_disabled":false,"rental_uris":{"android":"levelo://app?vid=aa0e7e4b-f890-4f53-a40a-615d9f77115a","ios":"levelo://app?vid=aa0e7e4b-f890-4f53-a40a-615d9f77115a"},"vehicle_type_id":"4","last_reported":1761628300,"current_range_meters":20400,"station_id":"ce4bhrh2rcd13ifvqhug","pricing_plan_id":"cebpf4jnsgd1na2vs0mg"},{"bike_id":"197c1c52-49c1-43c1-9e87-63751091f6ec","system_id":"levelo_inurba_marseille","lat":43.265534,"lon":5.372886,"is_reserved":false,"is_disabled":false,"rental_uris":{"android":"levelo://app?vid=197c1c52-49c1-43c1-9e87-63751091f6ec","ios":"levelo://app?vid=197c1c52-49c1-43c1-9e87-63751091f6ec"},"vehicle_type_id":"4","last_reported":1761628300,"current_range_meters":20400,"station_id":"ce4bhg12rcd13ifvqf70","pricing_plan_id":"cebpf4jnsgd1na2vs0mg"},{"bike_id":"01d566b3-b9e8-4c6a-8295-fa1b2dab6da5","system_id":"levelo_inurba_marseille","lat":43.31357,"lon":5.38493,"is_reserved":false,"is_disabled":false,"rental_uris":{"android":"levelo://app?vid=01d566b3-b9e8-4c6a-8295-fa1b2dab6da5","ios":"levelo://app?vid=01d566b3-b9e8-4c6a-8295-fa1b2dab6da5"},"vehicle_type_id":"4","last_reported":1761628300,"current_range_meters":20400,"station_id":"ce4bgt92rcd13ifvqcf0","pricing_plan_id":"cebpf4jnsgd1na2vs0mg"},{"bike_id":"6d8da19b-0143-43ba-a2b6-b774a32597d4","system_id":"levelo_inurba_marseille","lat":43.28156,"lon":5.3476,"is_reserved":false,"is_disabled":false,"rental_uris":{"android":"levelo://app?vid=6d8da19b-0143-43ba-a2b6-b774a32597d4","ios":"levelo://app?vid=6d8da19b-0143-43ba-a2b6-b774a32597d4"},"vehicle_type_id":"4","last_reported":1761628300,"current_range_meters":20400,"station_id":"","pricing_plan_id":"cebpf4jnsgd1na2vs0mg"},{"bike_id":"148b5ab1-bdb3-47b1-afa8-9f7846180c96","system_id":"levelo_inurba_marseille","lat":43.301244,"lon":5.431151,"is_reserved":false,"is_disabled":false,"rental_uris":{"android":"levelo://app?vid=148b5ab1-bdb3-47b1-afa8-9f7846180c96","ios":"levelo://app?vid=148b5ab1-bdb3-47b1-afa8-9f7846180c96"},"vehicle_type_id":"4","last_reported":1761628300,"current_range_meters":20400,"station_id":"st_d3js3co5814s73ftftug","pricing_plan_id":"cebpf4jnsgd1na2vs0mg"},{"bike_id":"f6adb9c1-4a78-4322-baec-aa5f6f5d93b6","system_id":"levelo_inurba_marseille","lat":43.225338,"lon":5.348301,"is_reserved":false,"is_disabled":false,"rental_uris":{"android":"levelo://app?vid=f6adb9c1-4a78-4322-baec-aa5f6f5d93b6","ios":"levelo://app?vid=f6adb9c1-4a78-4322-baec-aa5f6f5d93b6"},"vehicle_type_id":"4","last_reported":1761628300,"current_range_meters":20400,"station_id":"","pricing_plan_id":"cebpf4jnsgd1na2vs0mg"},{"bike_id":"4f24d0df-7b9a-48fa-a400-a6a0ae0f4ff8","system_id":"levelo_inurba_marseille","lat":43.24169,"lon":5.39728,"is_reserved":false,"is_disabled":false,"rental_uris":{"android":"levelo://app?vid=4f24d0df-7b9a-48fa-a400-a6a0ae0f4ff8","ios":"levelo://app?vid=4f24d0df-7b9a-48fa-a400-a6a0ae0f4ff8"},"vehicle_type_id":"4","last_reported":1761628300,"current_range_meters":20400,"station_id":"ce4bhn12rcd13ifvqgpg","pricing_plan_id":"cebpf4jnsgd1na2vs0mg"},{"bike_id":"e3260d53-1f31-4048-a6b1-57d9b1375877","system_id":"levelo_inurba_marseille","lat":43.28543,"lon":5.44093,"is_reserved":false,"is_disabled":false,"rental_uris":{"android":"levelo://app?vid=e3260d53-1f31-4048-a6b1-57d9b1375877","ios":"levelo://app?vid=e3260d53-1f31-4048-a6b1-57d9b1375877"},"vehicle_type_id":"4","last_reported":1761628300,"current_range_meters":20800,"station_id":"st_d3j3df2ikq2c7380ej80","pricing_plan_id":"cebpf4jnsgd1na2vs0mg"},{"bike_id":"3d00cf23-a66b-47a1-8eb3-f05af16b09a1","system_id":"levelo_inurba_marseille","lat":43.243821,"lon":5.370869,"is_reserved":false,"is_disabled":false,"rental_uris":{"android":"levelo://app?vid=3d00cf23-a66b-47a1-8eb3-f05af16b09a1","ios":"levelo://app?vid=3d00cf23-a66b-47a1-8eb3-f05af16b09a1"},"vehicle_type_id":"4","last_reported":1761628300,"current_range_meters":20800,"station_id":"ce4bhhh2rcd13ifvqfk0","pricing_plan_id":"cebpf4jnsgd1na2vs0mg"},{"bike_id":"8e2dcd31-6a9c-4b7f-a366-5e2640173d3c","system_id":"levelo_inurba_marseille","lat":43.229373,"lon":5.353815,"is_reserved":false,"is_disabled":false,"rental_uris":{"android":"levelo://app?vid=8e2dcd31-6a9c-4b7f-a366-5e2640173d3c","ios":"levelo://app?vid=8e2dcd31-6a9c-4b7f-a366-5e2640173d3c"},"vehicle_type_id":"4","last_reported":1761628300,"current_range_meters":20800,"station_id":"cpo3532slgdg3j2ikp40","pricing_plan_id":"cebpf4jnsgd1na2vs0mg"},{"bike_id":"3771686b-230a-47c5-8fd0-c9436373ca9f","system_id":"levelo_inurba_marseille","lat":43.29751,"lon":5.37083,"is_reserved":false,"is_disabled":true,"rental_uris":{"android":"levelo://app?vid=3771686b-230a-47c5-8fd0-c9436373ca9f","ios":"levelo://app?vid=3771686b-230a-47c5-8fd0-c9436373ca9f"},"vehicle_type_id":"4","last_reported":1761628300,"current_range_meters":20800,"station_id":"ce4bgop2rcd13ifvqc1g","pricing_plan_id":"cebpf4jnsgd1na2vs0mg"},{"bike_id":"faee4aed-34d1-4e59-9f3e-bc2337688920","system_id":"levelo_inurba_marseille","lat":43.31694,"lon":5.43688,"is_reserved":false,"is_disabled":true,"rental_uris":{"android":"levelo://app?vid=faee4aed-34d1-4e59-9f3e-bc2337688920","ios":"levelo://app?vid=faee4aed-34d1-4e59-9f3e-bc2337688920"},"vehicle_type_id":"4","last_reported":1761628300,"current_range_meters":20800,"station_id":"ce4bhp92rcd13ifvqhcg","pricing_plan_id":"cebpf4jnsgd1na2vs0mg"},{"bike_id":"361abab7-56f6-44ae-a4db-9079797e8f62","system_id":"levelo_inurba_marseille","lat":43.23964,"lon":5.36634,"is_reserved":false,"is_disabled":false,"rental_uris":{"android":"levelo://app?vid=361abab7-56f6-44ae-a4db-9079797e8f62","ios":"levelo://app?vid=361abab7-56f6-44ae-a4db-9079797e8f62"},"vehicle_type_id":"4","last_reported":1761628300,"current_range_meters":20800,"station_id":"ce4bhi12rcd13ifvqfp0","pricing_plan_id":"cebpf4jnsgd1na2vs0mg"},{"bike_id":"3421bcdb-13cb-4261-b339-5fd66c819551","system_id":"levelo_inurba_marseille","lat":43.30204,"lon":5.36638,"is_reserved":false,"is_disabled":false,"rental_uris":{"android":"levelo://app?vid=3421bcdb-13cb-4261-b339-5fd66c819551","ios":"levelo://app?vid=3421bcdb-13cb-4261-b339-5fd66c819551"},"vehicle_type_id":"4","last_reported":1761628300,"current_range_meters":20800,"station_id":"ce4bgrh2rcd13ifvqc8g","pricing_plan_id":"cebpf4jnsgd1na2vs0mg"},{"bike_id":"7b3b2981-73a7-49e1-a599-23d59e63bf0c","system_id":"levelo_inurba_marseille","lat":43.25093,"lon":5.39489,"is_reserved":false,"is_disabled":false,"rental_uris":{"android":"levelo://app?vid=7b3b2981-73a7-49e1-a599-23d59e63bf0c","ios":"levelo://app?vid=7b3b2981-73a7-49e1-a599-23d59e63bf0c"},"vehicle_type_id":"4","last_reported":1761628300,"current_range_meters":20800,"station_id":"ce4bhm12rcd13ifvqgkg","pricing_plan_id":"cebpf4jnsgd1na2vs0mg"},{"bike_id":"39d094ac-6017-4390-8e80-c3e2498dcfcf","system_id":"levelo_inurba_marseille","lat":43.246337,"lon":5.431488,"is_reserved":false,"is_disabled":false,"rental_uris":{"android":"levelo://app?vid=39d094ac-6017-4390-8e80-c3e2498dcfcf","ios":"levelo://app?vid=39d094ac-6017-4390-8e80-c3e2498dcfcf"},"vehicle_type_id":"4","last_reported":1761628300,"current_range_meters":21600,"station_id":"st_d2m6c4gdas8pm72e190g","pricing_plan_id":"cebpf4jnsgd1na2vs0mg"},{"bike_id":"f40aed78-b495-4d3a-bb9b-a4ce264d87f7","system_id":"levelo_inurba_marseille","lat":43.285625,"lon":5.394949,"is_reserved":false,"is_disabled":false,"rental_uris":{"android":"levelo://app?vid=f40aed78-b495-4d3a-bb9b-a4ce264d87f7","ios":"levelo://app?vid=f40aed78-b495-4d3a-bb9b-a4ce264d87f7"},"vehicle_type_id":"4","last_reported":1761628300,"current_range_meters":21600,"station_id":"ce4bh292rcd13ifvqdg0","pricing_plan_id":"cebpf4jnsgd1na2vs0mg"},{"bike_id":"3fb7ea86-f296-46d1-be21-5c7e23f5a2c3","system_id":"levelo_inurba_marseille","lat":43.309289,"lon":5.401476,"is_reserved":false,"is_disabled":false,"rental_uris":{"android":"levelo://app?vid=3fb7ea86-f296-46d1-be21-5c7e23f5a2c3","ios":"levelo://app?vid=3fb7ea86-f296-46d1-be21-5c7e23f5a2c3"},"vehicle_type_id":"4","last_reported":1761628300,"current_range_meters":21600,"station_id":"ce4bgvp2rcd13ifvqct0","pricing_plan_id":"cebpf4jnsgd1na2vs0mg"},{"bike_id":"780f18f0-b7b3-4b8b-86c0-24ab04a1b619","system_id":"levelo_inurba_marseille","lat":43.309315,"lon":5.401503,"is_reserved":false,"is_disabled":false,"rental_uris":{"android":"levelo://app?vid=780f18f0-b7b3-4b8b-86c0-24ab04a1b619","ios":"levelo://app?vid=780f18f0-b7b3-4b8b-86c0-24ab04a1b619"},"vehicle_type_id":"4","last_reported":1761628300,"current_range_meters":21600,"station_id":"ce4bgvp2rcd13ifvqct0","pricing_plan_id":"cebpf4jnsgd1na2vs0mg"},{"bike_id":"208cdda3-2b43-400e-951e-2693b6f7bbf2","system_id":"levelo_inurba_marseille","lat":43.3168,"lon":5.40447,"is_reserved":false,"is_disabled":false,"rental_uris":{"android":"levelo://app?vid=208cdda3-2b43-400e-951e-2693b6f7bbf2","ios":"levelo://app?vid=208cdda3-2b43-400e-951e-2693b6f7bbf2"},"vehicle_type_id":"4","last_reported":1761628300,"current_range_meters":21600,"station_id":"ce4bh012rcd13ifvqd00","pricing_plan_id":"cebpf4jnsgd1na2vs0mg"},{"bike_id":"75dc66b3-0d26-400d-85b7-e985f64e2136","system_id":"levelo_inurba_marseille","lat":43.289943,"lon":5.437007,"is_reserved":false,"is_disabled":false,"rental_uris":{"android":"levelo://app?vid=75dc66b3-0d26-400d-85b7-e985f64e2136","ios":"levelo://app?vid=75dc66b3-0d26-400d-85b7-e985f64e2136"},"vehicle_type_id":"4","last_reported":1761628300,"current_range_meters":22000,"station_id":"","pricing_plan_id":"cebpf4jnsgd1na2vs0mg"},{"bike_id":"d7c2acd6-c208-40a6-8b94-be8648762947","system_id":"levelo_inurba_marseille","lat":43.24814,"lon":5.37469,"is_reserved":false,"is_disabled":false,"rental_uris":{"android":"levelo://app?vid=d7c2acd6-c208-40a6-8b94-be8648762947","ios":"levelo://app?vid=d7c2acd6-c208-40a6-8b94-be8648762947"},"vehicle_type_id":"4","last_reported":1761628300,"current_range_meters":22000,"station_id":"ce4bhgh2rcd13ifvqfb0","pricing_plan_id":"cebpf4jnsgd1na2vs0mg"},{"bike_id":"29fedfcf-711f-4172-b067-9501d1ef7f5b","system_id":"levelo_inurba_marseille","lat":43.255116,"lon":5.376531,"is_reserved":false,"is_disabled":false,"rental_uris":{"android":"levelo://app?vid=29fedfcf-711f-4172-b067-9501d1ef7f5b","ios":"levelo://app?vid=29fedfcf-711f-4172-b067-9501d1ef7f5b"},"vehicle_type_id":"4","last_reported":1761628300,"current_range_meters":22000,"station_id":"ce4bhh12rcd13ifvqff0","pricing_plan_id":"cebpf4jnsgd1na2vs0mg"},{"bike_id":"dc354283-d041-4993-a96c-10783f4690b7","system_id":"levelo_inurba_marseille","lat":43.25083,"lon":5.39502,"is_reserved":false,"is_disabled":false,"rental_uris":{"android":"levelo://app?vid=dc354283-d041-4993-a96c-10783f4690b7","ios":"levelo://app?vid=dc354283-d041-4993-a96c-10783f4690b7"},"vehicle_type_id":"4","last_reported":1761628300,"current_range_meters":22000,"station_id":"ce4bhm12rcd13ifvqgkg","pricing_plan_id":"cebpf4jnsgd1na2vs0mg"},{"bike_id":"bb22a0a1-724c-473b-9c0a-fd40cc440f98","system_id":"levelo_inurba_marseille","lat":43.30149,"lon":5.38004,"is_reserved":false,"is_disabled":false,"rental_uris":{"android":"levelo://app?vid=bb22a0a1-724c-473b-9c0a-fd40cc440f98","ios":"levelo://app?vid=bb22a0a1-724c-473b-9c0a-fd40cc440f98"},"vehicle_type_id":"4","last_reported":1761628300,"current_range_meters":22400,"station_id":"","pricing_plan_id":"cebpf4jnsgd1na2vs0mg"},{"bike_id":"bac68b83-cda6-46d4-8b8e-dd60882a0a93","system_id":"levelo_inurba_marseille","lat":43.280406,"lon":5.369394,"is_reserved":false,"is_disabled":false,"rental_uris":{"android":"levelo://app?vid=bac68b83-cda6-46d4-8b8e-dd60882a0a93","ios":"levelo://app?vid=bac68b83-cda6-46d4-8b8e-dd60882a0a93"},"vehicle_type_id":"4","last_reported":1761628300,"current_range_meters":22400,"station_id":"ce4bha12rcd13ifvqef0","pricing_plan_id":"cebpf4jnsgd1na2vs0mg"},{"bike_id":"bc7b3acb-9432-47ca-8e90-fa072d19adf8","system_id":"levelo_inurba_marseille","lat":43.313306,"lon":5.397053,"is_reserved":false,"is_disabled":true,"rental_uris":{"android":"levelo://app?vid=bc7b3acb-9432-47ca-8e90-fa072d19adf8","ios":"levelo://app?vid=bc7b3acb-9432-47ca-8e90-fa072d19adf8"},"vehicle_type_id":"4","last_reported":1761628300,"current_range_meters":22400,"station_id":"ce4bgvp2rcd13ifvqcu0","pricing_plan_id":"cebpf4jnsgd1na2vs0mg"},{"bike_id":"2a7dbe9f-5131-409a-9a9d-217342ff6bb1","system_id":"levelo_inurba_marseille","lat":43.30424,"lon":5.41294,"is_reserved":false,"is_disabled":false,"rental_uris":{"android":"levelo://app?vid=2a7dbe9f-5131-409a-9a9d-217342ff6bb1","ios":"levelo://app?vid=2a7dbe9f-5131-409a-9a9d-217342ff6bb1"},"vehicle_type_id":"4","last_reported":1761628300,"current_range_meters":22400,"station_id":"ce4bhop2rcd13ifvqh8g","pricing_plan_id":"cebpf4jnsgd1na2vs0mg"},{"bike_id":"79f92dba-6817-4298-b3c9-46b485d13376","system_id":"levelo_inurba_marseille","lat":43.30153,"lon":5.3807,"is_reserved":false,"is_disabled":false,"rental_uris":{"android":"levelo://app?vid=79f92dba-6817-4298-b3c9-46b485d13376","ios":"levelo://app?vid=79f92dba-6817-4298-b3c9-46b485d13376"},"vehicle_type_id":"4","last_reported":1761628300,"current_range_meters":22400,"station_id":"ce4bgjp2rcd13ifvqbh0","pricing_plan_id":"cebpf4jnsgd1na2vs0mg"},{"bike_id":"12e79476-8963-4e95-a010-0ea2014f1c70","system_id":"levelo_inurba_marseille","lat":43.278296,"lon":5.407276,"is_reserved":false,"is_disabled":false,"rental_uris":{"android":"levelo://app?vid=12e79476-8963-4e95-a010-0ea2014f1c70","ios":"levelo://app?vid=12e79476-8963-4e95-a010-0ea2014f1c70"},"vehicle_type_id":"4","last_reported":1761628300,"current_range_meters":22400,"station_id":"ce4bhnh2rcd13ifvqgtg","pricing_plan_id":"cebpf4jnsgd1na2vs0mg"},{"bike_id":"15ce9860-b619-40f3-a3c1-0dd35b79e0cb","system_id":"levelo_inurba_marseille","lat":43.30803,"lon":5.38154,"is_reserved":false,"is_disabled":false,"rental_uris":{"android":"levelo://app?vid=15ce9860-b619-40f3-a3c1-0dd35b79e0cb","ios":"levelo://app?vid=15ce9860-b619-40f3-a3c1-0dd35b79e0cb"},"vehicle_type_id":"4","last_reported":1761628300,"current_range_meters":22400,"station_id":"ce4bgt12rcd13ifvqce0","pricing_plan_id":"cebpf4jnsgd1na2vs0mg"},{"bike_id":"710ca40b-777e-4c21-b0e7-9c3d7e1d80db","system_id":"levelo_inurba_marseille","lat":43.30657,"lon":5.40096,"is_reserved":false,"is_disabled":false,"rental_uris":{"android":"levelo://app?vid=710ca40b-777e-4c21-b0e7-9c3d7e1d80db","ios":"levelo://app?vid=710ca40b-777e-4c21-b0e7-9c3d7e1d80db"},"vehicle_type_id":"4","last_reported":1761628300,"current_range_meters":22400,"station_id":"ce4bh112rcd13ifvqda0","pricing_plan_id":"cebpf4jnsgd1na2vs0mg"},{"bike_id":"cdcc0522-e9c0-4a4b-9952-84841693714f","system_id":"levelo_inurba_marseille","lat":43.303202,"lon":5.404371,"is_reserved":false,"is_disabled":false,"rental_uris":{"android":"levelo://app?vid=cdcc0522-e9c0-4a4b-9952-84841693714f","ios":"levelo://app?vid=cdcc0522-e9c0-4a4b-9952-84841693714f"},"vehicle_type_id":"4","last_reported":1761628300,"current_range_meters":22400,"station_id":"ce4bh012rcd13ifvqd10","pricing_plan_id":"cebpf4jnsgd1na2vs0mg"},{"bike_id":"76078422-64fc-43f8-9e23-3babe3fd9b44","system_id":"levelo_inurba_marseille","lat":43.27057,"lon":5.42276,"is_reserved":false,"is_disabled":true,"rental_uris":{"android":"levelo://app?vid=76078422-64fc-43f8-9e23-3babe3fd9b44","ios":"levelo://app?vid=76078422-64fc-43f8-9e23-3babe3fd9b44"},"vehicle_type_id":"4","last_reported":1761628300,"current_range_meters":22800,"station_id":"ce4bhk92rcd13ifvqgb0","pricing_plan_id":"cebpf4jnsgd1na2vs0mg"},{"bike_id":"9266bac7-0223-4558-9638-646ecc082e5d","system_id":"levelo_inurba_marseille","lat":43.27997,"lon":5.41656,"is_reserved":false,"is_disabled":false,"rental_uris":{"android":"levelo://app?vid=9266bac7-0223-4558-9638-646ecc082e5d","ios":"levelo://app?vid=9266bac7-0223-4558-9638-646ecc082e5d"},"vehicle_type_id":"4","last_reported":1761628300,"current_range_meters":22800,"station_id":"ce4bho12rcd13ifvqh1g","pricing_plan_id":"cebpf4jnsgd1na2vs0mg"},{"bike_id":"db0d7fd2-78fb-49f2-88b1-362741a795cb","system_id":"levelo_inurba_marseille","lat":43.337444,"lon":5.374475,"is_reserved":false,"is_disabled":false,"rental_uris":{"android":"levelo://app?vid=db0d7fd2-78fb-49f2-88b1-362741a795cb","ios":"levelo://app?vid=db0d7fd2-78fb-49f2-88b1-362741a795cb"},"vehicle_type_id":"4","last_reported":1761628300,"current_range_meters":22800,"station_id":"","pricing_plan_id":"cebpf4jnsgd1na2vs0mg"},{"bike_id":"1a34b5a4-3c1e-479b-b6f5-76f97d5c5c52","system_id":"levelo_inurba_marseille","lat":43.2853,"lon":5.44112,"is_reserved":false,"is_disabled":false,"rental_uris":{"android":"levelo://app?vid=1a34b5a4-3c1e-479b-b6f5-76f97d5c5c52","ios":"levelo://app?vid=1a34b5a4-3c1e-479b-b6f5-76f97d5c5c52"},"vehicle_type_id":"4","last_reported":1761628300,"current_range_meters":22800,"station_id":"st_d3j3df2ikq2c7380ej80","pricing_plan_id":"cebpf4jnsgd1na2vs0mg"},{"bike_id":"d9a6a1f6-ad3e-4d83-b3dd-5f0ef903b947","system_id":"levelo_inurba_marseille","lat":43.230866,"lon":5.354803,"is_reserved":false,"is_disabled":false,"rental_uris":{"android":"levelo://app?vid=d9a6a1f6-ad3e-4d83-b3dd-5f0ef903b947","ios":"levelo://app?vid=d9a6a1f6-ad3e-4d83-b3dd-5f0ef903b947"},"vehicle_type_id":"4","last_reported":1761628300,"current_range_meters":22800,"station_id":"","pricing_plan_id":"cebpf4jnsgd1na2vs0mg"},{"bike_id":"639e43d9-10dc-4ec1-bb0d-868fe5fa670f","system_id":"levelo_inurba_marseille","lat":43.278322,"lon":5.39205,"is_reserved":false,"is_disabled":false,"rental_uris":{"android":"levelo://app?vid=639e43d9-10dc-4ec1-bb0d-868fe5fa670f","ios":"levelo://app?vid=639e43d9-10dc-4ec1-bb0d-868fe5fa670f"},"vehicle_type_id":"4","last_reported":1761628300,"current_range_meters":22800,"station_id":"ce4bhjp2rcd13ifvqga0","pricing_plan_id":"cebpf4jnsgd1na2vs0mg"},{"bike_id":"9fbba057-dacf-495b-8346-f987d25ac873","system_id":"levelo_inurba_marseille","lat":43.3377,"lon":5.37477,"is_reserved":false,"is_disabled":false,"rental_uris":{"android":"levelo://app?vid=9fbba057-dacf-495b-8346-f987d25ac873","ios":"levelo://app?vid=9fbba057-dacf-495b-8346-f987d25ac873"},"vehicle_type_id":"4","last_reported":1761628300,"current_range_meters":22800,"station_id":"","pricing_plan_id":"cebpf4jnsgd1na2vs0mg"},{"bike_id":"fe99f934-abe9-4434-9a95-28acc38e936e","system_id":"levelo_inurba_marseille","lat":43.307941,"lon":5.381521,"is_reserved":false,"is_disabled":false,"rental_uris":{"android":"levelo://app?vid=fe99f934-abe9-4434-9a95-28acc38e936e","ios":"levelo://app?vid=fe99f934-abe9-4434-9a95-28acc38e936e"},"vehicle_type_id":"4","last_reported":1761628300,"current_range_meters":22800,"station_id":"ce4bgt12rcd13ifvqce0","pricing_plan_id":"cebpf4jnsgd1na2vs0mg"},{"bike_id":"f5cce3b7-61a8-4557-ab40-61fe738db22a","system_id":"levelo_inurba_marseille","lat":43.308,"lon":5.381473,"is_reserved":false,"is_disabled":false,"rental_uris":{"android":"levelo://app?vid=f5cce3b7-61a8-4557-ab40-61fe738db22a","ios":"levelo://app?vid=f5cce3b7-61a8-4557-ab40-61fe738db22a"},"vehicle_type_id":"4","last_reported":1761628300,"current_range_meters":22800,"station_id":"ce4bgt12rcd13ifvqce0","pricing_plan_id":"cebpf4jnsgd1na2vs0mg"},{"bike_id":"0867dc9c-63b8-44d4-b086-02bdb925d03e","system_id":"levelo_inurba_marseille","lat":43.284682,"lon":5.358965,"is_reserved":false,"is_disabled":false,"rental_uris":{"android":"levelo://app?vid=0867dc9c-63b8-44d4-b086-02bdb925d03e","ios":"levelo://app?vid=0867dc9c-63b8-44d4-b086-02bdb925d03e"},"vehicle_type_id":"4","last_reported":1761628300,"current_range_meters":22800,"station_id":"ce4bhah2rcd13ifvqei0","pricing_plan_id":"cebpf4jnsgd1na2vs0mg"},{"bike_id":"2272590b-2b8a-400c-bd54-1f5b7df174ff","system_id":"levelo_inurba_marseille","lat":43.307998,"lon":5.381522,"is_reserved":false,"is_disabled":false,"rental_uris":{"android":"levelo://app?vid=2272590b-2b8a-400c-bd54-1f5b7df174ff","ios":"levelo://app?vid=2272590b-2b8a-400c-bd54-1f5b7df174ff"},"vehicle_type_id":"4","last_reported":1761628300,"current_range_meters":22800,"station_id":"ce4bgt12rcd13ifvqce0","pricing_plan_id":"cebpf4jnsgd1na2vs0mg"},{"bike_id":"2b27cebd-4811-4769-9f94-b43b631016a5","system_id":"levelo_inurba_marseille","lat":43.24079,"lon":5.37757,"is_reserved":false,"is_disabled":false,"rental_uris":{"android":"levelo://app?vid=2b27cebd-4811-4769-9f94-b43b631016a5","ios":"levelo://app?vid=2b27cebd-4811-4769-9f94-b43b631016a5"},"vehicle_type_id":"4","last_reported":1761628300,"current_range_meters":22800,"station_id":"ce4bhnp2rcd13ifvqgvg","pricing_plan_id":"cebpf4jnsgd1na2vs0mg"},{"bike_id":"723a003b-69e7-40c1-8770-b8861d0b490a","system_id":"levelo_inurba_marseille","lat":43.229288,"lon":5.353808,"is_reserved":false,"is_disabled":false,"rental_uris":{"android":"levelo://app?vid=723a003b-69e7-40c1-8770-b8861d0b490a","ios":"levelo://app?vid=723a003b-69e7-40c1-8770-b8861d0b490a"},"vehicle_type_id":"4","last_reported":1761628300,"current_range_meters":22800,"station_id":"cpo3532slgdg3j2ikp40","pricing_plan_id":"cebpf4jnsgd1na2vs0mg"},{"bike_id":"47e33cec-c0ed-49f8-a500-a4d49b77f176","system_id":"levelo_inurba_marseille","lat":43.308881,"lon":5.396591,"is_reserved":false,"is_disabled":false,"rental_uris":{"android":"levelo://app?vid=47e33cec-c0ed-49f8-a500-a4d49b77f176","ios":"levelo://app?vid=47e33cec-c0ed-49f8-a500-a4d49b77f176"},"vehicle_type_id":"4","last_reported":1761628300,"current_range_meters":22800,"station_id":"ce4bh012rcd13ifvqcv0","pricing_plan_id":"cebpf4jnsgd1na2vs0mg"},{"bike_id":"eb15d688-c787-4635-8c93-8d6e9b11c3b2","system_id":"levelo_inurba_marseille","lat":43.25945,"lon":5.40904,"is_reserved":false,"is_disabled":false,"rental_uris":{"android":"levelo://app?vid=eb15d688-c787-4635-8c93-8d6e9b11c3b2","ios":"levelo://app?vid=eb15d688-c787-4635-8c93-8d6e9b11c3b2"},"vehicle_type_id":"4","last_reported":1761628300,"current_range_meters":22800,"station_id":"ce4bhm92rcd13ifvqglg","pricing_plan_id":"cebpf4jnsgd1na2vs0mg"},{"bike_id":"9d19aa12-f7d8-4182-8cd0-6d800ec08c05","system_id":"levelo_inurba_marseille","lat":43.276166,"lon":5.360981,"is_reserved":false,"is_disabled":true,"rental_uris":{"android":"levelo://app?vid=9d19aa12-f7d8-4182-8cd0-6d800ec08c05","ios":"levelo://app?vid=9d19aa12-f7d8-4182-8cd0-6d800ec08c05"},"vehicle_type_id":"4","last_reported":1761628300,"current_range_meters":23200,"station_id":"ce4bgj92rcd13ifvqbe0","pricing_plan_id":"cebpf4jnsgd1na2vs0mg"},{"bike_id":"036e4f11-a538-44e0-9363-2a866923620b","system_id":"levelo_inurba_marseille","lat":43.25518,"lon":5.37659,"is_reserved":false,"is_disabled":false,"rental_uris":{"android":"levelo://app?vid=036e4f11-a538-44e0-9363-2a866923620b","ios":"levelo://app?vid=036e4f11-a538-44e0-9363-2a866923620b"},"vehicle_type_id":"4","last_reported":1761628300,"current_range_meters":23200,"station_id":"ce4bhh12rcd13ifvqff0","pricing_plan_id":"cebpf4jnsgd1na2vs0mg"},{"bike_id":"9b2d3801-8e2e-4bab-893d-2aae51b116a0","system_id":"levelo_inurba_marseille","lat":43.3092,"lon":5.40137,"is_reserved":false,"is_disabled":false,"rental_uris":{"android":"levelo://app?vid=9b2d3801-8e2e-4bab-893d-2aae51b116a0","ios":"levelo://app?vid=9b2d3801-8e2e-4bab-893d-2aae51b116a0"},"vehicle_type_id":"4","last_reported":1761628300,"current_range_meters":23200,"station_id":"ce4bgvp2rcd13ifvqct0","pricing_plan_id":"cebpf4jnsgd1na2vs0mg"},