{"last_updated":1711145180,"ttl":30,"version":"2.2","data":{"bikes":[{"bike_id":"68b730a5-1e29-4985-9075-e01530971745","system_id":"levelo_inurba_marseille","lat":43.313391,"lon":5.36706,"is_reserved":false,"is_disabled":false,"rental_uris":{"android":"levelo://app?vid=68b730a5-1e29-4985-9075-e01530971745","ios":"levelo://app?vid=68b730a5-1e29-4985-9075-e01530971745"},"vehicle_type_id":"4","last_reported":1711145180,"current_range_meters":2400,"station_id":"ce4bgr92rcd13ifvqc6g","pricing_plan_id":"cebpf4jnsgd1na2vs0mg"},{"bike_id":"c5bc19e9-051e-4707-b3c9-6cc1b79669cf","system_id":"levelo_inurba_marseille","lat":43.312239,"lon":5.368562,"is_reserved":false,"is_disabled":false,"rental_uris":{"android":"levelo://app?vid=c5bc19e9-051e-4707-b3c9-6cc1b79669cf","ios":"levelo://app?vid=c5bc19e9-051e-4707-b3c9-6cc1b79669cf"},"vehicle_type_id":"4","last_reported":1711145180,"current_range_meters":25600,"station_id":"ce4bgl92rcd13ifvqbq0","pricing_plan_id":"cebpf4jnsgd1na2vs0mg"},{"bike_id":"514a94b8-cf71-4efb-bdab-bf207c06d4e6","system_id":"levelo_inurba_marseille","lat":43.31221,"lon":5.36867,"is_reserved":false,"is_disabled":false,"rental_uris":{"android":"levelo://app?vid=514a94b8-cf71-4efb-bdab-bf207c06d4e6","ios":"levelo://app?vid=514a94b8-cf71-4efb-bdab-bf207c06d4e6"},"vehicle_type_id":"4","last_reported":1711145180,"current_range_meters":0,"station_id":"ce4bgl92rcd13ifvqbq0","pricing_plan_id":"cebpf4jnsgd1na2vs0mg"},{"bike_id":"ada8787e-f630-46c5-af97-68e7d01ecc09","system_id":"levelo_inurba_marseille","lat":43.309076,"lon":5.368465,"is_reserved":false,"is_disabled":false,"rental_uris":{"android":"levelo://app?vid=ada8787e-f630-46c5-af97-68e7d01ecc09","ios":"levelo://app?vid=ada8787e-f630-46c5-af97-68e7d01ecc09"},"vehicle_type_id":"4","last_reported":1711145180,"current_range_meters":5200,"station_id":"ce4bgn92rcd13ifvqbvg","pricing_plan_id":"cebpf4jnsgd1na2vs0mg"},{"bike_id":"0f695221-a1d3-4a00-bcd0-6674ec2000f4","system_id":"levelo_inurba_marseille","lat":43.309076,"lon":5.368465,"is_reserved":false,"is_disabled":false,"rental_uris":{"android":"levelo://app?vid=0f695221-a1d3-4a00-bcd0-6674ec2000f4","ios":"levelo://app?vid=0f695221-a1d3-4a00-bcd0-6674ec2000f4"},"vehicle_type_id":"4","last_reported":1711145180,"current_range_meters":30800,"station_id":"ce4bgn92rcd13ifvqbvg","pricing_plan_id":"cebpf4jnsgd1na2vs0mg"},{"bike_id":"b108d83b-3abb-4d00-bba4-5ad87e8aaa33","system_id":"levelo_inurba_marseille","lat":43.314811,"lon":5.373103,"is_reserved":false,"is_disabled":false,"rental_uris":{"android":"levelo://app?vid=b108d83b-3abb-4d00-bba4-5ad87e8aaa33","ios":"levelo://app?vid=b108d83b-3abb-4d00-bba4-5ad87e8aaa33"},"vehicle_type_id":"4","last_reported":1711145180,"current_range_meters":6400,"station_id":"ce4bgt12rcd13ifvqcd0","pricing_plan_id":"cebpf4jnsgd1na2vs0mg"},{"bike_id":"86d1ad91-ff40-4bb7-adbf-38b412319b23","system_id":"levelo_inurba_marseille","lat":43.314811,"lon":5.373103,"is_reserved":false,"is_disabled":false,"rental_uris":{"android":"levelo://app?vid=86d1ad91-ff40-4bb7-adbf-38b412319b23","ios":"levelo://app?vid=86d1ad91-ff40-4bb7-adbf-38b412319b23"},"vehicle_type_id":"4","last_reported":1711145180,"current_range_meters":0,"station_id":"ce4bgt12rcd13ifvqcd0","pricing_plan_id":"cebpf4jnsgd1na2vs0mg"},{"bike_id":"cb525725-6e09-4f10-813e-a6d6e7002ae3","system_id":"levelo_inurba_marseille","lat":43.31486,"lon":5.37308,"is_reserved":false,"is_disabled":false,"rental_uris":{"android":"levelo://app?vid=cb525725-6e09-4f10-813e-a6d6e7002ae3","ios":"levelo://app?vid=cb525725-6e09-4f10-813e-a6d6e7002ae3"},"vehicle_type_id":"4","last_reported":1711145180,"current_range_meters":0,"station_id":"ce4bgt12rcd13ifvqcd0","pricing_plan_id":"cebpf4jnsgd1na2vs0mg"},{"bike_id":"39bb73b1-1247-4823-92b9-817c5d289565","system_id":"levelo_inurba_marseille","lat":43.314811,"lon":5.373104,"is_reserved":false,"is_disabled":false,"rental_uris":{"android":"levelo://app?vid=39bb73b1-1247-4823-92b9-817c5d289565","ios":"levelo://app?vid=39bb73b1-1247-4823-92b9-817c5d289565"},"vehicle_type_id":"4","last_reported":1711145180,"current_range_meters":14800,"station_id":"ce4bgt12rcd13ifvqcd0","pricing_plan_id":"cebpf4jnsgd1na2vs0mg"},{"bike_id":"910abd8e-a152-4a2a-abf6-7be1a74e843e","system_id":"levelo_inurba_marseille","lat":43.314811,"lon":5.373104,"is_reserved":false,"is_disabled":false,"rental_uris":{"android":"levelo://app?vid=910abd8e-a152-4a2a-abf6-7be1a74e843e","ios":"levelo://app?vid=910abd8e-a152-4a2a-abf6-7be1a74e843e"},"vehicle_type_id":"4","last_reported":1711145180,"current_range_meters":1600,"station_id":"ce4bgt12rcd13ifvqcd0","pricing_plan_id":"cebpf4jnsgd1na2vs0mg"},{"bike_id":"8ee47950-4f71-4971-8963-209c47ae4762","system_id":"levelo_inurba_marseille","lat":43.314811,"lon":5.373104,"is_reserved":false,"is_disabled":false,"rental_uris":{"android":"levelo://app?vid=8ee47950-4f71-4971-8963-209c47ae4762","ios":"levelo://app?vid=8ee47950-4f71-4971-8963-209c47ae4762"},"vehicle_type_id":"4","last_reported":1711145180,"current_range_meters":12000,"station_id":"ce4bgt12rcd13ifvqcd0","pricing_plan_id":"cebpf4jnsgd1na2vs0mg"},{"bike_id":"f0e4183a-a3ca-4631-9b11-f39d3b7aff3e","system_id":"levelo_inurba_marseille","lat":43.292644,"lon":5.384257,"is_reserved":false,"is_disabled":false,"rental_uris":{"android":"levelo://app?vid=f0e4183a-a3ca-4631-9b11-f39d3b7aff3e","ios":"levelo://app?vid=f0e4183a-a3ca-4631-9b11-f39d3b7aff3e"},"vehicle_type_id":"4","last_reported":1711145180,"current_range_meters":6800,"station_id":"ce4bh692rcd13ifvqea0","pricing_plan_id":"cebpf4jnsgd1na2vs0mg"},{"bike_id":"20ce103c-2a88-4648-a0ae-eaad4562d830","system_id":"levelo_inurba_marseille","lat":43.309039,"lon":5.371797,"is_reserved":false,"is_disabled":false,"rental_uris":{"android":"levelo://app?vid=20ce103c-2a88-4648-a0ae-eaad4562d830","ios":"levelo://app?vid=20ce103c-2a88-4648-a0ae-eaad4562d830"},"vehicle_type_id":"4","last_reported":1711145180,"current_range_meters":25200,"station_id":"ce4bguh2rcd13ifvqckg","pricing_plan_id":"cebpf4jnsgd1na2vs0mg"},{"bike_id":"d61bb3f8-7d92-4fc0-8ebc-040d06716771","system_id":"levelo_inurba_marseille","lat":43.30682,"lon":5.36695,"is_reserved":false,"is_disabled":false,"rental_uris":{"android":"levelo://app?vid=d61bb3f8-7d92-4fc0-8ebc-040d06716771","ios":"levelo://app?vid=d61bb3f8-7d92-4fc0-8ebc-040d06716771"},"vehicle_type_id":"4","last_reported":1711145180,"current_range_meters":6400,"station_id":"","pricing_plan_id":"cebpf4jnsgd1na2vs0mg"},{"bike_id":"f29c661e-9555-4902-be81-6900952d7b87","system_id":"levelo_inurba_marseille","lat":43.305368,"lon":5.367343,"is_reserved":false,"is_disabled":false,"rental_uris":{"android":"levelo://app?vid=f29c661e-9555-4902-be81-6900952d7b87","ios":"levelo://app?vid=f29c661e-9555-4902-be81-6900952d7b87"},"vehicle_type_id":"4","last_reported":1711145180,"current_range_meters":26000,"station_id":"ce4bgrp2rcd13ifvqc9g","pricing_plan_id":"cebpf4jnsgd1na2vs0mg"},{"bike_id":"ae48d18a-f113-46a8-949a-6beaa22d748d","system_id":"levelo_inurba_marseille","lat":43.30535,"lon":5.36722,"is_reserved":false,"is_disabled":false,"rental_uris":{"android":"levelo://app?vid=ae48d18a-f113-46a8-949a-6beaa22d748d","ios":"levelo://app?vid=ae48d18a-f113-46a8-949a-6beaa22d748d"},"vehicle_type_id":"4","last_reported":1711145180,"current_range_meters":0,"station_id":"ce4bgrp2rcd13ifvqc9g","pricing_plan_id":"cebpf4jnsgd1na2vs0mg"},{"bike_id":"ff150775-c74b-4e79-8d88-6e2e1cade228","system_id":"levelo_inurba_marseille","lat":43.305368,"lon":5.367343,"is_reserved":false,"is_disabled":false,"rental_uris":{"android":"levelo://app?vid=ff150775-c74b-4e79-8d88-6e2e1cade228","ios":"levelo://app?vid=ff150775-c74b-4e79-8d88-6e2e1cade228"},"vehicle_type_id":"4","last_reported":1711145180,"current_range_meters":0,"station_id":"ce4bgrp2rcd13ifvqc9g","pricing_plan_id":"cebpf4jnsgd1na2vs0mg"},{"bike_id":"967614b9-1dcf-458a-a8fd-55a77c6d2af4","system_id":"levelo_inurba_marseille","lat":43.305706,"lon":5.365654,"is_reserved":false,"is_disabled":false,"rental_uris":{"android":"levelo://app?vid=967614b9-1dcf-458a-a8fd-55a77c6d2af4","ios":"levelo://app?vid=967614b9-1dcf-458a-a8fd-55a77c6d2af4"},"vehicle_type_id":"4","last_reported":1711145180,"current_range_meters":6000,"station_id":"ce4bgs12rcd13ifvqcag","pricing_plan_id":"cebpf4jnsgd1na2vs0mg"},{"bike_id":"29470177-ed31-4f46-af6e-68938ef2a6a9","system_id":"levelo_inurba_marseille","lat":43.305706,"lon":5.365654,"is_reserved":false,"is_disabled":false,"rental_uris":{"android":"levelo://app?vid=29470177-ed31-4f46-af6e-68938ef2a6a9","ios":"levelo://app?vid=29470177-ed31-4f46-af6e-68938ef2a6a9"},"vehicle_type_id":"4","last_reported":1711145180,"current_range_meters":28400,"station_id":"ce4bgs12rcd13ifvqcag","pricing_plan_id":"cebpf4jnsgd1na2vs0mg"},{"bike_id":"39f5066c-3613-4319-9adb-d46f36d6225f","system_id":"levelo_inurba_marseille","lat":43.318503,"lon":5.3736,"is_reserved":false,"is_disabled":false,"rental_uris":{"android":"levelo://app?vid=39f5066c-3613-4319-9adb-d46f36d6225f","ios":"levelo://app?vid=39f5066c-3613-4319-9adb-d46f36d6225f"},"vehicle_type_id":"4","last_reported":1711145180,"current_range_meters":0,"station_id":"","pricing_plan_id":"cebpf4jnsgd1na2vs0mg"},{"bike_id":"9d8ab544-36d0-46c7-9002-a696729bc05e","system_id":"levelo_inurba_marseille","lat":43.305989,"lon":5.37225,"is_reserved":false,"is_disabled":false,"rental_uris":{"android":"levelo://app?vid=9d8ab544-36d0-46c7-9002-a696729bc05e","ios":"levelo://app?vid=9d8ab544-36d0-46c7-9002-a696729bc05e"},"vehicle_type_id":"4","last_reported":1711145180,"current_range_meters":22800,"station_id":"ce4bgqh2rcd13ifvqc4g","pricing_plan_id":"cebpf4jnsgd1na2vs0mg"},{"bike_id":"e516d967-fa1d-4f99-946d-5f2f47fc4692","system_id":"levelo_inurba_marseille","lat":43.305989,"lon":5.37225,"is_reserved":false,"is_disabled":false,"rental_uris":{"android":"levelo://app?vid=e516d967-fa1d-4f99-946d-5f2f47fc4692","ios":"levelo://app?vid=e516d967-fa1d-4f99-946d-5f2f47fc4692"},"vehicle_type_id":"4","last_reported":1711145180,"current_range_meters":19600,"station_id":"ce4bgqh2rcd13ifvqc4g","pricing_plan_id":"cebpf4jnsgd1na2vs0mg"},{"bike_id":"6d2e3368-6bb6-4c06-86c4-f75b22f30fde","system_id":"levelo_inurba_marseille","lat":43.305989,"lon":5.37225,"is_reserved":false,"is_disabled":false,"rental_uris":{"android":"levelo://app?vid=6d2e3368-6bb6-4c06-86c4-f75b22f30fde","ios":"levelo://app?vid=6d2e3368-6bb6-4c06-86c4-f75b22f30fde"},"vehicle_type_id":"4","last_reported":1711145180,"current_range_meters":3200,"station_id":"ce4bgqh2rcd13ifvqc4g","pricing_plan_id":"cebpf4jnsgd1na2vs0mg"},{"bike_id":"04936e60-0ea4-4071-b362-461220b57a52","system_id":"levelo_inurba_marseille","lat":43.305989,"lon":5.37225,"is_reserved":false,"is_disabled":false,"rental_uris":{"android":"levelo://app?vid=04936e60-0ea4-4071-b362-461220b57a52","ios":"levelo://app?vid=04936e60-0ea4-4071-b362-461220b57a52"},"vehicle_type_id":"4","last_reported":1711145180,"current_range_meters":22400,"station_id":"ce4bgqh2rcd13ifvqc4g","pricing_plan_id":"cebpf4jnsgd1na2vs0mg"},{"bike_id":"a7b42004-2f4a-485a-b553-e82423b7a992","system_id":"levelo_inurba_marseille","lat":43.305989,"lon":5.37225,"is_reserved":false,"is_disabled":false,"rental_uris":{"android":"levelo://app?vid=a7b42004-2f4a-485a-b553-e82423b7a992","ios":"levelo://app?vid=a7b42004-2f4a-485a-b553-e82423b7a992"},"vehicle_type_id":"4","last_reported":1711145180,"current_range_meters":16000,"station_id":"ce4bgqh2rcd13ifvqc4g","pricing_plan_id":"cebpf4jnsgd1na2vs0mg"},{"bike_id":"9127f953-cf6f-4d27-aae4-432d9c16968a","system_id":"levelo_inurba_marseille","lat":43.305989,"lon":5.37225,"is_reserved":false,"is_disabled":false,"rental_uris":{"android":"levelo://app?vid=9127f953-cf6f-4d27-aae4-432d9c16968a","ios":"levelo://app?vid=9127f953-cf6f-4d27-aae4-432d9c16968a"},"vehicle_type_id":"4","last_reported":1711145180,"current_range_meters":4800,"station_id":"ce4bgqh2rcd13ifvqc4g","pricing_plan_id":"cebpf4jnsgd1na2vs0mg"},{"bike_id":"a35712f6-0d30-43aa-8636-1b6788e40f02","system_id":"levelo_inurba_marseille","lat":43.311125,"lon":5.377624,"is_reserved":false,"is_disabled":false,"rental_uris":{"android":"levelo://app?vid=a35712f6-0d30-43aa-8636-1b6788e40f02","ios":"levelo://app?vid=a35712f6-0d30-43aa-8636-1b6788e40f02"},"vehicle_type_id":"4","last_reported":1711145180,"current_range_meters":29600,"station_id":"ce4bgt92rcd13ifvqcg0","pricing_plan_id":"cebpf4jnsgd1na2vs0mg"},{"bike_id":"3e66d00f-33ab-4814-bcae-bc183daf1802","system_id":"levelo_inurba_marseille","lat":43.31116,"lon":5.37774,"is_reserved":false,"is_disabled":false,"rental_uris":{"android":"levelo://app?vid=3e66d00f-33ab-4814-bcae-bc183daf1802","ios":"levelo://app?vid=3e66d00f-33ab-4814-bcae-bc183daf1802"},"vehicle_type_id":"4","last_reported":1711145180,"current_range_meters":0,"station_id":"ce4bgt92rcd13ifvqcg0","pricing_plan_id":"cebpf4jnsgd1na2vs0mg"},{"bike_id":"25a6cb33-b791-4e78-a0a9-72ebd6c2a179","system_id":"levelo_inurba_marseille","lat":43.311131,"lon":5.377651,"is_reserved":false,"is_disabled":false,"rental_uris":{"android":"levelo://app?vid=25a6cb33-b791-4e78-a0a9-72ebd6c2a179","ios":"levelo://app?vid=25a6cb33-b791-4e78-a0a9-72ebd6c2a179"},"vehicle_type_id":"4","last_reported":1711145180,"current_range_meters":0,"station_id":"ce4bgt92rcd13ifvqcg0","pricing_plan_id":"cebpf4jnsgd1na2vs0mg"},{"bike_id":"f99b7744-1228-4377-af00-1419600088a5","system_id":"levelo_inurba_marseille","lat":43.304821,"lon":5.369561,"is_reserved":false,"is_disabled":false,"rental_uris":{"android":"levelo://app?vid=f99b7744-1228-4377-af00-1419600088a5","ios":"levelo://app?vid=f99b7744-1228-4377-af00-1419600088a5"},"vehicle_type_id":"4","last_reported":1711145180,"current_range_meters":9200,"station_id":"","pricing_plan_id":"cebpf4jnsgd1na2vs0mg"},{"bike_id":"b916e65d-9470-4670-a63f-7acc05595928","system_id":"levelo_inurba_marseille","lat":43.319295,"lon":5.373845,"is_reserved":false,"is_disabled":false,"rental_uris":{"android":"levelo://app?vid=b916e65d-9470-4670-a63f-7acc05595928","ios":"levelo://app?vid=b916e65d-9470-4670-a63f-7acc05595928"},"vehicle_type_id":"4","last_reported":1711145180,"current_range_meters":28400,"station_id":"","pricing_plan_id":"cebpf4jnsgd1na2vs0mg"},{"bike_id":"d1db2c6f-da39-4b99-a3f6-708f90b31a4c","system_id":"levelo_inurba_marseille","lat":43.307945,"lon":5.376487,"is_reserved":false,"is_disabled":false,"rental_uris":{"android":"levelo://app?vid=d1db2c6f-da39-4b99-a3f6-708f90b31a4c","ios":"levelo://app?vid=d1db2c6f-da39-4b99-a3f6-708f90b31a4c"},"vehicle_type_id":"4","last_reported":1711145180,"current_range_meters":0,"station_id":"ce4bgv92rcd13ifvqcq0","pricing_plan_id":"cebpf4jnsgd1na2vs0mg"},{"bike_id":"a91dbcf1-0e34-4f65-8a40-b40bd17744df","system_id":"levelo_inurba_marseille","lat":43.30312,"lon":5.36901,"is_reserved":false,"is_disabled":false,"rental_uris":{"android":"levelo://app?vid=a91dbcf1-0e34-4f65-8a40-b40bd17744df","ios":"levelo://app?vid=a91dbcf1-0e34-4f65-8a40-b40bd17744df"},"vehicle_type_id":"4","last_reported":1711145180,"current_range_meters":0,"station_id":"ce4bgqh2rcd13ifvqc5g","pricing_plan_id":"cebpf4jnsgd1na2vs0mg"},{"bike_id":"d2f10793-2ee1-42c6-85b5-78fd5b6d885c","system_id":"levelo_inurba_marseille","lat":43.315293,"lon":5.380349,"is_reserved":false,"is_disabled":false,"rental_uris":{"android":"levelo://app?vid=d2f10793-2ee1-42c6-85b5-78fd5b6d885c","ios":"levelo://app?vid=d2f10793-2ee1-42c6-85b5-78fd5b6d885c"},"vehicle_type_id":"4","last_reported":1711145180,"current_range_meters":16800,"station_id":"ce4bhsp2rcd13ifvqi50","pricing_plan_id":"cebpf4jnsgd1na2vs0mg"},{"bike_id":"3ee78cac-a08a-499b-bc1e-ba07db9ba7d4","system_id":"levelo_inurba_marseille","lat":43.314007,"lon":5.380906,"is_reserved":false,"is_disabled":false,"rental_uris":{"android":"levelo://app?vid=3ee78cac-a08a-499b-bc1e-ba07db9ba7d4","ios":"levelo://app?vid=3ee78cac-a08a-499b-bc1e-ba07db9ba7d4"},"vehicle_type_id":"4","last_reported":1711145180,"current_range_meters":0,"station_id":"","pricing_plan_id":"cebpf4jnsgd1na2vs0mg"},{"bike_id":"ba429125-5883-49d6-ab19-5fdce007bb42","system_id":"levelo_inurba_marseille","lat":43.301939,"lon":5.366286,"is_reserved":false,"is_disabled":false,"rental_uris":{"android":"levelo://app?vid=ba429125-5883-49d6-ab19-5fdce007bb42","ios":"levelo://app?vid=ba429125-5883-49d6-ab19-5fdce007bb42"},"vehicle_type_id":"4","last_reported":1711145180,"current_range_meters":13600,"station_id":"ce4bgrh2rcd13ifvqc8g","pricing_plan_id":"cebpf4jnsgd1na2vs0mg"},{"bike_id":"53c458bb-7364-4cc4-9dbc-a3aa533434fe","system_id":"levelo_inurba_marseille","lat":43.308012,"lon":5.381511,"is_reserved":false,"is_disabled":false,"rental_uris":{"android":"levelo://app?vid=53c458bb-7364-4cc4-9dbc-a3aa533434fe","ios":"levelo://app?vid=53c458bb-7364-4cc4-9dbc-a3aa533434fe"},"vehicle_type_id":"4","last_reported":1711145180,"current_range_meters":29200,"station_id":"ce4bgt12rcd13ifvqce0","pricing_plan_id":"cebpf4jnsgd1na2vs0mg"},{"bike_id":"884ba2ca-1eeb-4bd1-82a8-81550540b58e","system_id":"levelo_inurba_marseille","lat":43.30796,"lon":5.38161,"is_reserved":false,"is_disabled":false,"rental_uris":{"android":"levelo://app?vid=884ba2ca-1eeb-4bd1-82a8-81550540b58e","ios":"levelo://app?vid=884ba2ca-1eeb-4bd1-82a8-81550540b58e"},"vehicle_type_id":"4","last_reported":1711145180,"current_range_meters":2400,"station_id":"ce4bgt12rcd13ifvqce0","pricing_plan_id":"cebpf4jnsgd1na2vs0mg"},{"bike_id":"fc603db4-67ab-4463-8107-e8cf21d91ac1","system_id":"levelo_inurba_marseille","lat":43.308012,"lon":5.381511,"is_reserved":false,"is_disabled":false,"rental_uris":{"android":"levelo://app?vid=fc603db4-67ab-4463-8107-e8cf21d91ac1","ios":"levelo://app?vid=fc603db4-67ab-4463-8107-e8cf21d91ac1"},"vehicle_type_id":"4","last_reported":1711145180,"current_range_meters":2800,"station_id":"ce4bgt12rcd13ifvqce0","pricing_plan_id":"cebpf4jnsgd1na2vs0mg"},{"bike_id":"e5ae6698-6b32-409b-af29-cca622ddf180","system_id":"levelo_inurba_marseille","lat":43.308,"lon":5.381657,"is_reserved":false,"is_disabled":false,"rental_uris":{"android":"levelo://app?vid=e5ae6698-6b32-409b-af29-cca622ddf180","ios":"levelo://app?vid=e5ae6698-6b32-409b-af29-cca622ddf180"},"vehicle_type_id":"4","last_reported":1711145180,"current_range_meters":0,"station_id":"ce4bgt12rcd13ifvqce0","pricing_plan_id":"cebpf4jnsgd1na2vs0mg"},{"bike_id":"347eb5a0-30b3-4fb1-98b2-54856fda2e6f","system_id":"levelo_inurba_marseille","lat":43.308012,"lon":5.381511,"is_reserved":false,"is_disabled":false,"rental_uris":{"android":"levelo://app?vid=347eb5a0-30b3-4fb1-98b2-54856fda2e6f","ios":"levelo://app?vid=347eb5a0-30b3-4fb1-98b2-54856fda2e6f"},"vehicle_type_id":"4","last_reported":1711145180,"current_range_meters":0,"station_id":"ce4bgt12rcd13ifvqce0","pricing_plan_id":"cebpf4jnsgd1na2vs0mg"},{"bike_id":"2010c325-eb25-4209-a17f-e45a1e50a818","system_id":"levelo_inurba_marseille","lat":43.308012,"lon":5.381511,"is_reserved":false,"is_disabled":false,"rental_uris":{"android":"levelo://app?vid=2010c325-eb25-4209-a17f-e45a1e50a818","ios":"levelo://app?vid=2010c325-eb25-4209-a17f-e45a1e50a818"},"vehicle_type_id":"4","last_reported":1711145180,"current_range_meters":0,"station_id":"ce4bgt12rcd13ifvqce0","pricing_plan_id":"cebpf4jnsgd1na2vs0mg"},{"bike_id":"b05a3846-6f8f-4476-97cf-6035ad63f573","system_id":"levelo_inurba_marseille","lat":43.304606,"lon":5.379026,"is_reserved":false,"is_disabled":false,"rental_uris":{"android":"levelo://app?vid=b05a3846-6f8f-4476-97cf-6035ad63f573","ios":"levelo://app?vid=b05a3846-6f8f-4476-97cf-6035ad63f573"},"vehicle_type_id":"4","last_reported":1711145180,"current_range_meters":0,"station_id":"ce4bgup2rcd13ifvqcn0","pricing_plan_id":"cebpf4jnsgd1na2vs0mg"},{"bike_id":"213dbd6d-486b-44cf-a5af-31eb183e98ad","system_id":"levelo_inurba_marseille","lat":43.304636,"lon":5.378978,"is_reserved":false,"is_disabled":false,"rental_uris":{"android":"levelo://app?vid=213dbd6d-486b-44cf-a5af-31eb183e98ad","ios":"levelo://app?vid=213dbd6d-486b-44cf-a5af-31eb183e98ad"},"vehicle_type_id":"4","last_reported":1711145180,"current_range_meters":0,"station_id":"ce4bgup2rcd13ifvqcn0","pricing_plan_id":"cebpf4jnsgd1na2vs0mg"},{"bike_id":"0d90676e-a45f-4d6b-ba2a-f981f4581825","system_id":"levelo_inurba_marseille","lat":43.304606,"lon":5.379026,"is_reserved":false,"is_disabled":false,"rental_uris":{"android":"levelo://app?vid=0d90676e-a45f-4d6b-ba2a-f981f4581825","ios":"levelo://app?vid=0d90676e-a45f-4d6b-ba2a-f981f4581825"},"vehicle_type_id":"4","last_reported":1711145180,"current_range_meters":0,"station_id":"ce4bgup2rcd13ifvqcn0","pricing_plan_id":"cebpf4jnsgd1na2vs0mg"},{"bike_id":"30a33411-85a6-4354-bc73-13e675a74716","system_id":"levelo_inurba_marseille","lat":43.304606,"lon":5.379026,"is_reserved":false,"is_disabled":false,"rental_uris":{"android":"levelo://app?vid=30a33411-85a6-4354-bc73-13e675a74716","ios":"levelo://app?vid=30a33411-85a6-4354-bc73-13e675a74716"},"vehicle_type_id":"4","last_reported":1711145180,"current_range_meters":0,"station_id":"ce4bgup2rcd13ifvqcn0","pricing_plan_id":"cebpf4jnsgd1na2vs0mg"},{"bike_id":"b88553c7-39de-4a84-8d1f-6c11f9d43ddb","system_id":"levelo_inurba_marseille","lat":43.324771,"lon":5.36557,"is_reserved":false,"is_disabled":false,"rental_uris":{"android":"levelo://app?vid=b88553c7-39de-4a84-8d1f-6c11f9d43ddb","ios":"levelo://app?vid=b88553c7-39de-4a84-8d1f-6c11f9d43ddb"},"vehicle_type_id":"4","last_reported":1711145180,"current_range_meters":6800,"station_id":"ce4bhs12rcd13ifvqhvg","pricing_plan_id":"cebpf4jnsgd1na2vs0mg"},{"bike_id":"d7bbf469-0702-482a-9065-81a731bc5d18","system_id":"levelo_inurba_marseille","lat":43.324771,"lon":5.36557,"is_reserved":false,"is_disabled":false,"rental_uris":{"android":"levelo://app?vid=d7bbf469-0702-482a-9065-81a731bc5d18","ios":"levelo://app?vid=d7bbf469-0702-482a-9065-81a731bc5d18"},"vehicle_type_id":"4","last_reported":1711145180,"current_range_meters":6000,"station_id":"ce4bhs12rcd13ifvqhvg","pricing_plan_id":"cebpf4jnsgd1na2vs0mg"},{"bike_id":"49b4b39e-d044-4993-8f63-d33a7cae5419","system_id":"levelo_inurba_marseille","lat":43.324771,"lon":5.36557,"is_reserved":false,"is_disabled":false,"rental_uris":{"android":"levelo://app?vid=49b4b39e-d044-4993-8f63-d33a7cae5419","ios":"levelo://app?vid=49b4b39e-d044-4993-8f63-d33a7cae5419"},"vehicle_type_id":"4","last_reported":1711145180,"current_range_meters":16000,"station_id":"ce4bhs12rcd13ifvqhvg","pricing_plan_id":"cebpf4jnsgd1na2vs0mg"},{"bike_id":"fa05d3e5-f409-4e05-ace7-f6f819e528e8","system_id":"levelo_inurba_marseille","lat":43.324771,"lon":5.36557,"is_reserved":false,"is_disabled":false,"rental_uris":{"android":"levelo://app?vid=fa05d3e5-f409-4e05-ace7-f6f819e528e8","ios":"levelo://app?vid=fa05d3e5-f409-4e05-ace7-f6f819e528e8"},"vehicle_type_id":"4","last_reported":1711145180,"current_range_meters":8000,"station_id":"ce4bhs12rcd13ifvqhvg","pricing_plan_id":"cebpf4jnsgd1na2vs0mg"},{"bike_id":"7fcb8c97-c9fd-45d4-9c25-ad6a579af89c","system_id":"levelo_inurba_marseille","lat":43.310804,"lon":5.38359,"is_reserved":false,"is_disabled":false,"rental_uris":{"android":"levelo://app?vid=7fcb8c97-c9fd-45d4-9c25-ad6a579af89c","ios":"levelo://app?vid=7fcb8c97-c9fd-45d4-9c25-ad6a579af89c"},"vehicle_type_id":"4","last_reported":1711145180,"current_range_meters":0,"station_id":"ce4bgv92rcd13ifvqcr0","pricing_plan_id":"cebpf4jnsgd1na2vs0mg"},{"bike_id":"96bacb54-3260-425d-a7c4-2cd78c67fe7c","system_id":"levelo_inurba_marseille","lat":43.310804,"lon":5.38359,"is_reserved":false,"is_disabled":false,"rental_uris":{"android":"levelo://app?vid=96bacb54-3260-425d-a7c4-2cd78c67fe7c","ios":"levelo://app?vid=96bacb54-3260-425d-a7c4-2cd78c67fe7c"},"vehicle_type_id":"4","last_reported":1711145180,"current_range_meters":8000,"station_id":"ce4bgv92rcd13ifvqcr0","pricing_plan_id":"cebpf4jnsgd1na2vs0mg"},{"bike_id":"1b529240-6960-439c-b147-5fe3c907faae","system_id":"levelo_inurba_marseille","lat":43.310804,"lon":5.38359,"is_reserved":false,"is_disabled":false,"rental_uris":{"android":"levelo://app?vid=1b529240-6960-439c-b147-5fe3c907faae","ios":"levelo://app?vid=1b529240-6960-439c-b147-5fe3c907faae"},"vehicle_type_id":"4","last_reported":1711145180,"current_range_meters":5200,"station_id":"ce4bgv92rcd13ifvqcr0","pricing_plan_id":"cebpf4jnsgd1na2vs0mg"},{"bike_id":"221cc5ea-07dc-4942-8f8d-8a82205635ad","system_id":"levelo_inurba_marseille","lat":43.302856,"lon":5.376891,"is_reserved":false,"is_disabled":false,"rental_uris":{"android":"levelo://app?vid=221cc5ea-07dc-4942-8f8d-8a82205635ad","ios":"levelo://app?vid=221cc5ea-07dc-4942-8f8d-8a82205635ad"},"vehicle_type_id":"4","last_reported":1711145180,"current_range_meters":0,"station_id":"ce4bguh2rcd13ifvqcj0","pricing_plan_id":"cebpf4jnsgd1na2vs0mg"},{"bike_id":"23c7f573-db09-4d0c-be99-0e0b2292c05f","system_id":"levelo_inurba_marseille","lat":43.310804,"lon":5.38359,"is_reserved":false,"is_disabled":false,"rental_uris":{"android":"levelo://app?vid=23c7f573-db09-4d0c-be99-0e0b2292c05f","ios":"levelo://app?vid=23c7f573-db09-4d0c-be99-0e0b2292c05f"},"vehicle_type_id":"4","last_reported":1711145180,"current_range_meters":23600,"station_id":"ce4bgv92rcd13ifvqcr0","pricing_plan_id":"cebpf4jnsgd1na2vs0mg"},{"bike_id":"51cf7e45-28c0-4622-b4ee-e1cea3fdf4ca","system_id":"levelo_inurba_marseille","lat":43.3107,"lon":5.38358,"is_reserved":false,"is_disabled":false,"rental_uris":{"android":"levelo://app?vid=51cf7e45-28c0-4622-b4ee-e1cea3fdf4ca","ios":"levelo://app?vid=51cf7e45-28c0-4622-b4ee-e1cea3fdf4ca"},"vehicle_type_id":"4","last_reported":1711145180,"current_range_meters":0,"station_id":"ce4bgv92rcd13ifvqcr0","pricing_plan_id":"cebpf4jnsgd1na2vs0mg"},{"bike_id":"8974d7df-de19-42e1-89d5-c407fd7b76d0","system_id":"levelo_inurba_marseille","lat":43.302784,"lon":5.377158,"is_reserved":false,"is_disabled":false,"rental_uris":{"android":"levelo://app?vid=8974d7df-de19-42e1-89d5-c407fd7b76d0","ios":"levelo://app?vid=8974d7df-de19-42e1-89d5-c407fd7b76d0"},"vehicle_type_id":"4","last_reported":1711145180,"current_range_meters":12400,"station_id":"ce4bguh2rcd13ifvqcj0","pricing_plan_id":"cebpf4jnsgd1na2vs0mg"},{"bike_id":"62a125a0-b198-4583-a475-45da934d00cf","system_id":"levelo_inurba_marseille","lat":43.310804,"lon":5.38359,"is_reserved":false,"is_disabled":false,"rental_uris":{"android":"levelo://app?vid=62a125a0-b198-4583-a475-45da934d00cf","ios":"levelo://app?vid=62a125a0-b198-4583-a475-45da934d00cf"},"vehicle_type_id":"4","last_reported":1711145180,"current_range_meters":0,"station_id":"ce4bgv92rcd13ifvqcr0","pricing_plan_id":"cebpf4jnsgd1na2vs0mg"},{"bike_id":"875a3f9b-fbaa-4b2c-8ed5-eccc5b835890","system_id":"levelo_inurba_marseille","lat":43.302784,"lon":5.377158,"is_reserved":false,"is_disabled":false,"rental_uris":{"android":"levelo://app?vid=875a3f9b-fbaa-4b2c-8ed5-eccc5b835890","ios":"levelo://app?vid=875a3f9b-fbaa-4b2c-8ed5-eccc5b835890"},"vehicle_type_id":"4","last_reported":1711145180,"current_range_meters":12800,"station_id":"ce4bguh2rcd13ifvqcj0","pricing_plan_id":"cebpf4jnsgd1na2vs0mg"},{"bike_id":"8f702da4-f1a0-4322-8790-7179c2603c9d","system_id":"levelo_inurba_marseille","lat":43.301429,"lon":5.37413,"is_reserved":false,"is_disabled":false,"rental_uris":{"android":"levelo://app?vid=8f702da4-f1a0-4322-8790-7179c2603c9d","ios":"levelo://app?vid=8f702da4-f1a0-4322-8790-7179c2603c9d"},"vehicle_type_id":"4","last_reported":1711145180,"current_range_meters":31200,"station_id":"ce4bgs92rcd13ifvqcc0","pricing_plan_id":"cebpf4jnsgd1na2vs0mg"},{"bike_id":"8a8f7dde-83e6-4653-829f-7986aacc4673","system_id":"levelo_inurba_marseille","lat":43.30143,"lon":5.37413,"is_reserved":false,"is_disabled":false,"rental_uris":{"android":"levelo://app?vid=8a8f7dde-83e6-4653-829f-7986aacc4673","ios":"levelo://app?vid=8a8f7dde-83e6-4653-829f-7986aacc4673"},"vehicle_type_id":"4","last_reported":1711145180,"current_range_meters":12800,"station_id":"ce4bgs92rcd13ifvqcc0","pricing_plan_id":"cebpf4jnsgd1na2vs0mg"},{"bike_id":"db5659b0-011e-4647-a153-c1ecabb66e44","system_id":"levelo_inurba_marseille","lat":43.30143,"lon":5.37413,"is_reserved":false,"is_disabled":false,"rental_uris":{"android":"levelo://app?vid=db5659b0-011e-4647-a153-c1ecabb66e44","ios":"levelo://app?vid=db5659b0-011e-4647-a153-c1ecabb66e44"},"vehicle_type_id":"4","last_reported":1711145180,"current_range_meters":18400,"station_id":"ce4bgs92rcd13ifvqcc0","pricing_plan_id":"cebpf4jnsgd1na2vs0mg"},{"bike_id":"c760e104-953a-4ca0-8811-45145262bdb0","system_id":"levelo_inurba_marseille","lat":43.301429,"lon":5.37413,"is_reserved":false,"is_disabled":false,"rental_uris":{"android":"levelo://app?vid=c760e104-953a-4ca0-8811-45145262bdb0","ios":"levelo://app?vid=c760e104-953a-4ca0-8811-45145262bdb0"},"vehicle_type_id":"4","last_reported":1711145180,"current_range_meters":29600,"station_id":"ce4bgs92rcd13ifvqcc0","pricing_plan_id":"cebpf4jnsgd1na2vs0mg"},{"bike_id":"3963ac52-515b-489a-b793-5805a2733e08","system_id":"levelo_inurba_marseille","lat":43.301429,"lon":5.37413,"is_reserved":false,"is_disabled":false,"rental_uris":{"android":"levelo://app?vid=3963ac52-515b-489a-b793-5805a2733e08","ios":"levelo://app?vid=3963ac52-515b-489a-b793-5805a2733e08"},"vehicle_type_id":"4","last_reported":1711145180,"current_range_meters":24000,"station_id":"ce4bgs92rcd13ifvqcc0","pricing_plan_id":"cebpf4jnsgd1na2vs0mg"},{"bike_id":"07decf62-ea6d-4840-a464-5dc9ef171914","system_id":"levelo_inurba_marseille","lat":43.30143,"lon":5.37413,"is_reserved":false,"is_disabled":false,"rental_uris":{"android":"levelo://app?vid=07decf62-ea6d-4840-a464-5dc9ef171914","ios":"levelo://app?vid=07decf62-ea6d-4840-a464-5dc9ef171914"},"vehicle_type_id":"4","last_reported":1711145180,"current_range_meters":12000,"station_id":"ce4bgs92rcd13ifvqcc0","pricing_plan_id":"cebpf4jnsgd1na2vs0mg"},{"bike_id":"63a759b2-94ba-4431-bc17-b7f6dfcaf889","system_id":"levelo_inurba_marseille","lat":43.301429,"lon":5.37413,"is_reserved":false,"is_disabled":false,"rental_uris":{"android":"levelo://app?vid=63a759b2-94ba-4431-bc17-b7f6dfcaf889","ios":"levelo://app?vid=63a759b2-94ba-4431-bc17-b7f6dfcaf889"},"vehicle_type_id":"4","last_reported":1711145180,"current_range_meters":20800,"station_id":"ce4bgs92rcd13ifvqcc0","pricing_plan_id":"cebpf4jnsgd1na2vs0mg"},{"bike_id":"4121f503-109e-4e95-90c6-1b24bee47a7b","system_id":"levelo_inurba_marseille","lat":43.30143,"lon":5.37413,"is_reserved":false,"is_disabled":false,"rental_uris":{"android":"levelo://app?vid=4121f503-109e-4e95-90c6-1b24bee47a7b","ios":"levelo://app?vid=4121f503-109e-4e95-90c6-1b24bee47a7b"},"vehicle_type_id":"4","last_reported":1711145180,"current_range_meters":3600,"station_id":"ce4bgs92rcd13ifvqcc0","pricing_plan_id":"cebpf4jnsgd1na2vs0mg"},{"bike_id":"3b059a15-8770-45ac-9343-7593b2a46262","system_id":"levelo_inurba_marseille","lat":43.301429,"lon":5.37413,"is_reserved":false,"is_disabled":false,"rental_uris":{"android":"levelo://app?vid=3b059a15-8770-45ac-9343-7593b2a46262","ios":"levelo://app?vid=3b059a15-8770-45ac-9343-7593b2a46262"},"vehicle_type_id":"4","last_reported":1711145180,"current_range_meters":29600,"station_id":"ce4bgs92rcd13ifvqcc0","pricing_plan_id":"cebpf4jnsgd1na2vs0mg"},{"bike_id":"be83824f-cd7e-44ed-bda3-89905b40ab1f","system_id":"levelo_inurba_marseille","lat":43.319935,"lon":5.381544,"is_reserved":false,"is_disabled":false,"rental_uris":{"android":"levelo://app?vid=be83824f-cd7e-44ed-bda3-89905b40ab1f","ios":"levelo://app?vid=be83824f-cd7e-44ed-bda3-89905b40ab1f"},"vehicle_type_id":"4","last_reported":1711145180,"current_range_meters":19200,"station_id":"ce4bhr12rcd13ifvqhpg","pricing_plan_id":"cebpf4jnsgd1na2vs0mg"},{"bike_id":"2746e4ce-a658-45f4-9a39-b42f04bcb9e6","system_id":"levelo_inurba_marseille","lat":43.313571,"lon":5.384829,"is_reserved":false,"is_disabled":false,"rental_uris":{"android":"levelo://app?vid=2746e4ce-a658-45f4-9a39-b42f04bcb9e6","ios":"levelo://app?vid=2746e4ce-a658-45f4-9a39-b42f04bcb9e6"},"vehicle_type_id":"4","last_reported":1711145180,"current_range_meters":4400,"station_id":"ce4bgt92rcd13ifvqcf0","pricing_plan_id":"cebpf4jnsgd1na2vs0mg"},{"bike_id":"8400a856-1235-404e-aeb2-971bb0b34e0f","system_id":"levelo_inurba_marseille","lat":43.313571,"lon":5.384829,"is_reserved":false,"is_disabled":false,"rental_uris":{"android":"levelo://app?vid=8400a856-1235-404e-aeb2-971bb0b34e0f","ios":"levelo://app?vid=8400a856-1235-404e-aeb2-971bb0b34e0f"},"vehicle_type_id":"4","last_reported":1711145180,"current_range_meters":3200,"station_id":"ce4bgt92rcd13ifvqcf0","pricing_plan_id":"cebpf4jnsgd1na2vs0mg"},{"bike_id":"2a2e70c0-d2f3-40db-bf4c-9230c89b10a6","system_id":"levelo_inurba_marseille","lat":43.313571,"lon":5.384829,"is_reserved":false,"is_disabled":false,"rental_uris":{"android":"levelo://app?vid=2a2e70c0-d2f3-40db-bf4c-9230c89b10a6","ios":"levelo://app?vid=2a2e70c0-d2f3-40db-bf4c-9230c89b10a6"},"vehicle_type_id":"4","last_reported":1711145180,"current_range_meters":6000,"station_id":"ce4bgt92rcd13ifvqcf0","pricing_plan_id":"cebpf4jnsgd1na2vs0mg"},{"bike_id":"614621d0-430a-41a1-b076-fbf9597a2a73","system_id":"levelo_inurba_marseille","lat":43.313571,"lon":5.384829,"is_reserved":false,"is_disabled":false,"rental_uris":{"android":"levelo://app?vid=614621d0-430a-41a1-b076-fbf9597a2a73","ios":"levelo://app?vid=614621d0-430a-41a1-b076-fbf9597a2a73"},"vehicle_type_id":"4","last_reported":1711145180,"current_range_meters":22400,"station_id":"ce4bgt92rcd13ifvqcf0","pricing_plan_id":"cebpf4jnsgd1na2vs0mg"},{"bike_id":"59335938-59ec-42e8-a237-dcc0607d6057","system_id":"levelo_inurba_marseille","lat":43.313571,"lon":5.384829,"is_reserved":false,"is_disabled":false,"rental_uris":{"android":"levelo://app?vid=59335938-59ec-42e8-a237-dcc0607d6057","ios":"levelo://app?vid=59335938-59ec-42e8-a237-dcc0607d6057"},"vehicle_type_id":"4","last_reported":1711145180,"current_range_meters":3200,"station_id":"ce4bgt92rcd13ifvqcf0","pricing_plan_id":"cebpf4jnsgd1na2vs0mg"},{"bike_id":"59a09679-aa2b-46f7-b843-73e65c45b028","system_id":"levelo_inurba_marseille","lat":43.313571,"lon":5.384829,"is_reserved":false,"is_disabled":false,"rental_uris":{"android":"levelo://app?vid=59a09679-aa2b-46f7-b843-73e65c45b028","ios":"levelo://app?vid=59a09679-aa2b-46f7-b843-73e65c45b028"},"vehicle_type_id":"4","last_reported":1711145180,"current_range_meters":22000,"station_id":"ce4bgt92rcd13ifvqcf0","pricing_plan_id":"cebpf4jnsgd1na2vs0mg"},{"bike_id":"d8cfabf0-9834-4990-bcc4-675044ce7a41","system_id":"levelo_inurba_marseille","lat":43.29985,"lon":5.37184,"is_reserved":false,"is_disabled":false,"rental_uris":{"android":"levelo://app?vid=d8cfabf0-9834-4990-bcc4-675044ce7a41","ios":"levelo://app?vid=d8cfabf0-9834-4990-bcc4-675044ce7a41"},"vehicle_type_id":"4","last_reported":1711145180,"current_range_meters":0,"station_id":"ce4bgr92rcd13ifvqc7g","pricing_plan_id":"cebpf4jnsgd1na2vs0mg"},{"bike_id":"3bcfc345-dc9e-43b9-8472-f739306ede39","system_id":"levelo_inurba_marseille","lat":43.2994,"lon":5.36549,"is_reserved":false,"is_disabled":false,"rental_uris":{"android":"levelo://app?vid=3bcfc345-dc9e-43b9-8472-f739306ede39","ios":"levelo://app?vid=3bcfc345-dc9e-43b9-8472-f739306ede39"},"vehicle_type_id":"4","last_reported":1711145180,"current_range_meters":3200,"station_id":"ce4bgm92rcd13ifvqbr0","pricing_plan_id":"cebpf4jnsgd1na2vs0mg"},{"bike_id":"e18ace82-baea-45ce-980c-cd015f87518f","system_id":"levelo_inurba_marseille","lat":43.29936,"lon":5.36552,"is_reserved":false,"is_disabled":false,"rental_uris":{"android":"levelo://app?vid=e18ace82-baea-45ce-980c-cd015f87518f","ios":"levelo://app?vid=e18ace82-baea-45ce-980c-cd015f87518f"},"vehicle_type_id":"4","last_reported":1711145180,"current_range_meters":0,"station_id":"ce4bgm92rcd13ifvqbr0","pricing_plan_id":"cebpf4jnsgd1na2vs0mg"},{"bike_id":"7b3b8b33-5e1c-4418-9d62-0e726e5e4f01","system_id":"levelo_inurba_marseille","lat":43.299222,"lon":5.365554,"is_reserved":false,"is_disabled":false,"rental_uris":{"android":"levelo://app?vid=7b3b8b33-5e1c-4418-9d62-0e726e5e4f01","ios":"levelo://app?vid=7b3b8b33-5e1c-4418-9d62-0e726e5e4f01"},"vehicle_type_id":"4","last_reported":1711145180,"current_range_meters":7200,"station_id":"ce4bgm92rcd13ifvqbr0","pricing_plan_id":"cebpf4jnsgd1na2vs0mg"},{"bike_id":"a68f5bb8-1469-4666-baf8-13fa120a87de","system_id":"levelo_inurba_marseille","lat":43.299222,"lon":5.365554,"is_reserved":false,"is_disabled":false,"rental_uris":{"android":"levelo://app?vid=a68f5bb8-1469-4666-baf8-13fa120a87de","ios":"levelo://app?vid=a68f5bb8-1469-4666-baf8-13fa120a87de"},"vehicle_type_id":"4","last_reported":1711145180,"current_range_meters":5200,"station_id":"ce4bgm92rcd13ifvqbr0","pricing_plan_id":"cebpf4jnsgd1na2vs0mg"},{"bike_id":"d9747c2a-3174-4494-abb0-b720d57f754a","system_id":"levelo_inurba_marseille","lat":43.29853,"lon":5.36289,"is_reserved":false,"is_disabled":false,"rental_uris":{"android":"levelo://app?vid=d9747c2a-3174-4494-abb0-b720d57f754a","ios":"levelo://app?vid=d9747c2a-3174-4494-abb0-b720d57f754a"},"vehicle_type_id":"4","last_reported":1711145180,"current_range_meters":0,"station_id":"ce4bgpp2rcd13ifvqc3g","pricing_plan_id":"cebpf4jnsgd1na2vs0mg"},{"bike_id":"21f9f2dc-402e-42bf-ba50-550a7976221b","system_id":"levelo_inurba_marseille","lat":43.29849,"lon":5.36294,"is_reserved":false,"is_disabled":false,"rental_uris":{"android":"levelo://app?vid=21f9f2dc-402e-42bf-ba50-550a7976221b","ios":"levelo://app?vid=21f9f2dc-402e-42bf-ba50-550a7976221b"},"vehicle_type_id":"4","last_reported":1711145180,"current_range_meters":9200,"station_id":"ce4bgpp2rcd13ifvqc3g","pricing_plan_id":"cebpf4jnsgd1na2vs0mg"},{"bike_id":"038c7ecb-447b-4deb-a909-8638f1dafa75","system_id":"levelo_inurba_marseille","lat":43.298433,"lon":5.362774,"is_reserved":false,"is_disabled":false,"rental_uris":{"android":"levelo://app?vid=038c7ecb-447b-4deb-a909-8638f1dafa75","ios":"levelo://app?vid=038c7ecb-447b-4deb-a909-8638f1dafa75"},"vehicle_type_id":"4","last_reported":1711145180,"current_range_meters":800,"station_id":"ce4bgpp2rcd13ifvqc3g","pricing_plan_id":"cebpf4jnsgd1na2vs0mg"},{"bike_id":"4f2e971b-384d-4955-9aa3-2aed329e3ab6","system_id":"levelo_inurba_marseille","lat":43.298433,"lon":5.362774,"is_reserved":false,"is_disabled":false,"rental_uris":{"android":"levelo://app?vid=4f2e971b-384d-4955-9aa3-2aed329e3ab6","ios":"levelo://app?vid=4f2e971b-384d-4955-9aa3-2aed329e3ab6"},"vehicle_type_id":"4","last_reported":1711145180,"current_range_meters":10800,"station_id":"ce4bgpp2rcd13ifvqc3g","pricing_plan_id":"cebpf4jnsgd1na2vs0mg"},{"bike_id":"51a683c7-7c00-4779-acb5-ea69f70f9161","system_id":"levelo_inurba_marseille","lat":43.305364,"lon":5.384119,"is_reserved":false,"is_disabled":false,"rental_uris":{"android":"levelo://app?vid=51a683c7-7c00-4779-acb5-ea69f70f9161","ios":"levelo://app?vid=51a683c7-7c00-4779-acb5-ea69f70f9161"},"vehicle_type_id":"4","last_reported":1711145180,"current_range_meters":4800,"station_id":"ce4bgg92rcd13ifvqb30","pricing_plan_id":"cebpf4jnsgd1na2vs0mg"},{"bike_id":"9e97ca32-47d3-49f0-80e7-d1e2680204b7","system_id":"levelo_inurba_marseille","lat":43.299243,"lon":5.374807,"is_reserved":false,"is_disabled":false,"rental_uris":{"android":"levelo://app?vid=9e97ca32-47d3-49f0-80e7-d1e2680204b7","ios":"levelo://app?vid=9e97ca32-47d3-49f0-80e7-d1e2680204b7"},"vehicle_type_id":"4","last_reported":1711145180,"current_range_meters":0,"station_id":"ce4bgjh2rcd13ifvqbg0","pricing_plan_id":"cebpf4jnsgd1na2vs0mg"},{"bike_id":"12d2d251-cf2e-4192-b66d-731ed6a8fc89","system_id":"levelo_inurba_marseille","lat":43.299243,"lon":5.374807,"is_reserved":false,"is_disabled":false,"rental_uris":{"android":"levelo://app?vid=12d2d251-cf2e-4192-b66d-731ed6a8fc89","ios":"levelo://app?vid=12d2d251-cf2e-4192-b66d-731ed6a8fc89"},"vehicle_type_id":"4","last_reported":1711145180,"current_range_meters":26800,"station_id":"ce4bgjh2rcd13ifvqbg0","pricing_plan_id":"cebpf4jnsgd1na2vs0mg"},{"bike_id":"c2c191b0-81a1-4122-a05f-1c128b079dbe","system_id":"levelo_inurba_marseille","lat":43.299243,"lon":5.374807,"is_reserved":false,"is_disabled":false,"rental_uris":{"android":"levelo://app?vid=c2c191b0-81a1-4122-a05f-1c128b079dbe","ios":"levelo://app?vid=c2c191b0-81a1-4122-a05f-1c128b079dbe"},"vehicle_type_id":"4","last_reported":1711145180,"current_range_meters":8800,"station_id":"ce4bgjh2rcd13ifvqbg0","pricing_plan_id":"cebpf4jnsgd1na2vs0mg"},{"bike_id":"c0912a91-d216-40df-ab42-b25897e450dd","system_id":"levelo_inurba_marseille","lat":43.299243,"lon":5.37481,"is_reserved":false,"is_disabled":false,"rental_uris":{"android":"levelo://app?vid=c0912a91-d216-40df-ab42-b25897e450dd","ios":"levelo://app?vid=c0912a91-d216-40df-ab42-b25897e450dd"},"vehicle_type_id":"4","last_reported":1711145180,"current_range_meters":21200,"station_id":"ce4bgjh2rcd13ifvqbg0","pricing_plan_id":"cebpf4jnsgd1na2vs0mg"},{"bike_id":"8aeb1c08-a82e-4692-88b6-1261baf9bb96","system_id":"levelo_inurba_marseille","lat":43.299243,"lon":5.374807,"is_reserved":false,"is_disabled":false,"rental_uris":{"android":"levelo://app?vid=8aeb1c08-a82e-4692-88b6-1261baf9bb96","ios":"levelo://app?vid=8aeb1c08-a82e-4692-88b6-1261baf9bb96"},"vehicle_type_id":"4","last_reported":1711145180,"current_range_meters":22400,"station_id":"ce4bgjh2rcd13ifvqbg0","pricing_plan_id":"cebpf4jnsgd1na2vs0mg"},{"bike_id":"d5b2273b-1a7f-4ee4-82bc-551eb76f334e","system_id":"levelo_inurba_marseille","lat":43.299243,"lon":5.37481,"is_reserved":false,"is_disabled":false,"rental_uris":{"android":"levelo://app?vid=d5b2273b-1a7f-4ee4-82bc-551eb76f334e","ios":"levelo://app?vid=d5b2273b-1a7f-4ee4-82bc-551eb76f334e"},"vehicle_type_id":"4","last_reported":1711145180,"current_range_meters":13200,"station_id":"ce4bgjh2rcd13ifvqbg0","pricing_plan_id":"cebpf4jnsgd1na2vs0mg"},{"bike_id":"b27050e4-cb74-4a1d-a012-5556591fd7e0","system_id":"levelo_inurba_marseille","lat":43.305364,"lon":5.384119,"is_reserved":false,"is_disabled":false,"rental_uris":{"android":"levelo://app?vid=b27050e4-cb74-4a1d-a012-5556591fd7e0","ios":"levelo://app?vid=b27050e4-cb74-4a1d-a012-5556591fd7e0"},"vehicle_type_id":"4","last_reported":1711145180,"current_range_meters":29200,"station_id":"ce4bgg92rcd13ifvqb30","pricing_plan_id":"cebpf4jnsgd1na2vs0mg"},{"bike_id":"7b0b215a-0783-4be9-b41c-c795e04a13ad","system_id":"levelo_inurba_marseille","lat":43.311722,"lon":5.387247,"is_reserved":false,"is_disabled":false,"rental_uris":{"android":"levelo://app?vid=7b0b215a-0783-4be9-b41c-c795e04a13ad","ios":"levelo://app?vid=7b0b215a-0783-4be9-b41c-c795e04a13ad"},"vehicle_type_id":"4","last_reported":1711145180,"current_range_meters":18800,"station_id":"ce4bgv12rcd13ifvqcp0","pricing_plan_id":"cebpf4jnsgd1na2vs0mg"},{"bike_id":"422e52cb-0155-405c-9111-b60167f09a34","system_id":"levelo_inurba_marseille","lat":43.311722,"lon":5.387247,"is_reserved":false,"is_disabled":false,"rental_uris":{"android":"levelo://app?vid=422e52cb-0155-405c-9111-b60167f09a34","ios":"levelo://app?vid=422e52cb-0155-405c-9111-b60167f09a34"},"vehicle_type_id":"4","last_reported":1711145180,"current_range_meters":1200,"station_id":"ce4bgv12rcd13ifvqcp0","pricing_plan_id":"cebpf4jnsgd1na2vs0mg"},{"bike_id":"e1a06361-f80a-4caa-baf5-fe9532e6bc55","system_id":"levelo_inurba_marseille","lat":43.311722,"lon":5.387247,"is_reserved":false,"is_disabled":false,"rental_uris":{"android":"levelo://app?vid=e1a06361-f80a-4caa-baf5-fe9532e6bc55","ios":"levelo://app?vid=e1a06361-f80a-4caa-baf5-fe9532e6bc55"},"vehicle_type_id":"4","last_reported":1711145180,"current_range_meters":0,"station_id":"ce4bgv12rcd13ifvqcp0","pricing_plan_id":"cebpf4jnsgd1na2vs0mg"},{"bike_id":"d3d8d769-8eb2-4fe4-b5e5-a147d5eb9a43","system_id":"levelo_inurba_marseille","lat":43.298433,"lon":5.362774,"is_reserved":false,"is_disabled":false,"rental_uris":{"android":"levelo://app?vid=d3d8d769-8eb2-4fe4-b5e5-a147d5eb9a43","ios":"levelo://app?vid=d3d8d769-8eb2-4fe4-b5e5-a147d5eb9a43"},"vehicle_type_id":"4","last_reported":1711145180,"current_range_meters":14800,"station_id":"ce4bgpp2rcd13ifvqc3g","pricing_plan_id":"cebpf4jnsgd1na2vs0mg"},{"bike_id":"06ad04fd-b606-4b27-853d-b68d2b8399fb","system_id":"levelo_inurba_marseille","lat":43.297834,"lon":5.370986,"is_reserved":false,"is_disabled":false,"rental_uris":{"android":"levelo://app?vid=06ad04fd-b606-4b27-853d-b68d2b8399fb","ios":"levelo://app?vid=06ad04fd-b606-4b27-853d-b68d2b8399fb"},"vehicle_type_id":"4","last_reported":1711145180,"current_range_meters":0,"station_id":"ce4bgop2rcd13ifvqc1g","pricing_plan_id":"cebpf4jnsgd1na2vs0mg"},{"bike_id":"2122f508-ab5a-4aca-8414-655595ee901f","system_id":"levelo_inurba_marseille","lat":43.32285,"lon":5.38255,"is_reserved":false,"is_disabled":false,"rental_uris":{"android":"levelo://app?vid=2122f508-ab5a-4aca-8414-655595ee901f","ios":"levelo://app?vid=2122f508-ab5a-4aca-8414-655595ee901f"},"vehicle_type_id":"4","last_reported":1711145180,"current_range_meters":10400,"station_id":"ce4bhr12rcd13ifvqhqg","pricing_plan_id":"cebpf4jnsgd1na2vs0mg"},{"bike_id":"feead7e7-9cee-4c57-94a6-da647512767c","system_id":"levelo_inurba_marseille","lat":43.322896,"lon":5.382515,"is_reserved":false,"is_disabled":false,"rental_uris":{"android":"levelo://app?vid=feead7e7-9cee-4c57-94a6-da647512767c","ios":"levelo://app?vid=feead7e7-9cee-4c57-94a6-da647512767c"},"vehicle_type_id":"4","last_reported":1711145180,"current_range_meters":9600,"station_id":"ce4bhr12rcd13ifvqhqg","pricing_plan_id":"cebpf4jnsgd1na2vs0mg"},{"bike_id":"340c4866-9242-45ce-9632-0216f8200808","system_id":"levelo_inurba_marseille","lat":43.297809,"lon":5.371054,"is_reserved":false,"is_disabled":false,"rental_uris":{"android":"levelo://app?vid=340c4866-9242-45ce-9632-0216f8200808","ios":"levelo://app?vid=340c4866-9242-45ce-9632-0216f8200808"},"vehicle_type_id":"4","last_reported":1711145180,"current_range_meters":1200,"station_id":"ce4bgop2rcd13ifvqc1g","pricing_plan_id":"cebpf4jnsgd1na2vs0mg"},{"bike_id":"010ef480-2de6-4482-9a23-9d3fcb7364e2","system_id":"levelo_inurba_marseille","lat":43.297794,"lon":5.370888,"is_reserved":false,"is_disabled":false,"rental_uris":{"android":"levelo://app?vid=010ef480-2de6-4482-9a23-9d3fcb7364e2","ios":"levelo://app?vid=010ef480-2de6-4482-9a23-9d3fcb7364e2"},"vehicle_type_id":"4","last_reported":1711145180,"current_range_meters":400,"station_id":"ce4bgop2rcd13ifvqc1g","pricing_plan_id":"cebpf4jnsgd1na2vs0mg"},{"bike_id":"accb2f69-ca20-4b2f-9b54-89cf5f810bdd","system_id":"levelo_inurba_marseille","lat":43.322882,"lon":5.382658,"is_reserved":false,"is_disabled":false,"rental_uris":{"android":"levelo://app?vid=accb2f69-ca20-4b2f-9b54-89cf5f810bdd","ios":"levelo://app?vid=accb2f69-ca20-4b2f-9b54-89cf5f810bdd"},"vehicle_type_id":"4","last_reported":1711145180,"current_range_meters":14400,"station_id":"ce4bhr12rcd13ifvqhqg","pricing_plan_id":"cebpf4jnsgd1na2vs0mg"},{"bike_id":"36727d06-0af4-4c64-88de-4193d3d2494b","system_id":"levelo_inurba_marseille","lat":43.32289,"lon":5.382655,"is_reserved":false,"is_disabled":false,"rental_uris":{"android":"levelo://app?vid=36727d06-0af4-4c64-88de-4193d3d2494b","ios":"levelo://app?vid=36727d06-0af4-4c64-88de-4193d3d2494b"},"vehicle_type_id":"4","last_reported":1711145180,"current_range_meters":3200,"station_id":"ce4bhr12rcd13ifvqhqg","pricing_plan_id":"cebpf4jnsgd1na2vs0mg"},{"bike_id":"f32c3800-2880-49c9-b647-144d107e7f9a","system_id":"levelo_inurba_marseille","lat":43.322879,"lon":5.382694,"is_reserved":false,"is_disabled":false,"rental_uris":{"android":"levelo://app?vid=f32c3800-2880-49c9-b647-144d107e7f9a","ios":"levelo://app?vid=f32c3800-2880-49c9-b647-144d107e7f9a"},"vehicle_type_id":"4","last_reported":1711145180,"current_range_meters":12400,"station_id":"ce4bhr12rcd13ifvqhqg","pricing_plan_id":"cebpf4jnsgd1na2vs0mg"},{"bike_id":"3e0b08f7-ade1-426f-8bab-72707c98e3c0","system_id":"levelo_inurba_marseille","lat":43.322904,"lon":5.382672,"is_reserved":false,"is_disabled":false,"rental_uris":{"android":"levelo://app?vid=3e0b08f7-ade1-426f-8bab-72707c98e3c0","ios":"levelo://app?vid=3e0b08f7-ade1-426f-8bab-72707c98e3c0"},"vehicle_type_id":"4","last_reported":1711145180,"current_range_meters":10000,"station_id":"ce4bhr12rcd13ifvqhqg","pricing_plan_id":"cebpf4jnsgd1na2vs0mg"},{"bike_id":"bd6b6545-b45a-4dc0-b743-d330ab6c2563","system_id":"levelo_inurba_marseille","lat":43.32291,"lon":5.38269,"is_reserved":false,"is_disabled":false,"rental_uris":{"android":"levelo://app?vid=bd6b6545-b45a-4dc0-b743-d330ab6c2563","ios":"levelo://app?vid=bd6b6545-b45a-4dc0-b743-d330ab6c2563"},"vehicle_type_id":"4","last_reported":1711145180,"current_range_meters":26400,"station_id":"ce4bhr12rcd13ifvqhqg","pricing_plan_id":"cebpf4jnsgd1na2vs0mg"},{"bike_id":"4f4a75fa-11e1-4b9c-9fc5-7e2938322638","system_id":"levelo_inurba_marseille","lat":43.32288,"lon":5.38275,"is_reserved":false,"is_disabled":false,"rental_uris":{"android":"levelo://app?vid=4f4a75fa-11e1-4b9c-9fc5-7e2938322638","ios":"levelo://app?vid=4f4a75fa-11e1-4b9c-9fc5-7e2938322638"},"vehicle_type_id":"4","last_reported":1711145180,"current_range_meters":15200,"station_id":"ce4bhr12rcd13ifvqhqg","pricing_plan_id":"cebpf4jnsgd1na2vs0mg"},{"bike_id":"3ff125a5-dff1-4591-b6cc-449dc2424878","system_id":"levelo_inurba_marseille","lat":43.32294,"lon":5.38268,"is_reserved":false,"is_disabled":false,"rental_uris":{"android":"levelo://app?vid=3ff125a5-dff1-4591-b6cc-449dc2424878","ios":"levelo://app?vid=3ff125a5-dff1-4591-b6cc-449dc2424878"},"vehicle_type_id":"4","last_reported":1711145180,"current_range_meters":8800,"station_id":"ce4bhr12rcd13ifvqhqg","pricing_plan_id":"cebpf4jnsgd1na2vs0mg"},{"bike_id":"6778861f-913f-46d7-9610-423069fb6471","system_id":"levelo_inurba_marseille","lat":43.3229,"lon":5.38273,"is_reserved":false,"is_disabled":false,"rental_uris":{"android":"levelo://app?vid=6778861f-913f-46d7-9610-423069fb6471","ios":"levelo://app?vid=6778861f-913f-46d7-9610-423069fb6471"},"vehicle_type_id":"4","last_reported":1711145180,"current_range_meters":12000,"station_id":"ce4bhr12rcd13ifvqhqg","pricing_plan_id":"cebpf4jnsgd1na2vs0mg"},{"bike_id":"6e4f2b6e-b694-4dba-9f7a-3defc778419d","system_id":"levelo_inurba_marseille","lat":43.32294,"lon":5.3827,"is_reserved":false,"is_disabled":false,"rental_uris":{"android":"levelo://app?vid=6e4f2b6e-b694-4dba-9f7a-3defc778419d","ios":"levelo://app?vid=6e4f2b6e-b694-4dba-9f7a-3defc778419d"},"vehicle_type_id":"4","last_reported":1711145180,"current_range_meters":9200,"station_id":"ce4bhr12rcd13ifvqhqg","pricing_plan_id":"cebpf4jnsgd1na2vs0mg"},{"bike_id":"85d4d71c-b2c1-426a-b0b8-be8461195f7e","system_id":"levelo_inurba_marseille","lat":43.322872,"lon":5.382756,"is_reserved":false,"is_disabled":false,"rental_uris":{"android":"levelo://app?vid=85d4d71c-b2c1-426a-b0b8-be8461195f7e","ios":"levelo://app?vid=85d4d71c-b2c1-426a-b0b8-be8461195f7e"},"vehicle_type_id":"4","last_reported":1711145180,"current_range_meters":30000,"station_id":"ce4bhr12rcd13ifvqhqg","pricing_plan_id":"cebpf4jnsgd1na2vs0mg"},{"bike_id":"f15b0355-2112-4631-980d-d37c34e26c81","system_id":"levelo_inurba_marseille","lat":43.32288,"lon":5.38278,"is_reserved":false,"is_disabled":false,"rental_uris":{"android":"levelo://app?vid=f15b0355-2112-4631-980d-d37c34e26c81","ios":"levelo://app?vid=f15b0355-2112-4631-980d-d37c34e26c81"},"vehicle_type_id":"4","last_reported":1711145180,"current_range_meters":21600,"station_id":"ce4bhr12rcd13ifvqhqg","pricing_plan_id":"cebpf4jnsgd1na2vs0mg"},{"bike_id":"7bb25592-42e7-4622-bd4f-d815c22e8887","system_id":"levelo_inurba_marseille","lat":43.32293,"lon":5.382748,"is_reserved":false,"is_disabled":false,"rental_uris":{"android":"levelo://app?vid=7bb25592-42e7-4622-bd4f-d815c22e8887","ios":"levelo://app?vid=7bb25592-42e7-4622-bd4f-d815c22e8887"},"vehicle_type_id":"4","last_reported":1711145180,"current_range_meters":12800,"station_id":"ce4bhr12rcd13ifvqhqg","pricing_plan_id":"cebpf4jnsgd1na2vs0mg"},{"bike_id":"2499561e-73fb-492a-8855-eabd35be1fc0","system_id":"levelo_inurba_marseille","lat":43.322889,"lon":5.382802,"is_reserved":false,"is_disabled":false,"rental_uris":{"android":"levelo://app?vid=2499561e-73fb-492a-8855-eabd35be1fc0","ios":"levelo://app?vid=2499561e-73fb-492a-8855-eabd35be1fc0"},"vehicle_type_id":"4","last_reported":1711145180,"current_range_meters":0,"station_id":"ce4bhr12rcd13ifvqhqg","pricing_plan_id":"cebpf4jnsgd1na2vs0mg"},{"bike_id":"01356d6b-aed4-46bc-ab35-f59781fefc6d","system_id":"levelo_inurba_marseille","lat":43.322909,"lon":5.382779,"is_reserved":false,"is_disabled":false,"rental_uris":{"android":"levelo://app?vid=01356d6b-aed4-46bc-ab35-f59781fefc6d","ios":"levelo://app?vid=01356d6b-aed4-46bc-ab35-f59781fefc6d"},"vehicle_type_id":"4","last_reported":1711145180,"current_range_meters":6000,"station_id":"ce4bhr12rcd13ifvqhqg","pricing_plan_id":"cebpf4jnsgd1na2vs0mg"},{"bike_id":"d9b46c97-bd65-448f-a899-76e64852ebcd","system_id":"levelo_inurba_marseille","lat":43.32291,"lon":5.382815,"is_reserved":false,"is_disabled":false,"rental_uris":{"android":"levelo://app?vid=d9b46c97-bd65-448f-a899-76e64852ebcd","ios":"levelo://app?vid=d9b46c97-bd65-448f-a899-76e64852ebcd"},"vehicle_type_id":"4","last_reported":1711145180,"current_range_meters":0,"station_id":"ce4bhr12rcd13ifvqhqg","pricing_plan_id":"cebpf4jnsgd1na2vs0mg"},{"bike_id":"0ce09e22-2193-4dee-bb10-8ea6083ef30a","system_id":"levelo_inurba_marseille","lat":43.297163,"lon":5.365866,"is_reserved":false,"is_disabled":false,"rental_uris":{"android":"levelo://app?vid=0ce09e22-2193-4dee-bb10-8ea6083ef30a","ios":"levelo://app?vid=0ce09e22-2193-4dee-bb10-8ea6083ef30a"},"vehicle_type_id":"4","last_reported":1711145180,"current_range_meters":17600,"station_id":"ce4bgn12rcd13ifvqbt0","pricing_plan_id":"cebpf4jnsgd1na2vs0mg"},{"bike_id":"ba815d26-062b-4eb9-9ea6-2b4721fca50d","system_id":"levelo_inurba_marseille","lat":43.29708,"lon":5.36608,"is_reserved":false,"is_disabled":false,"rental_uris":{"android":"levelo://app?vid=ba815d26-062b-4eb9-9ea6-2b4721fca50d","ios":"levelo://app?vid=ba815d26-062b-4eb9-9ea6-2b4721fca50d"},"vehicle_type_id":"4","last_reported":1711145180,"current_range_meters":0,"station_id":"ce4bgn12rcd13ifvqbt0","pricing_plan_id":"cebpf4jnsgd1na2vs0mg"},{"bike_id":"17b58361-ab15-495f-a14f-785963726c19","system_id":"levelo_inurba_marseille","lat":43.29704,"lon":5.36615,"is_reserved":false,"is_disabled":false,"rental_uris":{"android":"levelo://app?vid=17b58361-ab15-495f-a14f-785963726c19","ios":"levelo://app?vid=17b58361-ab15-495f-a14f-785963726c19"},"vehicle_type_id":"4","last_reported":1711145180,"current_range_meters":400,"station_id":"ce4bgn12rcd13ifvqbt0","pricing_plan_id":"cebpf4jnsgd1na2vs0mg"},{"bike_id":"2775bc69-ceb2-4401-8fd9-d781b768f4ee","system_id":"levelo_inurba_marseille","lat":43.297163,"lon":5.365866,"is_reserved":false,"is_disabled":false,"rental_uris":{"android":"levelo://app?vid=2775bc69-ceb2-4401-8fd9-d781b768f4ee","ios":"levelo://app?vid=2775bc69-ceb2-4401-8fd9-d781b768f4ee"},"vehicle_type_id":"4","last_reported":1711145180,"current_range_meters":0,"station_id":"ce4bgn12rcd13ifvqbt0","pricing_plan_id":"cebpf4jnsgd1na2vs0mg"},{"bike_id":"0e12b40e-7061-49a0-ab34-353284e92a4c","system_id":"levelo_inurba_marseille","lat":43.296858,"lon":5.372838,"is_reserved":false,"is_disabled":false,"rental_uris":{"android":"levelo://app?vid=0e12b40e-7061-49a0-ab34-353284e92a4c","ios":"levelo://app?vid=0e12b40e-7061-49a0-ab34-353284e92a4c"},"vehicle_type_id":"4","last_reported":1711145180,"current_range_meters":0,"station_id":"ce4bgk12rcd13ifvqbj0","pricing_plan_id":"cebpf4jnsgd1na2vs0mg"},{"bike_id":"4e0ca958-b85c-4c2c-ab7c-4a6dbd747542","system_id":"levelo_inurba_marseille","lat":43.296019,"lon":5.367895,"is_reserved":false,"is_disabled":false,"rental_uris":{"android":"levelo://app?vid=4e0ca958-b85c-4c2c-ab7c-4a6dbd747542","ios":"levelo://app?vid=4e0ca958-b85c-4c2c-ab7c-4a6dbd747542"},"vehicle_type_id":"4","last_reported":1711145180,"current_range_meters":30400,"station_id":"","pricing_plan_id":"cebpf4jnsgd1na2vs0mg"},{"bike_id":"082a6a9b-91e6-4eb3-8e27-be9ab18eec62","system_id":"levelo_inurba_marseille","lat":43.29573,"lon":5.367355,"is_reserved":false,"is_disabled":false,"rental_uris":{"android":"levelo://app?vid=082a6a9b-91e6-4eb3-8e27-be9ab18eec62","ios":"levelo://app?vid=082a6a9b-91e6-4eb3-8e27-be9ab18eec62"},"vehicle_type_id":"4","last_reported":1711145180,"current_range_meters":0,"station_id":"ce4bgph2rcd13ifvqc2g","pricing_plan_id":"cebpf4jnsgd1na2vs0mg"},{"bike_id":"69888f3e-8a03-4cb0-8f97-4d45f4947d7a","system_id":"levelo_inurba_marseille","lat":43.2973,"lon":5.37683,"is_reserved":false,"is_disabled":false,"rental_uris":{"android":"levelo://app?vid=69888f3e-8a03-4cb0-8f97-4d45f4947d7a","ios":"levelo://app?vid=69888f3e-8a03-4cb0-8f97-4d45f4947d7a"},"vehicle_type_id":"4","last_reported":1711145180,"current_range_meters":0,"station_id":"ce4bgkh2rcd13ifvqbl0","pricing_plan_id":"cebpf4jnsgd1na2vs0mg"},{"bike_id":"cf4adaf0-4520-4f7f-b1a5-5aecbcad6b08","system_id":"levelo_inurba_marseille","lat":43.29731,"lon":5.37686,"is_reserved":false,"is_disabled":false,"rental_uris":{"android":"levelo://app?vid=cf4adaf0-4520-4f7f-b1a5-5aecbcad6b08","ios":"levelo://app?vid=cf4adaf0-4520-4f7f-b1a5-5aecbcad6b08"},"vehicle_type_id":"4","last_reported":1711145180,"current_range_meters":0,"station_id":"ce4bgkh2rcd13ifvqbl0","pricing_plan_id":"cebpf4jnsgd1na2vs0mg"},{"bike_id":"e843ab6e-5383-4dc0-b254-4731000b4997","system_id":"levelo_inurba_marseille","lat":43.297281,"lon":5.376973,"is_reserved":false,"is_disabled":false,"rental_uris":{"android":"levelo://app?vid=e843ab6e-5383-4dc0-b254-4731000b4997","ios":"levelo://app?vid=e843ab6e-5383-4dc0-b254-4731000b4997"},"vehicle_type_id":"4","last_reported":1711145180,"current_range_meters":0,"station_id":"ce4bgkh2rcd13ifvqbl0","pricing_plan_id":"cebpf4jnsgd1na2vs0mg"},{"bike_id":"7ea80e17-559c-4a57-a9ef-ec9175aee333","system_id":"levelo_inurba_marseille","lat":43.297268,"lon":5.37696,"is_reserved":false,"is_disabled":false,"rental_uris":{"android":"levelo://app?vid=7ea80e17-559c-4a57-a9ef-ec9175aee333","ios":"levelo://app?vid=7ea80e17-559c-4a57-a9ef-ec9175aee333"},"vehicle_type_id":"4","last_reported":1711145180,"current_range_meters":0,"station_id":"ce4bgkh2rcd13ifvqbl0","pricing_plan_id":"cebpf4jnsgd1na2vs0mg"},{"bike_id":"a189b348-8e0e-4a76-ba1f-338bdb58053b","system_id":"levelo_inurba_marseille","lat":43.317557,"lon":5.390173,"is_reserved":false,"is_disabled":false,"rental_uris":{"android":"levelo://app?vid=a189b348-8e0e-4a76-ba1f-338bdb58053b","ios":"levelo://app?vid=a189b348-8e0e-4a76-ba1f-338bdb58053b"},"vehicle_type_id":"4","last_reported":1711145180,"current_range_meters":16000,"station_id":"ce4bhqp2rcd13ifvqhng","pricing_plan_id":"cebpf4jnsgd1na2vs0mg"},{"bike_id":"64faaf0e-8299-47ab-9335-1274f7d2f7f6","system_id":"levelo_inurba_marseille","lat":43.31762,"lon":5.39006,"is_reserved":false,"is_disabled":false,"rental_uris":{"android":"levelo://app?vid=64faaf0e-8299-47ab-9335-1274f7d2f7f6","ios":"levelo://app?vid=64faaf0e-8299-47ab-9335-1274f7d2f7f6"},"vehicle_type_id":"4","last_reported":1711145180,"current_range_meters":14800,"station_id":"ce4bhqp2rcd13ifvqhng","pricing_plan_id":"cebpf4jnsgd1na2vs0mg"},{"bike_id":"b0d5f257-e960-42f8-a84f-b77782e62f54","system_id":"levelo_inurba_marseille","lat":43.291994,"lon":5.392907,"is_reserved":false,"is_disabled":false,"rental_uris":{"android":"levelo://app?vid=b0d5f257-e960-42f8-a84f-b77782e62f54","ios":"levelo://app?vid=b0d5f257-e960-42f8-a84f-b77782e62f54"},"vehicle_type_id":"4","last_reported":1711145180,"current_range_meters":4400,"station_id":"ce4bh192rcd13ifvqdd0","pricing_plan_id":"cebpf4jnsgd1na2vs0mg"},{"bike_id":"e7b98edd-e45f-4c13-a41c-9ab17f601505","system_id":"levelo_inurba_marseille","lat":43.317557,"lon":5.390173,"is_reserved":false,"is_disabled":false,"rental_uris":{"android":"levelo://app?vid=e7b98edd-e45f-4c13-a41c-9ab17f601505","ios":"levelo://app?vid=e7b98edd-e45f-4c13-a41c-9ab17f601505"},"vehicle_type_id":"4","last_reported":1711145180,"current_range_meters":27600,"station_id":"ce4bhqp2rcd13ifvqhng","pricing_plan_id":"cebpf4jnsgd1na2vs0mg"},{"bike_id":"b55e2b9e-9acf-465a-b818-0561d87d7c6b","system_id":"levelo_inurba_marseille","lat":43.317557,"lon":5.390173,"is_reserved":false,"is_disabled":false,"rental_uris":{"android":"levelo://app?vid=b55e2b9e-9acf-465a-b818-0561d87d7c6b","ios":"levelo://app?vid=b55e2b9e-9acf-465a-b818-0561d87d7c6b"},"vehicle_type_id":"4","last_reported":1711145180,"current_range_meters":22800,"station_id":"ce4bhqp2rcd13ifvqhng","pricing_plan_id":"cebpf4jnsgd1na2vs0mg"},{"bike_id":"8613e140-9742-4900-beb7-bb86bd73b07a","system_id":"levelo_inurba_marseille","lat":43.31753,"lon":5.39018,"is_reserved":false,"is_disabled":false,"rental_uris":{"android":"levelo://app?vid=8613e140-9742-4900-beb7-bb86bd73b07a","ios":"levelo://app?vid=8613e140-9742-4900-beb7-bb86bd73b07a"},"vehicle_type_id":"4","last_reported":1711145180,"current_range_meters":6000,"station_id":"ce4bhqp2rcd13ifvqhng","pricing_plan_id":"cebpf4jnsgd1na2vs0mg"},{"bike_id":"aec3a797-25d3-41d4-bfb5-d0c93c9b5985","system_id":"levelo_inurba_marseille","lat":43.31753,"lon":5.39018,"is_reserved":false,"is_disabled":false,"rental_uris":{"android":"levelo://app?vid=aec3a797-25d3-41d4-bfb5-d0c93c9b5985","ios":"levelo://app?vid=aec3a797-25d3-41d4-bfb5-d0c93c9b5985"},"vehicle_type_id":"4","last_reported":1711145180,"current_range_meters":0,"station_id":"ce4bhqp2rcd13ifvqhng","pricing_plan_id":"cebpf4jnsgd1na2vs0mg"},{"bike_id":"8038916e-1d0c-4aef-9319-ddb1489fca3e","system_id":"levelo_inurba_marseille","lat":43.31754,"lon":5.39018,"is_reserved":false,"is_disabled":false,"rental_uris":{"android":"levelo://app?vid=8038916e-1d0c-4aef-9319-ddb1489fca3e","ios":"levelo://app?vid=8038916e-1d0c-4aef-9319-ddb1489fca3e"},"vehicle_type_id":"4","last_reported":1711145180,"current_range_meters":5600,"station_id":"ce4bhqp2rcd13ifvqhng","pricing_plan_id":"cebpf4jnsgd1na2vs0mg"},{"bike_id":"f96d772c-6782-4a91-bf7e-0e875be2beb8","system_id":"levelo_inurba_marseille","lat":43.31757,"lon":5.39018,"is_reserved":false,"is_disabled":false,"rental_uris":{"android":"levelo://app?vid=f96d772c-6782-4a91-bf7e-0e875be2beb8","ios":"levelo://app?vid=f96d772c-6782-4a91-bf7e-0e875be2beb8"},"vehicle_type_id":"4","last_reported":1711145180,"current_range_meters":18400,"station_id":"ce4bhqp2rcd13ifvqhng","pricing_plan_id":"cebpf4jnsgd1na2vs0mg"},{"bike_id":"f4671e3f-8b8a-4d7a-9f53-51d896f83b75","system_id":"levelo_inurba_marseille","lat":43.295748,"lon":5.37522,"is_reserved":false,"is_disabled":false,"rental_uris":{"android":"levelo://app?vid=f4671e3f-8b8a-4d7a-9f53-51d896f83b75","ios":"levelo://app?vid=f4671e3f-8b8a-4d7a-9f53-51d896f83b75"},"vehicle_type_id":"4","last_reported":1711145180,"current_range_meters":1200,"station_id":"ce4bgh92rcd13ifvqb50","pricing_plan_id":"cebpf4jnsgd1na2vs0mg"},{"bike_id":"7acc33f6-1fb4-4752-9bdc-c0b868b72770","system_id":"levelo_inurba_marseille","lat":43.29578,"lon":5.37515,"is_reserved":false,"is_disabled":false,"rental_uris":{"android":"levelo://app?vid=7acc33f6-1fb4-4752-9bdc-c0b868b72770","ios":"levelo://app?vid=7acc33f6-1fb4-4752-9bdc-c0b868b72770"},"vehicle_type_id":"4","last_reported":1711145180,"current_range_meters":0,"station_id":"ce4bgh92rcd13ifvqb50","pricing_plan_id":"cebpf4jnsgd1na2vs0mg"},{"bike_id":"ff7e6c0f-718a-4f8f-8e68-4227a40161ac","system_id":"levelo_inurba_marseille","lat":43.295766,"lon":5.375156,"is_reserved":false,"is_disabled":false,"rental_uris":{"android":"levelo://app?vid=ff7e6c0f-718a-4f8f-8e68-4227a40161ac","ios":"levelo://app?vid=ff7e6c0f-718a-4f8f-8e68-4227a40161ac"},"vehicle_type_id":"4","last_reported":1711145180,"current_range_meters":0,"station_id":"ce4bgh92rcd13ifvqb50","pricing_plan_id":"cebpf4jnsgd1na2vs0mg"},{"bike_id":"b96791bc-64e9-4a49-ae19-7bc90e7776c3","system_id":"levelo_inurba_marseille","lat":43.304274,"lon":5.388873,"is_reserved":false,"is_disabled":false,"rental_uris":{"android":"levelo://app?vid=b96791bc-64e9-4a49-ae19-7bc90e7776c3","ios":"levelo://app?vid=b96791bc-64e9-4a49-ae19-7bc90e7776c3"},"vehicle_type_id":"4","last_reported":1711145180,"current_range_meters":22800,"station_id":"ce4bgk12rcd13ifvqbi0","pricing_plan_id":"cebpf4jnsgd1na2vs0mg"},{"bike_id":"d8a18872-346b-46e0-b2e8-d97513c9af97","system_id":"levelo_inurba_marseille","lat":43.304278,"lon":5.388868,"is_reserved":false,"is_disabled":false,"rental_uris":{"android":"levelo://app?vid=d8a18872-346b-46e0-b2e8-d97513c9af97","ios":"levelo://app?vid=d8a18872-346b-46e0-b2e8-d97513c9af97"},"vehicle_type_id":"4","last_reported":1711145180,"current_range_meters":8000,"station_id":"ce4bgk12rcd13ifvqbi0","pricing_plan_id":"cebpf4jnsgd1na2vs0mg"},{"bike_id":"c2f36d57-1888-4483-9e59-204797c839c0","system_id":"levelo_inurba_marseille","lat":43.29573,"lon":5.37527,"is_reserved":false,"is_disabled":false,"rental_uris":{"android":"levelo://app?vid=c2f36d57-1888-4483-9e59-204797c839c0","ios":"levelo://app?vid=c2f36d57-1888-4483-9e59-204797c839c0"},"vehicle_type_id":"4","last_reported":1711145180,"current_range_meters":0,"station_id":"ce4bgh92rcd13ifvqb50","pricing_plan_id":"cebpf4jnsgd1na2vs0mg"},{"bike_id":"5fa3f389-68ec-4b96-8a6d-be9a1c1f3103","system_id":"levelo_inurba_marseille","lat":43.295748,"lon":5.37522,"is_reserved":false,"is_disabled":false,"rental_uris":{"android":"levelo://app?vid=5fa3f389-68ec-4b96-8a6d-be9a1c1f3103","ios":"levelo://app?vid=5fa3f389-68ec-4b96-8a6d-be9a1c1f3103"},"vehicle_type_id":"4","last_reported":1711145180,"current_range_meters":0,"station_id":"ce4bgh92rcd13ifvqb50","pricing_plan_id":"cebpf4jnsgd1na2vs0mg"},{"bike_id":"ac12b9ba-2327-42a8-aecd-b13c74321d86","system_id":"levelo_inurba_marseille","lat":43.304274,"lon":5.388873,"is_reserved":false,"is_disabled":false,"rental_uris":{"android":"levelo://app?vid=ac12b9ba-2327-42a8-aecd-b13c74321d86","ios":"levelo://app?vid=ac12b9ba-2327-42a8-aecd-b13c74321d86"},"vehicle_type_id":"4","last_reported":1711145180,"current_range_meters":4000,"station_id":"ce4bgk12rcd13ifvqbi0","pricing_plan_id":"cebpf4jnsgd1na2vs0mg"},{"bike_id":"f4c88cd6-97d0-421e-8c40-7a39b05803d3","system_id":"levelo_inurba_marseille","lat":43.29564,"lon":5.37529,"is_reserved":false,"is_disabled":false,"rental_uris":{"android":"levelo://app?vid=f4c88cd6-97d0-421e-8c40-7a39b05803d3","ios":"levelo://app?vid=f4c88cd6-97d0-421e-8c40-7a39b05803d3"},"vehicle_type_id":"4","last_reported":1711145180,"current_range_meters":0,"station_id":"ce4bgh92rcd13ifvqb50","pricing_plan_id":"cebpf4jnsgd1na2vs0mg"},{"bike_id":"e61ffef6-2b5d-4388-84ff-75c8bfaf2973","system_id":"levelo_inurba_marseille","lat":43.296263,"lon":5.377094,"is_reserved":false,"is_disabled":false,"rental_uris":{"android":"levelo://app?vid=e61ffef6-2b5d-4388-84ff-75c8bfaf2973","ios":"levelo://app?vid=e61ffef6-2b5d-4388-84ff-75c8bfaf2973"},"vehicle_type_id":"4","last_reported":1711145180,"current_range_meters":0,"station_id":"ce4bgi92rcd13ifvqb90","pricing_plan_id":"cebpf4jnsgd1na2vs0mg"},{"bike_id":"bd37bc47-c060-4b64-8790-89494edab3c4","system_id":"levelo_inurba_marseille","lat":43.299792,"lon":5.384817,"is_reserved":false,"is_disabled":false,"rental_uris":{"android":"levelo://app?vid=bd37bc47-c060-4b64-8790-89494edab3c4","ios":"levelo://app?vid=bd37bc47-c060-4b64-8790-89494edab3c4"},"vehicle_type_id":"4","last_reported":1711145180,"current_range_meters":0,"station_id":"ce4bgj92rcd13ifvqbd0","pricing_plan_id":"cebpf4jnsgd1na2vs0mg"},{"bike_id":"8e194272-995e-4642-b638-c9f9fbecf39d","system_id":"levelo_inurba_marseille","lat":43.299748,"lon":5.384785,"is_reserved":false,"is_disabled":false,"rental_uris":{"android":"levelo://app?vid=8e194272-995e-4642-b638-c9f9fbecf39d","ios":"levelo://app?vid=8e194272-995e-4642-b638-c9f9fbecf39d"},"vehicle_type_id":"4","last_reported":1711145180,"current_range_meters":0,"station_id":"ce4bgj92rcd13ifvqbd0","pricing_plan_id":"cebpf4jnsgd1na2vs0mg"},{"bike_id":"7546bbb2-4f35-47e1-95a5-d85f9cde99ad","system_id":"levelo_inurba_marseille","lat":43.29531,"lon":5.375037,"is_reserved":false,"is_disabled":false,"rental_uris":{"android":"levelo://app?vid=7546bbb2-4f35-47e1-95a5-d85f9cde99ad","ios":"levelo://app?vid=7546bbb2-4f35-47e1-95a5-d85f9cde99ad"},"vehicle_type_id":"4","last_reported":1711145180,"current_range_meters":0,"station_id":"ce4bgkp2rcd13ifvqbmg","pricing_plan_id":"cebpf4jnsgd1na2vs0mg"},{"bike_id":"6060b3c4-a35e-4394-82d4-91d35465d2da","system_id":"levelo_inurba_marseille","lat":43.29971,"lon":5.38489,"is_reserved":false,"is_disabled":false,"rental_uris":{"android":"levelo://app?vid=6060b3c4-a35e-4394-82d4-91d35465d2da","ios":"levelo://app?vid=6060b3c4-a35e-4394-82d4-91d35465d2da"},"vehicle_type_id":"4","last_reported":1711145180,"current_range_meters":20800,"station_id":"ce4bgj92rcd13ifvqbd0","pricing_plan_id":"cebpf4jnsgd1na2vs0mg"},{"bike_id":"adb1c683-5fa8-422a-a59d-129281c6af5c","system_id":"levelo_inurba_marseille","lat":43.299707,"lon":5.384859,"is_reserved":false,"is_disabled":false,"rental_uris":{"android":"levelo://app?vid=adb1c683-5fa8-422a-a59d-129281c6af5c","ios":"levelo://app?vid=adb1c683-5fa8-422a-a59d-129281c6af5c"},"vehicle_type_id":"4","last_reported":1711145180,"current_range_meters":22400,"station_id":"ce4bgj92rcd13ifvqbd0","pricing_plan_id":"cebpf4jnsgd1na2vs0mg"},{"bike_id":"617b0e6f-676e-40f0-bbaf-c9395e5b4dcd","system_id":"levelo_inurba_marseille","lat":43.314595,"lon":5.392291,"is_reserved":false,"is_disabled":false,"rental_uris":{"android":"levelo://app?vid=617b0e6f-676e-40f0-bbaf-c9395e5b4dcd","ios":"levelo://app?vid=617b0e6f-676e-40f0-bbaf-c9395e5b4dcd"},"vehicle_type_id":"4","last_reported":1711145180,"current_range_meters":14400,"station_id":"","pricing_plan_id":"cebpf4jnsgd1na2vs0mg"},{"bike_id":"2602817d-2729-4048-9470-043c286ec846","system_id":"levelo_inurba_marseille","lat":43.311722,"lon":5.387247,"is_reserved":false,"is_disabled":false,"rental_uris":{"android":"levelo://app?vid=2602817d-2729-4048-9470-043c286ec846","ios":"levelo://app?vid=2602817d-2729-4048-9470-043c286ec846"},"vehicle_type_id":"4","last_reported":1711145180,"current_range_meters":6400,"station_id":"ce4bgv12rcd13ifvqcp0","pricing_plan_id":"cebpf4jnsgd1na2vs0mg"},{"bike_id":"fb5f22b2-56eb-4ab1-9dce-4deeb942c700","system_id":"levelo_inurba_marseille","lat":43.32363,"lon":5.38877,"is_reserved":false,"is_disabled":false,"rental_uris":{"android":"levelo://app?vid=fb5f22b2-56eb-4ab1-9dce-4deeb942c700","ios":"levelo://app?vid=fb5f22b2-56eb-4ab1-9dce-4deeb942c700"},"vehicle_type_id":"4","last_reported":1711145180,"current_range_meters":0,"station_id":"ce4bhqp2rcd13ifvqhog","pricing_plan_id":"cebpf4jnsgd1na2vs0mg"},{"bike_id":"f2156e01-7236-4cd5-ab7e-4fdfbbb10b37","system_id":"levelo_inurba_marseille","lat":43.32371,"lon":5.38878,"is_reserved":false,"is_disabled":false,"rental_uris":{"android":"levelo://app?vid=f2156e01-7236-4cd5-ab7e-4fdfbbb10b37","ios":"levelo://app?vid=f2156e01-7236-4cd5-ab7e-4fdfbbb10b37"},"vehicle_type_id":"4","last_reported":1711145180,"current_range_meters":14000,"station_id":"ce4bhqp2rcd13ifvqhog","pricing_plan_id":"cebpf4jnsgd1na2vs0mg"},{"bike_id":"01b93638-26de-49ab-be0b-d456a1c9b946","system_id":"levelo_inurba_marseille","lat":43.32369,"lon":5.38882,"is_reserved":false,"is_disabled":false,"rental_uris":{"android":"levelo://app?vid=01b93638-26de-49ab-be0b-d456a1c9b946","ios":"levelo://app?vid=01b93638-26de-49ab-be0b-d456a1c9b946"},"vehicle_type_id":"4","last_reported":1711145180,"current_range_meters":16800,"station_id":"ce4bhqp2rcd13ifvqhog","pricing_plan_id":"cebpf4jnsgd1na2vs0mg"},{"bike_id":"d2055f3d-1634-4d69-ad07-14fb0872f8a6","system_id":"levelo_inurba_marseille","lat":43.32365,"lon":5.38887,"is_reserved":false,"is_disabled":false,"rental_uris":{"android":"levelo://app?vid=d2055f3d-1634-4d69-ad07-14fb0872f8a6","ios":"levelo://app?vid=d2055f3d-1634-4d69-ad07-14fb0872f8a6"},"vehicle_type_id":"4","last_reported":1711145180,"current_range_meters":0,"station_id":"ce4bhqp2rcd13ifvqhog","pricing_plan_id":"cebpf4jnsgd1na2vs0mg"},{"bike_id":"35bf2f0e-37ef-4ec9-8b7b-c2793976382f","system_id":"levelo_inurba_marseille","lat":43.32362,"lon":5.3889,"is_reserved":false,"is_disabled":false,"rental_uris":{"android":"levelo://app?vid=35bf2f0e-37ef-4ec9-8b7b-c2793976382f","ios":"levelo://app?vid=35bf2f0e-37ef-4ec9-8b7b-c2793976382f"},"vehicle_type_id":"4","last_reported":1711145180,"current_range_meters":16800,"station_id":"ce4bhqp2rcd13ifvqhog","pricing_plan_id":"cebpf4jnsgd1na2vs0mg"},{"bike_id":"69738a8d-1063-40c1-9fbe-d87a7e8c839f","system_id":"levelo_inurba_marseille","lat":43.32367,"lon":5.388836,"is_reserved":false,"is_disabled":false,"rental_uris":{"android":"levelo://app?vid=69738a8d-1063-40c1-9fbe-d87a7e8c839f","ios":"levelo://app?vid=69738a8d-1063-40c1-9fbe-d87a7e8c839f"},"vehicle_type_id":"4","last_reported":1711145180,"current_range_meters":14400,"station_id":"ce4bhqp2rcd13ifvqhog","pricing_plan_id":"cebpf4jnsgd1na2vs0mg"},{"bike_id":"cd3ad0dd-115f-4e17-bc69-39e1287d5727","system_id":"levelo_inurba_marseille","lat":43.32366,"lon":5.38888,"is_reserved":false,"is_disabled":false,"rental_uris":{"android":"levelo://app?vid=cd3ad0dd-115f-4e17-bc69-39e1287d5727","ios":"levelo://app?vid=cd3ad0dd-115f-4e17-bc69-39e1287d5727"},"vehicle_type_id":"4","last_reported":1711145180,"current_range_meters":9600,"station_id":"ce4bhqp2rcd13ifvqhog","pricing_plan_id":"cebpf4jnsgd1na2vs0mg"},{"bike_id":"860c563d-9644-4cb2-8383-b7edb8ff0aa5","system_id":"levelo_inurba_marseille","lat":43.32371,"lon":5.38895,"is_reserved":false,"is_disabled":false,"rental_uris":{"android":"levelo://app?vid=860c563d-9644-4cb2-8383-b7edb8ff0aa5","ios":"levelo://app?vid=860c563d-9644-4cb2-8383-b7edb8ff0aa5"},"vehicle_type_id":"4","last_reported":1711145180,"current_range_meters":30400,"station_id":"ce4bhqp2rcd13ifvqhog","pricing_plan_id":"cebpf4jnsgd1na2vs0mg"},{"bike_id":"bf6203bb-2da1-4c12-a46a-8edec88beb30","system_id":"levelo_inurba_marseille","lat":43.31424,"lon":5.39377,"is_reserved":false,"is_disabled":false,"rental_uris":{"android":"levelo://app?vid=bf6203bb-2da1-4c12-a46a-8edec88beb30","ios":"levelo://app?vid=bf6203bb-2da1-4c12-a46a-8edec88beb30"},"vehicle_type_id":"4","last_reported":1711145180,"current_range_meters":0,"station_id":"","pricing_plan_id":"cebpf4jnsgd1na2vs0mg"},{"bike_id":"78ec836b-9ade-4dbd-8775-cc23bd6d2a02","system_id":"levelo_inurba_marseille","lat":43.29333,"lon":5.373003,"is_reserved":false,"is_disabled":false,"rental_uris":{"android":"levelo://app?vid=78ec836b-9ade-4dbd-8775-cc23bd6d2a02","ios":"levelo://app?vid=78ec836b-9ade-4dbd-8775-cc23bd6d2a02"},"vehicle_type_id":"4","last_reported":1711145180,"current_range_meters":0,"station_id":"","pricing_plan_id":"cebpf4jnsgd1na2vs0mg"},{"bike_id":"d1508f0c-109a-428e-a68d-32a3f020bd03","system_id":"levelo_inurba_marseille","lat":43.292749,"lon":5.368402,"is_reserved":false,"is_disabled":false,"rental_uris":{"android":"levelo://app?vid=d1508f0c-109a-428e-a68d-32a3f020bd03","ios":"levelo://app?vid=d1508f0c-109a-428e-a68d-32a3f020bd03"},"vehicle_type_id":"4","last_reported":1711145180,"current_range_meters":28000,"station_id":"ce4bhbp2rcd13ifvqesg","pricing_plan_id":"cebpf4jnsgd1na2vs0mg"},{"bike_id":"cb111c41-aeb3-4113-9174-e6b987b8fd09","system_id":"levelo_inurba_marseille","lat":43.29302,"lon":5.37179,"is_reserved":false,"is_disabled":false,"rental_uris":{"android":"levelo://app?vid=cb111c41-aeb3-4113-9174-e6b987b8fd09","ios":"levelo://app?vid=cb111c41-aeb3-4113-9174-e6b987b8fd09"},"vehicle_type_id":"4","last_reported":1711145180,"current_range_meters":0,"station_id":"ce4bgh92rcd13ifvqb40","pricing_plan_id":"cebpf4jnsgd1na2vs0mg"},{"bike_id":"51c14e53-d5e7-477f-b35b-173811eacfe6","system_id":"levelo_inurba_marseille","lat":43.293259,"lon":5.371586,"is_reserved":false,"is_disabled":false,"rental_uris":{"android":"levelo://app?vid=51c14e53-d5e7-477f-b35b-173811eacfe6","ios":"levelo://app?vid=51c14e53-d5e7-477f-b35b-173811eacfe6"},"vehicle_type_id":"4","last_reported":1711145180,"current_range_meters":0,"station_id":"ce4bgh92rcd13ifvqb40","pricing_plan_id":"cebpf4jnsgd1na2vs0mg"},{"bike_id":"4d282f0d-7b6a-4635-8eee-1cc9526eaff7","system_id":"levelo_inurba_marseille","lat":43.29273,"lon":5.36842,"is_reserved":false,"is_disabled":false,"rental_uris":{"android":"levelo://app?vid=4d282f0d-7b6a-4635-8eee-1cc9526eaff7","ios":"levelo://app?vid=4d282f0d-7b6a-4635-8eee-1cc9526eaff7"},"vehicle_type_id":"4","last_reported":1711145180,"current_range_meters":0,"station_id":"ce4bhbp2rcd13ifvqesg","pricing_plan_id":"cebpf4jnsgd1na2vs0mg"},{"bike_id":"be235267-5764-4058-959d-38bd84bd8c4b","system_id":"levelo_inurba_marseille","lat":43.29298,"lon":5.37166,"is_reserved":false,"is_disabled":false,"rental_uris":{"android":"levelo://app?vid=be235267-5764-4058-959d-38bd84bd8c4b","ios":"levelo://app?vid=be235267-5764-4058-959d-38bd84bd8c4b"},"vehicle_type_id":"4","last_reported":1711145180,"current_range_meters":0,"station_id":"ce4bgh92rcd13ifvqb40","pricing_plan_id":"cebpf4jnsgd1na2vs0mg"},{"bike_id":"4c5bc43a-2acb-40c6-bef8-ba259aecbbdc","system_id":"levelo_inurba_marseille","lat":43.29271,"lon":5.36842,"is_reserved":false,"is_disabled":false,"rental_uris":{"android":"levelo://app?vid=4c5bc43a-2acb-40c6-bef8-ba259aecbbdc","ios":"levelo://app?vid=4c5bc43a-2acb-40c6-bef8-ba259aecbbdc"},"vehicle_type_id":"4","last_reported":1711145180,"current_range_meters":0,"station_id":"ce4bhbp2rcd13ifvqesg","pricing_plan_id":"cebpf4jnsgd1na2vs0mg"},{"bike_id":"2e8f2de5-5c55-4e02-9d94-6f0e2e9489f4","system_id":"levelo_inurba_marseille","lat":43.29265,"lon":5.36848,"is_reserved":false,"is_disabled":false,"rental_uris":{"android":"levelo://app?vid=2e8f2de5-5c55-4e02-9d94-6f0e2e9489f4","ios":"levelo://app?vid=2e8f2de5-5c55-4e02-9d94-6f0e2e9489f4"},"vehicle_type_id":"4","last_reported":1711145180,"current_range_meters":0,"station_id":"ce4bhbp2rcd13ifvqesg","pricing_plan_id":"cebpf4jnsgd1na2vs0mg"},{"bike_id":"13e0acb0-1461-43c9-9a21-fa3b4b2f5627","system_id":"levelo_inurba_marseille","lat":43.293,"lon":5.37451,"is_reserved":false,"is_disabled":false,"rental_uris":{"android":"levelo://app?vid=13e0acb0-1461-43c9-9a21-fa3b4b2f5627","ios":"levelo://app?vid=13e0acb0-1461-43c9-9a21-fa3b4b2f5627"},"vehicle_type_id":"4","last_reported":1711145180,"current_range_meters":0,"station_id":"ce4bgi12rcd13ifvqb70","pricing_plan_id":"cebpf4jnsgd1na2vs0mg"},{"bike_id":"492f469c-2b8a-494f-b187-cc7569c15fb3","system_id":"levelo_inurba_marseille","lat":43.29299,"lon":5.37463,"is_reserved":false,"is_disabled":false,"rental_uris":{"android":"levelo://app?vid=492f469c-2b8a-494f-b187-cc7569c15fb3","ios":"levelo://app?vid=492f469c-2b8a-494f-b187-cc7569c15fb3"},"vehicle_type_id":"4","last_reported":1711145180,"current_range_meters":25600,"station_id":"ce4bgi12rcd13ifvqb70","pricing_plan_id":"cebpf4jnsgd1na2vs0mg"},{"bike_id":"0ae5ad7c-d837-490c-bded-a07384abc18d","system_id":"levelo_inurba_marseille","lat":43.305994,"lon":5.393687,"is_reserved":false,"is_disabled":false,"rental_uris":{"android":"levelo://app?vid=0ae5ad7c-d837-490c-bded-a07384abc18d","ios":"levelo://app?vid=0ae5ad7c-d837-490c-bded-a07384abc18d"},"vehicle_type_id":"4","last_reported":1711145180,"current_range_meters":16800,"station_id":"ce4bh0p2rcd13ifvqd80","pricing_plan_id":"cebpf4jnsgd1na2vs0mg"},{"bike_id":"8cd81ec1-7e5a-48d6-bde6-4357fe8a92f5","system_id":"levelo_inurba_marseille","lat":43.31809,"lon":5.39429,"is_reserved":false,"is_disabled":false,"rental_uris":{"android":"levelo://app?vid=8cd81ec1-7e5a-48d6-bde6-4357fe8a92f5","ios":"levelo://app?vid=8cd81ec1-7e5a-48d6-bde6-4357fe8a92f5"},"vehicle_type_id":"4","last_reported":1711145180,"current_range_meters":2400,"station_id":"","pricing_plan_id":"cebpf4jnsgd1na2vs0mg"},{"bike_id":"73bef318-4e49-4213-8c5e-f2b7999d78ab","system_id":"levelo_inurba_marseille","lat":43.303026,"lon":5.392026,"is_reserved":false,"is_disabled":false,"rental_uris":{"android":"levelo://app?vid=73bef318-4e49-4213-8c5e-f2b7999d78ab","ios":"levelo://app?vid=73bef318-4e49-4213-8c5e-f2b7999d78ab"},"vehicle_type_id":"4","last_reported":1711145180,"current_range_meters":0,"station_id":"ce4bgkh2rcd13ifvqbk0","pricing_plan_id":"cebpf4jnsgd1na2vs0mg"},{"bike_id":"cb9a9ba1-2c50-490b-b4b7-2298a9d3039a","system_id":"levelo_inurba_marseille","lat":43.30302,"lon":5.39204,"is_reserved":false,"is_disabled":false,"rental_uris":{"android":"levelo://app?vid=cb9a9ba1-2c50-490b-b4b7-2298a9d3039a","ios":"levelo://app?vid=cb9a9ba1-2c50-490b-b4b7-2298a9d3039a"},"vehicle_type_id":"4","last_reported":1711145180,"current_range_meters":0,"station_id":"ce4bgkh2rcd13ifvqbk0","pricing_plan_id":"cebpf4jnsgd1na2vs0mg"},{"bike_id":"f2dd6be1-ce30-422a-a38c-64e0a9e4f8e6","system_id":"levelo_inurba_marseille","lat":43.30303,"lon":5.39206,"is_reserved":false,"is_disabled":false,"rental_uris":{"android":"levelo://app?vid=f2dd6be1-ce30-422a-a38c-64e0a9e4f8e6","ios":"levelo://app?vid=f2dd6be1-ce30-422a-a38c-64e0a9e4f8e6"},"vehicle_type_id":"4","last_reported":1711145180,"current_range_meters":0,"station_id":"ce4bgkh2rcd13ifvqbk0","pricing_plan_id":"cebpf4jnsgd1na2vs0mg"},{"bike_id":"975479be-fe1f-452c-9318-7032c91eb7bd","system_id":"levelo_inurba_marseille","lat":43.302992,"lon":5.392136,"is_reserved":false,"is_disabled":false,"rental_uris":{"android":"levelo://app?vid=975479be-fe1f-452c-9318-7032c91eb7bd","ios":"levelo://app?vid=975479be-fe1f-452c-9318-7032c91eb7bd"},"vehicle_type_id":"4","last_reported":1711145180,"current_range_meters":1600,"station_id":"ce4bgkh2rcd13ifvqbk0","pricing_plan_id":"cebpf4jnsgd1na2vs0mg"},{"bike_id":"34ecc21d-d1af-4956-b74a-8851e8901b94","system_id":"levelo_inurba_marseille","lat":43.302992,"lon":5.392136,"is_reserved":false,"is_disabled":false,"rental_uris":{"android":"levelo://app?vid=34ecc21d-d1af-4956-b74a-8851e8901b94","ios":"levelo://app?vid=34ecc21d-d1af-4956-b74a-8851e8901b94"},"vehicle_type_id":"4","last_reported":1711145180,"current_range_meters":22800,"station_id":"ce4bgkh2rcd13ifvqbk0","pricing_plan_id":"cebpf4jnsgd1na2vs0mg"},{"bike_id":"4f006df7-4021-4894-a978-e7fbd68140e6","system_id":"levelo_inurba_marseille","lat":43.31371,"lon":5.3955,"is_reserved":false,"is_disabled":false,"rental_uris":{"android":"levelo://app?vid=4f006df7-4021-4894-a978-e7fbd68140e6","ios":"levelo://app?vid=4f006df7-4021-4894-a978-e7fbd68140e6"},"vehicle_type_id":"4","last_reported":1711145180,"current_range_meters":15200,"station_id":"","pricing_plan_id":"cebpf4jnsgd1na2vs0mg"},{"bike_id":"f038d410-daa7-4c8f-a8fb-a7748fce017e","system_id":"levelo_inurba_marseille","lat":43.30462,"lon":5.39347,"is_reserved":false,"is_disabled":false,"rental_uris":{"android":"levelo://app?vid=f038d410-daa7-4c8f-a8fb-a7748fce017e","ios":"levelo://app?vid=f038d410-daa7-4c8f-a8fb-a7748fce017e"},"vehicle_type_id":"4","last_reported":1711145180,"current_range_meters":15600,"station_id":"","pricing_plan_id":"cebpf4jnsgd1na2vs0mg"},{"bike_id":"bafaeeba-36ba-4237-8f37-2188bc78401f","system_id":"levelo_inurba_marseille","lat":43.292311,"lon":5.360731,"is_reserved":false,"is_disabled":false,"rental_uris":{"android":"levelo://app?vid=bafaeeba-36ba-4237-8f37-2188bc78401f","ios":"levelo://app?vid=bafaeeba-36ba-4237-8f37-2188bc78401f"},"vehicle_type_id":"4","last_reported":1711145180,"current_range_meters":2800,"station_id":"ce4bhbh2rcd13ifvqeqg","pricing_plan_id":"cebpf4jnsgd1na2vs0mg"},{"bike_id":"5bb1b35b-df70-4c09-bafd-837514c7bc51","system_id":"levelo_inurba_marseille","lat":43.300852,"lon":5.390859,"is_reserved":false,"is_disabled":false,"rental_uris":{"android":"levelo://app?vid=5bb1b35b-df70-4c09-bafd-837514c7bc51","ios":"levelo://app?vid=5bb1b35b-df70-4c09-bafd-837514c7bc51"},"vehicle_type_id":"4","last_reported":1711145180,"current_range_meters":0,"station_id":"ce4bh192rcd13ifvqdb0","pricing_plan_id":"cebpf4jnsgd1na2vs0mg"},{"bike_id":"5348e0df-69fc-4d71-a7d5-6aec0b2ed158","system_id":"levelo_inurba_marseille","lat":43.292311,"lon":5.360731,"is_reserved":false,"is_disabled":false,"rental_uris":{"android":"levelo://app?vid=5348e0df-69fc-4d71-a7d5-6aec0b2ed158","ios":"levelo://app?vid=5348e0df-69fc-4d71-a7d5-6aec0b2ed158"},"vehicle_type_id":"4","last_reported":1711145180,"current_range_meters":0,"station_id":"ce4bhbh2rcd13ifvqeqg","pricing_plan_id":"cebpf4jnsgd1na2vs0mg"},{"bike_id":"5e8a7ecc-cac3-46ed-a5ed-d2c04528a729","system_id":"levelo_inurba_marseille","lat":43.292311,"lon":5.360731,"is_reserved":false,"is_disabled":false,"rental_uris":{"android":"levelo://app?vid=5e8a7ecc-cac3-46ed-a5ed-d2c04528a729","ios":"levelo://app?vid=5e8a7ecc-cac3-46ed-a5ed-d2c04528a729"},"vehicle_type_id":"4","last_reported":1711145180,"current_range_meters":0,"station_id":"ce4bhbh2rcd13ifvqeqg","pricing_plan_id":"cebpf4jnsgd1na2vs0mg"},{"bike_id":"325e2c22-63ab-405b-80c5-39ca779c295d","system_id":"levelo_inurba_marseille","lat":43.298764,"lon":5.388973,"is_reserved":false,"is_disabled":false,"rental_uris":{"android":"levelo://app?vid=325e2c22-63ab-405b-80c5-39ca779c295d","ios":"levelo://app?vid=325e2c22-63ab-405b-80c5-39ca779c295d"},"vehicle_type_id":"4","last_reported":1711145180,"current_range_meters":26400,"station_id":"ce4bh392rcd13ifvqdl0","pricing_plan_id":"cebpf4jnsgd1na2vs0mg"},{"bike_id":"6aa1da6c-1845-4e32-8bba-3560e2e5becd","system_id":"levelo_inurba_marseille","lat":43.291671,"lon":5.371575,"is_reserved":false,"is_disabled":false,"rental_uris":{"android":"levelo://app?vid=6aa1da6c-1845-4e32-8bba-3560e2e5becd","ios":"levelo://app?vid=6aa1da6c-1845-4e32-8bba-3560e2e5becd"},"vehicle_type_id":"4","last_reported":1711145180,"current_range_meters":12400,"station_id":"ce4bha92rcd13ifvqeh0","pricing_plan_id":"cebpf4jnsgd1na2vs0mg"},{"bike_id":"b29e1036-e9bc-4b38-99b1-41beeb97f532","system_id":"levelo_inurba_marseille","lat":43.298764,"lon":5.388973,"is_reserved":false,"is_disabled":false,"rental_uris":{"android":"levelo://app?vid=b29e1036-e9bc-4b38-99b1-41beeb97f532","ios":"levelo://app?vid=b29e1036-e9bc-4b38-99b1-41beeb97f532"},"vehicle_type_id":"4","last_reported":1711145180,"current_range_meters":13600,"station_id":"ce4bh392rcd13ifvqdl0","pricing_plan_id":"cebpf4jnsgd1na2vs0mg"},{"bike_id":"7cad1e1a-11ea-45b7-9256-adcfa6c85b7d","system_id":"levelo_inurba_marseille","lat":43.298764,"lon":5.388973,"is_reserved":false,"is_disabled":false,"rental_uris":{"android":"levelo://app?vid=7cad1e1a-11ea-45b7-9256-adcfa6c85b7d","ios":"levelo://app?vid=7cad1e1a-11ea-45b7-9256-adcfa6c85b7d"},"vehicle_type_id":"4","last_reported":1711145180,"current_range_meters":14400,"station_id":"ce4bh392rcd13ifvqdl0","pricing_plan_id":"cebpf4jnsgd1na2vs0mg"},{"bike_id":"dec07259-80a7-4da6-9f50-710993930744","system_id":"levelo_inurba_marseille","lat":43.308907,"lon":5.396374,"is_reserved":false,"is_disabled":false,"rental_uris":{"android":"levelo://app?vid=dec07259-80a7-4da6-9f50-710993930744","ios":"levelo://app?vid=dec07259-80a7-4da6-9f50-710993930744"},"vehicle_type_id":"4","last_reported":1711145180,"current_range_meters":0,"station_id":"ce4bh012rcd13ifvqcv0","pricing_plan_id":"cebpf4jnsgd1na2vs0mg"},{"bike_id":"044a31b5-31d5-421e-bf03-4686dd789495","system_id":"levelo_inurba_marseille","lat":43.291994,"lon":5.357886,"is_reserved":false,"is_disabled":false,"rental_uris":{"android":"levelo://app?vid=044a31b5-31d5-421e-bf03-4686dd789495","ios":"levelo://app?vid=044a31b5-31d5-421e-bf03-4686dd789495"},"vehicle_type_id":"4","last_reported":1711145180,"current_range_meters":0,"station_id":"ce4bhb12rcd13ifvqel0","pricing_plan_id":"cebpf4jnsgd1na2vs0mg"},{"bike_id":"5a229327-299d-415c-9fbf-6c754b78fb50","system_id":"levelo_inurba_marseille","lat":43.309038,"lon":5.396546,"is_reserved":false,"is_disabled":false,"rental_uris":{"android":"levelo://app?vid=5a229327-299d-415c-9fbf-6c754b78fb50","ios":"levelo://app?vid=5a229327-299d-415c-9fbf-6c754b78fb50"},"vehicle_type_id":"4","last_reported":1711145180,"current_range_meters":6400,"station_id":"ce4bh012rcd13ifvqcv0","pricing_plan_id":"cebpf4jnsgd1na2vs0mg"},{"bike_id":"ad5dfa66-c54b-4852-b37f-95373b3a56ee","system_id":"levelo_inurba_marseille","lat":43.291994,"lon":5.357886,"is_reserved":false,"is_disabled":false,"rental_uris":{"android":"levelo://app?vid=ad5dfa66-c54b-4852-b37f-95373b3a56ee","ios":"levelo://app?vid=ad5dfa66-c54b-4852-b37f-95373b3a56ee"},"vehicle_type_id":"4","last_reported":1711145180,"current_range_meters":5600,"station_id":"ce4bhb12rcd13ifvqel0","pricing_plan_id":"cebpf4jnsgd1na2vs0mg"},{"bike_id":"57ab5322-719d-4e91-bb47-615b80cb6062","system_id":"levelo_inurba_marseille","lat":43.291994,"lon":5.357886,"is_reserved":false,"is_disabled":false,"rental_uris":{"android":"levelo://app?vid=57ab5322-719d-4e91-bb47-615b80cb6062","ios":"levelo://app?vid=57ab5322-719d-4e91-bb47-615b80cb6062"},"vehicle_type_id":"4","last_reported":1711145180,"current_range_meters":0,"station_id":"ce4bhb12rcd13ifvqel0","pricing_plan_id":"cebpf4jnsgd1na2vs0mg"},{"bike_id":"869d13c8-e0d6-4575-87c1-0df5d5380a99","system_id":"levelo_inurba_marseille","lat":43.30888,"lon":5.396456,"is_reserved":false,"is_disabled":false,"rental_uris":{"android":"levelo://app?vid=869d13c8-e0d6-4575-87c1-0df5d5380a99","ios":"levelo://app?vid=869d13c8-e0d6-4575-87c1-0df5d5380a99"},"vehicle_type_id":"4","last_reported":1711145180,"current_range_meters":0,"station_id":"ce4bh012rcd13ifvqcv0","pricing_plan_id":"cebpf4jnsgd1na2vs0mg"},{"bike_id":"1c8549e3-a358-4de3-ab92-eb948c5053c9","system_id":"levelo_inurba_marseille","lat":43.291994,"lon":5.357886,"is_reserved":false,"is_disabled":false,"rental_uris":{"android":"levelo://app?vid=1c8549e3-a358-4de3-ab92-eb948c5053c9","ios":"levelo://app?vid=1c8549e3-a358-4de3-ab92-eb948c5053c9"},"vehicle_type_id":"4","last_reported":1711145180,"current_range_meters":30000,"station_id":"ce4bhb12rcd13ifvqel0","pricing_plan_id":"cebpf4jnsgd1na2vs0mg"},{"bike_id":"553be6ba-c65d-4cef-80a9-9bd5e9dea82e","system_id":"levelo_inurba_marseille","lat":43.326453,"lon":5.390442,"is_reserved":false,"is_disabled":false,"rental_uris":{"android":"levelo://app?vid=553be6ba-c65d-4cef-80a9-9bd5e9dea82e","ios":"levelo://app?vid=553be6ba-c65d-4cef-80a9-9bd5e9dea82e"},"vehicle_type_id":"4","last_reported":1711145180,"current_range_meters":30400,"station_id":"","pricing_plan_id":"cebpf4jnsgd1na2vs0mg"},{"bike_id":"43eb32c1-8d76-4bdd-8ea1-2d2b2b42946f","system_id":"levelo_inurba_marseille","lat":43.29529,"lon":5.385581,"is_reserved":false,"is_disabled":false,"rental_uris":{"android":"levelo://app?vid=43eb32c1-8d76-4bdd-8ea1-2d2b2b42946f","ios":"levelo://app?vid=43eb32c1-8d76-4bdd-8ea1-2d2b2b42946f"},"vehicle_type_id":"4","last_reported":1711145180,"current_range_meters":31200,"station_id":"ce4bgih2rcd13ifvqba0","pricing_plan_id":"cebpf4jnsgd1na2vs0mg"},{"bike_id":"65b58a71-29d0-49b8-b0db-601788b5a38d","system_id":"levelo_inurba_marseille","lat":43.29529,"lon":5.385581,"is_reserved":false,"is_disabled":false,"rental_uris":{"android":"levelo://app?vid=65b58a71-29d0-49b8-b0db-601788b5a38d","ios":"levelo://app?vid=65b58a71-29d0-49b8-b0db-601788b5a38d"},"vehicle_type_id":"4","last_reported":1711145180,"current_range_meters":25600,"station_id":"ce4bgih2rcd13ifvqba0","pricing_plan_id":"cebpf4jnsgd1na2vs0mg"},{"bike_id":"e8f8b389-1e56-4d49-8512-507a366bb363","system_id":"levelo_inurba_marseille","lat":43.29529,"lon":5.385581,"is_reserved":false,"is_disabled":false,"rental_uris":{"android":"levelo://app?vid=e8f8b389-1e56-4d49-8512-507a366bb363","ios":"levelo://app?vid=e8f8b389-1e56-4d49-8512-507a366bb363"},"vehicle_type_id":"4","last_reported":1711145180,"current_range_meters":14400,"station_id":"ce4bgih2rcd13ifvqba0","pricing_plan_id":"cebpf4jnsgd1na2vs0mg"},{"bike_id":"ffff5f67-d9c8-4d79-9889-a37fd95ced9d","system_id":"levelo_inurba_marseille","lat":43.309038,"lon":5.396546,"is_reserved":false,"is_disabled":false,"rental_uris":{"android":"levelo://app?vid=ffff5f67-d9c8-4d79-9889-a37fd95ced9d","ios":"levelo://app?vid=ffff5f67-d9c8-4d79-9889-a37fd95ced9d"},"vehicle_type_id":"4","last_reported":1711145180,"current_range_meters":1600,"station_id":"ce4bh012rcd13ifvqcv0","pricing_plan_id":"cebpf4jnsgd1na2vs0mg"},{"bike_id":"c1a8bb29-92f0-4e80-a972-83395392e516","system_id":"levelo_inurba_marseille","lat":43.29529,"lon":5.385581,"is_reserved":false,"is_disabled":false,"rental_uris":{"android":"levelo://app?vid=c1a8bb29-92f0-4e80-a972-83395392e516","ios":"levelo://app?vid=c1a8bb29-92f0-4e80-a972-83395392e516"},"vehicle_type_id":"4","last_reported":1711145180,"current_range_meters":4400,"station_id":"ce4bgih2rcd13ifvqba0","pricing_plan_id":"cebpf4jnsgd1na2vs0mg"},{"bike_id":"3fd2edcf-b9ac-4d4f-ae6c-7c177f39d0c4","system_id":"levelo_inurba_marseille","lat":43.29529,"lon":5.385581,"is_reserved":false,"is_disabled":false,"rental_uris":{"android":"levelo://app?vid=3fd2edcf-b9ac-4d4f-ae6c-7c177f39d0c4","ios":"levelo://app?vid=3fd2edcf-b9ac-4d4f-ae6c-7c177f39d0c4"},"vehicle_type_id":"4","last_reported":1711145180,"current_range_meters":28400,"station_id":"ce4bgih2rcd13ifvqba0","pricing_plan_id":"cebpf4jnsgd1na2vs0mg"},{"bike_id":"9663c055-27ee-4e55-8604-11613de7876d","system_id":"levelo_inurba_marseille","lat":43.29529,"lon":5.385581,"is_reserved":false,"is_disabled":false,"rental_uris":{"android":"levelo://app?vid=9663c055-27ee-4e55-8604-11613de7876d","ios":"levelo://app?vid=9663c055-27ee-4e55-8604-11613de7876d"},"vehicle_type_id":"4","last_reported":1711145180,"current_range_meters":28800,"station_id":"ce4bgih2rcd13ifvqba0","pricing_plan_id":"cebpf4jnsgd1na2vs0mg"},{"bike_id":"e7f3a6a6-9bef-424f-b234-28b46a7a7309","system_id":"levelo_inurba_marseille","lat":43.29529,"lon":5.385581,"is_reserved":false,"is_disabled":false,"rental_uris":{"android":"levelo://app?vid=e7f3a6a6-9bef-424f-b234-28b46a7a7309","ios":"levelo://app?vid=e7f3a6a6-9bef-424f-b234-28b46a7a7309"},"vehicle_type_id":"4","last_reported":1711145180,"current_range_meters":6400,"station_id":"ce4bgih2rcd13ifvqba0","pricing_plan_id":"cebpf4jnsgd1na2vs0mg"},{"bike_id":"5b4a0933-54e9-42aa-890f-3c9c7978a2ed","system_id":"levelo_inurba_marseille","lat":43.29529,"lon":5.385581,"is_reserved":false,"is_disabled":false,"rental_uris":{"android":"levelo://app?vid=5b4a0933-54e9-42aa-890f-3c9c7978a2ed","ios":"levelo://app?vid=5b4a0933-54e9-42aa-890f-3c9c7978a2ed"},"vehicle_type_id":"4","last_reported":1711145180,"current_range_meters":22400,"station_id":"ce4bgih2rcd13ifvqba0","pricing_plan_id":"cebpf4jnsgd1na2vs0mg"},{"bike_id":"9790b38e-8d9a-4605-8e2e-9eadc31c8e22","system_id":"levelo_inurba_marseille","lat":43.29529,"lon":5.385581,"is_reserved":false,"is_disabled":false,"rental_uris":{"android":"levelo://app?vid=9790b38e-8d9a-4605-8e2e-9eadc31c8e22","ios":"levelo://app?vid=9790b38e-8d9a-4605-8e2e-9eadc31c8e22"},"vehicle_type_id":"4","last_reported":1711145180,"current_range_meters":6800,"station_id":"ce4bgih2rcd13ifvqba0","pricing_plan_id":"cebpf4jnsgd1na2vs0mg"},{"bike_id":"d13fc61c-1da0-4d4f-b68a-35bb9bb82f62","system_id":"levelo_inurba_marseille","lat":43.29529,"lon":5.385581,"is_reserved":false,"is_disabled":false,"rental_uris":{"android":"levelo://app?vid=d13fc61c-1da0-4d4f-b68a-35bb9bb82f62","ios":"levelo://app?vid=d13fc61c-1da0-4d4f-b68a-35bb9bb82f62"},"vehicle_type_id":"4","last_reported":1711145180,"current_range_meters":6800,"station_id":"ce4bgih2rcd13ifvqba0","pricing_plan_id":"cebpf4jnsgd1na2vs0mg"},{"bike_id":"ca04e125-b3be-43a7-b309-9e58390cb61d","system_id":"levelo_inurba_marseille","lat":43.29529,"lon":5.385581,"is_reserved":false,"is_disabled":false,"rental_uris":{"android":"levelo://app?vid=ca04e125-b3be-43a7-b309-9e58390cb61d","ios":"levelo://app?vid=ca04e125-b3be-43a7-b309-9e58390cb61d"},"vehicle_type_id":"4","last_reported":1711145180,"current_range_meters":0,"station_id":"ce4bgih2rcd13ifvqba0","pricing_plan_id":"cebpf4jnsgd1na2vs0mg"},{"bike_id":"bcce3ea5-2b32-471c-8b5e-954421e60999","system_id":"levelo_inurba_marseille","lat":43.29529,"lon":5.385581,"is_reserved":false,"is_disabled":false,"rental_uris":{"android":"levelo://app?vid=bcce3ea5-2b32-471c-8b5e-954421e60999","ios":"levelo://app?vid=bcce3ea5-2b32-471c-8b5e-954421e60999"},"vehicle_type_id":"4","last_reported":1711145180,"current_range_meters":28800,"station_id":"ce4bgih2rcd13ifvqba0","pricing_plan_id":"cebpf4jnsgd1na2vs0mg"},{"bike_id":"6fea9ceb-af84-4c42-955f-581f51af1954","system_id":"levelo_inurba_marseille","lat":43.29529,"lon":5.385581,"is_reserved":false,"is_disabled":false,"rental_uris":{"android":"levelo://app?vid=6fea9ceb-af84-4c42-955f-581f51af1954","ios":"levelo://app?vid=6fea9ceb-af84-4c42-955f-581f51af1954"},"vehicle_type_id":"4","last_reported":1711145180,"current_range_meters":6400,"station_id":"ce4bgih2rcd13ifvqba0","pricing_plan_id":"cebpf4jnsgd1na2vs0mg"},{"bike_id":"50f9c506-090d-4239-81f2-4f6bdfa970ea","system_id":"levelo_inurba_marseille","lat":43.29529,"lon":5.385581,"is_reserved":false,"is_disabled":false,"rental_uris":{"android":"levelo://app?vid=50f9c506-090d-4239-81f2-4f6bdfa970ea","ios":"levelo://app?vid=50f9c506-090d-4239-81f2-4f6bdfa970ea"},"vehicle_type_id":"4","last_reported":1711145180,"current_range_meters":20400,"station_id":"ce4bgih2rcd13ifvqba0","pricing_plan_id":"cebpf4jnsgd1na2vs0mg"},{"bike_id":"cb91142f-a36c-4dde-a882-0f0de4288765","system_id":"levelo_inurba_marseille","lat":43.296375,"lon":5.387806,"is_reserved":false,"is_disabled":false,"rental_uris":{"android":"levelo://app?vid=cb91142f-a36c-4dde-a882-0f0de4288765","ios":"levelo://app?vid=cb91142f-a36c-4dde-a882-0f0de4288765"},"vehicle_type_id":"4","last_reported":1711145180,"current_range_meters":26000,"station_id":"","pricing_plan_id":"cebpf4jnsgd1na2vs0mg"},{"bike_id":"5ae13387-32c9-4c91-b66b-e818fbebbadd","system_id":"levelo_inurba_marseille","lat":43.290779,"lon":5.371482,"is_reserved":false,"is_disabled":false,"rental_uris":{"android":"levelo://app?vid=5ae13387-32c9-4c91-b66b-e818fbebbadd","ios":"levelo://app?vid=5ae13387-32c9-4c91-b66b-e818fbebbadd"},"vehicle_type_id":"4","last_reported":1711145180,"current_range_meters":14800,"station_id":"ce4bh5p2rcd13ifvqe4g","pricing_plan_id":"cebpf4jnsgd1na2vs0mg"},{"bike_id":"1d5890b4-31e0-4949-b450-74ad4df6692e","system_id":"levelo_inurba_marseille","lat":43.302008,"lon":5.394694,"is_reserved":false,"is_disabled":false,"rental_uris":{"android":"levelo://app?vid=1d5890b4-31e0-4949-b450-74ad4df6692e","ios":"levelo://app?vid=1d5890b4-31e0-4949-b450-74ad4df6692e"},"vehicle_type_id":"4","last_reported":1711145180,"current_range_meters":3200,"station_id":"ce4bh0p2rcd13ifvqd70","pricing_plan_id":"cebpf4jnsgd1na2vs0mg"},{"bike_id":"1999eae3-33b2-4962-9abc-275eac22dda6","system_id":"levelo_inurba_marseille","lat":43.290327,"lon":5.375711,"is_reserved":false,"is_disabled":false,"rental_uris":{"android":"levelo://app?vid=1999eae3-33b2-4962-9abc-275eac22dda6","ios":"levelo://app?vid=1999eae3-33b2-4962-9abc-275eac22dda6"},"vehicle_type_id":"4","last_reported":1711145180,"current_range_meters":14000,"station_id":"ce4bh692rcd13ifvqe90","pricing_plan_id":"cebpf4jnsgd1na2vs0mg"},{"bike_id":"636af23e-ce48-44eb-a164-b136653406be","system_id":"levelo_inurba_marseille","lat":43.294187,"lon":5.386184,"is_reserved":false,"is_disabled":false,"rental_uris":{"android":"levelo://app?vid=636af23e-ce48-44eb-a164-b136653406be","ios":"levelo://app?vid=636af23e-ce48-44eb-a164-b136653406be"},"vehicle_type_id":"4","last_reported":1711145180,"current_range_meters":31200,"station_id":"ce4bh2h2rcd13ifvqdh0","pricing_plan_id":"cebpf4jnsgd1na2vs0mg"},{"bike_id":"deed29ca-4f42-4236-91d2-10d51bbd1a41","system_id":"levelo_inurba_marseille","lat":43.2942,"lon":5.38624,"is_reserved":false,"is_disabled":false,"rental_uris":{"android":"levelo://app?vid=deed29ca-4f42-4236-91d2-10d51bbd1a41","ios":"levelo://app?vid=deed29ca-4f42-4236-91d2-10d51bbd1a41"},"vehicle_type_id":"4","last_reported":1711145180,"current_range_meters":26400,"station_id":"ce4bh2h2rcd13ifvqdh0","pricing_plan_id":"cebpf4jnsgd1na2vs0mg"},{"bike_id":"b49507ae-2a70-48e3-bf6d-d6e84cbb8b0e","system_id":"levelo_inurba_marseille","lat":43.29419,"lon":5.38624,"is_reserved":false,"is_disabled":false,"rental_uris":{"android":"levelo://app?vid=b49507ae-2a70-48e3-bf6d-d6e84cbb8b0e","ios":"levelo://app?vid=b49507ae-2a70-48e3-bf6d-d6e84cbb8b0e"},"vehicle_type_id":"4","last_reported":1711145180,"current_range_meters":0,"station_id":"ce4bh2h2rcd13ifvqdh0","pricing_plan_id":"cebpf4jnsgd1na2vs0mg"},