{"last_updated":1737306441,"ttl":60,"version":"2.2","data":{"bikes":[{"bike_id":"8bface02-8741-4157-a2ca-4b8723bc93d9","system_id":"levelo_inurba_marseille","lat":43.31279,"lon":5.40177,"is_reserved":false,"is_disabled":false,"rental_uris":{"android":"levelo://app?vid=8bface02-8741-4157-a2ca-4b8723bc93d9","ios":"levelo://app?vid=8bface02-8741-4157-a2ca-4b8723bc93d9"},"vehicle_type_id":"4","last_reported":1737306442,"current_range_meters":14000,"station_id":"ce4bh092rcd13ifvqd30","pricing_plan_id":"cebpf4jnsgd1na2vs0mg"},{"bike_id":"c3bf0b33-3b06-4922-bee8-921f3d9e566f","system_id":"levelo_inurba_marseille","lat":43.26556,"lon":5.37286,"is_reserved":false,"is_disabled":true,"rental_uris":{"android":"levelo://app?vid=c3bf0b33-3b06-4922-bee8-921f3d9e566f","ios":"levelo://app?vid=c3bf0b33-3b06-4922-bee8-921f3d9e566f"},"vehicle_type_id":"4","last_reported":1737306442,"current_range_meters":0,"station_id":"ce4bhg12rcd13ifvqf70","pricing_plan_id":"cebpf4jnsgd1na2vs0mg"},{"bike_id":"912c93ad-0a6b-4832-ad82-f7947ddaca24","system_id":"levelo_inurba_marseille","lat":43.284006,"lon":5.375116,"is_reserved":false,"is_disabled":false,"rental_uris":{"android":"levelo://app?vid=912c93ad-0a6b-4832-ad82-f7947ddaca24","ios":"levelo://app?vid=912c93ad-0a6b-4832-ad82-f7947ddaca24"},"vehicle_type_id":"4","last_reported":1737306442,"current_range_meters":26800,"station_id":"ce4bh412rcd13ifvqds0","pricing_plan_id":"cebpf4jnsgd1na2vs0mg"},{"bike_id":"d383b76c-b1c5-4112-bf95-e420a42ff72e","system_id":"levelo_inurba_marseille","lat":43.24818,"lon":5.37461,"is_reserved":false,"is_disabled":false,"rental_uris":{"android":"levelo://app?vid=d383b76c-b1c5-4112-bf95-e420a42ff72e","ios":"levelo://app?vid=d383b76c-b1c5-4112-bf95-e420a42ff72e"},"vehicle_type_id":"4","last_reported":1737306442,"current_range_meters":36400,"station_id":"ce4bhgh2rcd13ifvqfb0","pricing_plan_id":"cebpf4jnsgd1na2vs0mg"},{"bike_id":"2b496bde-20e7-4fd4-8534-8df48e19359c","system_id":"levelo_inurba_marseille","lat":43.29567,"lon":5.39961,"is_reserved":false,"is_disabled":false,"rental_uris":{"android":"levelo://app?vid=2b496bde-20e7-4fd4-8534-8df48e19359c","ios":"levelo://app?vid=2b496bde-20e7-4fd4-8534-8df48e19359c"},"vehicle_type_id":"4","last_reported":1737306442,"current_range_meters":38800,"station_id":"ce4bh312rcd13ifvqdj0","pricing_plan_id":"cebpf4jnsgd1na2vs0mg"},{"bike_id":"016891d3-d48d-43ea-9d8d-aacd30510a50","system_id":"levelo_inurba_marseille","lat":43.23059,"lon":5.35495,"is_reserved":false,"is_disabled":false,"rental_uris":{"android":"levelo://app?vid=016891d3-d48d-43ea-9d8d-aacd30510a50","ios":"levelo://app?vid=016891d3-d48d-43ea-9d8d-aacd30510a50"},"vehicle_type_id":"4","last_reported":1737306442,"current_range_meters":24000,"station_id":"cpo3342slgdg3j2ifvpg","pricing_plan_id":"cebpf4jnsgd1na2vs0mg"},{"bike_id":"753e632a-5031-4e6c-96d1-f3cb623f8582","system_id":"levelo_inurba_marseille","lat":43.30141,"lon":5.37419,"is_reserved":false,"is_disabled":false,"rental_uris":{"android":"levelo://app?vid=753e632a-5031-4e6c-96d1-f3cb623f8582","ios":"levelo://app?vid=753e632a-5031-4e6c-96d1-f3cb623f8582"},"vehicle_type_id":"4","last_reported":1737306442,"current_range_meters":39200,"station_id":"ce4bgs92rcd13ifvqcc0","pricing_plan_id":"cebpf4jnsgd1na2vs0mg"},{"bike_id":"a5cfd84d-4cae-4412-b199-dcb982d64799","system_id":"levelo_inurba_marseille","lat":43.2845,"lon":5.39186,"is_reserved":false,"is_disabled":true,"rental_uris":{"android":"levelo://app?vid=a5cfd84d-4cae-4412-b199-dcb982d64799","ios":"levelo://app?vid=a5cfd84d-4cae-4412-b199-dcb982d64799"},"vehicle_type_id":"4","last_reported":1737306442,"current_range_meters":0,"station_id":"ce4bhoh2rcd13ifvqh5g","pricing_plan_id":"cebpf4jnsgd1na2vs0mg"},{"bike_id":"f9ba6911-1d74-4e31-be86-e083ccd6eee1","system_id":"levelo_inurba_marseille","lat":43.26776,"lon":5.39413,"is_reserved":false,"is_disabled":false,"rental_uris":{"android":"levelo://app?vid=f9ba6911-1d74-4e31-be86-e083ccd6eee1","ios":"levelo://app?vid=f9ba6911-1d74-4e31-be86-e083ccd6eee1"},"vehicle_type_id":"4","last_reported":1737306442,"current_range_meters":24400,"station_id":"ce4bhh12rcd13ifvqfg0","pricing_plan_id":"cebpf4jnsgd1na2vs0mg"},{"bike_id":"dcf4e17a-929a-42a2-813c-fa3a2d031e1e","system_id":"levelo_inurba_marseille","lat":43.29518,"lon":5.39402,"is_reserved":false,"is_disabled":false,"rental_uris":{"android":"levelo://app?vid=dcf4e17a-929a-42a2-813c-fa3a2d031e1e","ios":"levelo://app?vid=dcf4e17a-929a-42a2-813c-fa3a2d031e1e"},"vehicle_type_id":"4","last_reported":1737306442,"current_range_meters":11200,"station_id":"ce4bh292rcd13ifvqdf0","pricing_plan_id":"cebpf4jnsgd1na2vs0mg"},{"bike_id":"ce7c2ced-fb7e-4da5-8280-74440d39966f","system_id":"levelo_inurba_marseille","lat":43.27071,"lon":5.40239,"is_reserved":false,"is_disabled":false,"rental_uris":{"android":"levelo://app?vid=ce7c2ced-fb7e-4da5-8280-74440d39966f","ios":"levelo://app?vid=ce7c2ced-fb7e-4da5-8280-74440d39966f"},"vehicle_type_id":"4","last_reported":1737306442,"current_range_meters":22800,"station_id":"ce4bhk92rcd13ifvqgc0","pricing_plan_id":"cebpf4jnsgd1na2vs0mg"},{"bike_id":"90c165c3-eff9-4a4a-8f28-cfa68619e419","system_id":"levelo_inurba_marseille","lat":43.2875,"lon":5.40011,"is_reserved":false,"is_disabled":true,"rental_uris":{"android":"levelo://app?vid=90c165c3-eff9-4a4a-8f28-cfa68619e419","ios":"levelo://app?vid=90c165c3-eff9-4a4a-8f28-cfa68619e419"},"vehicle_type_id":"4","last_reported":1737306442,"current_range_meters":28000,"station_id":"ce4bho92rcd13ifvqh3g","pricing_plan_id":"cebpf4jnsgd1na2vs0mg"},{"bike_id":"3a87af13-67fb-4514-ad0d-5d9603ca1a41","system_id":"levelo_inurba_marseille","lat":43.290995,"lon":5.381298,"is_reserved":false,"is_disabled":false,"rental_uris":{"android":"levelo://app?vid=3a87af13-67fb-4514-ad0d-5d9603ca1a41","ios":"levelo://app?vid=3a87af13-67fb-4514-ad0d-5d9603ca1a41"},"vehicle_type_id":"4","last_reported":1737306442,"current_range_meters":38000,"station_id":"ce4bh512rcd13ifvqe2g","pricing_plan_id":"cebpf4jnsgd1na2vs0mg"},{"bike_id":"5e1fa4eb-ff40-422a-ba90-b77aa05b27f5","system_id":"levelo_inurba_marseille","lat":43.26063,"lon":5.39403,"is_reserved":false,"is_disabled":false,"rental_uris":{"android":"levelo://app?vid=5e1fa4eb-ff40-422a-ba90-b77aa05b27f5","ios":"levelo://app?vid=5e1fa4eb-ff40-422a-ba90-b77aa05b27f5"},"vehicle_type_id":"4","last_reported":1737306442,"current_range_meters":36400,"station_id":"ce4bhh92rcd13ifvqfj0","pricing_plan_id":"cebpf4jnsgd1na2vs0mg"},{"bike_id":"d44b9a0d-7011-4193-a5d6-96d96ab57731","system_id":"levelo_inurba_marseille","lat":43.31877,"lon":5.42845,"is_reserved":false,"is_disabled":false,"rental_uris":{"android":"levelo://app?vid=d44b9a0d-7011-4193-a5d6-96d96ab57731","ios":"levelo://app?vid=d44b9a0d-7011-4193-a5d6-96d96ab57731"},"vehicle_type_id":"4","last_reported":1737306442,"current_range_meters":38000,"station_id":"ce4bhp92rcd13ifvqhcg","pricing_plan_id":"cebpf4jnsgd1na2vs0mg"},{"bike_id":"9717312c-36f3-4a92-b5d1-88530e73b43e","system_id":"levelo_inurba_marseille","lat":43.29532,"lon":5.38545,"is_reserved":false,"is_disabled":false,"rental_uris":{"android":"levelo://app?vid=9717312c-36f3-4a92-b5d1-88530e73b43e","ios":"levelo://app?vid=9717312c-36f3-4a92-b5d1-88530e73b43e"},"vehicle_type_id":"4","last_reported":1737306442,"current_range_meters":24800,"station_id":"ce4bgih2rcd13ifvqba0","pricing_plan_id":"cebpf4jnsgd1na2vs0mg"},{"bike_id":"bb4afb95-c7f0-4860-8460-5fc5e3d37182","system_id":"levelo_inurba_marseille","lat":43.27312,"lon":5.3908,"is_reserved":false,"is_disabled":false,"rental_uris":{"android":"levelo://app?vid=bb4afb95-c7f0-4860-8460-5fc5e3d37182","ios":"levelo://app?vid=bb4afb95-c7f0-4860-8460-5fc5e3d37182"},"vehicle_type_id":"4","last_reported":1737306442,"current_range_meters":30800,"station_id":"ce4bhgp2rcd13ifvqfe0","pricing_plan_id":"cebpf4jnsgd1na2vs0mg"},{"bike_id":"3ba10d11-2b59-4689-b737-1c492737452a","system_id":"levelo_inurba_marseille","lat":43.28035,"lon":5.3695,"is_reserved":false,"is_disabled":false,"rental_uris":{"android":"levelo://app?vid=3ba10d11-2b59-4689-b737-1c492737452a","ios":"levelo://app?vid=3ba10d11-2b59-4689-b737-1c492737452a"},"vehicle_type_id":"4","last_reported":1737306442,"current_range_meters":25600,"station_id":"ce4bha12rcd13ifvqef0","pricing_plan_id":"cebpf4jnsgd1na2vs0mg"},{"bike_id":"763ed4fc-16fd-47a0-aedf-62c028daa66f","system_id":"levelo_inurba_marseille","lat":43.36405,"lon":5.3555,"is_reserved":false,"is_disabled":false,"rental_uris":{"android":"levelo://app?vid=763ed4fc-16fd-47a0-aedf-62c028daa66f","ios":"levelo://app?vid=763ed4fc-16fd-47a0-aedf-62c028daa66f"},"vehicle_type_id":"4","last_reported":1737306442,"current_range_meters":12400,"station_id":"","pricing_plan_id":"cebpf4jnsgd1na2vs0mg"},{"bike_id":"28b2bf6f-13f9-4bcf-b94c-b59a390975a6","system_id":"levelo_inurba_marseille","lat":43.306039,"lon":5.372282,"is_reserved":false,"is_disabled":false,"rental_uris":{"android":"levelo://app?vid=28b2bf6f-13f9-4bcf-b94c-b59a390975a6","ios":"levelo://app?vid=28b2bf6f-13f9-4bcf-b94c-b59a390975a6"},"vehicle_type_id":"4","last_reported":1737306442,"current_range_meters":20400,"station_id":"","pricing_plan_id":"cebpf4jnsgd1na2vs0mg"},{"bike_id":"56855a2d-6aa0-43be-9bd4-39897b793621","system_id":"levelo_inurba_marseille","lat":43.23194,"lon":5.35556,"is_reserved":false,"is_disabled":false,"rental_uris":{"android":"levelo://app?vid=56855a2d-6aa0-43be-9bd4-39897b793621","ios":"levelo://app?vid=56855a2d-6aa0-43be-9bd4-39897b793621"},"vehicle_type_id":"4","last_reported":1737306442,"current_range_meters":7200,"station_id":"ce4bhu92rcd13ifvqi70","pricing_plan_id":"cebpf4jnsgd1na2vs0mg"},{"bike_id":"e47a6ff3-6d7c-4359-bf00-1737c6f1ac71","system_id":"levelo_inurba_marseille","lat":43.28037,"lon":5.36942,"is_reserved":false,"is_disabled":false,"rental_uris":{"android":"levelo://app?vid=e47a6ff3-6d7c-4359-bf00-1737c6f1ac71","ios":"levelo://app?vid=e47a6ff3-6d7c-4359-bf00-1737c6f1ac71"},"vehicle_type_id":"4","last_reported":1737306442,"current_range_meters":30400,"station_id":"ce4bha12rcd13ifvqef0","pricing_plan_id":"cebpf4jnsgd1na2vs0mg"},{"bike_id":"6fb53fbf-37b5-4d29-8892-c5872afeb694","system_id":"levelo_inurba_marseille","lat":43.25686,"lon":5.41048,"is_reserved":false,"is_disabled":false,"rental_uris":{"android":"levelo://app?vid=6fb53fbf-37b5-4d29-8892-c5872afeb694","ios":"levelo://app?vid=6fb53fbf-37b5-4d29-8892-c5872afeb694"},"vehicle_type_id":"4","last_reported":1737306442,"current_range_meters":33600,"station_id":"ce4bhkp2rcd13ifvqgd0","pricing_plan_id":"cebpf4jnsgd1na2vs0mg"},{"bike_id":"f3c94274-f861-4c89-8bb1-1ebe1a531935","system_id":"levelo_inurba_marseille","lat":43.24991,"lon":5.38919,"is_reserved":false,"is_disabled":false,"rental_uris":{"android":"levelo://app?vid=f3c94274-f861-4c89-8bb1-1ebe1a531935","ios":"levelo://app?vid=f3c94274-f861-4c89-8bb1-1ebe1a531935"},"vehicle_type_id":"4","last_reported":1737306442,"current_range_meters":37600,"station_id":"ce4bhgp2rcd13ifvqfd0","pricing_plan_id":"cebpf4jnsgd1na2vs0mg"},{"bike_id":"bdc99daa-dafb-4e6c-9d0d-3050b4483923","system_id":"levelo_inurba_marseille","lat":43.29418,"lon":5.38623,"is_reserved":false,"is_disabled":false,"rental_uris":{"android":"levelo://app?vid=bdc99daa-dafb-4e6c-9d0d-3050b4483923","ios":"levelo://app?vid=bdc99daa-dafb-4e6c-9d0d-3050b4483923"},"vehicle_type_id":"4","last_reported":1737306442,"current_range_meters":26800,"station_id":"ce4bh2h2rcd13ifvqdh0","pricing_plan_id":"cebpf4jnsgd1na2vs0mg"},{"bike_id":"ea820ade-d81d-428e-82b9-7f165f7e8e75","system_id":"levelo_inurba_marseille","lat":43.32369,"lon":5.36772,"is_reserved":false,"is_disabled":false,"rental_uris":{"android":"levelo://app?vid=ea820ade-d81d-428e-82b9-7f165f7e8e75","ios":"levelo://app?vid=ea820ade-d81d-428e-82b9-7f165f7e8e75"},"vehicle_type_id":"4","last_reported":1737306442,"current_range_meters":16000,"station_id":"ce4bhsh2rcd13ifvqi2g","pricing_plan_id":"cebpf4jnsgd1na2vs0mg"},{"bike_id":"c29020e0-83ef-4b06-ac4f-c4422257f84a","system_id":"levelo_inurba_marseille","lat":43.36393,"lon":5.35596,"is_reserved":false,"is_disabled":false,"rental_uris":{"android":"levelo://app?vid=c29020e0-83ef-4b06-ac4f-c4422257f84a","ios":"levelo://app?vid=c29020e0-83ef-4b06-ac4f-c4422257f84a"},"vehicle_type_id":"4","last_reported":1737306442,"current_range_meters":17600,"station_id":"","pricing_plan_id":"cebpf4jnsgd1na2vs0mg"},{"bike_id":"4ff08913-7c01-487b-a58b-f06f3ad0548b","system_id":"levelo_inurba_marseille","lat":43.24178,"lon":5.39724,"is_reserved":false,"is_disabled":false,"rental_uris":{"android":"levelo://app?vid=4ff08913-7c01-487b-a58b-f06f3ad0548b","ios":"levelo://app?vid=4ff08913-7c01-487b-a58b-f06f3ad0548b"},"vehicle_type_id":"4","last_reported":1737306442,"current_range_meters":32800,"station_id":"ce4bhn12rcd13ifvqgpg","pricing_plan_id":"cebpf4jnsgd1na2vs0mg"},{"bike_id":"edf89ed5-ced3-4c92-862f-2b8a9c3c1703","system_id":"levelo_inurba_marseille","lat":43.3014,"lon":5.38785,"is_reserved":false,"is_disabled":false,"rental_uris":{"android":"levelo://app?vid=edf89ed5-ced3-4c92-862f-2b8a9c3c1703","ios":"levelo://app?vid=edf89ed5-ced3-4c92-862f-2b8a9c3c1703"},"vehicle_type_id":"4","last_reported":1737306442,"current_range_meters":15200,"station_id":"ce4bghh2rcd13ifvqb60","pricing_plan_id":"cebpf4jnsgd1na2vs0mg"},{"bike_id":"57e0b0d8-d8ec-40e8-a565-79918766e977","system_id":"levelo_inurba_marseille","lat":43.27574,"lon":5.38428,"is_reserved":false,"is_disabled":false,"rental_uris":{"android":"levelo://app?vid=57e0b0d8-d8ec-40e8-a565-79918766e977","ios":"levelo://app?vid=57e0b0d8-d8ec-40e8-a565-79918766e977"},"vehicle_type_id":"4","last_reported":1737306442,"current_range_meters":36800,"station_id":"ce4bhh92rcd13ifvqfi0","pricing_plan_id":"cebpf4jnsgd1na2vs0mg"},{"bike_id":"6bf5bd29-3e54-437a-9020-86384919dc04","system_id":"levelo_inurba_marseille","lat":43.32304,"lon":5.38262,"is_reserved":false,"is_disabled":false,"rental_uris":{"android":"levelo://app?vid=6bf5bd29-3e54-437a-9020-86384919dc04","ios":"levelo://app?vid=6bf5bd29-3e54-437a-9020-86384919dc04"},"vehicle_type_id":"4","last_reported":1737306442,"current_range_meters":36400,"station_id":"ce4bhr12rcd13ifvqhqg","pricing_plan_id":"cebpf4jnsgd1na2vs0mg"},{"bike_id":"e8751e3c-3ef1-4055-8a90-b724308addd5","system_id":"levelo_inurba_marseille","lat":43.30216,"lon":5.36445,"is_reserved":false,"is_disabled":false,"rental_uris":{"android":"levelo://app?vid=e8751e3c-3ef1-4055-8a90-b724308addd5","ios":"levelo://app?vid=e8751e3c-3ef1-4055-8a90-b724308addd5"},"vehicle_type_id":"4","last_reported":1737306442,"current_range_meters":25600,"station_id":"ce4bh192rcd13ifvqdd0","pricing_plan_id":"cebpf4jnsgd1na2vs0mg"},{"bike_id":"b672b566-ae6e-4181-a2cb-0155be334a04","system_id":"levelo_inurba_marseille","lat":43.2895,"lon":5.36636,"is_reserved":false,"is_disabled":true,"rental_uris":{"android":"levelo://app?vid=b672b566-ae6e-4181-a2cb-0155be334a04","ios":"levelo://app?vid=b672b566-ae6e-4181-a2cb-0155be334a04"},"vehicle_type_id":"4","last_reported":1737306442,"current_range_meters":32800,"station_id":"ce4bhap2rcd13ifvqek0","pricing_plan_id":"cebpf4jnsgd1na2vs0mg"},{"bike_id":"de359285-6551-4a7a-9b07-47eb5926f194","system_id":"levelo_inurba_marseille","lat":43.30591,"lon":5.39358,"is_reserved":false,"is_disabled":false,"rental_uris":{"android":"levelo://app?vid=de359285-6551-4a7a-9b07-47eb5926f194","ios":"levelo://app?vid=de359285-6551-4a7a-9b07-47eb5926f194"},"vehicle_type_id":"4","last_reported":1737306442,"current_range_meters":24800,"station_id":"ce4bh0p2rcd13ifvqd80","pricing_plan_id":"cebpf4jnsgd1na2vs0mg"},{"bike_id":"6e8cf18b-34af-4c46-a48c-4d751ce7fea8","system_id":"levelo_inurba_marseille","lat":43.30145,"lon":5.37412,"is_reserved":false,"is_disabled":false,"rental_uris":{"android":"levelo://app?vid=6e8cf18b-34af-4c46-a48c-4d751ce7fea8","ios":"levelo://app?vid=6e8cf18b-34af-4c46-a48c-4d751ce7fea8"},"vehicle_type_id":"4","last_reported":1737306442,"current_range_meters":20400,"station_id":"ce4bgs92rcd13ifvqcc0","pricing_plan_id":"cebpf4jnsgd1na2vs0mg"},{"bike_id":"04e7f6b2-1170-476d-8eb7-54bc6ab7d23c","system_id":"levelo_inurba_marseille","lat":43.24404,"lon":5.37026,"is_reserved":false,"is_disabled":false,"rental_uris":{"android":"levelo://app?vid=04e7f6b2-1170-476d-8eb7-54bc6ab7d23c","ios":"levelo://app?vid=04e7f6b2-1170-476d-8eb7-54bc6ab7d23c"},"vehicle_type_id":"4","last_reported":1737306442,"current_range_meters":37600,"station_id":"ce4bhhh2rcd13ifvqfk0","pricing_plan_id":"cebpf4jnsgd1na2vs0mg"},{"bike_id":"998774b6-0891-4eb7-8fdd-b7fb48f1e8e8","system_id":"levelo_inurba_marseille","lat":43.26683,"lon":5.38274,"is_reserved":false,"is_disabled":false,"rental_uris":{"android":"levelo://app?vid=998774b6-0891-4eb7-8fdd-b7fb48f1e8e8","ios":"levelo://app?vid=998774b6-0891-4eb7-8fdd-b7fb48f1e8e8"},"vehicle_type_id":"4","last_reported":1737306442,"current_range_meters":13600,"station_id":"ce4bhg92rcd13ifvqf90","pricing_plan_id":"cebpf4jnsgd1na2vs0mg"},{"bike_id":"21f1f408-8cce-4f6a-8206-86319fcf1309","system_id":"levelo_inurba_marseille","lat":43.29025,"lon":5.38147,"is_reserved":false,"is_disabled":false,"rental_uris":{"android":"levelo://app?vid=21f1f408-8cce-4f6a-8206-86319fcf1309","ios":"levelo://app?vid=21f1f408-8cce-4f6a-8206-86319fcf1309"},"vehicle_type_id":"4","last_reported":1737306442,"current_range_meters":30800,"station_id":"ce4bh4p2rcd13ifvqe1g","pricing_plan_id":"cebpf4jnsgd1na2vs0mg"},{"bike_id":"8b00678a-13b8-4a70-9d1d-23208da9bfcf","system_id":"levelo_inurba_marseille","lat":43.26196,"lon":5.37929,"is_reserved":false,"is_disabled":false,"rental_uris":{"android":"levelo://app?vid=8b00678a-13b8-4a70-9d1d-23208da9bfcf","ios":"levelo://app?vid=8b00678a-13b8-4a70-9d1d-23208da9bfcf"},"vehicle_type_id":"4","last_reported":1737306442,"current_range_meters":34000,"station_id":"ce4bhjp2rcd13ifvqg90","pricing_plan_id":"cebpf4jnsgd1na2vs0mg"},{"bike_id":"a1268425-e1b2-45b1-8fbc-9391b8140126","system_id":"levelo_inurba_marseille","lat":43.24391,"lon":5.37052,"is_reserved":false,"is_disabled":false,"rental_uris":{"android":"levelo://app?vid=a1268425-e1b2-45b1-8fbc-9391b8140126","ios":"levelo://app?vid=a1268425-e1b2-45b1-8fbc-9391b8140126"},"vehicle_type_id":"4","last_reported":1737306442,"current_range_meters":28400,"station_id":"ce4bhhh2rcd13ifvqfk0","pricing_plan_id":"cebpf4jnsgd1na2vs0mg"},{"bike_id":"93ccf62e-5857-4ef1-82a1-4115736411fd","system_id":"levelo_inurba_marseille","lat":43.26228,"lon":5.40447,"is_reserved":false,"is_disabled":false,"rental_uris":{"android":"levelo://app?vid=93ccf62e-5857-4ef1-82a1-4115736411fd","ios":"levelo://app?vid=93ccf62e-5857-4ef1-82a1-4115736411fd"},"vehicle_type_id":"4","last_reported":1737306442,"current_range_meters":34800,"station_id":"","pricing_plan_id":"cebpf4jnsgd1na2vs0mg"},{"bike_id":"fd696ea5-d4a5-4e3e-a979-e5953f474b0d","system_id":"levelo_inurba_marseille","lat":43.29892,"lon":5.4367,"is_reserved":false,"is_disabled":false,"rental_uris":{"android":"levelo://app?vid=fd696ea5-d4a5-4e3e-a979-e5953f474b0d","ios":"levelo://app?vid=fd696ea5-d4a5-4e3e-a979-e5953f474b0d"},"vehicle_type_id":"4","last_reported":1737306442,"current_range_meters":32000,"station_id":"ce4bhpp2rcd13ifvqhfg","pricing_plan_id":"cebpf4jnsgd1na2vs0mg"},{"bike_id":"0ebbf58d-0757-4a2d-b07f-fd27e804a0cc","system_id":"levelo_inurba_marseille","lat":43.30194,"lon":5.36623,"is_reserved":false,"is_disabled":false,"rental_uris":{"android":"levelo://app?vid=0ebbf58d-0757-4a2d-b07f-fd27e804a0cc","ios":"levelo://app?vid=0ebbf58d-0757-4a2d-b07f-fd27e804a0cc"},"vehicle_type_id":"4","last_reported":1737306442,"current_range_meters":32400,"station_id":"ce4bgrh2rcd13ifvqc8g","pricing_plan_id":"cebpf4jnsgd1na2vs0mg"},{"bike_id":"80b01635-da8d-49c6-970d-fcae6353de6a","system_id":"levelo_inurba_marseille","lat":43.26942,"lon":5.40246,"is_reserved":false,"is_disabled":false,"rental_uris":{"android":"levelo://app?vid=80b01635-da8d-49c6-970d-fcae6353de6a","ios":"levelo://app?vid=80b01635-da8d-49c6-970d-fcae6353de6a"},"vehicle_type_id":"4","last_reported":1737306442,"current_range_meters":16000,"station_id":"cjm6bp8fraef2m0cb0m0","pricing_plan_id":"cebpf4jnsgd1na2vs0mg"},{"bike_id":"529c5357-3139-4edd-85ea-52fbb21f95f1","system_id":"levelo_inurba_marseille","lat":43.29206,"lon":5.39341,"is_reserved":false,"is_disabled":false,"rental_uris":{"android":"levelo://app?vid=529c5357-3139-4edd-85ea-52fbb21f95f1","ios":"levelo://app?vid=529c5357-3139-4edd-85ea-52fbb21f95f1"},"vehicle_type_id":"4","last_reported":1737306442,"current_range_meters":39200,"station_id":"ce4bh192rcd13ifvqdd0","pricing_plan_id":"cebpf4jnsgd1na2vs0mg"},{"bike_id":"81112329-1dad-4775-ba9b-1357b51686d0","system_id":"levelo_inurba_marseille","lat":43.31332,"lon":5.37352,"is_reserved":false,"is_disabled":false,"rental_uris":{"android":"levelo://app?vid=81112329-1dad-4775-ba9b-1357b51686d0","ios":"levelo://app?vid=81112329-1dad-4775-ba9b-1357b51686d0"},"vehicle_type_id":"4","last_reported":1737306442,"current_range_meters":36000,"station_id":"","pricing_plan_id":"cebpf4jnsgd1na2vs0mg"},{"bike_id":"3a731730-e771-49da-936d-6c5bde95e753","system_id":"levelo_inurba_marseille","lat":43.24374,"lon":5.37082,"is_reserved":false,"is_disabled":false,"rental_uris":{"android":"levelo://app?vid=3a731730-e771-49da-936d-6c5bde95e753","ios":"levelo://app?vid=3a731730-e771-49da-936d-6c5bde95e753"},"vehicle_type_id":"4","last_reported":1737306442,"current_range_meters":10000,"station_id":"ce4bhhh2rcd13ifvqfk0","pricing_plan_id":"cebpf4jnsgd1na2vs0mg"},{"bike_id":"cd25f333-fd4e-4c60-8178-f47ff2a33434","system_id":"levelo_inurba_marseille","lat":43.24392,"lon":5.37046,"is_reserved":false,"is_disabled":false,"rental_uris":{"android":"levelo://app?vid=cd25f333-fd4e-4c60-8178-f47ff2a33434","ios":"levelo://app?vid=cd25f333-fd4e-4c60-8178-f47ff2a33434"},"vehicle_type_id":"4","last_reported":1737306442,"current_range_meters":24400,"station_id":"ce4bhhh2rcd13ifvqfk0","pricing_plan_id":"cebpf4jnsgd1na2vs0mg"},{"bike_id":"7b5cc4cc-e608-454c-95d4-00c7b5c48c31","system_id":"levelo_inurba_marseille","lat":43.25951,"lon":5.40881,"is_reserved":false,"is_disabled":false,"rental_uris":{"android":"levelo://app?vid=7b5cc4cc-e608-454c-95d4-00c7b5c48c31","ios":"levelo://app?vid=7b5cc4cc-e608-454c-95d4-00c7b5c48c31"},"vehicle_type_id":"4","last_reported":1737306442,"current_range_meters":6400,"station_id":"ce4bhm92rcd13ifvqglg","pricing_plan_id":"cebpf4jnsgd1na2vs0mg"},{"bike_id":"f9a10d53-7d23-4a3b-a61c-3be3ac518935","system_id":"levelo_inurba_marseille","lat":43.2961,"lon":5.3808,"is_reserved":false,"is_disabled":false,"rental_uris":{"android":"levelo://app?vid=f9a10d53-7d23-4a3b-a61c-3be3ac518935","ios":"levelo://app?vid=f9a10d53-7d23-4a3b-a61c-3be3ac518935"},"vehicle_type_id":"4","last_reported":1737306442,"current_range_meters":7200,"station_id":"ce4bgl12rcd13ifvqbo0","pricing_plan_id":"cebpf4jnsgd1na2vs0mg"},{"bike_id":"afa3b07f-a639-42dd-abf5-28cc00708042","system_id":"levelo_inurba_marseille","lat":43.29205,"lon":5.39313,"is_reserved":false,"is_disabled":false,"rental_uris":{"android":"levelo://app?vid=afa3b07f-a639-42dd-abf5-28cc00708042","ios":"levelo://app?vid=afa3b07f-a639-42dd-abf5-28cc00708042"},"vehicle_type_id":"4","last_reported":1737306442,"current_range_meters":26000,"station_id":"ce4bh192rcd13ifvqdd0","pricing_plan_id":"cebpf4jnsgd1na2vs0mg"},{"bike_id":"3860f79b-6390-4baa-9962-103869425bc6","system_id":"levelo_inurba_marseille","lat":43.29896,"lon":5.43666,"is_reserved":false,"is_disabled":false,"rental_uris":{"android":"levelo://app?vid=3860f79b-6390-4baa-9962-103869425bc6","ios":"levelo://app?vid=3860f79b-6390-4baa-9962-103869425bc6"},"vehicle_type_id":"4","last_reported":1737306442,"current_range_meters":22000,"station_id":"ce4bhpp2rcd13ifvqhfg","pricing_plan_id":"cebpf4jnsgd1na2vs0mg"},{"bike_id":"98771dd2-dbcc-49da-8f17-f07259fada19","system_id":"levelo_inurba_marseille","lat":43.32,"lon":5.38161,"is_reserved":false,"is_disabled":false,"rental_uris":{"android":"levelo://app?vid=98771dd2-dbcc-49da-8f17-f07259fada19","ios":"levelo://app?vid=98771dd2-dbcc-49da-8f17-f07259fada19"},"vehicle_type_id":"4","last_reported":1737306442,"current_range_meters":5600,"station_id":"ce4bhr12rcd13ifvqhpg","pricing_plan_id":"cebpf4jnsgd1na2vs0mg"},{"bike_id":"ec1ead99-65a0-4333-8a22-ff4e8980ef0e","system_id":"levelo_inurba_marseille","lat":43.26782,"lon":5.39414,"is_reserved":false,"is_disabled":false,"rental_uris":{"android":"levelo://app?vid=ec1ead99-65a0-4333-8a22-ff4e8980ef0e","ios":"levelo://app?vid=ec1ead99-65a0-4333-8a22-ff4e8980ef0e"},"vehicle_type_id":"4","last_reported":1737306442,"current_range_meters":2800,"station_id":"ce4bhh12rcd13ifvqfg0","pricing_plan_id":"cebpf4jnsgd1na2vs0mg"},{"bike_id":"895f1605-a74b-4c29-9571-bdfa62790116","system_id":"levelo_inurba_marseille","lat":43.29075,"lon":5.37174,"is_reserved":false,"is_disabled":false,"rental_uris":{"android":"levelo://app?vid=895f1605-a74b-4c29-9571-bdfa62790116","ios":"levelo://app?vid=895f1605-a74b-4c29-9571-bdfa62790116"},"vehicle_type_id":"4","last_reported":1737306442,"current_range_meters":32400,"station_id":"","pricing_plan_id":"cebpf4jnsgd1na2vs0mg"},{"bike_id":"ba92f0e9-4e5d-4b16-b71c-3f4e05ede3ed","system_id":"levelo_inurba_marseille","lat":43.24074,"lon":5.37757,"is_reserved":false,"is_disabled":false,"rental_uris":{"android":"levelo://app?vid=ba92f0e9-4e5d-4b16-b71c-3f4e05ede3ed","ios":"levelo://app?vid=ba92f0e9-4e5d-4b16-b71c-3f4e05ede3ed"},"vehicle_type_id":"4","last_reported":1737306442,"current_range_meters":37600,"station_id":"ce4bhnp2rcd13ifvqgvg","pricing_plan_id":"cebpf4jnsgd1na2vs0mg"},{"bike_id":"10b8da58-1f12-44b0-8c4c-eff01d48a146","system_id":"levelo_inurba_marseille","lat":43.30653,"lon":5.4009,"is_reserved":false,"is_disabled":true,"rental_uris":{"android":"levelo://app?vid=10b8da58-1f12-44b0-8c4c-eff01d48a146","ios":"levelo://app?vid=10b8da58-1f12-44b0-8c4c-eff01d48a146"},"vehicle_type_id":"4","last_reported":1737306442,"current_range_meters":27600,"station_id":"ce4bh112rcd13ifvqda0","pricing_plan_id":"cebpf4jnsgd1na2vs0mg"},{"bike_id":"ca8aa51d-4833-4c77-8009-59b7c07323a3","system_id":"levelo_inurba_marseille","lat":43.32344,"lon":5.36737,"is_reserved":false,"is_disabled":false,"rental_uris":{"android":"levelo://app?vid=ca8aa51d-4833-4c77-8009-59b7c07323a3","ios":"levelo://app?vid=ca8aa51d-4833-4c77-8009-59b7c07323a3"},"vehicle_type_id":"4","last_reported":1737306442,"current_range_meters":36000,"station_id":"ce4bhsh2rcd13ifvqi2g","pricing_plan_id":"cebpf4jnsgd1na2vs0mg"},{"bike_id":"8572b761-76fc-4b3e-90d3-98c20ac6925f","system_id":"levelo_inurba_marseille","lat":43.30146,"lon":5.3742,"is_reserved":false,"is_disabled":false,"rental_uris":{"android":"levelo://app?vid=8572b761-76fc-4b3e-90d3-98c20ac6925f","ios":"levelo://app?vid=8572b761-76fc-4b3e-90d3-98c20ac6925f"},"vehicle_type_id":"4","last_reported":1737306442,"current_range_meters":38800,"station_id":"ce4bgs92rcd13ifvqcc0","pricing_plan_id":"cebpf4jnsgd1na2vs0mg"},{"bike_id":"9dc49063-283d-43eb-bbfe-31fee7e70777","system_id":"levelo_inurba_marseille","lat":43.3126,"lon":5.3688,"is_reserved":false,"is_disabled":false,"rental_uris":{"android":"levelo://app?vid=9dc49063-283d-43eb-bbfe-31fee7e70777","ios":"levelo://app?vid=9dc49063-283d-43eb-bbfe-31fee7e70777"},"vehicle_type_id":"4","last_reported":1737306442,"current_range_meters":8400,"station_id":"ce4bgl92rcd13ifvqbq0","pricing_plan_id":"cebpf4jnsgd1na2vs0mg"},{"bike_id":"ce0ee56d-180c-40a7-8ee4-1ff6fa737784","system_id":"levelo_inurba_marseille","lat":43.2989,"lon":5.43656,"is_reserved":false,"is_disabled":false,"rental_uris":{"android":"levelo://app?vid=ce0ee56d-180c-40a7-8ee4-1ff6fa737784","ios":"levelo://app?vid=ce0ee56d-180c-40a7-8ee4-1ff6fa737784"},"vehicle_type_id":"4","last_reported":1737306442,"current_range_meters":38800,"station_id":"ce4bhpp2rcd13ifvqhfg","pricing_plan_id":"cebpf4jnsgd1na2vs0mg"},{"bike_id":"57d9fa47-e597-4ea4-913f-9b45079bd718","system_id":"levelo_inurba_marseille","lat":43.330246,"lon":5.390374,"is_reserved":false,"is_disabled":false,"rental_uris":{"android":"levelo://app?vid=57d9fa47-e597-4ea4-913f-9b45079bd718","ios":"levelo://app?vid=57d9fa47-e597-4ea4-913f-9b45079bd718"},"vehicle_type_id":"4","last_reported":1737306442,"current_range_meters":11600,"station_id":"ce4bhr92rcd13ifvqhrg","pricing_plan_id":"cebpf4jnsgd1na2vs0mg"},{"bike_id":"580a1078-cc52-46bd-ab9c-94d60d483c3b","system_id":"levelo_inurba_marseille","lat":43.27071,"lon":5.42279,"is_reserved":false,"is_disabled":false,"rental_uris":{"android":"levelo://app?vid=580a1078-cc52-46bd-ab9c-94d60d483c3b","ios":"levelo://app?vid=580a1078-cc52-46bd-ab9c-94d60d483c3b"},"vehicle_type_id":"4","last_reported":1737306442,"current_range_meters":8000,"station_id":"ce4bhk92rcd13ifvqgb0","pricing_plan_id":"cebpf4jnsgd1na2vs0mg"},{"bike_id":"4ec76aa8-1e80-4051-b2ea-1baaf50a61e8","system_id":"levelo_inurba_marseille","lat":43.24134,"lon":5.38101,"is_reserved":false,"is_disabled":false,"rental_uris":{"android":"levelo://app?vid=4ec76aa8-1e80-4051-b2ea-1baaf50a61e8","ios":"levelo://app?vid=4ec76aa8-1e80-4051-b2ea-1baaf50a61e8"},"vehicle_type_id":"4","last_reported":1737306442,"current_range_meters":17200,"station_id":"","pricing_plan_id":"cebpf4jnsgd1na2vs0mg"},{"bike_id":"27a41d69-37f6-4c77-8e95-11a919a5204c","system_id":"levelo_inurba_marseille","lat":43.31719,"lon":5.37745,"is_reserved":false,"is_disabled":false,"rental_uris":{"android":"levelo://app?vid=27a41d69-37f6-4c77-8e95-11a919a5204c","ios":"levelo://app?vid=27a41d69-37f6-4c77-8e95-11a919a5204c"},"vehicle_type_id":"4","last_reported":1737306442,"current_range_meters":32400,"station_id":"ce4bgth2rcd13ifvqch0","pricing_plan_id":"cebpf4jnsgd1na2vs0mg"},{"bike_id":"bd00f222-ce0c-4f81-a68c-0edabc3e5f6b","system_id":"levelo_inurba_marseille","lat":43.25077,"lon":5.39513,"is_reserved":false,"is_disabled":false,"rental_uris":{"android":"levelo://app?vid=bd00f222-ce0c-4f81-a68c-0edabc3e5f6b","ios":"levelo://app?vid=bd00f222-ce0c-4f81-a68c-0edabc3e5f6b"},"vehicle_type_id":"4","last_reported":1737306442,"current_range_meters":36800,"station_id":"ce4bhm12rcd13ifvqgkg","pricing_plan_id":"cebpf4jnsgd1na2vs0mg"},{"bike_id":"07644896-877c-4389-9e9b-454acfdf8274","system_id":"levelo_inurba_marseille","lat":43.284895,"lon":5.384368,"is_reserved":false,"is_disabled":false,"rental_uris":{"android":"levelo://app?vid=07644896-877c-4389-9e9b-454acfdf8274","ios":"levelo://app?vid=07644896-877c-4389-9e9b-454acfdf8274"},"vehicle_type_id":"4","last_reported":1737306442,"current_range_meters":17600,"station_id":"ce4bh692rcd13ifvqea0","pricing_plan_id":"cebpf4jnsgd1na2vs0mg"},{"bike_id":"b14c698e-ccbd-4931-a1a4-89ecd1354a05","system_id":"levelo_inurba_marseille","lat":43.27437,"lon":5.39402,"is_reserved":false,"is_disabled":true,"rental_uris":{"android":"levelo://app?vid=b14c698e-ccbd-4931-a1a4-89ecd1354a05","ios":"levelo://app?vid=b14c698e-ccbd-4931-a1a4-89ecd1354a05"},"vehicle_type_id":"4","last_reported":1737306442,"current_range_meters":1600,"station_id":"ce4bhdp2rcd13ifvqf20","pricing_plan_id":"cebpf4jnsgd1na2vs0mg"},{"bike_id":"4104cbba-088f-4383-b2a0-261d17699731","system_id":"levelo_inurba_marseille","lat":43.23961,"lon":5.36653,"is_reserved":false,"is_disabled":false,"rental_uris":{"android":"levelo://app?vid=4104cbba-088f-4383-b2a0-261d17699731","ios":"levelo://app?vid=4104cbba-088f-4383-b2a0-261d17699731"},"vehicle_type_id":"4","last_reported":1737306442,"current_range_meters":36400,"station_id":"ce4bhi12rcd13ifvqfp0","pricing_plan_id":"cebpf4jnsgd1na2vs0mg"},{"bike_id":"85a0fe70-a6ed-43c2-bc01-d0ee99bbe486","system_id":"levelo_inurba_marseille","lat":43.312345,"lon":5.368737,"is_reserved":false,"is_disabled":false,"rental_uris":{"android":"levelo://app?vid=85a0fe70-a6ed-43c2-bc01-d0ee99bbe486","ios":"levelo://app?vid=85a0fe70-a6ed-43c2-bc01-d0ee99bbe486"},"vehicle_type_id":"4","last_reported":1737306442,"current_range_meters":18800,"station_id":"ce4bgl92rcd13ifvqbq0","pricing_plan_id":"cebpf4jnsgd1na2vs0mg"},{"bike_id":"fa3ae047-f405-4f0c-8e0e-dbbd46305ff7","system_id":"levelo_inurba_marseille","lat":43.275713,"lon":5.384103,"is_reserved":false,"is_disabled":false,"rental_uris":{"android":"levelo://app?vid=fa3ae047-f405-4f0c-8e0e-dbbd46305ff7","ios":"levelo://app?vid=fa3ae047-f405-4f0c-8e0e-dbbd46305ff7"},"vehicle_type_id":"4","last_reported":1737306442,"current_range_meters":38800,"station_id":"ce4bhh92rcd13ifvqfi0","pricing_plan_id":"cebpf4jnsgd1na2vs0mg"},{"bike_id":"4eab8b95-e725-4774-9c70-d2be6401d290","system_id":"levelo_inurba_marseille","lat":43.32482,"lon":5.36589,"is_reserved":false,"is_disabled":false,"rental_uris":{"android":"levelo://app?vid=4eab8b95-e725-4774-9c70-d2be6401d290","ios":"levelo://app?vid=4eab8b95-e725-4774-9c70-d2be6401d290"},"vehicle_type_id":"4","last_reported":1737306442,"current_range_meters":36400,"station_id":"ce4bhs12rcd13ifvqhvg","pricing_plan_id":"cebpf4jnsgd1na2vs0mg"},{"bike_id":"28ef1c1e-dd89-43e8-817b-9b489831397b","system_id":"levelo_inurba_marseille","lat":43.27099,"lon":5.39591,"is_reserved":false,"is_disabled":true,"rental_uris":{"android":"levelo://app?vid=28ef1c1e-dd89-43e8-817b-9b489831397b","ios":"levelo://app?vid=28ef1c1e-dd89-43e8-817b-9b489831397b"},"vehicle_type_id":"4","last_reported":1737306442,"current_range_meters":0,"station_id":"","pricing_plan_id":"cebpf4jnsgd1na2vs0mg"},{"bike_id":"a090d58d-a1fb-4921-bd15-f1d1e2db9ea4","system_id":"levelo_inurba_marseille","lat":43.24163,"lon":5.39731,"is_reserved":false,"is_disabled":false,"rental_uris":{"android":"levelo://app?vid=a090d58d-a1fb-4921-bd15-f1d1e2db9ea4","ios":"levelo://app?vid=a090d58d-a1fb-4921-bd15-f1d1e2db9ea4"},"vehicle_type_id":"4","last_reported":1737306442,"current_range_meters":29600,"station_id":"ce4bhn12rcd13ifvqgpg","pricing_plan_id":"cebpf4jnsgd1na2vs0mg"},{"bike_id":"7d444872-3fb0-4536-9005-7a5b415b9ac8","system_id":"levelo_inurba_marseille","lat":43.24545,"lon":5.39524,"is_reserved":false,"is_disabled":false,"rental_uris":{"android":"levelo://app?vid=7d444872-3fb0-4536-9005-7a5b415b9ac8","ios":"levelo://app?vid=7d444872-3fb0-4536-9005-7a5b415b9ac8"},"vehicle_type_id":"4","last_reported":1737306442,"current_range_meters":33600,"station_id":"ce4bhlp2rcd13ifvqgjg","pricing_plan_id":"cebpf4jnsgd1na2vs0mg"},{"bike_id":"11bc3fdb-edd8-4f94-a715-82eb4347f04b","system_id":"levelo_inurba_marseille","lat":43.29978,"lon":5.38489,"is_reserved":false,"is_disabled":false,"rental_uris":{"android":"levelo://app?vid=11bc3fdb-edd8-4f94-a715-82eb4347f04b","ios":"levelo://app?vid=11bc3fdb-edd8-4f94-a715-82eb4347f04b"},"vehicle_type_id":"4","last_reported":1737306442,"current_range_meters":25200,"station_id":"ce4bgj92rcd13ifvqbd0","pricing_plan_id":"cebpf4jnsgd1na2vs0mg"},{"bike_id":"357eaeda-fef2-41f2-9ad0-621ae2cc5c09","system_id":"levelo_inurba_marseille","lat":43.33753,"lon":5.37518,"is_reserved":false,"is_disabled":false,"rental_uris":{"android":"levelo://app?vid=357eaeda-fef2-41f2-9ad0-621ae2cc5c09","ios":"levelo://app?vid=357eaeda-fef2-41f2-9ad0-621ae2cc5c09"},"vehicle_type_id":"4","last_reported":1737306442,"current_range_meters":32000,"station_id":"","pricing_plan_id":"cebpf4jnsgd1na2vs0mg"},{"bike_id":"4e12690a-afcc-42a3-add2-5edb16920b78","system_id":"levelo_inurba_marseille","lat":43.25583,"lon":5.38228,"is_reserved":false,"is_disabled":false,"rental_uris":{"android":"levelo://app?vid=4e12690a-afcc-42a3-add2-5edb16920b78","ios":"levelo://app?vid=4e12690a-afcc-42a3-add2-5edb16920b78"},"vehicle_type_id":"4","last_reported":1737306442,"current_range_meters":8000,"station_id":"ce4bhih2rcd13ifvqfs0","pricing_plan_id":"cebpf4jnsgd1na2vs0mg"},{"bike_id":"ce27e413-df3d-41a0-b3b9-f2bea8802047","system_id":"levelo_inurba_marseille","lat":43.28703,"lon":5.37401,"is_reserved":false,"is_disabled":false,"rental_uris":{"android":"levelo://app?vid=ce27e413-df3d-41a0-b3b9-f2bea8802047","ios":"levelo://app?vid=ce27e413-df3d-41a0-b3b9-f2bea8802047"},"vehicle_type_id":"4","last_reported":1737306442,"current_range_meters":30800,"station_id":"ce4bh3p2rcd13ifvqdq0","pricing_plan_id":"cebpf4jnsgd1na2vs0mg"},{"bike_id":"4ca0c0a8-ebec-4495-a31b-51805b75ee6d","system_id":"levelo_inurba_marseille","lat":43.2465,"lon":5.3889,"is_reserved":false,"is_disabled":false,"rental_uris":{"android":"levelo://app?vid=4ca0c0a8-ebec-4495-a31b-51805b75ee6d","ios":"levelo://app?vid=4ca0c0a8-ebec-4495-a31b-51805b75ee6d"},"vehicle_type_id":"4","last_reported":1737306442,"current_range_meters":18000,"station_id":"ce4bhg12rcd13ifvqf60","pricing_plan_id":"cebpf4jnsgd1na2vs0mg"},{"bike_id":"d714004e-0a5d-46dc-8f45-dcd4ee7c47a7","system_id":"levelo_inurba_marseille","lat":43.29532,"lon":5.37499,"is_reserved":false,"is_disabled":true,"rental_uris":{"android":"levelo://app?vid=d714004e-0a5d-46dc-8f45-dcd4ee7c47a7","ios":"levelo://app?vid=d714004e-0a5d-46dc-8f45-dcd4ee7c47a7"},"vehicle_type_id":"4","last_reported":1737306442,"current_range_meters":14400,"station_id":"ce4bgkp2rcd13ifvqbmg","pricing_plan_id":"cebpf4jnsgd1na2vs0mg"},{"bike_id":"e1b56c5d-e12e-4ccf-84ff-3b0dd5942ba0","system_id":"levelo_inurba_marseille","lat":43.29509,"lon":5.42303,"is_reserved":false,"is_disabled":false,"rental_uris":{"android":"levelo://app?vid=e1b56c5d-e12e-4ccf-84ff-3b0dd5942ba0","ios":"levelo://app?vid=e1b56c5d-e12e-4ccf-84ff-3b0dd5942ba0"},"vehicle_type_id":"4","last_reported":1737306442,"current_range_meters":39200,"station_id":"ce4bhph2rcd13ifvqhdg","pricing_plan_id":"cebpf4jnsgd1na2vs0mg"},{"bike_id":"406cf7e1-dd3a-472a-896f-d09b14680f3c","system_id":"levelo_inurba_marseille","lat":43.260624,"lon":5.394128,"is_reserved":false,"is_disabled":false,"rental_uris":{"android":"levelo://app?vid=406cf7e1-dd3a-472a-896f-d09b14680f3c","ios":"levelo://app?vid=406cf7e1-dd3a-472a-896f-d09b14680f3c"},"vehicle_type_id":"4","last_reported":1737306442,"current_range_meters":25600,"station_id":"ce4bhh92rcd13ifvqfj0","pricing_plan_id":"cebpf4jnsgd1na2vs0mg"},{"bike_id":"153a1b26-ca98-4d96-a8a2-a654fdbe2c1e","system_id":"levelo_inurba_marseille","lat":43.2318,"lon":5.39989,"is_reserved":false,"is_disabled":false,"rental_uris":{"android":"levelo://app?vid=153a1b26-ca98-4d96-a8a2-a654fdbe2c1e","ios":"levelo://app?vid=153a1b26-ca98-4d96-a8a2-a654fdbe2c1e"},"vehicle_type_id":"4","last_reported":1737306442,"current_range_meters":1600,"station_id":"ce4bhn12rcd13ifvqgqg","pricing_plan_id":"cebpf4jnsgd1na2vs0mg"},{"bike_id":"01a07bd9-36a1-4c19-a88b-7c9e3a6ee490","system_id":"levelo_inurba_marseille","lat":43.25104,"lon":5.39506,"is_reserved":false,"is_disabled":false,"rental_uris":{"android":"levelo://app?vid=01a07bd9-36a1-4c19-a88b-7c9e3a6ee490","ios":"levelo://app?vid=01a07bd9-36a1-4c19-a88b-7c9e3a6ee490"},"vehicle_type_id":"4","last_reported":1737306442,"current_range_meters":32400,"station_id":"ce4bhm12rcd13ifvqgkg","pricing_plan_id":"cebpf4jnsgd1na2vs0mg"},{"bike_id":"b5c567bd-552a-4a26-9478-5a7d5cb9d3ba","system_id":"levelo_inurba_marseille","lat":43.26685,"lon":5.38275,"is_reserved":false,"is_disabled":false,"rental_uris":{"android":"levelo://app?vid=b5c567bd-552a-4a26-9478-5a7d5cb9d3ba","ios":"levelo://app?vid=b5c567bd-552a-4a26-9478-5a7d5cb9d3ba"},"vehicle_type_id":"4","last_reported":1737306442,"current_range_meters":39200,"station_id":"ce4bhg92rcd13ifvqf90","pricing_plan_id":"cebpf4jnsgd1na2vs0mg"},{"bike_id":"d751e749-afcd-4240-9c1e-54752c62ac8f","system_id":"levelo_inurba_marseille","lat":43.27498,"lon":5.42454,"is_reserved":false,"is_disabled":true,"rental_uris":{"android":"levelo://app?vid=d751e749-afcd-4240-9c1e-54752c62ac8f","ios":"levelo://app?vid=d751e749-afcd-4240-9c1e-54752c62ac8f"},"vehicle_type_id":"4","last_reported":1737306442,"current_range_meters":38400,"station_id":"ce4bhn92rcd13ifvqgrg","pricing_plan_id":"cebpf4jnsgd1na2vs0mg"},{"bike_id":"7508854a-6253-4be6-af5b-228d2f6cb71c","system_id":"levelo_inurba_marseille","lat":43.29264,"lon":5.40924,"is_reserved":false,"is_disabled":true,"rental_uris":{"android":"levelo://app?vid=7508854a-6253-4be6-af5b-228d2f6cb71c","ios":"levelo://app?vid=7508854a-6253-4be6-af5b-228d2f6cb71c"},"vehicle_type_id":"4","last_reported":1737306442,"current_range_meters":0,"station_id":"ce4bh192rcd13ifvqdc0","pricing_plan_id":"cebpf4jnsgd1na2vs0mg"},{"bike_id":"524072f1-ace1-43cc-8007-f91dc732b1f7","system_id":"levelo_inurba_marseille","lat":43.25084,"lon":5.39513,"is_reserved":false,"is_disabled":false,"rental_uris":{"android":"levelo://app?vid=524072f1-ace1-43cc-8007-f91dc732b1f7","ios":"levelo://app?vid=524072f1-ace1-43cc-8007-f91dc732b1f7"},"vehicle_type_id":"4","last_reported":1737306442,"current_range_meters":30800,"station_id":"ce4bhm12rcd13ifvqgkg","pricing_plan_id":"cebpf4jnsgd1na2vs0mg"},{"bike_id":"c42268c0-a5e0-42b8-b874-93ef21576df8","system_id":"levelo_inurba_marseille","lat":43.28157,"lon":5.42639,"is_reserved":false,"is_disabled":false,"rental_uris":{"android":"levelo://app?vid=c42268c0-a5e0-42b8-b874-93ef21576df8","ios":"levelo://app?vid=c42268c0-a5e0-42b8-b874-93ef21576df8"},"vehicle_type_id":"4","last_reported":1737306442,"current_range_meters":27200,"station_id":"ce4bhnh2rcd13ifvqgug","pricing_plan_id":"cebpf4jnsgd1na2vs0mg"},{"bike_id":"65a67c24-b043-409c-9b6c-49d12733cda3","system_id":"levelo_inurba_marseille","lat":43.27328,"lon":5.39116,"is_reserved":false,"is_disabled":false,"rental_uris":{"android":"levelo://app?vid=65a67c24-b043-409c-9b6c-49d12733cda3","ios":"levelo://app?vid=65a67c24-b043-409c-9b6c-49d12733cda3"},"vehicle_type_id":"4","last_reported":1737306442,"current_range_meters":35200,"station_id":"ce4bhgp2rcd13ifvqfe0","pricing_plan_id":"cebpf4jnsgd1na2vs0mg"},{"bike_id":"0f2743d1-4d5e-4f5d-80a9-2ff55d9ea33b","system_id":"levelo_inurba_marseille","lat":43.24075,"lon":5.377568,"is_reserved":false,"is_disabled":false,"rental_uris":{"android":"levelo://app?vid=0f2743d1-4d5e-4f5d-80a9-2ff55d9ea33b","ios":"levelo://app?vid=0f2743d1-4d5e-4f5d-80a9-2ff55d9ea33b"},"vehicle_type_id":"4","last_reported":1737306442,"current_range_meters":35200,"station_id":"ce4bhnp2rcd13ifvqgvg","pricing_plan_id":"cebpf4jnsgd1na2vs0mg"},{"bike_id":"6c856576-b5fe-48dd-b2ab-0a4b615188d9","system_id":"levelo_inurba_marseille","lat":43.32336,"lon":5.40626,"is_reserved":false,"is_disabled":true,"rental_uris":{"android":"levelo://app?vid=6c856576-b5fe-48dd-b2ab-0a4b615188d9","ios":"levelo://app?vid=6c856576-b5fe-48dd-b2ab-0a4b615188d9"},"vehicle_type_id":"4","last_reported":1737306442,"current_range_meters":0,"station_id":"ce4bhq92rcd13ifvqhjg","pricing_plan_id":"cebpf4jnsgd1na2vs0mg"},{"bike_id":"392d5c13-52e3-4447-bb35-77b670143dc4","system_id":"levelo_inurba_marseille","lat":43.23964,"lon":5.36615,"is_reserved":false,"is_disabled":false,"rental_uris":{"android":"levelo://app?vid=392d5c13-52e3-4447-bb35-77b670143dc4","ios":"levelo://app?vid=392d5c13-52e3-4447-bb35-77b670143dc4"},"vehicle_type_id":"4","last_reported":1737306442,"current_range_meters":32400,"station_id":"ce4bhi12rcd13ifvqfp0","pricing_plan_id":"cebpf4jnsgd1na2vs0mg"},{"bike_id":"2fe714af-3e6c-4878-a485-b58802a106bf","system_id":"levelo_inurba_marseille","lat":43.25718,"lon":5.41109,"is_reserved":false,"is_disabled":false,"rental_uris":{"android":"levelo://app?vid=2fe714af-3e6c-4878-a485-b58802a106bf","ios":"levelo://app?vid=2fe714af-3e6c-4878-a485-b58802a106bf"},"vehicle_type_id":"4","last_reported":1737306442,"current_range_meters":28800,"station_id":"ce4bhkp2rcd13ifvqgd0","pricing_plan_id":"cebpf4jnsgd1na2vs0mg"},{"bike_id":"4291632b-b89c-4c47-8e03-1ac2c74e4815","system_id":"levelo_inurba_marseille","lat":43.24155,"lon":5.39724,"is_reserved":false,"is_disabled":false,"rental_uris":{"android":"levelo://app?vid=4291632b-b89c-4c47-8e03-1ac2c74e4815","ios":"levelo://app?vid=4291632b-b89c-4c47-8e03-1ac2c74e4815"},"vehicle_type_id":"4","last_reported":1737306442,"current_range_meters":37600,"station_id":"ce4bhn12rcd13ifvqgpg","pricing_plan_id":"cebpf4jnsgd1na2vs0mg"},{"bike_id":"ee73fa00-f9a6-49b4-893a-68a7f4e3a906","system_id":"levelo_inurba_marseille","lat":43.24663,"lon":5.38165,"is_reserved":false,"is_disabled":false,"rental_uris":{"android":"levelo://app?vid=ee73fa00-f9a6-49b4-893a-68a7f4e3a906","ios":"levelo://app?vid=ee73fa00-f9a6-49b4-893a-68a7f4e3a906"},"vehicle_type_id":"4","last_reported":1737306442,"current_range_meters":20000,"station_id":"ce4bhih2rcd13ifvqfr0","pricing_plan_id":"cebpf4jnsgd1na2vs0mg"},{"bike_id":"cb023393-3cf4-4a90-91bf-27968d7b6e27","system_id":"levelo_inurba_marseille","lat":43.24813,"lon":5.37449,"is_reserved":false,"is_disabled":false,"rental_uris":{"android":"levelo://app?vid=cb023393-3cf4-4a90-91bf-27968d7b6e27","ios":"levelo://app?vid=cb023393-3cf4-4a90-91bf-27968d7b6e27"},"vehicle_type_id":"4","last_reported":1737306442,"current_range_meters":38800,"station_id":"ce4bhgh2rcd13ifvqfb0","pricing_plan_id":"cebpf4jnsgd1na2vs0mg"},{"bike_id":"8e7b76ca-5077-464a-84f9-764ce4ba6856","system_id":"levelo_inurba_marseille","lat":43.29637,"lon":5.3714,"is_reserved":false,"is_disabled":false,"rental_uris":{"android":"levelo://app?vid=8e7b76ca-5077-464a-84f9-764ce4ba6856","ios":"levelo://app?vid=8e7b76ca-5077-464a-84f9-764ce4ba6856"},"vehicle_type_id":"4","last_reported":1737306442,"current_range_meters":28000,"station_id":"ce4bgnh2rcd13ifvqc0g","pricing_plan_id":"cebpf4jnsgd1na2vs0mg"},{"bike_id":"f988635c-eb41-4891-8453-13569acb2193","system_id":"levelo_inurba_marseille","lat":43.28354,"lon":5.38123,"is_reserved":false,"is_disabled":false,"rental_uris":{"android":"levelo://app?vid=f988635c-eb41-4891-8453-13569acb2193","ios":"levelo://app?vid=f988635c-eb41-4891-8453-13569acb2193"},"vehicle_type_id":"4","last_reported":1737306442,"current_range_meters":32000,"station_id":"ce4bh412rcd13ifvqdr0","pricing_plan_id":"cebpf4jnsgd1na2vs0mg"},{"bike_id":"1eac1201-2524-4e56-b710-0022cecbbb42","system_id":"levelo_inurba_marseille","lat":43.28468,"lon":5.38418,"is_reserved":false,"is_disabled":false,"rental_uris":{"android":"levelo://app?vid=1eac1201-2524-4e56-b710-0022cecbbb42","ios":"levelo://app?vid=1eac1201-2524-4e56-b710-0022cecbbb42"},"vehicle_type_id":"4","last_reported":1737306442,"current_range_meters":10000,"station_id":"ce4bh512rcd13ifvqe3g","pricing_plan_id":"cebpf4jnsgd1na2vs0mg"},{"bike_id":"da0c1458-7a2f-497b-bc8a-70e13e9507b3","system_id":"levelo_inurba_marseille","lat":43.29906,"lon":5.38894,"is_reserved":false,"is_disabled":false,"rental_uris":{"android":"levelo://app?vid=da0c1458-7a2f-497b-bc8a-70e13e9507b3","ios":"levelo://app?vid=da0c1458-7a2f-497b-bc8a-70e13e9507b3"},"vehicle_type_id":"4","last_reported":1737306442,"current_range_meters":26000,"station_id":"ce4bh392rcd13ifvqdl0","pricing_plan_id":"cebpf4jnsgd1na2vs0mg"},{"bike_id":"b4fbb863-fa8c-4f37-acd1-807fe55e9a38","system_id":"levelo_inurba_marseille","lat":43.29797,"lon":5.39351,"is_reserved":false,"is_disabled":false,"rental_uris":{"android":"levelo://app?vid=b4fbb863-fa8c-4f37-acd1-807fe55e9a38","ios":"levelo://app?vid=b4fbb863-fa8c-4f37-acd1-807fe55e9a38"},"vehicle_type_id":"4","last_reported":1737306442,"current_range_meters":38800,"station_id":"chh1huq6cuj3fo74tm60","pricing_plan_id":"cebpf4jnsgd1na2vs0mg"},{"bike_id":"80bcc3e7-77de-44a5-8965-f19acb6d7452","system_id":"levelo_inurba_marseille","lat":43.33022,"lon":5.39047,"is_reserved":false,"is_disabled":false,"rental_uris":{"android":"levelo://app?vid=80bcc3e7-77de-44a5-8965-f19acb6d7452","ios":"levelo://app?vid=80bcc3e7-77de-44a5-8965-f19acb6d7452"},"vehicle_type_id":"4","last_reported":1737306442,"current_range_meters":34000,"station_id":"ce4bhr92rcd13ifvqhrg","pricing_plan_id":"cebpf4jnsgd1na2vs0mg"},{"bike_id":"f4a4a406-b0a5-42fc-9236-32e93ac6f6b2","system_id":"levelo_inurba_marseille","lat":43.23155,"lon":5.43659,"is_reserved":false,"is_disabled":true,"rental_uris":{"android":"levelo://app?vid=f4a4a406-b0a5-42fc-9236-32e93ac6f6b2","ios":"levelo://app?vid=f4a4a406-b0a5-42fc-9236-32e93ac6f6b2"},"vehicle_type_id":"4","last_reported":1737306442,"current_range_meters":25200,"station_id":"ce4bhmp2rcd13ifvqgog","pricing_plan_id":"cebpf4jnsgd1na2vs0mg"},{"bike_id":"210ffe2d-27bf-471a-a897-ba0eb55d9e2b","system_id":"levelo_inurba_marseille","lat":43.27069,"lon":5.42262,"is_reserved":false,"is_disabled":false,"rental_uris":{"android":"levelo://app?vid=210ffe2d-27bf-471a-a897-ba0eb55d9e2b","ios":"levelo://app?vid=210ffe2d-27bf-471a-a897-ba0eb55d9e2b"},"vehicle_type_id":"4","last_reported":1737306442,"current_range_meters":34000,"station_id":"ce4bhk92rcd13ifvqgb0","pricing_plan_id":"cebpf4jnsgd1na2vs0mg"},{"bike_id":"e16bfad3-6e5c-42b6-90cd-e77c51d0ba6a","system_id":"levelo_inurba_marseille","lat":43.29915,"lon":5.38136,"is_reserved":false,"is_disabled":true,"rental_uris":{"android":"levelo://app?vid=e16bfad3-6e5c-42b6-90cd-e77c51d0ba6a","ios":"levelo://app?vid=e16bfad3-6e5c-42b6-90cd-e77c51d0ba6a"},"vehicle_type_id":"4","last_reported":1737306442,"current_range_meters":18800,"station_id":"ce4bgj12rcd13ifvqbc0","pricing_plan_id":"cebpf4jnsgd1na2vs0mg"},{"bike_id":"1d21ca2c-63c1-4c84-b04c-18a9d4c753e4","system_id":"levelo_inurba_marseille","lat":43.298,"lon":5.38099,"is_reserved":false,"is_disabled":false,"rental_uris":{"android":"levelo://app?vid=1d21ca2c-63c1-4c84-b04c-18a9d4c753e4","ios":"levelo://app?vid=1d21ca2c-63c1-4c84-b04c-18a9d4c753e4"},"vehicle_type_id":"4","last_reported":1737306442,"current_range_meters":19200,"station_id":"ce4bgip2rcd13ifvqbb0","pricing_plan_id":"cebpf4jnsgd1na2vs0mg"},{"bike_id":"be5113e5-62aa-434d-bbad-4caab0aaa45c","system_id":"levelo_inurba_marseille","lat":43.30429,"lon":5.39764,"is_reserved":false,"is_disabled":false,"rental_uris":{"android":"levelo://app?vid=be5113e5-62aa-434d-bbad-4caab0aaa45c","ios":"levelo://app?vid=be5113e5-62aa-434d-bbad-4caab0aaa45c"},"vehicle_type_id":"4","last_reported":1737306442,"current_range_meters":37600,"station_id":"ce4bh092rcd13ifvqd20","pricing_plan_id":"cebpf4jnsgd1na2vs0mg"},{"bike_id":"cfc91910-4db3-496b-bdd9-f04e77fbf554","system_id":"levelo_inurba_marseille","lat":43.27059,"lon":5.40264,"is_reserved":false,"is_disabled":false,"rental_uris":{"android":"levelo://app?vid=cfc91910-4db3-496b-bdd9-f04e77fbf554","ios":"levelo://app?vid=cfc91910-4db3-496b-bdd9-f04e77fbf554"},"vehicle_type_id":"4","last_reported":1737306442,"current_range_meters":18800,"station_id":"ce4bhk92rcd13ifvqgc0","pricing_plan_id":"cebpf4jnsgd1na2vs0mg"},{"bike_id":"227a6e1e-06e0-49aa-9e1c-30318de21751","system_id":"levelo_inurba_marseille","lat":43.2937,"lon":5.37843,"is_reserved":false,"is_disabled":false,"rental_uris":{"android":"levelo://app?vid=227a6e1e-06e0-49aa-9e1c-30318de21751","ios":"levelo://app?vid=227a6e1e-06e0-49aa-9e1c-30318de21751"},"vehicle_type_id":"4","last_reported":1737306442,"current_range_meters":25600,"station_id":"ce4bgjh2rcd13ifvqbf0","pricing_plan_id":"cebpf4jnsgd1na2vs0mg"},{"bike_id":"d4b1dc67-d35c-487e-8181-3ff9838bf4c1","system_id":"levelo_inurba_marseille","lat":43.24669,"lon":5.38169,"is_reserved":false,"is_disabled":false,"rental_uris":{"android":"levelo://app?vid=d4b1dc67-d35c-487e-8181-3ff9838bf4c1","ios":"levelo://app?vid=d4b1dc67-d35c-487e-8181-3ff9838bf4c1"},"vehicle_type_id":"4","last_reported":1737306442,"current_range_meters":2800,"station_id":"ce4bhih2rcd13ifvqfr0","pricing_plan_id":"cebpf4jnsgd1na2vs0mg"},{"bike_id":"234d1550-b7dd-465b-9578-32049a642f2b","system_id":"levelo_inurba_marseille","lat":43.29974,"lon":5.41323,"is_reserved":false,"is_disabled":false,"rental_uris":{"android":"levelo://app?vid=234d1550-b7dd-465b-9578-32049a642f2b","ios":"levelo://app?vid=234d1550-b7dd-465b-9578-32049a642f2b"},"vehicle_type_id":"4","last_reported":1737306442,"current_range_meters":34800,"station_id":"ce4bhp12rcd13ifvqh9g","pricing_plan_id":"cebpf4jnsgd1na2vs0mg"},{"bike_id":"5d510905-1ec5-4e64-9b99-f297738b580c","system_id":"levelo_inurba_marseille","lat":43.2988,"lon":5.38921,"is_reserved":false,"is_disabled":false,"rental_uris":{"android":"levelo://app?vid=5d510905-1ec5-4e64-9b99-f297738b580c","ios":"levelo://app?vid=5d510905-1ec5-4e64-9b99-f297738b580c"},"vehicle_type_id":"4","last_reported":1737306442,"current_range_meters":38000,"station_id":"ce4bh392rcd13ifvqdl0","pricing_plan_id":"cebpf4jnsgd1na2vs0mg"},{"bike_id":"72729c7c-484f-41b0-8926-1dfd8ab8e79e","system_id":"levelo_inurba_marseille","lat":43.28047,"lon":5.36948,"is_reserved":false,"is_disabled":false,"rental_uris":{"android":"levelo://app?vid=72729c7c-484f-41b0-8926-1dfd8ab8e79e","ios":"levelo://app?vid=72729c7c-484f-41b0-8926-1dfd8ab8e79e"},"vehicle_type_id":"4","last_reported":1737306442,"current_range_meters":38800,"station_id":"ce4bha12rcd13ifvqef0","pricing_plan_id":"cebpf4jnsgd1na2vs0mg"},{"bike_id":"427adfa9-113c-4817-9db8-65205ccf4edf","system_id":"levelo_inurba_marseille","lat":43.31688,"lon":5.40475,"is_reserved":false,"is_disabled":false,"rental_uris":{"android":"levelo://app?vid=427adfa9-113c-4817-9db8-65205ccf4edf","ios":"levelo://app?vid=427adfa9-113c-4817-9db8-65205ccf4edf"},"vehicle_type_id":"4","last_reported":1737306442,"current_range_meters":30000,"station_id":"ce4bh012rcd13ifvqd00","pricing_plan_id":"cebpf4jnsgd1na2vs0mg"},{"bike_id":"be45b42d-0579-4785-8353-135468138d59","system_id":"levelo_inurba_marseille","lat":43.2845,"lon":5.39212,"is_reserved":false,"is_disabled":false,"rental_uris":{"android":"levelo://app?vid=be45b42d-0579-4785-8353-135468138d59","ios":"levelo://app?vid=be45b42d-0579-4785-8353-135468138d59"},"vehicle_type_id":"4","last_reported":1737306442,"current_range_meters":10000,"station_id":"ce4bhoh2rcd13ifvqh5g","pricing_plan_id":"cebpf4jnsgd1na2vs0mg"},{"bike_id":"8d6bb48d-5f03-4ca8-bbb4-42770a97f63b","system_id":"levelo_inurba_marseille","lat":43.29124,"lon":5.38112,"is_reserved":false,"is_disabled":false,"rental_uris":{"android":"levelo://app?vid=8d6bb48d-5f03-4ca8-bbb4-42770a97f63b","ios":"levelo://app?vid=8d6bb48d-5f03-4ca8-bbb4-42770a97f63b"},"vehicle_type_id":"4","last_reported":1737306442,"current_range_meters":39200,"station_id":"ce4bh512rcd13ifvqe2g","pricing_plan_id":"cebpf4jnsgd1na2vs0mg"},{"bike_id":"a2e709f9-6f94-4c83-b323-d7d411dcacbe","system_id":"levelo_inurba_marseille","lat":43.2679,"lon":5.39407,"is_reserved":false,"is_disabled":true,"rental_uris":{"android":"levelo://app?vid=a2e709f9-6f94-4c83-b323-d7d411dcacbe","ios":"levelo://app?vid=a2e709f9-6f94-4c83-b323-d7d411dcacbe"},"vehicle_type_id":"4","last_reported":1737306442,"current_range_meters":1200,"station_id":"ce4bhh12rcd13ifvqfg0","pricing_plan_id":"cebpf4jnsgd1na2vs0mg"},{"bike_id":"56b8e9bc-f750-4815-bc98-9098414d16db","system_id":"levelo_inurba_marseille","lat":43.23199,"lon":5.35546,"is_reserved":false,"is_disabled":true,"rental_uris":{"android":"levelo://app?vid=56b8e9bc-f750-4815-bc98-9098414d16db","ios":"levelo://app?vid=56b8e9bc-f750-4815-bc98-9098414d16db"},"vehicle_type_id":"4","last_reported":1737306442,"current_range_meters":0,"station_id":"ce4bhu92rcd13ifvqi70","pricing_plan_id":"cebpf4jnsgd1na2vs0mg"},{"bike_id":"0e91b70c-1e42-4d65-a90a-72cbd40954b0","system_id":"levelo_inurba_marseille","lat":43.3236,"lon":5.36768,"is_reserved":false,"is_disabled":false,"rental_uris":{"android":"levelo://app?vid=0e91b70c-1e42-4d65-a90a-72cbd40954b0","ios":"levelo://app?vid=0e91b70c-1e42-4d65-a90a-72cbd40954b0"},"vehicle_type_id":"4","last_reported":1737306442,"current_range_meters":7200,"station_id":"ce4bhsh2rcd13ifvqi2g","pricing_plan_id":"cebpf4jnsgd1na2vs0mg"},{"bike_id":"fcff8b6e-6484-4e4c-8d98-9ab325ed2e27","system_id":"levelo_inurba_marseille","lat":43.3248,"lon":5.36582,"is_reserved":false,"is_disabled":false,"rental_uris":{"android":"levelo://app?vid=fcff8b6e-6484-4e4c-8d98-9ab325ed2e27","ios":"levelo://app?vid=fcff8b6e-6484-4e4c-8d98-9ab325ed2e27"},"vehicle_type_id":"4","last_reported":1737306442,"current_range_meters":38000,"station_id":"ce4bhs12rcd13ifvqhvg","pricing_plan_id":"cebpf4jnsgd1na2vs0mg"},{"bike_id":"7f6908f7-cfcb-4080-a4c3-d5b221bf885b","system_id":"levelo_inurba_marseille","lat":43.32028,"lon":5.4158,"is_reserved":false,"is_disabled":true,"rental_uris":{"android":"levelo://app?vid=7f6908f7-cfcb-4080-a4c3-d5b221bf885b","ios":"levelo://app?vid=7f6908f7-cfcb-4080-a4c3-d5b221bf885b"},"vehicle_type_id":"4","last_reported":1737306442,"current_range_meters":1200,"station_id":"ce4bhq92rcd13ifvqhkg","pricing_plan_id":"cebpf4jnsgd1na2vs0mg"},{"bike_id":"5cd94a0e-fd70-4288-b946-35e23c44a0db","system_id":"levelo_inurba_marseille","lat":43.29255,"lon":5.40106,"is_reserved":false,"is_disabled":false,"rental_uris":{"android":"levelo://app?vid=5cd94a0e-fd70-4288-b946-35e23c44a0db","ios":"levelo://app?vid=5cd94a0e-fd70-4288-b946-35e23c44a0db"},"vehicle_type_id":"4","last_reported":1737306442,"current_range_meters":8800,"station_id":"ce4bh312rcd13ifvqdk0","pricing_plan_id":"cebpf4jnsgd1na2vs0mg"},{"bike_id":"8ff75af4-f7c6-4467-9183-ca155a200aa2","system_id":"levelo_inurba_marseille","lat":43.26944,"lon":5.40246,"is_reserved":false,"is_disabled":false,"rental_uris":{"android":"levelo://app?vid=8ff75af4-f7c6-4467-9183-ca155a200aa2","ios":"levelo://app?vid=8ff75af4-f7c6-4467-9183-ca155a200aa2"},"vehicle_type_id":"4","last_reported":1737306442,"current_range_meters":17200,"station_id":"cjm6bp8fraef2m0cb0m0","pricing_plan_id":"cebpf4jnsgd1na2vs0mg"},{"bike_id":"b1a75506-186b-4c9c-a730-b2eb76aae481","system_id":"levelo_inurba_marseille","lat":43.27563,"lon":5.38413,"is_reserved":false,"is_disabled":false,"rental_uris":{"android":"levelo://app?vid=b1a75506-186b-4c9c-a730-b2eb76aae481","ios":"levelo://app?vid=b1a75506-186b-4c9c-a730-b2eb76aae481"},"vehicle_type_id":"4","last_reported":1737306442,"current_range_meters":38800,"station_id":"ce4bhh92rcd13ifvqfi0","pricing_plan_id":"cebpf4jnsgd1na2vs0mg"},{"bike_id":"0966a8a8-2d5b-449d-8d62-52bfeeb2bcde","system_id":"levelo_inurba_marseille","lat":43.29734,"lon":5.37685,"is_reserved":false,"is_disabled":true,"rental_uris":{"android":"levelo://app?vid=0966a8a8-2d5b-449d-8d62-52bfeeb2bcde","ios":"levelo://app?vid=0966a8a8-2d5b-449d-8d62-52bfeeb2bcde"},"vehicle_type_id":"4","last_reported":1737306442,"current_range_meters":36800,"station_id":"ce4bgkh2rcd13ifvqbl0","pricing_plan_id":"cebpf4jnsgd1na2vs0mg"},{"bike_id":"22465212-93af-4e0b-b803-6ee82bba56d5","system_id":"levelo_inurba_marseille","lat":43.33759,"lon":5.3748,"is_reserved":false,"is_disabled":false,"rental_uris":{"android":"levelo://app?vid=22465212-93af-4e0b-b803-6ee82bba56d5","ios":"levelo://app?vid=22465212-93af-4e0b-b803-6ee82bba56d5"},"vehicle_type_id":"4","last_reported":1737306442,"current_range_meters":27600,"station_id":"","pricing_plan_id":"cebpf4jnsgd1na2vs0mg"},{"bike_id":"d6d1604c-c524-40c9-b4a5-227697805b64","system_id":"levelo_inurba_marseille","lat":43.29907,"lon":5.3973,"is_reserved":false,"is_disabled":true,"rental_uris":{"android":"levelo://app?vid=d6d1604c-c524-40c9-b4a5-227697805b64","ios":"levelo://app?vid=d6d1604c-c524-40c9-b4a5-227697805b64"},"vehicle_type_id":"4","last_reported":1737306442,"current_range_meters":0,"station_id":"ce4bh0h2rcd13ifvqd50","pricing_plan_id":"cebpf4jnsgd1na2vs0mg"},{"bike_id":"3faf13fb-f92c-4f5b-868a-d4b0425a1826","system_id":"levelo_inurba_marseille","lat":43.268,"lon":5.40267,"is_reserved":false,"is_disabled":false,"rental_uris":{"android":"levelo://app?vid=3faf13fb-f92c-4f5b-868a-d4b0425a1826","ios":"levelo://app?vid=3faf13fb-f92c-4f5b-868a-d4b0425a1826"},"vehicle_type_id":"4","last_reported":1737306442,"current_range_meters":30400,"station_id":"ce501612rcd8frsf0b60","pricing_plan_id":"cebpf4jnsgd1na2vs0mg"},{"bike_id":"f674180c-7722-4390-bd62-e8d55dacddfb","system_id":"levelo_inurba_marseille","lat":43.2917,"lon":5.37162,"is_reserved":false,"is_disabled":false,"rental_uris":{"android":"levelo://app?vid=f674180c-7722-4390-bd62-e8d55dacddfb","ios":"levelo://app?vid=f674180c-7722-4390-bd62-e8d55dacddfb"},"vehicle_type_id":"4","last_reported":1737306442,"current_range_meters":30400,"station_id":"ce4bha92rcd13ifvqeh0","pricing_plan_id":"cebpf4jnsgd1na2vs0mg"},{"bike_id":"6a12bd71-874b-4cd1-8cfd-fc720b60dd9a","system_id":"levelo_inurba_marseille","lat":43.29976,"lon":5.38497,"is_reserved":false,"is_disabled":false,"rental_uris":{"android":"levelo://app?vid=6a12bd71-874b-4cd1-8cfd-fc720b60dd9a","ios":"levelo://app?vid=6a12bd71-874b-4cd1-8cfd-fc720b60dd9a"},"vehicle_type_id":"4","last_reported":1737306442,"current_range_meters":22800,"station_id":"ce4bgj92rcd13ifvqbd0","pricing_plan_id":"cebpf4jnsgd1na2vs0mg"},{"bike_id":"19fb1931-f075-402c-a076-088e72accb76","system_id":"levelo_inurba_marseille","lat":43.24808,"lon":5.37452,"is_reserved":false,"is_disabled":false,"rental_uris":{"android":"levelo://app?vid=19fb1931-f075-402c-a076-088e72accb76","ios":"levelo://app?vid=19fb1931-f075-402c-a076-088e72accb76"},"vehicle_type_id":"4","last_reported":1737306442,"current_range_meters":10000,"station_id":"ce4bhgh2rcd13ifvqfb0","pricing_plan_id":"cebpf4jnsgd1na2vs0mg"},{"bike_id":"0d0a9787-dc25-4549-b9d1-4116921e2b21","system_id":"levelo_inurba_marseille","lat":43.31755,"lon":5.390039,"is_reserved":false,"is_disabled":false,"rental_uris":{"android":"levelo://app?vid=0d0a9787-dc25-4549-b9d1-4116921e2b21","ios":"levelo://app?vid=0d0a9787-dc25-4549-b9d1-4116921e2b21"},"vehicle_type_id":"4","last_reported":1737306442,"current_range_meters":38800,"station_id":"ce4bhqp2rcd13ifvqhng","pricing_plan_id":"cebpf4jnsgd1na2vs0mg"},{"bike_id":"c56e927b-d311-4e6d-ab86-e05729763fff","system_id":"levelo_inurba_marseille","lat":43.31524,"lon":5.38033,"is_reserved":false,"is_disabled":false,"rental_uris":{"android":"levelo://app?vid=c56e927b-d311-4e6d-ab86-e05729763fff","ios":"levelo://app?vid=c56e927b-d311-4e6d-ab86-e05729763fff"},"vehicle_type_id":"4","last_reported":1737306442,"current_range_meters":31200,"station_id":"ce4bhsp2rcd13ifvqi50","pricing_plan_id":"cebpf4jnsgd1na2vs0mg"},{"bike_id":"16a7176a-24c9-4d21-8155-eb4f5f1f837c","system_id":"levelo_inurba_marseille","lat":43.2468,"lon":5.38181,"is_reserved":false,"is_disabled":false,"rental_uris":{"android":"levelo://app?vid=16a7176a-24c9-4d21-8155-eb4f5f1f837c","ios":"levelo://app?vid=16a7176a-24c9-4d21-8155-eb4f5f1f837c"},"vehicle_type_id":"4","last_reported":1737306442,"current_range_meters":38000,"station_id":"ce4bhih2rcd13ifvqfr0","pricing_plan_id":"cebpf4jnsgd1na2vs0mg"},{"bike_id":"d447af06-3ffa-488a-80bd-7f56da277dbb","system_id":"levelo_inurba_marseille","lat":43.27833,"lon":5.39215,"is_reserved":false,"is_disabled":false,"rental_uris":{"android":"levelo://app?vid=d447af06-3ffa-488a-80bd-7f56da277dbb","ios":"levelo://app?vid=d447af06-3ffa-488a-80bd-7f56da277dbb"},"vehicle_type_id":"4","last_reported":1737306442,"current_range_meters":14000,"station_id":"ce4bhjp2rcd13ifvqga0","pricing_plan_id":"cebpf4jnsgd1na2vs0mg"},{"bike_id":"82eafdac-bd81-479d-a7b0-05db8ca76c26","system_id":"levelo_inurba_marseille","lat":43.25833,"lon":5.39412,"is_reserved":false,"is_disabled":true,"rental_uris":{"android":"levelo://app?vid=82eafdac-bd81-479d-a7b0-05db8ca76c26","ios":"levelo://app?vid=82eafdac-bd81-479d-a7b0-05db8ca76c26"},"vehicle_type_id":"4","last_reported":1737306442,"current_range_meters":38800,"station_id":"ce4bhip2rcd13ifvqft0","pricing_plan_id":"cebpf4jnsgd1na2vs0mg"},{"bike_id":"aca483db-0b8d-469f-b864-7fdb7898f9bc","system_id":"levelo_inurba_marseille","lat":43.29206,"lon":5.39329,"is_reserved":false,"is_disabled":false,"rental_uris":{"android":"levelo://app?vid=aca483db-0b8d-469f-b864-7fdb7898f9bc","ios":"levelo://app?vid=aca483db-0b8d-469f-b864-7fdb7898f9bc"},"vehicle_type_id":"4","last_reported":1737306442,"current_range_meters":24000,"station_id":"ce4bh192rcd13ifvqdd0","pricing_plan_id":"cebpf4jnsgd1na2vs0mg"},{"bike_id":"500360e1-4420-4f10-8444-8eb267b9c3cc","system_id":"levelo_inurba_marseille","lat":43.29984,"lon":5.38484,"is_reserved":false,"is_disabled":false,"rental_uris":{"android":"levelo://app?vid=500360e1-4420-4f10-8444-8eb267b9c3cc","ios":"levelo://app?vid=500360e1-4420-4f10-8444-8eb267b9c3cc"},"vehicle_type_id":"4","last_reported":1737306442,"current_range_meters":27600,"station_id":"ce4bgj92rcd13ifvqbd0","pricing_plan_id":"cebpf4jnsgd1na2vs0mg"},{"bike_id":"165dc6ba-8f94-453c-8760-450fa6b594b7","system_id":"levelo_inurba_marseille","lat":43.32486,"lon":5.36574,"is_reserved":false,"is_disabled":false,"rental_uris":{"android":"levelo://app?vid=165dc6ba-8f94-453c-8760-450fa6b594b7","ios":"levelo://app?vid=165dc6ba-8f94-453c-8760-450fa6b594b7"},"vehicle_type_id":"4","last_reported":1737306442,"current_range_meters":8800,"station_id":"ce4bhs12rcd13ifvqhvg","pricing_plan_id":"cebpf4jnsgd1na2vs0mg"},{"bike_id":"66dc1418-1651-477f-b76d-fad61f5cf84c","system_id":"levelo_inurba_marseille","lat":43.278943,"lon":5.380429,"is_reserved":false,"is_disabled":false,"rental_uris":{"android":"levelo://app?vid=66dc1418-1651-477f-b76d-fad61f5cf84c","ios":"levelo://app?vid=66dc1418-1651-477f-b76d-fad61f5cf84c"},"vehicle_type_id":"4","last_reported":1737306442,"current_range_meters":37600,"station_id":"ce4bhf92rcd13ifvqf50","pricing_plan_id":"cebpf4jnsgd1na2vs0mg"},{"bike_id":"7a214395-f9e6-49d1-ac27-650b72d950ac","system_id":"levelo_inurba_marseille","lat":43.30194,"lon":5.36608,"is_reserved":false,"is_disabled":false,"rental_uris":{"android":"levelo://app?vid=7a214395-f9e6-49d1-ac27-650b72d950ac","ios":"levelo://app?vid=7a214395-f9e6-49d1-ac27-650b72d950ac"},"vehicle_type_id":"4","last_reported":1737306442,"current_range_meters":38800,"station_id":"ce4bgrh2rcd13ifvqc8g","pricing_plan_id":"cebpf4jnsgd1na2vs0mg"},{"bike_id":"92fa69bb-8d79-4a4e-8892-87ec90c4fac1","system_id":"levelo_inurba_marseille","lat":43.31319,"lon":5.39691,"is_reserved":false,"is_disabled":false,"rental_uris":{"android":"levelo://app?vid=92fa69bb-8d79-4a4e-8892-87ec90c4fac1","ios":"levelo://app?vid=92fa69bb-8d79-4a4e-8892-87ec90c4fac1"},"vehicle_type_id":"4","last_reported":1737306442,"current_range_meters":20000,"station_id":"ce4bgvp2rcd13ifvqcu0","pricing_plan_id":"cebpf4jnsgd1na2vs0mg"},{"bike_id":"1a02b04d-f2a4-448a-9bbb-8a76d155fc6c","system_id":"levelo_inurba_marseille","lat":43.30211,"lon":5.39472,"is_reserved":false,"is_disabled":false,"rental_uris":{"android":"levelo://app?vid=1a02b04d-f2a4-448a-9bbb-8a76d155fc6c","ios":"levelo://app?vid=1a02b04d-f2a4-448a-9bbb-8a76d155fc6c"},"vehicle_type_id":"4","last_reported":1737306442,"current_range_meters":35600,"station_id":"ce4bh0p2rcd13ifvqd70","pricing_plan_id":"cebpf4jnsgd1na2vs0mg"},{"bike_id":"f2390374-e060-4fe1-bcfa-cb2711193e58","system_id":"levelo_inurba_marseille","lat":43.25116,"lon":5.39509,"is_reserved":false,"is_disabled":false,"rental_uris":{"android":"levelo://app?vid=f2390374-e060-4fe1-bcfa-cb2711193e58","ios":"levelo://app?vid=f2390374-e060-4fe1-bcfa-cb2711193e58"},"vehicle_type_id":"4","last_reported":1737306442,"current_range_meters":38000,"station_id":"ce4bhm12rcd13ifvqgkg","pricing_plan_id":"cebpf4jnsgd1na2vs0mg"},{"bike_id":"dd22f8e6-4180-4257-8c33-cab9dc2658f8","system_id":"levelo_inurba_marseille","lat":43.27315,"lon":5.39088,"is_reserved":false,"is_disabled":false,"rental_uris":{"android":"levelo://app?vid=dd22f8e6-4180-4257-8c33-cab9dc2658f8","ios":"levelo://app?vid=dd22f8e6-4180-4257-8c33-cab9dc2658f8"},"vehicle_type_id":"4","last_reported":1737306442,"current_range_meters":38800,"station_id":"ce4bhgp2rcd13ifvqfe0","pricing_plan_id":"cebpf4jnsgd1na2vs0mg"},{"bike_id":"591b3bd2-5685-4ec2-843e-e45d69c9aabd","system_id":"levelo_inurba_marseille","lat":43.2606,"lon":5.39394,"is_reserved":false,"is_disabled":false,"rental_uris":{"android":"levelo://app?vid=591b3bd2-5685-4ec2-843e-e45d69c9aabd","ios":"levelo://app?vid=591b3bd2-5685-4ec2-843e-e45d69c9aabd"},"vehicle_type_id":"4","last_reported":1737306442,"current_range_meters":38800,"station_id":"ce4bhh92rcd13ifvqfj0","pricing_plan_id":"cebpf4jnsgd1na2vs0mg"},{"bike_id":"1aa8eecf-96db-4dff-a694-3573ca799e03","system_id":"levelo_inurba_marseille","lat":43.2836,"lon":5.38117,"is_reserved":false,"is_disabled":false,"rental_uris":{"android":"levelo://app?vid=1aa8eecf-96db-4dff-a694-3573ca799e03","ios":"levelo://app?vid=1aa8eecf-96db-4dff-a694-3573ca799e03"},"vehicle_type_id":"4","last_reported":1737306442,"current_range_meters":27200,"station_id":"ce4bh412rcd13ifvqdr0","pricing_plan_id":"cebpf4jnsgd1na2vs0mg"},{"bike_id":"0aa4a416-5ca3-4c2e-b222-394c6f697f31","system_id":"levelo_inurba_marseille","lat":43.3135,"lon":5.36709,"is_reserved":false,"is_disabled":true,"rental_uris":{"android":"levelo://app?vid=0aa4a416-5ca3-4c2e-b222-394c6f697f31","ios":"levelo://app?vid=0aa4a416-5ca3-4c2e-b222-394c6f697f31"},"vehicle_type_id":"4","last_reported":1737306442,"current_range_meters":0,"station_id":"ce4bgr92rcd13ifvqc6g","pricing_plan_id":"cebpf4jnsgd1na2vs0mg"},{"bike_id":"3e7298a0-6c27-4513-b1d0-306012c66918","system_id":"levelo_inurba_marseille","lat":43.30543,"lon":5.36536,"is_reserved":false,"is_disabled":false,"rental_uris":{"android":"levelo://app?vid=3e7298a0-6c27-4513-b1d0-306012c66918","ios":"levelo://app?vid=3e7298a0-6c27-4513-b1d0-306012c66918"},"vehicle_type_id":"4","last_reported":1737306442,"current_range_meters":38800,"station_id":"ce4bgs12rcd13ifvqcag","pricing_plan_id":"cebpf4jnsgd1na2vs0mg"},{"bike_id":"a024f0f3-73dd-422b-af86-02143dcd4787","system_id":"levelo_inurba_marseille","lat":43.30142,"lon":5.38786,"is_reserved":false,"is_disabled":false,"rental_uris":{"android":"levelo://app?vid=a024f0f3-73dd-422b-af86-02143dcd4787","ios":"levelo://app?vid=a024f0f3-73dd-422b-af86-02143dcd4787"},"vehicle_type_id":"4","last_reported":1737306442,"current_range_meters":25200,"station_id":"ce4bghh2rcd13ifvqb60","pricing_plan_id":"cebpf4jnsgd1na2vs0mg"},{"bike_id":"a95248e8-7ba2-479e-9b5c-9fb4d8e98c2b","system_id":"levelo_inurba_marseille","lat":43.280976,"lon":5.421945,"is_reserved":false,"is_disabled":true,"rental_uris":{"android":"levelo://app?vid=a95248e8-7ba2-479e-9b5c-9fb4d8e98c2b","ios":"levelo://app?vid=a95248e8-7ba2-479e-9b5c-9fb4d8e98c2b"},"vehicle_type_id":"4","last_reported":1737306442,"current_range_meters":0,"station_id":"","pricing_plan_id":"cebpf4jnsgd1na2vs0mg"},{"bike_id":"246f2aa1-d855-40ee-b8e2-0e541013d632","system_id":"levelo_inurba_marseille","lat":43.278303,"lon":5.407213,"is_reserved":false,"is_disabled":true,"rental_uris":{"android":"levelo://app?vid=246f2aa1-d855-40ee-b8e2-0e541013d632","ios":"levelo://app?vid=246f2aa1-d855-40ee-b8e2-0e541013d632"},"vehicle_type_id":"4","last_reported":1737306442,"current_range_meters":0,"station_id":"ce4bhnh2rcd13ifvqgtg","pricing_plan_id":"cebpf4jnsgd1na2vs0mg"},{"bike_id":"535dafa5-9786-4be0-88f3-b2f5a2e65d33","system_id":"levelo_inurba_marseille","lat":43.30914,"lon":5.36846,"is_reserved":false,"is_disabled":false,"rental_uris":{"android":"levelo://app?vid=535dafa5-9786-4be0-88f3-b2f5a2e65d33","ios":"levelo://app?vid=535dafa5-9786-4be0-88f3-b2f5a2e65d33"},"vehicle_type_id":"4","last_reported":1737306442,"current_range_meters":29600,"station_id":"ce4bgn92rcd13ifvqbvg","pricing_plan_id":"cebpf4jnsgd1na2vs0mg"},{"bike_id":"c406e2bd-23ff-4e1f-a222-e3b1c1d85894","system_id":"levelo_inurba_marseille","lat":43.31694,"lon":5.37761,"is_reserved":false,"is_disabled":false,"rental_uris":{"android":"levelo://app?vid=c406e2bd-23ff-4e1f-a222-e3b1c1d85894","ios":"levelo://app?vid=c406e2bd-23ff-4e1f-a222-e3b1c1d85894"},"vehicle_type_id":"4","last_reported":1737306442,"current_range_meters":36000,"station_id":"ce4bgth2rcd13ifvqch0","pricing_plan_id":"cebpf4jnsgd1na2vs0mg"},{"bike_id":"19420be1-ad23-40f8-9054-f6e50bc825eb","system_id":"levelo_inurba_marseille","lat":43.27322,"lon":5.39077,"is_reserved":false,"is_disabled":false,"rental_uris":{"android":"levelo://app?vid=19420be1-ad23-40f8-9054-f6e50bc825eb","ios":"levelo://app?vid=19420be1-ad23-40f8-9054-f6e50bc825eb"},"vehicle_type_id":"4","last_reported":1737306442,"current_range_meters":24400,"station_id":"ce4bhgp2rcd13ifvqfe0","pricing_plan_id":"cebpf4jnsgd1na2vs0mg"},{"bike_id":"c0943972-b0b0-4123-8a79-be8a92f5a1d0","system_id":"levelo_inurba_marseille","lat":43.2606,"lon":5.39408,"is_reserved":false,"is_disabled":false,"rental_uris":{"android":"levelo://app?vid=c0943972-b0b0-4123-8a79-be8a92f5a1d0","ios":"levelo://app?vid=c0943972-b0b0-4123-8a79-be8a92f5a1d0"},"vehicle_type_id":"4","last_reported":1737306442,"current_range_meters":18800,"station_id":"ce4bhh92rcd13ifvqfj0","pricing_plan_id":"cebpf4jnsgd1na2vs0mg"},{"bike_id":"2189f33e-4cfd-4f76-9d91-913095d551c4","system_id":"levelo_inurba_marseille","lat":43.30366,"lon":5.39094,"is_reserved":false,"is_disabled":true,"rental_uris":{"android":"levelo://app?vid=2189f33e-4cfd-4f76-9d91-913095d551c4","ios":"levelo://app?vid=2189f33e-4cfd-4f76-9d91-913095d551c4"},"vehicle_type_id":"4","last_reported":1737306442,"current_range_meters":0,"station_id":"","pricing_plan_id":"cebpf4jnsgd1na2vs0mg"},{"bike_id":"2e59cf0e-e98c-4240-9965-76351b5f4055","system_id":"levelo_inurba_marseille","lat":43.2499,"lon":5.39014,"is_reserved":false,"is_disabled":true,"rental_uris":{"android":"levelo://app?vid=2e59cf0e-e98c-4240-9965-76351b5f4055","ios":"levelo://app?vid=2e59cf0e-e98c-4240-9965-76351b5f4055"},"vehicle_type_id":"4","last_reported":1737306442,"current_range_meters":800,"station_id":"","pricing_plan_id":"cebpf4jnsgd1na2vs0mg"},{"bike_id":"2993632c-a55e-4030-baaf-032c0fd850ee","system_id":"levelo_inurba_marseille","lat":43.29585,"lon":5.36754,"is_reserved":false,"is_disabled":false,"rental_uris":{"android":"levelo://app?vid=2993632c-a55e-4030-baaf-032c0fd850ee","ios":"levelo://app?vid=2993632c-a55e-4030-baaf-032c0fd850ee"},"vehicle_type_id":"4","last_reported":1737306442,"current_range_meters":28000,"station_id":"ce4bgph2rcd13ifvqc2g","pricing_plan_id":"cebpf4jnsgd1na2vs0mg"},{"bike_id":"668f9767-c78d-438a-96bb-c0760f782967","system_id":"levelo_inurba_marseille","lat":43.26204,"lon":5.37931,"is_reserved":false,"is_disabled":false,"rental_uris":{"android":"levelo://app?vid=668f9767-c78d-438a-96bb-c0760f782967","ios":"levelo://app?vid=668f9767-c78d-438a-96bb-c0760f782967"},"vehicle_type_id":"4","last_reported":1737306442,"current_range_meters":36400,"station_id":"ce4bhjp2rcd13ifvqg90","pricing_plan_id":"cebpf4jnsgd1na2vs0mg"},{"bike_id":"bcf65cd3-e539-4772-8fb4-243bedaf1945","system_id":"levelo_inurba_marseille","lat":43.27948,"lon":5.38708,"is_reserved":false,"is_disabled":false,"rental_uris":{"android":"levelo://app?vid=bcf65cd3-e539-4772-8fb4-243bedaf1945","ios":"levelo://app?vid=bcf65cd3-e539-4772-8fb4-243bedaf1945"},"vehicle_type_id":"4","last_reported":1737306442,"current_range_meters":38000,"station_id":"ce4bhg12rcd13ifvqf80","pricing_plan_id":"cebpf4jnsgd1na2vs0mg"},{"bike_id":"c3c71d80-b128-41f2-8336-986dc23c0ea0","system_id":"levelo_inurba_marseille","lat":43.3024,"lon":5.4007,"is_reserved":false,"is_disabled":true,"rental_uris":{"android":"levelo://app?vid=c3c71d80-b128-41f2-8336-986dc23c0ea0","ios":"levelo://app?vid=c3c71d80-b128-41f2-8336-986dc23c0ea0"},"vehicle_type_id":"4","last_reported":1737306442,"current_range_meters":0,"station_id":"ce4bgvh2rcd13ifvqcs0","pricing_plan_id":"cebpf4jnsgd1na2vs0mg"},{"bike_id":"94b1088a-3aa8-4f12-890f-15eeecea61ca","system_id":"levelo_inurba_marseille","lat":43.29035,"lon":5.38646,"is_reserved":false,"is_disabled":false,"rental_uris":{"android":"levelo://app?vid=94b1088a-3aa8-4f12-890f-15eeecea61ca","ios":"levelo://app?vid=94b1088a-3aa8-4f12-890f-15eeecea61ca"},"vehicle_type_id":"4","last_reported":1737306442,"current_range_meters":35600,"station_id":"ce4bh4p2rcd13ifvqe0g","pricing_plan_id":"cebpf4jnsgd1na2vs0mg"},{"bike_id":"0d5bf58b-8962-4322-87c4-754920ec04ac","system_id":"levelo_inurba_marseille","lat":43.31187,"lon":5.38723,"is_reserved":false,"is_disabled":true,"rental_uris":{"android":"levelo://app?vid=0d5bf58b-8962-4322-87c4-754920ec04ac","ios":"levelo://app?vid=0d5bf58b-8962-4322-87c4-754920ec04ac"},"vehicle_type_id":"4","last_reported":1737306442,"current_range_meters":30400,"station_id":"ce4bgv12rcd13ifvqcp0","pricing_plan_id":"cebpf4jnsgd1na2vs0mg"},{"bike_id":"c92cbb9f-5a8c-4f30-b00a-221ba31b944d","system_id":"levelo_inurba_marseille","lat":43.28411,"lon":5.34992,"is_reserved":false,"is_disabled":true,"rental_uris":{"android":"levelo://app?vid=c92cbb9f-5a8c-4f30-b00a-221ba31b944d","ios":"levelo://app?vid=c92cbb9f-5a8c-4f30-b00a-221ba31b944d"},"vehicle_type_id":"4","last_reported":1737306442,"current_range_meters":30400,"station_id":"ce4bhbh2rcd13ifvqepg","pricing_plan_id":"cebpf4jnsgd1na2vs0mg"},{"bike_id":"80b96695-3b43-4162-b81c-43d9d610eae7","system_id":"levelo_inurba_marseille","lat":43.26785,"lon":5.39414,"is_reserved":false,"is_disabled":false,"rental_uris":{"android":"levelo://app?vid=80b96695-3b43-4162-b81c-43d9d610eae7","ios":"levelo://app?vid=80b96695-3b43-4162-b81c-43d9d610eae7"},"vehicle_type_id":"4","last_reported":1737306442,"current_range_meters":24400,"station_id":"ce4bhh12rcd13ifvqfg0","pricing_plan_id":"cebpf4jnsgd1na2vs0mg"},{"bike_id":"a9d75a8b-4d51-4218-baf0-ec832b567249","system_id":"levelo_inurba_marseille","lat":43.29578,"lon":5.37519,"is_reserved":false,"is_disabled":false,"rental_uris":{"android":"levelo://app?vid=a9d75a8b-4d51-4218-baf0-ec832b567249","ios":"levelo://app?vid=a9d75a8b-4d51-4218-baf0-ec832b567249"},"vehicle_type_id":"4","last_reported":1737306442,"current_range_meters":25600,"station_id":"ce4bgh92rcd13ifvqb50","pricing_plan_id":"cebpf4jnsgd1na2vs0mg"},{"bike_id":"1716be8d-fb4f-4141-9945-9fe308dd60c1","system_id":"levelo_inurba_marseille","lat":43.28725,"lon":5.36098,"is_reserved":false,"is_disabled":false,"rental_uris":{"android":"levelo://app?vid=1716be8d-fb4f-4141-9945-9fe308dd60c1","ios":"levelo://app?vid=1716be8d-fb4f-4141-9945-9fe308dd60c1"},"vehicle_type_id":"4","last_reported":1737306442,"current_range_meters":38400,"station_id":"cki0cbj6b192h4jlfktg","pricing_plan_id":"cebpf4jnsgd1na2vs0mg"},{"bike_id":"fe90f7a6-3920-456a-9451-50d213b7000f","system_id":"levelo_inurba_marseille","lat":43.2848,"lon":5.38438,"is_reserved":false,"is_disabled":true,"rental_uris":{"android":"levelo://app?vid=fe90f7a6-3920-456a-9451-50d213b7000f","ios":"levelo://app?vid=fe90f7a6-3920-456a-9451-50d213b7000f"},"vehicle_type_id":"4","last_reported":1737306442,"current_range_meters":31200,"station_id":"ce4bh512rcd13ifvqe3g","pricing_plan_id":"cebpf4jnsgd1na2vs0mg"},{"bike_id":"67fe5a2e-d8fb-4c79-a771-ee3875d3a660","system_id":"levelo_inurba_marseille","lat":43.33733,"lon":5.39187,"is_reserved":false,"is_disabled":false,"rental_uris":{"android":"levelo://app?vid=67fe5a2e-d8fb-4c79-a771-ee3875d3a660","ios":"levelo://app?vid=67fe5a2e-d8fb-4c79-a771-ee3875d3a660"},"vehicle_type_id":"4","last_reported":1737306442,"current_range_meters":39200,"station_id":"ce4bhr92rcd13ifvqhsg","pricing_plan_id":"cebpf4jnsgd1na2vs0mg"},{"bike_id":"a5e54fff-92da-48a5-b188-02794fc4460d","system_id":"levelo_inurba_marseille","lat":43.31292,"lon":5.40151,"is_reserved":false,"is_disabled":false,"rental_uris":{"android":"levelo://app?vid=a5e54fff-92da-48a5-b188-02794fc4460d","ios":"levelo://app?vid=a5e54fff-92da-48a5-b188-02794fc4460d"},"vehicle_type_id":"4","last_reported":1737306442,"current_range_meters":24400,"station_id":"ce4bh092rcd13ifvqd30","pricing_plan_id":"cebpf4jnsgd1na2vs0mg"},{"bike_id":"aeeb7245-8a7c-4b79-b9ac-efca69f7818a","system_id":"levelo_inurba_marseille","lat":43.321075,"lon":5.367879,"is_reserved":false,"is_disabled":false,"rental_uris":{"android":"levelo://app?vid=aeeb7245-8a7c-4b79-b9ac-efca69f7818a","ios":"levelo://app?vid=aeeb7245-8a7c-4b79-b9ac-efca69f7818a"},"vehicle_type_id":"4","last_reported":1737306442,"current_range_meters":20000,"station_id":"ce4bhrh2rcd13ifvqhug","pricing_plan_id":"cebpf4jnsgd1na2vs0mg"},{"bike_id":"e0b9d14c-258c-4a9d-99f3-d1865b28693a","system_id":"levelo_inurba_marseille","lat":43.27326,"lon":5.39107,"is_reserved":false,"is_disabled":false,"rental_uris":{"android":"levelo://app?vid=e0b9d14c-258c-4a9d-99f3-d1865b28693a","ios":"levelo://app?vid=e0b9d14c-258c-4a9d-99f3-d1865b28693a"},"vehicle_type_id":"4","last_reported":1737306442,"current_range_meters":35200,"station_id":"ce4bhgp2rcd13ifvqfe0","pricing_plan_id":"cebpf4jnsgd1na2vs0mg"},{"bike_id":"d7ebea74-ea94-4f72-85c3-775497bc315c","system_id":"levelo_inurba_marseille","lat":43.32306,"lon":5.38263,"is_reserved":false,"is_disabled":false,"rental_uris":{"android":"levelo://app?vid=d7ebea74-ea94-4f72-85c3-775497bc315c","ios":"levelo://app?vid=d7ebea74-ea94-4f72-85c3-775497bc315c"},"vehicle_type_id":"4","last_reported":1737306442,"current_range_meters":39200,"station_id":"ce4bhr12rcd13ifvqhqg","pricing_plan_id":"cebpf4jnsgd1na2vs0mg"},{"bike_id":"7b52e969-7498-42fb-aafb-034e09ca2f2a","system_id":"levelo_inurba_marseille","lat":43.30865,"lon":5.43543,"is_reserved":false,"is_disabled":false,"rental_uris":{"android":"levelo://app?vid=7b52e969-7498-42fb-aafb-034e09ca2f2a","ios":"levelo://app?vid=7b52e969-7498-42fb-aafb-034e09ca2f2a"},"vehicle_type_id":"4","last_reported":1737306442,"current_range_meters":29600,"station_id":"","pricing_plan_id":"cebpf4jnsgd1na2vs0mg"},{"bike_id":"a1139886-d64d-45d6-b73c-50c7d99afa7b","system_id":"levelo_inurba_marseille","lat":43.32294,"lon":5.38272,"is_reserved":false,"is_disabled":false,"rental_uris":{"android":"levelo://app?vid=a1139886-d64d-45d6-b73c-50c7d99afa7b","ios":"levelo://app?vid=a1139886-d64d-45d6-b73c-50c7d99afa7b"},"vehicle_type_id":"4","last_reported":1737306442,"current_range_meters":26000,"station_id":"ce4bhr12rcd13ifvqhqg","pricing_plan_id":"cebpf4jnsgd1na2vs0mg"},{"bike_id":"9eb335b9-be9e-4d87-ab11-b7aad1d486a4","system_id":"levelo_inurba_marseille","lat":43.2315,"lon":5.43718,"is_reserved":false,"is_disabled":true,"rental_uris":{"android":"levelo://app?vid=9eb335b9-be9e-4d87-ab11-b7aad1d486a4","ios":"levelo://app?vid=9eb335b9-be9e-4d87-ab11-b7aad1d486a4"},"vehicle_type_id":"4","last_reported":1737306442,"current_range_meters":0,"station_id":"ce4bhmp2rcd13ifvqgog","pricing_plan_id":"cebpf4jnsgd1na2vs0mg"},{"bike_id":"63a0c470-0e3d-4f46-a361-302d7a67e5d2","system_id":"levelo_inurba_marseille","lat":43.24839,"lon":5.37477,"is_reserved":false,"is_disabled":true,"rental_uris":{"android":"levelo://app?vid=63a0c470-0e3d-4f46-a361-302d7a67e5d2","ios":"levelo://app?vid=63a0c470-0e3d-4f46-a361-302d7a67e5d2"},"vehicle_type_id":"4","last_reported":1737306442,"current_range_meters":38000,"station_id":"","pricing_plan_id":"cebpf4jnsgd1na2vs0mg"},{"bike_id":"d5a4b84a-471f-4edb-a016-4dd0af7e2137","system_id":"levelo_inurba_marseille","lat":43.25873,"lon":5.39913,"is_reserved":false,"is_disabled":false,"rental_uris":{"android":"levelo://app?vid=d5a4b84a-471f-4edb-a016-4dd0af7e2137","ios":"levelo://app?vid=d5a4b84a-471f-4edb-a016-4dd0af7e2137"},"vehicle_type_id":"4","last_reported":1737306442,"current_range_meters":38000,"station_id":"ce4bhl92rcd13ifvqghg","pricing_plan_id":"cebpf4jnsgd1na2vs0mg"},{"bike_id":"98926eb9-f62f-486d-8e40-be7166c4b913","system_id":"levelo_inurba_marseille","lat":43.2969,"lon":5.37303,"is_reserved":false,"is_disabled":false,"rental_uris":{"android":"levelo://app?vid=98926eb9-f62f-486d-8e40-be7166c4b913","ios":"levelo://app?vid=98926eb9-f62f-486d-8e40-be7166c4b913"},"vehicle_type_id":"4","last_reported":1737306442,"current_range_meters":38400,"station_id":"ce4bgk12rcd13ifvqbj0","pricing_plan_id":"cebpf4jnsgd1na2vs0mg"},{"bike_id":"50267a36-8428-4ee1-ac27-ac6a771a71af","system_id":"levelo_inurba_marseille","lat":43.33755,"lon":5.35537,"is_reserved":false,"is_disabled":false,"rental_uris":{"android":"levelo://app?vid=50267a36-8428-4ee1-ac27-ac6a771a71af","ios":"levelo://app?vid=50267a36-8428-4ee1-ac27-ac6a771a71af"},"vehicle_type_id":"4","last_reported":1737306442,"current_range_meters":6000,"station_id":"","pricing_plan_id":"cebpf4jnsgd1na2vs0mg"},{"bike_id":"f5863b18-13a1-4c6e-92de-5668ea912ad3","system_id":"levelo_inurba_marseille","lat":43.26234,"lon":5.40439,"is_reserved":false,"is_disabled":true,"rental_uris":{"android":"levelo://app?vid=f5863b18-13a1-4c6e-92de-5668ea912ad3","ios":"levelo://app?vid=f5863b18-13a1-4c6e-92de-5668ea912ad3"},"vehicle_type_id":"4","last_reported":1737306442,"current_range_meters":0,"station_id":"","pricing_plan_id":"cebpf4jnsgd1na2vs0mg"},{"bike_id":"a5173152-246c-4bae-827d-3b4bdbe5ab5c","system_id":"levelo_inurba_marseille","lat":43.279852,"lon":5.387093,"is_reserved":false,"is_disabled":false,"rental_uris":{"android":"levelo://app?vid=a5173152-246c-4bae-827d-3b4bdbe5ab5c","ios":"levelo://app?vid=a5173152-246c-4bae-827d-3b4bdbe5ab5c"},"vehicle_type_id":"4","last_reported":1737306442,"current_range_meters":32000,"station_id":"ce4bhg12rcd13ifvqf80","pricing_plan_id":"cebpf4jnsgd1na2vs0mg"},{"bike_id":"73c6a84c-5bd7-4f3e-a1a7-a85556d4f1bf","system_id":"levelo_inurba_marseille","lat":43.29551,"lon":5.42279,"is_reserved":false,"is_disabled":false,"rental_uris":{"android":"levelo://app?vid=73c6a84c-5bd7-4f3e-a1a7-a85556d4f1bf","ios":"levelo://app?vid=73c6a84c-5bd7-4f3e-a1a7-a85556d4f1bf"},"vehicle_type_id":"4","last_reported":1737306442,"current_range_meters":30000,"station_id":"ce4bhph2rcd13ifvqhdg","pricing_plan_id":"cebpf4jnsgd1na2vs0mg"},{"bike_id":"f508a21d-b248-4aec-b651-f5fadd9eae66","system_id":"levelo_inurba_marseille","lat":43.23958,"lon":5.36624,"is_reserved":false,"is_disabled":false,"rental_uris":{"android":"levelo://app?vid=f508a21d-b248-4aec-b651-f5fadd9eae66","ios":"levelo://app?vid=f508a21d-b248-4aec-b651-f5fadd9eae66"},"vehicle_type_id":"4","last_reported":1737306442,"current_range_meters":32000,"station_id":"ce4bhi12rcd13ifvqfp0","pricing_plan_id":"cebpf4jnsgd1na2vs0mg"},{"bike_id":"46686b70-f375-4947-b209-2f4548c2edcf","system_id":"levelo_inurba_marseille","lat":43.28881,"lon":5.39459,"is_reserved":false,"is_disabled":true,"rental_uris":{"android":"levelo://app?vid=46686b70-f375-4947-b209-2f4548c2edcf","ios":"levelo://app?vid=46686b70-f375-4947-b209-2f4548c2edcf"},"vehicle_type_id":"4","last_reported":1737306442,"current_range_meters":0,"station_id":"","pricing_plan_id":"cebpf4jnsgd1na2vs0mg"},{"bike_id":"6e42a6c7-87c2-403e-84fd-d739a3d405a6","system_id":"levelo_inurba_marseille","lat":43.24594,"lon":5.42056,"is_reserved":false,"is_disabled":true,"rental_uris":{"android":"levelo://app?vid=6e42a6c7-87c2-403e-84fd-d739a3d405a6","ios":"levelo://app?vid=6e42a6c7-87c2-403e-84fd-d739a3d405a6"},"vehicle_type_id":"4","last_reported":1737306442,"current_range_meters":0,"station_id":"","pricing_plan_id":"cebpf4jnsgd1na2vs0mg"},{"bike_id":"e976a3ea-b5fc-45bc-a037-84ccefcecbe1","system_id":"levelo_inurba_marseille","lat":43.2989,"lon":5.38907,"is_reserved":false,"is_disabled":false,"rental_uris":{"android":"levelo://app?vid=e976a3ea-b5fc-45bc-a037-84ccefcecbe1","ios":"levelo://app?vid=e976a3ea-b5fc-45bc-a037-84ccefcecbe1"},"vehicle_type_id":"4","last_reported":1737306442,"current_range_meters":20400,"station_id":"ce4bh392rcd13ifvqdl0","pricing_plan_id":"cebpf4jnsgd1na2vs0mg"},{"bike_id":"6ecd6173-42ec-49fa-8634-dc35bf5f690d","system_id":"levelo_inurba_marseille","lat":43.26494,"lon":5.39545,"is_reserved":false,"is_disabled":false,"rental_uris":{"android":"levelo://app?vid=6ecd6173-42ec-49fa-8634-dc35bf5f690d","ios":"levelo://app?vid=6ecd6173-42ec-49fa-8634-dc35bf5f690d"},"vehicle_type_id":"4","last_reported":1737306442,"current_range_meters":34800,"station_id":"ce4bhi12rcd13ifvqfq0","pricing_plan_id":"cebpf4jnsgd1na2vs0mg"},{"bike_id":"0ed208be-396b-4a50-bc4d-a118062702c5","system_id":"levelo_inurba_marseille","lat":43.27811,"lon":5.40707,"is_reserved":false,"is_disabled":false,"rental_uris":{"android":"levelo://app?vid=0ed208be-396b-4a50-bc4d-a118062702c5","ios":"levelo://app?vid=0ed208be-396b-4a50-bc4d-a118062702c5"},"vehicle_type_id":"4","last_reported":1737306442,"current_range_meters":27600,"station_id":"ce4bhnh2rcd13ifvqgtg","pricing_plan_id":"cebpf4jnsgd1na2vs0mg"},{"bike_id":"4fe58642-8ec3-4f25-a4fc-eb5dc3dc47a8","system_id":"levelo_inurba_marseille","lat":43.33532,"lon":5.36139,"is_reserved":false,"is_disabled":false,"rental_uris":{"android":"levelo://app?vid=4fe58642-8ec3-4f25-a4fc-eb5dc3dc47a8","ios":"levelo://app?vid=4fe58642-8ec3-4f25-a4fc-eb5dc3dc47a8"},"vehicle_type_id":"4","last_reported":1737306442,"current_range_meters":28400,"station_id":"","pricing_plan_id":"cebpf4jnsgd1na2vs0mg"},{"bike_id":"fc21beed-45dd-4850-b81d-09023555628a","system_id":"levelo_inurba_marseille","lat":43.26441,"lon":5.39607,"is_reserved":false,"is_disabled":false,"rental_uris":{"android":"levelo://app?vid=fc21beed-45dd-4850-b81d-09023555628a","ios":"levelo://app?vid=fc21beed-45dd-4850-b81d-09023555628a"},"vehicle_type_id":"4","last_reported":1737306442,"current_range_meters":36400,"station_id":"","pricing_plan_id":"cebpf4jnsgd1na2vs0mg"},{"bike_id":"8fb510e2-9b79-41e9-a1e4-81aa9ab593a4","system_id":"levelo_inurba_marseille","lat":43.24666,"lon":5.38169,"is_reserved":false,"is_disabled":false,"rental_uris":{"android":"levelo://app?vid=8fb510e2-9b79-41e9-a1e4-81aa9ab593a4","ios":"levelo://app?vid=8fb510e2-9b79-41e9-a1e4-81aa9ab593a4"},"vehicle_type_id":"4","last_reported":1737306442,"current_range_meters":35200,"station_id":"ce4bhih2rcd13ifvqfr0","pricing_plan_id":"cebpf4jnsgd1na2vs0mg"},{"bike_id":"64fdd4ce-00cc-4dac-8d6e-1a945bd30985","system_id":"levelo_inurba_marseille","lat":43.3135,"lon":5.36725,"is_reserved":false,"is_disabled":false,"rental_uris":{"android":"levelo://app?vid=64fdd4ce-00cc-4dac-8d6e-1a945bd30985","ios":"levelo://app?vid=64fdd4ce-00cc-4dac-8d6e-1a945bd30985"},"vehicle_type_id":"4","last_reported":1737306442,"current_range_meters":3600,"station_id":"ce4bgr92rcd13ifvqc6g","pricing_plan_id":"cebpf4jnsgd1na2vs0mg"},{"bike_id":"9bf1afe5-80e9-46f3-acc5-72a1b20d42f3","system_id":"levelo_inurba_marseille","lat":43.30437,"lon":5.38899,"is_reserved":false,"is_disabled":false,"rental_uris":{"android":"levelo://app?vid=9bf1afe5-80e9-46f3-acc5-72a1b20d42f3","ios":"levelo://app?vid=9bf1afe5-80e9-46f3-acc5-72a1b20d42f3"},"vehicle_type_id":"4","last_reported":1737306442,"current_range_meters":19600,"station_id":"ce4bgk12rcd13ifvqbi0","pricing_plan_id":"cebpf4jnsgd1na2vs0mg"},{"bike_id":"84e880a0-7e5a-4f07-8e3f-dc125d133075","system_id":"levelo_inurba_marseille","lat":43.31497,"lon":5.3731,"is_reserved":false,"is_disabled":false,"rental_uris":{"android":"levelo://app?vid=84e880a0-7e5a-4f07-8e3f-dc125d133075","ios":"levelo://app?vid=84e880a0-7e5a-4f07-8e3f-dc125d133075"},"vehicle_type_id":"4","last_reported":1737306442,"current_range_meters":38800,"station_id":"ce4bgt12rcd13ifvqcd0","pricing_plan_id":"cebpf4jnsgd1na2vs0mg"},{"bike_id":"887b1f31-86c5-4ca1-b841-c4a7cab35ab7","system_id":"levelo_inurba_marseille","lat":43.31712,"lon":5.37748,"is_reserved":false,"is_disabled":false,"rental_uris":{"android":"levelo://app?vid=887b1f31-86c5-4ca1-b841-c4a7cab35ab7","ios":"levelo://app?vid=887b1f31-86c5-4ca1-b841-c4a7cab35ab7"},"vehicle_type_id":"4","last_reported":1737306442,"current_range_meters":27200,"station_id":"ce4bgth2rcd13ifvqch0","pricing_plan_id":"cebpf4jnsgd1na2vs0mg"},{"bike_id":"60b7d049-237a-4dbd-ad0c-436ecde1802f","system_id":"levelo_inurba_marseille","lat":43.23195,"lon":5.35549,"is_reserved":false,"is_disabled":false,"rental_uris":{"android":"levelo://app?vid=60b7d049-237a-4dbd-ad0c-436ecde1802f","ios":"levelo://app?vid=60b7d049-237a-4dbd-ad0c-436ecde1802f"},"vehicle_type_id":"4","last_reported":1737306442,"current_range_meters":28000,"station_id":"ce4bhu92rcd13ifvqi70","pricing_plan_id":"cebpf4jnsgd1na2vs0mg"},{"bike_id":"43b91266-7199-458e-9e99-c1a7412ff5a9","system_id":"levelo_inurba_marseille","lat":43.26942,"lon":5.4024,"is_reserved":false,"is_disabled":false,"rental_uris":{"android":"levelo://app?vid=43b91266-7199-458e-9e99-c1a7412ff5a9","ios":"levelo://app?vid=43b91266-7199-458e-9e99-c1a7412ff5a9"},"vehicle_type_id":"4","last_reported":1737306442,"current_range_meters":26800,"station_id":"cjm6bp8fraef2m0cb0m0","pricing_plan_id":"cebpf4jnsgd1na2vs0mg"},{"bike_id":"a8701af7-deca-400c-9cb2-c845062564a7","system_id":"levelo_inurba_marseille","lat":43.314377,"lon":5.387715,"is_reserved":false,"is_disabled":true,"rental_uris":{"android":"levelo://app?vid=a8701af7-deca-400c-9cb2-c845062564a7","ios":"levelo://app?vid=a8701af7-deca-400c-9cb2-c845062564a7"},"vehicle_type_id":"4","last_reported":1737306442,"current_range_meters":11600,"station_id":"","pricing_plan_id":"cebpf4jnsgd1na2vs0mg"},{"bike_id":"2d380550-e186-4996-a6d4-dc2e3d05c806","system_id":"levelo_inurba_marseille","lat":43.2784,"lon":5.39207,"is_reserved":false,"is_disabled":false,"rental_uris":{"android":"levelo://app?vid=2d380550-e186-4996-a6d4-dc2e3d05c806","ios":"levelo://app?vid=2d380550-e186-4996-a6d4-dc2e3d05c806"},"vehicle_type_id":"4","last_reported":1737306442,"current_range_meters":16000,"station_id":"ce4bhjp2rcd13ifvqga0","pricing_plan_id":"cebpf4jnsgd1na2vs0mg"},{"bike_id":"748a2efc-ad80-47ef-8521-236a6ff0952d","system_id":"levelo_inurba_marseille","lat":43.24814,"lon":5.37452,"is_reserved":false,"is_disabled":false,"rental_uris":{"android":"levelo://app?vid=748a2efc-ad80-47ef-8521-236a6ff0952d","ios":"levelo://app?vid=748a2efc-ad80-47ef-8521-236a6ff0952d"},"vehicle_type_id":"4","last_reported":1737306442,"current_range_meters":29600,"station_id":"ce4bhgh2rcd13ifvqfb0","pricing_plan_id":"cebpf4jnsgd1na2vs0mg"},{"bike_id":"ee76e385-dc29-4ac5-8128-a5afbe69cc79","system_id":"levelo_inurba_marseille","lat":43.25087,"lon":5.39501,"is_reserved":false,"is_disabled":false,"rental_uris":{"android":"levelo://app?vid=ee76e385-dc29-4ac5-8128-a5afbe69cc79","ios":"levelo://app?vid=ee76e385-dc29-4ac5-8128-a5afbe69cc79"},"vehicle_type_id":"4","last_reported":1737306442,"current_range_meters":38000,"station_id":"ce4bhm12rcd13ifvqgkg","pricing_plan_id":"cebpf4jnsgd1na2vs0mg"},{"bike_id":"d1bf35e6-2990-4891-89ad-327bacd893ac","system_id":"levelo_inurba_marseille","lat":43.30601,"lon":5.37238,"is_reserved":false,"is_disabled":false,"rental_uris":{"android":"levelo://app?vid=d1bf35e6-2990-4891-89ad-327bacd893ac","ios":"levelo://app?vid=d1bf35e6-2990-4891-89ad-327bacd893ac"},"vehicle_type_id":"4","last_reported":1737306442,"current_range_meters":10800,"station_id":"ce4bgqh2rcd13ifvqc4g","pricing_plan_id":"cebpf4jnsgd1na2vs0mg"},{"bike_id":"b966ed8b-e2cf-47da-8808-370164db2860","system_id":"levelo_inurba_marseille","lat":43.27809,"lon":5.40712,"is_reserved":false,"is_disabled":true,"rental_uris":{"android":"levelo://app?vid=b966ed8b-e2cf-47da-8808-370164db2860","ios":"levelo://app?vid=b966ed8b-e2cf-47da-8808-370164db2860"},"vehicle_type_id":"4","last_reported":1737306442,"current_range_meters":400,"station_id":"ce4bhnh2rcd13ifvqgtg","pricing_plan_id":"cebpf4jnsgd1na2vs0mg"},{"bike_id":"c73224c5-8662-473f-8844-f010af6d2952","system_id":"levelo_inurba_marseille","lat":43.271991,"lon":5.409961,"is_reserved":false,"is_disabled":true,"rental_uris":{"android":"levelo://app?vid=c73224c5-8662-473f-8844-f010af6d2952","ios":"levelo://app?vid=c73224c5-8662-473f-8844-f010af6d2952"},"vehicle_type_id":"4","last_reported":1737306442,"current_range_meters":17600,"station_id":"ce4bhl12rcd13ifvqgf0","pricing_plan_id":"cebpf4jnsgd1na2vs0mg"},{"bike_id":"31fb05bf-16ef-448c-8b74-a1c12aa40358","system_id":"levelo_inurba_marseille","lat":43.32295,"lon":5.38276,"is_reserved":false,"is_disabled":false,"rental_uris":{"android":"levelo://app?vid=31fb05bf-16ef-448c-8b74-a1c12aa40358","ios":"levelo://app?vid=31fb05bf-16ef-448c-8b74-a1c12aa40358"},"vehicle_type_id":"4","last_reported":1737306442,"current_range_meters":8800,"station_id":"ce4bhr12rcd13ifvqhqg","pricing_plan_id":"cebpf4jnsgd1na2vs0mg"},{"bike_id":"95b517d0-9dcf-47f9-8053-773bec6e6a69","system_id":"levelo_inurba_marseille","lat":43.26705,"lon":5.39513,"is_reserved":false,"is_disabled":false,"rental_uris":{"android":"levelo://app?vid=95b517d0-9dcf-47f9-8053-773bec6e6a69","ios":"levelo://app?vid=95b517d0-9dcf-47f9-8053-773bec6e6a69"},"vehicle_type_id":"4","last_reported":1737306442,"current_range_meters":11200,"station_id":"","pricing_plan_id":"cebpf4jnsgd1na2vs0mg"},{"bike_id":"ef6995fd-e68e-4985-8c9d-7187adb30bbc","system_id":"levelo_inurba_marseille","lat":43.24654,"lon":5.38896,"is_reserved":false,"is_disabled":false,"rental_uris":{"android":"levelo://app?vid=ef6995fd-e68e-4985-8c9d-7187adb30bbc","ios":"levelo://app?vid=ef6995fd-e68e-4985-8c9d-7187adb30bbc"},"vehicle_type_id":"4","last_reported":1737306442,"current_range_meters":12000,"station_id":"ce4bhg12rcd13ifvqf60","pricing_plan_id":"cebpf4jnsgd1na2vs0mg"},{"bike_id":"002d650b-b496-4add-a945-d52985634323","system_id":"levelo_inurba_marseille","lat":43.3014,"lon":5.39859,"is_reserved":false,"is_disabled":false,"rental_uris":{"android":"levelo://app?vid=002d650b-b496-4add-a945-d52985634323","ios":"levelo://app?vid=002d650b-b496-4add-a945-d52985634323"},"vehicle_type_id":"4","last_reported":1737306442,"current_range_meters":17600,"station_id":"ce4bh0h2rcd13ifvqd40","pricing_plan_id":"cebpf4jnsgd1na2vs0mg"},{"bike_id":"322bb25c-80f9-4c21-b35d-e66b2787e49f","system_id":"levelo_inurba_marseille","lat":43.29811,"lon":5.38092,"is_reserved":false,"is_disabled":false,"rental_uris":{"android":"levelo://app?vid=322bb25c-80f9-4c21-b35d-e66b2787e49f","ios":"levelo://app?vid=322bb25c-80f9-4c21-b35d-e66b2787e49f"},"vehicle_type_id":"4","last_reported":1737306442,"current_range_meters":8400,"station_id":"ce4bgip2rcd13ifvqbb0","pricing_plan_id":"cebpf4jnsgd1na2vs0mg"},{"bike_id":"c56131f6-ced7-4f6b-9e01-82e86ade9f77","system_id":"levelo_inurba_marseille","lat":43.31533,"lon":5.38037,"is_reserved":false,"is_disabled":false,"rental_uris":{"android":"levelo://app?vid=c56131f6-ced7-4f6b-9e01-82e86ade9f77","ios":"levelo://app?vid=c56131f6-ced7-4f6b-9e01-82e86ade9f77"},"vehicle_type_id":"4","last_reported":1737306442,"current_range_meters":11200,"station_id":"ce4bhsp2rcd13ifvqi50","pricing_plan_id":"cebpf4jnsgd1na2vs0mg"},{"bike_id":"438d57c9-1a17-43c4-9bac-5e7bec53492a","system_id":"levelo_inurba_marseille","lat":43.26559,"lon":5.37286,"is_reserved":false,"is_disabled":true,"rental_uris":{"android":"levelo://app?vid=438d57c9-1a17-43c4-9bac-5e7bec53492a","ios":"levelo://app?vid=438d57c9-1a17-43c4-9bac-5e7bec53492a"},"vehicle_type_id":"4","last_reported":1737306442,"current_range_meters":0,"station_id":"ce4bhg12rcd13ifvqf70","pricing_plan_id":"cebpf4jnsgd1na2vs0mg"},{"bike_id":"51f0124d-977b-452d-b54a-013a945870ad","system_id":"levelo_inurba_marseille","lat":43.2936,"lon":5.42847,"is_reserved":false,"is_disabled":false,"rental_uris":{"android":"levelo://app?vid=51f0124d-977b-452d-b54a-013a945870ad","ios":"levelo://app?vid=51f0124d-977b-452d-b54a-013a945870ad"},"vehicle_type_id":"4","last_reported":1737306442,"current_range_meters":9200,"station_id":"","pricing_plan_id":"cebpf4jnsgd1na2vs0mg"},{"bike_id":"9b570da9-d892-4de0-83fd-31f2509d0191","system_id":"levelo_inurba_marseille","lat":43.27077,"lon":5.42285,"is_reserved":false,"is_disabled":false,"rental_uris":{"android":"levelo://app?vid=9b570da9-d892-4de0-83fd-31f2509d0191","ios":"levelo://app?vid=9b570da9-d892-4de0-83fd-31f2509d0191"},"vehicle_type_id":"4","last_reported":1737306442,"current_range_meters":28000,"station_id":"ce4bhk92rcd13ifvqgb0","pricing_plan_id":"cebpf4jnsgd1na2vs0mg"},{"bike_id":"a7363358-c662-4f37-adf2-02a5abfb923d","system_id":"levelo_inurba_marseille","lat":43.30469,"lon":5.37903,"is_reserved":false,"is_disabled":true,"rental_uris":{"android":"levelo://app?vid=a7363358-c662-4f37-adf2-02a5abfb923d","ios":"levelo://app?vid=a7363358-c662-4f37-adf2-02a5abfb923d"},"vehicle_type_id":"4","last_reported":1737306442,"current_range_meters":30400,"station_id":"ce4bgup2rcd13ifvqcn0","pricing_plan_id":"cebpf4jnsgd1na2vs0mg"},{"bike_id":"d1cdcd34-7ac3-4bd0-bda2-56d04d5ef3cb","system_id":"levelo_inurba_marseille","lat":43.30424,"lon":5.42549,"is_reserved":false,"is_disabled":false,"rental_uris":{"android":"levelo://app?vid=d1cdcd34-7ac3-4bd0-bda2-56d04d5ef3cb","ios":"levelo://app?vid=d1cdcd34-7ac3-4bd0-bda2-56d04d5ef3cb"},"vehicle_type_id":"4","last_reported":1737306442,"current_range_meters":36000,"station_id":"","pricing_plan_id":"cebpf4jnsgd1na2vs0mg"},{"bike_id":"cbaa4e8b-9b00-49cc-84ca-c3dc9aec7c50","system_id":"levelo_inurba_marseille","lat":43.287212,"lon":5.379362,"is_reserved":false,"is_disabled":false,"rental_uris":{"android":"levelo://app?vid=cbaa4e8b-9b00-49cc-84ca-c3dc9aec7c50","ios":"levelo://app?vid=cbaa4e8b-9b00-49cc-84ca-c3dc9aec7c50"},"vehicle_type_id":"4","last_reported":1737306442,"current_range_meters":26800,"station_id":"ce4bh9p2rcd13ifvqec0","pricing_plan_id":"cebpf4jnsgd1na2vs0mg"},