{"last_updated":1770230058,"ttl":60,"version":"2.2","data":{"bikes":[{"bike_id":"c69036a4-16ad-4642-87c6-b919e0958c58","system_id":"levelo_inurba_marseille","lat":43.28007,"lon":5.40008,"is_reserved":false,"is_disabled":false,"rental_uris":{"android":"levelo://app?vid=c69036a4-16ad-4642-87c6-b919e0958c58","ios":"levelo://app?vid=c69036a4-16ad-4642-87c6-b919e0958c58"},"vehicle_type_id":"4","last_reported":1770230059,"current_range_meters":2800,"station_id":"ce4bho92rcd13ifvqh4g","pricing_plan_id":"cebpf4jnsgd1na2vs0mg"},{"bike_id":"35dbaae8-b048-48a7-b0b3-500c84ca5220","system_id":"levelo_inurba_marseille","lat":43.26232,"lon":5.40443,"is_reserved":false,"is_disabled":true,"rental_uris":{"android":"levelo://app?vid=35dbaae8-b048-48a7-b0b3-500c84ca5220","ios":"levelo://app?vid=35dbaae8-b048-48a7-b0b3-500c84ca5220"},"vehicle_type_id":"4","last_reported":1770230059,"current_range_meters":2800,"station_id":"ce4bhmh2rcd13ifvqgmg","pricing_plan_id":"cebpf4jnsgd1na2vs0mg"},{"bike_id":"2bf19671-0061-46e9-83e3-55d71bb70148","system_id":"levelo_inurba_marseille","lat":43.22931,"lon":5.35388,"is_reserved":false,"is_disabled":false,"rental_uris":{"android":"levelo://app?vid=2bf19671-0061-46e9-83e3-55d71bb70148","ios":"levelo://app?vid=2bf19671-0061-46e9-83e3-55d71bb70148"},"vehicle_type_id":"4","last_reported":1770230059,"current_range_meters":2800,"station_id":"cpo3532slgdg3j2ikp40","pricing_plan_id":"cebpf4jnsgd1na2vs0mg"},{"bike_id":"bc84ebea-3709-44f1-a5ef-62a520b808b8","system_id":"levelo_inurba_marseille","lat":43.25584,"lon":5.38233,"is_reserved":false,"is_disabled":false,"rental_uris":{"android":"levelo://app?vid=bc84ebea-3709-44f1-a5ef-62a520b808b8","ios":"levelo://app?vid=bc84ebea-3709-44f1-a5ef-62a520b808b8"},"vehicle_type_id":"4","last_reported":1770230059,"current_range_meters":2800,"station_id":"ce4bhih2rcd13ifvqfs0","pricing_plan_id":"cebpf4jnsgd1na2vs0mg"},{"bike_id":"13a5c83c-329e-498c-85cb-76004fb22b1c","system_id":"levelo_inurba_marseille","lat":43.31173,"lon":5.38714,"is_reserved":false,"is_disabled":false,"rental_uris":{"android":"levelo://app?vid=13a5c83c-329e-498c-85cb-76004fb22b1c","ios":"levelo://app?vid=13a5c83c-329e-498c-85cb-76004fb22b1c"},"vehicle_type_id":"4","last_reported":1770230059,"current_range_meters":2800,"station_id":"ce4bgv12rcd13ifvqcp0","pricing_plan_id":"cebpf4jnsgd1na2vs0mg"},{"bike_id":"7f77f6a6-911c-44cf-97f5-71224b3633e0","system_id":"levelo_inurba_marseille","lat":43.25222,"lon":5.38039,"is_reserved":false,"is_disabled":false,"rental_uris":{"android":"levelo://app?vid=7f77f6a6-911c-44cf-97f5-71224b3633e0","ios":"levelo://app?vid=7f77f6a6-911c-44cf-97f5-71224b3633e0"},"vehicle_type_id":"4","last_reported":1770230059,"current_range_meters":2800,"station_id":"","pricing_plan_id":"cebpf4jnsgd1na2vs0mg"},{"bike_id":"40954e61-dd73-4b29-8cc4-cc138532c8aa","system_id":"levelo_inurba_marseille","lat":43.29228,"lon":5.42519,"is_reserved":false,"is_disabled":false,"rental_uris":{"android":"levelo://app?vid=40954e61-dd73-4b29-8cc4-cc138532c8aa","ios":"levelo://app?vid=40954e61-dd73-4b29-8cc4-cc138532c8aa"},"vehicle_type_id":"4","last_reported":1770230059,"current_range_meters":2800,"station_id":"","pricing_plan_id":"cebpf4jnsgd1na2vs0mg"},{"bike_id":"87a09b58-7411-4ecf-b2ef-874e402b34ae","system_id":"levelo_inurba_marseille","lat":43.28695,"lon":5.37392,"is_reserved":false,"is_disabled":false,"rental_uris":{"android":"levelo://app?vid=87a09b58-7411-4ecf-b2ef-874e402b34ae","ios":"levelo://app?vid=87a09b58-7411-4ecf-b2ef-874e402b34ae"},"vehicle_type_id":"4","last_reported":1770230059,"current_range_meters":2800,"station_id":"ce4bh3p2rcd13ifvqdq0","pricing_plan_id":"cebpf4jnsgd1na2vs0mg"},{"bike_id":"5396fda1-c3a0-4d51-8ba0-cfe497a166d7","system_id":"levelo_inurba_marseille","lat":43.26557,"lon":5.38986,"is_reserved":false,"is_disabled":false,"rental_uris":{"android":"levelo://app?vid=5396fda1-c3a0-4d51-8ba0-cfe497a166d7","ios":"levelo://app?vid=5396fda1-c3a0-4d51-8ba0-cfe497a166d7"},"vehicle_type_id":"4","last_reported":1770230059,"current_range_meters":2800,"station_id":"ce4bhe12rcd13ifvqf30","pricing_plan_id":"cebpf4jnsgd1na2vs0mg"},{"bike_id":"c2d259ba-086a-4fd2-8c71-b1bb33c08c4c","system_id":"levelo_inurba_marseille","lat":43.294495,"lon":5.397893,"is_reserved":false,"is_disabled":false,"rental_uris":{"android":"levelo://app?vid=c2d259ba-086a-4fd2-8c71-b1bb33c08c4c","ios":"levelo://app?vid=c2d259ba-086a-4fd2-8c71-b1bb33c08c4c"},"vehicle_type_id":"4","last_reported":1770230059,"current_range_meters":2800,"station_id":"ce4bh3h2rcd13ifvqdo0","pricing_plan_id":"cebpf4jnsgd1na2vs0mg"},{"bike_id":"e87a6d3c-075d-4b73-97e2-e742fb9cacfc","system_id":"levelo_inurba_marseille","lat":43.292165,"lon":5.360585,"is_reserved":false,"is_disabled":false,"rental_uris":{"android":"levelo://app?vid=e87a6d3c-075d-4b73-97e2-e742fb9cacfc","ios":"levelo://app?vid=e87a6d3c-075d-4b73-97e2-e742fb9cacfc"},"vehicle_type_id":"4","last_reported":1770230059,"current_range_meters":3200,"station_id":"ce4bhbh2rcd13ifvqeqg","pricing_plan_id":"cebpf4jnsgd1na2vs0mg"},{"bike_id":"0e7ab3ac-42d0-478e-8dbe-484f7db5103e","system_id":"levelo_inurba_marseille","lat":43.24402,"lon":5.37057,"is_reserved":false,"is_disabled":false,"rental_uris":{"android":"levelo://app?vid=0e7ab3ac-42d0-478e-8dbe-484f7db5103e","ios":"levelo://app?vid=0e7ab3ac-42d0-478e-8dbe-484f7db5103e"},"vehicle_type_id":"4","last_reported":1770230059,"current_range_meters":3200,"station_id":"ce4bhhh2rcd13ifvqfk0","pricing_plan_id":"cebpf4jnsgd1na2vs0mg"},{"bike_id":"9e057795-08d0-428c-a4d6-14e223435515","system_id":"levelo_inurba_marseille","lat":43.24616,"lon":5.37373,"is_reserved":false,"is_disabled":false,"rental_uris":{"android":"levelo://app?vid=9e057795-08d0-428c-a4d6-14e223435515","ios":"levelo://app?vid=9e057795-08d0-428c-a4d6-14e223435515"},"vehicle_type_id":"4","last_reported":1770230059,"current_range_meters":3200,"station_id":"","pricing_plan_id":"cebpf4jnsgd1na2vs0mg"},{"bike_id":"c6e323e3-4052-4940-8ba6-87e1847b0dcf","system_id":"levelo_inurba_marseille","lat":43.25938,"lon":5.40928,"is_reserved":false,"is_disabled":false,"rental_uris":{"android":"levelo://app?vid=c6e323e3-4052-4940-8ba6-87e1847b0dcf","ios":"levelo://app?vid=c6e323e3-4052-4940-8ba6-87e1847b0dcf"},"vehicle_type_id":"4","last_reported":1770230059,"current_range_meters":3200,"station_id":"ce4bhm92rcd13ifvqglg","pricing_plan_id":"cebpf4jnsgd1na2vs0mg"},{"bike_id":"5b3811ef-5681-4c18-aac4-a62920f9a85c","system_id":"levelo_inurba_marseille","lat":43.28479,"lon":5.51502,"is_reserved":false,"is_disabled":false,"rental_uris":{"android":"levelo://app?vid=5b3811ef-5681-4c18-aac4-a62920f9a85c","ios":"levelo://app?vid=5b3811ef-5681-4c18-aac4-a62920f9a85c"},"vehicle_type_id":"4","last_reported":1770230059,"current_range_meters":3200,"station_id":"","pricing_plan_id":"cebpf4jnsgd1na2vs0mg"},{"bike_id":"5db40262-c973-4b13-b2a9-ee1639ccf6b3","system_id":"levelo_inurba_marseille","lat":43.24812,"lon":5.37452,"is_reserved":false,"is_disabled":false,"rental_uris":{"android":"levelo://app?vid=5db40262-c973-4b13-b2a9-ee1639ccf6b3","ios":"levelo://app?vid=5db40262-c973-4b13-b2a9-ee1639ccf6b3"},"vehicle_type_id":"4","last_reported":1770230059,"current_range_meters":3600,"station_id":"ce4bhgh2rcd13ifvqfb0","pricing_plan_id":"cebpf4jnsgd1na2vs0mg"},{"bike_id":"6412d793-b8e9-458c-b6f7-8d616b0edbde","system_id":"levelo_inurba_marseille","lat":43.28565,"lon":5.39492,"is_reserved":false,"is_disabled":false,"rental_uris":{"android":"levelo://app?vid=6412d793-b8e9-458c-b6f7-8d616b0edbde","ios":"levelo://app?vid=6412d793-b8e9-458c-b6f7-8d616b0edbde"},"vehicle_type_id":"4","last_reported":1770230059,"current_range_meters":3600,"station_id":"ce4bh292rcd13ifvqdg0","pricing_plan_id":"cebpf4jnsgd1na2vs0mg"},{"bike_id":"7ac4e80c-74e8-499d-9f57-dc8a80fdbbc3","system_id":"levelo_inurba_marseille","lat":43.29524,"lon":5.3939,"is_reserved":false,"is_disabled":false,"rental_uris":{"android":"levelo://app?vid=7ac4e80c-74e8-499d-9f57-dc8a80fdbbc3","ios":"levelo://app?vid=7ac4e80c-74e8-499d-9f57-dc8a80fdbbc3"},"vehicle_type_id":"4","last_reported":1770230059,"current_range_meters":3600,"station_id":"ce4bh292rcd13ifvqdf0","pricing_plan_id":"cebpf4jnsgd1na2vs0mg"},{"bike_id":"8e312380-e745-433d-90b9-ff07a309073d","system_id":"levelo_inurba_marseille","lat":43.24808,"lon":5.37471,"is_reserved":false,"is_disabled":false,"rental_uris":{"android":"levelo://app?vid=8e312380-e745-433d-90b9-ff07a309073d","ios":"levelo://app?vid=8e312380-e745-433d-90b9-ff07a309073d"},"vehicle_type_id":"4","last_reported":1770230059,"current_range_meters":4000,"station_id":"ce4bhgh2rcd13ifvqfb0","pricing_plan_id":"cebpf4jnsgd1na2vs0mg"},{"bike_id":"c056efdd-bfd4-4d90-a2c4-30f136ba140c","system_id":"levelo_inurba_marseille","lat":43.335019,"lon":5.374766,"is_reserved":false,"is_disabled":false,"rental_uris":{"android":"levelo://app?vid=c056efdd-bfd4-4d90-a2c4-30f136ba140c","ios":"levelo://app?vid=c056efdd-bfd4-4d90-a2c4-30f136ba140c"},"vehicle_type_id":"4","last_reported":1770230059,"current_range_meters":4000,"station_id":"","pricing_plan_id":"cebpf4jnsgd1na2vs0mg"},{"bike_id":"eea13d18-d094-491e-bf3b-829ef76a5b7d","system_id":"levelo_inurba_marseille","lat":43.31363,"lon":5.38492,"is_reserved":false,"is_disabled":false,"rental_uris":{"android":"levelo://app?vid=eea13d18-d094-491e-bf3b-829ef76a5b7d","ios":"levelo://app?vid=eea13d18-d094-491e-bf3b-829ef76a5b7d"},"vehicle_type_id":"4","last_reported":1770230059,"current_range_meters":4000,"station_id":"ce4bgt92rcd13ifvqcf0","pricing_plan_id":"cebpf4jnsgd1na2vs0mg"},{"bike_id":"41ca42ba-dc95-43b8-bdd4-37f439e3c100","system_id":"levelo_inurba_marseille","lat":43.29044,"lon":5.37565,"is_reserved":false,"is_disabled":false,"rental_uris":{"android":"levelo://app?vid=41ca42ba-dc95-43b8-bdd4-37f439e3c100","ios":"levelo://app?vid=41ca42ba-dc95-43b8-bdd4-37f439e3c100"},"vehicle_type_id":"4","last_reported":1770230059,"current_range_meters":4000,"station_id":"ce4bh692rcd13ifvqe90","pricing_plan_id":"cebpf4jnsgd1na2vs0mg"},{"bike_id":"ac6e2b99-6374-49b6-9e20-c02c37e7e5fc","system_id":"levelo_inurba_marseille","lat":43.29634,"lon":5.37149,"is_reserved":false,"is_disabled":false,"rental_uris":{"android":"levelo://app?vid=ac6e2b99-6374-49b6-9e20-c02c37e7e5fc","ios":"levelo://app?vid=ac6e2b99-6374-49b6-9e20-c02c37e7e5fc"},"vehicle_type_id":"4","last_reported":1770230059,"current_range_meters":4000,"station_id":"ce4bgnh2rcd13ifvqc0g","pricing_plan_id":"cebpf4jnsgd1na2vs0mg"},{"bike_id":"2097a70e-56d0-402d-ace3-00e59c54a4bf","system_id":"levelo_inurba_marseille","lat":43.25513,"lon":5.37643,"is_reserved":false,"is_disabled":false,"rental_uris":{"android":"levelo://app?vid=2097a70e-56d0-402d-ace3-00e59c54a4bf","ios":"levelo://app?vid=2097a70e-56d0-402d-ace3-00e59c54a4bf"},"vehicle_type_id":"4","last_reported":1770230059,"current_range_meters":4000,"station_id":"ce4bhh12rcd13ifvqff0","pricing_plan_id":"cebpf4jnsgd1na2vs0mg"},{"bike_id":"191a99ed-49ff-4737-8f82-7264bf56cc6c","system_id":"levelo_inurba_marseille","lat":43.25021,"lon":5.38928,"is_reserved":false,"is_disabled":false,"rental_uris":{"android":"levelo://app?vid=191a99ed-49ff-4737-8f82-7264bf56cc6c","ios":"levelo://app?vid=191a99ed-49ff-4737-8f82-7264bf56cc6c"},"vehicle_type_id":"4","last_reported":1770230059,"current_range_meters":4000,"station_id":"ce4bhgp2rcd13ifvqfd0","pricing_plan_id":"cebpf4jnsgd1na2vs0mg"},{"bike_id":"c214f81c-e58b-4475-ad7c-a9d63d7d79c5","system_id":"levelo_inurba_marseille","lat":43.29552,"lon":5.42289,"is_reserved":false,"is_disabled":false,"rental_uris":{"android":"levelo://app?vid=c214f81c-e58b-4475-ad7c-a9d63d7d79c5","ios":"levelo://app?vid=c214f81c-e58b-4475-ad7c-a9d63d7d79c5"},"vehicle_type_id":"4","last_reported":1770230059,"current_range_meters":4000,"station_id":"ce4bhph2rcd13ifvqhdg","pricing_plan_id":"cebpf4jnsgd1na2vs0mg"},{"bike_id":"7420566e-7f9c-4e43-ad5c-037ad83a3126","system_id":"levelo_inurba_marseille","lat":43.31358,"lon":5.38492,"is_reserved":false,"is_disabled":false,"rental_uris":{"android":"levelo://app?vid=7420566e-7f9c-4e43-ad5c-037ad83a3126","ios":"levelo://app?vid=7420566e-7f9c-4e43-ad5c-037ad83a3126"},"vehicle_type_id":"4","last_reported":1770230059,"current_range_meters":4000,"station_id":"ce4bgt92rcd13ifvqcf0","pricing_plan_id":"cebpf4jnsgd1na2vs0mg"},{"bike_id":"f6178df9-82d8-4cb1-8cae-4aa20e1299dd","system_id":"levelo_inurba_marseille","lat":43.30637,"lon":5.37978,"is_reserved":false,"is_disabled":false,"rental_uris":{"android":"levelo://app?vid=f6178df9-82d8-4cb1-8cae-4aa20e1299dd","ios":"levelo://app?vid=f6178df9-82d8-4cb1-8cae-4aa20e1299dd"},"vehicle_type_id":"4","last_reported":1770230059,"current_range_meters":4000,"station_id":"ce4bgup2rcd13ifvqcn0","pricing_plan_id":"cebpf4jnsgd1na2vs0mg"},{"bike_id":"6ea5bbbf-7526-40cd-8ad8-d4ba41081b71","system_id":"levelo_inurba_marseille","lat":43.25117,"lon":5.40307,"is_reserved":false,"is_disabled":false,"rental_uris":{"android":"levelo://app?vid=6ea5bbbf-7526-40cd-8ad8-d4ba41081b71","ios":"levelo://app?vid=6ea5bbbf-7526-40cd-8ad8-d4ba41081b71"},"vehicle_type_id":"4","last_reported":1770230059,"current_range_meters":4000,"station_id":"ce4bhlh2rcd13ifvqgig","pricing_plan_id":"cebpf4jnsgd1na2vs0mg"},{"bike_id":"d863964b-1765-40d1-8b0c-d4f383cfb831","system_id":"levelo_inurba_marseille","lat":43.29946,"lon":5.36539,"is_reserved":false,"is_disabled":false,"rental_uris":{"android":"levelo://app?vid=d863964b-1765-40d1-8b0c-d4f383cfb831","ios":"levelo://app?vid=d863964b-1765-40d1-8b0c-d4f383cfb831"},"vehicle_type_id":"4","last_reported":1770230059,"current_range_meters":4000,"station_id":"ce4bgm92rcd13ifvqbr0","pricing_plan_id":"cebpf4jnsgd1na2vs0mg"},{"bike_id":"6b54c5fb-e918-4ac7-8848-e4b64353de39","system_id":"levelo_inurba_marseille","lat":43.27338,"lon":5.39113,"is_reserved":false,"is_disabled":false,"rental_uris":{"android":"levelo://app?vid=6b54c5fb-e918-4ac7-8848-e4b64353de39","ios":"levelo://app?vid=6b54c5fb-e918-4ac7-8848-e4b64353de39"},"vehicle_type_id":"4","last_reported":1770230059,"current_range_meters":4400,"station_id":"ce4bhgp2rcd13ifvqfe0","pricing_plan_id":"cebpf4jnsgd1na2vs0mg"},{"bike_id":"08b6c95d-23eb-4a14-90cb-5f449f483256","system_id":"levelo_inurba_marseille","lat":43.26565,"lon":5.39007,"is_reserved":false,"is_disabled":false,"rental_uris":{"android":"levelo://app?vid=08b6c95d-23eb-4a14-90cb-5f449f483256","ios":"levelo://app?vid=08b6c95d-23eb-4a14-90cb-5f449f483256"},"vehicle_type_id":"4","last_reported":1770230059,"current_range_meters":4400,"station_id":"ce4bhe12rcd13ifvqf30","pricing_plan_id":"cebpf4jnsgd1na2vs0mg"},{"bike_id":"242256f5-f0bd-4204-9565-2087ceacdda5","system_id":"levelo_inurba_marseille","lat":43.22555,"lon":5.4162,"is_reserved":false,"is_disabled":false,"rental_uris":{"android":"levelo://app?vid=242256f5-f0bd-4204-9565-2087ceacdda5","ios":"levelo://app?vid=242256f5-f0bd-4204-9565-2087ceacdda5"},"vehicle_type_id":"4","last_reported":1770230059,"current_range_meters":4400,"station_id":"st_d2o4gvlbi1j2169b742g","pricing_plan_id":"cebpf4jnsgd1na2vs0mg"},{"bike_id":"ba3390f5-14ed-4160-abcf-8bea19885613","system_id":"levelo_inurba_marseille","lat":43.28493,"lon":5.48392,"is_reserved":false,"is_disabled":false,"rental_uris":{"android":"levelo://app?vid=ba3390f5-14ed-4160-abcf-8bea19885613","ios":"levelo://app?vid=ba3390f5-14ed-4160-abcf-8bea19885613"},"vehicle_type_id":"4","last_reported":1770230059,"current_range_meters":4400,"station_id":"","pricing_plan_id":"cebpf4jnsgd1na2vs0mg"},{"bike_id":"a190f602-7f5a-43c0-9ffb-7bd2c4c43186","system_id":"levelo_inurba_marseille","lat":43.29973,"lon":5.3849,"is_reserved":false,"is_disabled":false,"rental_uris":{"android":"levelo://app?vid=a190f602-7f5a-43c0-9ffb-7bd2c4c43186","ios":"levelo://app?vid=a190f602-7f5a-43c0-9ffb-7bd2c4c43186"},"vehicle_type_id":"4","last_reported":1770230059,"current_range_meters":4400,"station_id":"ce4bgj92rcd13ifvqbd0","pricing_plan_id":"cebpf4jnsgd1na2vs0mg"},{"bike_id":"fdc74734-8708-4513-9519-5478f60a2254","system_id":"levelo_inurba_marseille","lat":43.24816,"lon":5.37458,"is_reserved":false,"is_disabled":false,"rental_uris":{"android":"levelo://app?vid=fdc74734-8708-4513-9519-5478f60a2254","ios":"levelo://app?vid=fdc74734-8708-4513-9519-5478f60a2254"},"vehicle_type_id":"4","last_reported":1770230059,"current_range_meters":4400,"station_id":"ce4bhgh2rcd13ifvqfb0","pricing_plan_id":"cebpf4jnsgd1na2vs0mg"},{"bike_id":"692d5410-7bea-4ca1-910c-e9224d4fa1ea","system_id":"levelo_inurba_marseille","lat":43.28615,"lon":5.35093,"is_reserved":false,"is_disabled":false,"rental_uris":{"android":"levelo://app?vid=692d5410-7bea-4ca1-910c-e9224d4fa1ea","ios":"levelo://app?vid=692d5410-7bea-4ca1-910c-e9224d4fa1ea"},"vehicle_type_id":"4","last_reported":1770230059,"current_range_meters":4400,"station_id":"ce4bhch2rcd13ifvqeug","pricing_plan_id":"cebpf4jnsgd1na2vs0mg"},{"bike_id":"a1d40264-31fa-4368-a92c-3f50c8a64b96","system_id":"levelo_inurba_marseille","lat":43.23149,"lon":5.43691,"is_reserved":false,"is_disabled":false,"rental_uris":{"android":"levelo://app?vid=a1d40264-31fa-4368-a92c-3f50c8a64b96","ios":"levelo://app?vid=a1d40264-31fa-4368-a92c-3f50c8a64b96"},"vehicle_type_id":"4","last_reported":1770230059,"current_range_meters":4400,"station_id":"ce4bhmp2rcd13ifvqgog","pricing_plan_id":"cebpf4jnsgd1na2vs0mg"},{"bike_id":"ccad5bb8-727e-4e27-b0cc-7b2f496ea109","system_id":"levelo_inurba_marseille","lat":43.29552,"lon":5.4229,"is_reserved":false,"is_disabled":false,"rental_uris":{"android":"levelo://app?vid=ccad5bb8-727e-4e27-b0cc-7b2f496ea109","ios":"levelo://app?vid=ccad5bb8-727e-4e27-b0cc-7b2f496ea109"},"vehicle_type_id":"4","last_reported":1770230059,"current_range_meters":4400,"station_id":"ce4bhph2rcd13ifvqhdg","pricing_plan_id":"cebpf4jnsgd1na2vs0mg"},{"bike_id":"ed5409d4-9517-44ea-8b6c-1239c1aca9ad","system_id":"levelo_inurba_marseille","lat":43.31358,"lon":5.38499,"is_reserved":false,"is_disabled":false,"rental_uris":{"android":"levelo://app?vid=ed5409d4-9517-44ea-8b6c-1239c1aca9ad","ios":"levelo://app?vid=ed5409d4-9517-44ea-8b6c-1239c1aca9ad"},"vehicle_type_id":"4","last_reported":1770230059,"current_range_meters":4400,"station_id":"ce4bgt92rcd13ifvqcf0","pricing_plan_id":"cebpf4jnsgd1na2vs0mg"},{"bike_id":"25a30114-b4b1-4731-a753-4f5ac3ff1606","system_id":"levelo_inurba_marseille","lat":43.29022,"lon":5.38645,"is_reserved":false,"is_disabled":false,"rental_uris":{"android":"levelo://app?vid=25a30114-b4b1-4731-a753-4f5ac3ff1606","ios":"levelo://app?vid=25a30114-b4b1-4731-a753-4f5ac3ff1606"},"vehicle_type_id":"4","last_reported":1770230059,"current_range_meters":4800,"station_id":"ce4bh4p2rcd13ifvqe0g","pricing_plan_id":"cebpf4jnsgd1na2vs0mg"},{"bike_id":"3335ea9f-1944-46df-9cbf-48c87d3c290b","system_id":"levelo_inurba_marseille","lat":43.24153,"lon":5.39718,"is_reserved":false,"is_disabled":false,"rental_uris":{"android":"levelo://app?vid=3335ea9f-1944-46df-9cbf-48c87d3c290b","ios":"levelo://app?vid=3335ea9f-1944-46df-9cbf-48c87d3c290b"},"vehicle_type_id":"4","last_reported":1770230059,"current_range_meters":4800,"station_id":"ce4bhn12rcd13ifvqgpg","pricing_plan_id":"cebpf4jnsgd1na2vs0mg"},{"bike_id":"9a41c992-8ec6-4c5f-9787-da9fbb815a48","system_id":"levelo_inurba_marseille","lat":43.25575,"lon":5.38244,"is_reserved":false,"is_disabled":false,"rental_uris":{"android":"levelo://app?vid=9a41c992-8ec6-4c5f-9787-da9fbb815a48","ios":"levelo://app?vid=9a41c992-8ec6-4c5f-9787-da9fbb815a48"},"vehicle_type_id":"4","last_reported":1770230059,"current_range_meters":4800,"station_id":"ce4bhih2rcd13ifvqfs0","pricing_plan_id":"cebpf4jnsgd1na2vs0mg"},{"bike_id":"09a21789-da76-494e-a032-99a3bba4a2f5","system_id":"levelo_inurba_marseille","lat":43.29958,"lon":5.41318,"is_reserved":false,"is_disabled":false,"rental_uris":{"android":"levelo://app?vid=09a21789-da76-494e-a032-99a3bba4a2f5","ios":"levelo://app?vid=09a21789-da76-494e-a032-99a3bba4a2f5"},"vehicle_type_id":"4","last_reported":1770230059,"current_range_meters":4800,"station_id":"ce4bhp12rcd13ifvqh9g","pricing_plan_id":"cebpf4jnsgd1na2vs0mg"},{"bike_id":"efea85db-b1c8-46f7-b3e0-9fa246910aa6","system_id":"levelo_inurba_marseille","lat":43.23199,"lon":5.39987,"is_reserved":false,"is_disabled":false,"rental_uris":{"android":"levelo://app?vid=efea85db-b1c8-46f7-b3e0-9fa246910aa6","ios":"levelo://app?vid=efea85db-b1c8-46f7-b3e0-9fa246910aa6"},"vehicle_type_id":"4","last_reported":1770230059,"current_range_meters":4800,"station_id":"ce4bhn12rcd13ifvqgqg","pricing_plan_id":"cebpf4jnsgd1na2vs0mg"},{"bike_id":"13792967-e84d-49d8-a084-62f8e2603bbd","system_id":"levelo_inurba_marseille","lat":43.24649,"lon":5.38884,"is_reserved":false,"is_disabled":false,"rental_uris":{"android":"levelo://app?vid=13792967-e84d-49d8-a084-62f8e2603bbd","ios":"levelo://app?vid=13792967-e84d-49d8-a084-62f8e2603bbd"},"vehicle_type_id":"4","last_reported":1770230059,"current_range_meters":4800,"station_id":"ce4bhg12rcd13ifvqf60","pricing_plan_id":"cebpf4jnsgd1na2vs0mg"},{"bike_id":"30a59563-c9f0-4277-93fc-b275392ece49","system_id":"levelo_inurba_marseille","lat":43.28617,"lon":5.35097,"is_reserved":false,"is_disabled":false,"rental_uris":{"android":"levelo://app?vid=30a59563-c9f0-4277-93fc-b275392ece49","ios":"levelo://app?vid=30a59563-c9f0-4277-93fc-b275392ece49"},"vehicle_type_id":"4","last_reported":1770230059,"current_range_meters":4800,"station_id":"ce4bhch2rcd13ifvqeug","pricing_plan_id":"cebpf4jnsgd1na2vs0mg"},{"bike_id":"988afa8e-d306-4003-baf9-728102144f56","system_id":"levelo_inurba_marseille","lat":43.26761,"lon":5.38284,"is_reserved":false,"is_disabled":false,"rental_uris":{"android":"levelo://app?vid=988afa8e-d306-4003-baf9-728102144f56","ios":"levelo://app?vid=988afa8e-d306-4003-baf9-728102144f56"},"vehicle_type_id":"4","last_reported":1770230059,"current_range_meters":5600,"station_id":"","pricing_plan_id":"cebpf4jnsgd1na2vs0mg"},{"bike_id":"93f4d712-ad08-479a-b0bf-bd98e32fd86e","system_id":"levelo_inurba_marseille","lat":43.30259,"lon":5.37181,"is_reserved":false,"is_disabled":false,"rental_uris":{"android":"levelo://app?vid=93f4d712-ad08-479a-b0bf-bd98e32fd86e","ios":"levelo://app?vid=93f4d712-ad08-479a-b0bf-bd98e32fd86e"},"vehicle_type_id":"4","last_reported":1770230059,"current_range_meters":5600,"station_id":"","pricing_plan_id":"cebpf4jnsgd1na2vs0mg"},{"bike_id":"8faf73c2-426f-406c-b2e7-3c864be78133","system_id":"levelo_inurba_marseille","lat":43.303042,"lon":5.368916,"is_reserved":false,"is_disabled":false,"rental_uris":{"android":"levelo://app?vid=8faf73c2-426f-406c-b2e7-3c864be78133","ios":"levelo://app?vid=8faf73c2-426f-406c-b2e7-3c864be78133"},"vehicle_type_id":"4","last_reported":1770230059,"current_range_meters":5600,"station_id":"","pricing_plan_id":"cebpf4jnsgd1na2vs0mg"},{"bike_id":"71d627f4-7ec8-449a-a29d-435264410d26","system_id":"levelo_inurba_marseille","lat":43.29072,"lon":5.37169,"is_reserved":false,"is_disabled":false,"rental_uris":{"android":"levelo://app?vid=71d627f4-7ec8-449a-a29d-435264410d26","ios":"levelo://app?vid=71d627f4-7ec8-449a-a29d-435264410d26"},"vehicle_type_id":"4","last_reported":1770230059,"current_range_meters":5600,"station_id":"ce4bh5p2rcd13ifvqe4g","pricing_plan_id":"cebpf4jnsgd1na2vs0mg"},{"bike_id":"a0dac713-2dba-4e6f-87ab-5eb43b252ad4","system_id":"levelo_inurba_marseille","lat":43.3118,"lon":5.387,"is_reserved":false,"is_disabled":false,"rental_uris":{"android":"levelo://app?vid=a0dac713-2dba-4e6f-87ab-5eb43b252ad4","ios":"levelo://app?vid=a0dac713-2dba-4e6f-87ab-5eb43b252ad4"},"vehicle_type_id":"4","last_reported":1770230059,"current_range_meters":5600,"station_id":"ce4bgv12rcd13ifvqcp0","pricing_plan_id":"cebpf4jnsgd1na2vs0mg"},{"bike_id":"45ad8ef7-34e4-40d9-9057-5dae4609a19a","system_id":"levelo_inurba_marseille","lat":43.30582,"lon":5.37211,"is_reserved":false,"is_disabled":false,"rental_uris":{"android":"levelo://app?vid=45ad8ef7-34e4-40d9-9057-5dae4609a19a","ios":"levelo://app?vid=45ad8ef7-34e4-40d9-9057-5dae4609a19a"},"vehicle_type_id":"4","last_reported":1770230059,"current_range_meters":5600,"station_id":"ce4bgqh2rcd13ifvqc4g","pricing_plan_id":"cebpf4jnsgd1na2vs0mg"},{"bike_id":"e9fae1a1-52ee-4751-bbd4-1441429c87a5","system_id":"levelo_inurba_marseille","lat":43.23146,"lon":5.43716,"is_reserved":false,"is_disabled":false,"rental_uris":{"android":"levelo://app?vid=e9fae1a1-52ee-4751-bbd4-1441429c87a5","ios":"levelo://app?vid=e9fae1a1-52ee-4751-bbd4-1441429c87a5"},"vehicle_type_id":"4","last_reported":1770230059,"current_range_meters":5600,"station_id":"ce4bhmp2rcd13ifvqgog","pricing_plan_id":"cebpf4jnsgd1na2vs0mg"},{"bike_id":"9d79ec10-3ed1-4035-8609-ff591e4f54d3","system_id":"levelo_inurba_marseille","lat":43.25575,"lon":5.382274,"is_reserved":false,"is_disabled":false,"rental_uris":{"android":"levelo://app?vid=9d79ec10-3ed1-4035-8609-ff591e4f54d3","ios":"levelo://app?vid=9d79ec10-3ed1-4035-8609-ff591e4f54d3"},"vehicle_type_id":"4","last_reported":1770230059,"current_range_meters":5600,"station_id":"ce4bhih2rcd13ifvqfs0","pricing_plan_id":"cebpf4jnsgd1na2vs0mg"},{"bike_id":"9b56e182-4134-4f9f-b48f-caf7dd28724d","system_id":"levelo_inurba_marseille","lat":43.28535,"lon":5.44083,"is_reserved":false,"is_disabled":false,"rental_uris":{"android":"levelo://app?vid=9b56e182-4134-4f9f-b48f-caf7dd28724d","ios":"levelo://app?vid=9b56e182-4134-4f9f-b48f-caf7dd28724d"},"vehicle_type_id":"4","last_reported":1770230059,"current_range_meters":5600,"station_id":"st_d3j3df2ikq2c7380ej80","pricing_plan_id":"cebpf4jnsgd1na2vs0mg"},{"bike_id":"6af9c093-c8f8-4e82-9b76-84ead01f4f13","system_id":"levelo_inurba_marseille","lat":43.2657,"lon":5.40327,"is_reserved":false,"is_disabled":false,"rental_uris":{"android":"levelo://app?vid=6af9c093-c8f8-4e82-9b76-84ead01f4f13","ios":"levelo://app?vid=6af9c093-c8f8-4e82-9b76-84ead01f4f13"},"vehicle_type_id":"4","last_reported":1770230059,"current_range_meters":5600,"station_id":"ce4bhmp2rcd13ifvqgng","pricing_plan_id":"cebpf4jnsgd1na2vs0mg"},{"bike_id":"c3e77f90-af9b-4ac4-9b36-0c3e90510873","system_id":"levelo_inurba_marseille","lat":43.25743,"lon":5.41073,"is_reserved":false,"is_disabled":false,"rental_uris":{"android":"levelo://app?vid=c3e77f90-af9b-4ac4-9b36-0c3e90510873","ios":"levelo://app?vid=c3e77f90-af9b-4ac4-9b36-0c3e90510873"},"vehicle_type_id":"4","last_reported":1770230059,"current_range_meters":5600,"station_id":"ce4bhkp2rcd13ifvqgd0","pricing_plan_id":"cebpf4jnsgd1na2vs0mg"},{"bike_id":"95b9a336-3fed-4bdd-9bed-9ffc8554a2f2","system_id":"levelo_inurba_marseille","lat":43.31706,"lon":5.40466,"is_reserved":false,"is_disabled":false,"rental_uris":{"android":"levelo://app?vid=95b9a336-3fed-4bdd-9bed-9ffc8554a2f2","ios":"levelo://app?vid=95b9a336-3fed-4bdd-9bed-9ffc8554a2f2"},"vehicle_type_id":"4","last_reported":1770230059,"current_range_meters":5600,"station_id":"ce4bh012rcd13ifvqd00","pricing_plan_id":"cebpf4jnsgd1na2vs0mg"},{"bike_id":"35bc112e-7b03-4546-b701-158de3f004d7","system_id":"levelo_inurba_marseille","lat":43.29905,"lon":5.39735,"is_reserved":false,"is_disabled":false,"rental_uris":{"android":"levelo://app?vid=35bc112e-7b03-4546-b701-158de3f004d7","ios":"levelo://app?vid=35bc112e-7b03-4546-b701-158de3f004d7"},"vehicle_type_id":"4","last_reported":1770230059,"current_range_meters":5600,"station_id":"ce4bh0h2rcd13ifvqd50","pricing_plan_id":"cebpf4jnsgd1na2vs0mg"},{"bike_id":"d5d98457-3377-411c-bbd5-111f6add1380","system_id":"levelo_inurba_marseille","lat":43.25905,"lon":5.3942,"is_reserved":false,"is_disabled":false,"rental_uris":{"android":"levelo://app?vid=d5d98457-3377-411c-bbd5-111f6add1380","ios":"levelo://app?vid=d5d98457-3377-411c-bbd5-111f6add1380"},"vehicle_type_id":"4","last_reported":1770230059,"current_range_meters":5600,"station_id":"","pricing_plan_id":"cebpf4jnsgd1na2vs0mg"},{"bike_id":"0421d7ea-5489-4199-a385-3ab425d86243","system_id":"levelo_inurba_marseille","lat":43.2929,"lon":5.35707,"is_reserved":false,"is_disabled":false,"rental_uris":{"android":"levelo://app?vid=0421d7ea-5489-4199-a385-3ab425d86243","ios":"levelo://app?vid=0421d7ea-5489-4199-a385-3ab425d86243"},"vehicle_type_id":"4","last_reported":1770230059,"current_range_meters":6000,"station_id":"","pricing_plan_id":"cebpf4jnsgd1na2vs0mg"},{"bike_id":"f54f7d74-409f-410d-95c8-a65e90d900f5","system_id":"levelo_inurba_marseille","lat":43.24635,"lon":5.43141,"is_reserved":false,"is_disabled":false,"rental_uris":{"android":"levelo://app?vid=f54f7d74-409f-410d-95c8-a65e90d900f5","ios":"levelo://app?vid=f54f7d74-409f-410d-95c8-a65e90d900f5"},"vehicle_type_id":"4","last_reported":1770230059,"current_range_meters":6000,"station_id":"st_d2m6c4gdas8pm72e190g","pricing_plan_id":"cebpf4jnsgd1na2vs0mg"},{"bike_id":"1ca60162-3017-42ac-a6e4-a2c14354168b","system_id":"levelo_inurba_marseille","lat":43.28693,"lon":5.37401,"is_reserved":false,"is_disabled":false,"rental_uris":{"android":"levelo://app?vid=1ca60162-3017-42ac-a6e4-a2c14354168b","ios":"levelo://app?vid=1ca60162-3017-42ac-a6e4-a2c14354168b"},"vehicle_type_id":"4","last_reported":1770230059,"current_range_meters":6000,"station_id":"ce4bh3p2rcd13ifvqdq0","pricing_plan_id":"cebpf4jnsgd1na2vs0mg"},{"bike_id":"40876c26-127d-407e-adb0-83b88074f4ef","system_id":"levelo_inurba_marseille","lat":43.2928,"lon":5.37998,"is_reserved":false,"is_disabled":false,"rental_uris":{"android":"levelo://app?vid=40876c26-127d-407e-adb0-83b88074f4ef","ios":"levelo://app?vid=40876c26-127d-407e-adb0-83b88074f4ef"},"vehicle_type_id":"4","last_reported":1770230059,"current_range_meters":6000,"station_id":"","pricing_plan_id":"cebpf4jnsgd1na2vs0mg"},{"bike_id":"7b2df10f-d97d-4068-9983-8f53d0a78517","system_id":"levelo_inurba_marseille","lat":43.28874,"lon":5.4254,"is_reserved":false,"is_disabled":false,"rental_uris":{"android":"levelo://app?vid=7b2df10f-d97d-4068-9983-8f53d0a78517","ios":"levelo://app?vid=7b2df10f-d97d-4068-9983-8f53d0a78517"},"vehicle_type_id":"4","last_reported":1770230059,"current_range_meters":6000,"station_id":"st_d3b462108ojc7389ooeg","pricing_plan_id":"cebpf4jnsgd1na2vs0mg"},{"bike_id":"1ddc49e8-6175-434e-a2b9-5d92712d3fdb","system_id":"levelo_inurba_marseille","lat":43.27415,"lon":5.39406,"is_reserved":false,"is_disabled":false,"rental_uris":{"android":"levelo://app?vid=1ddc49e8-6175-434e-a2b9-5d92712d3fdb","ios":"levelo://app?vid=1ddc49e8-6175-434e-a2b9-5d92712d3fdb"},"vehicle_type_id":"4","last_reported":1770230059,"current_range_meters":6000,"station_id":"ce4bhdp2rcd13ifvqf20","pricing_plan_id":"cebpf4jnsgd1na2vs0mg"},{"bike_id":"a8c22487-8662-4b4c-ad3e-edccba99e631","system_id":"levelo_inurba_marseille","lat":43.31351,"lon":5.3849,"is_reserved":false,"is_disabled":false,"rental_uris":{"android":"levelo://app?vid=a8c22487-8662-4b4c-ad3e-edccba99e631","ios":"levelo://app?vid=a8c22487-8662-4b4c-ad3e-edccba99e631"},"vehicle_type_id":"4","last_reported":1770230059,"current_range_meters":6000,"station_id":"ce4bgt92rcd13ifvqcf0","pricing_plan_id":"cebpf4jnsgd1na2vs0mg"},{"bike_id":"8fb4838b-c5bd-4cb2-8c92-fceeea48a889","system_id":"levelo_inurba_marseille","lat":43.29557,"lon":5.42297,"is_reserved":false,"is_disabled":false,"rental_uris":{"android":"levelo://app?vid=8fb4838b-c5bd-4cb2-8c92-fceeea48a889","ios":"levelo://app?vid=8fb4838b-c5bd-4cb2-8c92-fceeea48a889"},"vehicle_type_id":"4","last_reported":1770230059,"current_range_meters":6000,"station_id":"ce4bhph2rcd13ifvqhdg","pricing_plan_id":"cebpf4jnsgd1na2vs0mg"},{"bike_id":"dbeef5c7-4028-4d99-a76c-21cebff9483e","system_id":"levelo_inurba_marseille","lat":43.33528,"lon":5.37456,"is_reserved":false,"is_disabled":false,"rental_uris":{"android":"levelo://app?vid=dbeef5c7-4028-4d99-a76c-21cebff9483e","ios":"levelo://app?vid=dbeef5c7-4028-4d99-a76c-21cebff9483e"},"vehicle_type_id":"4","last_reported":1770230059,"current_range_meters":6000,"station_id":"st_d46tts09ee8s73dlu43g","pricing_plan_id":"cebpf4jnsgd1na2vs0mg"},{"bike_id":"046e7757-7125-4638-959f-a98bf271f615","system_id":"levelo_inurba_marseille","lat":43.26194,"lon":5.37445,"is_reserved":false,"is_disabled":false,"rental_uris":{"android":"levelo://app?vid=046e7757-7125-4638-959f-a98bf271f615","ios":"levelo://app?vid=046e7757-7125-4638-959f-a98bf271f615"},"vehicle_type_id":"4","last_reported":1770230059,"current_range_meters":6000,"station_id":"ce4bhgp2rcd13ifvqfc0","pricing_plan_id":"cebpf4jnsgd1na2vs0mg"},{"bike_id":"f3318fc5-517b-4379-ab99-0b3b1be2500a","system_id":"levelo_inurba_marseille","lat":43.23374,"lon":5.41254,"is_reserved":false,"is_disabled":false,"rental_uris":{"android":"levelo://app?vid=f3318fc5-517b-4379-ab99-0b3b1be2500a","ios":"levelo://app?vid=f3318fc5-517b-4379-ab99-0b3b1be2500a"},"vehicle_type_id":"4","last_reported":1770230059,"current_range_meters":6000,"station_id":"","pricing_plan_id":"cebpf4jnsgd1na2vs0mg"},{"bike_id":"fed499d8-5df5-4cf5-ac13-84aa0aaeb00e","system_id":"levelo_inurba_marseille","lat":43.309492,"lon":5.379147,"is_reserved":false,"is_disabled":false,"rental_uris":{"android":"levelo://app?vid=fed499d8-5df5-4cf5-ac13-84aa0aaeb00e","ios":"levelo://app?vid=fed499d8-5df5-4cf5-ac13-84aa0aaeb00e"},"vehicle_type_id":"4","last_reported":1770230059,"current_range_meters":6000,"station_id":"","pricing_plan_id":"cebpf4jnsgd1na2vs0mg"},{"bike_id":"5eb21952-7569-4fff-be54-163288ae4b37","system_id":"levelo_inurba_marseille","lat":43.27073,"lon":5.38307,"is_reserved":false,"is_disabled":false,"rental_uris":{"android":"levelo://app?vid=5eb21952-7569-4fff-be54-163288ae4b37","ios":"levelo://app?vid=5eb21952-7569-4fff-be54-163288ae4b37"},"vehicle_type_id":"4","last_reported":1770230059,"current_range_meters":6000,"station_id":"st_d3n2fo6cfp8s73cte1j0","pricing_plan_id":"cebpf4jnsgd1na2vs0mg"},{"bike_id":"2e5ecc25-77a5-480b-9b59-990ada3aef80","system_id":"levelo_inurba_marseille","lat":43.31383,"lon":5.36706,"is_reserved":false,"is_disabled":false,"rental_uris":{"android":"levelo://app?vid=2e5ecc25-77a5-480b-9b59-990ada3aef80","ios":"levelo://app?vid=2e5ecc25-77a5-480b-9b59-990ada3aef80"},"vehicle_type_id":"4","last_reported":1770230059,"current_range_meters":6400,"station_id":"ce4bgr92rcd13ifvqc6g","pricing_plan_id":"cebpf4jnsgd1na2vs0mg"},{"bike_id":"661d735c-1217-4592-b6ea-42d5d4d951e0","system_id":"levelo_inurba_marseille","lat":43.270658,"lon":5.422761,"is_reserved":false,"is_disabled":false,"rental_uris":{"android":"levelo://app?vid=661d735c-1217-4592-b6ea-42d5d4d951e0","ios":"levelo://app?vid=661d735c-1217-4592-b6ea-42d5d4d951e0"},"vehicle_type_id":"4","last_reported":1770230059,"current_range_meters":6400,"station_id":"ce4bhk92rcd13ifvqgb0","pricing_plan_id":"cebpf4jnsgd1na2vs0mg"},{"bike_id":"c143c7c9-0924-48dc-a1e7-7eac6ac1a2c4","system_id":"levelo_inurba_marseille","lat":43.3266,"lon":5.40992,"is_reserved":false,"is_disabled":false,"rental_uris":{"android":"levelo://app?vid=c143c7c9-0924-48dc-a1e7-7eac6ac1a2c4","ios":"levelo://app?vid=c143c7c9-0924-48dc-a1e7-7eac6ac1a2c4"},"vehicle_type_id":"4","last_reported":1770230059,"current_range_meters":6400,"station_id":"ce4bhpp2rcd13ifvqhgg","pricing_plan_id":"cebpf4jnsgd1na2vs0mg"},{"bike_id":"73b6626a-125d-4b63-8d66-3e6a9851d390","system_id":"levelo_inurba_marseille","lat":43.22562,"lon":5.41618,"is_reserved":false,"is_disabled":false,"rental_uris":{"android":"levelo://app?vid=73b6626a-125d-4b63-8d66-3e6a9851d390","ios":"levelo://app?vid=73b6626a-125d-4b63-8d66-3e6a9851d390"},"vehicle_type_id":"4","last_reported":1770230059,"current_range_meters":6400,"station_id":"st_d2o4gvlbi1j2169b742g","pricing_plan_id":"cebpf4jnsgd1na2vs0mg"},{"bike_id":"a335e491-c933-4fc6-b3af-3e15603baffd","system_id":"levelo_inurba_marseille","lat":43.31616,"lon":5.38303,"is_reserved":false,"is_disabled":false,"rental_uris":{"android":"levelo://app?vid=a335e491-c933-4fc6-b3af-3e15603baffd","ios":"levelo://app?vid=a335e491-c933-4fc6-b3af-3e15603baffd"},"vehicle_type_id":"4","last_reported":1770230059,"current_range_meters":6400,"station_id":"","pricing_plan_id":"cebpf4jnsgd1na2vs0mg"},{"bike_id":"7ab80b7e-a203-442c-b352-62055b06df4d","system_id":"levelo_inurba_marseille","lat":43.31032,"lon":5.37182,"is_reserved":false,"is_disabled":false,"rental_uris":{"android":"levelo://app?vid=7ab80b7e-a203-442c-b352-62055b06df4d","ios":"levelo://app?vid=7ab80b7e-a203-442c-b352-62055b06df4d"},"vehicle_type_id":"4","last_reported":1770230059,"current_range_meters":6400,"station_id":"st_d4kl2rp97mjs73e7tdfg","pricing_plan_id":"cebpf4jnsgd1na2vs0mg"},{"bike_id":"e803ad7c-77ed-465a-bbe9-b5277cc69dd9","system_id":"levelo_inurba_marseille","lat":43.29979,"lon":5.38479,"is_reserved":false,"is_disabled":false,"rental_uris":{"android":"levelo://app?vid=e803ad7c-77ed-465a-bbe9-b5277cc69dd9","ios":"levelo://app?vid=e803ad7c-77ed-465a-bbe9-b5277cc69dd9"},"vehicle_type_id":"4","last_reported":1770230059,"current_range_meters":6400,"station_id":"ce4bgj92rcd13ifvqbd0","pricing_plan_id":"cebpf4jnsgd1na2vs0mg"},{"bike_id":"261d39cf-836d-4e3b-8140-d504536ebe1c","system_id":"levelo_inurba_marseille","lat":43.24668,"lon":5.39369,"is_reserved":false,"is_disabled":false,"rental_uris":{"android":"levelo://app?vid=261d39cf-836d-4e3b-8140-d504536ebe1c","ios":"levelo://app?vid=261d39cf-836d-4e3b-8140-d504536ebe1c"},"vehicle_type_id":"4","last_reported":1770230059,"current_range_meters":6400,"station_id":"","pricing_plan_id":"cebpf4jnsgd1na2vs0mg"},{"bike_id":"ad450168-32bc-48e5-981d-10198d96911f","system_id":"levelo_inurba_marseille","lat":43.24171,"lon":5.36382,"is_reserved":false,"is_disabled":false,"rental_uris":{"android":"levelo://app?vid=ad450168-32bc-48e5-981d-10198d96911f","ios":"levelo://app?vid=ad450168-32bc-48e5-981d-10198d96911f"},"vehicle_type_id":"4","last_reported":1770230059,"current_range_meters":6400,"station_id":"cpo36qri1sfpv3e86is0","pricing_plan_id":"cebpf4jnsgd1na2vs0mg"},{"bike_id":"d32ed6c3-1242-4623-afc0-94b259c787af","system_id":"levelo_inurba_marseille","lat":43.28359,"lon":5.381,"is_reserved":false,"is_disabled":false,"rental_uris":{"android":"levelo://app?vid=d32ed6c3-1242-4623-afc0-94b259c787af","ios":"levelo://app?vid=d32ed6c3-1242-4623-afc0-94b259c787af"},"vehicle_type_id":"4","last_reported":1770230059,"current_range_meters":6400,"station_id":"ce4bh412rcd13ifvqdr0","pricing_plan_id":"cebpf4jnsgd1na2vs0mg"},{"bike_id":"54c3f246-f2ba-43d6-a39a-f70edfa6074e","system_id":"levelo_inurba_marseille","lat":43.2918,"lon":5.38602,"is_reserved":false,"is_disabled":false,"rental_uris":{"android":"levelo://app?vid=54c3f246-f2ba-43d6-a39a-f70edfa6074e","ios":"levelo://app?vid=54c3f246-f2ba-43d6-a39a-f70edfa6074e"},"vehicle_type_id":"4","last_reported":1770230059,"current_range_meters":6400,"station_id":"","pricing_plan_id":"cebpf4jnsgd1na2vs0mg"},{"bike_id":"ef64cb18-c8a8-4251-87f8-703e259c4330","system_id":"levelo_inurba_marseille","lat":43.47654,"lon":5.48969,"is_reserved":false,"is_disabled":false,"rental_uris":{"android":"levelo://app?vid=ef64cb18-c8a8-4251-87f8-703e259c4330","ios":"levelo://app?vid=ef64cb18-c8a8-4251-87f8-703e259c4330"},"vehicle_type_id":"4","last_reported":1770230059,"current_range_meters":6400,"station_id":"","pricing_plan_id":"cebpf4jnsgd1na2vs0mg"},{"bike_id":"5ffc162c-3876-4a49-af02-3661f44effbb","system_id":"levelo_inurba_marseille","lat":43.284794,"lon":5.483949,"is_reserved":false,"is_disabled":false,"rental_uris":{"android":"levelo://app?vid=5ffc162c-3876-4a49-af02-3661f44effbb","ios":"levelo://app?vid=5ffc162c-3876-4a49-af02-3661f44effbb"},"vehicle_type_id":"4","last_reported":1770230059,"current_range_meters":6400,"station_id":"st_d3svhcjqgbts73a3dn0g","pricing_plan_id":"cebpf4jnsgd1na2vs0mg"},{"bike_id":"1adaacdd-953b-445d-a38b-f4a474536c35","system_id":"levelo_inurba_marseille","lat":43.26557,"lon":5.38998,"is_reserved":false,"is_disabled":false,"rental_uris":{"android":"levelo://app?vid=1adaacdd-953b-445d-a38b-f4a474536c35","ios":"levelo://app?vid=1adaacdd-953b-445d-a38b-f4a474536c35"},"vehicle_type_id":"4","last_reported":1770230059,"current_range_meters":6400,"station_id":"ce4bhe12rcd13ifvqf30","pricing_plan_id":"cebpf4jnsgd1na2vs0mg"},{"bike_id":"458b1d5f-d114-467e-9088-6f35cf923bb2","system_id":"levelo_inurba_marseille","lat":43.29786,"lon":5.38111,"is_reserved":false,"is_disabled":true,"rental_uris":{"android":"levelo://app?vid=458b1d5f-d114-467e-9088-6f35cf923bb2","ios":"levelo://app?vid=458b1d5f-d114-467e-9088-6f35cf923bb2"},"vehicle_type_id":"4","last_reported":1770230059,"current_range_meters":6400,"station_id":"ce4bgip2rcd13ifvqbb0","pricing_plan_id":"cebpf4jnsgd1na2vs0mg"},{"bike_id":"626974d3-ace9-41dd-9dbe-f4621ca953aa","system_id":"levelo_inurba_marseille","lat":43.29458,"lon":5.40979,"is_reserved":false,"is_disabled":false,"rental_uris":{"android":"levelo://app?vid=626974d3-ace9-41dd-9dbe-f4621ca953aa","ios":"levelo://app?vid=626974d3-ace9-41dd-9dbe-f4621ca953aa"},"vehicle_type_id":"4","last_reported":1770230059,"current_range_meters":6800,"station_id":"","pricing_plan_id":"cebpf4jnsgd1na2vs0mg"},{"bike_id":"83031ca8-9a01-425b-992d-e4dc7237fe73","system_id":"levelo_inurba_marseille","lat":43.22933,"lon":5.35374,"is_reserved":false,"is_disabled":false,"rental_uris":{"android":"levelo://app?vid=83031ca8-9a01-425b-992d-e4dc7237fe73","ios":"levelo://app?vid=83031ca8-9a01-425b-992d-e4dc7237fe73"},"vehicle_type_id":"4","last_reported":1770230059,"current_range_meters":6800,"station_id":"cpo3532slgdg3j2ikp40","pricing_plan_id":"cebpf4jnsgd1na2vs0mg"},{"bike_id":"91c21601-5efe-4644-9a24-675b91c6816e","system_id":"levelo_inurba_marseille","lat":43.24654,"lon":5.38889,"is_reserved":false,"is_disabled":false,"rental_uris":{"android":"levelo://app?vid=91c21601-5efe-4644-9a24-675b91c6816e","ios":"levelo://app?vid=91c21601-5efe-4644-9a24-675b91c6816e"},"vehicle_type_id":"4","last_reported":1770230059,"current_range_meters":6800,"station_id":"ce4bhg12rcd13ifvqf60","pricing_plan_id":"cebpf4jnsgd1na2vs0mg"},{"bike_id":"a85196bd-5acf-4ac1-84ca-9651f6b84a1b","system_id":"levelo_inurba_marseille","lat":43.29195,"lon":5.35802,"is_reserved":false,"is_disabled":false,"rental_uris":{"android":"levelo://app?vid=a85196bd-5acf-4ac1-84ca-9651f6b84a1b","ios":"levelo://app?vid=a85196bd-5acf-4ac1-84ca-9651f6b84a1b"},"vehicle_type_id":"4","last_reported":1770230059,"current_range_meters":6800,"station_id":"ce4bhb12rcd13ifvqel0","pricing_plan_id":"cebpf4jnsgd1na2vs0mg"},{"bike_id":"df818b63-7648-41d3-aafa-acbf575354e7","system_id":"levelo_inurba_marseille","lat":43.28964,"lon":5.37814,"is_reserved":false,"is_disabled":false,"rental_uris":{"android":"levelo://app?vid=df818b63-7648-41d3-aafa-acbf575354e7","ios":"levelo://app?vid=df818b63-7648-41d3-aafa-acbf575354e7"},"vehicle_type_id":"4","last_reported":1770230059,"current_range_meters":6800,"station_id":"ce4bh9p2rcd13ifvqed0","pricing_plan_id":"cebpf4jnsgd1na2vs0mg"},{"bike_id":"6c0809a9-584d-43e0-91a7-40baf97ad0a5","system_id":"levelo_inurba_marseille","lat":43.27199,"lon":5.40995,"is_reserved":false,"is_disabled":false,"rental_uris":{"android":"levelo://app?vid=6c0809a9-584d-43e0-91a7-40baf97ad0a5","ios":"levelo://app?vid=6c0809a9-584d-43e0-91a7-40baf97ad0a5"},"vehicle_type_id":"4","last_reported":1770230059,"current_range_meters":6800,"station_id":"ce4bhl12rcd13ifvqgf0","pricing_plan_id":"cebpf4jnsgd1na2vs0mg"},{"bike_id":"602a317a-2569-4054-96f0-845f144a318d","system_id":"levelo_inurba_marseille","lat":43.25095,"lon":5.39521,"is_reserved":false,"is_disabled":false,"rental_uris":{"android":"levelo://app?vid=602a317a-2569-4054-96f0-845f144a318d","ios":"levelo://app?vid=602a317a-2569-4054-96f0-845f144a318d"},"vehicle_type_id":"4","last_reported":1770230059,"current_range_meters":6800,"station_id":"ce4bhm12rcd13ifvqgkg","pricing_plan_id":"cebpf4jnsgd1na2vs0mg"},{"bike_id":"522d748c-7700-4a9e-9665-197613ae3ea1","system_id":"levelo_inurba_marseille","lat":43.22561,"lon":5.41639,"is_reserved":false,"is_disabled":false,"rental_uris":{"android":"levelo://app?vid=522d748c-7700-4a9e-9665-197613ae3ea1","ios":"levelo://app?vid=522d748c-7700-4a9e-9665-197613ae3ea1"},"vehicle_type_id":"4","last_reported":1770230059,"current_range_meters":6800,"station_id":"st_d2o4gvlbi1j2169b742g","pricing_plan_id":"cebpf4jnsgd1na2vs0mg"},{"bike_id":"bc11b645-4a28-43a9-a15e-e34b2b942d16","system_id":"levelo_inurba_marseille","lat":43.296404,"lon":5.379743,"is_reserved":false,"is_disabled":false,"rental_uris":{"android":"levelo://app?vid=bc11b645-4a28-43a9-a15e-e34b2b942d16","ios":"levelo://app?vid=bc11b645-4a28-43a9-a15e-e34b2b942d16"},"vehicle_type_id":"4","last_reported":1770230059,"current_range_meters":6800,"station_id":"ce4bgl12rcd13ifvqbo0","pricing_plan_id":"cebpf4jnsgd1na2vs0mg"},{"bike_id":"47cd4c56-7ec1-415c-97b3-d6785b50a4b6","system_id":"levelo_inurba_marseille","lat":43.31718,"lon":5.40447,"is_reserved":false,"is_disabled":false,"rental_uris":{"android":"levelo://app?vid=47cd4c56-7ec1-415c-97b3-d6785b50a4b6","ios":"levelo://app?vid=47cd4c56-7ec1-415c-97b3-d6785b50a4b6"},"vehicle_type_id":"4","last_reported":1770230059,"current_range_meters":6800,"station_id":"ce4bh012rcd13ifvqd00","pricing_plan_id":"cebpf4jnsgd1na2vs0mg"},{"bike_id":"605a645e-761d-4a85-acd6-fe955761eefa","system_id":"levelo_inurba_marseille","lat":43.29601,"lon":5.3834,"is_reserved":false,"is_disabled":false,"rental_uris":{"android":"levelo://app?vid=605a645e-761d-4a85-acd6-fe955761eefa","ios":"levelo://app?vid=605a645e-761d-4a85-acd6-fe955761eefa"},"vehicle_type_id":"4","last_reported":1770230059,"current_range_meters":6800,"station_id":"","pricing_plan_id":"cebpf4jnsgd1na2vs0mg"},{"bike_id":"2d334d5c-0886-4db9-83b0-7ae06d91ac1c","system_id":"levelo_inurba_marseille","lat":43.21203,"lon":5.35066,"is_reserved":false,"is_disabled":false,"rental_uris":{"android":"levelo://app?vid=2d334d5c-0886-4db9-83b0-7ae06d91ac1c","ios":"levelo://app?vid=2d334d5c-0886-4db9-83b0-7ae06d91ac1c"},"vehicle_type_id":"4","last_reported":1770230059,"current_range_meters":6800,"station_id":"st_cvj6sg6p6f1abm77japg","pricing_plan_id":"cebpf4jnsgd1na2vs0mg"},{"bike_id":"16c34f42-9a66-4fd5-8689-2fc8478b1531","system_id":"levelo_inurba_marseille","lat":43.22915,"lon":5.35405,"is_reserved":false,"is_disabled":false,"rental_uris":{"android":"levelo://app?vid=16c34f42-9a66-4fd5-8689-2fc8478b1531","ios":"levelo://app?vid=16c34f42-9a66-4fd5-8689-2fc8478b1531"},"vehicle_type_id":"4","last_reported":1770230059,"current_range_meters":6800,"station_id":"cpo3532slgdg3j2ikp40","pricing_plan_id":"cebpf4jnsgd1na2vs0mg"},{"bike_id":"e0c4d928-fd43-4892-90a3-ed4b6a6abfd1","system_id":"levelo_inurba_marseille","lat":43.29532,"lon":5.38539,"is_reserved":false,"is_disabled":false,"rental_uris":{"android":"levelo://app?vid=e0c4d928-fd43-4892-90a3-ed4b6a6abfd1","ios":"levelo://app?vid=e0c4d928-fd43-4892-90a3-ed4b6a6abfd1"},"vehicle_type_id":"4","last_reported":1770230059,"current_range_meters":6800,"station_id":"ce4bgih2rcd13ifvqba0","pricing_plan_id":"cebpf4jnsgd1na2vs0mg"},{"bike_id":"c7fd0cc4-a197-46ca-aee1-7cb94bc0ffc0","system_id":"levelo_inurba_marseille","lat":43.23382,"lon":5.41233,"is_reserved":false,"is_disabled":false,"rental_uris":{"android":"levelo://app?vid=c7fd0cc4-a197-46ca-aee1-7cb94bc0ffc0","ios":"levelo://app?vid=c7fd0cc4-a197-46ca-aee1-7cb94bc0ffc0"},"vehicle_type_id":"4","last_reported":1770230059,"current_range_meters":6800,"station_id":"","pricing_plan_id":"cebpf4jnsgd1na2vs0mg"},{"bike_id":"3888ac52-f7bf-4ed6-983a-3ea04862e190","system_id":"levelo_inurba_marseille","lat":43.31354,"lon":5.38494,"is_reserved":false,"is_disabled":false,"rental_uris":{"android":"levelo://app?vid=3888ac52-f7bf-4ed6-983a-3ea04862e190","ios":"levelo://app?vid=3888ac52-f7bf-4ed6-983a-3ea04862e190"},"vehicle_type_id":"4","last_reported":1770230059,"current_range_meters":6800,"station_id":"ce4bgt92rcd13ifvqcf0","pricing_plan_id":"cebpf4jnsgd1na2vs0mg"},{"bike_id":"9f038a27-96d6-4859-9897-b926ee3e17d3","system_id":"levelo_inurba_marseille","lat":43.28459,"lon":5.35885,"is_reserved":false,"is_disabled":false,"rental_uris":{"android":"levelo://app?vid=9f038a27-96d6-4859-9897-b926ee3e17d3","ios":"levelo://app?vid=9f038a27-96d6-4859-9897-b926ee3e17d3"},"vehicle_type_id":"4","last_reported":1770230059,"current_range_meters":6800,"station_id":"ce4bhah2rcd13ifvqei0","pricing_plan_id":"cebpf4jnsgd1na2vs0mg"},{"bike_id":"c269eff6-7414-4fb8-b35a-8132e5c63b79","system_id":"levelo_inurba_marseille","lat":43.24997,"lon":5.38899,"is_reserved":false,"is_disabled":false,"rental_uris":{"android":"levelo://app?vid=c269eff6-7414-4fb8-b35a-8132e5c63b79","ios":"levelo://app?vid=c269eff6-7414-4fb8-b35a-8132e5c63b79"},"vehicle_type_id":"4","last_reported":1770230059,"current_range_meters":6800,"station_id":"ce4bhgp2rcd13ifvqfd0","pricing_plan_id":"cebpf4jnsgd1na2vs0mg"},{"bike_id":"704711b2-d487-4b90-b61f-c05a123b9f0d","system_id":"levelo_inurba_marseille","lat":43.30087,"lon":5.39056,"is_reserved":false,"is_disabled":false,"rental_uris":{"android":"levelo://app?vid=704711b2-d487-4b90-b61f-c05a123b9f0d","ios":"levelo://app?vid=704711b2-d487-4b90-b61f-c05a123b9f0d"},"vehicle_type_id":"4","last_reported":1770230059,"current_range_meters":6800,"station_id":"ce4bh192rcd13ifvqdb0","pricing_plan_id":"cebpf4jnsgd1na2vs0mg"},{"bike_id":"eb4d34dd-e64f-4973-88e8-b9dd0977f0c0","system_id":"levelo_inurba_marseille","lat":43.31494,"lon":5.37302,"is_reserved":false,"is_disabled":false,"rental_uris":{"android":"levelo://app?vid=eb4d34dd-e64f-4973-88e8-b9dd0977f0c0","ios":"levelo://app?vid=eb4d34dd-e64f-4973-88e8-b9dd0977f0c0"},"vehicle_type_id":"4","last_reported":1770230059,"current_range_meters":6800,"station_id":"ce4bgt12rcd13ifvqcd0","pricing_plan_id":"cebpf4jnsgd1na2vs0mg"},{"bike_id":"aefa3fce-90ee-4225-8e3f-a4101c7b73f4","system_id":"levelo_inurba_marseille","lat":43.29785,"lon":5.37098,"is_reserved":false,"is_disabled":false,"rental_uris":{"android":"levelo://app?vid=aefa3fce-90ee-4225-8e3f-a4101c7b73f4","ios":"levelo://app?vid=aefa3fce-90ee-4225-8e3f-a4101c7b73f4"},"vehicle_type_id":"4","last_reported":1770230059,"current_range_meters":7200,"station_id":"ce4bgop2rcd13ifvqc1g","pricing_plan_id":"cebpf4jnsgd1na2vs0mg"},{"bike_id":"d94e6c0c-d482-4ce0-af37-49bee4e61853","system_id":"levelo_inurba_marseille","lat":43.23144,"lon":5.43703,"is_reserved":false,"is_disabled":false,"rental_uris":{"android":"levelo://app?vid=d94e6c0c-d482-4ce0-af37-49bee4e61853","ios":"levelo://app?vid=d94e6c0c-d482-4ce0-af37-49bee4e61853"},"vehicle_type_id":"4","last_reported":1770230059,"current_range_meters":7200,"station_id":"ce4bhmp2rcd13ifvqgog","pricing_plan_id":"cebpf4jnsgd1na2vs0mg"},{"bike_id":"1d0169c7-43cc-4e0d-8f92-382fedf69c34","system_id":"levelo_inurba_marseille","lat":43.29488,"lon":5.433192,"is_reserved":false,"is_disabled":false,"rental_uris":{"android":"levelo://app?vid=1d0169c7-43cc-4e0d-8f92-382fedf69c34","ios":"levelo://app?vid=1d0169c7-43cc-4e0d-8f92-382fedf69c34"},"vehicle_type_id":"4","last_reported":1770230059,"current_range_meters":7200,"station_id":"ce4bh0p2rcd13ifvqd80","pricing_plan_id":"cebpf4jnsgd1na2vs0mg"},{"bike_id":"8e443969-89bd-46f6-a10f-2e1233840320","system_id":"levelo_inurba_marseille","lat":43.24677,"lon":5.38155,"is_reserved":false,"is_disabled":false,"rental_uris":{"android":"levelo://app?vid=8e443969-89bd-46f6-a10f-2e1233840320","ios":"levelo://app?vid=8e443969-89bd-46f6-a10f-2e1233840320"},"vehicle_type_id":"4","last_reported":1770230059,"current_range_meters":7200,"station_id":"ce4bhih2rcd13ifvqfr0","pricing_plan_id":"cebpf4jnsgd1na2vs0mg"},{"bike_id":"8e7f7dcc-7fc1-4fa3-8f7a-9b4596de5459","system_id":"levelo_inurba_marseille","lat":43.2846,"lon":5.35899,"is_reserved":false,"is_disabled":true,"rental_uris":{"android":"levelo://app?vid=8e7f7dcc-7fc1-4fa3-8f7a-9b4596de5459","ios":"levelo://app?vid=8e7f7dcc-7fc1-4fa3-8f7a-9b4596de5459"},"vehicle_type_id":"4","last_reported":1770230059,"current_range_meters":7200,"station_id":"ce4bhah2rcd13ifvqei0","pricing_plan_id":"cebpf4jnsgd1na2vs0mg"},{"bike_id":"941d0b03-9ae1-4106-9296-775ca1406222","system_id":"levelo_inurba_marseille","lat":43.28304,"lon":5.42399,"is_reserved":false,"is_disabled":false,"rental_uris":{"android":"levelo://app?vid=941d0b03-9ae1-4106-9296-775ca1406222","ios":"levelo://app?vid=941d0b03-9ae1-4106-9296-775ca1406222"},"vehicle_type_id":"4","last_reported":1770230059,"current_range_meters":7200,"station_id":"","pricing_plan_id":"cebpf4jnsgd1na2vs0mg"},{"bike_id":"61c4cbe2-eed4-41e6-a6ff-be907a5d72ed","system_id":"levelo_inurba_marseille","lat":43.25025,"lon":5.3894,"is_reserved":false,"is_disabled":false,"rental_uris":{"android":"levelo://app?vid=61c4cbe2-eed4-41e6-a6ff-be907a5d72ed","ios":"levelo://app?vid=61c4cbe2-eed4-41e6-a6ff-be907a5d72ed"},"vehicle_type_id":"4","last_reported":1770230059,"current_range_meters":7200,"station_id":"ce4bhgp2rcd13ifvqfd0","pricing_plan_id":"cebpf4jnsgd1na2vs0mg"},{"bike_id":"d72c8d0b-6864-4eb2-b074-4484e5b3c2c1","system_id":"levelo_inurba_marseille","lat":43.28507,"lon":5.48397,"is_reserved":false,"is_disabled":false,"rental_uris":{"android":"levelo://app?vid=d72c8d0b-6864-4eb2-b074-4484e5b3c2c1","ios":"levelo://app?vid=d72c8d0b-6864-4eb2-b074-4484e5b3c2c1"},"vehicle_type_id":"4","last_reported":1770230059,"current_range_meters":7200,"station_id":"st_d3svhcjqgbts73a3dn0g","pricing_plan_id":"cebpf4jnsgd1na2vs0mg"},{"bike_id":"936c281e-a30f-4824-89f2-bc31d859ce18","system_id":"levelo_inurba_marseille","lat":43.30291,"lon":5.36997,"is_reserved":false,"is_disabled":false,"rental_uris":{"android":"levelo://app?vid=936c281e-a30f-4824-89f2-bc31d859ce18","ios":"levelo://app?vid=936c281e-a30f-4824-89f2-bc31d859ce18"},"vehicle_type_id":"4","last_reported":1770230059,"current_range_meters":7200,"station_id":"","pricing_plan_id":"cebpf4jnsgd1na2vs0mg"},{"bike_id":"708d8107-a502-4715-8ee8-97e259938ef7","system_id":"levelo_inurba_marseille","lat":43.24157,"lon":5.36379,"is_reserved":false,"is_disabled":false,"rental_uris":{"android":"levelo://app?vid=708d8107-a502-4715-8ee8-97e259938ef7","ios":"levelo://app?vid=708d8107-a502-4715-8ee8-97e259938ef7"},"vehicle_type_id":"4","last_reported":1770230059,"current_range_meters":7200,"station_id":"cpo36qri1sfpv3e86is0","pricing_plan_id":"cebpf4jnsgd1na2vs0mg"},{"bike_id":"5721ced1-e295-4e53-963b-7533496bee88","system_id":"levelo_inurba_marseille","lat":43.28853,"lon":5.39329,"is_reserved":false,"is_disabled":false,"rental_uris":{"android":"levelo://app?vid=5721ced1-e295-4e53-963b-7533496bee88","ios":"levelo://app?vid=5721ced1-e295-4e53-963b-7533496bee88"},"vehicle_type_id":"4","last_reported":1770230059,"current_range_meters":7200,"station_id":"ce4bh2p2rcd13ifvqdi0","pricing_plan_id":"cebpf4jnsgd1na2vs0mg"},{"bike_id":"3e3b9116-2221-4e0a-974c-0281768449fd","system_id":"levelo_inurba_marseille","lat":43.29203,"lon":5.35788,"is_reserved":false,"is_disabled":false,"rental_uris":{"android":"levelo://app?vid=3e3b9116-2221-4e0a-974c-0281768449fd","ios":"levelo://app?vid=3e3b9116-2221-4e0a-974c-0281768449fd"},"vehicle_type_id":"4","last_reported":1770230059,"current_range_meters":7200,"station_id":"ce4bhb12rcd13ifvqel0","pricing_plan_id":"cebpf4jnsgd1na2vs0mg"},{"bike_id":"9a2b72e7-2f02-4c7f-a39e-99e77fe675f5","system_id":"levelo_inurba_marseille","lat":43.2439,"lon":5.37045,"is_reserved":false,"is_disabled":false,"rental_uris":{"android":"levelo://app?vid=9a2b72e7-2f02-4c7f-a39e-99e77fe675f5","ios":"levelo://app?vid=9a2b72e7-2f02-4c7f-a39e-99e77fe675f5"},"vehicle_type_id":"4","last_reported":1770230059,"current_range_meters":7200,"station_id":"ce4bhhh2rcd13ifvqfk0","pricing_plan_id":"cebpf4jnsgd1na2vs0mg"},{"bike_id":"efea97cf-ff85-47aa-a6fd-26dd39fdf16c","system_id":"levelo_inurba_marseille","lat":43.30547,"lon":5.3673,"is_reserved":false,"is_disabled":false,"rental_uris":{"android":"levelo://app?vid=efea97cf-ff85-47aa-a6fd-26dd39fdf16c","ios":"levelo://app?vid=efea97cf-ff85-47aa-a6fd-26dd39fdf16c"},"vehicle_type_id":"4","last_reported":1770230059,"current_range_meters":7200,"station_id":"ce4bgrp2rcd13ifvqc9g","pricing_plan_id":"cebpf4jnsgd1na2vs0mg"},{"bike_id":"f56dea41-99a0-46d5-bc1f-58ac218b3393","system_id":"levelo_inurba_marseille","lat":43.31192,"lon":5.38705,"is_reserved":false,"is_disabled":false,"rental_uris":{"android":"levelo://app?vid=f56dea41-99a0-46d5-bc1f-58ac218b3393","ios":"levelo://app?vid=f56dea41-99a0-46d5-bc1f-58ac218b3393"},"vehicle_type_id":"4","last_reported":1770230059,"current_range_meters":7200,"station_id":"ce4bgv12rcd13ifvqcp0","pricing_plan_id":"cebpf4jnsgd1na2vs0mg"},{"bike_id":"0ea29824-ad31-4b2f-8732-8df7a85d07cc","system_id":"levelo_inurba_marseille","lat":43.29929,"lon":5.3789,"is_reserved":false,"is_disabled":false,"rental_uris":{"android":"levelo://app?vid=0ea29824-ad31-4b2f-8732-8df7a85d07cc","ios":"levelo://app?vid=0ea29824-ad31-4b2f-8732-8df7a85d07cc"},"vehicle_type_id":"4","last_reported":1770230059,"current_range_meters":7200,"station_id":"","pricing_plan_id":"cebpf4jnsgd1na2vs0mg"},{"bike_id":"da4d19a5-63fa-471e-bc87-bb23db14643b","system_id":"levelo_inurba_marseille","lat":43.29549,"lon":5.42508,"is_reserved":false,"is_disabled":false,"rental_uris":{"android":"levelo://app?vid=da4d19a5-63fa-471e-bc87-bb23db14643b","ios":"levelo://app?vid=da4d19a5-63fa-471e-bc87-bb23db14643b"},"vehicle_type_id":"4","last_reported":1770230059,"current_range_meters":7200,"station_id":"","pricing_plan_id":"cebpf4jnsgd1na2vs0mg"},{"bike_id":"ae31df1c-c3f6-4879-abd7-99d899c9ca05","system_id":"levelo_inurba_marseille","lat":43.31086,"lon":5.38453,"is_reserved":false,"is_disabled":false,"rental_uris":{"android":"levelo://app?vid=ae31df1c-c3f6-4879-abd7-99d899c9ca05","ios":"levelo://app?vid=ae31df1c-c3f6-4879-abd7-99d899c9ca05"},"vehicle_type_id":"4","last_reported":1770230059,"current_range_meters":7200,"station_id":"","pricing_plan_id":"cebpf4jnsgd1na2vs0mg"},{"bike_id":"944ab807-c23f-4808-8c60-4d2347b97e3d","system_id":"levelo_inurba_marseille","lat":43.30289,"lon":5.39203,"is_reserved":false,"is_disabled":false,"rental_uris":{"android":"levelo://app?vid=944ab807-c23f-4808-8c60-4d2347b97e3d","ios":"levelo://app?vid=944ab807-c23f-4808-8c60-4d2347b97e3d"},"vehicle_type_id":"4","last_reported":1770230059,"current_range_meters":7200,"station_id":"ce4bgkh2rcd13ifvqbk0","pricing_plan_id":"cebpf4jnsgd1na2vs0mg"},{"bike_id":"809dfd22-afa1-4754-8327-1cac66519aa2","system_id":"levelo_inurba_marseille","lat":43.28274,"lon":5.3507,"is_reserved":false,"is_disabled":false,"rental_uris":{"android":"levelo://app?vid=809dfd22-afa1-4754-8327-1cac66519aa2","ios":"levelo://app?vid=809dfd22-afa1-4754-8327-1cac66519aa2"},"vehicle_type_id":"4","last_reported":1770230059,"current_range_meters":7200,"station_id":"ce4bhbp2rcd13ifvqerg","pricing_plan_id":"cebpf4jnsgd1na2vs0mg"},{"bike_id":"c97cb073-8168-4347-8195-bc8c51c235c6","system_id":"levelo_inurba_marseille","lat":43.24067,"lon":5.37763,"is_reserved":false,"is_disabled":false,"rental_uris":{"android":"levelo://app?vid=c97cb073-8168-4347-8195-bc8c51c235c6","ios":"levelo://app?vid=c97cb073-8168-4347-8195-bc8c51c235c6"},"vehicle_type_id":"4","last_reported":1770230059,"current_range_meters":7200,"station_id":"ce4bhnp2rcd13ifvqgvg","pricing_plan_id":"cebpf4jnsgd1na2vs0mg"},{"bike_id":"a5c1703c-0b2d-4e6b-b820-25e716f1e211","system_id":"levelo_inurba_marseille","lat":43.28479,"lon":5.48397,"is_reserved":false,"is_disabled":false,"rental_uris":{"android":"levelo://app?vid=a5c1703c-0b2d-4e6b-b820-25e716f1e211","ios":"levelo://app?vid=a5c1703c-0b2d-4e6b-b820-25e716f1e211"},"vehicle_type_id":"4","last_reported":1770230059,"current_range_meters":7200,"station_id":"st_d3svhcjqgbts73a3dn0g","pricing_plan_id":"cebpf4jnsgd1na2vs0mg"},{"bike_id":"e55375b7-3afd-47f8-a340-f83f485617be","system_id":"levelo_inurba_marseille","lat":43.29939,"lon":5.36558,"is_reserved":false,"is_disabled":false,"rental_uris":{"android":"levelo://app?vid=e55375b7-3afd-47f8-a340-f83f485617be","ios":"levelo://app?vid=e55375b7-3afd-47f8-a340-f83f485617be"},"vehicle_type_id":"4","last_reported":1770230059,"current_range_meters":7200,"station_id":"ce4bgm92rcd13ifvqbr0","pricing_plan_id":"cebpf4jnsgd1na2vs0mg"},{"bike_id":"df59a0a1-ae4e-4a4e-abd9-3e734c444ecb","system_id":"levelo_inurba_marseille","lat":43.29245,"lon":5.36861,"is_reserved":false,"is_disabled":false,"rental_uris":{"android":"levelo://app?vid=df59a0a1-ae4e-4a4e-abd9-3e734c444ecb","ios":"levelo://app?vid=df59a0a1-ae4e-4a4e-abd9-3e734c444ecb"},"vehicle_type_id":"4","last_reported":1770230059,"current_range_meters":8000,"station_id":"ce4bhbp2rcd13ifvqesg","pricing_plan_id":"cebpf4jnsgd1na2vs0mg"},{"bike_id":"c5cff992-53ec-4d00-9c16-443240fd0d04","system_id":"levelo_inurba_marseille","lat":43.25575,"lon":5.38233,"is_reserved":false,"is_disabled":false,"rental_uris":{"android":"levelo://app?vid=c5cff992-53ec-4d00-9c16-443240fd0d04","ios":"levelo://app?vid=c5cff992-53ec-4d00-9c16-443240fd0d04"},"vehicle_type_id":"4","last_reported":1770230059,"current_range_meters":8000,"station_id":"ce4bhih2rcd13ifvqfs0","pricing_plan_id":"cebpf4jnsgd1na2vs0mg"},{"bike_id":"8f653595-9151-4b69-b16e-b8cf8e418a1b","system_id":"levelo_inurba_marseille","lat":43.337444,"lon":5.374475,"is_reserved":false,"is_disabled":false,"rental_uris":{"android":"levelo://app?vid=8f653595-9151-4b69-b16e-b8cf8e418a1b","ios":"levelo://app?vid=8f653595-9151-4b69-b16e-b8cf8e418a1b"},"vehicle_type_id":"4","last_reported":1770230059,"current_range_meters":8000,"station_id":"ce4bhq12rcd13ifvqhig","pricing_plan_id":"cebpf4jnsgd1na2vs0mg"},{"bike_id":"5e15d943-7bbd-4b8a-85f0-272ccafedcb7","system_id":"levelo_inurba_marseille","lat":43.25582,"lon":5.3825,"is_reserved":false,"is_disabled":false,"rental_uris":{"android":"levelo://app?vid=5e15d943-7bbd-4b8a-85f0-272ccafedcb7","ios":"levelo://app?vid=5e15d943-7bbd-4b8a-85f0-272ccafedcb7"},"vehicle_type_id":"4","last_reported":1770230059,"current_range_meters":8000,"station_id":"ce4bhih2rcd13ifvqfs0","pricing_plan_id":"cebpf4jnsgd1na2vs0mg"},{"bike_id":"52c5e029-0e2a-4e71-8973-674c07954cbb","system_id":"levelo_inurba_marseille","lat":43.29043,"lon":5.36979,"is_reserved":false,"is_disabled":false,"rental_uris":{"android":"levelo://app?vid=52c5e029-0e2a-4e71-8973-674c07954cbb","ios":"levelo://app?vid=52c5e029-0e2a-4e71-8973-674c07954cbb"},"vehicle_type_id":"4","last_reported":1770230059,"current_range_meters":8000,"station_id":"","pricing_plan_id":"cebpf4jnsgd1na2vs0mg"},{"bike_id":"ae9e6eb5-b58b-4eee-b5c1-4ce893811d8d","system_id":"levelo_inurba_marseille","lat":43.24186,"lon":5.39744,"is_reserved":false,"is_disabled":false,"rental_uris":{"android":"levelo://app?vid=ae9e6eb5-b58b-4eee-b5c1-4ce893811d8d","ios":"levelo://app?vid=ae9e6eb5-b58b-4eee-b5c1-4ce893811d8d"},"vehicle_type_id":"4","last_reported":1770230059,"current_range_meters":8000,"station_id":"ce4bhn12rcd13ifvqgpg","pricing_plan_id":"cebpf4jnsgd1na2vs0mg"},{"bike_id":"63bed449-f327-47c0-971d-3d6b04a3d904","system_id":"levelo_inurba_marseille","lat":43.28,"lon":5.41653,"is_reserved":false,"is_disabled":false,"rental_uris":{"android":"levelo://app?vid=63bed449-f327-47c0-971d-3d6b04a3d904","ios":"levelo://app?vid=63bed449-f327-47c0-971d-3d6b04a3d904"},"vehicle_type_id":"4","last_reported":1770230059,"current_range_meters":8000,"station_id":"ce4bho12rcd13ifvqh1g","pricing_plan_id":"cebpf4jnsgd1na2vs0mg"},{"bike_id":"ce4bc8cb-8dfb-4c32-9767-9ee3791934a7","system_id":"levelo_inurba_marseille","lat":43.29784,"lon":5.38109,"is_reserved":false,"is_disabled":false,"rental_uris":{"android":"levelo://app?vid=ce4bc8cb-8dfb-4c32-9767-9ee3791934a7","ios":"levelo://app?vid=ce4bc8cb-8dfb-4c32-9767-9ee3791934a7"},"vehicle_type_id":"4","last_reported":1770230059,"current_range_meters":8000,"station_id":"ce4bgip2rcd13ifvqbb0","pricing_plan_id":"cebpf4jnsgd1na2vs0mg"},{"bike_id":"2de0cce0-a4cf-4b2c-870c-3c981e77423e","system_id":"levelo_inurba_marseille","lat":43.29264,"lon":5.38425,"is_reserved":false,"is_disabled":true,"rental_uris":{"android":"levelo://app?vid=2de0cce0-a4cf-4b2c-870c-3c981e77423e","ios":"levelo://app?vid=2de0cce0-a4cf-4b2c-870c-3c981e77423e"},"vehicle_type_id":"4","last_reported":1770230059,"current_range_meters":8000,"station_id":"ce4bh692rcd13ifvqea0","pricing_plan_id":"cebpf4jnsgd1na2vs0mg"},{"bike_id":"6fc3a209-de85-41c2-b4a8-c7ac0825c961","system_id":"levelo_inurba_marseille","lat":43.29044,"lon":5.38671,"is_reserved":false,"is_disabled":false,"rental_uris":{"android":"levelo://app?vid=6fc3a209-de85-41c2-b4a8-c7ac0825c961","ios":"levelo://app?vid=6fc3a209-de85-41c2-b4a8-c7ac0825c961"},"vehicle_type_id":"4","last_reported":1770230059,"current_range_meters":8000,"station_id":"ce4bh4p2rcd13ifvqe0g","pricing_plan_id":"cebpf4jnsgd1na2vs0mg"},{"bike_id":"6b078351-0f00-4936-873b-f166caaf8d01","system_id":"levelo_inurba_marseille","lat":43.25112,"lon":5.40329,"is_reserved":false,"is_disabled":false,"rental_uris":{"android":"levelo://app?vid=6b078351-0f00-4936-873b-f166caaf8d01","ios":"levelo://app?vid=6b078351-0f00-4936-873b-f166caaf8d01"},"vehicle_type_id":"4","last_reported":1770230059,"current_range_meters":8000,"station_id":"ce4bhlh2rcd13ifvqgig","pricing_plan_id":"cebpf4jnsgd1na2vs0mg"},{"bike_id":"4ead51ed-cf24-4bbc-88f2-850b9400b3b4","system_id":"levelo_inurba_marseille","lat":43.28946,"lon":5.36419,"is_reserved":false,"is_disabled":false,"rental_uris":{"android":"levelo://app?vid=4ead51ed-cf24-4bbc-88f2-850b9400b3b4","ios":"levelo://app?vid=4ead51ed-cf24-4bbc-88f2-850b9400b3b4"},"vehicle_type_id":"4","last_reported":1770230059,"current_range_meters":8000,"station_id":"ce4bhc92rcd13ifvqetg","pricing_plan_id":"cebpf4jnsgd1na2vs0mg"},{"bike_id":"8a7f4167-2e0f-41f0-8cb2-bc2b2a324c6d","system_id":"levelo_inurba_marseille","lat":43.33022,"lon":5.39042,"is_reserved":false,"is_disabled":false,"rental_uris":{"android":"levelo://app?vid=8a7f4167-2e0f-41f0-8cb2-bc2b2a324c6d","ios":"levelo://app?vid=8a7f4167-2e0f-41f0-8cb2-bc2b2a324c6d"},"vehicle_type_id":"4","last_reported":1770230059,"current_range_meters":8000,"station_id":"ce4bhr92rcd13ifvqhrg","pricing_plan_id":"cebpf4jnsgd1na2vs0mg"},{"bike_id":"8d3e7d7f-fadb-4171-a139-ea9d29aba2b7","system_id":"levelo_inurba_marseille","lat":43.28438,"lon":5.43488,"is_reserved":false,"is_disabled":false,"rental_uris":{"android":"levelo://app?vid=8d3e7d7f-fadb-4171-a139-ea9d29aba2b7","ios":"levelo://app?vid=8d3e7d7f-fadb-4171-a139-ea9d29aba2b7"},"vehicle_type_id":"4","last_reported":1770230059,"current_range_meters":8400,"station_id":"","pricing_plan_id":"cebpf4jnsgd1na2vs0mg"},{"bike_id":"0d59add4-4b56-4ced-b456-94533a67403b","system_id":"levelo_inurba_marseille","lat":43.231993,"lon":5.355446,"is_reserved":false,"is_disabled":false,"rental_uris":{"android":"levelo://app?vid=0d59add4-4b56-4ced-b456-94533a67403b","ios":"levelo://app?vid=0d59add4-4b56-4ced-b456-94533a67403b"},"vehicle_type_id":"4","last_reported":1770230059,"current_range_meters":8400,"station_id":"ce4bhu92rcd13ifvqi70","pricing_plan_id":"cebpf4jnsgd1na2vs0mg"},{"bike_id":"3376af0a-2c8a-4f7e-ab86-0856914ff72b","system_id":"levelo_inurba_marseille","lat":43.29528,"lon":5.38536,"is_reserved":false,"is_disabled":false,"rental_uris":{"android":"levelo://app?vid=3376af0a-2c8a-4f7e-ab86-0856914ff72b","ios":"levelo://app?vid=3376af0a-2c8a-4f7e-ab86-0856914ff72b"},"vehicle_type_id":"4","last_reported":1770230059,"current_range_meters":8400,"station_id":"ce4bgih2rcd13ifvqba0","pricing_plan_id":"cebpf4jnsgd1na2vs0mg"},{"bike_id":"66b7775f-25ad-4f27-9b54-fc2f3f454655","system_id":"levelo_inurba_marseille","lat":43.26953,"lon":5.38627,"is_reserved":false,"is_disabled":false,"rental_uris":{"android":"levelo://app?vid=66b7775f-25ad-4f27-9b54-fc2f3f454655","ios":"levelo://app?vid=66b7775f-25ad-4f27-9b54-fc2f3f454655"},"vehicle_type_id":"4","last_reported":1770230059,"current_range_meters":8400,"station_id":"ce4bhh92rcd13ifvqfh0","pricing_plan_id":"cebpf4jnsgd1na2vs0mg"},{"bike_id":"6b2f8803-9c28-4df8-a226-517617e199e5","system_id":"levelo_inurba_marseille","lat":43.27976,"lon":5.41657,"is_reserved":false,"is_disabled":false,"rental_uris":{"android":"levelo://app?vid=6b2f8803-9c28-4df8-a226-517617e199e5","ios":"levelo://app?vid=6b2f8803-9c28-4df8-a226-517617e199e5"},"vehicle_type_id":"4","last_reported":1770230059,"current_range_meters":8400,"station_id":"ce4bho12rcd13ifvqh1g","pricing_plan_id":"cebpf4jnsgd1na2vs0mg"},{"bike_id":"1794fc4b-f1e9-4439-acd6-7a3c137a2b38","system_id":"levelo_inurba_marseille","lat":43.23791,"lon":5.36641,"is_reserved":false,"is_disabled":false,"rental_uris":{"android":"levelo://app?vid=1794fc4b-f1e9-4439-acd6-7a3c137a2b38","ios":"levelo://app?vid=1794fc4b-f1e9-4439-acd6-7a3c137a2b38"},"vehicle_type_id":"4","last_reported":1770230059,"current_range_meters":8400,"station_id":"st_d3nk18o9ro0c73en2l3g","pricing_plan_id":"cebpf4jnsgd1na2vs0mg"},{"bike_id":"27b91125-8725-4db7-bbdb-0b7821e21970","system_id":"levelo_inurba_marseille","lat":43.23396,"lon":5.41251,"is_reserved":false,"is_disabled":false,"rental_uris":{"android":"levelo://app?vid=27b91125-8725-4db7-bbdb-0b7821e21970","ios":"levelo://app?vid=27b91125-8725-4db7-bbdb-0b7821e21970"},"vehicle_type_id":"4","last_reported":1770230059,"current_range_meters":8400,"station_id":"","pricing_plan_id":"cebpf4jnsgd1na2vs0mg"},{"bike_id":"dc557827-aa70-4c26-b155-69a8514c695a","system_id":"levelo_inurba_marseille","lat":43.33544,"lon":5.37473,"is_reserved":false,"is_disabled":false,"rental_uris":{"android":"levelo://app?vid=dc557827-aa70-4c26-b155-69a8514c695a","ios":"levelo://app?vid=dc557827-aa70-4c26-b155-69a8514c695a"},"vehicle_type_id":"4","last_reported":1770230059,"current_range_meters":8400,"station_id":"","pricing_plan_id":"cebpf4jnsgd1na2vs0mg"},{"bike_id":"6d34c796-b0aa-4584-9aa0-e8187201e1d7","system_id":"levelo_inurba_marseille","lat":43.30436,"lon":5.38885,"is_reserved":false,"is_disabled":false,"rental_uris":{"android":"levelo://app?vid=6d34c796-b0aa-4584-9aa0-e8187201e1d7","ios":"levelo://app?vid=6d34c796-b0aa-4584-9aa0-e8187201e1d7"},"vehicle_type_id":"4","last_reported":1770230059,"current_range_meters":8400,"station_id":"ce4bgk12rcd13ifvqbi0","pricing_plan_id":"cebpf4jnsgd1na2vs0mg"},{"bike_id":"30af4932-afd2-4a71-b1f1-12452d4ffee0","system_id":"levelo_inurba_marseille","lat":43.23773,"lon":5.36632,"is_reserved":false,"is_disabled":false,"rental_uris":{"android":"levelo://app?vid=30af4932-afd2-4a71-b1f1-12452d4ffee0","ios":"levelo://app?vid=30af4932-afd2-4a71-b1f1-12452d4ffee0"},"vehicle_type_id":"4","last_reported":1770230059,"current_range_meters":8400,"station_id":"st_d3nk18o9ro0c73en2l3g","pricing_plan_id":"cebpf4jnsgd1na2vs0mg"},{"bike_id":"3a4b7fad-d353-4ccb-8488-6ee8991487ab","system_id":"levelo_inurba_marseille","lat":43.231924,"lon":5.355556,"is_reserved":false,"is_disabled":false,"rental_uris":{"android":"levelo://app?vid=3a4b7fad-d353-4ccb-8488-6ee8991487ab","ios":"levelo://app?vid=3a4b7fad-d353-4ccb-8488-6ee8991487ab"},"vehicle_type_id":"4","last_reported":1770230059,"current_range_meters":8400,"station_id":"ce4bhu92rcd13ifvqi70","pricing_plan_id":"cebpf4jnsgd1na2vs0mg"},{"bike_id":"95186a85-ac5d-4bde-b3fb-07b34e4b7077","system_id":"levelo_inurba_marseille","lat":43.25101,"lon":5.40334,"is_reserved":false,"is_disabled":false,"rental_uris":{"android":"levelo://app?vid=95186a85-ac5d-4bde-b3fb-07b34e4b7077","ios":"levelo://app?vid=95186a85-ac5d-4bde-b3fb-07b34e4b7077"},"vehicle_type_id":"4","last_reported":1770230059,"current_range_meters":8400,"station_id":"ce4bhlh2rcd13ifvqgig","pricing_plan_id":"cebpf4jnsgd1na2vs0mg"},{"bike_id":"c9cf1bda-a378-4513-8aed-b2dba30c86f7","system_id":"levelo_inurba_marseille","lat":43.29554,"lon":5.42292,"is_reserved":false,"is_disabled":false,"rental_uris":{"android":"levelo://app?vid=c9cf1bda-a378-4513-8aed-b2dba30c86f7","ios":"levelo://app?vid=c9cf1bda-a378-4513-8aed-b2dba30c86f7"},"vehicle_type_id":"4","last_reported":1770230059,"current_range_meters":8400,"station_id":"ce4bhph2rcd13ifvqhdg","pricing_plan_id":"cebpf4jnsgd1na2vs0mg"},{"bike_id":"0c979525-85d0-408b-ab55-925246a787cc","system_id":"levelo_inurba_marseille","lat":43.23146,"lon":5.43724,"is_reserved":false,"is_disabled":false,"rental_uris":{"android":"levelo://app?vid=0c979525-85d0-408b-ab55-925246a787cc","ios":"levelo://app?vid=0c979525-85d0-408b-ab55-925246a787cc"},"vehicle_type_id":"4","last_reported":1770230059,"current_range_meters":8400,"station_id":"ce4bhmp2rcd13ifvqgog","pricing_plan_id":"cebpf4jnsgd1na2vs0mg"},{"bike_id":"8e242366-4170-4cd5-a5d0-b42db75f415e","system_id":"levelo_inurba_marseille","lat":43.2979,"lon":5.39356,"is_reserved":false,"is_disabled":false,"rental_uris":{"android":"levelo://app?vid=8e242366-4170-4cd5-a5d0-b42db75f415e","ios":"levelo://app?vid=8e242366-4170-4cd5-a5d0-b42db75f415e"},"vehicle_type_id":"4","last_reported":1770230059,"current_range_meters":8400,"station_id":"chh1huq6cuj3fo74tm60","pricing_plan_id":"cebpf4jnsgd1na2vs0mg"},{"bike_id":"a3bfa0eb-eda7-49b7-ab25-b9c4130a73e5","system_id":"levelo_inurba_marseille","lat":43.27827,"lon":5.40726,"is_reserved":false,"is_disabled":true,"rental_uris":{"android":"levelo://app?vid=a3bfa0eb-eda7-49b7-ab25-b9c4130a73e5","ios":"levelo://app?vid=a3bfa0eb-eda7-49b7-ab25-b9c4130a73e5"},"vehicle_type_id":"4","last_reported":1770230059,"current_range_meters":8400,"station_id":"ce4bhnh2rcd13ifvqgtg","pricing_plan_id":"cebpf4jnsgd1na2vs0mg"},{"bike_id":"d047a55c-9853-4753-8cb7-607f2097c817","system_id":"levelo_inurba_marseille","lat":43.289385,"lon":5.366425,"is_reserved":false,"is_disabled":false,"rental_uris":{"android":"levelo://app?vid=d047a55c-9853-4753-8cb7-607f2097c817","ios":"levelo://app?vid=d047a55c-9853-4753-8cb7-607f2097c817"},"vehicle_type_id":"4","last_reported":1770230059,"current_range_meters":8400,"station_id":"ce4bh192rcd13ifvqdd0","pricing_plan_id":"cebpf4jnsgd1na2vs0mg"},{"bike_id":"b7764fc0-f5c7-40c2-8393-22727defba3a","system_id":"levelo_inurba_marseille","lat":43.26372,"lon":5.41083,"is_reserved":false,"is_disabled":false,"rental_uris":{"android":"levelo://app?vid=b7764fc0-f5c7-40c2-8393-22727defba3a","ios":"levelo://app?vid=b7764fc0-f5c7-40c2-8393-22727defba3a"},"vehicle_type_id":"4","last_reported":1770230059,"current_range_meters":8400,"station_id":"st_d4e5ca6na9uc73bfl5fg","pricing_plan_id":"cebpf4jnsgd1na2vs0mg"},{"bike_id":"9c97ed08-c8de-49a9-b037-9c50c2f5044c","system_id":"levelo_inurba_marseille","lat":43.2943,"lon":5.41321,"is_reserved":false,"is_disabled":false,"rental_uris":{"android":"levelo://app?vid=9c97ed08-c8de-49a9-b037-9c50c2f5044c","ios":"levelo://app?vid=9c97ed08-c8de-49a9-b037-9c50c2f5044c"},"vehicle_type_id":"4","last_reported":1770230059,"current_range_meters":8400,"station_id":"","pricing_plan_id":"cebpf4jnsgd1na2vs0mg"},{"bike_id":"e44e7816-6809-4e44-b512-aba042c8c26b","system_id":"levelo_inurba_marseille","lat":43.25811,"lon":5.39421,"is_reserved":false,"is_disabled":false,"rental_uris":{"android":"levelo://app?vid=e44e7816-6809-4e44-b512-aba042c8c26b","ios":"levelo://app?vid=e44e7816-6809-4e44-b512-aba042c8c26b"},"vehicle_type_id":"4","last_reported":1770230059,"current_range_meters":8400,"station_id":"ce4bhip2rcd13ifvqft0","pricing_plan_id":"cebpf4jnsgd1na2vs0mg"},{"bike_id":"975d126b-89e4-4613-9114-c70ad14b4ed6","system_id":"levelo_inurba_marseille","lat":43.2257,"lon":5.41617,"is_reserved":false,"is_disabled":false,"rental_uris":{"android":"levelo://app?vid=975d126b-89e4-4613-9114-c70ad14b4ed6","ios":"levelo://app?vid=975d126b-89e4-4613-9114-c70ad14b4ed6"},"vehicle_type_id":"4","last_reported":1770230059,"current_range_meters":8400,"station_id":"st_d2o4gvlbi1j2169b742g","pricing_plan_id":"cebpf4jnsgd1na2vs0mg"},{"bike_id":"fb65a596-60d7-4cda-a71c-6e0e8dd27289","system_id":"levelo_inurba_marseille","lat":43.31059,"lon":5.37171,"is_reserved":false,"is_disabled":false,"rental_uris":{"android":"levelo://app?vid=fb65a596-60d7-4cda-a71c-6e0e8dd27289","ios":"levelo://app?vid=fb65a596-60d7-4cda-a71c-6e0e8dd27289"},"vehicle_type_id":"4","last_reported":1770230059,"current_range_meters":8800,"station_id":"st_d4kl2rp97mjs73e7tdfg","pricing_plan_id":"cebpf4jnsgd1na2vs0mg"},{"bike_id":"b55cf58b-0b2d-45d8-b9da-9cab3935aa03","system_id":"levelo_inurba_marseille","lat":43.23051,"lon":5.35488,"is_reserved":false,"is_disabled":false,"rental_uris":{"android":"levelo://app?vid=b55cf58b-0b2d-45d8-b9da-9cab3935aa03","ios":"levelo://app?vid=b55cf58b-0b2d-45d8-b9da-9cab3935aa03"},"vehicle_type_id":"4","last_reported":1770230059,"current_range_meters":8800,"station_id":"cpo3342slgdg3j2ifvpg","pricing_plan_id":"cebpf4jnsgd1na2vs0mg"},{"bike_id":"b3735e88-8cf7-4a8a-8190-24b4e6e943c9","system_id":"levelo_inurba_marseille","lat":43.3111,"lon":5.37794,"is_reserved":false,"is_disabled":false,"rental_uris":{"android":"levelo://app?vid=b3735e88-8cf7-4a8a-8190-24b4e6e943c9","ios":"levelo://app?vid=b3735e88-8cf7-4a8a-8190-24b4e6e943c9"},"vehicle_type_id":"4","last_reported":1770230059,"current_range_meters":8800,"station_id":"ce4bgt92rcd13ifvqcg0","pricing_plan_id":"cebpf4jnsgd1na2vs0mg"},{"bike_id":"f73bf0ee-9df1-47ae-be36-5758f33adaf5","system_id":"levelo_inurba_marseille","lat":43.33415,"lon":5.41068,"is_reserved":false,"is_disabled":false,"rental_uris":{"android":"levelo://app?vid=f73bf0ee-9df1-47ae-be36-5758f33adaf5","ios":"levelo://app?vid=f73bf0ee-9df1-47ae-be36-5758f33adaf5"},"vehicle_type_id":"4","last_reported":1770230059,"current_range_meters":8800,"station_id":"","pricing_plan_id":"cebpf4jnsgd1na2vs0mg"},{"bike_id":"70672c0b-85c9-40d5-90ef-974add8d2d4e","system_id":"levelo_inurba_marseille","lat":43.29799,"lon":5.39331,"is_reserved":false,"is_disabled":false,"rental_uris":{"android":"levelo://app?vid=70672c0b-85c9-40d5-90ef-974add8d2d4e","ios":"levelo://app?vid=70672c0b-85c9-40d5-90ef-974add8d2d4e"},"vehicle_type_id":"4","last_reported":1770230059,"current_range_meters":8800,"station_id":"chh1huq6cuj3fo74tm60","pricing_plan_id":"cebpf4jnsgd1na2vs0mg"},{"bike_id":"81843b81-dc05-4822-ac46-ea3aebd24a78","system_id":"levelo_inurba_marseille","lat":43.32341,"lon":5.36751,"is_reserved":false,"is_disabled":false,"rental_uris":{"android":"levelo://app?vid=81843b81-dc05-4822-ac46-ea3aebd24a78","ios":"levelo://app?vid=81843b81-dc05-4822-ac46-ea3aebd24a78"},"vehicle_type_id":"4","last_reported":1770230059,"current_range_meters":8800,"station_id":"ce4bhsh2rcd13ifvqi2g","pricing_plan_id":"cebpf4jnsgd1na2vs0mg"},{"bike_id":"239edf4b-52a5-42bd-a57d-2d4cbfc6074d","system_id":"levelo_inurba_marseille","lat":43.24949,"lon":5.4049,"is_reserved":false,"is_disabled":false,"rental_uris":{"android":"levelo://app?vid=239edf4b-52a5-42bd-a57d-2d4cbfc6074d","ios":"levelo://app?vid=239edf4b-52a5-42bd-a57d-2d4cbfc6074d"},"vehicle_type_id":"4","last_reported":1770230059,"current_range_meters":8800,"station_id":"st_d2ngiaodas8pm72gd1h0","pricing_plan_id":"cebpf4jnsgd1na2vs0mg"},{"bike_id":"38712b4b-754b-41b9-9f4d-8f2f4069c5f1","system_id":"levelo_inurba_marseille","lat":43.29917,"lon":5.37455,"is_reserved":false,"is_disabled":false,"rental_uris":{"android":"levelo://app?vid=38712b4b-754b-41b9-9f4d-8f2f4069c5f1","ios":"levelo://app?vid=38712b4b-754b-41b9-9f4d-8f2f4069c5f1"},"vehicle_type_id":"4","last_reported":1770230059,"current_range_meters":8800,"station_id":"ce4bgjh2rcd13ifvqbg0","pricing_plan_id":"cebpf4jnsgd1na2vs0mg"},{"bike_id":"f7d0906b-23c2-4d3f-bf41-7c900c058085","system_id":"levelo_inurba_marseille","lat":43.28028,"lon":5.42199,"is_reserved":false,"is_disabled":false,"rental_uris":{"android":"levelo://app?vid=f7d0906b-23c2-4d3f-bf41-7c900c058085","ios":"levelo://app?vid=f7d0906b-23c2-4d3f-bf41-7c900c058085"},"vehicle_type_id":"4","last_reported":1770230059,"current_range_meters":8800,"station_id":"","pricing_plan_id":"cebpf4jnsgd1na2vs0mg"},{"bike_id":"1f6715d6-7824-4e6e-9831-e9971059580e","system_id":"levelo_inurba_marseille","lat":43.29255,"lon":5.40907,"is_reserved":false,"is_disabled":false,"rental_uris":{"android":"levelo://app?vid=1f6715d6-7824-4e6e-9831-e9971059580e","ios":"levelo://app?vid=1f6715d6-7824-4e6e-9831-e9971059580e"},"vehicle_type_id":"4","last_reported":1770230059,"current_range_meters":8800,"station_id":"ce4bh192rcd13ifvqdc0","pricing_plan_id":"cebpf4jnsgd1na2vs0mg"},{"bike_id":"fee01d67-c7fb-42fb-9808-4298ed7a7849","system_id":"levelo_inurba_marseille","lat":43.24426,"lon":5.42506,"is_reserved":false,"is_disabled":false,"rental_uris":{"android":"levelo://app?vid=fee01d67-c7fb-42fb-9808-4298ed7a7849","ios":"levelo://app?vid=fee01d67-c7fb-42fb-9808-4298ed7a7849"},"vehicle_type_id":"4","last_reported":1770230059,"current_range_meters":8800,"station_id":"st_d4a3vfp97mjs738cd8kg","pricing_plan_id":"cebpf4jnsgd1na2vs0mg"},{"bike_id":"a03a0587-26a0-4743-94df-85cf192becc0","system_id":"levelo_inurba_marseille","lat":43.33549,"lon":5.37473,"is_reserved":false,"is_disabled":false,"rental_uris":{"android":"levelo://app?vid=a03a0587-26a0-4743-94df-85cf192becc0","ios":"levelo://app?vid=a03a0587-26a0-4743-94df-85cf192becc0"},"vehicle_type_id":"4","last_reported":1770230059,"current_range_meters":8800,"station_id":"st_d46tts09ee8s73dlu43g","pricing_plan_id":"cebpf4jnsgd1na2vs0mg"},{"bike_id":"4afade3c-74d8-4d8b-96da-c0bd053dccdf","system_id":"levelo_inurba_marseille","lat":43.29065,"lon":5.37145,"is_reserved":false,"is_disabled":true,"rental_uris":{"android":"levelo://app?vid=4afade3c-74d8-4d8b-96da-c0bd053dccdf","ios":"levelo://app?vid=4afade3c-74d8-4d8b-96da-c0bd053dccdf"},"vehicle_type_id":"4","last_reported":1770230059,"current_range_meters":8800,"station_id":"ce4bh5p2rcd13ifvqe4g","pricing_plan_id":"cebpf4jnsgd1na2vs0mg"},{"bike_id":"f51faa61-e262-4784-936b-e44c95c2f5c2","system_id":"levelo_inurba_marseille","lat":43.31233,"lon":5.36857,"is_reserved":false,"is_disabled":false,"rental_uris":{"android":"levelo://app?vid=f51faa61-e262-4784-936b-e44c95c2f5c2","ios":"levelo://app?vid=f51faa61-e262-4784-936b-e44c95c2f5c2"},"vehicle_type_id":"4","last_reported":1770230059,"current_range_meters":8800,"station_id":"ce4bgl92rcd13ifvqbq0","pricing_plan_id":"cebpf4jnsgd1na2vs0mg"},{"bike_id":"59b3cf07-a48a-4e24-9342-16d8dccf8d71","system_id":"levelo_inurba_marseille","lat":43.29874,"lon":5.39723,"is_reserved":false,"is_disabled":false,"rental_uris":{"android":"levelo://app?vid=59b3cf07-a48a-4e24-9342-16d8dccf8d71","ios":"levelo://app?vid=59b3cf07-a48a-4e24-9342-16d8dccf8d71"},"vehicle_type_id":"4","last_reported":1770230059,"current_range_meters":9200,"station_id":"ce4bh0h2rcd13ifvqd50","pricing_plan_id":"cebpf4jnsgd1na2vs0mg"},{"bike_id":"ac09b2af-83c5-40fd-a0cc-15ec6541b943","system_id":"levelo_inurba_marseille","lat":43.31356,"lon":5.38489,"is_reserved":false,"is_disabled":false,"rental_uris":{"android":"levelo://app?vid=ac09b2af-83c5-40fd-a0cc-15ec6541b943","ios":"levelo://app?vid=ac09b2af-83c5-40fd-a0cc-15ec6541b943"},"vehicle_type_id":"4","last_reported":1770230059,"current_range_meters":9200,"station_id":"ce4bgt92rcd13ifvqcf0","pricing_plan_id":"cebpf4jnsgd1na2vs0mg"},{"bike_id":"4761248e-2b34-4fb3-9fed-0e7cfe8140e8","system_id":"levelo_inurba_marseille","lat":43.25512,"lon":5.37657,"is_reserved":false,"is_disabled":false,"rental_uris":{"android":"levelo://app?vid=4761248e-2b34-4fb3-9fed-0e7cfe8140e8","ios":"levelo://app?vid=4761248e-2b34-4fb3-9fed-0e7cfe8140e8"},"vehicle_type_id":"4","last_reported":1770230059,"current_range_meters":9200,"station_id":"ce4bhh12rcd13ifvqff0","pricing_plan_id":"cebpf4jnsgd1na2vs0mg"},{"bike_id":"c54292e3-065f-4936-9d5e-2b6c416dceb3","system_id":"levelo_inurba_marseille","lat":43.23156,"lon":5.43703,"is_reserved":false,"is_disabled":false,"rental_uris":{"android":"levelo://app?vid=c54292e3-065f-4936-9d5e-2b6c416dceb3","ios":"levelo://app?vid=c54292e3-065f-4936-9d5e-2b6c416dceb3"},"vehicle_type_id":"4","last_reported":1770230059,"current_range_meters":9200,"station_id":"ce4bhmp2rcd13ifvqgog","pricing_plan_id":"cebpf4jnsgd1na2vs0mg"},{"bike_id":"c26de9f0-aea6-437d-a752-448502a27f69","system_id":"levelo_inurba_marseille","lat":43.2589,"lon":5.40886,"is_reserved":false,"is_disabled":false,"rental_uris":{"android":"levelo://app?vid=c26de9f0-aea6-437d-a752-448502a27f69","ios":"levelo://app?vid=c26de9f0-aea6-437d-a752-448502a27f69"},"vehicle_type_id":"4","last_reported":1770230059,"current_range_meters":9200,"station_id":"ce4bhm92rcd13ifvqglg","pricing_plan_id":"cebpf4jnsgd1na2vs0mg"},{"bike_id":"b48ed2cb-2c8f-487c-8d2e-8948202f478f","system_id":"levelo_inurba_marseille","lat":43.280669,"lon":5.389719,"is_reserved":false,"is_disabled":false,"rental_uris":{"android":"levelo://app?vid=b48ed2cb-2c8f-487c-8d2e-8948202f478f","ios":"levelo://app?vid=b48ed2cb-2c8f-487c-8d2e-8948202f478f"},"vehicle_type_id":"4","last_reported":1770230059,"current_range_meters":9200,"station_id":"","pricing_plan_id":"cebpf4jnsgd1na2vs0mg"},{"bike_id":"ebe451ee-faee-46dc-bc12-f46e7d045188","system_id":"levelo_inurba_marseille","lat":43.26033,"lon":5.37547,"is_reserved":false,"is_disabled":false,"rental_uris":{"android":"levelo://app?vid=ebe451ee-faee-46dc-bc12-f46e7d045188","ios":"levelo://app?vid=ebe451ee-faee-46dc-bc12-f46e7d045188"},"vehicle_type_id":"4","last_reported":1770230059,"current_range_meters":9200,"station_id":"ce4bhgh2rcd13ifvqfa0","pricing_plan_id":"cebpf4jnsgd1na2vs0mg"},{"bike_id":"85ea35d2-3956-47f8-af2a-f5d40ff2980c","system_id":"levelo_inurba_marseille","lat":43.28476,"lon":5.48406,"is_reserved":false,"is_disabled":false,"rental_uris":{"android":"levelo://app?vid=85ea35d2-3956-47f8-af2a-f5d40ff2980c","ios":"levelo://app?vid=85ea35d2-3956-47f8-af2a-f5d40ff2980c"},"vehicle_type_id":"4","last_reported":1770230059,"current_range_meters":9200,"station_id":"st_d3svhcjqgbts73a3dn0g","pricing_plan_id":"cebpf4jnsgd1na2vs0mg"},{"bike_id":"34876a11-74b9-4acf-98dd-abc289f65181","system_id":"levelo_inurba_marseille","lat":43.29903,"lon":5.39718,"is_reserved":false,"is_disabled":false,"rental_uris":{"android":"levelo://app?vid=34876a11-74b9-4acf-98dd-abc289f65181","ios":"levelo://app?vid=34876a11-74b9-4acf-98dd-abc289f65181"},"vehicle_type_id":"4","last_reported":1770230059,"current_range_meters":9200,"station_id":"ce4bh0h2rcd13ifvqd50","pricing_plan_id":"cebpf4jnsgd1na2vs0mg"},{"bike_id":"e89b42f3-9ad9-40cd-a65c-98400cb11139","system_id":"levelo_inurba_marseille","lat":43.23148,"lon":5.43716,"is_reserved":false,"is_disabled":false,"rental_uris":{"android":"levelo://app?vid=e89b42f3-9ad9-40cd-a65c-98400cb11139","ios":"levelo://app?vid=e89b42f3-9ad9-40cd-a65c-98400cb11139"},"vehicle_type_id":"4","last_reported":1770230059,"current_range_meters":9200,"station_id":"ce4bhmp2rcd13ifvqgog","pricing_plan_id":"cebpf4jnsgd1na2vs0mg"},{"bike_id":"37867e40-4e69-4e30-9726-c1f71541de4c","system_id":"levelo_inurba_marseille","lat":43.30893,"lon":5.37211,"is_reserved":false,"is_disabled":false,"rental_uris":{"android":"levelo://app?vid=37867e40-4e69-4e30-9726-c1f71541de4c","ios":"levelo://app?vid=37867e40-4e69-4e30-9726-c1f71541de4c"},"vehicle_type_id":"4","last_reported":1770230059,"current_range_meters":9200,"station_id":"ce4bguh2rcd13ifvqckg","pricing_plan_id":"cebpf4jnsgd1na2vs0mg"},{"bike_id":"9f694826-fc95-4f6a-8601-fad7ebd925ce","system_id":"levelo_inurba_marseille","lat":43.2282,"lon":5.434919,"is_reserved":false,"is_disabled":false,"rental_uris":{"android":"levelo://app?vid=9f694826-fc95-4f6a-8601-fad7ebd925ce","ios":"levelo://app?vid=9f694826-fc95-4f6a-8601-fad7ebd925ce"},"vehicle_type_id":"4","last_reported":1770230059,"current_range_meters":9200,"station_id":"","pricing_plan_id":"cebpf4jnsgd1na2vs0mg"},{"bike_id":"446ed24f-cd55-4f44-be6c-9bdbf528c6b9","system_id":"levelo_inurba_marseille","lat":43.293134,"lon":5.371697,"is_reserved":false,"is_disabled":false,"rental_uris":{"android":"levelo://app?vid=446ed24f-cd55-4f44-be6c-9bdbf528c6b9","ios":"levelo://app?vid=446ed24f-cd55-4f44-be6c-9bdbf528c6b9"},"vehicle_type_id":"4","last_reported":1770230059,"current_range_meters":9200,"station_id":"ce4bgh92rcd13ifvqb40","pricing_plan_id":"cebpf4jnsgd1na2vs0mg"},{"bike_id":"df8183c6-cb8f-42aa-bb75-d15b9e2dc5f0","system_id":"levelo_inurba_marseille","lat":43.29267,"lon":5.40128,"is_reserved":false,"is_disabled":false,"rental_uris":{"android":"levelo://app?vid=df8183c6-cb8f-42aa-bb75-d15b9e2dc5f0","ios":"levelo://app?vid=df8183c6-cb8f-42aa-bb75-d15b9e2dc5f0"},"vehicle_type_id":"4","last_reported":1770230059,"current_range_meters":9200,"station_id":"ce4bh312rcd13ifvqdk0","pricing_plan_id":"cebpf4jnsgd1na2vs0mg"},{"bike_id":"4c155f06-125b-485c-bf06-403ea2b82ad3","system_id":"levelo_inurba_marseille","lat":43.29021,"lon":5.38112,"is_reserved":false,"is_disabled":false,"rental_uris":{"android":"levelo://app?vid=4c155f06-125b-485c-bf06-403ea2b82ad3","ios":"levelo://app?vid=4c155f06-125b-485c-bf06-403ea2b82ad3"},"vehicle_type_id":"4","last_reported":1770230059,"current_range_meters":9600,"station_id":"ce4bh4p2rcd13ifvqe1g","pricing_plan_id":"cebpf4jnsgd1na2vs0mg"},{"bike_id":"49bc0ac4-ec4c-46b4-bcba-c5b87d948aa1","system_id":"levelo_inurba_marseille","lat":43.23958,"lon":5.36623,"is_reserved":false,"is_disabled":false,"rental_uris":{"android":"levelo://app?vid=49bc0ac4-ec4c-46b4-bcba-c5b87d948aa1","ios":"levelo://app?vid=49bc0ac4-ec4c-46b4-bcba-c5b87d948aa1"},"vehicle_type_id":"4","last_reported":1770230059,"current_range_meters":9600,"station_id":"ce4bhi12rcd13ifvqfp0","pricing_plan_id":"cebpf4jnsgd1na2vs0mg"},{"bike_id":"88e8ae05-ad15-4fbb-807d-7ba66ca2d52c","system_id":"levelo_inurba_marseille","lat":43.30292,"lon":5.39217,"is_reserved":false,"is_disabled":false,"rental_uris":{"android":"levelo://app?vid=88e8ae05-ad15-4fbb-807d-7ba66ca2d52c","ios":"levelo://app?vid=88e8ae05-ad15-4fbb-807d-7ba66ca2d52c"},"vehicle_type_id":"4","last_reported":1770230059,"current_range_meters":9600,"station_id":"ce4bgkh2rcd13ifvqbk0","pricing_plan_id":"cebpf4jnsgd1na2vs0mg"},{"bike_id":"6aa9af2c-fa9c-45cb-b850-d11be87e3636","system_id":"levelo_inurba_marseille","lat":43.3207,"lon":5.41534,"is_reserved":false,"is_disabled":false,"rental_uris":{"android":"levelo://app?vid=6aa9af2c-fa9c-45cb-b850-d11be87e3636","ios":"levelo://app?vid=6aa9af2c-fa9c-45cb-b850-d11be87e3636"},"vehicle_type_id":"4","last_reported":1770230059,"current_range_meters":9600,"station_id":"ce4bhq92rcd13ifvqhkg","pricing_plan_id":"cebpf4jnsgd1na2vs0mg"},{"bike_id":"14d29e34-9030-4ebb-b26b-b9968049d1ce","system_id":"levelo_inurba_marseille","lat":43.241695,"lon":5.364001,"is_reserved":false,"is_disabled":false,"rental_uris":{"android":"levelo://app?vid=14d29e34-9030-4ebb-b26b-b9968049d1ce","ios":"levelo://app?vid=14d29e34-9030-4ebb-b26b-b9968049d1ce"},"vehicle_type_id":"4","last_reported":1770230059,"current_range_meters":9600,"station_id":"cpo36qri1sfpv3e86is0","pricing_plan_id":"cebpf4jnsgd1na2vs0mg"},{"bike_id":"b8a50ea7-d715-4e3d-a781-e5a31b47fd95","system_id":"levelo_inurba_marseille","lat":43.31102,"lon":5.37227,"is_reserved":false,"is_disabled":false,"rental_uris":{"android":"levelo://app?vid=b8a50ea7-d715-4e3d-a781-e5a31b47fd95","ios":"levelo://app?vid=b8a50ea7-d715-4e3d-a781-e5a31b47fd95"},"vehicle_type_id":"4","last_reported":1770230059,"current_range_meters":9600,"station_id":"","pricing_plan_id":"cebpf4jnsgd1na2vs0mg"},{"bike_id":"82026f6c-9d07-4663-9912-25f5d62833ed","system_id":"levelo_inurba_marseille","lat":43.26197,"lon":5.37453,"is_reserved":false,"is_disabled":false,"rental_uris":{"android":"levelo://app?vid=82026f6c-9d07-4663-9912-25f5d62833ed","ios":"levelo://app?vid=82026f6c-9d07-4663-9912-25f5d62833ed"},"vehicle_type_id":"4","last_reported":1770230059,"current_range_meters":9600,"station_id":"ce4bhgp2rcd13ifvqfc0","pricing_plan_id":"cebpf4jnsgd1na2vs0mg"},{"bike_id":"c1141524-5343-4555-9ca5-2692a3456421","system_id":"levelo_inurba_marseille","lat":43.22946,"lon":5.35381,"is_reserved":false,"is_disabled":false,"rental_uris":{"android":"levelo://app?vid=c1141524-5343-4555-9ca5-2692a3456421","ios":"levelo://app?vid=c1141524-5343-4555-9ca5-2692a3456421"},"vehicle_type_id":"4","last_reported":1770230059,"current_range_meters":9600,"station_id":"cpo3532slgdg3j2ikp40","pricing_plan_id":"cebpf4jnsgd1na2vs0mg"},{"bike_id":"3f646e86-3e19-4088-9eaa-20e51b6d8fb8","system_id":"levelo_inurba_marseille","lat":43.29775,"lon":5.37112,"is_reserved":false,"is_disabled":false,"rental_uris":{"android":"levelo://app?vid=3f646e86-3e19-4088-9eaa-20e51b6d8fb8","ios":"levelo://app?vid=3f646e86-3e19-4088-9eaa-20e51b6d8fb8"},"vehicle_type_id":"4","last_reported":1770230059,"current_range_meters":9600,"station_id":"ce4bgop2rcd13ifvqc1g","pricing_plan_id":"cebpf4jnsgd1na2vs0mg"},{"bike_id":"2e3b1feb-7f7d-491d-bdea-5b4f943d55cf","system_id":"levelo_inurba_marseille","lat":43.29292,"lon":5.37449,"is_reserved":false,"is_disabled":false,"rental_uris":{"android":"levelo://app?vid=2e3b1feb-7f7d-491d-bdea-5b4f943d55cf","ios":"levelo://app?vid=2e3b1feb-7f7d-491d-bdea-5b4f943d55cf"},"vehicle_type_id":"4","last_reported":1770230059,"current_range_meters":9600,"station_id":"ce4bgi12rcd13ifvqb70","pricing_plan_id":"cebpf4jnsgd1na2vs0mg"},{"bike_id":"1be79b39-519d-4004-8fc8-79c55282c459","system_id":"levelo_inurba_marseille","lat":43.24164,"lon":5.36416,"is_reserved":false,"is_disabled":false,"rental_uris":{"android":"levelo://app?vid=1be79b39-519d-4004-8fc8-79c55282c459","ios":"levelo://app?vid=1be79b39-519d-4004-8fc8-79c55282c459"},"vehicle_type_id":"4","last_reported":1770230059,"current_range_meters":9600,"station_id":"cpo36qri1sfpv3e86is0","pricing_plan_id":"cebpf4jnsgd1na2vs0mg"},{"bike_id":"6509da1d-d5c5-49f5-b2aa-ced3c5aca640","system_id":"levelo_inurba_marseille","lat":43.31167,"lon":5.387,"is_reserved":false,"is_disabled":false,"rental_uris":{"android":"levelo://app?vid=6509da1d-d5c5-49f5-b2aa-ced3c5aca640","ios":"levelo://app?vid=6509da1d-d5c5-49f5-b2aa-ced3c5aca640"},"vehicle_type_id":"4","last_reported":1770230059,"current_range_meters":9600,"station_id":"ce4bgv12rcd13ifvqcp0","pricing_plan_id":"cebpf4jnsgd1na2vs0mg"},{"bike_id":"755e59af-683d-4f2b-b573-16e19ef74443","system_id":"levelo_inurba_marseille","lat":43.29741,"lon":5.42782,"is_reserved":false,"is_disabled":false,"rental_uris":{"android":"levelo://app?vid=755e59af-683d-4f2b-b573-16e19ef74443","ios":"levelo://app?vid=755e59af-683d-4f2b-b573-16e19ef74443"},"vehicle_type_id":"4","last_reported":1770230059,"current_range_meters":9600,"station_id":"st_d3md5207bmas73dh9klg","pricing_plan_id":"cebpf4jnsgd1na2vs0mg"},{"bike_id":"d3d63c27-06f0-4b77-9ac5-a9069aedd324","system_id":"levelo_inurba_marseille","lat":43.24058,"lon":5.37747,"is_reserved":false,"is_disabled":false,"rental_uris":{"android":"levelo://app?vid=d3d63c27-06f0-4b77-9ac5-a9069aedd324","ios":"levelo://app?vid=d3d63c27-06f0-4b77-9ac5-a9069aedd324"},"vehicle_type_id":"4","last_reported":1770230059,"current_range_meters":9600,"station_id":"ce4bhnp2rcd13ifvqgvg","pricing_plan_id":"cebpf4jnsgd1na2vs0mg"},{"bike_id":"4b75a5a7-4601-441f-973a-d7310f59d1d0","system_id":"levelo_inurba_marseille","lat":43.2721,"lon":5.39184,"is_reserved":false,"is_disabled":false,"rental_uris":{"android":"levelo://app?vid=4b75a5a7-4601-441f-973a-d7310f59d1d0","ios":"levelo://app?vid=4b75a5a7-4601-441f-973a-d7310f59d1d0"},"vehicle_type_id":"4","last_reported":1770230059,"current_range_meters":9600,"station_id":"ce4bhhp2rcd13ifvqfm0","pricing_plan_id":"cebpf4jnsgd1na2vs0mg"},{"bike_id":"d2c14433-6ee8-4acf-8c27-13116ae17eed","system_id":"levelo_inurba_marseille","lat":43.22928,"lon":5.35369,"is_reserved":false,"is_disabled":false,"rental_uris":{"android":"levelo://app?vid=d2c14433-6ee8-4acf-8c27-13116ae17eed","ios":"levelo://app?vid=d2c14433-6ee8-4acf-8c27-13116ae17eed"},"vehicle_type_id":"4","last_reported":1770230059,"current_range_meters":9600,"station_id":"cpo3532slgdg3j2ikp40","pricing_plan_id":"cebpf4jnsgd1na2vs0mg"},{"bike_id":"e6e58918-784d-4937-ad58-d434a1e12b03","system_id":"levelo_inurba_marseille","lat":43.28702,"lon":5.37387,"is_reserved":false,"is_disabled":false,"rental_uris":{"android":"levelo://app?vid=e6e58918-784d-4937-ad58-d434a1e12b03","ios":"levelo://app?vid=e6e58918-784d-4937-ad58-d434a1e12b03"},"vehicle_type_id":"4","last_reported":1770230059,"current_range_meters":9600,"station_id":"ce4bh3p2rcd13ifvqdq0","pricing_plan_id":"cebpf4jnsgd1na2vs0mg"},{"bike_id":"6b57bf3b-8c0e-4c20-ac17-97c4a9b3eefe","system_id":"levelo_inurba_marseille","lat":43.23153,"lon":5.43708,"is_reserved":false,"is_disabled":false,"rental_uris":{"android":"levelo://app?vid=6b57bf3b-8c0e-4c20-ac17-97c4a9b3eefe","ios":"levelo://app?vid=6b57bf3b-8c0e-4c20-ac17-97c4a9b3eefe"},"vehicle_type_id":"4","last_reported":1770230059,"current_range_meters":9600,"station_id":"ce4bhmp2rcd13ifvqgog","pricing_plan_id":"cebpf4jnsgd1na2vs0mg"},{"bike_id":"6655b68c-34d5-4976-9b6b-2354fa7ac20f","system_id":"levelo_inurba_marseille","lat":43.28863,"lon":5.42525,"is_reserved":false,"is_disabled":false,"rental_uris":{"android":"levelo://app?vid=6655b68c-34d5-4976-9b6b-2354fa7ac20f","ios":"levelo://app?vid=6655b68c-34d5-4976-9b6b-2354fa7ac20f"},"vehicle_type_id":"4","last_reported":1770230059,"current_range_meters":10000,"station_id":"st_d3b462108ojc7389ooeg","pricing_plan_id":"cebpf4jnsgd1na2vs0mg"},{"bike_id":"b7fceb7d-5c94-4236-913d-205150a917a2","system_id":"levelo_inurba_marseille","lat":43.24466,"lon":5.42543,"is_reserved":false,"is_disabled":false,"rental_uris":{"android":"levelo://app?vid=b7fceb7d-5c94-4236-913d-205150a917a2","ios":"levelo://app?vid=b7fceb7d-5c94-4236-913d-205150a917a2"},"vehicle_type_id":"4","last_reported":1770230059,"current_range_meters":10000,"station_id":"st_d4a3vfp97mjs738cd8kg","pricing_plan_id":"cebpf4jnsgd1na2vs0mg"},{"bike_id":"d54d1be8-869f-4c63-b314-8eb80f9babad","system_id":"levelo_inurba_marseille","lat":43.22931,"lon":5.35372,"is_reserved":false,"is_disabled":false,"rental_uris":{"android":"levelo://app?vid=d54d1be8-869f-4c63-b314-8eb80f9babad","ios":"levelo://app?vid=d54d1be8-869f-4c63-b314-8eb80f9babad"},"vehicle_type_id":"4","last_reported":1770230059,"current_range_meters":10000,"station_id":"cpo3532slgdg3j2ikp40","pricing_plan_id":"cebpf4jnsgd1na2vs0mg"},{"bike_id":"c1e23706-b5c7-4d8a-8806-4510eaf5a695","system_id":"levelo_inurba_marseille","lat":43.3015,"lon":5.37405,"is_reserved":false,"is_disabled":true,"rental_uris":{"android":"levelo://app?vid=c1e23706-b5c7-4d8a-8806-4510eaf5a695","ios":"levelo://app?vid=c1e23706-b5c7-4d8a-8806-4510eaf5a695"},"vehicle_type_id":"4","last_reported":1770230059,"current_range_meters":10000,"station_id":"ce4bgs92rcd13ifvqcc0","pricing_plan_id":"cebpf4jnsgd1na2vs0mg"},{"bike_id":"59ee5f7d-ad97-4c4d-bf47-920683c932a5","system_id":"levelo_inurba_marseille","lat":43.25914,"lon":5.40896,"is_reserved":false,"is_disabled":false,"rental_uris":{"android":"levelo://app?vid=59ee5f7d-ad97-4c4d-bf47-920683c932a5","ios":"levelo://app?vid=59ee5f7d-ad97-4c4d-bf47-920683c932a5"},"vehicle_type_id":"4","last_reported":1770230059,"current_range_meters":10000,"station_id":"ce4bhm92rcd13ifvqglg","pricing_plan_id":"cebpf4jnsgd1na2vs0mg"},{"bike_id":"ac551100-dc22-4913-9a52-4829a5f95f35","system_id":"levelo_inurba_marseille","lat":43.2861,"lon":5.39885,"is_reserved":false,"is_disabled":true,"rental_uris":{"android":"levelo://app?vid=ac551100-dc22-4913-9a52-4829a5f95f35","ios":"levelo://app?vid=ac551100-dc22-4913-9a52-4829a5f95f35"},"vehicle_type_id":"4","last_reported":1770230059,"current_range_meters":10000,"station_id":"st_d4a7ka997mjs738ck50g","pricing_plan_id":"cebpf4jnsgd1na2vs0mg"},{"bike_id":"f1b2e5b7-5c9b-42f8-845f-ee6f7b95cc90","system_id":"levelo_inurba_marseille","lat":43.24674,"lon":5.38166,"is_reserved":false,"is_disabled":false,"rental_uris":{"android":"levelo://app?vid=f1b2e5b7-5c9b-42f8-845f-ee6f7b95cc90","ios":"levelo://app?vid=f1b2e5b7-5c9b-42f8-845f-ee6f7b95cc90"},"vehicle_type_id":"4","last_reported":1770230059,"current_range_meters":10000,"station_id":"ce4bhih2rcd13ifvqfr0","pricing_plan_id":"cebpf4jnsgd1na2vs0mg"},{"bike_id":"1afee07c-366b-46e2-8984-d19ca032be81","system_id":"levelo_inurba_marseille","lat":43.25108,"lon":5.40324,"is_reserved":false,"is_disabled":false,"rental_uris":{"android":"levelo://app?vid=1afee07c-366b-46e2-8984-d19ca032be81","ios":"levelo://app?vid=1afee07c-366b-46e2-8984-d19ca032be81"},"vehicle_type_id":"4","last_reported":1770230059,"current_range_meters":10000,"station_id":"ce4bhlh2rcd13ifvqgig","pricing_plan_id":"cebpf4jnsgd1na2vs0mg"},