{"last_updated":1781385952,"ttl":60,"version":"2.2","data":{"bikes":[{"bike_id":"ec12d144-24c8-4071-abf6-197e520eae96","system_id":"levelo_inurba_marseille","lat":43.337444,"lon":5.374475,"is_reserved":false,"is_disabled":false,"rental_uris":{"android":"levelo://app?vid=ec12d144-24c8-4071-abf6-197e520eae96","ios":"levelo://app?vid=ec12d144-24c8-4071-abf6-197e520eae96"},"vehicle_type_id":"4","last_reported":1781385953,"current_range_meters":0,"station_id":"","pricing_plan_id":"cebpf4jnsgd1na2vs0mg"},{"bike_id":"41f0d807-b1a0-4d8c-8313-75d319b5af0c","system_id":"levelo_inurba_marseille","lat":43.29524,"lon":5.38559,"is_reserved":false,"is_disabled":false,"rental_uris":{"android":"levelo://app?vid=41f0d807-b1a0-4d8c-8313-75d319b5af0c","ios":"levelo://app?vid=41f0d807-b1a0-4d8c-8313-75d319b5af0c"},"vehicle_type_id":"4","last_reported":1781385953,"current_range_meters":2800,"station_id":"ce4bgih2rcd13ifvqba0","pricing_plan_id":"cebpf4jnsgd1na2vs0mg"},{"bike_id":"52717982-f051-4cc0-9a11-92846337fb78","system_id":"levelo_inurba_marseille","lat":43.30481,"lon":5.39329,"is_reserved":false,"is_disabled":false,"rental_uris":{"android":"levelo://app?vid=52717982-f051-4cc0-9a11-92846337fb78","ios":"levelo://app?vid=52717982-f051-4cc0-9a11-92846337fb78"},"vehicle_type_id":"4","last_reported":1781385953,"current_range_meters":2800,"station_id":"","pricing_plan_id":"cebpf4jnsgd1na2vs0mg"},{"bike_id":"459952f5-55f8-43e7-b3ad-b9d83a8b249e","system_id":"levelo_inurba_marseille","lat":43.24604,"lon":5.4172,"is_reserved":false,"is_disabled":false,"rental_uris":{"android":"levelo://app?vid=459952f5-55f8-43e7-b3ad-b9d83a8b249e","ios":"levelo://app?vid=459952f5-55f8-43e7-b3ad-b9d83a8b249e"},"vehicle_type_id":"4","last_reported":1781385953,"current_range_meters":2800,"station_id":"","pricing_plan_id":"cebpf4jnsgd1na2vs0mg"},{"bike_id":"ff144ad8-1853-42cb-ab9d-78b610e03f53","system_id":"levelo_inurba_marseille","lat":43.26356,"lon":5.37825,"is_reserved":false,"is_disabled":false,"rental_uris":{"android":"levelo://app?vid=ff144ad8-1853-42cb-ab9d-78b610e03f53","ios":"levelo://app?vid=ff144ad8-1853-42cb-ab9d-78b610e03f53"},"vehicle_type_id":"4","last_reported":1781385953,"current_range_meters":2800,"station_id":"st_d163nis0mtpqnht9uue0","pricing_plan_id":"cebpf4jnsgd1na2vs0mg"},{"bike_id":"292d1165-7f01-41ef-b796-d2155aaeaaf9","system_id":"levelo_inurba_marseille","lat":43.30967,"lon":5.39033,"is_reserved":false,"is_disabled":false,"rental_uris":{"android":"levelo://app?vid=292d1165-7f01-41ef-b796-d2155aaeaaf9","ios":"levelo://app?vid=292d1165-7f01-41ef-b796-d2155aaeaaf9"},"vehicle_type_id":"4","last_reported":1781385953,"current_range_meters":2800,"station_id":"ce4bgup2rcd13ifvqco0","pricing_plan_id":"cebpf4jnsgd1na2vs0mg"},{"bike_id":"a921a687-4f8b-4d1b-a254-2ddeeeaf8a37","system_id":"levelo_inurba_marseille","lat":43.2421,"lon":5.3709,"is_reserved":false,"is_disabled":false,"rental_uris":{"android":"levelo://app?vid=a921a687-4f8b-4d1b-a254-2ddeeeaf8a37","ios":"levelo://app?vid=a921a687-4f8b-4d1b-a254-2ddeeeaf8a37"},"vehicle_type_id":"4","last_reported":1781385953,"current_range_meters":2800,"station_id":"","pricing_plan_id":"cebpf4jnsgd1na2vs0mg"},{"bike_id":"a0d2ac5f-fff6-43f6-831d-dfa81e9c3981","system_id":"levelo_inurba_marseille","lat":43.29603,"lon":5.36417,"is_reserved":false,"is_disabled":false,"rental_uris":{"android":"levelo://app?vid=a0d2ac5f-fff6-43f6-831d-dfa81e9c3981","ios":"levelo://app?vid=a0d2ac5f-fff6-43f6-831d-dfa81e9c3981"},"vehicle_type_id":"4","last_reported":1781385953,"current_range_meters":2800,"station_id":"","pricing_plan_id":"cebpf4jnsgd1na2vs0mg"},{"bike_id":"a97b1785-d44a-4f07-9988-e80dd9573fdc","system_id":"levelo_inurba_marseille","lat":43.23781,"lon":5.36632,"is_reserved":false,"is_disabled":false,"rental_uris":{"android":"levelo://app?vid=a97b1785-d44a-4f07-9988-e80dd9573fdc","ios":"levelo://app?vid=a97b1785-d44a-4f07-9988-e80dd9573fdc"},"vehicle_type_id":"4","last_reported":1781385953,"current_range_meters":2800,"station_id":"st_d3nk18o9ro0c73en2l3g","pricing_plan_id":"cebpf4jnsgd1na2vs0mg"},{"bike_id":"cd6209c5-f5a8-47ac-ada3-8020e4be9262","system_id":"levelo_inurba_marseille","lat":43.26347,"lon":5.3782,"is_reserved":false,"is_disabled":false,"rental_uris":{"android":"levelo://app?vid=cd6209c5-f5a8-47ac-ada3-8020e4be9262","ios":"levelo://app?vid=cd6209c5-f5a8-47ac-ada3-8020e4be9262"},"vehicle_type_id":"4","last_reported":1781385953,"current_range_meters":2800,"station_id":"st_d163nis0mtpqnht9uue0","pricing_plan_id":"cebpf4jnsgd1na2vs0mg"},{"bike_id":"f6c5cd24-c50e-406d-9da3-9f703728b262","system_id":"levelo_inurba_marseille","lat":43.22928,"lon":5.35367,"is_reserved":false,"is_disabled":false,"rental_uris":{"android":"levelo://app?vid=f6c5cd24-c50e-406d-9da3-9f703728b262","ios":"levelo://app?vid=f6c5cd24-c50e-406d-9da3-9f703728b262"},"vehicle_type_id":"4","last_reported":1781385953,"current_range_meters":2800,"station_id":"cpo3532slgdg3j2ikp40","pricing_plan_id":"cebpf4jnsgd1na2vs0mg"},{"bike_id":"8a9f3474-1ba5-4fc3-b4e6-1d2f8579f9d1","system_id":"levelo_inurba_marseille","lat":43.26563,"lon":5.39011,"is_reserved":false,"is_disabled":true,"rental_uris":{"android":"levelo://app?vid=8a9f3474-1ba5-4fc3-b4e6-1d2f8579f9d1","ios":"levelo://app?vid=8a9f3474-1ba5-4fc3-b4e6-1d2f8579f9d1"},"vehicle_type_id":"4","last_reported":1781385953,"current_range_meters":2800,"station_id":"ce4bhe12rcd13ifvqf30","pricing_plan_id":"cebpf4jnsgd1na2vs0mg"},{"bike_id":"865b81ac-c9a2-4fec-9972-01915fe112cc","system_id":"levelo_inurba_marseille","lat":43.30278,"lon":5.40049,"is_reserved":false,"is_disabled":false,"rental_uris":{"android":"levelo://app?vid=865b81ac-c9a2-4fec-9972-01915fe112cc","ios":"levelo://app?vid=865b81ac-c9a2-4fec-9972-01915fe112cc"},"vehicle_type_id":"4","last_reported":1781385953,"current_range_meters":2800,"station_id":"ce4bgvh2rcd13ifvqcs0","pricing_plan_id":"cebpf4jnsgd1na2vs0mg"},{"bike_id":"9f83cc2c-3e58-4961-92a1-30fa12175488","system_id":"levelo_inurba_marseille","lat":43.29279,"lon":5.38436,"is_reserved":false,"is_disabled":false,"rental_uris":{"android":"levelo://app?vid=9f83cc2c-3e58-4961-92a1-30fa12175488","ios":"levelo://app?vid=9f83cc2c-3e58-4961-92a1-30fa12175488"},"vehicle_type_id":"4","last_reported":1781385953,"current_range_meters":2800,"station_id":"ce4bh692rcd13ifvqea0","pricing_plan_id":"cebpf4jnsgd1na2vs0mg"},{"bike_id":"fc863954-b2b0-4600-8ee1-0e095a163394","system_id":"levelo_inurba_marseille","lat":43.30331,"lon":5.40416,"is_reserved":false,"is_disabled":false,"rental_uris":{"android":"levelo://app?vid=fc863954-b2b0-4600-8ee1-0e095a163394","ios":"levelo://app?vid=fc863954-b2b0-4600-8ee1-0e095a163394"},"vehicle_type_id":"4","last_reported":1781385953,"current_range_meters":2800,"station_id":"ce4bh012rcd13ifvqd10","pricing_plan_id":"cebpf4jnsgd1na2vs0mg"},{"bike_id":"9baebc47-9a21-445a-b575-5e8cc4ed7549","system_id":"levelo_inurba_marseille","lat":43.28463,"lon":5.48424,"is_reserved":false,"is_disabled":false,"rental_uris":{"android":"levelo://app?vid=9baebc47-9a21-445a-b575-5e8cc4ed7549","ios":"levelo://app?vid=9baebc47-9a21-445a-b575-5e8cc4ed7549"},"vehicle_type_id":"4","last_reported":1781385953,"current_range_meters":2800,"station_id":"st_d3svhcjqgbts73a3dn0g","pricing_plan_id":"cebpf4jnsgd1na2vs0mg"},{"bike_id":"6df11b2e-cd2c-448d-931f-f1a97e9c473d","system_id":"levelo_inurba_marseille","lat":43.25118,"lon":5.4032,"is_reserved":false,"is_disabled":false,"rental_uris":{"android":"levelo://app?vid=6df11b2e-cd2c-448d-931f-f1a97e9c473d","ios":"levelo://app?vid=6df11b2e-cd2c-448d-931f-f1a97e9c473d"},"vehicle_type_id":"4","last_reported":1781385953,"current_range_meters":2800,"station_id":"ce4bhlh2rcd13ifvqgig","pricing_plan_id":"cebpf4jnsgd1na2vs0mg"},{"bike_id":"8c9669fa-ccdd-484b-9183-2daa2ca137e8","system_id":"levelo_inurba_marseille","lat":43.263437,"lon":5.378252,"is_reserved":false,"is_disabled":false,"rental_uris":{"android":"levelo://app?vid=8c9669fa-ccdd-484b-9183-2daa2ca137e8","ios":"levelo://app?vid=8c9669fa-ccdd-484b-9183-2daa2ca137e8"},"vehicle_type_id":"4","last_reported":1781385953,"current_range_meters":2800,"station_id":"st_d163nis0mtpqnht9uue0","pricing_plan_id":"cebpf4jnsgd1na2vs0mg"},{"bike_id":"d07a56c3-5c9a-4c1e-92e7-56970b8f3710","system_id":"levelo_inurba_marseille","lat":43.28724,"lon":5.3608,"is_reserved":false,"is_disabled":false,"rental_uris":{"android":"levelo://app?vid=d07a56c3-5c9a-4c1e-92e7-56970b8f3710","ios":"levelo://app?vid=d07a56c3-5c9a-4c1e-92e7-56970b8f3710"},"vehicle_type_id":"4","last_reported":1781385953,"current_range_meters":2800,"station_id":"cki0cbj6b192h4jlfktg","pricing_plan_id":"cebpf4jnsgd1na2vs0mg"},{"bike_id":"0633c0b2-cd61-4107-9084-a3953fc3765a","system_id":"levelo_inurba_marseille","lat":43.29219,"lon":5.37628,"is_reserved":false,"is_disabled":true,"rental_uris":{"android":"levelo://app?vid=0633c0b2-cd61-4107-9084-a3953fc3765a","ios":"levelo://app?vid=0633c0b2-cd61-4107-9084-a3953fc3765a"},"vehicle_type_id":"4","last_reported":1781385953,"current_range_meters":3200,"station_id":"","pricing_plan_id":"cebpf4jnsgd1na2vs0mg"},{"bike_id":"a88c18f7-a05b-424b-a2e6-87c48e40dd60","system_id":"levelo_inurba_marseille","lat":43.23877,"lon":5.37464,"is_reserved":false,"is_disabled":true,"rental_uris":{"android":"levelo://app?vid=a88c18f7-a05b-424b-a2e6-87c48e40dd60","ios":"levelo://app?vid=a88c18f7-a05b-424b-a2e6-87c48e40dd60"},"vehicle_type_id":"4","last_reported":1781385953,"current_range_meters":3200,"station_id":"st_d6sm7csbq4hs73f8fpjg","pricing_plan_id":"cebpf4jnsgd1na2vs0mg"},{"bike_id":"98c0a183-7ee6-4b0b-b809-46c8824508e7","system_id":"levelo_inurba_marseille","lat":43.29601,"lon":5.41932,"is_reserved":false,"is_disabled":false,"rental_uris":{"android":"levelo://app?vid=98c0a183-7ee6-4b0b-b809-46c8824508e7","ios":"levelo://app?vid=98c0a183-7ee6-4b0b-b809-46c8824508e7"},"vehicle_type_id":"4","last_reported":1781385953,"current_range_meters":3200,"station_id":"","pricing_plan_id":"cebpf4jnsgd1na2vs0mg"},{"bike_id":"a1f49648-b59d-44f3-81ec-65ff760537ac","system_id":"levelo_inurba_marseille","lat":43.24161,"lon":5.39728,"is_reserved":false,"is_disabled":false,"rental_uris":{"android":"levelo://app?vid=a1f49648-b59d-44f3-81ec-65ff760537ac","ios":"levelo://app?vid=a1f49648-b59d-44f3-81ec-65ff760537ac"},"vehicle_type_id":"4","last_reported":1781385953,"current_range_meters":3200,"station_id":"ce4bhn12rcd13ifvqgpg","pricing_plan_id":"cebpf4jnsgd1na2vs0mg"},{"bike_id":"f312a474-3688-43e4-8515-a784a5c48528","system_id":"levelo_inurba_marseille","lat":43.21191,"lon":5.35071,"is_reserved":false,"is_disabled":true,"rental_uris":{"android":"levelo://app?vid=f312a474-3688-43e4-8515-a784a5c48528","ios":"levelo://app?vid=f312a474-3688-43e4-8515-a784a5c48528"},"vehicle_type_id":"4","last_reported":1781385953,"current_range_meters":3200,"station_id":"st_cvj6sg6p6f1abm77japg","pricing_plan_id":"cebpf4jnsgd1na2vs0mg"},{"bike_id":"d9cf2dc8-4e9e-4775-8c3b-f94bcbee6fdc","system_id":"levelo_inurba_marseille","lat":43.27999,"lon":5.40013,"is_reserved":false,"is_disabled":false,"rental_uris":{"android":"levelo://app?vid=d9cf2dc8-4e9e-4775-8c3b-f94bcbee6fdc","ios":"levelo://app?vid=d9cf2dc8-4e9e-4775-8c3b-f94bcbee6fdc"},"vehicle_type_id":"4","last_reported":1781385953,"current_range_meters":3200,"station_id":"ce4bho92rcd13ifvqh4g","pricing_plan_id":"cebpf4jnsgd1na2vs0mg"},{"bike_id":"db825a5e-3256-426b-a46f-1f919ceba07d","system_id":"levelo_inurba_marseille","lat":43.27969,"lon":5.38678,"is_reserved":false,"is_disabled":false,"rental_uris":{"android":"levelo://app?vid=db825a5e-3256-426b-a46f-1f919ceba07d","ios":"levelo://app?vid=db825a5e-3256-426b-a46f-1f919ceba07d"},"vehicle_type_id":"4","last_reported":1781385953,"current_range_meters":3200,"station_id":"ce4bhg12rcd13ifvqf80","pricing_plan_id":"cebpf4jnsgd1na2vs0mg"},{"bike_id":"e37613eb-2b80-45f6-8be7-6bbc2d17cf64","system_id":"levelo_inurba_marseille","lat":43.24816,"lon":5.37432,"is_reserved":false,"is_disabled":true,"rental_uris":{"android":"levelo://app?vid=e37613eb-2b80-45f6-8be7-6bbc2d17cf64","ios":"levelo://app?vid=e37613eb-2b80-45f6-8be7-6bbc2d17cf64"},"vehicle_type_id":"4","last_reported":1781385953,"current_range_meters":3200,"station_id":"ce4bhgh2rcd13ifvqfb0","pricing_plan_id":"cebpf4jnsgd1na2vs0mg"},{"bike_id":"9e0f36c3-3683-4ca6-860d-982bbc91c309","system_id":"levelo_inurba_marseille","lat":43.29205,"lon":5.39306,"is_reserved":false,"is_disabled":true,"rental_uris":{"android":"levelo://app?vid=9e0f36c3-3683-4ca6-860d-982bbc91c309","ios":"levelo://app?vid=9e0f36c3-3683-4ca6-860d-982bbc91c309"},"vehicle_type_id":"4","last_reported":1781385953,"current_range_meters":3200,"station_id":"ce4bh192rcd13ifvqdd0","pricing_plan_id":"cebpf4jnsgd1na2vs0mg"},{"bike_id":"dee0c31b-05c0-46b9-9ff2-6a143efef72a","system_id":"levelo_inurba_marseille","lat":43.295281,"lon":5.385484,"is_reserved":false,"is_disabled":false,"rental_uris":{"android":"levelo://app?vid=dee0c31b-05c0-46b9-9ff2-6a143efef72a","ios":"levelo://app?vid=dee0c31b-05c0-46b9-9ff2-6a143efef72a"},"vehicle_type_id":"4","last_reported":1781385953,"current_range_meters":3200,"station_id":"ce4bgih2rcd13ifvqba0","pricing_plan_id":"cebpf4jnsgd1na2vs0mg"},{"bike_id":"1c0c8bb9-621f-4df8-9761-4f06228d5f3b","system_id":"levelo_inurba_marseille","lat":43.24069,"lon":5.37764,"is_reserved":false,"is_disabled":false,"rental_uris":{"android":"levelo://app?vid=1c0c8bb9-621f-4df8-9761-4f06228d5f3b","ios":"levelo://app?vid=1c0c8bb9-621f-4df8-9761-4f06228d5f3b"},"vehicle_type_id":"4","last_reported":1781385953,"current_range_meters":3200,"station_id":"ce4bhnp2rcd13ifvqgvg","pricing_plan_id":"cebpf4jnsgd1na2vs0mg"},{"bike_id":"ca6db664-c687-409a-a3fe-16ab8e8a1470","system_id":"levelo_inurba_marseille","lat":43.239014,"lon":5.374856,"is_reserved":false,"is_disabled":false,"rental_uris":{"android":"levelo://app?vid=ca6db664-c687-409a-a3fe-16ab8e8a1470","ios":"levelo://app?vid=ca6db664-c687-409a-a3fe-16ab8e8a1470"},"vehicle_type_id":"4","last_reported":1781385953,"current_range_meters":3200,"station_id":"st_d6sm7csbq4hs73f8fpjg","pricing_plan_id":"cebpf4jnsgd1na2vs0mg"},{"bike_id":"5a3d4fe4-e59d-4e59-a510-666531c9244a","system_id":"levelo_inurba_marseille","lat":43.28726,"lon":5.36085,"is_reserved":false,"is_disabled":false,"rental_uris":{"android":"levelo://app?vid=5a3d4fe4-e59d-4e59-a510-666531c9244a","ios":"levelo://app?vid=5a3d4fe4-e59d-4e59-a510-666531c9244a"},"vehicle_type_id":"4","last_reported":1781385953,"current_range_meters":3200,"station_id":"cki0cbj6b192h4jlfktg","pricing_plan_id":"cebpf4jnsgd1na2vs0mg"},{"bike_id":"da1303bd-8e9d-4d5c-a468-96e53ef68a33","system_id":"levelo_inurba_marseille","lat":43.24945,"lon":5.40494,"is_reserved":false,"is_disabled":false,"rental_uris":{"android":"levelo://app?vid=da1303bd-8e9d-4d5c-a468-96e53ef68a33","ios":"levelo://app?vid=da1303bd-8e9d-4d5c-a468-96e53ef68a33"},"vehicle_type_id":"4","last_reported":1781385953,"current_range_meters":3200,"station_id":"st_d2ngiaodas8pm72gd1h0","pricing_plan_id":"cebpf4jnsgd1na2vs0mg"},{"bike_id":"77a3e5cd-10a1-4b18-bd77-e146c62f220c","system_id":"levelo_inurba_marseille","lat":43.27983,"lon":5.37484,"is_reserved":false,"is_disabled":false,"rental_uris":{"android":"levelo://app?vid=77a3e5cd-10a1-4b18-bd77-e146c62f220c","ios":"levelo://app?vid=77a3e5cd-10a1-4b18-bd77-e146c62f220c"},"vehicle_type_id":"4","last_reported":1781385953,"current_range_meters":3200,"station_id":"","pricing_plan_id":"cebpf4jnsgd1na2vs0mg"},{"bike_id":"e17ed82c-ba47-4147-8fba-9113a17c6763","system_id":"levelo_inurba_marseille","lat":43.29937,"lon":5.3653,"is_reserved":false,"is_disabled":false,"rental_uris":{"android":"levelo://app?vid=e17ed82c-ba47-4147-8fba-9113a17c6763","ios":"levelo://app?vid=e17ed82c-ba47-4147-8fba-9113a17c6763"},"vehicle_type_id":"4","last_reported":1781385953,"current_range_meters":3200,"station_id":"ce4bgm92rcd13ifvqbr0","pricing_plan_id":"cebpf4jnsgd1na2vs0mg"},{"bike_id":"2ad17ec6-1272-4232-aea5-0d8809e30e05","system_id":"levelo_inurba_marseille","lat":43.272061,"lon":5.391748,"is_reserved":false,"is_disabled":false,"rental_uris":{"android":"levelo://app?vid=2ad17ec6-1272-4232-aea5-0d8809e30e05","ios":"levelo://app?vid=2ad17ec6-1272-4232-aea5-0d8809e30e05"},"vehicle_type_id":"4","last_reported":1781385953,"current_range_meters":3200,"station_id":"ce4bhhp2rcd13ifvqfm0","pricing_plan_id":"cebpf4jnsgd1na2vs0mg"},{"bike_id":"bfca88f7-9274-4621-b63c-60c4e3359701","system_id":"levelo_inurba_marseille","lat":43.2811,"lon":5.37828,"is_reserved":false,"is_disabled":false,"rental_uris":{"android":"levelo://app?vid=bfca88f7-9274-4621-b63c-60c4e3359701","ios":"levelo://app?vid=bfca88f7-9274-4621-b63c-60c4e3359701"},"vehicle_type_id":"4","last_reported":1781385953,"current_range_meters":3200,"station_id":"ce4bha12rcd13ifvqee0","pricing_plan_id":"cebpf4jnsgd1na2vs0mg"},{"bike_id":"35725721-aacd-48c4-989e-cdc17e9d3bbe","system_id":"levelo_inurba_marseille","lat":43.23899,"lon":5.37448,"is_reserved":false,"is_disabled":false,"rental_uris":{"android":"levelo://app?vid=35725721-aacd-48c4-989e-cdc17e9d3bbe","ios":"levelo://app?vid=35725721-aacd-48c4-989e-cdc17e9d3bbe"},"vehicle_type_id":"4","last_reported":1781385953,"current_range_meters":3600,"station_id":"st_d6sm7csbq4hs73f8fpjg","pricing_plan_id":"cebpf4jnsgd1na2vs0mg"},{"bike_id":"6a27404a-fd45-46ef-b0c6-d19df52b0472","system_id":"levelo_inurba_marseille","lat":43.30083,"lon":5.37735,"is_reserved":false,"is_disabled":false,"rental_uris":{"android":"levelo://app?vid=6a27404a-fd45-46ef-b0c6-d19df52b0472","ios":"levelo://app?vid=6a27404a-fd45-46ef-b0c6-d19df52b0472"},"vehicle_type_id":"4","last_reported":1781385953,"current_range_meters":3600,"station_id":"","pricing_plan_id":"cebpf4jnsgd1na2vs0mg"},{"bike_id":"abb500d4-9db3-49c1-855d-09267fc106f9","system_id":"levelo_inurba_marseille","lat":43.25059,"lon":5.39546,"is_reserved":false,"is_disabled":false,"rental_uris":{"android":"levelo://app?vid=abb500d4-9db3-49c1-855d-09267fc106f9","ios":"levelo://app?vid=abb500d4-9db3-49c1-855d-09267fc106f9"},"vehicle_type_id":"4","last_reported":1781385953,"current_range_meters":3600,"station_id":"ce4bhm12rcd13ifvqgkg","pricing_plan_id":"cebpf4jnsgd1na2vs0mg"},{"bike_id":"61abc050-794c-43f3-96ae-15565612cd1b","system_id":"levelo_inurba_marseille","lat":43.28686,"lon":5.4667,"is_reserved":false,"is_disabled":false,"rental_uris":{"android":"levelo://app?vid=61abc050-794c-43f3-96ae-15565612cd1b","ios":"levelo://app?vid=61abc050-794c-43f3-96ae-15565612cd1b"},"vehicle_type_id":"4","last_reported":1781385953,"current_range_meters":3600,"station_id":"st_d6tc3vkotcvc738tfjhg","pricing_plan_id":"cebpf4jnsgd1na2vs0mg"},{"bike_id":"2359e9bd-40a4-4662-ac46-31cee3f50777","system_id":"levelo_inurba_marseille","lat":43.24176,"lon":5.39731,"is_reserved":false,"is_disabled":false,"rental_uris":{"android":"levelo://app?vid=2359e9bd-40a4-4662-ac46-31cee3f50777","ios":"levelo://app?vid=2359e9bd-40a4-4662-ac46-31cee3f50777"},"vehicle_type_id":"4","last_reported":1781385953,"current_range_meters":3600,"station_id":"ce4bhn12rcd13ifvqgpg","pricing_plan_id":"cebpf4jnsgd1na2vs0mg"},{"bike_id":"7bf6aea3-b6b7-4a23-9f60-b150cc23b36a","system_id":"levelo_inurba_marseille","lat":43.26024,"lon":5.37546,"is_reserved":false,"is_disabled":false,"rental_uris":{"android":"levelo://app?vid=7bf6aea3-b6b7-4a23-9f60-b150cc23b36a","ios":"levelo://app?vid=7bf6aea3-b6b7-4a23-9f60-b150cc23b36a"},"vehicle_type_id":"4","last_reported":1781385953,"current_range_meters":3600,"station_id":"ce4bhgh2rcd13ifvqfa0","pricing_plan_id":"cebpf4jnsgd1na2vs0mg"},{"bike_id":"1f4cf7cf-98e2-40ce-8e0b-c74ae682295d","system_id":"levelo_inurba_marseille","lat":43.26235,"lon":5.38785,"is_reserved":false,"is_disabled":false,"rental_uris":{"android":"levelo://app?vid=1f4cf7cf-98e2-40ce-8e0b-c74ae682295d","ios":"levelo://app?vid=1f4cf7cf-98e2-40ce-8e0b-c74ae682295d"},"vehicle_type_id":"4","last_reported":1781385953,"current_range_meters":3600,"station_id":"st_d8gjfg747rts73coq3b0","pricing_plan_id":"cebpf4jnsgd1na2vs0mg"},{"bike_id":"8637e997-4b28-454a-94e1-f039c3168b05","system_id":"levelo_inurba_marseille","lat":43.28483,"lon":5.38426,"is_reserved":false,"is_disabled":false,"rental_uris":{"android":"levelo://app?vid=8637e997-4b28-454a-94e1-f039c3168b05","ios":"levelo://app?vid=8637e997-4b28-454a-94e1-f039c3168b05"},"vehicle_type_id":"4","last_reported":1781385953,"current_range_meters":3600,"station_id":"ce4bh512rcd13ifvqe3g","pricing_plan_id":"cebpf4jnsgd1na2vs0mg"},{"bike_id":"e6a05f18-e75c-47b6-8e84-506a85469b8f","system_id":"levelo_inurba_marseille","lat":43.26359,"lon":5.37821,"is_reserved":false,"is_disabled":false,"rental_uris":{"android":"levelo://app?vid=e6a05f18-e75c-47b6-8e84-506a85469b8f","ios":"levelo://app?vid=e6a05f18-e75c-47b6-8e84-506a85469b8f"},"vehicle_type_id":"4","last_reported":1781385953,"current_range_meters":3600,"station_id":"st_d163nis0mtpqnht9uue0","pricing_plan_id":"cebpf4jnsgd1na2vs0mg"},{"bike_id":"5245b8db-6377-46b1-b931-155a581da557","system_id":"levelo_inurba_marseille","lat":43.27815,"lon":5.40708,"is_reserved":false,"is_disabled":false,"rental_uris":{"android":"levelo://app?vid=5245b8db-6377-46b1-b931-155a581da557","ios":"levelo://app?vid=5245b8db-6377-46b1-b931-155a581da557"},"vehicle_type_id":"4","last_reported":1781385953,"current_range_meters":3600,"station_id":"ce4bhnh2rcd13ifvqgtg","pricing_plan_id":"cebpf4jnsgd1na2vs0mg"},{"bike_id":"292ba82b-0dab-46c1-b4a2-48a52268ff1c","system_id":"levelo_inurba_marseille","lat":43.26554,"lon":5.39012,"is_reserved":false,"is_disabled":true,"rental_uris":{"android":"levelo://app?vid=292ba82b-0dab-46c1-b4a2-48a52268ff1c","ios":"levelo://app?vid=292ba82b-0dab-46c1-b4a2-48a52268ff1c"},"vehicle_type_id":"4","last_reported":1781385953,"current_range_meters":3600,"station_id":"ce4bhe12rcd13ifvqf30","pricing_plan_id":"cebpf4jnsgd1na2vs0mg"},{"bike_id":"eda98293-5c91-4dae-89c6-486a45b00f60","system_id":"levelo_inurba_marseille","lat":43.23269,"lon":5.40098,"is_reserved":false,"is_disabled":false,"rental_uris":{"android":"levelo://app?vid=eda98293-5c91-4dae-89c6-486a45b00f60","ios":"levelo://app?vid=eda98293-5c91-4dae-89c6-486a45b00f60"},"vehicle_type_id":"4","last_reported":1781385953,"current_range_meters":3600,"station_id":"","pricing_plan_id":"cebpf4jnsgd1na2vs0mg"},{"bike_id":"a055cb78-45cf-440c-99c2-ed8dc8c5e7ba","system_id":"levelo_inurba_marseille","lat":43.29871,"lon":5.39726,"is_reserved":false,"is_disabled":false,"rental_uris":{"android":"levelo://app?vid=a055cb78-45cf-440c-99c2-ed8dc8c5e7ba","ios":"levelo://app?vid=a055cb78-45cf-440c-99c2-ed8dc8c5e7ba"},"vehicle_type_id":"4","last_reported":1781385953,"current_range_meters":3600,"station_id":"ce4bh0h2rcd13ifvqd50","pricing_plan_id":"cebpf4jnsgd1na2vs0mg"},{"bike_id":"9f069751-295a-496b-b19c-281f4491a5fd","system_id":"levelo_inurba_marseille","lat":43.35035,"lon":5.35049,"is_reserved":false,"is_disabled":false,"rental_uris":{"android":"levelo://app?vid=9f069751-295a-496b-b19c-281f4491a5fd","ios":"levelo://app?vid=9f069751-295a-496b-b19c-281f4491a5fd"},"vehicle_type_id":"4","last_reported":1781385953,"current_range_meters":4000,"station_id":"","pricing_plan_id":"cebpf4jnsgd1na2vs0mg"},{"bike_id":"b298c345-04c8-46ab-bc68-16cc8aa4e164","system_id":"levelo_inurba_marseille","lat":43.316863,"lon":5.43635,"is_reserved":false,"is_disabled":false,"rental_uris":{"android":"levelo://app?vid=b298c345-04c8-46ab-bc68-16cc8aa4e164","ios":"levelo://app?vid=b298c345-04c8-46ab-bc68-16cc8aa4e164"},"vehicle_type_id":"4","last_reported":1781385953,"current_range_meters":4000,"station_id":"ce4bhp92rcd13ifvqhcg","pricing_plan_id":"cebpf4jnsgd1na2vs0mg"},{"bike_id":"1c2ef152-9632-42ad-be32-9cbea9645d01","system_id":"levelo_inurba_marseille","lat":43.25397,"lon":5.37644,"is_reserved":false,"is_disabled":false,"rental_uris":{"android":"levelo://app?vid=1c2ef152-9632-42ad-be32-9cbea9645d01","ios":"levelo://app?vid=1c2ef152-9632-42ad-be32-9cbea9645d01"},"vehicle_type_id":"4","last_reported":1781385953,"current_range_meters":4000,"station_id":"","pricing_plan_id":"cebpf4jnsgd1na2vs0mg"},{"bike_id":"3e16236a-b1a7-4f74-90d7-ef9461349247","system_id":"levelo_inurba_marseille","lat":43.260254,"lon":5.375511,"is_reserved":false,"is_disabled":false,"rental_uris":{"android":"levelo://app?vid=3e16236a-b1a7-4f74-90d7-ef9461349247","ios":"levelo://app?vid=3e16236a-b1a7-4f74-90d7-ef9461349247"},"vehicle_type_id":"4","last_reported":1781385953,"current_range_meters":4000,"station_id":"ce4bhgh2rcd13ifvqfa0","pricing_plan_id":"cebpf4jnsgd1na2vs0mg"},{"bike_id":"41ea6779-9979-4cd2-a1a1-bea99fc99dc3","system_id":"levelo_inurba_marseille","lat":43.3021,"lon":5.39469,"is_reserved":false,"is_disabled":true,"rental_uris":{"android":"levelo://app?vid=41ea6779-9979-4cd2-a1a1-bea99fc99dc3","ios":"levelo://app?vid=41ea6779-9979-4cd2-a1a1-bea99fc99dc3"},"vehicle_type_id":"4","last_reported":1781385953,"current_range_meters":4000,"station_id":"ce4bh0p2rcd13ifvqd70","pricing_plan_id":"cebpf4jnsgd1na2vs0mg"},{"bike_id":"84922035-8b7a-40e7-99b5-1ee6a926de30","system_id":"levelo_inurba_marseille","lat":43.2901,"lon":5.36999,"is_reserved":false,"is_disabled":false,"rental_uris":{"android":"levelo://app?vid=84922035-8b7a-40e7-99b5-1ee6a926de30","ios":"levelo://app?vid=84922035-8b7a-40e7-99b5-1ee6a926de30"},"vehicle_type_id":"4","last_reported":1781385953,"current_range_meters":4000,"station_id":"","pricing_plan_id":"cebpf4jnsgd1na2vs0mg"},{"bike_id":"969f0094-9783-4737-a331-08e385485b6b","system_id":"levelo_inurba_marseille","lat":43.255797,"lon":5.382275,"is_reserved":false,"is_disabled":false,"rental_uris":{"android":"levelo://app?vid=969f0094-9783-4737-a331-08e385485b6b","ios":"levelo://app?vid=969f0094-9783-4737-a331-08e385485b6b"},"vehicle_type_id":"4","last_reported":1781385953,"current_range_meters":4000,"station_id":"ce4bhih2rcd13ifvqfs0","pricing_plan_id":"cebpf4jnsgd1na2vs0mg"},{"bike_id":"cdcc5aa4-f345-4ac7-9e38-4873c58f14fc","system_id":"levelo_inurba_marseille","lat":43.3094,"lon":5.39059,"is_reserved":false,"is_disabled":false,"rental_uris":{"android":"levelo://app?vid=cdcc5aa4-f345-4ac7-9e38-4873c58f14fc","ios":"levelo://app?vid=cdcc5aa4-f345-4ac7-9e38-4873c58f14fc"},"vehicle_type_id":"4","last_reported":1781385953,"current_range_meters":4000,"station_id":"ce4bgup2rcd13ifvqco0","pricing_plan_id":"cebpf4jnsgd1na2vs0mg"},{"bike_id":"2d8a047b-0411-40fc-a69f-3169f78c4ee9","system_id":"levelo_inurba_marseille","lat":43.32354,"lon":5.36736,"is_reserved":false,"is_disabled":false,"rental_uris":{"android":"levelo://app?vid=2d8a047b-0411-40fc-a69f-3169f78c4ee9","ios":"levelo://app?vid=2d8a047b-0411-40fc-a69f-3169f78c4ee9"},"vehicle_type_id":"4","last_reported":1781385953,"current_range_meters":4000,"station_id":"ce4bhsh2rcd13ifvqi2g","pricing_plan_id":"cebpf4jnsgd1na2vs0mg"},{"bike_id":"35565049-90de-4fb4-b35d-e9c548924e41","system_id":"levelo_inurba_marseille","lat":43.26787,"lon":5.39412,"is_reserved":false,"is_disabled":true,"rental_uris":{"android":"levelo://app?vid=35565049-90de-4fb4-b35d-e9c548924e41","ios":"levelo://app?vid=35565049-90de-4fb4-b35d-e9c548924e41"},"vehicle_type_id":"4","last_reported":1781385953,"current_range_meters":4000,"station_id":"ce4bhh12rcd13ifvqfg0","pricing_plan_id":"cebpf4jnsgd1na2vs0mg"},{"bike_id":"fae9e422-64fd-48b6-a83b-e62363853497","system_id":"levelo_inurba_marseille","lat":43.30107,"lon":5.38275,"is_reserved":false,"is_disabled":false,"rental_uris":{"android":"levelo://app?vid=fae9e422-64fd-48b6-a83b-e62363853497","ios":"levelo://app?vid=fae9e422-64fd-48b6-a83b-e62363853497"},"vehicle_type_id":"4","last_reported":1781385953,"current_range_meters":4000,"station_id":"","pricing_plan_id":"cebpf4jnsgd1na2vs0mg"},{"bike_id":"41ffd840-44f2-46ea-bf9b-6a3d78a82d86","system_id":"levelo_inurba_marseille","lat":43.2867,"lon":5.38675,"is_reserved":false,"is_disabled":false,"rental_uris":{"android":"levelo://app?vid=41ffd840-44f2-46ea-bf9b-6a3d78a82d86","ios":"levelo://app?vid=41ffd840-44f2-46ea-bf9b-6a3d78a82d86"},"vehicle_type_id":"4","last_reported":1781385953,"current_range_meters":4000,"station_id":"ce4bh492rcd13ifvqdug","pricing_plan_id":"cebpf4jnsgd1na2vs0mg"},{"bike_id":"44368fe8-42bc-4d15-af49-3e8cdb900dbb","system_id":"levelo_inurba_marseille","lat":43.32537,"lon":5.38302,"is_reserved":false,"is_disabled":false,"rental_uris":{"android":"levelo://app?vid=44368fe8-42bc-4d15-af49-3e8cdb900dbb","ios":"levelo://app?vid=44368fe8-42bc-4d15-af49-3e8cdb900dbb"},"vehicle_type_id":"4","last_reported":1781385953,"current_range_meters":4000,"station_id":"st_d4asgbiv49dc73anf9m0","pricing_plan_id":"cebpf4jnsgd1na2vs0mg"},{"bike_id":"a31ebd8b-6676-4cd1-a38b-623e2ed09d5b","system_id":"levelo_inurba_marseille","lat":43.307993,"lon":5.381436,"is_reserved":false,"is_disabled":false,"rental_uris":{"android":"levelo://app?vid=a31ebd8b-6676-4cd1-a38b-623e2ed09d5b","ios":"levelo://app?vid=a31ebd8b-6676-4cd1-a38b-623e2ed09d5b"},"vehicle_type_id":"4","last_reported":1781385953,"current_range_meters":4000,"station_id":"","pricing_plan_id":"cebpf4jnsgd1na2vs0mg"},{"bike_id":"40331548-b44e-4f82-9abe-fed343e427de","system_id":"levelo_inurba_marseille","lat":43.26359,"lon":5.37827,"is_reserved":false,"is_disabled":false,"rental_uris":{"android":"levelo://app?vid=40331548-b44e-4f82-9abe-fed343e427de","ios":"levelo://app?vid=40331548-b44e-4f82-9abe-fed343e427de"},"vehicle_type_id":"4","last_reported":1781385953,"current_range_meters":4000,"station_id":"st_d163nis0mtpqnht9uue0","pricing_plan_id":"cebpf4jnsgd1na2vs0mg"},{"bike_id":"67eab827-ed39-45e0-8930-3403642933ee","system_id":"levelo_inurba_marseille","lat":43.29472,"lon":5.43325,"is_reserved":false,"is_disabled":false,"rental_uris":{"android":"levelo://app?vid=67eab827-ed39-45e0-8930-3403642933ee","ios":"levelo://app?vid=67eab827-ed39-45e0-8930-3403642933ee"},"vehicle_type_id":"4","last_reported":1781385953,"current_range_meters":4000,"station_id":"st_d3j5ugp08ojc73fj9d10","pricing_plan_id":"cebpf4jnsgd1na2vs0mg"},{"bike_id":"70074e2a-94c4-4bb0-bbca-a24f4105eb9f","system_id":"levelo_inurba_marseille","lat":43.29092,"lon":5.38412,"is_reserved":false,"is_disabled":false,"rental_uris":{"android":"levelo://app?vid=70074e2a-94c4-4bb0-bbca-a24f4105eb9f","ios":"levelo://app?vid=70074e2a-94c4-4bb0-bbca-a24f4105eb9f"},"vehicle_type_id":"4","last_reported":1781385953,"current_range_meters":4000,"station_id":"","pricing_plan_id":"cebpf4jnsgd1na2vs0mg"},{"bike_id":"521a3a42-fce6-4db8-a48e-6826976c55af","system_id":"levelo_inurba_marseille","lat":43.31658,"lon":5.42397,"is_reserved":false,"is_disabled":false,"rental_uris":{"android":"levelo://app?vid=521a3a42-fce6-4db8-a48e-6826976c55af","ios":"levelo://app?vid=521a3a42-fce6-4db8-a48e-6826976c55af"},"vehicle_type_id":"4","last_reported":1781385953,"current_range_meters":4000,"station_id":"","pricing_plan_id":"cebpf4jnsgd1na2vs0mg"},{"bike_id":"1625d25d-0aae-4e8f-bda7-815f82406869","system_id":"levelo_inurba_marseille","lat":43.299268,"lon":5.413193,"is_reserved":false,"is_disabled":true,"rental_uris":{"android":"levelo://app?vid=1625d25d-0aae-4e8f-bda7-815f82406869","ios":"levelo://app?vid=1625d25d-0aae-4e8f-bda7-815f82406869"},"vehicle_type_id":"4","last_reported":1781385953,"current_range_meters":4000,"station_id":"","pricing_plan_id":"cebpf4jnsgd1na2vs0mg"},{"bike_id":"f90df646-fd67-4cb0-96b4-c29d47d3269c","system_id":"levelo_inurba_marseille","lat":43.29267,"lon":5.38453,"is_reserved":false,"is_disabled":false,"rental_uris":{"android":"levelo://app?vid=f90df646-fd67-4cb0-96b4-c29d47d3269c","ios":"levelo://app?vid=f90df646-fd67-4cb0-96b4-c29d47d3269c"},"vehicle_type_id":"4","last_reported":1781385953,"current_range_meters":4000,"station_id":"ce4bh692rcd13ifvqea0","pricing_plan_id":"cebpf4jnsgd1na2vs0mg"},{"bike_id":"343f70fe-3aac-4e9a-ab49-9d26b70c1c0d","system_id":"levelo_inurba_marseille","lat":43.24949,"lon":5.40491,"is_reserved":false,"is_disabled":false,"rental_uris":{"android":"levelo://app?vid=343f70fe-3aac-4e9a-ab49-9d26b70c1c0d","ios":"levelo://app?vid=343f70fe-3aac-4e9a-ab49-9d26b70c1c0d"},"vehicle_type_id":"4","last_reported":1781385953,"current_range_meters":4000,"station_id":"st_d2ngiaodas8pm72gd1h0","pricing_plan_id":"cebpf4jnsgd1na2vs0mg"},{"bike_id":"e9928c56-313a-4969-ab2c-0f3f1652603e","system_id":"levelo_inurba_marseille","lat":43.23794,"lon":5.366,"is_reserved":false,"is_disabled":false,"rental_uris":{"android":"levelo://app?vid=e9928c56-313a-4969-ab2c-0f3f1652603e","ios":"levelo://app?vid=e9928c56-313a-4969-ab2c-0f3f1652603e"},"vehicle_type_id":"4","last_reported":1781385953,"current_range_meters":4000,"station_id":"st_d3nk18o9ro0c73en2l3g","pricing_plan_id":"cebpf4jnsgd1na2vs0mg"},{"bike_id":"01974ce9-2ce7-4184-9698-03768bec9bb4","system_id":"levelo_inurba_marseille","lat":43.28686,"lon":5.46645,"is_reserved":false,"is_disabled":false,"rental_uris":{"android":"levelo://app?vid=01974ce9-2ce7-4184-9698-03768bec9bb4","ios":"levelo://app?vid=01974ce9-2ce7-4184-9698-03768bec9bb4"},"vehicle_type_id":"4","last_reported":1781385953,"current_range_meters":4000,"station_id":"st_d6tc3vkotcvc738tfjhg","pricing_plan_id":"cebpf4jnsgd1na2vs0mg"},{"bike_id":"7d037c9f-8c21-4bf9-a0a5-564b835baaa9","system_id":"levelo_inurba_marseille","lat":43.26708,"lon":5.38214,"is_reserved":false,"is_disabled":true,"rental_uris":{"android":"levelo://app?vid=7d037c9f-8c21-4bf9-a0a5-564b835baaa9","ios":"levelo://app?vid=7d037c9f-8c21-4bf9-a0a5-564b835baaa9"},"vehicle_type_id":"4","last_reported":1781385953,"current_range_meters":4000,"station_id":"","pricing_plan_id":"cebpf4jnsgd1na2vs0mg"},{"bike_id":"83735e29-0b73-4b5d-8f8f-b978fb4a96f7","system_id":"levelo_inurba_marseille","lat":43.27918,"lon":5.38025,"is_reserved":false,"is_disabled":false,"rental_uris":{"android":"levelo://app?vid=83735e29-0b73-4b5d-8f8f-b978fb4a96f7","ios":"levelo://app?vid=83735e29-0b73-4b5d-8f8f-b978fb4a96f7"},"vehicle_type_id":"4","last_reported":1781385953,"current_range_meters":4000,"station_id":"ce4bhf92rcd13ifvqf50","pricing_plan_id":"cebpf4jnsgd1na2vs0mg"},{"bike_id":"bd6fa762-e644-446a-abf7-290f25ca3f95","system_id":"levelo_inurba_marseille","lat":43.26213,"lon":5.37428,"is_reserved":false,"is_disabled":false,"rental_uris":{"android":"levelo://app?vid=bd6fa762-e644-446a-abf7-290f25ca3f95","ios":"levelo://app?vid=bd6fa762-e644-446a-abf7-290f25ca3f95"},"vehicle_type_id":"4","last_reported":1781385953,"current_range_meters":4000,"station_id":"ce4bhgp2rcd13ifvqfc0","pricing_plan_id":"cebpf4jnsgd1na2vs0mg"},{"bike_id":"5f189998-b2b6-4e38-b849-68910c9a3d84","system_id":"levelo_inurba_marseille","lat":43.317514,"lon":5.39012,"is_reserved":false,"is_disabled":false,"rental_uris":{"android":"levelo://app?vid=5f189998-b2b6-4e38-b849-68910c9a3d84","ios":"levelo://app?vid=5f189998-b2b6-4e38-b849-68910c9a3d84"},"vehicle_type_id":"4","last_reported":1781385953,"current_range_meters":4000,"station_id":"","pricing_plan_id":"cebpf4jnsgd1na2vs0mg"},{"bike_id":"db8c5b68-a2ae-4ccd-8b82-df47b61ade41","system_id":"levelo_inurba_marseille","lat":43.24657,"lon":5.37954,"is_reserved":false,"is_disabled":false,"rental_uris":{"android":"levelo://app?vid=db8c5b68-a2ae-4ccd-8b82-df47b61ade41","ios":"levelo://app?vid=db8c5b68-a2ae-4ccd-8b82-df47b61ade41"},"vehicle_type_id":"4","last_reported":1781385953,"current_range_meters":4000,"station_id":"","pricing_plan_id":"cebpf4jnsgd1na2vs0mg"},{"bike_id":"4a3f77fd-73b0-4cdb-a815-b2bdc19d2e1f","system_id":"levelo_inurba_marseille","lat":43.29604,"lon":5.38094,"is_reserved":false,"is_disabled":false,"rental_uris":{"android":"levelo://app?vid=4a3f77fd-73b0-4cdb-a815-b2bdc19d2e1f","ios":"levelo://app?vid=4a3f77fd-73b0-4cdb-a815-b2bdc19d2e1f"},"vehicle_type_id":"4","last_reported":1781385953,"current_range_meters":4000,"station_id":"ce4bgl12rcd13ifvqbo0","pricing_plan_id":"cebpf4jnsgd1na2vs0mg"},{"bike_id":"44fdbf0c-63e4-4a3f-82ac-a755aa8eca0b","system_id":"levelo_inurba_marseille","lat":43.29706,"lon":5.36607,"is_reserved":false,"is_disabled":false,"rental_uris":{"android":"levelo://app?vid=44fdbf0c-63e4-4a3f-82ac-a755aa8eca0b","ios":"levelo://app?vid=44fdbf0c-63e4-4a3f-82ac-a755aa8eca0b"},"vehicle_type_id":"4","last_reported":1781385953,"current_range_meters":4000,"station_id":"ce4bgn12rcd13ifvqbt0","pricing_plan_id":"cebpf4jnsgd1na2vs0mg"},{"bike_id":"7d57ab03-6493-474e-9052-837e45c3ffee","system_id":"levelo_inurba_marseille","lat":43.22539,"lon":5.34802,"is_reserved":false,"is_disabled":false,"rental_uris":{"android":"levelo://app?vid=7d57ab03-6493-474e-9052-837e45c3ffee","ios":"levelo://app?vid=7d57ab03-6493-474e-9052-837e45c3ffee"},"vehicle_type_id":"4","last_reported":1781385953,"current_range_meters":4000,"station_id":"st_cvj5dfep6f1abm77gieg","pricing_plan_id":"cebpf4jnsgd1na2vs0mg"},{"bike_id":"6edf579f-78f6-4a80-8faa-35bdd39ec8f9","system_id":"levelo_inurba_marseille","lat":43.30533,"lon":5.36545,"is_reserved":false,"is_disabled":false,"rental_uris":{"android":"levelo://app?vid=6edf579f-78f6-4a80-8faa-35bdd39ec8f9","ios":"levelo://app?vid=6edf579f-78f6-4a80-8faa-35bdd39ec8f9"},"vehicle_type_id":"4","last_reported":1781385953,"current_range_meters":4400,"station_id":"ce4bgs12rcd13ifvqcag","pricing_plan_id":"cebpf4jnsgd1na2vs0mg"},{"bike_id":"86b4821b-066f-4af7-9341-601c3120669c","system_id":"levelo_inurba_marseille","lat":43.26225,"lon":5.38774,"is_reserved":false,"is_disabled":false,"rental_uris":{"android":"levelo://app?vid=86b4821b-066f-4af7-9341-601c3120669c","ios":"levelo://app?vid=86b4821b-066f-4af7-9341-601c3120669c"},"vehicle_type_id":"4","last_reported":1781385953,"current_range_meters":4400,"station_id":"st_d8gjfg747rts73coq3b0","pricing_plan_id":"cebpf4jnsgd1na2vs0mg"},{"bike_id":"198ca64c-da25-4119-887e-872290a7c1b6","system_id":"levelo_inurba_marseille","lat":43.30306,"lon":5.39206,"is_reserved":false,"is_disabled":false,"rental_uris":{"android":"levelo://app?vid=198ca64c-da25-4119-887e-872290a7c1b6","ios":"levelo://app?vid=198ca64c-da25-4119-887e-872290a7c1b6"},"vehicle_type_id":"4","last_reported":1781385953,"current_range_meters":4400,"station_id":"ce4bgkh2rcd13ifvqbk0","pricing_plan_id":"cebpf4jnsgd1na2vs0mg"},{"bike_id":"0a26bba0-65c5-4738-9fea-dd6d0f24d8b6","system_id":"levelo_inurba_marseille","lat":43.2812,"lon":5.37853,"is_reserved":false,"is_disabled":false,"rental_uris":{"android":"levelo://app?vid=0a26bba0-65c5-4738-9fea-dd6d0f24d8b6","ios":"levelo://app?vid=0a26bba0-65c5-4738-9fea-dd6d0f24d8b6"},"vehicle_type_id":"4","last_reported":1781385953,"current_range_meters":4400,"station_id":"ce4bha12rcd13ifvqee0","pricing_plan_id":"cebpf4jnsgd1na2vs0mg"},{"bike_id":"052879dc-2b8f-4caf-a3c5-015d3f39ddb4","system_id":"levelo_inurba_marseille","lat":43.28694,"lon":5.39977,"is_reserved":false,"is_disabled":false,"rental_uris":{"android":"levelo://app?vid=052879dc-2b8f-4caf-a3c5-015d3f39ddb4","ios":"levelo://app?vid=052879dc-2b8f-4caf-a3c5-015d3f39ddb4"},"vehicle_type_id":"4","last_reported":1781385953,"current_range_meters":4400,"station_id":"ce4bho92rcd13ifvqh3g","pricing_plan_id":"cebpf4jnsgd1na2vs0mg"},{"bike_id":"de34cc43-9c18-41de-a3e9-5ab17a96e097","system_id":"levelo_inurba_marseille","lat":43.29756,"lon":5.38111,"is_reserved":false,"is_disabled":true,"rental_uris":{"android":"levelo://app?vid=de34cc43-9c18-41de-a3e9-5ab17a96e097","ios":"levelo://app?vid=de34cc43-9c18-41de-a3e9-5ab17a96e097"},"vehicle_type_id":"4","last_reported":1781385953,"current_range_meters":4400,"station_id":"ce4bgip2rcd13ifvqbb0","pricing_plan_id":"cebpf4jnsgd1na2vs0mg"},{"bike_id":"a303e4db-b9ba-4d63-9eff-f7e5a8e536c2","system_id":"levelo_inurba_marseille","lat":43.28035,"lon":5.40942,"is_reserved":false,"is_disabled":false,"rental_uris":{"android":"levelo://app?vid=a303e4db-b9ba-4d63-9eff-f7e5a8e536c2","ios":"levelo://app?vid=a303e4db-b9ba-4d63-9eff-f7e5a8e536c2"},"vehicle_type_id":"4","last_reported":1781385953,"current_range_meters":4400,"station_id":"","pricing_plan_id":"cebpf4jnsgd1na2vs0mg"},{"bike_id":"234a7f53-89f3-49d1-8805-1eb416beb577","system_id":"levelo_inurba_marseille","lat":43.29256,"lon":5.38432,"is_reserved":false,"is_disabled":false,"rental_uris":{"android":"levelo://app?vid=234a7f53-89f3-49d1-8805-1eb416beb577","ios":"levelo://app?vid=234a7f53-89f3-49d1-8805-1eb416beb577"},"vehicle_type_id":"4","last_reported":1781385953,"current_range_meters":4400,"station_id":"ce4bh692rcd13ifvqea0","pricing_plan_id":"cebpf4jnsgd1na2vs0mg"},{"bike_id":"0d77b0d4-f5c0-4b3b-b9fc-7041e3b654e3","system_id":"levelo_inurba_marseille","lat":43.28708,"lon":5.38676,"is_reserved":false,"is_disabled":true,"rental_uris":{"android":"levelo://app?vid=0d77b0d4-f5c0-4b3b-b9fc-7041e3b654e3","ios":"levelo://app?vid=0d77b0d4-f5c0-4b3b-b9fc-7041e3b654e3"},"vehicle_type_id":"4","last_reported":1781385953,"current_range_meters":4400,"station_id":"","pricing_plan_id":"cebpf4jnsgd1na2vs0mg"},{"bike_id":"dd642cd4-21e5-4e97-885f-8917ed7d336e","system_id":"levelo_inurba_marseille","lat":43.21746,"lon":5.34605,"is_reserved":false,"is_disabled":false,"rental_uris":{"android":"levelo://app?vid=dd642cd4-21e5-4e97-885f-8917ed7d336e","ios":"levelo://app?vid=dd642cd4-21e5-4e97-885f-8917ed7d336e"},"vehicle_type_id":"4","last_reported":1781385953,"current_range_meters":4400,"station_id":"st_cvj6r9ubvosntc0bgbag","pricing_plan_id":"cebpf4jnsgd1na2vs0mg"},{"bike_id":"626cb758-6f24-46c0-b417-f4560003d4cd","system_id":"levelo_inurba_marseille","lat":43.26185,"lon":5.37456,"is_reserved":false,"is_disabled":false,"rental_uris":{"android":"levelo://app?vid=626cb758-6f24-46c0-b417-f4560003d4cd","ios":"levelo://app?vid=626cb758-6f24-46c0-b417-f4560003d4cd"},"vehicle_type_id":"4","last_reported":1781385953,"current_range_meters":4400,"station_id":"ce4bhgp2rcd13ifvqfc0","pricing_plan_id":"cebpf4jnsgd1na2vs0mg"},{"bike_id":"93803c4e-ba89-4aae-a4d8-c0d2a148430e","system_id":"levelo_inurba_marseille","lat":43.30622,"lon":5.37237,"is_reserved":false,"is_disabled":false,"rental_uris":{"android":"levelo://app?vid=93803c4e-ba89-4aae-a4d8-c0d2a148430e","ios":"levelo://app?vid=93803c4e-ba89-4aae-a4d8-c0d2a148430e"},"vehicle_type_id":"4","last_reported":1781385953,"current_range_meters":4400,"station_id":"ce4bgqh2rcd13ifvqc4g","pricing_plan_id":"cebpf4jnsgd1na2vs0mg"},{"bike_id":"44c94aa1-6d43-4de1-bf1f-52b0672a538b","system_id":"levelo_inurba_marseille","lat":43.26356,"lon":5.37809,"is_reserved":false,"is_disabled":false,"rental_uris":{"android":"levelo://app?vid=44c94aa1-6d43-4de1-bf1f-52b0672a538b","ios":"levelo://app?vid=44c94aa1-6d43-4de1-bf1f-52b0672a538b"},"vehicle_type_id":"4","last_reported":1781385953,"current_range_meters":4400,"station_id":"","pricing_plan_id":"cebpf4jnsgd1na2vs0mg"},{"bike_id":"5f68454a-3f46-4716-98ea-a07b68026da7","system_id":"levelo_inurba_marseille","lat":43.30125,"lon":5.37724,"is_reserved":false,"is_disabled":false,"rental_uris":{"android":"levelo://app?vid=5f68454a-3f46-4716-98ea-a07b68026da7","ios":"levelo://app?vid=5f68454a-3f46-4716-98ea-a07b68026da7"},"vehicle_type_id":"4","last_reported":1781385953,"current_range_meters":4400,"station_id":"","pricing_plan_id":"cebpf4jnsgd1na2vs0mg"},{"bike_id":"85c669e0-7f32-4596-873a-878e48055f74","system_id":"levelo_inurba_marseille","lat":43.24803,"lon":5.37462,"is_reserved":false,"is_disabled":false,"rental_uris":{"android":"levelo://app?vid=85c669e0-7f32-4596-873a-878e48055f74","ios":"levelo://app?vid=85c669e0-7f32-4596-873a-878e48055f74"},"vehicle_type_id":"4","last_reported":1781385953,"current_range_meters":4400,"station_id":"ce4bhgh2rcd13ifvqfb0","pricing_plan_id":"cebpf4jnsgd1na2vs0mg"},{"bike_id":"fe131b0b-1ef9-4416-9fb2-6e419e6feba9","system_id":"levelo_inurba_marseille","lat":43.24385,"lon":5.3706,"is_reserved":false,"is_disabled":true,"rental_uris":{"android":"levelo://app?vid=fe131b0b-1ef9-4416-9fb2-6e419e6feba9","ios":"levelo://app?vid=fe131b0b-1ef9-4416-9fb2-6e419e6feba9"},"vehicle_type_id":"4","last_reported":1781385953,"current_range_meters":4400,"station_id":"ce4bhhh2rcd13ifvqfk0","pricing_plan_id":"cebpf4jnsgd1na2vs0mg"},{"bike_id":"078b0fb5-0f11-4e0f-b652-0e0c3aa790e8","system_id":"levelo_inurba_marseille","lat":43.28677,"lon":5.38675,"is_reserved":false,"is_disabled":false,"rental_uris":{"android":"levelo://app?vid=078b0fb5-0f11-4e0f-b652-0e0c3aa790e8","ios":"levelo://app?vid=078b0fb5-0f11-4e0f-b652-0e0c3aa790e8"},"vehicle_type_id":"4","last_reported":1781385953,"current_range_meters":4400,"station_id":"ce4bh492rcd13ifvqdug","pricing_plan_id":"cebpf4jnsgd1na2vs0mg"},{"bike_id":"437e3ba7-ea12-4e88-a20f-de0ed79ac149","system_id":"levelo_inurba_marseille","lat":43.23998,"lon":5.37833,"is_reserved":false,"is_disabled":true,"rental_uris":{"android":"levelo://app?vid=437e3ba7-ea12-4e88-a20f-de0ed79ac149","ios":"levelo://app?vid=437e3ba7-ea12-4e88-a20f-de0ed79ac149"},"vehicle_type_id":"4","last_reported":1781385953,"current_range_meters":4400,"station_id":"","pricing_plan_id":"cebpf4jnsgd1na2vs0mg"},{"bike_id":"6db0e189-20d1-4d92-ab9f-a2ad8e479225","system_id":"levelo_inurba_marseille","lat":43.29274,"lon":5.35576,"is_reserved":false,"is_disabled":false,"rental_uris":{"android":"levelo://app?vid=6db0e189-20d1-4d92-ab9f-a2ad8e479225","ios":"levelo://app?vid=6db0e189-20d1-4d92-ab9f-a2ad8e479225"},"vehicle_type_id":"4","last_reported":1781385953,"current_range_meters":4400,"station_id":"","pricing_plan_id":"cebpf4jnsgd1na2vs0mg"},{"bike_id":"baa63fac-ac2d-4707-a79a-6d0aaf4d338f","system_id":"levelo_inurba_marseille","lat":43.28718,"lon":5.37932,"is_reserved":false,"is_disabled":false,"rental_uris":{"android":"levelo://app?vid=baa63fac-ac2d-4707-a79a-6d0aaf4d338f","ios":"levelo://app?vid=baa63fac-ac2d-4707-a79a-6d0aaf4d338f"},"vehicle_type_id":"4","last_reported":1781385953,"current_range_meters":4800,"station_id":"ce4bh9p2rcd13ifvqec0","pricing_plan_id":"cebpf4jnsgd1na2vs0mg"},{"bike_id":"5efbdd59-b50e-4fa4-afed-833a60e728dd","system_id":"levelo_inurba_marseille","lat":43.31086,"lon":5.42439,"is_reserved":false,"is_disabled":false,"rental_uris":{"android":"levelo://app?vid=5efbdd59-b50e-4fa4-afed-833a60e728dd","ios":"levelo://app?vid=5efbdd59-b50e-4fa4-afed-833a60e728dd"},"vehicle_type_id":"4","last_reported":1781385953,"current_range_meters":4800,"station_id":"ce4bhp92rcd13ifvqhag","pricing_plan_id":"cebpf4jnsgd1na2vs0mg"},{"bike_id":"b9d1843a-d85f-480b-9e0d-ac8e9afe5d9f","system_id":"levelo_inurba_marseille","lat":43.337444,"lon":5.374475,"is_reserved":false,"is_disabled":false,"rental_uris":{"android":"levelo://app?vid=b9d1843a-d85f-480b-9e0d-ac8e9afe5d9f","ios":"levelo://app?vid=b9d1843a-d85f-480b-9e0d-ac8e9afe5d9f"},"vehicle_type_id":"4","last_reported":1781385953,"current_range_meters":4800,"station_id":"","pricing_plan_id":"cebpf4jnsgd1na2vs0mg"},{"bike_id":"60ef35b5-2df4-436e-b925-da19a11c6328","system_id":"levelo_inurba_marseille","lat":43.32096,"lon":5.3678,"is_reserved":false,"is_disabled":false,"rental_uris":{"android":"levelo://app?vid=60ef35b5-2df4-436e-b925-da19a11c6328","ios":"levelo://app?vid=60ef35b5-2df4-436e-b925-da19a11c6328"},"vehicle_type_id":"4","last_reported":1781385953,"current_range_meters":4800,"station_id":"ce4bhrh2rcd13ifvqhug","pricing_plan_id":"cebpf4jnsgd1na2vs0mg"},{"bike_id":"d90e7aca-9b96-45d7-8c82-5368a16a48c7","system_id":"levelo_inurba_marseille","lat":43.31508,"lon":5.37296,"is_reserved":false,"is_disabled":false,"rental_uris":{"android":"levelo://app?vid=d90e7aca-9b96-45d7-8c82-5368a16a48c7","ios":"levelo://app?vid=d90e7aca-9b96-45d7-8c82-5368a16a48c7"},"vehicle_type_id":"4","last_reported":1781385953,"current_range_meters":4800,"station_id":"ce4bgt12rcd13ifvqcd0","pricing_plan_id":"cebpf4jnsgd1na2vs0mg"},{"bike_id":"94b3c803-d22c-484f-ad91-613d86ca4874","system_id":"levelo_inurba_marseille","lat":43.31321,"lon":5.39693,"is_reserved":false,"is_disabled":false,"rental_uris":{"android":"levelo://app?vid=94b3c803-d22c-484f-ad91-613d86ca4874","ios":"levelo://app?vid=94b3c803-d22c-484f-ad91-613d86ca4874"},"vehicle_type_id":"4","last_reported":1781385953,"current_range_meters":4800,"station_id":"ce4bgvp2rcd13ifvqcu0","pricing_plan_id":"cebpf4jnsgd1na2vs0mg"},{"bike_id":"3101f75d-9d62-4afa-ae55-a544c4fa449d","system_id":"levelo_inurba_marseille","lat":43.28707,"lon":5.37396,"is_reserved":false,"is_disabled":false,"rental_uris":{"android":"levelo://app?vid=3101f75d-9d62-4afa-ae55-a544c4fa449d","ios":"levelo://app?vid=3101f75d-9d62-4afa-ae55-a544c4fa449d"},"vehicle_type_id":"4","last_reported":1781385953,"current_range_meters":4800,"station_id":"ce4bh3p2rcd13ifvqdq0","pricing_plan_id":"cebpf4jnsgd1na2vs0mg"},{"bike_id":"ac3358ce-481e-4fda-9f9b-670be68b265e","system_id":"levelo_inurba_marseille","lat":43.31463,"lon":5.40166,"is_reserved":false,"is_disabled":false,"rental_uris":{"android":"levelo://app?vid=ac3358ce-481e-4fda-9f9b-670be68b265e","ios":"levelo://app?vid=ac3358ce-481e-4fda-9f9b-670be68b265e"},"vehicle_type_id":"4","last_reported":1781385953,"current_range_meters":4800,"station_id":"","pricing_plan_id":"cebpf4jnsgd1na2vs0mg"},{"bike_id":"be004f60-661b-45b9-a00d-02d877da6c38","system_id":"levelo_inurba_marseille","lat":43.25381,"lon":5.42274,"is_reserved":false,"is_disabled":false,"rental_uris":{"android":"levelo://app?vid=be004f60-661b-45b9-a00d-02d877da6c38","ios":"levelo://app?vid=be004f60-661b-45b9-a00d-02d877da6c38"},"vehicle_type_id":"4","last_reported":1781385953,"current_range_meters":4800,"station_id":"","pricing_plan_id":"cebpf4jnsgd1na2vs0mg"},{"bike_id":"820173c4-ab03-4733-a2be-a16d71a16272","system_id":"levelo_inurba_marseille","lat":43.290987,"lon":5.381331,"is_reserved":false,"is_disabled":false,"rental_uris":{"android":"levelo://app?vid=820173c4-ab03-4733-a2be-a16d71a16272","ios":"levelo://app?vid=820173c4-ab03-4733-a2be-a16d71a16272"},"vehicle_type_id":"4","last_reported":1781385953,"current_range_meters":4800,"station_id":"ce4bh512rcd13ifvqe2g","pricing_plan_id":"cebpf4jnsgd1na2vs0mg"},{"bike_id":"4b84cc20-93d9-4e85-811a-ba432f50bc38","system_id":"levelo_inurba_marseille","lat":43.26187,"lon":5.38083,"is_reserved":false,"is_disabled":false,"rental_uris":{"android":"levelo://app?vid=4b84cc20-93d9-4e85-811a-ba432f50bc38","ios":"levelo://app?vid=4b84cc20-93d9-4e85-811a-ba432f50bc38"},"vehicle_type_id":"4","last_reported":1781385953,"current_range_meters":4800,"station_id":"","pricing_plan_id":"cebpf4jnsgd1na2vs0mg"},{"bike_id":"1604ce63-55c7-46ac-bdbb-dd37aeac50f3","system_id":"levelo_inurba_marseille","lat":43.25994,"lon":5.39469,"is_reserved":false,"is_disabled":false,"rental_uris":{"android":"levelo://app?vid=1604ce63-55c7-46ac-bdbb-dd37aeac50f3","ios":"levelo://app?vid=1604ce63-55c7-46ac-bdbb-dd37aeac50f3"},"vehicle_type_id":"4","last_reported":1781385953,"current_range_meters":4800,"station_id":"","pricing_plan_id":"cebpf4jnsgd1na2vs0mg"},{"bike_id":"fc6a1209-9275-43d2-9b40-d0f3c4856e4a","system_id":"levelo_inurba_marseille","lat":43.299226,"lon":5.371805,"is_reserved":false,"is_disabled":false,"rental_uris":{"android":"levelo://app?vid=fc6a1209-9275-43d2-9b40-d0f3c4856e4a","ios":"levelo://app?vid=fc6a1209-9275-43d2-9b40-d0f3c4856e4a"},"vehicle_type_id":"4","last_reported":1781385953,"current_range_meters":4800,"station_id":"ce4bgqh2rcd13ifvqc5g","pricing_plan_id":"cebpf4jnsgd1na2vs0mg"},{"bike_id":"8f5b297e-a101-4dac-9b10-8764ca019902","system_id":"levelo_inurba_marseille","lat":43.313634,"lon":5.38489,"is_reserved":false,"is_disabled":true,"rental_uris":{"android":"levelo://app?vid=8f5b297e-a101-4dac-9b10-8764ca019902","ios":"levelo://app?vid=8f5b297e-a101-4dac-9b10-8764ca019902"},"vehicle_type_id":"4","last_reported":1781385953,"current_range_meters":4800,"station_id":"","pricing_plan_id":"cebpf4jnsgd1na2vs0mg"},{"bike_id":"b0e1c627-e366-414e-b921-4572a58307db","system_id":"levelo_inurba_marseille","lat":43.28616,"lon":5.3514,"is_reserved":false,"is_disabled":true,"rental_uris":{"android":"levelo://app?vid=b0e1c627-e366-414e-b921-4572a58307db","ios":"levelo://app?vid=b0e1c627-e366-414e-b921-4572a58307db"},"vehicle_type_id":"4","last_reported":1781385953,"current_range_meters":4800,"station_id":"ce4bhch2rcd13ifvqeug","pricing_plan_id":"cebpf4jnsgd1na2vs0mg"},{"bike_id":"af0fa59a-8ba5-42df-88ae-66bf3d82d292","system_id":"levelo_inurba_marseille","lat":43.24954,"lon":5.4049,"is_reserved":false,"is_disabled":false,"rental_uris":{"android":"levelo://app?vid=af0fa59a-8ba5-42df-88ae-66bf3d82d292","ios":"levelo://app?vid=af0fa59a-8ba5-42df-88ae-66bf3d82d292"},"vehicle_type_id":"4","last_reported":1781385953,"current_range_meters":4800,"station_id":"st_d2ngiaodas8pm72gd1h0","pricing_plan_id":"cebpf4jnsgd1na2vs0mg"},{"bike_id":"82d9d6b5-4259-4db0-a1d1-816d7a57c7f8","system_id":"levelo_inurba_marseille","lat":43.2952,"lon":5.38558,"is_reserved":false,"is_disabled":false,"rental_uris":{"android":"levelo://app?vid=82d9d6b5-4259-4db0-a1d1-816d7a57c7f8","ios":"levelo://app?vid=82d9d6b5-4259-4db0-a1d1-816d7a57c7f8"},"vehicle_type_id":"4","last_reported":1781385953,"current_range_meters":4800,"station_id":"ce4bgih2rcd13ifvqba0","pricing_plan_id":"cebpf4jnsgd1na2vs0mg"},{"bike_id":"bf740f93-dcae-45bd-8189-93f0bf5977b3","system_id":"levelo_inurba_marseille","lat":43.22554,"lon":5.41633,"is_reserved":false,"is_disabled":false,"rental_uris":{"android":"levelo://app?vid=bf740f93-dcae-45bd-8189-93f0bf5977b3","ios":"levelo://app?vid=bf740f93-dcae-45bd-8189-93f0bf5977b3"},"vehicle_type_id":"4","last_reported":1781385953,"current_range_meters":4800,"station_id":"st_d2o4gvlbi1j2169b742g","pricing_plan_id":"cebpf4jnsgd1na2vs0mg"},{"bike_id":"8e220ecf-bf2e-4209-bd0b-74b77f772687","system_id":"levelo_inurba_marseille","lat":43.29955,"lon":5.3849,"is_reserved":false,"is_disabled":true,"rental_uris":{"android":"levelo://app?vid=8e220ecf-bf2e-4209-bd0b-74b77f772687","ios":"levelo://app?vid=8e220ecf-bf2e-4209-bd0b-74b77f772687"},"vehicle_type_id":"4","last_reported":1781385953,"current_range_meters":4800,"station_id":"ce4bgj92rcd13ifvqbd0","pricing_plan_id":"cebpf4jnsgd1na2vs0mg"},{"bike_id":"418bc5b3-59f7-4656-96a2-6db965f1b268","system_id":"levelo_inurba_marseille","lat":43.2901,"lon":5.3864,"is_reserved":false,"is_disabled":false,"rental_uris":{"android":"levelo://app?vid=418bc5b3-59f7-4656-96a2-6db965f1b268","ios":"levelo://app?vid=418bc5b3-59f7-4656-96a2-6db965f1b268"},"vehicle_type_id":"4","last_reported":1781385953,"current_range_meters":4800,"station_id":"ce4bh4p2rcd13ifvqe0g","pricing_plan_id":"cebpf4jnsgd1na2vs0mg"},{"bike_id":"502be65e-7cd6-413d-96be-2158d1ce5bc6","system_id":"levelo_inurba_marseille","lat":43.29028,"lon":5.3864,"is_reserved":false,"is_disabled":false,"rental_uris":{"android":"levelo://app?vid=502be65e-7cd6-413d-96be-2158d1ce5bc6","ios":"levelo://app?vid=502be65e-7cd6-413d-96be-2158d1ce5bc6"},"vehicle_type_id":"4","last_reported":1781385953,"current_range_meters":4800,"station_id":"ce4bh4p2rcd13ifvqe0g","pricing_plan_id":"cebpf4jnsgd1na2vs0mg"},{"bike_id":"eb274e9d-6990-4113-8c77-43786f58701d","system_id":"levelo_inurba_marseille","lat":43.27841,"lon":5.39205,"is_reserved":false,"is_disabled":false,"rental_uris":{"android":"levelo://app?vid=eb274e9d-6990-4113-8c77-43786f58701d","ios":"levelo://app?vid=eb274e9d-6990-4113-8c77-43786f58701d"},"vehicle_type_id":"4","last_reported":1781385953,"current_range_meters":4800,"station_id":"ce4bhjp2rcd13ifvqga0","pricing_plan_id":"cebpf4jnsgd1na2vs0mg"},{"bike_id":"a4367c49-3ad9-4e5d-b890-d24a763f0a44","system_id":"levelo_inurba_marseille","lat":43.2882,"lon":5.42749,"is_reserved":false,"is_disabled":false,"rental_uris":{"android":"levelo://app?vid=a4367c49-3ad9-4e5d-b890-d24a763f0a44","ios":"levelo://app?vid=a4367c49-3ad9-4e5d-b890-d24a763f0a44"},"vehicle_type_id":"4","last_reported":1781385953,"current_range_meters":4800,"station_id":"","pricing_plan_id":"cebpf4jnsgd1na2vs0mg"},{"bike_id":"0a71f412-36be-4694-9adc-7fef2b7fa966","system_id":"levelo_inurba_marseille","lat":43.28942,"lon":5.36627,"is_reserved":false,"is_disabled":true,"rental_uris":{"android":"levelo://app?vid=0a71f412-36be-4694-9adc-7fef2b7fa966","ios":"levelo://app?vid=0a71f412-36be-4694-9adc-7fef2b7fa966"},"vehicle_type_id":"4","last_reported":1781385953,"current_range_meters":4800,"station_id":"ce4bhap2rcd13ifvqek0","pricing_plan_id":"cebpf4jnsgd1na2vs0mg"},{"bike_id":"2fa6d77b-257a-4418-a639-9aa2c6997455","system_id":"levelo_inurba_marseille","lat":43.28499,"lon":5.38432,"is_reserved":false,"is_disabled":false,"rental_uris":{"android":"levelo://app?vid=2fa6d77b-257a-4418-a639-9aa2c6997455","ios":"levelo://app?vid=2fa6d77b-257a-4418-a639-9aa2c6997455"},"vehicle_type_id":"4","last_reported":1781385953,"current_range_meters":4800,"station_id":"ce4bh512rcd13ifvqe3g","pricing_plan_id":"cebpf4jnsgd1na2vs0mg"},{"bike_id":"5215f856-46a9-476f-933a-7b736a4a324f","system_id":"levelo_inurba_marseille","lat":43.28238,"lon":5.37364,"is_reserved":false,"is_disabled":false,"rental_uris":{"android":"levelo://app?vid=5215f856-46a9-476f-933a-7b736a4a324f","ios":"levelo://app?vid=5215f856-46a9-476f-933a-7b736a4a324f"},"vehicle_type_id":"4","last_reported":1781385953,"current_range_meters":5600,"station_id":"","pricing_plan_id":"cebpf4jnsgd1na2vs0mg"},{"bike_id":"b980b04d-5296-4985-b1c8-88e5ee94e220","system_id":"levelo_inurba_marseille","lat":43.279527,"lon":5.387352,"is_reserved":false,"is_disabled":false,"rental_uris":{"android":"levelo://app?vid=b980b04d-5296-4985-b1c8-88e5ee94e220","ios":"levelo://app?vid=b980b04d-5296-4985-b1c8-88e5ee94e220"},"vehicle_type_id":"4","last_reported":1781385953,"current_range_meters":5600,"station_id":"ce4bhg12rcd13ifvqf80","pricing_plan_id":"cebpf4jnsgd1na2vs0mg"},{"bike_id":"d2af5be2-8988-401b-9ba7-ce6f44f94617","system_id":"levelo_inurba_marseille","lat":43.26346,"lon":5.37831,"is_reserved":false,"is_disabled":false,"rental_uris":{"android":"levelo://app?vid=d2af5be2-8988-401b-9ba7-ce6f44f94617","ios":"levelo://app?vid=d2af5be2-8988-401b-9ba7-ce6f44f94617"},"vehicle_type_id":"4","last_reported":1781385953,"current_range_meters":5600,"station_id":"st_d163nis0mtpqnht9uue0","pricing_plan_id":"cebpf4jnsgd1na2vs0mg"},{"bike_id":"bedd3401-afac-4e43-9bd9-0b9cbaed5f07","system_id":"levelo_inurba_marseille","lat":43.2931,"lon":5.37159,"is_reserved":false,"is_disabled":false,"rental_uris":{"android":"levelo://app?vid=bedd3401-afac-4e43-9bd9-0b9cbaed5f07","ios":"levelo://app?vid=bedd3401-afac-4e43-9bd9-0b9cbaed5f07"},"vehicle_type_id":"4","last_reported":1781385953,"current_range_meters":5600,"station_id":"ce4bgh92rcd13ifvqb40","pricing_plan_id":"cebpf4jnsgd1na2vs0mg"},{"bike_id":"57151b92-1913-410e-aca7-2d3e4d22f33e","system_id":"levelo_inurba_marseille","lat":43.30953,"lon":5.39026,"is_reserved":false,"is_disabled":false,"rental_uris":{"android":"levelo://app?vid=57151b92-1913-410e-aca7-2d3e4d22f33e","ios":"levelo://app?vid=57151b92-1913-410e-aca7-2d3e4d22f33e"},"vehicle_type_id":"4","last_reported":1781385953,"current_range_meters":5600,"station_id":"ce4bgup2rcd13ifvqco0","pricing_plan_id":"cebpf4jnsgd1na2vs0mg"},{"bike_id":"bf601120-2f22-4bcd-8556-91c5f1ccc8b1","system_id":"levelo_inurba_marseille","lat":43.31405,"lon":5.38113,"is_reserved":false,"is_disabled":false,"rental_uris":{"android":"levelo://app?vid=bf601120-2f22-4bcd-8556-91c5f1ccc8b1","ios":"levelo://app?vid=bf601120-2f22-4bcd-8556-91c5f1ccc8b1"},"vehicle_type_id":"4","last_reported":1781385953,"current_range_meters":5600,"station_id":"","pricing_plan_id":"cebpf4jnsgd1na2vs0mg"},{"bike_id":"2e296511-deb4-43a9-83f0-81592d7a3463","system_id":"levelo_inurba_marseille","lat":43.33196,"lon":5.37715,"is_reserved":false,"is_disabled":false,"rental_uris":{"android":"levelo://app?vid=2e296511-deb4-43a9-83f0-81592d7a3463","ios":"levelo://app?vid=2e296511-deb4-43a9-83f0-81592d7a3463"},"vehicle_type_id":"4","last_reported":1781385953,"current_range_meters":5600,"station_id":"","pricing_plan_id":"cebpf4jnsgd1na2vs0mg"},{"bike_id":"3890f25d-92c5-42cd-a792-61af1545f21c","system_id":"levelo_inurba_marseille","lat":43.27211,"lon":5.39184,"is_reserved":false,"is_disabled":false,"rental_uris":{"android":"levelo://app?vid=3890f25d-92c5-42cd-a792-61af1545f21c","ios":"levelo://app?vid=3890f25d-92c5-42cd-a792-61af1545f21c"},"vehicle_type_id":"4","last_reported":1781385953,"current_range_meters":5600,"station_id":"ce4bhhp2rcd13ifvqfm0","pricing_plan_id":"cebpf4jnsgd1na2vs0mg"},{"bike_id":"5b5ea2fb-3ba8-4c10-841c-ca34891a615c","system_id":"levelo_inurba_marseille","lat":43.29347,"lon":5.36391,"is_reserved":false,"is_disabled":false,"rental_uris":{"android":"levelo://app?vid=5b5ea2fb-3ba8-4c10-841c-ca34891a615c","ios":"levelo://app?vid=5b5ea2fb-3ba8-4c10-841c-ca34891a615c"},"vehicle_type_id":"4","last_reported":1781385953,"current_range_meters":5600,"station_id":"","pricing_plan_id":"cebpf4jnsgd1na2vs0mg"},{"bike_id":"47c3a402-19ac-4baa-a881-b541967288d0","system_id":"levelo_inurba_marseille","lat":43.26349,"lon":5.37833,"is_reserved":false,"is_disabled":false,"rental_uris":{"android":"levelo://app?vid=47c3a402-19ac-4baa-a881-b541967288d0","ios":"levelo://app?vid=47c3a402-19ac-4baa-a881-b541967288d0"},"vehicle_type_id":"4","last_reported":1781385953,"current_range_meters":5600,"station_id":"st_d163nis0mtpqnht9uue0","pricing_plan_id":"cebpf4jnsgd1na2vs0mg"},{"bike_id":"e946dae2-a9db-4a74-9c6e-805b3abf5a48","system_id":"levelo_inurba_marseille","lat":43.25739,"lon":5.38339,"is_reserved":false,"is_disabled":false,"rental_uris":{"android":"levelo://app?vid=e946dae2-a9db-4a74-9c6e-805b3abf5a48","ios":"levelo://app?vid=e946dae2-a9db-4a74-9c6e-805b3abf5a48"},"vehicle_type_id":"4","last_reported":1781385953,"current_range_meters":5600,"station_id":"","pricing_plan_id":"cebpf4jnsgd1na2vs0mg"},{"bike_id":"d40de561-7307-41ce-9fd9-699a8fa0c762","system_id":"levelo_inurba_marseille","lat":43.31937,"lon":5.38139,"is_reserved":false,"is_disabled":false,"rental_uris":{"android":"levelo://app?vid=d40de561-7307-41ce-9fd9-699a8fa0c762","ios":"levelo://app?vid=d40de561-7307-41ce-9fd9-699a8fa0c762"},"vehicle_type_id":"4","last_reported":1781385953,"current_range_meters":5600,"station_id":"","pricing_plan_id":"cebpf4jnsgd1na2vs0mg"},{"bike_id":"132661cb-9d8a-4df2-82e1-13b15034cf8f","system_id":"levelo_inurba_marseille","lat":43.29259,"lon":5.38428,"is_reserved":false,"is_disabled":true,"rental_uris":{"android":"levelo://app?vid=132661cb-9d8a-4df2-82e1-13b15034cf8f","ios":"levelo://app?vid=132661cb-9d8a-4df2-82e1-13b15034cf8f"},"vehicle_type_id":"4","last_reported":1781385953,"current_range_meters":5600,"station_id":"ce4bh692rcd13ifvqea0","pricing_plan_id":"cebpf4jnsgd1na2vs0mg"},{"bike_id":"f2d0e3b0-eb07-4105-819f-cd467494465f","system_id":"levelo_inurba_marseille","lat":43.29243,"lon":5.40896,"is_reserved":false,"is_disabled":false,"rental_uris":{"android":"levelo://app?vid=f2d0e3b0-eb07-4105-819f-cd467494465f","ios":"levelo://app?vid=f2d0e3b0-eb07-4105-819f-cd467494465f"},"vehicle_type_id":"4","last_reported":1781385953,"current_range_meters":5600,"station_id":"ce4bh192rcd13ifvqdc0","pricing_plan_id":"cebpf4jnsgd1na2vs0mg"},{"bike_id":"3431c704-991e-4545-8eec-fa15e92ea294","system_id":"levelo_inurba_marseille","lat":43.31452,"lon":5.3737,"is_reserved":false,"is_disabled":true,"rental_uris":{"android":"levelo://app?vid=3431c704-991e-4545-8eec-fa15e92ea294","ios":"levelo://app?vid=3431c704-991e-4545-8eec-fa15e92ea294"},"vehicle_type_id":"4","last_reported":1781385953,"current_range_meters":5600,"station_id":"","pricing_plan_id":"cebpf4jnsgd1na2vs0mg"},{"bike_id":"74f7660a-9096-4feb-beb3-160be45c0ab9","system_id":"levelo_inurba_marseille","lat":43.25462,"lon":5.41575,"is_reserved":false,"is_disabled":false,"rental_uris":{"android":"levelo://app?vid=74f7660a-9096-4feb-beb3-160be45c0ab9","ios":"levelo://app?vid=74f7660a-9096-4feb-beb3-160be45c0ab9"},"vehicle_type_id":"4","last_reported":1781385953,"current_range_meters":5600,"station_id":"","pricing_plan_id":"cebpf4jnsgd1na2vs0mg"},{"bike_id":"3203cca6-69a8-424a-bf02-b169bd2825a3","system_id":"levelo_inurba_marseille","lat":43.26696,"lon":5.38275,"is_reserved":false,"is_disabled":false,"rental_uris":{"android":"levelo://app?vid=3203cca6-69a8-424a-bf02-b169bd2825a3","ios":"levelo://app?vid=3203cca6-69a8-424a-bf02-b169bd2825a3"},"vehicle_type_id":"4","last_reported":1781385953,"current_range_meters":5600,"station_id":"ce4bhg92rcd13ifvqf90","pricing_plan_id":"cebpf4jnsgd1na2vs0mg"},{"bike_id":"6edaa41f-2846-4835-a0ee-3efcfb5f069b","system_id":"levelo_inurba_marseille","lat":43.29201,"lon":5.39312,"is_reserved":false,"is_disabled":false,"rental_uris":{"android":"levelo://app?vid=6edaa41f-2846-4835-a0ee-3efcfb5f069b","ios":"levelo://app?vid=6edaa41f-2846-4835-a0ee-3efcfb5f069b"},"vehicle_type_id":"4","last_reported":1781385953,"current_range_meters":5600,"station_id":"ce4bh192rcd13ifvqdd0","pricing_plan_id":"cebpf4jnsgd1na2vs0mg"},{"bike_id":"c6555d54-519a-459c-a7d8-0f5386f527ae","system_id":"levelo_inurba_marseille","lat":43.29724,"lon":5.37423,"is_reserved":false,"is_disabled":false,"rental_uris":{"android":"levelo://app?vid=c6555d54-519a-459c-a7d8-0f5386f527ae","ios":"levelo://app?vid=c6555d54-519a-459c-a7d8-0f5386f527ae"},"vehicle_type_id":"4","last_reported":1781385953,"current_range_meters":5600,"station_id":"","pricing_plan_id":"cebpf4jnsgd1na2vs0mg"},{"bike_id":"56c6581f-b173-4ad0-a879-90f3eca1cb90","system_id":"levelo_inurba_marseille","lat":43.27635,"lon":5.36132,"is_reserved":false,"is_disabled":false,"rental_uris":{"android":"levelo://app?vid=56c6581f-b173-4ad0-a879-90f3eca1cb90","ios":"levelo://app?vid=56c6581f-b173-4ad0-a879-90f3eca1cb90"},"vehicle_type_id":"4","last_reported":1781385953,"current_range_meters":5600,"station_id":"ce4bgj92rcd13ifvqbe0","pricing_plan_id":"cebpf4jnsgd1na2vs0mg"},{"bike_id":"e4d86a05-2db3-434f-a83e-222b4c27c368","system_id":"levelo_inurba_marseille","lat":43.2509,"lon":5.3953,"is_reserved":false,"is_disabled":false,"rental_uris":{"android":"levelo://app?vid=e4d86a05-2db3-434f-a83e-222b4c27c368","ios":"levelo://app?vid=e4d86a05-2db3-434f-a83e-222b4c27c368"},"vehicle_type_id":"4","last_reported":1781385953,"current_range_meters":5600,"station_id":"ce4bhm12rcd13ifvqgkg","pricing_plan_id":"cebpf4jnsgd1na2vs0mg"},{"bike_id":"6fb07b35-b88f-45ae-9e9e-ceed1b219374","system_id":"levelo_inurba_marseille","lat":43.32477,"lon":5.36559,"is_reserved":false,"is_disabled":true,"rental_uris":{"android":"levelo://app?vid=6fb07b35-b88f-45ae-9e9e-ceed1b219374","ios":"levelo://app?vid=6fb07b35-b88f-45ae-9e9e-ceed1b219374"},"vehicle_type_id":"4","last_reported":1781385953,"current_range_meters":5600,"station_id":"ce4bhs12rcd13ifvqhvg","pricing_plan_id":"cebpf4jnsgd1na2vs0mg"},{"bike_id":"e85eacf2-df37-4560-92c7-59f7e311147c","system_id":"levelo_inurba_marseille","lat":43.2558,"lon":5.38236,"is_reserved":false,"is_disabled":false,"rental_uris":{"android":"levelo://app?vid=e85eacf2-df37-4560-92c7-59f7e311147c","ios":"levelo://app?vid=e85eacf2-df37-4560-92c7-59f7e311147c"},"vehicle_type_id":"4","last_reported":1781385953,"current_range_meters":5600,"station_id":"ce4bhih2rcd13ifvqfs0","pricing_plan_id":"cebpf4jnsgd1na2vs0mg"},{"bike_id":"1b6a2b76-8e4c-45cf-97dc-6423eee85429","system_id":"levelo_inurba_marseille","lat":43.24949,"lon":5.40502,"is_reserved":false,"is_disabled":false,"rental_uris":{"android":"levelo://app?vid=1b6a2b76-8e4c-45cf-97dc-6423eee85429","ios":"levelo://app?vid=1b6a2b76-8e4c-45cf-97dc-6423eee85429"},"vehicle_type_id":"4","last_reported":1781385953,"current_range_meters":5600,"station_id":"st_d2ngiaodas8pm72gd1h0","pricing_plan_id":"cebpf4jnsgd1na2vs0mg"},{"bike_id":"ac6f7c48-e94d-4efd-a0f9-a2d80aa0fad5","system_id":"levelo_inurba_marseille","lat":43.28694,"lon":5.37397,"is_reserved":false,"is_disabled":false,"rental_uris":{"android":"levelo://app?vid=ac6f7c48-e94d-4efd-a0f9-a2d80aa0fad5","ios":"levelo://app?vid=ac6f7c48-e94d-4efd-a0f9-a2d80aa0fad5"},"vehicle_type_id":"4","last_reported":1781385953,"current_range_meters":5600,"station_id":"ce4bh3p2rcd13ifvqdq0","pricing_plan_id":"cebpf4jnsgd1na2vs0mg"},{"bike_id":"58636ab8-7a37-4b70-93e5-e54816efa03f","system_id":"levelo_inurba_marseille","lat":43.23972,"lon":5.36627,"is_reserved":false,"is_disabled":false,"rental_uris":{"android":"levelo://app?vid=58636ab8-7a37-4b70-93e5-e54816efa03f","ios":"levelo://app?vid=58636ab8-7a37-4b70-93e5-e54816efa03f"},"vehicle_type_id":"4","last_reported":1781385953,"current_range_meters":5600,"station_id":"ce4bhi12rcd13ifvqfp0","pricing_plan_id":"cebpf4jnsgd1na2vs0mg"},{"bike_id":"853e9d77-80a3-4505-9df7-8e5b7d45efa1","system_id":"levelo_inurba_marseille","lat":43.30734,"lon":5.4243,"is_reserved":false,"is_disabled":false,"rental_uris":{"android":"levelo://app?vid=853e9d77-80a3-4505-9df7-8e5b7d45efa1","ios":"levelo://app?vid=853e9d77-80a3-4505-9df7-8e5b7d45efa1"},"vehicle_type_id":"4","last_reported":1781385953,"current_range_meters":5600,"station_id":"st_cvj6ca6bvosntc0bfgr0","pricing_plan_id":"cebpf4jnsgd1na2vs0mg"},{"bike_id":"59abd848-b938-4706-8b9d-aa54cd5d850e","system_id":"levelo_inurba_marseille","lat":43.28269,"lon":5.35067,"is_reserved":false,"is_disabled":true,"rental_uris":{"android":"levelo://app?vid=59abd848-b938-4706-8b9d-aa54cd5d850e","ios":"levelo://app?vid=59abd848-b938-4706-8b9d-aa54cd5d850e"},"vehicle_type_id":"4","last_reported":1781385953,"current_range_meters":5600,"station_id":"ce4bhbp2rcd13ifvqerg","pricing_plan_id":"cebpf4jnsgd1na2vs0mg"},{"bike_id":"472431eb-5489-49ad-ac28-0f3f9312af73","system_id":"levelo_inurba_marseille","lat":43.31344,"lon":5.39696,"is_reserved":false,"is_disabled":false,"rental_uris":{"android":"levelo://app?vid=472431eb-5489-49ad-ac28-0f3f9312af73","ios":"levelo://app?vid=472431eb-5489-49ad-ac28-0f3f9312af73"},"vehicle_type_id":"4","last_reported":1781385953,"current_range_meters":5600,"station_id":"ce4bgvp2rcd13ifvqcu0","pricing_plan_id":"cebpf4jnsgd1na2vs0mg"},{"bike_id":"45469403-b2c5-4518-9427-6181c2421365","system_id":"levelo_inurba_marseille","lat":43.22527,"lon":5.34805,"is_reserved":false,"is_disabled":false,"rental_uris":{"android":"levelo://app?vid=45469403-b2c5-4518-9427-6181c2421365","ios":"levelo://app?vid=45469403-b2c5-4518-9427-6181c2421365"},"vehicle_type_id":"4","last_reported":1781385953,"current_range_meters":5600,"station_id":"st_cvj5dfep6f1abm77gieg","pricing_plan_id":"cebpf4jnsgd1na2vs0mg"},{"bike_id":"524b5098-c1ae-4877-837e-5df2fc9fb64c","system_id":"levelo_inurba_marseille","lat":43.28155,"lon":5.42638,"is_reserved":false,"is_disabled":false,"rental_uris":{"android":"levelo://app?vid=524b5098-c1ae-4877-837e-5df2fc9fb64c","ios":"levelo://app?vid=524b5098-c1ae-4877-837e-5df2fc9fb64c"},"vehicle_type_id":"4","last_reported":1781385953,"current_range_meters":6000,"station_id":"ce4bhnh2rcd13ifvqgug","pricing_plan_id":"cebpf4jnsgd1na2vs0mg"},{"bike_id":"589d39c3-c5d3-4771-9a3e-f5ca7e8ced1c","system_id":"levelo_inurba_marseille","lat":43.26369,"lon":5.37819,"is_reserved":false,"is_disabled":false,"rental_uris":{"android":"levelo://app?vid=589d39c3-c5d3-4771-9a3e-f5ca7e8ced1c","ios":"levelo://app?vid=589d39c3-c5d3-4771-9a3e-f5ca7e8ced1c"},"vehicle_type_id":"4","last_reported":1781385953,"current_range_meters":6000,"station_id":"st_d163nis0mtpqnht9uue0","pricing_plan_id":"cebpf4jnsgd1na2vs0mg"},{"bike_id":"c175211b-3da4-46cc-a60f-4967a28b1b76","system_id":"levelo_inurba_marseille","lat":43.33073,"lon":5.37832,"is_reserved":false,"is_disabled":false,"rental_uris":{"android":"levelo://app?vid=c175211b-3da4-46cc-a60f-4967a28b1b76","ios":"levelo://app?vid=c175211b-3da4-46cc-a60f-4967a28b1b76"},"vehicle_type_id":"4","last_reported":1781385953,"current_range_meters":6000,"station_id":"","pricing_plan_id":"cebpf4jnsgd1na2vs0mg"},{"bike_id":"1c6ec17f-2ff8-41f3-8499-51a9b77fe4b5","system_id":"levelo_inurba_marseille","lat":43.26024,"lon":5.37552,"is_reserved":false,"is_disabled":false,"rental_uris":{"android":"levelo://app?vid=1c6ec17f-2ff8-41f3-8499-51a9b77fe4b5","ios":"levelo://app?vid=1c6ec17f-2ff8-41f3-8499-51a9b77fe4b5"},"vehicle_type_id":"4","last_reported":1781385953,"current_range_meters":6000,"station_id":"ce4bhgh2rcd13ifvqfa0","pricing_plan_id":"cebpf4jnsgd1na2vs0mg"},{"bike_id":"c43c92bc-16e7-4616-8292-b9ed941fbd42","system_id":"levelo_inurba_marseille","lat":43.22558,"lon":5.41629,"is_reserved":false,"is_disabled":false,"rental_uris":{"android":"levelo://app?vid=c43c92bc-16e7-4616-8292-b9ed941fbd42","ios":"levelo://app?vid=c43c92bc-16e7-4616-8292-b9ed941fbd42"},"vehicle_type_id":"4","last_reported":1781385953,"current_range_meters":6000,"station_id":"st_d2o4gvlbi1j2169b742g","pricing_plan_id":"cebpf4jnsgd1na2vs0mg"},{"bike_id":"b75b860e-f642-4d57-ae10-a57f8b9673f2","system_id":"levelo_inurba_marseille","lat":43.26232,"lon":5.38779,"is_reserved":false,"is_disabled":false,"rental_uris":{"android":"levelo://app?vid=b75b860e-f642-4d57-ae10-a57f8b9673f2","ios":"levelo://app?vid=b75b860e-f642-4d57-ae10-a57f8b9673f2"},"vehicle_type_id":"4","last_reported":1781385953,"current_range_meters":6000,"station_id":"st_d8gjfg747rts73coq3b0","pricing_plan_id":"cebpf4jnsgd1na2vs0mg"},{"bike_id":"aa4d4832-791f-46b6-b904-76b96512b7a5","system_id":"levelo_inurba_marseille","lat":43.29595,"lon":5.43992,"is_reserved":false,"is_disabled":false,"rental_uris":{"android":"levelo://app?vid=aa4d4832-791f-46b6-b904-76b96512b7a5","ios":"levelo://app?vid=aa4d4832-791f-46b6-b904-76b96512b7a5"},"vehicle_type_id":"4","last_reported":1781385953,"current_range_meters":6000,"station_id":"","pricing_plan_id":"cebpf4jnsgd1na2vs0mg"},{"bike_id":"12326527-aa04-43ed-8122-fab62005bcac","system_id":"levelo_inurba_marseille","lat":43.2738,"lon":5.36253,"is_reserved":false,"is_disabled":true,"rental_uris":{"android":"levelo://app?vid=12326527-aa04-43ed-8122-fab62005bcac","ios":"levelo://app?vid=12326527-aa04-43ed-8122-fab62005bcac"},"vehicle_type_id":"4","last_reported":1781385953,"current_range_meters":6000,"station_id":"ce4bhbh2rcd13ifvqeo0","pricing_plan_id":"cebpf4jnsgd1na2vs0mg"},{"bike_id":"a0ef591f-a141-4fa2-9aa5-a3318e16f706","system_id":"levelo_inurba_marseille","lat":43.26193,"lon":5.37445,"is_reserved":false,"is_disabled":false,"rental_uris":{"android":"levelo://app?vid=a0ef591f-a141-4fa2-9aa5-a3318e16f706","ios":"levelo://app?vid=a0ef591f-a141-4fa2-9aa5-a3318e16f706"},"vehicle_type_id":"4","last_reported":1781385953,"current_range_meters":6000,"station_id":"ce4bhgp2rcd13ifvqfc0","pricing_plan_id":"cebpf4jnsgd1na2vs0mg"},{"bike_id":"fdc2f588-e9f9-4d5d-92c3-be1d373f5b1f","system_id":"levelo_inurba_marseille","lat":43.29315,"lon":5.36812,"is_reserved":false,"is_disabled":true,"rental_uris":{"android":"levelo://app?vid=fdc2f588-e9f9-4d5d-92c3-be1d373f5b1f","ios":"levelo://app?vid=fdc2f588-e9f9-4d5d-92c3-be1d373f5b1f"},"vehicle_type_id":"4","last_reported":1781385953,"current_range_meters":6000,"station_id":"","pricing_plan_id":"cebpf4jnsgd1na2vs0mg"},{"bike_id":"dc3e3e35-560a-41ac-8b92-c31e5b3f3434","system_id":"levelo_inurba_marseille","lat":43.26695,"lon":5.39271,"is_reserved":false,"is_disabled":false,"rental_uris":{"android":"levelo://app?vid=dc3e3e35-560a-41ac-8b92-c31e5b3f3434","ios":"levelo://app?vid=dc3e3e35-560a-41ac-8b92-c31e5b3f3434"},"vehicle_type_id":"4","last_reported":1781385953,"current_range_meters":6000,"station_id":"","pricing_plan_id":"cebpf4jnsgd1na2vs0mg"},{"bike_id":"7ccc7f12-af86-44d0-8fb1-4b619c940297","system_id":"levelo_inurba_marseille","lat":43.26193,"lon":5.3745,"is_reserved":false,"is_disabled":false,"rental_uris":{"android":"levelo://app?vid=7ccc7f12-af86-44d0-8fb1-4b619c940297","ios":"levelo://app?vid=7ccc7f12-af86-44d0-8fb1-4b619c940297"},"vehicle_type_id":"4","last_reported":1781385953,"current_range_meters":6000,"station_id":"ce4bhgp2rcd13ifvqfc0","pricing_plan_id":"cebpf4jnsgd1na2vs0mg"},{"bike_id":"56f06e0f-c6e7-401d-855c-fe2a226a2f62","system_id":"levelo_inurba_marseille","lat":43.29917,"lon":5.37461,"is_reserved":false,"is_disabled":false,"rental_uris":{"android":"levelo://app?vid=56f06e0f-c6e7-401d-855c-fe2a226a2f62","ios":"levelo://app?vid=56f06e0f-c6e7-401d-855c-fe2a226a2f62"},"vehicle_type_id":"4","last_reported":1781385953,"current_range_meters":6000,"station_id":"ce4bgjh2rcd13ifvqbg0","pricing_plan_id":"cebpf4jnsgd1na2vs0mg"},{"bike_id":"ce7cc1d7-3776-44e0-8dd2-28d27eaab140","system_id":"levelo_inurba_marseille","lat":43.21734,"lon":5.34616,"is_reserved":false,"is_disabled":false,"rental_uris":{"android":"levelo://app?vid=ce7cc1d7-3776-44e0-8dd2-28d27eaab140","ios":"levelo://app?vid=ce7cc1d7-3776-44e0-8dd2-28d27eaab140"},"vehicle_type_id":"4","last_reported":1781385953,"current_range_meters":6000,"station_id":"st_cvj6r9ubvosntc0bgbag","pricing_plan_id":"cebpf4jnsgd1na2vs0mg"},{"bike_id":"3d41d590-46bf-4903-8489-6a5dfbeed357","system_id":"levelo_inurba_marseille","lat":43.25041,"lon":5.39561,"is_reserved":false,"is_disabled":false,"rental_uris":{"android":"levelo://app?vid=3d41d590-46bf-4903-8489-6a5dfbeed357","ios":"levelo://app?vid=3d41d590-46bf-4903-8489-6a5dfbeed357"},"vehicle_type_id":"4","last_reported":1781385953,"current_range_meters":6000,"station_id":"","pricing_plan_id":"cebpf4jnsgd1na2vs0mg"},{"bike_id":"878889f7-8873-4dc7-aa05-48944365f7de","system_id":"levelo_inurba_marseille","lat":43.262071,"lon":5.374419,"is_reserved":false,"is_disabled":false,"rental_uris":{"android":"levelo://app?vid=878889f7-8873-4dc7-aa05-48944365f7de","ios":"levelo://app?vid=878889f7-8873-4dc7-aa05-48944365f7de"},"vehicle_type_id":"4","last_reported":1781385953,"current_range_meters":6000,"station_id":"ce4bhgp2rcd13ifvqfc0","pricing_plan_id":"cebpf4jnsgd1na2vs0mg"},{"bike_id":"3ac38b3a-df68-4ddb-8be7-f5ce5af56eb3","system_id":"levelo_inurba_marseille","lat":43.29003,"lon":5.35619,"is_reserved":false,"is_disabled":true,"rental_uris":{"android":"levelo://app?vid=3ac38b3a-df68-4ddb-8be7-f5ce5af56eb3","ios":"levelo://app?vid=3ac38b3a-df68-4ddb-8be7-f5ce5af56eb3"},"vehicle_type_id":"4","last_reported":1781385953,"current_range_meters":6000,"station_id":"ce4bhb92rcd13ifvqen0","pricing_plan_id":"cebpf4jnsgd1na2vs0mg"},{"bike_id":"e5777fcd-75b6-4167-93ec-f3dfb9895090","system_id":"levelo_inurba_marseille","lat":43.21722,"lon":5.34631,"is_reserved":false,"is_disabled":false,"rental_uris":{"android":"levelo://app?vid=e5777fcd-75b6-4167-93ec-f3dfb9895090","ios":"levelo://app?vid=e5777fcd-75b6-4167-93ec-f3dfb9895090"},"vehicle_type_id":"4","last_reported":1781385953,"current_range_meters":6000,"station_id":"st_cvj6r9ubvosntc0bgbag","pricing_plan_id":"cebpf4jnsgd1na2vs0mg"},{"bike_id":"ef048e93-3c21-4aea-ad20-87c8427753a3","system_id":"levelo_inurba_marseille","lat":43.28857,"lon":5.42547,"is_reserved":false,"is_disabled":false,"rental_uris":{"android":"levelo://app?vid=ef048e93-3c21-4aea-ad20-87c8427753a3","ios":"levelo://app?vid=ef048e93-3c21-4aea-ad20-87c8427753a3"},"vehicle_type_id":"4","last_reported":1781385953,"current_range_meters":6000,"station_id":"st_d3b462108ojc7389ooeg","pricing_plan_id":"cebpf4jnsgd1na2vs0mg"},{"bike_id":"3fbb2764-0b12-4e74-8368-49daf4025050","system_id":"levelo_inurba_marseille","lat":43.29274,"lon":5.3845,"is_reserved":false,"is_disabled":false,"rental_uris":{"android":"levelo://app?vid=3fbb2764-0b12-4e74-8368-49daf4025050","ios":"levelo://app?vid=3fbb2764-0b12-4e74-8368-49daf4025050"},"vehicle_type_id":"4","last_reported":1781385953,"current_range_meters":6000,"station_id":"ce4bh692rcd13ifvqea0","pricing_plan_id":"cebpf4jnsgd1na2vs0mg"},{"bike_id":"dbd3bdc5-4538-4f24-86f3-9d743ada8e11","system_id":"levelo_inurba_marseille","lat":43.26035,"lon":5.37536,"is_reserved":false,"is_disabled":false,"rental_uris":{"android":"levelo://app?vid=dbd3bdc5-4538-4f24-86f3-9d743ada8e11","ios":"levelo://app?vid=dbd3bdc5-4538-4f24-86f3-9d743ada8e11"},"vehicle_type_id":"4","last_reported":1781385953,"current_range_meters":6000,"station_id":"ce4bhgh2rcd13ifvqfa0","pricing_plan_id":"cebpf4jnsgd1na2vs0mg"},{"bike_id":"40cb0155-c556-484f-915b-b738bc0d2ea4","system_id":"levelo_inurba_marseille","lat":43.21202,"lon":5.35082,"is_reserved":false,"is_disabled":false,"rental_uris":{"android":"levelo://app?vid=40cb0155-c556-484f-915b-b738bc0d2ea4","ios":"levelo://app?vid=40cb0155-c556-484f-915b-b738bc0d2ea4"},"vehicle_type_id":"4","last_reported":1781385953,"current_range_meters":6000,"station_id":"st_cvj6sg6p6f1abm77japg","pricing_plan_id":"cebpf4jnsgd1na2vs0mg"},{"bike_id":"5bc53581-ac65-49e4-b56b-f1ece78f0664","system_id":"levelo_inurba_marseille","lat":43.26688,"lon":5.38267,"is_reserved":false,"is_disabled":true,"rental_uris":{"android":"levelo://app?vid=5bc53581-ac65-49e4-b56b-f1ece78f0664","ios":"levelo://app?vid=5bc53581-ac65-49e4-b56b-f1ece78f0664"},"vehicle_type_id":"4","last_reported":1781385953,"current_range_meters":6000,"station_id":"ce4bhg92rcd13ifvqf90","pricing_plan_id":"cebpf4jnsgd1na2vs0mg"},{"bike_id":"7750fed4-d122-41f8-ad9e-d930d3ad1cf1","system_id":"levelo_inurba_marseille","lat":43.27293,"lon":5.40089,"is_reserved":false,"is_disabled":false,"rental_uris":{"android":"levelo://app?vid=7750fed4-d122-41f8-ad9e-d930d3ad1cf1","ios":"levelo://app?vid=7750fed4-d122-41f8-ad9e-d930d3ad1cf1"},"vehicle_type_id":"4","last_reported":1781385953,"current_range_meters":6400,"station_id":"","pricing_plan_id":"cebpf4jnsgd1na2vs0mg"},{"bike_id":"e3080078-124d-4aee-9603-e9e4fa0cde77","system_id":"levelo_inurba_marseille","lat":43.30216,"lon":5.394639,"is_reserved":false,"is_disabled":false,"rental_uris":{"android":"levelo://app?vid=e3080078-124d-4aee-9603-e9e4fa0cde77","ios":"levelo://app?vid=e3080078-124d-4aee-9603-e9e4fa0cde77"},"vehicle_type_id":"4","last_reported":1781385953,"current_range_meters":6400,"station_id":"ce4bh0p2rcd13ifvqd70","pricing_plan_id":"cebpf4jnsgd1na2vs0mg"},{"bike_id":"fca4716d-363f-4061-9268-5fdf2b190705","system_id":"levelo_inurba_marseille","lat":43.281035,"lon":5.367145,"is_reserved":false,"is_disabled":true,"rental_uris":{"android":"levelo://app?vid=fca4716d-363f-4061-9268-5fdf2b190705","ios":"levelo://app?vid=fca4716d-363f-4061-9268-5fdf2b190705"},"vehicle_type_id":"4","last_reported":1781385953,"current_range_meters":6400,"station_id":"ce4bhgp2rcd13ifvqfc0","pricing_plan_id":"cebpf4jnsgd1na2vs0mg"},{"bike_id":"1be84025-d267-4515-957c-91dae421ff6c","system_id":"levelo_inurba_marseille","lat":43.26683,"lon":5.38265,"is_reserved":false,"is_disabled":false,"rental_uris":{"android":"levelo://app?vid=1be84025-d267-4515-957c-91dae421ff6c","ios":"levelo://app?vid=1be84025-d267-4515-957c-91dae421ff6c"},"vehicle_type_id":"4","last_reported":1781385953,"current_range_meters":6400,"station_id":"ce4bhg92rcd13ifvqf90","pricing_plan_id":"cebpf4jnsgd1na2vs0mg"},{"bike_id":"7911489c-d669-48c8-806a-ae5df483f8c3","system_id":"levelo_inurba_marseille","lat":43.26213,"lon":5.38755,"is_reserved":false,"is_disabled":false,"rental_uris":{"android":"levelo://app?vid=7911489c-d669-48c8-806a-ae5df483f8c3","ios":"levelo://app?vid=7911489c-d669-48c8-806a-ae5df483f8c3"},"vehicle_type_id":"4","last_reported":1781385953,"current_range_meters":6400,"station_id":"st_d8gjfg747rts73coq3b0","pricing_plan_id":"cebpf4jnsgd1na2vs0mg"},{"bike_id":"7eb0e1f6-8b24-42f8-85b5-cd4213042544","system_id":"levelo_inurba_marseille","lat":43.301284,"lon":5.398664,"is_reserved":false,"is_disabled":false,"rental_uris":{"android":"levelo://app?vid=7eb0e1f6-8b24-42f8-85b5-cd4213042544","ios":"levelo://app?vid=7eb0e1f6-8b24-42f8-85b5-cd4213042544"},"vehicle_type_id":"4","last_reported":1781385953,"current_range_meters":6400,"station_id":"ce4bh0h2rcd13ifvqd40","pricing_plan_id":"cebpf4jnsgd1na2vs0mg"},{"bike_id":"9a234ee4-189a-4927-904a-c6f72c9e5bbf","system_id":"levelo_inurba_marseille","lat":43.28451,"lon":5.38442,"is_reserved":false,"is_disabled":true,"rental_uris":{"android":"levelo://app?vid=9a234ee4-189a-4927-904a-c6f72c9e5bbf","ios":"levelo://app?vid=9a234ee4-189a-4927-904a-c6f72c9e5bbf"},"vehicle_type_id":"4","last_reported":1781385953,"current_range_meters":6400,"station_id":"ce4bh512rcd13ifvqe3g","pricing_plan_id":"cebpf4jnsgd1na2vs0mg"},{"bike_id":"a56a6758-ec37-4585-822a-2cd30f8a5982","system_id":"levelo_inurba_marseille","lat":43.243862,"lon":5.370507,"is_reserved":false,"is_disabled":false,"rental_uris":{"android":"levelo://app?vid=a56a6758-ec37-4585-822a-2cd30f8a5982","ios":"levelo://app?vid=a56a6758-ec37-4585-822a-2cd30f8a5982"},"vehicle_type_id":"4","last_reported":1781385953,"current_range_meters":6400,"station_id":"ce4bhhh2rcd13ifvqfk0","pricing_plan_id":"cebpf4jnsgd1na2vs0mg"},{"bike_id":"c643205b-14b6-4fe3-855b-64bdff8573b4","system_id":"levelo_inurba_marseille","lat":43.24764,"lon":5.37423,"is_reserved":false,"is_disabled":false,"rental_uris":{"android":"levelo://app?vid=c643205b-14b6-4fe3-855b-64bdff8573b4","ios":"levelo://app?vid=c643205b-14b6-4fe3-855b-64bdff8573b4"},"vehicle_type_id":"4","last_reported":1781385953,"current_range_meters":6400,"station_id":"ce4bhgh2rcd13ifvqfb0","pricing_plan_id":"cebpf4jnsgd1na2vs0mg"},{"bike_id":"8541f017-3968-4a6a-a25b-5885257483a8","system_id":"levelo_inurba_marseille","lat":43.24182,"lon":5.39725,"is_reserved":false,"is_disabled":false,"rental_uris":{"android":"levelo://app?vid=8541f017-3968-4a6a-a25b-5885257483a8","ios":"levelo://app?vid=8541f017-3968-4a6a-a25b-5885257483a8"},"vehicle_type_id":"4","last_reported":1781385953,"current_range_meters":6400,"station_id":"ce4bhn12rcd13ifvqgpg","pricing_plan_id":"cebpf4jnsgd1na2vs0mg"},{"bike_id":"48de77fe-85e2-4ed0-b073-9689fb2f1b98","system_id":"levelo_inurba_marseille","lat":43.29178,"lon":5.37161,"is_reserved":false,"is_disabled":true,"rental_uris":{"android":"levelo://app?vid=48de77fe-85e2-4ed0-b073-9689fb2f1b98","ios":"levelo://app?vid=48de77fe-85e2-4ed0-b073-9689fb2f1b98"},"vehicle_type_id":"4","last_reported":1781385953,"current_range_meters":6400,"station_id":"ce4bha92rcd13ifvqeh0","pricing_plan_id":"cebpf4jnsgd1na2vs0mg"},{"bike_id":"afb5d1d0-d6d3-4837-84c1-73b8786a322a","system_id":"levelo_inurba_marseille","lat":43.26678,"lon":5.38264,"is_reserved":false,"is_disabled":false,"rental_uris":{"android":"levelo://app?vid=afb5d1d0-d6d3-4837-84c1-73b8786a322a","ios":"levelo://app?vid=afb5d1d0-d6d3-4837-84c1-73b8786a322a"},"vehicle_type_id":"4","last_reported":1781385953,"current_range_meters":6400,"station_id":"ce4bhg92rcd13ifvqf90","pricing_plan_id":"cebpf4jnsgd1na2vs0mg"},{"bike_id":"61acdcff-76d7-4bb2-a256-e2ec611550e8","system_id":"levelo_inurba_marseille","lat":43.26563,"lon":5.39005,"is_reserved":false,"is_disabled":true,"rental_uris":{"android":"levelo://app?vid=61acdcff-76d7-4bb2-a256-e2ec611550e8","ios":"levelo://app?vid=61acdcff-76d7-4bb2-a256-e2ec611550e8"},"vehicle_type_id":"4","last_reported":1781385953,"current_range_meters":6400,"station_id":"ce4bhe12rcd13ifvqf30","pricing_plan_id":"cebpf4jnsgd1na2vs0mg"},{"bike_id":"9f7e286d-df47-4a23-8345-afc5f204f1c6","system_id":"levelo_inurba_marseille","lat":43.30953,"lon":5.39049,"is_reserved":false,"is_disabled":false,"rental_uris":{"android":"levelo://app?vid=9f7e286d-df47-4a23-8345-afc5f204f1c6","ios":"levelo://app?vid=9f7e286d-df47-4a23-8345-afc5f204f1c6"},"vehicle_type_id":"4","last_reported":1781385953,"current_range_meters":6400,"station_id":"ce4bgup2rcd13ifvqco0","pricing_plan_id":"cebpf4jnsgd1na2vs0mg"},{"bike_id":"c97fb99a-7c2e-4698-a401-a6886e4eb5f4","system_id":"levelo_inurba_marseille","lat":43.28767,"lon":5.42668,"is_reserved":false,"is_disabled":false,"rental_uris":{"android":"levelo://app?vid=c97fb99a-7c2e-4698-a401-a6886e4eb5f4","ios":"levelo://app?vid=c97fb99a-7c2e-4698-a401-a6886e4eb5f4"},"vehicle_type_id":"4","last_reported":1781385953,"current_range_meters":6400,"station_id":"","pricing_plan_id":"cebpf4jnsgd1na2vs0mg"},{"bike_id":"cc18ea0e-c668-4570-a330-413792265f75","system_id":"levelo_inurba_marseille","lat":43.28456,"lon":5.35878,"is_reserved":false,"is_disabled":false,"rental_uris":{"android":"levelo://app?vid=cc18ea0e-c668-4570-a330-413792265f75","ios":"levelo://app?vid=cc18ea0e-c668-4570-a330-413792265f75"},"vehicle_type_id":"4","last_reported":1781385953,"current_range_meters":6400,"station_id":"ce4bhah2rcd13ifvqei0","pricing_plan_id":"cebpf4jnsgd1na2vs0mg"},{"bike_id":"3f683387-f7ec-4b9f-9801-ff63896077b4","system_id":"levelo_inurba_marseille","lat":43.23943,"lon":5.36542,"is_reserved":false,"is_disabled":false,"rental_uris":{"android":"levelo://app?vid=3f683387-f7ec-4b9f-9801-ff63896077b4","ios":"levelo://app?vid=3f683387-f7ec-4b9f-9801-ff63896077b4"},"vehicle_type_id":"4","last_reported":1781385953,"current_range_meters":6400,"station_id":"","pricing_plan_id":"cebpf4jnsgd1na2vs0mg"},{"bike_id":"95fa7e89-477c-497d-868e-1ebd42d72e63","system_id":"levelo_inurba_marseille","lat":43.26343,"lon":5.37817,"is_reserved":false,"is_disabled":false,"rental_uris":{"android":"levelo://app?vid=95fa7e89-477c-497d-868e-1ebd42d72e63","ios":"levelo://app?vid=95fa7e89-477c-497d-868e-1ebd42d72e63"},"vehicle_type_id":"4","last_reported":1781385953,"current_range_meters":6400,"station_id":"st_d163nis0mtpqnht9uue0","pricing_plan_id":"cebpf4jnsgd1na2vs0mg"},{"bike_id":"9f0be29b-c3fc-43d2-88d9-7ef79e23fe90","system_id":"levelo_inurba_marseille","lat":43.24555,"lon":5.39518,"is_reserved":false,"is_disabled":false,"rental_uris":{"android":"levelo://app?vid=9f0be29b-c3fc-43d2-88d9-7ef79e23fe90","ios":"levelo://app?vid=9f0be29b-c3fc-43d2-88d9-7ef79e23fe90"},"vehicle_type_id":"4","last_reported":1781385953,"current_range_meters":6800,"station_id":"ce4bhlp2rcd13ifvqgjg","pricing_plan_id":"cebpf4jnsgd1na2vs0mg"},{"bike_id":"cf0c68e9-108f-4cb2-8999-26e59936ff8c","system_id":"levelo_inurba_marseille","lat":43.2306,"lon":5.35495,"is_reserved":false,"is_disabled":false,"rental_uris":{"android":"levelo://app?vid=cf0c68e9-108f-4cb2-8999-26e59936ff8c","ios":"levelo://app?vid=cf0c68e9-108f-4cb2-8999-26e59936ff8c"},"vehicle_type_id":"4","last_reported":1781385953,"current_range_meters":6800,"station_id":"cpo3342slgdg3j2ifvpg","pricing_plan_id":"cebpf4jnsgd1na2vs0mg"},{"bike_id":"da49f8bf-ac47-4f75-a9fc-b5a0f8173bc6","system_id":"levelo_inurba_marseille","lat":43.28448,"lon":5.3589,"is_reserved":false,"is_disabled":true,"rental_uris":{"android":"levelo://app?vid=da49f8bf-ac47-4f75-a9fc-b5a0f8173bc6","ios":"levelo://app?vid=da49f8bf-ac47-4f75-a9fc-b5a0f8173bc6"},"vehicle_type_id":"4","last_reported":1781385953,"current_range_meters":6800,"station_id":"ce4bhah2rcd13ifvqei0","pricing_plan_id":"cebpf4jnsgd1na2vs0mg"},{"bike_id":"6fe86a6c-f08b-47d4-a252-d992ce87610d","system_id":"levelo_inurba_marseille","lat":43.28699,"lon":5.39987,"is_reserved":false,"is_disabled":false,"rental_uris":{"android":"levelo://app?vid=6fe86a6c-f08b-47d4-a252-d992ce87610d","ios":"levelo://app?vid=6fe86a6c-f08b-47d4-a252-d992ce87610d"},"vehicle_type_id":"4","last_reported":1781385953,"current_range_meters":6800,"station_id":"ce4bho92rcd13ifvqh3g","pricing_plan_id":"cebpf4jnsgd1na2vs0mg"},{"bike_id":"195f1d1e-36bb-48d2-9a0b-ee215f42c586","system_id":"levelo_inurba_marseille","lat":43.24474,"lon":5.42534,"is_reserved":false,"is_disabled":false,"rental_uris":{"android":"levelo://app?vid=195f1d1e-36bb-48d2-9a0b-ee215f42c586","ios":"levelo://app?vid=195f1d1e-36bb-48d2-9a0b-ee215f42c586"},"vehicle_type_id":"4","last_reported":1781385953,"current_range_meters":6800,"station_id":"st_d4a3vfp97mjs738cd8kg","pricing_plan_id":"cebpf4jnsgd1na2vs0mg"},{"bike_id":"e5f5219b-4fa8-4f93-a7ac-f1f937d6804d","system_id":"levelo_inurba_marseille","lat":43.29602,"lon":5.38097,"is_reserved":false,"is_disabled":false,"rental_uris":{"android":"levelo://app?vid=e5f5219b-4fa8-4f93-a7ac-f1f937d6804d","ios":"levelo://app?vid=e5f5219b-4fa8-4f93-a7ac-f1f937d6804d"},"vehicle_type_id":"4","last_reported":1781385953,"current_range_meters":6800,"station_id":"ce4bgl12rcd13ifvqbo0","pricing_plan_id":"cebpf4jnsgd1na2vs0mg"},{"bike_id":"2d5036af-f9df-45c6-97e4-648868345309","system_id":"levelo_inurba_marseille","lat":43.33191,"lon":5.38965,"is_reserved":false,"is_disabled":false,"rental_uris":{"android":"levelo://app?vid=2d5036af-f9df-45c6-97e4-648868345309","ios":"levelo://app?vid=2d5036af-f9df-45c6-97e4-648868345309"},"vehicle_type_id":"4","last_reported":1781385953,"current_range_meters":6800,"station_id":"","pricing_plan_id":"cebpf4jnsgd1na2vs0mg"},{"bike_id":"ff3909c4-f7ab-4424-a8cf-c9d071f41155","system_id":"levelo_inurba_marseille","lat":43.2857,"lon":5.3949,"is_reserved":false,"is_disabled":false,"rental_uris":{"android":"levelo://app?vid=ff3909c4-f7ab-4424-a8cf-c9d071f41155","ios":"levelo://app?vid=ff3909c4-f7ab-4424-a8cf-c9d071f41155"},"vehicle_type_id":"4","last_reported":1781385953,"current_range_meters":6800,"station_id":"ce4bh292rcd13ifvqdg0","pricing_plan_id":"cebpf4jnsgd1na2vs0mg"},{"bike_id":"ec7ff123-2191-49c9-b4f8-c9b1016b4d1d","system_id":"levelo_inurba_marseille","lat":43.33543,"lon":5.37435,"is_reserved":false,"is_disabled":false,"rental_uris":{"android":"levelo://app?vid=ec7ff123-2191-49c9-b4f8-c9b1016b4d1d","ios":"levelo://app?vid=ec7ff123-2191-49c9-b4f8-c9b1016b4d1d"},"vehicle_type_id":"4","last_reported":1781385953,"current_range_meters":6800,"station_id":"st_d46tts09ee8s73dlu43g","pricing_plan_id":"cebpf4jnsgd1na2vs0mg"},{"bike_id":"3964cfec-2447-4c38-a9ab-5ebac4f72b6e","system_id":"levelo_inurba_marseille","lat":43.23203,"lon":5.35552,"is_reserved":false,"is_disabled":false,"rental_uris":{"android":"levelo://app?vid=3964cfec-2447-4c38-a9ab-5ebac4f72b6e","ios":"levelo://app?vid=3964cfec-2447-4c38-a9ab-5ebac4f72b6e"},"vehicle_type_id":"4","last_reported":1781385953,"current_range_meters":6800,"station_id":"ce4bhu92rcd13ifvqi70","pricing_plan_id":"cebpf4jnsgd1na2vs0mg"},{"bike_id":"db007873-9635-401d-abcf-9b0d07ab4d1f","system_id":"levelo_inurba_marseille","lat":43.30925,"lon":5.39045,"is_reserved":false,"is_disabled":false,"rental_uris":{"android":"levelo://app?vid=db007873-9635-401d-abcf-9b0d07ab4d1f","ios":"levelo://app?vid=db007873-9635-401d-abcf-9b0d07ab4d1f"},"vehicle_type_id":"4","last_reported":1781385953,"current_range_meters":6800,"station_id":"ce4bgup2rcd13ifvqco0","pricing_plan_id":"cebpf4jnsgd1na2vs0mg"},{"bike_id":"e91d4c37-49e1-4eb2-811e-d4c855f1b23c","system_id":"levelo_inurba_marseille","lat":43.316971,"lon":5.377414,"is_reserved":false,"is_disabled":false,"rental_uris":{"android":"levelo://app?vid=e91d4c37-49e1-4eb2-811e-d4c855f1b23c","ios":"levelo://app?vid=e91d4c37-49e1-4eb2-811e-d4c855f1b23c"},"vehicle_type_id":"4","last_reported":1781385953,"current_range_meters":6800,"station_id":"","pricing_plan_id":"cebpf4jnsgd1na2vs0mg"},{"bike_id":"852f6529-8e90-4824-a2b8-bd1682bf7a5c","system_id":"levelo_inurba_marseille","lat":43.290981,"lon":5.381409,"is_reserved":false,"is_disabled":false,"rental_uris":{"android":"levelo://app?vid=852f6529-8e90-4824-a2b8-bd1682bf7a5c","ios":"levelo://app?vid=852f6529-8e90-4824-a2b8-bd1682bf7a5c"},"vehicle_type_id":"4","last_reported":1781385953,"current_range_meters":6800,"station_id":"ce4bh512rcd13ifvqe2g","pricing_plan_id":"cebpf4jnsgd1na2vs0mg"},{"bike_id":"cb890f1c-f7db-4de7-bea0-bc63f6807b19","system_id":"levelo_inurba_marseille","lat":43.30767,"lon":5.38145,"is_reserved":false,"is_disabled":false,"rental_uris":{"android":"levelo://app?vid=cb890f1c-f7db-4de7-bea0-bc63f6807b19","ios":"levelo://app?vid=cb890f1c-f7db-4de7-bea0-bc63f6807b19"},"vehicle_type_id":"4","last_reported":1781385953,"current_range_meters":6800,"station_id":"ce4bgt12rcd13ifvqce0","pricing_plan_id":"cebpf4jnsgd1na2vs0mg"},{"bike_id":"de1aa6e0-b781-47d6-b5b7-aeceeaa52c8d","system_id":"levelo_inurba_marseille","lat":43.29106,"lon":5.37204,"is_reserved":false,"is_disabled":true,"rental_uris":{"android":"levelo://app?vid=de1aa6e0-b781-47d6-b5b7-aeceeaa52c8d","ios":"levelo://app?vid=de1aa6e0-b781-47d6-b5b7-aeceeaa52c8d"},"vehicle_type_id":"4","last_reported":1781385953,"current_range_meters":6800,"station_id":"","pricing_plan_id":"cebpf4jnsgd1na2vs0mg"},{"bike_id":"bc29c7d4-6340-4889-a3eb-b6e9d10cec6e","system_id":"levelo_inurba_marseille","lat":43.26029,"lon":5.37544,"is_reserved":false,"is_disabled":false,"rental_uris":{"android":"levelo://app?vid=bc29c7d4-6340-4889-a3eb-b6e9d10cec6e","ios":"levelo://app?vid=bc29c7d4-6340-4889-a3eb-b6e9d10cec6e"},"vehicle_type_id":"4","last_reported":1781385953,"current_range_meters":6800,"station_id":"ce4bhgh2rcd13ifvqfa0","pricing_plan_id":"cebpf4jnsgd1na2vs0mg"},{"bike_id":"bbffc1db-a414-40cf-a59e-778686fc93d1","system_id":"levelo_inurba_marseille","lat":43.22568,"lon":5.4162,"is_reserved":false,"is_disabled":false,"rental_uris":{"android":"levelo://app?vid=bbffc1db-a414-40cf-a59e-778686fc93d1","ios":"levelo://app?vid=bbffc1db-a414-40cf-a59e-778686fc93d1"},"vehicle_type_id":"4","last_reported":1781385953,"current_range_meters":6800,"station_id":"st_d2o4gvlbi1j2169b742g","pricing_plan_id":"cebpf4jnsgd1na2vs0mg"},{"bike_id":"4e4a7a0b-3306-4fbf-b261-5b0620384373","system_id":"levelo_inurba_marseille","lat":43.26549,"lon":5.37287,"is_reserved":false,"is_disabled":false,"rental_uris":{"android":"levelo://app?vid=4e4a7a0b-3306-4fbf-b261-5b0620384373","ios":"levelo://app?vid=4e4a7a0b-3306-4fbf-b261-5b0620384373"},"vehicle_type_id":"4","last_reported":1781385953,"current_range_meters":6800,"station_id":"ce4bhg12rcd13ifvqf70","pricing_plan_id":"cebpf4jnsgd1na2vs0mg"},{"bike_id":"c114e69d-383c-4b2b-8d78-15befd4bcf89","system_id":"levelo_inurba_marseille","lat":43.26185,"lon":5.37464,"is_reserved":false,"is_disabled":false,"rental_uris":{"android":"levelo://app?vid=c114e69d-383c-4b2b-8d78-15befd4bcf89","ios":"levelo://app?vid=c114e69d-383c-4b2b-8d78-15befd4bcf89"},"vehicle_type_id":"4","last_reported":1781385953,"current_range_meters":6800,"station_id":"ce4bhgp2rcd13ifvqfc0","pricing_plan_id":"cebpf4jnsgd1na2vs0mg"},{"bike_id":"cf11dd40-b113-45d9-8d41-8d04b849c2c4","system_id":"levelo_inurba_marseille","lat":43.2911,"lon":5.42776,"is_reserved":false,"is_disabled":false,"rental_uris":{"android":"levelo://app?vid=cf11dd40-b113-45d9-8d41-8d04b849c2c4","ios":"levelo://app?vid=cf11dd40-b113-45d9-8d41-8d04b849c2c4"},"vehicle_type_id":"4","last_reported":1781385953,"current_range_meters":6800,"station_id":"","pricing_plan_id":"cebpf4jnsgd1na2vs0mg"},{"bike_id":"eaf7b6af-4b59-4c2d-9b24-3b2ba05e4160","system_id":"levelo_inurba_marseille","lat":43.31652,"lon":5.37645,"is_reserved":false,"is_disabled":false,"rental_uris":{"android":"levelo://app?vid=eaf7b6af-4b59-4c2d-9b24-3b2ba05e4160","ios":"levelo://app?vid=eaf7b6af-4b59-4c2d-9b24-3b2ba05e4160"},"vehicle_type_id":"4","last_reported":1781385953,"current_range_meters":6800,"station_id":"","pricing_plan_id":"cebpf4jnsgd1na2vs0mg"},{"bike_id":"dd2949f1-8f5a-4156-b19c-bdf7e2f369bc","system_id":"levelo_inurba_marseille","lat":43.30239,"lon":5.4005,"is_reserved":false,"is_disabled":false,"rental_uris":{"android":"levelo://app?vid=dd2949f1-8f5a-4156-b19c-bdf7e2f369bc","ios":"levelo://app?vid=dd2949f1-8f5a-4156-b19c-bdf7e2f369bc"},"vehicle_type_id":"4","last_reported":1781385953,"current_range_meters":6800,"station_id":"ce4bgvh2rcd13ifvqcs0","pricing_plan_id":"cebpf4jnsgd1na2vs0mg"},{"bike_id":"db833652-2508-4055-8c7b-bbd195a6ce2c","system_id":"levelo_inurba_marseille","lat":43.28107,"lon":5.37834,"is_reserved":false,"is_disabled":false,"rental_uris":{"android":"levelo://app?vid=db833652-2508-4055-8c7b-bbd195a6ce2c","ios":"levelo://app?vid=db833652-2508-4055-8c7b-bbd195a6ce2c"},"vehicle_type_id":"4","last_reported":1781385953,"current_range_meters":6800,"station_id":"ce4bha12rcd13ifvqee0","pricing_plan_id":"cebpf4jnsgd1na2vs0mg"},{"bike_id":"4717f97b-786f-45c4-a893-898932632639","system_id":"levelo_inurba_marseille","lat":43.27841,"lon":5.39206,"is_reserved":false,"is_disabled":false,"rental_uris":{"android":"levelo://app?vid=4717f97b-786f-45c4-a893-898932632639","ios":"levelo://app?vid=4717f97b-786f-45c4-a893-898932632639"},"vehicle_type_id":"4","last_reported":1781385953,"current_range_meters":6800,"station_id":"ce4bhjp2rcd13ifvqga0","pricing_plan_id":"cebpf4jnsgd1na2vs0mg"},{"bike_id":"56c77742-199f-430c-a69a-0657472af381","system_id":"levelo_inurba_marseille","lat":43.26015,"lon":5.3755,"is_reserved":false,"is_disabled":false,"rental_uris":{"android":"levelo://app?vid=56c77742-199f-430c-a69a-0657472af381","ios":"levelo://app?vid=56c77742-199f-430c-a69a-0657472af381"},"vehicle_type_id":"4","last_reported":1781385953,"current_range_meters":6800,"station_id":"ce4bhgh2rcd13ifvqfa0","pricing_plan_id":"cebpf4jnsgd1na2vs0mg"},