{"last_updated":1732328001,"ttl":60,"version":"2.2","data":{"bikes":[{"bike_id":"97abb17a-559b-4f99-b2ac-38a314e03a43","system_id":"levelo_inurba_marseille","lat":43.32337,"lon":5.40619,"is_reserved":false,"is_disabled":false,"rental_uris":{"android":"levelo://app?vid=97abb17a-559b-4f99-b2ac-38a314e03a43","ios":"levelo://app?vid=97abb17a-559b-4f99-b2ac-38a314e03a43"},"vehicle_type_id":"4","last_reported":1732328002,"current_range_meters":34800,"station_id":"ce4bhq92rcd13ifvqhjg","pricing_plan_id":"cebpf4jnsgd1na2vs0mg"},{"bike_id":"1bad90ef-5210-48b5-bb4a-ff836e9bb7cb","system_id":"levelo_inurba_marseille","lat":43.28044,"lon":5.36947,"is_reserved":false,"is_disabled":false,"rental_uris":{"android":"levelo://app?vid=1bad90ef-5210-48b5-bb4a-ff836e9bb7cb","ios":"levelo://app?vid=1bad90ef-5210-48b5-bb4a-ff836e9bb7cb"},"vehicle_type_id":"4","last_reported":1732328002,"current_range_meters":39200,"station_id":"ce4bha12rcd13ifvqef0","pricing_plan_id":"cebpf4jnsgd1na2vs0mg"},{"bike_id":"e23b6c4c-d27e-407e-a72b-e3ea9129fcf8","system_id":"levelo_inurba_marseille","lat":43.32361,"lon":5.38901,"is_reserved":false,"is_disabled":false,"rental_uris":{"android":"levelo://app?vid=e23b6c4c-d27e-407e-a72b-e3ea9129fcf8","ios":"levelo://app?vid=e23b6c4c-d27e-407e-a72b-e3ea9129fcf8"},"vehicle_type_id":"4","last_reported":1732328002,"current_range_meters":33200,"station_id":"ce4bhqp2rcd13ifvqhog","pricing_plan_id":"cebpf4jnsgd1na2vs0mg"},{"bike_id":"5e09b906-ba2b-4d6a-be28-2900ad7ac8bf","system_id":"levelo_inurba_marseille","lat":43.2319,"lon":5.39982,"is_reserved":false,"is_disabled":false,"rental_uris":{"android":"levelo://app?vid=5e09b906-ba2b-4d6a-be28-2900ad7ac8bf","ios":"levelo://app?vid=5e09b906-ba2b-4d6a-be28-2900ad7ac8bf"},"vehicle_type_id":"4","last_reported":1732328002,"current_range_meters":37600,"station_id":"ce4bhn12rcd13ifvqgqg","pricing_plan_id":"cebpf4jnsgd1na2vs0mg"},{"bike_id":"216bffcf-1b87-4e7e-9ea8-7ffd8995fe38","system_id":"levelo_inurba_marseille","lat":43.28925,"lon":5.38414,"is_reserved":false,"is_disabled":true,"rental_uris":{"android":"levelo://app?vid=216bffcf-1b87-4e7e-9ea8-7ffd8995fe38","ios":"levelo://app?vid=216bffcf-1b87-4e7e-9ea8-7ffd8995fe38"},"vehicle_type_id":"4","last_reported":1732328002,"current_range_meters":15200,"station_id":"ce4bh612rcd13ifvqe6g","pricing_plan_id":"cebpf4jnsgd1na2vs0mg"},{"bike_id":"8d79f566-273b-477b-b80b-53931804a37f","system_id":"levelo_inurba_marseille","lat":43.25116,"lon":5.40339,"is_reserved":false,"is_disabled":false,"rental_uris":{"android":"levelo://app?vid=8d79f566-273b-477b-b80b-53931804a37f","ios":"levelo://app?vid=8d79f566-273b-477b-b80b-53931804a37f"},"vehicle_type_id":"4","last_reported":1732328002,"current_range_meters":40000,"station_id":"ce4bhlh2rcd13ifvqgig","pricing_plan_id":"cebpf4jnsgd1na2vs0mg"},{"bike_id":"08f392b7-fb0b-40fb-b32a-822f164ec237","system_id":"levelo_inurba_marseille","lat":43.26909,"lon":5.40249,"is_reserved":false,"is_disabled":false,"rental_uris":{"android":"levelo://app?vid=08f392b7-fb0b-40fb-b32a-822f164ec237","ios":"levelo://app?vid=08f392b7-fb0b-40fb-b32a-822f164ec237"},"vehicle_type_id":"4","last_reported":1732328002,"current_range_meters":8800,"station_id":"cjm6bp8fraef2m0cb0m0","pricing_plan_id":"cebpf4jnsgd1na2vs0mg"},{"bike_id":"f10b490d-f472-4d0b-81a7-539bda4358a3","system_id":"levelo_inurba_marseille","lat":43.31162,"lon":5.38716,"is_reserved":false,"is_disabled":false,"rental_uris":{"android":"levelo://app?vid=f10b490d-f472-4d0b-81a7-539bda4358a3","ios":"levelo://app?vid=f10b490d-f472-4d0b-81a7-539bda4358a3"},"vehicle_type_id":"4","last_reported":1732328002,"current_range_meters":32800,"station_id":"ce4bgv12rcd13ifvqcp0","pricing_plan_id":"cebpf4jnsgd1na2vs0mg"},{"bike_id":"81cbecd7-365c-4a9c-9de6-a98cb001a78f","system_id":"levelo_inurba_marseille","lat":43.31072,"lon":5.38345,"is_reserved":false,"is_disabled":false,"rental_uris":{"android":"levelo://app?vid=81cbecd7-365c-4a9c-9de6-a98cb001a78f","ios":"levelo://app?vid=81cbecd7-365c-4a9c-9de6-a98cb001a78f"},"vehicle_type_id":"4","last_reported":1732328002,"current_range_meters":36800,"station_id":"ce4bgv92rcd13ifvqcr0","pricing_plan_id":"cebpf4jnsgd1na2vs0mg"},{"bike_id":"f161b73c-800a-452d-afd1-5f6db18abd34","system_id":"levelo_inurba_marseille","lat":43.27618,"lon":5.36125,"is_reserved":false,"is_disabled":false,"rental_uris":{"android":"levelo://app?vid=f161b73c-800a-452d-afd1-5f6db18abd34","ios":"levelo://app?vid=f161b73c-800a-452d-afd1-5f6db18abd34"},"vehicle_type_id":"4","last_reported":1732328002,"current_range_meters":14400,"station_id":"ce4bgj92rcd13ifvqbe0","pricing_plan_id":"cebpf4jnsgd1na2vs0mg"},{"bike_id":"8a121b48-1f5b-4c33-b9ca-47a97d05b778","system_id":"levelo_inurba_marseille","lat":43.32485,"lon":5.36544,"is_reserved":false,"is_disabled":false,"rental_uris":{"android":"levelo://app?vid=8a121b48-1f5b-4c33-b9ca-47a97d05b778","ios":"levelo://app?vid=8a121b48-1f5b-4c33-b9ca-47a97d05b778"},"vehicle_type_id":"4","last_reported":1732328002,"current_range_meters":12000,"station_id":"ce4bhs12rcd13ifvqhvg","pricing_plan_id":"cebpf4jnsgd1na2vs0mg"},{"bike_id":"0ed1c9d9-98fc-49fd-805d-35baff4167ef","system_id":"levelo_inurba_marseille","lat":43.29529,"lon":5.39385,"is_reserved":false,"is_disabled":false,"rental_uris":{"android":"levelo://app?vid=0ed1c9d9-98fc-49fd-805d-35baff4167ef","ios":"levelo://app?vid=0ed1c9d9-98fc-49fd-805d-35baff4167ef"},"vehicle_type_id":"4","last_reported":1732328002,"current_range_meters":38400,"station_id":"ce4bh292rcd13ifvqdf0","pricing_plan_id":"cebpf4jnsgd1na2vs0mg"},{"bike_id":"11114092-3108-4d5a-be35-06e9090d2527","system_id":"levelo_inurba_marseille","lat":43.26823,"lon":5.41108,"is_reserved":false,"is_disabled":false,"rental_uris":{"android":"levelo://app?vid=11114092-3108-4d5a-be35-06e9090d2527","ios":"levelo://app?vid=11114092-3108-4d5a-be35-06e9090d2527"},"vehicle_type_id":"4","last_reported":1732328002,"current_range_meters":26000,"station_id":"","pricing_plan_id":"cebpf4jnsgd1na2vs0mg"},{"bike_id":"5247f402-6312-4ef7-9fa1-11a1830f043f","system_id":"levelo_inurba_marseille","lat":43.30595,"lon":5.39357,"is_reserved":false,"is_disabled":false,"rental_uris":{"android":"levelo://app?vid=5247f402-6312-4ef7-9fa1-11a1830f043f","ios":"levelo://app?vid=5247f402-6312-4ef7-9fa1-11a1830f043f"},"vehicle_type_id":"4","last_reported":1732328002,"current_range_meters":38000,"station_id":"ce4bh0p2rcd13ifvqd80","pricing_plan_id":"cebpf4jnsgd1na2vs0mg"},{"bike_id":"cc45001e-86ba-42cc-9993-ed5261abbfe0","system_id":"levelo_inurba_marseille","lat":43.32356,"lon":5.38876,"is_reserved":false,"is_disabled":false,"rental_uris":{"android":"levelo://app?vid=cc45001e-86ba-42cc-9993-ed5261abbfe0","ios":"levelo://app?vid=cc45001e-86ba-42cc-9993-ed5261abbfe0"},"vehicle_type_id":"4","last_reported":1732328002,"current_range_meters":10000,"station_id":"ce4bhqp2rcd13ifvqhog","pricing_plan_id":"cebpf4jnsgd1na2vs0mg"},{"bike_id":"76681a5e-d4d3-48cc-8e13-8277bff12ebc","system_id":"levelo_inurba_marseille","lat":43.27824,"lon":5.39219,"is_reserved":false,"is_disabled":false,"rental_uris":{"android":"levelo://app?vid=76681a5e-d4d3-48cc-8e13-8277bff12ebc","ios":"levelo://app?vid=76681a5e-d4d3-48cc-8e13-8277bff12ebc"},"vehicle_type_id":"4","last_reported":1732328002,"current_range_meters":39200,"station_id":"ce4bhjp2rcd13ifvqga0","pricing_plan_id":"cebpf4jnsgd1na2vs0mg"},{"bike_id":"5d39d563-1de5-4b84-8127-7326954dce5a","system_id":"levelo_inurba_marseille","lat":43.27371,"lon":5.3625,"is_reserved":false,"is_disabled":false,"rental_uris":{"android":"levelo://app?vid=5d39d563-1de5-4b84-8127-7326954dce5a","ios":"levelo://app?vid=5d39d563-1de5-4b84-8127-7326954dce5a"},"vehicle_type_id":"4","last_reported":1732328002,"current_range_meters":32800,"station_id":"ce4bhbh2rcd13ifvqeo0","pricing_plan_id":"cebpf4jnsgd1na2vs0mg"},{"bike_id":"c0755ad7-8353-40d1-98a4-bba43ca0e3ab","system_id":"levelo_inurba_marseille","lat":43.33741,"lon":5.39186,"is_reserved":false,"is_disabled":false,"rental_uris":{"android":"levelo://app?vid=c0755ad7-8353-40d1-98a4-bba43ca0e3ab","ios":"levelo://app?vid=c0755ad7-8353-40d1-98a4-bba43ca0e3ab"},"vehicle_type_id":"4","last_reported":1732328002,"current_range_meters":8800,"station_id":"ce4bhr92rcd13ifvqhsg","pricing_plan_id":"cebpf4jnsgd1na2vs0mg"},{"bike_id":"273f2813-9121-4db9-8cb6-58ff9ecb43e6","system_id":"levelo_inurba_marseille","lat":43.28617,"lon":5.35102,"is_reserved":false,"is_disabled":false,"rental_uris":{"android":"levelo://app?vid=273f2813-9121-4db9-8cb6-58ff9ecb43e6","ios":"levelo://app?vid=273f2813-9121-4db9-8cb6-58ff9ecb43e6"},"vehicle_type_id":"4","last_reported":1732328002,"current_range_meters":27600,"station_id":"ce4bhch2rcd13ifvqeug","pricing_plan_id":"cebpf4jnsgd1na2vs0mg"},{"bike_id":"92aca063-e395-402a-a362-69eb5641c33c","system_id":"levelo_inurba_marseille","lat":43.28616,"lon":5.35107,"is_reserved":false,"is_disabled":false,"rental_uris":{"android":"levelo://app?vid=92aca063-e395-402a-a362-69eb5641c33c","ios":"levelo://app?vid=92aca063-e395-402a-a362-69eb5641c33c"},"vehicle_type_id":"4","last_reported":1732328002,"current_range_meters":7200,"station_id":"ce4bhch2rcd13ifvqeug","pricing_plan_id":"cebpf4jnsgd1na2vs0mg"},{"bike_id":"9b280c9c-fd49-45c4-951e-8b6e17f414f5","system_id":"levelo_inurba_marseille","lat":43.25868,"lon":5.39899,"is_reserved":false,"is_disabled":false,"rental_uris":{"android":"levelo://app?vid=9b280c9c-fd49-45c4-951e-8b6e17f414f5","ios":"levelo://app?vid=9b280c9c-fd49-45c4-951e-8b6e17f414f5"},"vehicle_type_id":"4","last_reported":1732328002,"current_range_meters":38800,"station_id":"ce4bhl92rcd13ifvqghg","pricing_plan_id":"cebpf4jnsgd1na2vs0mg"},{"bike_id":"648fea4c-d15a-4229-9feb-bafe88cbbe70","system_id":"levelo_inurba_marseille","lat":43.27948,"lon":5.4175,"is_reserved":false,"is_disabled":true,"rental_uris":{"android":"levelo://app?vid=648fea4c-d15a-4229-9feb-bafe88cbbe70","ios":"levelo://app?vid=648fea4c-d15a-4229-9feb-bafe88cbbe70"},"vehicle_type_id":"4","last_reported":1732328002,"current_range_meters":0,"station_id":"","pricing_plan_id":"cebpf4jnsgd1na2vs0mg"},{"bike_id":"561692a1-369c-4ac8-a04a-5193554f2e90","system_id":"levelo_inurba_marseille","lat":43.32101,"lon":5.36798,"is_reserved":false,"is_disabled":false,"rental_uris":{"android":"levelo://app?vid=561692a1-369c-4ac8-a04a-5193554f2e90","ios":"levelo://app?vid=561692a1-369c-4ac8-a04a-5193554f2e90"},"vehicle_type_id":"4","last_reported":1732328002,"current_range_meters":27600,"station_id":"ce4bhrh2rcd13ifvqhug","pricing_plan_id":"cebpf4jnsgd1na2vs0mg"},{"bike_id":"a3dfa29f-d880-4cbe-b909-b4e217158e03","system_id":"levelo_inurba_marseille","lat":43.27179,"lon":5.4099,"is_reserved":false,"is_disabled":true,"rental_uris":{"android":"levelo://app?vid=a3dfa29f-d880-4cbe-b909-b4e217158e03","ios":"levelo://app?vid=a3dfa29f-d880-4cbe-b909-b4e217158e03"},"vehicle_type_id":"4","last_reported":1732328002,"current_range_meters":36400,"station_id":"ce4bhl12rcd13ifvqgf0","pricing_plan_id":"cebpf4jnsgd1na2vs0mg"},{"bike_id":"d2321b4c-ae3a-4b43-8bcd-12cb7984481d","system_id":"levelo_inurba_marseille","lat":43.30744,"lon":5.37022,"is_reserved":false,"is_disabled":true,"rental_uris":{"android":"levelo://app?vid=d2321b4c-ae3a-4b43-8bcd-12cb7984481d","ios":"levelo://app?vid=d2321b4c-ae3a-4b43-8bcd-12cb7984481d"},"vehicle_type_id":"4","last_reported":1732328002,"current_range_meters":13600,"station_id":"","pricing_plan_id":"cebpf4jnsgd1na2vs0mg"},{"bike_id":"3353ab12-ad45-459d-8c9f-d7450d4ff268","system_id":"levelo_inurba_marseille","lat":43.28706,"lon":5.38668,"is_reserved":false,"is_disabled":false,"rental_uris":{"android":"levelo://app?vid=3353ab12-ad45-459d-8c9f-d7450d4ff268","ios":"levelo://app?vid=3353ab12-ad45-459d-8c9f-d7450d4ff268"},"vehicle_type_id":"4","last_reported":1732328002,"current_range_meters":36000,"station_id":"ce4bh492rcd13ifvqdug","pricing_plan_id":"cebpf4jnsgd1na2vs0mg"},{"bike_id":"18ea28b5-43b6-4ead-be4b-6aa05d8078c7","system_id":"levelo_inurba_marseille","lat":43.28077,"lon":5.39658,"is_reserved":false,"is_disabled":false,"rental_uris":{"android":"levelo://app?vid=18ea28b5-43b6-4ead-be4b-6aa05d8078c7","ios":"levelo://app?vid=18ea28b5-43b6-4ead-be4b-6aa05d8078c7"},"vehicle_type_id":"4","last_reported":1732328002,"current_range_meters":38000,"station_id":"ce4bho12rcd13ifvqh2g","pricing_plan_id":"cebpf4jnsgd1na2vs0mg"},{"bike_id":"094e5622-4a3c-4269-bfdc-c0a26831c38f","system_id":"levelo_inurba_marseille","lat":43.30818,"lon":5.435,"is_reserved":false,"is_disabled":false,"rental_uris":{"android":"levelo://app?vid=094e5622-4a3c-4269-bfdc-c0a26831c38f","ios":"levelo://app?vid=094e5622-4a3c-4269-bfdc-c0a26831c38f"},"vehicle_type_id":"4","last_reported":1732328002,"current_range_meters":36400,"station_id":"ce4bhph2rcd13ifvqheg","pricing_plan_id":"cebpf4jnsgd1na2vs0mg"},{"bike_id":"9233930d-3b59-4084-a395-d5e12919db50","system_id":"levelo_inurba_marseille","lat":43.26936,"lon":5.40266,"is_reserved":false,"is_disabled":false,"rental_uris":{"android":"levelo://app?vid=9233930d-3b59-4084-a395-d5e12919db50","ios":"levelo://app?vid=9233930d-3b59-4084-a395-d5e12919db50"},"vehicle_type_id":"4","last_reported":1732328002,"current_range_meters":20800,"station_id":"cjm6bp8fraef2m0cb0m0","pricing_plan_id":"cebpf4jnsgd1na2vs0mg"},{"bike_id":"5c3000a0-a190-4007-a723-aa2707fd1ce3","system_id":"levelo_inurba_marseille","lat":43.22934,"lon":5.35382,"is_reserved":false,"is_disabled":false,"rental_uris":{"android":"levelo://app?vid=5c3000a0-a190-4007-a723-aa2707fd1ce3","ios":"levelo://app?vid=5c3000a0-a190-4007-a723-aa2707fd1ce3"},"vehicle_type_id":"4","last_reported":1732328002,"current_range_meters":38800,"station_id":"cpo3532slgdg3j2ikp40","pricing_plan_id":"cebpf4jnsgd1na2vs0mg"},{"bike_id":"1c5fdcc2-ba84-4c46-bf38-3d224d434b52","system_id":"levelo_inurba_marseille","lat":43.32341,"lon":5.40611,"is_reserved":false,"is_disabled":false,"rental_uris":{"android":"levelo://app?vid=1c5fdcc2-ba84-4c46-bf38-3d224d434b52","ios":"levelo://app?vid=1c5fdcc2-ba84-4c46-bf38-3d224d434b52"},"vehicle_type_id":"4","last_reported":1732328002,"current_range_meters":37600,"station_id":"ce4bhq92rcd13ifvqhjg","pricing_plan_id":"cebpf4jnsgd1na2vs0mg"},{"bike_id":"52ccec0c-5db0-4d60-a42b-9b73a43e2d9c","system_id":"levelo_inurba_marseille","lat":43.306,"lon":5.39351,"is_reserved":false,"is_disabled":false,"rental_uris":{"android":"levelo://app?vid=52ccec0c-5db0-4d60-a42b-9b73a43e2d9c","ios":"levelo://app?vid=52ccec0c-5db0-4d60-a42b-9b73a43e2d9c"},"vehicle_type_id":"4","last_reported":1732328002,"current_range_meters":22000,"station_id":"ce4bh0p2rcd13ifvqd80","pricing_plan_id":"cebpf4jnsgd1na2vs0mg"},{"bike_id":"1fdcdbac-b6e5-46db-8e02-32707719fed3","system_id":"levelo_inurba_marseille","lat":43.28695,"lon":5.39999,"is_reserved":false,"is_disabled":false,"rental_uris":{"android":"levelo://app?vid=1fdcdbac-b6e5-46db-8e02-32707719fed3","ios":"levelo://app?vid=1fdcdbac-b6e5-46db-8e02-32707719fed3"},"vehicle_type_id":"4","last_reported":1732328002,"current_range_meters":16000,"station_id":"ce4bho92rcd13ifvqh3g","pricing_plan_id":"cebpf4jnsgd1na2vs0mg"},{"bike_id":"1f71c2f7-653f-46e6-9904-1c2a214963bc","system_id":"levelo_inurba_marseille","lat":43.30498,"lon":5.37312,"is_reserved":false,"is_disabled":false,"rental_uris":{"android":"levelo://app?vid=1f71c2f7-653f-46e6-9904-1c2a214963bc","ios":"levelo://app?vid=1f71c2f7-653f-46e6-9904-1c2a214963bc"},"vehicle_type_id":"4","last_reported":1732328002,"current_range_meters":4800,"station_id":"","pricing_plan_id":"cebpf4jnsgd1na2vs0mg"},{"bike_id":"5b1e2268-6898-4762-b21b-90916d0b09cc","system_id":"levelo_inurba_marseille","lat":43.31062,"lon":5.3836,"is_reserved":false,"is_disabled":false,"rental_uris":{"android":"levelo://app?vid=5b1e2268-6898-4762-b21b-90916d0b09cc","ios":"levelo://app?vid=5b1e2268-6898-4762-b21b-90916d0b09cc"},"vehicle_type_id":"4","last_reported":1732328002,"current_range_meters":20000,"station_id":"ce4bgv92rcd13ifvqcr0","pricing_plan_id":"cebpf4jnsgd1na2vs0mg"},{"bike_id":"3f4b586a-f19b-437c-a62a-b21b76562db2","system_id":"levelo_inurba_marseille","lat":43.23186,"lon":5.39987,"is_reserved":false,"is_disabled":false,"rental_uris":{"android":"levelo://app?vid=3f4b586a-f19b-437c-a62a-b21b76562db2","ios":"levelo://app?vid=3f4b586a-f19b-437c-a62a-b21b76562db2"},"vehicle_type_id":"4","last_reported":1732328002,"current_range_meters":37600,"station_id":"ce4bhn12rcd13ifvqgqg","pricing_plan_id":"cebpf4jnsgd1na2vs0mg"},{"bike_id":"7c9c6c4e-4e7f-441c-9857-1db4a8d60fa3","system_id":"levelo_inurba_marseille","lat":43.27906,"lon":5.38,"is_reserved":false,"is_disabled":false,"rental_uris":{"android":"levelo://app?vid=7c9c6c4e-4e7f-441c-9857-1db4a8d60fa3","ios":"levelo://app?vid=7c9c6c4e-4e7f-441c-9857-1db4a8d60fa3"},"vehicle_type_id":"4","last_reported":1732328002,"current_range_meters":40000,"station_id":"ce4bhf92rcd13ifvqf50","pricing_plan_id":"cebpf4jnsgd1na2vs0mg"},{"bike_id":"0510ebcb-0f92-4bec-9e33-119b63d61a99","system_id":"levelo_inurba_marseille","lat":43.28422,"lon":5.37494,"is_reserved":false,"is_disabled":false,"rental_uris":{"android":"levelo://app?vid=0510ebcb-0f92-4bec-9e33-119b63d61a99","ios":"levelo://app?vid=0510ebcb-0f92-4bec-9e33-119b63d61a99"},"vehicle_type_id":"4","last_reported":1732328002,"current_range_meters":27200,"station_id":"ce4bh412rcd13ifvqds0","pricing_plan_id":"cebpf4jnsgd1na2vs0mg"},{"bike_id":"ff3594ee-f948-4832-9680-599cfdacc368","system_id":"levelo_inurba_marseille","lat":43.2721,"lon":5.40977,"is_reserved":false,"is_disabled":false,"rental_uris":{"android":"levelo://app?vid=ff3594ee-f948-4832-9680-599cfdacc368","ios":"levelo://app?vid=ff3594ee-f948-4832-9680-599cfdacc368"},"vehicle_type_id":"4","last_reported":1732328002,"current_range_meters":38800,"station_id":"ce4bhl12rcd13ifvqgf0","pricing_plan_id":"cebpf4jnsgd1na2vs0mg"},{"bike_id":"9ac996fc-dd35-4df7-85d2-a0685f035032","system_id":"levelo_inurba_marseille","lat":43.30051,"lon":5.40437,"is_reserved":false,"is_disabled":false,"rental_uris":{"android":"levelo://app?vid=9ac996fc-dd35-4df7-85d2-a0685f035032","ios":"levelo://app?vid=9ac996fc-dd35-4df7-85d2-a0685f035032"},"vehicle_type_id":"4","last_reported":1732328002,"current_range_meters":9600,"station_id":"","pricing_plan_id":"cebpf4jnsgd1na2vs0mg"},{"bike_id":"bad19255-994a-4d36-9f5c-6ab145733aba","system_id":"levelo_inurba_marseille","lat":43.3111,"lon":5.37778,"is_reserved":false,"is_disabled":false,"rental_uris":{"android":"levelo://app?vid=bad19255-994a-4d36-9f5c-6ab145733aba","ios":"levelo://app?vid=bad19255-994a-4d36-9f5c-6ab145733aba"},"vehicle_type_id":"4","last_reported":1732328002,"current_range_meters":22400,"station_id":"ce4bgt92rcd13ifvqcg0","pricing_plan_id":"cebpf4jnsgd1na2vs0mg"},{"bike_id":"db096ee3-a548-4661-a18a-686fcedc57f8","system_id":"levelo_inurba_marseille","lat":43.32602,"lon":5.41029,"is_reserved":false,"is_disabled":false,"rental_uris":{"android":"levelo://app?vid=db096ee3-a548-4661-a18a-686fcedc57f8","ios":"levelo://app?vid=db096ee3-a548-4661-a18a-686fcedc57f8"},"vehicle_type_id":"4","last_reported":1732328002,"current_range_meters":8000,"station_id":"","pricing_plan_id":"cebpf4jnsgd1na2vs0mg"},{"bike_id":"1cd0daee-d68a-4e66-9883-fbe67fd8260f","system_id":"levelo_inurba_marseille","lat":43.305794,"lon":5.370686,"is_reserved":false,"is_disabled":true,"rental_uris":{"android":"levelo://app?vid=1cd0daee-d68a-4e66-9883-fbe67fd8260f","ios":"levelo://app?vid=1cd0daee-d68a-4e66-9883-fbe67fd8260f"},"vehicle_type_id":"4","last_reported":1732328002,"current_range_meters":0,"station_id":"","pricing_plan_id":"cebpf4jnsgd1na2vs0mg"},{"bike_id":"3ecd968f-1f7e-4bd4-968d-4e3b4005d51b","system_id":"levelo_inurba_marseille","lat":43.31129,"lon":5.3776,"is_reserved":false,"is_disabled":true,"rental_uris":{"android":"levelo://app?vid=3ecd968f-1f7e-4bd4-968d-4e3b4005d51b","ios":"levelo://app?vid=3ecd968f-1f7e-4bd4-968d-4e3b4005d51b"},"vehicle_type_id":"4","last_reported":1732328002,"current_range_meters":6400,"station_id":"ce4bgt92rcd13ifvqcg0","pricing_plan_id":"cebpf4jnsgd1na2vs0mg"},{"bike_id":"f8c8f789-a0b8-4276-ada7-254ea7665c8b","system_id":"levelo_inurba_marseille","lat":43.31534,"lon":5.3803,"is_reserved":false,"is_disabled":false,"rental_uris":{"android":"levelo://app?vid=f8c8f789-a0b8-4276-ada7-254ea7665c8b","ios":"levelo://app?vid=f8c8f789-a0b8-4276-ada7-254ea7665c8b"},"vehicle_type_id":"4","last_reported":1732328002,"current_range_meters":30400,"station_id":"ce4bhsp2rcd13ifvqi50","pricing_plan_id":"cebpf4jnsgd1na2vs0mg"},{"bike_id":"01b46070-7937-404d-8cbc-1d7290054c10","system_id":"levelo_inurba_marseille","lat":43.2871,"lon":5.3998,"is_reserved":false,"is_disabled":false,"rental_uris":{"android":"levelo://app?vid=01b46070-7937-404d-8cbc-1d7290054c10","ios":"levelo://app?vid=01b46070-7937-404d-8cbc-1d7290054c10"},"vehicle_type_id":"4","last_reported":1732328002,"current_range_meters":16000,"station_id":"ce4bho92rcd13ifvqh3g","pricing_plan_id":"cebpf4jnsgd1na2vs0mg"},{"bike_id":"0ddfa46a-4055-4654-8da1-794fa513a354","system_id":"levelo_inurba_marseille","lat":43.26201,"lon":5.37925,"is_reserved":false,"is_disabled":false,"rental_uris":{"android":"levelo://app?vid=0ddfa46a-4055-4654-8da1-794fa513a354","ios":"levelo://app?vid=0ddfa46a-4055-4654-8da1-794fa513a354"},"vehicle_type_id":"4","last_reported":1732328002,"current_range_meters":8400,"station_id":"ce4bhjp2rcd13ifvqg90","pricing_plan_id":"cebpf4jnsgd1na2vs0mg"},{"bike_id":"0879338c-6d72-4dd3-8762-1d08fc47ae06","system_id":"levelo_inurba_marseille","lat":43.31084,"lon":5.38362,"is_reserved":false,"is_disabled":false,"rental_uris":{"android":"levelo://app?vid=0879338c-6d72-4dd3-8762-1d08fc47ae06","ios":"levelo://app?vid=0879338c-6d72-4dd3-8762-1d08fc47ae06"},"vehicle_type_id":"4","last_reported":1732328002,"current_range_meters":16800,"station_id":"ce4bgv92rcd13ifvqcr0","pricing_plan_id":"cebpf4jnsgd1na2vs0mg"},{"bike_id":"5f900b5d-e9a9-4a4c-a6f8-74a58ba5292b","system_id":"levelo_inurba_marseille","lat":43.31159,"lon":5.38727,"is_reserved":false,"is_disabled":false,"rental_uris":{"android":"levelo://app?vid=5f900b5d-e9a9-4a4c-a6f8-74a58ba5292b","ios":"levelo://app?vid=5f900b5d-e9a9-4a4c-a6f8-74a58ba5292b"},"vehicle_type_id":"4","last_reported":1732328002,"current_range_meters":29600,"station_id":"ce4bgv12rcd13ifvqcp0","pricing_plan_id":"cebpf4jnsgd1na2vs0mg"},{"bike_id":"e35913d4-6d49-4427-a3ca-5d8c461b3395","system_id":"levelo_inurba_marseille","lat":43.29795,"lon":5.39357,"is_reserved":false,"is_disabled":false,"rental_uris":{"android":"levelo://app?vid=e35913d4-6d49-4427-a3ca-5d8c461b3395","ios":"levelo://app?vid=e35913d4-6d49-4427-a3ca-5d8c461b3395"},"vehicle_type_id":"4","last_reported":1732328002,"current_range_meters":38800,"station_id":"chh1huq6cuj3fo74tm60","pricing_plan_id":"cebpf4jnsgd1na2vs0mg"},{"bike_id":"e9d021a9-f81b-4245-b46b-e03c063c72d8","system_id":"levelo_inurba_marseille","lat":43.26202,"lon":5.37915,"is_reserved":false,"is_disabled":false,"rental_uris":{"android":"levelo://app?vid=e9d021a9-f81b-4245-b46b-e03c063c72d8","ios":"levelo://app?vid=e9d021a9-f81b-4245-b46b-e03c063c72d8"},"vehicle_type_id":"4","last_reported":1732328002,"current_range_meters":22400,"station_id":"ce4bhjp2rcd13ifvqg90","pricing_plan_id":"cebpf4jnsgd1na2vs0mg"},{"bike_id":"ebda3721-5c6d-46e9-8115-7271b59f4ecd","system_id":"levelo_inurba_marseille","lat":43.28701,"lon":5.39982,"is_reserved":false,"is_disabled":false,"rental_uris":{"android":"levelo://app?vid=ebda3721-5c6d-46e9-8115-7271b59f4ecd","ios":"levelo://app?vid=ebda3721-5c6d-46e9-8115-7271b59f4ecd"},"vehicle_type_id":"4","last_reported":1732328002,"current_range_meters":34800,"station_id":"ce4bho92rcd13ifvqh3g","pricing_plan_id":"cebpf4jnsgd1na2vs0mg"},{"bike_id":"ac1b3788-b03a-4376-bf72-320fd033ea51","system_id":"levelo_inurba_marseille","lat":43.27663,"lon":5.38905,"is_reserved":false,"is_disabled":true,"rental_uris":{"android":"levelo://app?vid=ac1b3788-b03a-4376-bf72-320fd033ea51","ios":"levelo://app?vid=ac1b3788-b03a-4376-bf72-320fd033ea51"},"vehicle_type_id":"4","last_reported":1732328002,"current_range_meters":6000,"station_id":"ce4bhi12rcd13ifvqfo0","pricing_plan_id":"cebpf4jnsgd1na2vs0mg"},{"bike_id":"6e25e798-43bb-4507-88af-be32772f38e2","system_id":"levelo_inurba_marseille","lat":43.27954,"lon":5.41043,"is_reserved":false,"is_disabled":false,"rental_uris":{"android":"levelo://app?vid=6e25e798-43bb-4507-88af-be32772f38e2","ios":"levelo://app?vid=6e25e798-43bb-4507-88af-be32772f38e2"},"vehicle_type_id":"4","last_reported":1732328002,"current_range_meters":28800,"station_id":"ce4bhnp2rcd13ifvqh0g","pricing_plan_id":"cebpf4jnsgd1na2vs0mg"},{"bike_id":"980b161d-9460-45e9-a439-a006e30a25cb","system_id":"levelo_inurba_marseille","lat":43.29262,"lon":5.40907,"is_reserved":false,"is_disabled":false,"rental_uris":{"android":"levelo://app?vid=980b161d-9460-45e9-a439-a006e30a25cb","ios":"levelo://app?vid=980b161d-9460-45e9-a439-a006e30a25cb"},"vehicle_type_id":"4","last_reported":1732328002,"current_range_meters":9600,"station_id":"ce4bh192rcd13ifvqdc0","pricing_plan_id":"cebpf4jnsgd1na2vs0mg"},{"bike_id":"11714626-edc4-4e4d-b1fc-9696a17f7cf0","system_id":"levelo_inurba_marseille","lat":43.30807,"lon":5.3817,"is_reserved":false,"is_disabled":false,"rental_uris":{"android":"levelo://app?vid=11714626-edc4-4e4d-b1fc-9696a17f7cf0","ios":"levelo://app?vid=11714626-edc4-4e4d-b1fc-9696a17f7cf0"},"vehicle_type_id":"4","last_reported":1732328002,"current_range_meters":29600,"station_id":"ce4bgt12rcd13ifvqce0","pricing_plan_id":"cebpf4jnsgd1na2vs0mg"},{"bike_id":"ebe2b43b-e5bb-4158-835b-e46b2ce0d167","system_id":"levelo_inurba_marseille","lat":43.22927,"lon":5.35375,"is_reserved":false,"is_disabled":false,"rental_uris":{"android":"levelo://app?vid=ebe2b43b-e5bb-4158-835b-e46b2ce0d167","ios":"levelo://app?vid=ebe2b43b-e5bb-4158-835b-e46b2ce0d167"},"vehicle_type_id":"4","last_reported":1732328002,"current_range_meters":32000,"station_id":"cpo3532slgdg3j2ikp40","pricing_plan_id":"cebpf4jnsgd1na2vs0mg"},{"bike_id":"b0d833ef-74ad-422c-a18f-f221948e3091","system_id":"levelo_inurba_marseille","lat":43.25492,"lon":5.37637,"is_reserved":false,"is_disabled":false,"rental_uris":{"android":"levelo://app?vid=b0d833ef-74ad-422c-a18f-f221948e3091","ios":"levelo://app?vid=b0d833ef-74ad-422c-a18f-f221948e3091"},"vehicle_type_id":"4","last_reported":1732328002,"current_range_meters":18000,"station_id":"ce4bhh12rcd13ifvqff0","pricing_plan_id":"cebpf4jnsgd1na2vs0mg"},{"bike_id":"f4c54dd0-a013-4d39-8669-766de3dd4167","system_id":"levelo_inurba_marseille","lat":43.32364,"lon":5.38885,"is_reserved":false,"is_disabled":false,"rental_uris":{"android":"levelo://app?vid=f4c54dd0-a013-4d39-8669-766de3dd4167","ios":"levelo://app?vid=f4c54dd0-a013-4d39-8669-766de3dd4167"},"vehicle_type_id":"4","last_reported":1732328002,"current_range_meters":38400,"station_id":"ce4bhqp2rcd13ifvqhog","pricing_plan_id":"cebpf4jnsgd1na2vs0mg"},{"bike_id":"77023533-0bf4-43b5-9edd-b88f4e071b77","system_id":"levelo_inurba_marseille","lat":43.28695,"lon":5.39952,"is_reserved":false,"is_disabled":false,"rental_uris":{"android":"levelo://app?vid=77023533-0bf4-43b5-9edd-b88f4e071b77","ios":"levelo://app?vid=77023533-0bf4-43b5-9edd-b88f4e071b77"},"vehicle_type_id":"4","last_reported":1732328002,"current_range_meters":7200,"station_id":"ce4bho92rcd13ifvqh3g","pricing_plan_id":"cebpf4jnsgd1na2vs0mg"},{"bike_id":"fa8314ae-1864-43c4-8fa1-c6e47ea1e55c","system_id":"levelo_inurba_marseille","lat":43.32099,"lon":5.36796,"is_reserved":false,"is_disabled":false,"rental_uris":{"android":"levelo://app?vid=fa8314ae-1864-43c4-8fa1-c6e47ea1e55c","ios":"levelo://app?vid=fa8314ae-1864-43c4-8fa1-c6e47ea1e55c"},"vehicle_type_id":"4","last_reported":1732328002,"current_range_meters":29600,"station_id":"ce4bhrh2rcd13ifvqhug","pricing_plan_id":"cebpf4jnsgd1na2vs0mg"},{"bike_id":"4dbda78b-8ea9-4175-9532-9ae620f0e65d","system_id":"levelo_inurba_marseille","lat":43.23182,"lon":5.39985,"is_reserved":false,"is_disabled":false,"rental_uris":{"android":"levelo://app?vid=4dbda78b-8ea9-4175-9532-9ae620f0e65d","ios":"levelo://app?vid=4dbda78b-8ea9-4175-9532-9ae620f0e65d"},"vehicle_type_id":"4","last_reported":1732328002,"current_range_meters":36400,"station_id":"ce4bhn12rcd13ifvqgqg","pricing_plan_id":"cebpf4jnsgd1na2vs0mg"},{"bike_id":"040e42e8-2cbb-496d-ae59-ed997ff0f5d8","system_id":"levelo_inurba_marseille","lat":43.28682,"lon":5.40008,"is_reserved":false,"is_disabled":false,"rental_uris":{"android":"levelo://app?vid=040e42e8-2cbb-496d-ae59-ed997ff0f5d8","ios":"levelo://app?vid=040e42e8-2cbb-496d-ae59-ed997ff0f5d8"},"vehicle_type_id":"4","last_reported":1732328002,"current_range_meters":27200,"station_id":"ce4bho92rcd13ifvqh3g","pricing_plan_id":"cebpf4jnsgd1na2vs0mg"},{"bike_id":"366363c8-15fd-4cf6-8bfa-8e618579c11d","system_id":"levelo_inurba_marseille","lat":43.27369,"lon":5.36244,"is_reserved":false,"is_disabled":false,"rental_uris":{"android":"levelo://app?vid=366363c8-15fd-4cf6-8bfa-8e618579c11d","ios":"levelo://app?vid=366363c8-15fd-4cf6-8bfa-8e618579c11d"},"vehicle_type_id":"4","last_reported":1732328002,"current_range_meters":39200,"station_id":"ce4bhbh2rcd13ifvqeo0","pricing_plan_id":"cebpf4jnsgd1na2vs0mg"},{"bike_id":"93e22be2-ce4d-4082-96d3-753b4a20df2d","system_id":"levelo_inurba_marseille","lat":43.24077,"lon":5.37757,"is_reserved":false,"is_disabled":false,"rental_uris":{"android":"levelo://app?vid=93e22be2-ce4d-4082-96d3-753b4a20df2d","ios":"levelo://app?vid=93e22be2-ce4d-4082-96d3-753b4a20df2d"},"vehicle_type_id":"4","last_reported":1732328002,"current_range_meters":37600,"station_id":"ce4bhnp2rcd13ifvqgvg","pricing_plan_id":"cebpf4jnsgd1na2vs0mg"},{"bike_id":"50543698-5e8a-4b9f-b4ed-8a96dd331544","system_id":"levelo_inurba_marseille","lat":43.31334,"lon":5.3673,"is_reserved":false,"is_disabled":false,"rental_uris":{"android":"levelo://app?vid=50543698-5e8a-4b9f-b4ed-8a96dd331544","ios":"levelo://app?vid=50543698-5e8a-4b9f-b4ed-8a96dd331544"},"vehicle_type_id":"4","last_reported":1732328002,"current_range_meters":39200,"station_id":"ce4bgr92rcd13ifvqc6g","pricing_plan_id":"cebpf4jnsgd1na2vs0mg"},{"bike_id":"4614c3ce-fa32-4b49-800d-cf02516d6ab9","system_id":"levelo_inurba_marseille","lat":43.32361,"lon":5.38899,"is_reserved":false,"is_disabled":false,"rental_uris":{"android":"levelo://app?vid=4614c3ce-fa32-4b49-800d-cf02516d6ab9","ios":"levelo://app?vid=4614c3ce-fa32-4b49-800d-cf02516d6ab9"},"vehicle_type_id":"4","last_reported":1732328002,"current_range_meters":25200,"station_id":"ce4bhqp2rcd13ifvqhog","pricing_plan_id":"cebpf4jnsgd1na2vs0mg"},{"bike_id":"3c865c26-8acc-4e2e-80e3-acbc67274ac7","system_id":"levelo_inurba_marseille","lat":43.28709,"lon":5.37395,"is_reserved":false,"is_disabled":false,"rental_uris":{"android":"levelo://app?vid=3c865c26-8acc-4e2e-80e3-acbc67274ac7","ios":"levelo://app?vid=3c865c26-8acc-4e2e-80e3-acbc67274ac7"},"vehicle_type_id":"4","last_reported":1732328002,"current_range_meters":16000,"station_id":"ce4bh3p2rcd13ifvqdq0","pricing_plan_id":"cebpf4jnsgd1na2vs0mg"},{"bike_id":"d94cb9d8-220c-4667-8106-5cfcdd035589","system_id":"levelo_inurba_marseille","lat":43.30869,"lon":5.39658,"is_reserved":false,"is_disabled":false,"rental_uris":{"android":"levelo://app?vid=d94cb9d8-220c-4667-8106-5cfcdd035589","ios":"levelo://app?vid=d94cb9d8-220c-4667-8106-5cfcdd035589"},"vehicle_type_id":"4","last_reported":1732328002,"current_range_meters":40000,"station_id":"ce4bh012rcd13ifvqcv0","pricing_plan_id":"cebpf4jnsgd1na2vs0mg"},{"bike_id":"091cc9eb-8580-435f-ab25-55aa0962542e","system_id":"levelo_inurba_marseille","lat":43.26035,"lon":5.37556,"is_reserved":false,"is_disabled":false,"rental_uris":{"android":"levelo://app?vid=091cc9eb-8580-435f-ab25-55aa0962542e","ios":"levelo://app?vid=091cc9eb-8580-435f-ab25-55aa0962542e"},"vehicle_type_id":"4","last_reported":1732328002,"current_range_meters":28400,"station_id":"ce4bhgh2rcd13ifvqfa0","pricing_plan_id":"cebpf4jnsgd1na2vs0mg"},{"bike_id":"f8a8a492-aaea-4018-90af-bfa3e05e159b","system_id":"levelo_inurba_marseille","lat":43.32662,"lon":5.40998,"is_reserved":false,"is_disabled":false,"rental_uris":{"android":"levelo://app?vid=f8a8a492-aaea-4018-90af-bfa3e05e159b","ios":"levelo://app?vid=f8a8a492-aaea-4018-90af-bfa3e05e159b"},"vehicle_type_id":"4","last_reported":1732328002,"current_range_meters":25200,"station_id":"ce4bhpp2rcd13ifvqhgg","pricing_plan_id":"cebpf4jnsgd1na2vs0mg"},{"bike_id":"9f98108a-d832-47e6-91fb-a83d109a777d","system_id":"levelo_inurba_marseille","lat":43.30256,"lon":5.40048,"is_reserved":false,"is_disabled":false,"rental_uris":{"android":"levelo://app?vid=9f98108a-d832-47e6-91fb-a83d109a777d","ios":"levelo://app?vid=9f98108a-d832-47e6-91fb-a83d109a777d"},"vehicle_type_id":"4","last_reported":1732328002,"current_range_meters":36000,"station_id":"ce4bgvh2rcd13ifvqcs0","pricing_plan_id":"cebpf4jnsgd1na2vs0mg"},{"bike_id":"ab98a49c-144b-468d-871d-e8e8492470bf","system_id":"levelo_inurba_marseille","lat":43.31273,"lon":5.40169,"is_reserved":false,"is_disabled":false,"rental_uris":{"android":"levelo://app?vid=ab98a49c-144b-468d-871d-e8e8492470bf","ios":"levelo://app?vid=ab98a49c-144b-468d-871d-e8e8492470bf"},"vehicle_type_id":"4","last_reported":1732328002,"current_range_meters":13600,"station_id":"ce4bh092rcd13ifvqd30","pricing_plan_id":"cebpf4jnsgd1na2vs0mg"},{"bike_id":"9efe897c-7984-4d1c-8c03-f3762ca8e8fa","system_id":"levelo_inurba_marseille","lat":43.30876,"lon":5.3965,"is_reserved":false,"is_disabled":false,"rental_uris":{"android":"levelo://app?vid=9efe897c-7984-4d1c-8c03-f3762ca8e8fa","ios":"levelo://app?vid=9efe897c-7984-4d1c-8c03-f3762ca8e8fa"},"vehicle_type_id":"4","last_reported":1732328002,"current_range_meters":24000,"station_id":"ce4bh012rcd13ifvqcv0","pricing_plan_id":"cebpf4jnsgd1na2vs0mg"},{"bike_id":"d58a7e53-1d7e-4d17-a4dd-ffe0046b9645","system_id":"levelo_inurba_marseille","lat":43.31375,"lon":5.38495,"is_reserved":false,"is_disabled":false,"rental_uris":{"android":"levelo://app?vid=d58a7e53-1d7e-4d17-a4dd-ffe0046b9645","ios":"levelo://app?vid=d58a7e53-1d7e-4d17-a4dd-ffe0046b9645"},"vehicle_type_id":"4","last_reported":1732328002,"current_range_meters":24800,"station_id":"ce4bgt92rcd13ifvqcf0","pricing_plan_id":"cebpf4jnsgd1na2vs0mg"},{"bike_id":"f9e35db8-2f7a-4f43-8c70-83778761d42d","system_id":"levelo_inurba_marseille","lat":43.23194,"lon":5.35559,"is_reserved":false,"is_disabled":true,"rental_uris":{"android":"levelo://app?vid=f9e35db8-2f7a-4f43-8c70-83778761d42d","ios":"levelo://app?vid=f9e35db8-2f7a-4f43-8c70-83778761d42d"},"vehicle_type_id":"4","last_reported":1732328002,"current_range_meters":33600,"station_id":"ce4bhu92rcd13ifvqi70","pricing_plan_id":"cebpf4jnsgd1na2vs0mg"},{"bike_id":"e29104ca-80de-4be1-aaea-ebb2bc34e092","system_id":"levelo_inurba_marseille","lat":43.31081,"lon":5.42419,"is_reserved":false,"is_disabled":false,"rental_uris":{"android":"levelo://app?vid=e29104ca-80de-4be1-aaea-ebb2bc34e092","ios":"levelo://app?vid=e29104ca-80de-4be1-aaea-ebb2bc34e092"},"vehicle_type_id":"4","last_reported":1732328002,"current_range_meters":37600,"station_id":"ce4bhp92rcd13ifvqhag","pricing_plan_id":"cebpf4jnsgd1na2vs0mg"},{"bike_id":"4923c322-eb4a-4095-bc0c-aa6b225ff01a","system_id":"levelo_inurba_marseille","lat":43.31331,"lon":5.38529,"is_reserved":false,"is_disabled":true,"rental_uris":{"android":"levelo://app?vid=4923c322-eb4a-4095-bc0c-aa6b225ff01a","ios":"levelo://app?vid=4923c322-eb4a-4095-bc0c-aa6b225ff01a"},"vehicle_type_id":"4","last_reported":1732328002,"current_range_meters":27600,"station_id":"ce4bgt92rcd13ifvqcf0","pricing_plan_id":"cebpf4jnsgd1na2vs0mg"},{"bike_id":"1108659d-c798-48fb-a758-9ac015354e35","system_id":"levelo_inurba_marseille","lat":43.26206,"lon":5.3793,"is_reserved":false,"is_disabled":false,"rental_uris":{"android":"levelo://app?vid=1108659d-c798-48fb-a758-9ac015354e35","ios":"levelo://app?vid=1108659d-c798-48fb-a758-9ac015354e35"},"vehicle_type_id":"4","last_reported":1732328002,"current_range_meters":26000,"station_id":"ce4bhjp2rcd13ifvqg90","pricing_plan_id":"cebpf4jnsgd1na2vs0mg"},{"bike_id":"1f5a72a0-3240-401f-8965-8959c734d798","system_id":"levelo_inurba_marseille","lat":43.23966,"lon":5.36629,"is_reserved":false,"is_disabled":false,"rental_uris":{"android":"levelo://app?vid=1f5a72a0-3240-401f-8965-8959c734d798","ios":"levelo://app?vid=1f5a72a0-3240-401f-8965-8959c734d798"},"vehicle_type_id":"4","last_reported":1732328002,"current_range_meters":36800,"station_id":"ce4bhi12rcd13ifvqfp0","pricing_plan_id":"cebpf4jnsgd1na2vs0mg"},{"bike_id":"bf92196a-8143-4d0c-8ad4-11938a697077","system_id":"levelo_inurba_marseille","lat":43.2961,"lon":5.38103,"is_reserved":false,"is_disabled":false,"rental_uris":{"android":"levelo://app?vid=bf92196a-8143-4d0c-8ad4-11938a697077","ios":"levelo://app?vid=bf92196a-8143-4d0c-8ad4-11938a697077"},"vehicle_type_id":"4","last_reported":1732328002,"current_range_meters":36000,"station_id":"ce4bgl12rcd13ifvqbo0","pricing_plan_id":"cebpf4jnsgd1na2vs0mg"},{"bike_id":"70b2f5d1-ed86-4956-ba99-9b00fc3315f6","system_id":"levelo_inurba_marseille","lat":43.28458,"lon":5.35896,"is_reserved":false,"is_disabled":false,"rental_uris":{"android":"levelo://app?vid=70b2f5d1-ed86-4956-ba99-9b00fc3315f6","ios":"levelo://app?vid=70b2f5d1-ed86-4956-ba99-9b00fc3315f6"},"vehicle_type_id":"4","last_reported":1732328002,"current_range_meters":28800,"station_id":"ce4bhah2rcd13ifvqei0","pricing_plan_id":"cebpf4jnsgd1na2vs0mg"},{"bike_id":"7cd9b352-8e68-42b4-87f2-9cdbc4cc32f4","system_id":"levelo_inurba_marseille","lat":43.29972,"lon":5.38485,"is_reserved":false,"is_disabled":false,"rental_uris":{"android":"levelo://app?vid=7cd9b352-8e68-42b4-87f2-9cdbc4cc32f4","ios":"levelo://app?vid=7cd9b352-8e68-42b4-87f2-9cdbc4cc32f4"},"vehicle_type_id":"4","last_reported":1732328002,"current_range_meters":28400,"station_id":"ce4bgj92rcd13ifvqbd0","pricing_plan_id":"cebpf4jnsgd1na2vs0mg"},{"bike_id":"3c62032d-75ab-4175-86d0-8b9ccb3fd71f","system_id":"levelo_inurba_marseille","lat":43.31372,"lon":5.38486,"is_reserved":false,"is_disabled":false,"rental_uris":{"android":"levelo://app?vid=3c62032d-75ab-4175-86d0-8b9ccb3fd71f","ios":"levelo://app?vid=3c62032d-75ab-4175-86d0-8b9ccb3fd71f"},"vehicle_type_id":"4","last_reported":1732328002,"current_range_meters":24800,"station_id":"ce4bgt92rcd13ifvqcf0","pricing_plan_id":"cebpf4jnsgd1na2vs0mg"},{"bike_id":"e672334d-d5a9-45e4-8d8e-90a5c5811018","system_id":"levelo_inurba_marseille","lat":43.28107,"lon":5.37837,"is_reserved":false,"is_disabled":false,"rental_uris":{"android":"levelo://app?vid=e672334d-d5a9-45e4-8d8e-90a5c5811018","ios":"levelo://app?vid=e672334d-d5a9-45e4-8d8e-90a5c5811018"},"vehicle_type_id":"4","last_reported":1732328002,"current_range_meters":40000,"station_id":"ce4bha12rcd13ifvqee0","pricing_plan_id":"cebpf4jnsgd1na2vs0mg"},{"bike_id":"3d3e1c02-e434-42cd-a71e-c228de53e864","system_id":"levelo_inurba_marseille","lat":43.24392,"lon":5.37058,"is_reserved":false,"is_disabled":false,"rental_uris":{"android":"levelo://app?vid=3d3e1c02-e434-42cd-a71e-c228de53e864","ios":"levelo://app?vid=3d3e1c02-e434-42cd-a71e-c228de53e864"},"vehicle_type_id":"4","last_reported":1732328002,"current_range_meters":15200,"station_id":"ce4bhhh2rcd13ifvqfk0","pricing_plan_id":"cebpf4jnsgd1na2vs0mg"},{"bike_id":"63c178ba-0266-4590-b3fc-426f0092c35b","system_id":"levelo_inurba_marseille","lat":43.31178,"lon":5.38745,"is_reserved":false,"is_disabled":false,"rental_uris":{"android":"levelo://app?vid=63c178ba-0266-4590-b3fc-426f0092c35b","ios":"levelo://app?vid=63c178ba-0266-4590-b3fc-426f0092c35b"},"vehicle_type_id":"4","last_reported":1732328002,"current_range_meters":8000,"station_id":"ce4bgv12rcd13ifvqcp0","pricing_plan_id":"cebpf4jnsgd1na2vs0mg"},{"bike_id":"5d89816e-0afd-4910-9a3d-37d05296c402","system_id":"levelo_inurba_marseille","lat":43.32469,"lon":5.36573,"is_reserved":false,"is_disabled":false,"rental_uris":{"android":"levelo://app?vid=5d89816e-0afd-4910-9a3d-37d05296c402","ios":"levelo://app?vid=5d89816e-0afd-4910-9a3d-37d05296c402"},"vehicle_type_id":"4","last_reported":1732328002,"current_range_meters":37600,"station_id":"ce4bhs12rcd13ifvqhvg","pricing_plan_id":"cebpf4jnsgd1na2vs0mg"},{"bike_id":"9c33c4a1-d5b9-415b-a68d-996f7cfb860d","system_id":"levelo_inurba_marseille","lat":43.31486,"lon":5.37303,"is_reserved":false,"is_disabled":false,"rental_uris":{"android":"levelo://app?vid=9c33c4a1-d5b9-415b-a68d-996f7cfb860d","ios":"levelo://app?vid=9c33c4a1-d5b9-415b-a68d-996f7cfb860d"},"vehicle_type_id":"4","last_reported":1732328002,"current_range_meters":39200,"station_id":"ce4bgt12rcd13ifvqcd0","pricing_plan_id":"cebpf4jnsgd1na2vs0mg"},{"bike_id":"b9ea23c9-7da2-481c-8ccb-afd11251a60c","system_id":"levelo_inurba_marseille","lat":43.28718,"lon":5.37935,"is_reserved":false,"is_disabled":false,"rental_uris":{"android":"levelo://app?vid=b9ea23c9-7da2-481c-8ccb-afd11251a60c","ios":"levelo://app?vid=b9ea23c9-7da2-481c-8ccb-afd11251a60c"},"vehicle_type_id":"4","last_reported":1732328002,"current_range_meters":38400,"station_id":"ce4bh9p2rcd13ifvqec0","pricing_plan_id":"cebpf4jnsgd1na2vs0mg"},{"bike_id":"ff474302-046a-43ab-9883-c30610cb938a","system_id":"levelo_inurba_marseille","lat":43.27997,"lon":5.4001,"is_reserved":false,"is_disabled":false,"rental_uris":{"android":"levelo://app?vid=ff474302-046a-43ab-9883-c30610cb938a","ios":"levelo://app?vid=ff474302-046a-43ab-9883-c30610cb938a"},"vehicle_type_id":"4","last_reported":1732328002,"current_range_meters":9200,"station_id":"ce4bho92rcd13ifvqh4g","pricing_plan_id":"cebpf4jnsgd1na2vs0mg"},{"bike_id":"fd927606-7b55-4954-8b71-800a5a06c3b5","system_id":"levelo_inurba_marseille","lat":43.28725,"lon":5.3608,"is_reserved":false,"is_disabled":false,"rental_uris":{"android":"levelo://app?vid=fd927606-7b55-4954-8b71-800a5a06c3b5","ios":"levelo://app?vid=fd927606-7b55-4954-8b71-800a5a06c3b5"},"vehicle_type_id":"4","last_reported":1732328002,"current_range_meters":39200,"station_id":"cki0cbj6b192h4jlfktg","pricing_plan_id":"cebpf4jnsgd1na2vs0mg"},{"bike_id":"dc1a7457-0422-4bfc-b0b5-6e233f9d7aba","system_id":"levelo_inurba_marseille","lat":43.2593,"lon":5.409,"is_reserved":false,"is_disabled":false,"rental_uris":{"android":"levelo://app?vid=dc1a7457-0422-4bfc-b0b5-6e233f9d7aba","ios":"levelo://app?vid=dc1a7457-0422-4bfc-b0b5-6e233f9d7aba"},"vehicle_type_id":"4","last_reported":1732328002,"current_range_meters":28800,"station_id":"ce4bhm92rcd13ifvqglg","pricing_plan_id":"cebpf4jnsgd1na2vs0mg"},{"bike_id":"fa223770-c7b5-4176-b2a9-f62d86c16ea2","system_id":"levelo_inurba_marseille","lat":43.336669,"lon":5.39812,"is_reserved":false,"is_disabled":false,"rental_uris":{"android":"levelo://app?vid=fa223770-c7b5-4176-b2a9-f62d86c16ea2","ios":"levelo://app?vid=fa223770-c7b5-4176-b2a9-f62d86c16ea2"},"vehicle_type_id":"4","last_reported":1732328002,"current_range_meters":30800,"station_id":"","pricing_plan_id":"cebpf4jnsgd1na2vs0mg"},{"bike_id":"e6e55639-f3c2-4260-ba44-7dde440d7993","system_id":"levelo_inurba_marseille","lat":43.32056,"lon":5.41539,"is_reserved":false,"is_disabled":false,"rental_uris":{"android":"levelo://app?vid=e6e55639-f3c2-4260-ba44-7dde440d7993","ios":"levelo://app?vid=e6e55639-f3c2-4260-ba44-7dde440d7993"},"vehicle_type_id":"4","last_reported":1732328002,"current_range_meters":38000,"station_id":"ce4bhq92rcd13ifvqhkg","pricing_plan_id":"cebpf4jnsgd1na2vs0mg"},{"bike_id":"99d5eeb3-6513-46db-81bf-de6e43866527","system_id":"levelo_inurba_marseille","lat":43.32367,"lon":5.38881,"is_reserved":false,"is_disabled":false,"rental_uris":{"android":"levelo://app?vid=99d5eeb3-6513-46db-81bf-de6e43866527","ios":"levelo://app?vid=99d5eeb3-6513-46db-81bf-de6e43866527"},"vehicle_type_id":"4","last_reported":1732328002,"current_range_meters":36000,"station_id":"ce4bhqp2rcd13ifvqhog","pricing_plan_id":"cebpf4jnsgd1na2vs0mg"},{"bike_id":"8e53e4ab-f229-4d56-835c-6427f9c3afb1","system_id":"levelo_inurba_marseille","lat":43.30864,"lon":5.39663,"is_reserved":false,"is_disabled":false,"rental_uris":{"android":"levelo://app?vid=8e53e4ab-f229-4d56-835c-6427f9c3afb1","ios":"levelo://app?vid=8e53e4ab-f229-4d56-835c-6427f9c3afb1"},"vehicle_type_id":"4","last_reported":1732328002,"current_range_meters":24000,"station_id":"ce4bh012rcd13ifvqcv0","pricing_plan_id":"cebpf4jnsgd1na2vs0mg"},{"bike_id":"08c52177-2539-4f9a-86fe-c79814de4810","system_id":"levelo_inurba_marseille","lat":43.27311,"lon":5.39115,"is_reserved":false,"is_disabled":false,"rental_uris":{"android":"levelo://app?vid=08c52177-2539-4f9a-86fe-c79814de4810","ios":"levelo://app?vid=08c52177-2539-4f9a-86fe-c79814de4810"},"vehicle_type_id":"4","last_reported":1732328002,"current_range_meters":8800,"station_id":"ce4bhgp2rcd13ifvqfe0","pricing_plan_id":"cebpf4jnsgd1na2vs0mg"},{"bike_id":"44194a3f-2e52-4378-9083-7c4354cb5836","system_id":"levelo_inurba_marseille","lat":43.28997,"lon":5.35598,"is_reserved":false,"is_disabled":false,"rental_uris":{"android":"levelo://app?vid=44194a3f-2e52-4378-9083-7c4354cb5836","ios":"levelo://app?vid=44194a3f-2e52-4378-9083-7c4354cb5836"},"vehicle_type_id":"4","last_reported":1732328002,"current_range_meters":32400,"station_id":"ce4bhb92rcd13ifvqen0","pricing_plan_id":"cebpf4jnsgd1na2vs0mg"},{"bike_id":"bf651b70-19d2-45ca-8b5f-8cd4fab5a41c","system_id":"levelo_inurba_marseille","lat":43.30641,"lon":5.40058,"is_reserved":false,"is_disabled":false,"rental_uris":{"android":"levelo://app?vid=bf651b70-19d2-45ca-8b5f-8cd4fab5a41c","ios":"levelo://app?vid=bf651b70-19d2-45ca-8b5f-8cd4fab5a41c"},"vehicle_type_id":"4","last_reported":1732328002,"current_range_meters":25200,"station_id":"ce4bh112rcd13ifvqda0","pricing_plan_id":"cebpf4jnsgd1na2vs0mg"},{"bike_id":"0a0a0373-51f3-473f-86af-b59fc3b2de3f","system_id":"levelo_inurba_marseille","lat":43.31316,"lon":5.39681,"is_reserved":false,"is_disabled":false,"rental_uris":{"android":"levelo://app?vid=0a0a0373-51f3-473f-86af-b59fc3b2de3f","ios":"levelo://app?vid=0a0a0373-51f3-473f-86af-b59fc3b2de3f"},"vehicle_type_id":"4","last_reported":1732328002,"current_range_meters":28400,"station_id":"ce4bgvp2rcd13ifvqcu0","pricing_plan_id":"cebpf4jnsgd1na2vs0mg"},{"bike_id":"90cc99af-54e0-4698-bffa-7f2f1beb1a95","system_id":"levelo_inurba_marseille","lat":43.27983,"lon":5.41652,"is_reserved":false,"is_disabled":false,"rental_uris":{"android":"levelo://app?vid=90cc99af-54e0-4698-bffa-7f2f1beb1a95","ios":"levelo://app?vid=90cc99af-54e0-4698-bffa-7f2f1beb1a95"},"vehicle_type_id":"4","last_reported":1732328002,"current_range_meters":38800,"station_id":"ce4bho12rcd13ifvqh1g","pricing_plan_id":"cebpf4jnsgd1na2vs0mg"},{"bike_id":"81640bf4-dd0f-4830-8546-4d4867cc58a5","system_id":"levelo_inurba_marseille","lat":43.23104,"lon":5.40492,"is_reserved":false,"is_disabled":false,"rental_uris":{"android":"levelo://app?vid=81640bf4-dd0f-4830-8546-4d4867cc58a5","ios":"levelo://app?vid=81640bf4-dd0f-4830-8546-4d4867cc58a5"},"vehicle_type_id":"4","last_reported":1732328002,"current_range_meters":9200,"station_id":"","pricing_plan_id":"cebpf4jnsgd1na2vs0mg"},{"bike_id":"4579521b-fc15-45ca-9703-ccd843b576c3","system_id":"levelo_inurba_marseille","lat":43.31897,"lon":5.40732,"is_reserved":false,"is_disabled":false,"rental_uris":{"android":"levelo://app?vid=4579521b-fc15-45ca-9703-ccd843b576c3","ios":"levelo://app?vid=4579521b-fc15-45ca-9703-ccd843b576c3"},"vehicle_type_id":"4","last_reported":1732328002,"current_range_meters":39200,"station_id":"ce4bhq12rcd13ifvqhig","pricing_plan_id":"cebpf4jnsgd1na2vs0mg"},{"bike_id":"cd78312a-142a-42d0-92e1-dbc654bf8bb4","system_id":"levelo_inurba_marseille","lat":43.24179,"lon":5.39701,"is_reserved":false,"is_disabled":true,"rental_uris":{"android":"levelo://app?vid=cd78312a-142a-42d0-92e1-dbc654bf8bb4","ios":"levelo://app?vid=cd78312a-142a-42d0-92e1-dbc654bf8bb4"},"vehicle_type_id":"4","last_reported":1732328002,"current_range_meters":16800,"station_id":"ce4bhn12rcd13ifvqgpg","pricing_plan_id":"cebpf4jnsgd1na2vs0mg"},{"bike_id":"11c5ed7c-dad2-4605-8db8-4918d0818190","system_id":"levelo_inurba_marseille","lat":43.31717,"lon":5.42415,"is_reserved":false,"is_disabled":false,"rental_uris":{"android":"levelo://app?vid=11c5ed7c-dad2-4605-8db8-4918d0818190","ios":"levelo://app?vid=11c5ed7c-dad2-4605-8db8-4918d0818190"},"vehicle_type_id":"4","last_reported":1732328002,"current_range_meters":39200,"station_id":"ce4bhp92rcd13ifvqhbg","pricing_plan_id":"cebpf4jnsgd1na2vs0mg"},{"bike_id":"3dedd3a3-3784-47e0-bd52-94265bd44a24","system_id":"levelo_inurba_marseille","lat":43.24547,"lon":5.37315,"is_reserved":false,"is_disabled":true,"rental_uris":{"android":"levelo://app?vid=3dedd3a3-3784-47e0-bd52-94265bd44a24","ios":"levelo://app?vid=3dedd3a3-3784-47e0-bd52-94265bd44a24"},"vehicle_type_id":"4","last_reported":1732328002,"current_range_meters":0,"station_id":"","pricing_plan_id":"cebpf4jnsgd1na2vs0mg"},{"bike_id":"0f73c7e1-9f37-4805-b324-faa77a592d73","system_id":"levelo_inurba_marseille","lat":43.24082,"lon":5.37741,"is_reserved":false,"is_disabled":false,"rental_uris":{"android":"levelo://app?vid=0f73c7e1-9f37-4805-b324-faa77a592d73","ios":"levelo://app?vid=0f73c7e1-9f37-4805-b324-faa77a592d73"},"vehicle_type_id":"4","last_reported":1732328002,"current_range_meters":20400,"station_id":"ce4bhnp2rcd13ifvqgvg","pricing_plan_id":"cebpf4jnsgd1na2vs0mg"},{"bike_id":"17d60ad0-2e4a-4596-9da6-dd663c26d289","system_id":"levelo_inurba_marseille","lat":43.24808,"lon":5.37453,"is_reserved":false,"is_disabled":false,"rental_uris":{"android":"levelo://app?vid=17d60ad0-2e4a-4596-9da6-dd663c26d289","ios":"levelo://app?vid=17d60ad0-2e4a-4596-9da6-dd663c26d289"},"vehicle_type_id":"4","last_reported":1732328002,"current_range_meters":20400,"station_id":"ce4bhgh2rcd13ifvqfb0","pricing_plan_id":"cebpf4jnsgd1na2vs0mg"},{"bike_id":"619d75ec-1ab4-4f1f-8a9f-6082307a464d","system_id":"levelo_inurba_marseille","lat":43.24077,"lon":5.37762,"is_reserved":false,"is_disabled":false,"rental_uris":{"android":"levelo://app?vid=619d75ec-1ab4-4f1f-8a9f-6082307a464d","ios":"levelo://app?vid=619d75ec-1ab4-4f1f-8a9f-6082307a464d"},"vehicle_type_id":"4","last_reported":1732328002,"current_range_meters":6800,"station_id":"ce4bhnp2rcd13ifvqgvg","pricing_plan_id":"cebpf4jnsgd1na2vs0mg"},{"bike_id":"bcf5a7ef-45e7-40a2-a25a-d01db7f9684d","system_id":"levelo_inurba_marseille","lat":43.25374,"lon":5.40156,"is_reserved":false,"is_disabled":true,"rental_uris":{"android":"levelo://app?vid=bcf5a7ef-45e7-40a2-a25a-d01db7f9684d","ios":"levelo://app?vid=bcf5a7ef-45e7-40a2-a25a-d01db7f9684d"},"vehicle_type_id":"4","last_reported":1732328002,"current_range_meters":0,"station_id":"","pricing_plan_id":"cebpf4jnsgd1na2vs0mg"},{"bike_id":"3193222d-584b-4642-a1d8-0c04b2309736","system_id":"levelo_inurba_marseille","lat":43.33729,"lon":5.39181,"is_reserved":false,"is_disabled":false,"rental_uris":{"android":"levelo://app?vid=3193222d-584b-4642-a1d8-0c04b2309736","ios":"levelo://app?vid=3193222d-584b-4642-a1d8-0c04b2309736"},"vehicle_type_id":"4","last_reported":1732328002,"current_range_meters":34800,"station_id":"ce4bhr92rcd13ifvqhsg","pricing_plan_id":"cebpf4jnsgd1na2vs0mg"},{"bike_id":"7c2f19f3-5373-4c2a-87bb-e1fd3ef39822","system_id":"levelo_inurba_marseille","lat":43.26556,"lon":5.39032,"is_reserved":false,"is_disabled":true,"rental_uris":{"android":"levelo://app?vid=7c2f19f3-5373-4c2a-87bb-e1fd3ef39822","ios":"levelo://app?vid=7c2f19f3-5373-4c2a-87bb-e1fd3ef39822"},"vehicle_type_id":"4","last_reported":1732328002,"current_range_meters":27200,"station_id":"ce4bhe12rcd13ifvqf30","pricing_plan_id":"cebpf4jnsgd1na2vs0mg"},{"bike_id":"36ef9a42-f4d8-45f5-adc2-b51fb9b962d0","system_id":"levelo_inurba_marseille","lat":43.34138,"lon":5.40919,"is_reserved":false,"is_disabled":false,"rental_uris":{"android":"levelo://app?vid=36ef9a42-f4d8-45f5-adc2-b51fb9b962d0","ios":"levelo://app?vid=36ef9a42-f4d8-45f5-adc2-b51fb9b962d0"},"vehicle_type_id":"4","last_reported":1732328002,"current_range_meters":40000,"station_id":"ce4bhqh2rcd13ifvqhlg","pricing_plan_id":"cebpf4jnsgd1na2vs0mg"},{"bike_id":"d145285e-3020-420f-8506-6c41aef82607","system_id":"levelo_inurba_marseille","lat":43.30797,"lon":5.38186,"is_reserved":false,"is_disabled":false,"rental_uris":{"android":"levelo://app?vid=d145285e-3020-420f-8506-6c41aef82607","ios":"levelo://app?vid=d145285e-3020-420f-8506-6c41aef82607"},"vehicle_type_id":"4","last_reported":1732328002,"current_range_meters":34000,"station_id":"ce4bgt12rcd13ifvqce0","pricing_plan_id":"cebpf4jnsgd1na2vs0mg"},{"bike_id":"095792c7-a4b8-437f-aedd-efe4efded967","system_id":"levelo_inurba_marseille","lat":43.30546,"lon":5.38435,"is_reserved":false,"is_disabled":true,"rental_uris":{"android":"levelo://app?vid=095792c7-a4b8-437f-aedd-efe4efded967","ios":"levelo://app?vid=095792c7-a4b8-437f-aedd-efe4efded967"},"vehicle_type_id":"4","last_reported":1732328002,"current_range_meters":30400,"station_id":"ce4bgg92rcd13ifvqb30","pricing_plan_id":"cebpf4jnsgd1na2vs0mg"},{"bike_id":"1fe36207-a189-42b7-a2ae-a1bed57e3dd0","system_id":"levelo_inurba_marseille","lat":43.26029,"lon":5.37557,"is_reserved":false,"is_disabled":false,"rental_uris":{"android":"levelo://app?vid=1fe36207-a189-42b7-a2ae-a1bed57e3dd0","ios":"levelo://app?vid=1fe36207-a189-42b7-a2ae-a1bed57e3dd0"},"vehicle_type_id":"4","last_reported":1732328002,"current_range_meters":16800,"station_id":"ce4bhgh2rcd13ifvqfa0","pricing_plan_id":"cebpf4jnsgd1na2vs0mg"},{"bike_id":"4ecdaf55-87e7-42ea-ac0e-a41de2a6b49d","system_id":"levelo_inurba_marseille","lat":43.31999,"lon":5.3815,"is_reserved":false,"is_disabled":false,"rental_uris":{"android":"levelo://app?vid=4ecdaf55-87e7-42ea-ac0e-a41de2a6b49d","ios":"levelo://app?vid=4ecdaf55-87e7-42ea-ac0e-a41de2a6b49d"},"vehicle_type_id":"4","last_reported":1732328002,"current_range_meters":24800,"station_id":"ce4bhr12rcd13ifvqhpg","pricing_plan_id":"cebpf4jnsgd1na2vs0mg"},{"bike_id":"51ce6112-ca51-4a26-8335-063dea88ee84","system_id":"levelo_inurba_marseille","lat":43.266616,"lon":5.389757,"is_reserved":false,"is_disabled":false,"rental_uris":{"android":"levelo://app?vid=51ce6112-ca51-4a26-8335-063dea88ee84","ios":"levelo://app?vid=51ce6112-ca51-4a26-8335-063dea88ee84"},"vehicle_type_id":"4","last_reported":1732328002,"current_range_meters":8400,"station_id":"","pricing_plan_id":"cebpf4jnsgd1na2vs0mg"},{"bike_id":"48fbbdf9-b139-435c-a4f3-5b05b58dbf29","system_id":"levelo_inurba_marseille","lat":43.28613,"lon":5.37062,"is_reserved":false,"is_disabled":false,"rental_uris":{"android":"levelo://app?vid=48fbbdf9-b139-435c-a4f3-5b05b58dbf29","ios":"levelo://app?vid=48fbbdf9-b139-435c-a4f3-5b05b58dbf29"},"vehicle_type_id":"4","last_reported":1732328002,"current_range_meters":37600,"station_id":"ce4bht12rcd13ifvqi60","pricing_plan_id":"cebpf4jnsgd1na2vs0mg"},{"bike_id":"dc40093c-1a1f-419a-9052-3d264e01de4a","system_id":"levelo_inurba_marseille","lat":43.30326,"lon":5.41877,"is_reserved":false,"is_disabled":false,"rental_uris":{"android":"levelo://app?vid=dc40093c-1a1f-419a-9052-3d264e01de4a","ios":"levelo://app?vid=dc40093c-1a1f-419a-9052-3d264e01de4a"},"vehicle_type_id":"4","last_reported":1732328002,"current_range_meters":38400,"station_id":"ce4bhop2rcd13ifvqh7g","pricing_plan_id":"cebpf4jnsgd1na2vs0mg"},{"bike_id":"fc0b1b0c-9a21-495d-be52-0d91f5503bfa","system_id":"levelo_inurba_marseille","lat":43.22928,"lon":5.35368,"is_reserved":false,"is_disabled":false,"rental_uris":{"android":"levelo://app?vid=fc0b1b0c-9a21-495d-be52-0d91f5503bfa","ios":"levelo://app?vid=fc0b1b0c-9a21-495d-be52-0d91f5503bfa"},"vehicle_type_id":"4","last_reported":1732328002,"current_range_meters":24400,"station_id":"cpo3532slgdg3j2ikp40","pricing_plan_id":"cebpf4jnsgd1na2vs0mg"},{"bike_id":"fb8722dd-7f32-4ddd-b094-d27e50ec04ba","system_id":"levelo_inurba_marseille","lat":43.24071,"lon":5.37762,"is_reserved":false,"is_disabled":false,"rental_uris":{"android":"levelo://app?vid=fb8722dd-7f32-4ddd-b094-d27e50ec04ba","ios":"levelo://app?vid=fb8722dd-7f32-4ddd-b094-d27e50ec04ba"},"vehicle_type_id":"4","last_reported":1732328002,"current_range_meters":39200,"station_id":"ce4bhnp2rcd13ifvqgvg","pricing_plan_id":"cebpf4jnsgd1na2vs0mg"},{"bike_id":"79b9ca6d-5afd-4a32-b154-362d51e5977d","system_id":"levelo_inurba_marseille","lat":43.29447,"lon":5.39738,"is_reserved":false,"is_disabled":false,"rental_uris":{"android":"levelo://app?vid=79b9ca6d-5afd-4a32-b154-362d51e5977d","ios":"levelo://app?vid=79b9ca6d-5afd-4a32-b154-362d51e5977d"},"vehicle_type_id":"4","last_reported":1732328002,"current_range_meters":19200,"station_id":"ce4bh3h2rcd13ifvqdo0","pricing_plan_id":"cebpf4jnsgd1na2vs0mg"},{"bike_id":"85e5d55e-46ec-4dae-ada6-d1f7a5aa1508","system_id":"levelo_inurba_marseille","lat":43.25871,"lon":5.39894,"is_reserved":false,"is_disabled":false,"rental_uris":{"android":"levelo://app?vid=85e5d55e-46ec-4dae-ada6-d1f7a5aa1508","ios":"levelo://app?vid=85e5d55e-46ec-4dae-ada6-d1f7a5aa1508"},"vehicle_type_id":"4","last_reported":1732328002,"current_range_meters":38400,"station_id":"ce4bhl92rcd13ifvqghg","pricing_plan_id":"cebpf4jnsgd1na2vs0mg"},{"bike_id":"c09eee58-d46a-4c66-b9bd-5b122afc1493","system_id":"levelo_inurba_marseille","lat":43.31363,"lon":5.38505,"is_reserved":false,"is_disabled":false,"rental_uris":{"android":"levelo://app?vid=c09eee58-d46a-4c66-b9bd-5b122afc1493","ios":"levelo://app?vid=c09eee58-d46a-4c66-b9bd-5b122afc1493"},"vehicle_type_id":"4","last_reported":1732328002,"current_range_meters":29600,"station_id":"ce4bgt92rcd13ifvqcf0","pricing_plan_id":"cebpf4jnsgd1na2vs0mg"},{"bike_id":"97437fd5-e381-403b-962e-cf899defef24","system_id":"levelo_inurba_marseille","lat":43.32481,"lon":5.36569,"is_reserved":false,"is_disabled":false,"rental_uris":{"android":"levelo://app?vid=97437fd5-e381-403b-962e-cf899defef24","ios":"levelo://app?vid=97437fd5-e381-403b-962e-cf899defef24"},"vehicle_type_id":"4","last_reported":1732328002,"current_range_meters":27200,"station_id":"ce4bhs12rcd13ifvqhvg","pricing_plan_id":"cebpf4jnsgd1na2vs0mg"},{"bike_id":"68f9bc67-7a46-4c54-8555-1eed96ca8ef0","system_id":"levelo_inurba_marseille","lat":43.32101,"lon":5.36799,"is_reserved":false,"is_disabled":false,"rental_uris":{"android":"levelo://app?vid=68f9bc67-7a46-4c54-8555-1eed96ca8ef0","ios":"levelo://app?vid=68f9bc67-7a46-4c54-8555-1eed96ca8ef0"},"vehicle_type_id":"4","last_reported":1732328002,"current_range_meters":37600,"station_id":"ce4bhrh2rcd13ifvqhug","pricing_plan_id":"cebpf4jnsgd1na2vs0mg"},{"bike_id":"93602490-3c4b-4c48-a44b-e19e8ed66648","system_id":"levelo_inurba_marseille","lat":43.28266,"lon":5.35076,"is_reserved":false,"is_disabled":false,"rental_uris":{"android":"levelo://app?vid=93602490-3c4b-4c48-a44b-e19e8ed66648","ios":"levelo://app?vid=93602490-3c4b-4c48-a44b-e19e8ed66648"},"vehicle_type_id":"4","last_reported":1732328002,"current_range_meters":35600,"station_id":"ce4bhbp2rcd13ifvqerg","pricing_plan_id":"cebpf4jnsgd1na2vs0mg"},{"bike_id":"5c3d0f01-f8e4-4abf-a973-a4f27312efcb","system_id":"levelo_inurba_marseille","lat":43.28696,"lon":5.37385,"is_reserved":false,"is_disabled":false,"rental_uris":{"android":"levelo://app?vid=5c3d0f01-f8e4-4abf-a973-a4f27312efcb","ios":"levelo://app?vid=5c3d0f01-f8e4-4abf-a973-a4f27312efcb"},"vehicle_type_id":"4","last_reported":1732328002,"current_range_meters":17600,"station_id":"ce4bh3p2rcd13ifvqdq0","pricing_plan_id":"cebpf4jnsgd1na2vs0mg"},{"bike_id":"31a3efa5-23ff-4d63-a675-e8128f858976","system_id":"levelo_inurba_marseille","lat":43.29846,"lon":5.36262,"is_reserved":false,"is_disabled":false,"rental_uris":{"android":"levelo://app?vid=31a3efa5-23ff-4d63-a675-e8128f858976","ios":"levelo://app?vid=31a3efa5-23ff-4d63-a675-e8128f858976"},"vehicle_type_id":"4","last_reported":1732328002,"current_range_meters":38800,"station_id":"ce4bgpp2rcd13ifvqc3g","pricing_plan_id":"cebpf4jnsgd1na2vs0mg"},{"bike_id":"bee41234-12da-4d21-8d3c-98d1ae5278bc","system_id":"levelo_inurba_marseille","lat":43.29067,"lon":5.38803,"is_reserved":false,"is_disabled":false,"rental_uris":{"android":"levelo://app?vid=bee41234-12da-4d21-8d3c-98d1ae5278bc","ios":"levelo://app?vid=bee41234-12da-4d21-8d3c-98d1ae5278bc"},"vehicle_type_id":"4","last_reported":1732328002,"current_range_meters":21600,"station_id":"","pricing_plan_id":"cebpf4jnsgd1na2vs0mg"},{"bike_id":"e50f32c4-bb19-4622-bf25-f3965ec0e416","system_id":"levelo_inurba_marseille","lat":43.32481,"lon":5.36531,"is_reserved":false,"is_disabled":false,"rental_uris":{"android":"levelo://app?vid=e50f32c4-bb19-4622-bf25-f3965ec0e416","ios":"levelo://app?vid=e50f32c4-bb19-4622-bf25-f3965ec0e416"},"vehicle_type_id":"4","last_reported":1732328002,"current_range_meters":12000,"station_id":"ce4bhs12rcd13ifvqhvg","pricing_plan_id":"cebpf4jnsgd1na2vs0mg"},{"bike_id":"bc253db0-f00b-4bb0-84b9-1f8f01714743","system_id":"levelo_inurba_marseille","lat":43.23969,"lon":5.36628,"is_reserved":false,"is_disabled":false,"rental_uris":{"android":"levelo://app?vid=bc253db0-f00b-4bb0-84b9-1f8f01714743","ios":"levelo://app?vid=bc253db0-f00b-4bb0-84b9-1f8f01714743"},"vehicle_type_id":"4","last_reported":1732328002,"current_range_meters":17600,"station_id":"ce4bhi12rcd13ifvqfp0","pricing_plan_id":"cebpf4jnsgd1na2vs0mg"},{"bike_id":"d60edd73-4923-4330-b16d-caf6d1490a7d","system_id":"levelo_inurba_marseille","lat":43.31549,"lon":5.38041,"is_reserved":false,"is_disabled":false,"rental_uris":{"android":"levelo://app?vid=d60edd73-4923-4330-b16d-caf6d1490a7d","ios":"levelo://app?vid=d60edd73-4923-4330-b16d-caf6d1490a7d"},"vehicle_type_id":"4","last_reported":1732328002,"current_range_meters":12800,"station_id":"ce4bhsp2rcd13ifvqi50","pricing_plan_id":"cebpf4jnsgd1na2vs0mg"},{"bike_id":"589e73fc-b369-4a28-b69f-0a0000220651","system_id":"levelo_inurba_marseille","lat":43.29583,"lon":5.36717,"is_reserved":false,"is_disabled":false,"rental_uris":{"android":"levelo://app?vid=589e73fc-b369-4a28-b69f-0a0000220651","ios":"levelo://app?vid=589e73fc-b369-4a28-b69f-0a0000220651"},"vehicle_type_id":"4","last_reported":1732328002,"current_range_meters":39200,"station_id":"ce4bgph2rcd13ifvqc2g","pricing_plan_id":"cebpf4jnsgd1na2vs0mg"},{"bike_id":"2ce56eac-607f-4aee-97f1-1efe9a148076","system_id":"levelo_inurba_marseille","lat":43.22923,"lon":5.35386,"is_reserved":false,"is_disabled":false,"rental_uris":{"android":"levelo://app?vid=2ce56eac-607f-4aee-97f1-1efe9a148076","ios":"levelo://app?vid=2ce56eac-607f-4aee-97f1-1efe9a148076"},"vehicle_type_id":"4","last_reported":1732328002,"current_range_meters":12000,"station_id":"cpo3532slgdg3j2ikp40","pricing_plan_id":"cebpf4jnsgd1na2vs0mg"},{"bike_id":"3c5d0254-2542-44e0-aa08-1a8753e937a8","system_id":"levelo_inurba_marseille","lat":43.26697,"lon":5.38264,"is_reserved":false,"is_disabled":false,"rental_uris":{"android":"levelo://app?vid=3c5d0254-2542-44e0-aa08-1a8753e937a8","ios":"levelo://app?vid=3c5d0254-2542-44e0-aa08-1a8753e937a8"},"vehicle_type_id":"4","last_reported":1732328002,"current_range_meters":38400,"station_id":"ce4bhg92rcd13ifvqf90","pricing_plan_id":"cebpf4jnsgd1na2vs0mg"},{"bike_id":"dd6f894f-047f-4af7-8f83-47de05c670b9","system_id":"levelo_inurba_marseille","lat":43.28442,"lon":5.39197,"is_reserved":false,"is_disabled":false,"rental_uris":{"android":"levelo://app?vid=dd6f894f-047f-4af7-8f83-47de05c670b9","ios":"levelo://app?vid=dd6f894f-047f-4af7-8f83-47de05c670b9"},"vehicle_type_id":"4","last_reported":1732328002,"current_range_meters":40000,"station_id":"ce4bhoh2rcd13ifvqh5g","pricing_plan_id":"cebpf4jnsgd1na2vs0mg"},{"bike_id":"c74abcec-f83d-46ae-b5a9-0a57cc1c1c41","system_id":"levelo_inurba_marseille","lat":43.23186,"lon":5.35557,"is_reserved":false,"is_disabled":false,"rental_uris":{"android":"levelo://app?vid=c74abcec-f83d-46ae-b5a9-0a57cc1c1c41","ios":"levelo://app?vid=c74abcec-f83d-46ae-b5a9-0a57cc1c1c41"},"vehicle_type_id":"4","last_reported":1732328002,"current_range_meters":36000,"station_id":"ce4bhu92rcd13ifvqi70","pricing_plan_id":"cebpf4jnsgd1na2vs0mg"},{"bike_id":"72199e4f-4616-4328-bcb5-d0d184b8428c","system_id":"levelo_inurba_marseille","lat":43.25125,"lon":5.40323,"is_reserved":false,"is_disabled":false,"rental_uris":{"android":"levelo://app?vid=72199e4f-4616-4328-bcb5-d0d184b8428c","ios":"levelo://app?vid=72199e4f-4616-4328-bcb5-d0d184b8428c"},"vehicle_type_id":"4","last_reported":1732328002,"current_range_meters":40000,"station_id":"ce4bhlh2rcd13ifvqgig","pricing_plan_id":"cebpf4jnsgd1na2vs0mg"},{"bike_id":"6bc5e554-d491-43d8-af78-57fbd87f8a20","system_id":"levelo_inurba_marseille","lat":43.29853,"lon":5.36304,"is_reserved":false,"is_disabled":false,"rental_uris":{"android":"levelo://app?vid=6bc5e554-d491-43d8-af78-57fbd87f8a20","ios":"levelo://app?vid=6bc5e554-d491-43d8-af78-57fbd87f8a20"},"vehicle_type_id":"4","last_reported":1732328002,"current_range_meters":38000,"station_id":"ce4bgpp2rcd13ifvqc3g","pricing_plan_id":"cebpf4jnsgd1na2vs0mg"},{"bike_id":"1e54f937-0e06-4f27-9121-0b11ed04cf53","system_id":"levelo_inurba_marseille","lat":43.27817,"lon":5.39219,"is_reserved":false,"is_disabled":false,"rental_uris":{"android":"levelo://app?vid=1e54f937-0e06-4f27-9121-0b11ed04cf53","ios":"levelo://app?vid=1e54f937-0e06-4f27-9121-0b11ed04cf53"},"vehicle_type_id":"4","last_reported":1732328002,"current_range_meters":28000,"station_id":"ce4bhjp2rcd13ifvqga0","pricing_plan_id":"cebpf4jnsgd1na2vs0mg"},{"bike_id":"1f95b7bf-cda9-49b3-8eea-8d60d5718c7c","system_id":"levelo_inurba_marseille","lat":43.29041,"lon":5.3755,"is_reserved":false,"is_disabled":true,"rental_uris":{"android":"levelo://app?vid=1f95b7bf-cda9-49b3-8eea-8d60d5718c7c","ios":"levelo://app?vid=1f95b7bf-cda9-49b3-8eea-8d60d5718c7c"},"vehicle_type_id":"4","last_reported":1732328002,"current_range_meters":6000,"station_id":"ce4bh692rcd13ifvqe90","pricing_plan_id":"cebpf4jnsgd1na2vs0mg"},{"bike_id":"ed619d0b-348c-432d-80fe-b034c3ec9de7","system_id":"levelo_inurba_marseille","lat":43.29418,"lon":5.38631,"is_reserved":false,"is_disabled":false,"rental_uris":{"android":"levelo://app?vid=ed619d0b-348c-432d-80fe-b034c3ec9de7","ios":"levelo://app?vid=ed619d0b-348c-432d-80fe-b034c3ec9de7"},"vehicle_type_id":"4","last_reported":1732328002,"current_range_meters":11200,"station_id":"","pricing_plan_id":"cebpf4jnsgd1na2vs0mg"},{"bike_id":"1eff5ce5-2d56-4465-a12c-60db9ec2175a","system_id":"levelo_inurba_marseille","lat":43.22931,"lon":5.35376,"is_reserved":false,"is_disabled":false,"rental_uris":{"android":"levelo://app?vid=1eff5ce5-2d56-4465-a12c-60db9ec2175a","ios":"levelo://app?vid=1eff5ce5-2d56-4465-a12c-60db9ec2175a"},"vehicle_type_id":"4","last_reported":1732328002,"current_range_meters":38000,"station_id":"cpo3532slgdg3j2ikp40","pricing_plan_id":"cebpf4jnsgd1na2vs0mg"},{"bike_id":"dc815649-e3e3-48aa-b0fd-022cdb8ac58a","system_id":"levelo_inurba_marseille","lat":43.32366,"lon":5.38884,"is_reserved":false,"is_disabled":false,"rental_uris":{"android":"levelo://app?vid=dc815649-e3e3-48aa-b0fd-022cdb8ac58a","ios":"levelo://app?vid=dc815649-e3e3-48aa-b0fd-022cdb8ac58a"},"vehicle_type_id":"4","last_reported":1732328002,"current_range_meters":33200,"station_id":"ce4bhqp2rcd13ifvqhog","pricing_plan_id":"cebpf4jnsgd1na2vs0mg"},{"bike_id":"234ad942-13ad-43d3-b740-3e9f0bc28c87","system_id":"levelo_inurba_marseille","lat":43.30468,"lon":5.40181,"is_reserved":false,"is_disabled":false,"rental_uris":{"android":"levelo://app?vid=234ad942-13ad-43d3-b740-3e9f0bc28c87","ios":"levelo://app?vid=234ad942-13ad-43d3-b740-3e9f0bc28c87"},"vehicle_type_id":"4","last_reported":1732328002,"current_range_meters":13600,"station_id":"","pricing_plan_id":"cebpf4jnsgd1na2vs0mg"},{"bike_id":"c9ac1ef6-9ad3-4bc7-b0a2-8ffc1ae0acff","system_id":"levelo_inurba_marseille","lat":43.27812,"lon":5.40713,"is_reserved":false,"is_disabled":false,"rental_uris":{"android":"levelo://app?vid=c9ac1ef6-9ad3-4bc7-b0a2-8ffc1ae0acff","ios":"levelo://app?vid=c9ac1ef6-9ad3-4bc7-b0a2-8ffc1ae0acff"},"vehicle_type_id":"4","last_reported":1732328002,"current_range_meters":30000,"station_id":"ce4bhnh2rcd13ifvqgtg","pricing_plan_id":"cebpf4jnsgd1na2vs0mg"},{"bike_id":"6009d250-3aea-4d66-91ba-2dc21d6db0ce","system_id":"levelo_inurba_marseille","lat":43.2885,"lon":5.35828,"is_reserved":false,"is_disabled":false,"rental_uris":{"android":"levelo://app?vid=6009d250-3aea-4d66-91ba-2dc21d6db0ce","ios":"levelo://app?vid=6009d250-3aea-4d66-91ba-2dc21d6db0ce"},"vehicle_type_id":"4","last_reported":1732328002,"current_range_meters":33200,"station_id":"ce4bhb12rcd13ifvqem0","pricing_plan_id":"cebpf4jnsgd1na2vs0mg"},{"bike_id":"40bfb175-cda3-4130-9075-6a82c9e7fe72","system_id":"levelo_inurba_marseille","lat":43.32338,"lon":5.40634,"is_reserved":false,"is_disabled":false,"rental_uris":{"android":"levelo://app?vid=40bfb175-cda3-4130-9075-6a82c9e7fe72","ios":"levelo://app?vid=40bfb175-cda3-4130-9075-6a82c9e7fe72"},"vehicle_type_id":"4","last_reported":1732328002,"current_range_meters":16400,"station_id":"ce4bhq92rcd13ifvqhjg","pricing_plan_id":"cebpf4jnsgd1na2vs0mg"},{"bike_id":"adad7d03-eeca-495a-b82c-6238ae74e02c","system_id":"levelo_inurba_marseille","lat":43.27656,"lon":5.3891,"is_reserved":false,"is_disabled":false,"rental_uris":{"android":"levelo://app?vid=adad7d03-eeca-495a-b82c-6238ae74e02c","ios":"levelo://app?vid=adad7d03-eeca-495a-b82c-6238ae74e02c"},"vehicle_type_id":"4","last_reported":1732328002,"current_range_meters":12000,"station_id":"ce4bhi12rcd13ifvqfo0","pricing_plan_id":"cebpf4jnsgd1na2vs0mg"},{"bike_id":"5b192c2c-a49f-4570-8e04-4731e4914d36","system_id":"levelo_inurba_marseille","lat":43.2846,"lon":5.35891,"is_reserved":false,"is_disabled":false,"rental_uris":{"android":"levelo://app?vid=5b192c2c-a49f-4570-8e04-4731e4914d36","ios":"levelo://app?vid=5b192c2c-a49f-4570-8e04-4731e4914d36"},"vehicle_type_id":"4","last_reported":1732328002,"current_range_meters":20000,"station_id":"ce4bhah2rcd13ifvqei0","pricing_plan_id":"cebpf4jnsgd1na2vs0mg"},{"bike_id":"5f401a72-6ce7-4d38-9fb6-ee5260b34669","system_id":"levelo_inurba_marseille","lat":43.24066,"lon":5.37751,"is_reserved":false,"is_disabled":false,"rental_uris":{"android":"levelo://app?vid=5f401a72-6ce7-4d38-9fb6-ee5260b34669","ios":"levelo://app?vid=5f401a72-6ce7-4d38-9fb6-ee5260b34669"},"vehicle_type_id":"4","last_reported":1732328002,"current_range_meters":38800,"station_id":"ce4bhnp2rcd13ifvqgvg","pricing_plan_id":"cebpf4jnsgd1na2vs0mg"},{"bike_id":"bb803ab8-179e-4304-a048-75c0e3ad34d4","system_id":"levelo_inurba_marseille","lat":43.2993,"lon":5.36537,"is_reserved":false,"is_disabled":false,"rental_uris":{"android":"levelo://app?vid=bb803ab8-179e-4304-a048-75c0e3ad34d4","ios":"levelo://app?vid=bb803ab8-179e-4304-a048-75c0e3ad34d4"},"vehicle_type_id":"4","last_reported":1732328002,"current_range_meters":36400,"station_id":"ce4bgm92rcd13ifvqbr0","pricing_plan_id":"cebpf4jnsgd1na2vs0mg"},{"bike_id":"394aa3cb-29a8-40b5-be61-196faf34db54","system_id":"levelo_inurba_marseille","lat":43.287,"lon":5.39982,"is_reserved":false,"is_disabled":false,"rental_uris":{"android":"levelo://app?vid=394aa3cb-29a8-40b5-be61-196faf34db54","ios":"levelo://app?vid=394aa3cb-29a8-40b5-be61-196faf34db54"},"vehicle_type_id":"4","last_reported":1732328002,"current_range_meters":10800,"station_id":"ce4bho92rcd13ifvqh3g","pricing_plan_id":"cebpf4jnsgd1na2vs0mg"},{"bike_id":"f796b412-9140-415f-9f98-4b489dc2b14e","system_id":"levelo_inurba_marseille","lat":43.26934,"lon":5.40242,"is_reserved":false,"is_disabled":false,"rental_uris":{"android":"levelo://app?vid=f796b412-9140-415f-9f98-4b489dc2b14e","ios":"levelo://app?vid=f796b412-9140-415f-9f98-4b489dc2b14e"},"vehicle_type_id":"4","last_reported":1732328002,"current_range_meters":36800,"station_id":"cjm6bp8fraef2m0cb0m0","pricing_plan_id":"cebpf4jnsgd1na2vs0mg"},{"bike_id":"367f1ba0-8a90-4e25-ac70-0d13af33ce6c","system_id":"levelo_inurba_marseille","lat":43.28115,"lon":5.3783,"is_reserved":false,"is_disabled":false,"rental_uris":{"android":"levelo://app?vid=367f1ba0-8a90-4e25-ac70-0d13af33ce6c","ios":"levelo://app?vid=367f1ba0-8a90-4e25-ac70-0d13af33ce6c"},"vehicle_type_id":"4","last_reported":1732328002,"current_range_meters":26000,"station_id":"ce4bha12rcd13ifvqee0","pricing_plan_id":"cebpf4jnsgd1na2vs0mg"},{"bike_id":"8249d54c-2dae-4e74-a05f-179f3d742f38","system_id":"levelo_inurba_marseille","lat":43.31069,"lon":5.38338,"is_reserved":false,"is_disabled":false,"rental_uris":{"android":"levelo://app?vid=8249d54c-2dae-4e74-a05f-179f3d742f38","ios":"levelo://app?vid=8249d54c-2dae-4e74-a05f-179f3d742f38"},"vehicle_type_id":"4","last_reported":1732328002,"current_range_meters":20400,"station_id":"ce4bgv92rcd13ifvqcr0","pricing_plan_id":"cebpf4jnsgd1na2vs0mg"},{"bike_id":"edcbf0d7-72a5-445e-b19a-3f7cfa50f275","system_id":"levelo_inurba_marseille","lat":43.27555,"lon":5.38429,"is_reserved":false,"is_disabled":false,"rental_uris":{"android":"levelo://app?vid=edcbf0d7-72a5-445e-b19a-3f7cfa50f275","ios":"levelo://app?vid=edcbf0d7-72a5-445e-b19a-3f7cfa50f275"},"vehicle_type_id":"4","last_reported":1732328002,"current_range_meters":14000,"station_id":"ce4bhh92rcd13ifvqfi0","pricing_plan_id":"cebpf4jnsgd1na2vs0mg"},{"bike_id":"37d530e4-aa71-4f19-9d82-0a059ab08234","system_id":"levelo_inurba_marseille","lat":43.24169,"lon":5.39685,"is_reserved":false,"is_disabled":false,"rental_uris":{"android":"levelo://app?vid=37d530e4-aa71-4f19-9d82-0a059ab08234","ios":"levelo://app?vid=37d530e4-aa71-4f19-9d82-0a059ab08234"},"vehicle_type_id":"4","last_reported":1732328002,"current_range_meters":13600,"station_id":"ce4bhn12rcd13ifvqgpg","pricing_plan_id":"cebpf4jnsgd1na2vs0mg"},{"bike_id":"3adf3628-4a75-4040-8e03-35461167984d","system_id":"levelo_inurba_marseille","lat":43.30653,"lon":5.40078,"is_reserved":false,"is_disabled":false,"rental_uris":{"android":"levelo://app?vid=3adf3628-4a75-4040-8e03-35461167984d","ios":"levelo://app?vid=3adf3628-4a75-4040-8e03-35461167984d"},"vehicle_type_id":"4","last_reported":1732328002,"current_range_meters":38800,"station_id":"ce4bh112rcd13ifvqda0","pricing_plan_id":"cebpf4jnsgd1na2vs0mg"},{"bike_id":"1752c724-2da7-45b5-8b48-74d9be0dc05d","system_id":"levelo_inurba_marseille","lat":43.27991,"lon":5.40014,"is_reserved":false,"is_disabled":true,"rental_uris":{"android":"levelo://app?vid=1752c724-2da7-45b5-8b48-74d9be0dc05d","ios":"levelo://app?vid=1752c724-2da7-45b5-8b48-74d9be0dc05d"},"vehicle_type_id":"4","last_reported":1732328002,"current_range_meters":0,"station_id":"ce4bho92rcd13ifvqh4g","pricing_plan_id":"cebpf4jnsgd1na2vs0mg"},{"bike_id":"768dda3b-d8a0-4769-9ff7-7d19116e329c","system_id":"levelo_inurba_marseille","lat":43.29539,"lon":5.37511,"is_reserved":false,"is_disabled":true,"rental_uris":{"android":"levelo://app?vid=768dda3b-d8a0-4769-9ff7-7d19116e329c","ios":"levelo://app?vid=768dda3b-d8a0-4769-9ff7-7d19116e329c"},"vehicle_type_id":"4","last_reported":1732328002,"current_range_meters":36800,"station_id":"ce4bgkp2rcd13ifvqbmg","pricing_plan_id":"cebpf4jnsgd1na2vs0mg"},{"bike_id":"1e06c9ac-7585-4d5a-872c-bfa47eb31f02","system_id":"levelo_inurba_marseille","lat":43.31369,"lon":5.38494,"is_reserved":false,"is_disabled":false,"rental_uris":{"android":"levelo://app?vid=1e06c9ac-7585-4d5a-872c-bfa47eb31f02","ios":"levelo://app?vid=1e06c9ac-7585-4d5a-872c-bfa47eb31f02"},"vehicle_type_id":"4","last_reported":1732328002,"current_range_meters":12000,"station_id":"ce4bgt92rcd13ifvqcf0","pricing_plan_id":"cebpf4jnsgd1na2vs0mg"},{"bike_id":"8aabf31a-218c-4566-97fd-40ddd5ab45e5","system_id":"levelo_inurba_marseille","lat":43.30518,"lon":5.36568,"is_reserved":false,"is_disabled":false,"rental_uris":{"android":"levelo://app?vid=8aabf31a-218c-4566-97fd-40ddd5ab45e5","ios":"levelo://app?vid=8aabf31a-218c-4566-97fd-40ddd5ab45e5"},"vehicle_type_id":"4","last_reported":1732328002,"current_range_meters":38000,"station_id":"ce4bgs12rcd13ifvqcag","pricing_plan_id":"cebpf4jnsgd1na2vs0mg"},{"bike_id":"dd4544df-eb9d-4c40-8b48-01c6ba03ca19","system_id":"levelo_inurba_marseille","lat":43.31994,"lon":5.38155,"is_reserved":false,"is_disabled":false,"rental_uris":{"android":"levelo://app?vid=dd4544df-eb9d-4c40-8b48-01c6ba03ca19","ios":"levelo://app?vid=dd4544df-eb9d-4c40-8b48-01c6ba03ca19"},"vehicle_type_id":"4","last_reported":1732328002,"current_range_meters":39200,"station_id":"ce4bhr12rcd13ifvqhpg","pricing_plan_id":"cebpf4jnsgd1na2vs0mg"},{"bike_id":"8f40df1e-2d1c-4b75-a850-812c4b1d7ab2","system_id":"levelo_inurba_marseille","lat":43.28435,"lon":5.39196,"is_reserved":false,"is_disabled":false,"rental_uris":{"android":"levelo://app?vid=8f40df1e-2d1c-4b75-a850-812c4b1d7ab2","ios":"levelo://app?vid=8f40df1e-2d1c-4b75-a850-812c4b1d7ab2"},"vehicle_type_id":"4","last_reported":1732328002,"current_range_meters":39200,"station_id":"ce4bhoh2rcd13ifvqh5g","pricing_plan_id":"cebpf4jnsgd1na2vs0mg"},{"bike_id":"b17ca85b-3d4d-4bed-aef8-211251c40e45","system_id":"levelo_inurba_marseille","lat":43.30592,"lon":5.37202,"is_reserved":false,"is_disabled":false,"rental_uris":{"android":"levelo://app?vid=b17ca85b-3d4d-4bed-aef8-211251c40e45","ios":"levelo://app?vid=b17ca85b-3d4d-4bed-aef8-211251c40e45"},"vehicle_type_id":"4","last_reported":1732328002,"current_range_meters":25200,"station_id":"ce4bgqh2rcd13ifvqc4g","pricing_plan_id":"cebpf4jnsgd1na2vs0mg"},{"bike_id":"5aa1b502-b701-4048-b535-9f8e56813d21","system_id":"levelo_inurba_marseille","lat":43.27556,"lon":5.38445,"is_reserved":false,"is_disabled":false,"rental_uris":{"android":"levelo://app?vid=5aa1b502-b701-4048-b535-9f8e56813d21","ios":"levelo://app?vid=5aa1b502-b701-4048-b535-9f8e56813d21"},"vehicle_type_id":"4","last_reported":1732328002,"current_range_meters":29600,"station_id":"ce4bhh92rcd13ifvqfi0","pricing_plan_id":"cebpf4jnsgd1na2vs0mg"},{"bike_id":"d99d745a-edcb-4d3d-bf9d-7fa79bc2aaf5","system_id":"levelo_inurba_marseille","lat":43.32001,"lon":5.38146,"is_reserved":false,"is_disabled":false,"rental_uris":{"android":"levelo://app?vid=d99d745a-edcb-4d3d-bf9d-7fa79bc2aaf5","ios":"levelo://app?vid=d99d745a-edcb-4d3d-bf9d-7fa79bc2aaf5"},"vehicle_type_id":"4","last_reported":1732328002,"current_range_meters":14000,"station_id":"ce4bhr12rcd13ifvqhpg","pricing_plan_id":"cebpf4jnsgd1na2vs0mg"},{"bike_id":"5debe32c-0bd6-47bf-a823-f11af9dcac84","system_id":"levelo_inurba_marseille","lat":43.29445,"lon":5.39734,"is_reserved":false,"is_disabled":false,"rental_uris":{"android":"levelo://app?vid=5debe32c-0bd6-47bf-a823-f11af9dcac84","ios":"levelo://app?vid=5debe32c-0bd6-47bf-a823-f11af9dcac84"},"vehicle_type_id":"4","last_reported":1732328002,"current_range_meters":40000,"station_id":"ce4bh3h2rcd13ifvqdo0","pricing_plan_id":"cebpf4jnsgd1na2vs0mg"},{"bike_id":"5e10f08d-feb7-422d-828a-b3a3368e1542","system_id":"levelo_inurba_marseille","lat":43.29248,"lon":5.40904,"is_reserved":false,"is_disabled":false,"rental_uris":{"android":"levelo://app?vid=5e10f08d-feb7-422d-828a-b3a3368e1542","ios":"levelo://app?vid=5e10f08d-feb7-422d-828a-b3a3368e1542"},"vehicle_type_id":"4","last_reported":1732328002,"current_range_meters":35600,"station_id":"ce4bh192rcd13ifvqdc0","pricing_plan_id":"cebpf4jnsgd1na2vs0mg"},{"bike_id":"8db640b0-0205-49aa-a1c2-12e4b645a9fb","system_id":"levelo_inurba_marseille","lat":43.25095,"lon":5.39504,"is_reserved":false,"is_disabled":false,"rental_uris":{"android":"levelo://app?vid=8db640b0-0205-49aa-a1c2-12e4b645a9fb","ios":"levelo://app?vid=8db640b0-0205-49aa-a1c2-12e4b645a9fb"},"vehicle_type_id":"4","last_reported":1732328002,"current_range_meters":38400,"station_id":"ce4bhm12rcd13ifvqgkg","pricing_plan_id":"cebpf4jnsgd1na2vs0mg"},{"bike_id":"1aa7b156-99d6-49b0-922b-7480afc98a4a","system_id":"levelo_inurba_marseille","lat":43.28468,"lon":5.35889,"is_reserved":false,"is_disabled":false,"rental_uris":{"android":"levelo://app?vid=1aa7b156-99d6-49b0-922b-7480afc98a4a","ios":"levelo://app?vid=1aa7b156-99d6-49b0-922b-7480afc98a4a"},"vehicle_type_id":"4","last_reported":1732328002,"current_range_meters":25600,"station_id":"ce4bhah2rcd13ifvqei0","pricing_plan_id":"cebpf4jnsgd1na2vs0mg"},{"bike_id":"552ae1f9-34eb-4d70-a19b-3616d3661778","system_id":"levelo_inurba_marseille","lat":43.33735,"lon":5.39185,"is_reserved":false,"is_disabled":false,"rental_uris":{"android":"levelo://app?vid=552ae1f9-34eb-4d70-a19b-3616d3661778","ios":"levelo://app?vid=552ae1f9-34eb-4d70-a19b-3616d3661778"},"vehicle_type_id":"4","last_reported":1732328002,"current_range_meters":22800,"station_id":"ce4bhr92rcd13ifvqhsg","pricing_plan_id":"cebpf4jnsgd1na2vs0mg"},{"bike_id":"a6dc8ae3-9f28-42e2-a226-975f1858d555","system_id":"levelo_inurba_marseille","lat":43.3248,"lon":5.36573,"is_reserved":false,"is_disabled":false,"rental_uris":{"android":"levelo://app?vid=a6dc8ae3-9f28-42e2-a226-975f1858d555","ios":"levelo://app?vid=a6dc8ae3-9f28-42e2-a226-975f1858d555"},"vehicle_type_id":"4","last_reported":1732328002,"current_range_meters":34000,"station_id":"ce4bhs12rcd13ifvqhvg","pricing_plan_id":"cebpf4jnsgd1na2vs0mg"},{"bike_id":"f7f3756c-1ec7-4782-9c87-6273f87b6774","system_id":"levelo_inurba_marseille","lat":43.337444,"lon":5.374475,"is_reserved":false,"is_disabled":false,"rental_uris":{"android":"levelo://app?vid=f7f3756c-1ec7-4782-9c87-6273f87b6774","ios":"levelo://app?vid=f7f3756c-1ec7-4782-9c87-6273f87b6774"},"vehicle_type_id":"4","last_reported":1732328002,"current_range_meters":35200,"station_id":"","pricing_plan_id":"cebpf4jnsgd1na2vs0mg"},{"bike_id":"bdca9a5b-dace-4172-b957-73aa4aa4eeb4","system_id":"levelo_inurba_marseille","lat":43.26563,"lon":5.39003,"is_reserved":false,"is_disabled":true,"rental_uris":{"android":"levelo://app?vid=bdca9a5b-dace-4172-b957-73aa4aa4eeb4","ios":"levelo://app?vid=bdca9a5b-dace-4172-b957-73aa4aa4eeb4"},"vehicle_type_id":"4","last_reported":1732328002,"current_range_meters":38400,"station_id":"ce4bhe12rcd13ifvqf30","pricing_plan_id":"cebpf4jnsgd1na2vs0mg"},{"bike_id":"f9c18138-6120-4734-9367-8a3654ff016f","system_id":"levelo_inurba_marseille","lat":43.30632,"lon":5.40058,"is_reserved":false,"is_disabled":false,"rental_uris":{"android":"levelo://app?vid=f9c18138-6120-4734-9367-8a3654ff016f","ios":"levelo://app?vid=f9c18138-6120-4734-9367-8a3654ff016f"},"vehicle_type_id":"4","last_reported":1732328002,"current_range_meters":24800,"station_id":"ce4bh112rcd13ifvqda0","pricing_plan_id":"cebpf4jnsgd1na2vs0mg"},{"bike_id":"e8f826ec-cf1d-427e-a65b-cf83f280be00","system_id":"levelo_inurba_marseille","lat":43.27062,"lon":5.4026,"is_reserved":false,"is_disabled":false,"rental_uris":{"android":"levelo://app?vid=e8f826ec-cf1d-427e-a65b-cf83f280be00","ios":"levelo://app?vid=e8f826ec-cf1d-427e-a65b-cf83f280be00"},"vehicle_type_id":"4","last_reported":1732328002,"current_range_meters":4800,"station_id":"ce4bhk92rcd13ifvqgc0","pricing_plan_id":"cebpf4jnsgd1na2vs0mg"},{"bike_id":"99280cf8-c049-4d28-b9ac-acaa05e32f0f","system_id":"levelo_inurba_marseille","lat":43.29549,"lon":5.42277,"is_reserved":false,"is_disabled":false,"rental_uris":{"android":"levelo://app?vid=99280cf8-c049-4d28-b9ac-acaa05e32f0f","ios":"levelo://app?vid=99280cf8-c049-4d28-b9ac-acaa05e32f0f"},"vehicle_type_id":"4","last_reported":1732328002,"current_range_meters":39200,"station_id":"ce4bhph2rcd13ifvqhdg","pricing_plan_id":"cebpf4jnsgd1na2vs0mg"},{"bike_id":"7321aabf-b088-45e0-9d91-8e497e6d692a","system_id":"levelo_inurba_marseille","lat":43.31761,"lon":5.39013,"is_reserved":false,"is_disabled":false,"rental_uris":{"android":"levelo://app?vid=7321aabf-b088-45e0-9d91-8e497e6d692a","ios":"levelo://app?vid=7321aabf-b088-45e0-9d91-8e497e6d692a"},"vehicle_type_id":"4","last_reported":1732328002,"current_range_meters":28400,"station_id":"ce4bhqp2rcd13ifvqhng","pricing_plan_id":"cebpf4jnsgd1na2vs0mg"},{"bike_id":"0eb61bb6-3d03-4d33-be57-99d7b15d85b5","system_id":"levelo_inurba_marseille","lat":43.22935,"lon":5.35384,"is_reserved":false,"is_disabled":false,"rental_uris":{"android":"levelo://app?vid=0eb61bb6-3d03-4d33-be57-99d7b15d85b5","ios":"levelo://app?vid=0eb61bb6-3d03-4d33-be57-99d7b15d85b5"},"vehicle_type_id":"4","last_reported":1732328002,"current_range_meters":24800,"station_id":"cpo3532slgdg3j2ikp40","pricing_plan_id":"cebpf4jnsgd1na2vs0mg"},{"bike_id":"823ca48e-34f1-449c-a5da-5afdd1a0b554","system_id":"levelo_inurba_marseille","lat":43.32372,"lon":5.38876,"is_reserved":false,"is_disabled":false,"rental_uris":{"android":"levelo://app?vid=823ca48e-34f1-449c-a5da-5afdd1a0b554","ios":"levelo://app?vid=823ca48e-34f1-449c-a5da-5afdd1a0b554"},"vehicle_type_id":"4","last_reported":1732328002,"current_range_meters":30400,"station_id":"ce4bhq92rcd13ifvqhjg","pricing_plan_id":"cebpf4jnsgd1na2vs0mg"},{"bike_id":"e74125a9-74c4-4830-af92-47ce6562e6bd","system_id":"levelo_inurba_marseille","lat":43.24649,"lon":5.38905,"is_reserved":false,"is_disabled":false,"rental_uris":{"android":"levelo://app?vid=e74125a9-74c4-4830-af92-47ce6562e6bd","ios":"levelo://app?vid=e74125a9-74c4-4830-af92-47ce6562e6bd"},"vehicle_type_id":"4","last_reported":1732328002,"current_range_meters":38800,"station_id":"ce4bhg12rcd13ifvqf60","pricing_plan_id":"cebpf4jnsgd1na2vs0mg"},{"bike_id":"e1a5dd79-cd24-41c5-a330-ceca0e0b1839","system_id":"levelo_inurba_marseille","lat":43.25309,"lon":5.39459,"is_reserved":false,"is_disabled":false,"rental_uris":{"android":"levelo://app?vid=e1a5dd79-cd24-41c5-a330-ceca0e0b1839","ios":"levelo://app?vid=e1a5dd79-cd24-41c5-a330-ceca0e0b1839"},"vehicle_type_id":"4","last_reported":1732328002,"current_range_meters":32400,"station_id":"ce4bhm12rcd13ifvqgkg","pricing_plan_id":"cebpf4jnsgd1na2vs0mg"},{"bike_id":"a2c58c6c-a2f6-40b4-994d-3b31e7787b44","system_id":"levelo_inurba_marseille","lat":43.28422,"lon":5.34988,"is_reserved":false,"is_disabled":false,"rental_uris":{"android":"levelo://app?vid=a2c58c6c-a2f6-40b4-994d-3b31e7787b44","ios":"levelo://app?vid=a2c58c6c-a2f6-40b4-994d-3b31e7787b44"},"vehicle_type_id":"4","last_reported":1732328002,"current_range_meters":29600,"station_id":"ce4bhbh2rcd13ifvqepg","pricing_plan_id":"cebpf4jnsgd1na2vs0mg"},{"bike_id":"c2a59ab3-d6b8-4918-82c9-bfcce921601e","system_id":"levelo_inurba_marseille","lat":43.32481,"lon":5.36598,"is_reserved":false,"is_disabled":false,"rental_uris":{"android":"levelo://app?vid=c2a59ab3-d6b8-4918-82c9-bfcce921601e","ios":"levelo://app?vid=c2a59ab3-d6b8-4918-82c9-bfcce921601e"},"vehicle_type_id":"4","last_reported":1732328002,"current_range_meters":14000,"station_id":"ce4bhs12rcd13ifvqhvg","pricing_plan_id":"cebpf4jnsgd1na2vs0mg"},{"bike_id":"37a654ed-58fa-4998-b2e5-5abd472bbba9","system_id":"levelo_inurba_marseille","lat":43.32483,"lon":5.36555,"is_reserved":false,"is_disabled":false,"rental_uris":{"android":"levelo://app?vid=37a654ed-58fa-4998-b2e5-5abd472bbba9","ios":"levelo://app?vid=37a654ed-58fa-4998-b2e5-5abd472bbba9"},"vehicle_type_id":"4","last_reported":1732328002,"current_range_meters":30000,"station_id":"ce4bhs12rcd13ifvqhvg","pricing_plan_id":"cebpf4jnsgd1na2vs0mg"},{"bike_id":"58c180dc-c06a-46fe-9701-0fd5163c8626","system_id":"levelo_inurba_marseille","lat":43.29571,"lon":5.42297,"is_reserved":false,"is_disabled":false,"rental_uris":{"android":"levelo://app?vid=58c180dc-c06a-46fe-9701-0fd5163c8626","ios":"levelo://app?vid=58c180dc-c06a-46fe-9701-0fd5163c8626"},"vehicle_type_id":"4","last_reported":1732328002,"current_range_meters":38000,"station_id":"ce4bhph2rcd13ifvqhdg","pricing_plan_id":"cebpf4jnsgd1na2vs0mg"},{"bike_id":"9c29a465-4c9d-46cd-a8b3-4856488c557a","system_id":"levelo_inurba_marseille","lat":43.25497,"lon":5.37652,"is_reserved":false,"is_disabled":false,"rental_uris":{"android":"levelo://app?vid=9c29a465-4c9d-46cd-a8b3-4856488c557a","ios":"levelo://app?vid=9c29a465-4c9d-46cd-a8b3-4856488c557a"},"vehicle_type_id":"4","last_reported":1732328002,"current_range_meters":28800,"station_id":"ce4bhh12rcd13ifvqff0","pricing_plan_id":"cebpf4jnsgd1na2vs0mg"},{"bike_id":"0077a7bd-d14c-42a8-abde-80b2aa5ab280","system_id":"levelo_inurba_marseille","lat":43.29293,"lon":5.37452,"is_reserved":false,"is_disabled":true,"rental_uris":{"android":"levelo://app?vid=0077a7bd-d14c-42a8-abde-80b2aa5ab280","ios":"levelo://app?vid=0077a7bd-d14c-42a8-abde-80b2aa5ab280"},"vehicle_type_id":"4","last_reported":1732328002,"current_range_meters":28000,"station_id":"ce4bgi12rcd13ifvqb70","pricing_plan_id":"cebpf4jnsgd1na2vs0mg"},{"bike_id":"1821a8f4-a76a-4762-b8a8-a42d6e87b8b9","system_id":"levelo_inurba_marseille","lat":43.29045,"lon":5.39947,"is_reserved":false,"is_disabled":false,"rental_uris":{"android":"levelo://app?vid=1821a8f4-a76a-4762-b8a8-a42d6e87b8b9","ios":"levelo://app?vid=1821a8f4-a76a-4762-b8a8-a42d6e87b8b9"},"vehicle_type_id":"4","last_reported":1732328002,"current_range_meters":21600,"station_id":"ce4bh392rcd13ifvqdm0","pricing_plan_id":"cebpf4jnsgd1na2vs0mg"},{"bike_id":"b60466ef-8514-4f53-ab0a-ebf1071dc205","system_id":"levelo_inurba_marseille","lat":43.32369,"lon":5.38873,"is_reserved":false,"is_disabled":false,"rental_uris":{"android":"levelo://app?vid=b60466ef-8514-4f53-ab0a-ebf1071dc205","ios":"levelo://app?vid=b60466ef-8514-4f53-ab0a-ebf1071dc205"},"vehicle_type_id":"4","last_reported":1732328002,"current_range_meters":31200,"station_id":"ce4bhqp2rcd13ifvqhog","pricing_plan_id":"cebpf4jnsgd1na2vs0mg"},{"bike_id":"bd1f0a15-6c6c-43b6-b7f7-454275d4e2ba","system_id":"levelo_inurba_marseille","lat":43.28716,"lon":5.3795,"is_reserved":false,"is_disabled":false,"rental_uris":{"android":"levelo://app?vid=bd1f0a15-6c6c-43b6-b7f7-454275d4e2ba","ios":"levelo://app?vid=bd1f0a15-6c6c-43b6-b7f7-454275d4e2ba"},"vehicle_type_id":"4","last_reported":1732328002,"current_range_meters":38000,"station_id":"ce4bh9p2rcd13ifvqec0","pricing_plan_id":"cebpf4jnsgd1na2vs0mg"},{"bike_id":"20db0e6b-7fc1-4f13-aeb2-811ab390dd13","system_id":"levelo_inurba_marseille","lat":43.32486,"lon":5.36573,"is_reserved":false,"is_disabled":false,"rental_uris":{"android":"levelo://app?vid=20db0e6b-7fc1-4f13-aeb2-811ab390dd13","ios":"levelo://app?vid=20db0e6b-7fc1-4f13-aeb2-811ab390dd13"},"vehicle_type_id":"4","last_reported":1732328002,"current_range_meters":37600,"station_id":"ce4bhs12rcd13ifvqhvg","pricing_plan_id":"cebpf4jnsgd1na2vs0mg"},{"bike_id":"8ba6c2b1-6645-4726-8f50-5a447b5e9af2","system_id":"levelo_inurba_marseille","lat":43.3137,"lon":5.38499,"is_reserved":false,"is_disabled":false,"rental_uris":{"android":"levelo://app?vid=8ba6c2b1-6645-4726-8f50-5a447b5e9af2","ios":"levelo://app?vid=8ba6c2b1-6645-4726-8f50-5a447b5e9af2"},"vehicle_type_id":"4","last_reported":1732328002,"current_range_meters":39200,"station_id":"ce4bgt92rcd13ifvqcf0","pricing_plan_id":"cebpf4jnsgd1na2vs0mg"},{"bike_id":"13b751d7-077d-4f29-8350-fc32ddaecb6a","system_id":"levelo_inurba_marseille","lat":43.26541,"lon":5.37303,"is_reserved":false,"is_disabled":false,"rental_uris":{"android":"levelo://app?vid=13b751d7-077d-4f29-8350-fc32ddaecb6a","ios":"levelo://app?vid=13b751d7-077d-4f29-8350-fc32ddaecb6a"},"vehicle_type_id":"4","last_reported":1732328002,"current_range_meters":36000,"station_id":"ce4bhg12rcd13ifvqf70","pricing_plan_id":"cebpf4jnsgd1na2vs0mg"},{"bike_id":"e5951ee3-4a5a-4ebb-b469-096c5188dfa3","system_id":"levelo_inurba_marseille","lat":43.23191,"lon":5.35564,"is_reserved":false,"is_disabled":false,"rental_uris":{"android":"levelo://app?vid=e5951ee3-4a5a-4ebb-b469-096c5188dfa3","ios":"levelo://app?vid=e5951ee3-4a5a-4ebb-b469-096c5188dfa3"},"vehicle_type_id":"4","last_reported":1732328002,"current_range_meters":25600,"station_id":"ce4bhu92rcd13ifvqi70","pricing_plan_id":"cebpf4jnsgd1na2vs0mg"},{"bike_id":"31753f3e-d401-4c50-b90a-b53a739d594a","system_id":"levelo_inurba_marseille","lat":43.28306,"lon":5.43227,"is_reserved":false,"is_disabled":false,"rental_uris":{"android":"levelo://app?vid=31753f3e-d401-4c50-b90a-b53a739d594a","ios":"levelo://app?vid=31753f3e-d401-4c50-b90a-b53a739d594a"},"vehicle_type_id":"4","last_reported":1732328002,"current_range_meters":26000,"station_id":"","pricing_plan_id":"cebpf4jnsgd1na2vs0mg"},{"bike_id":"bf9491c2-211c-40b6-a87f-b167fabb26bf","system_id":"levelo_inurba_marseille","lat":43.26812,"lon":5.40253,"is_reserved":false,"is_disabled":false,"rental_uris":{"android":"levelo://app?vid=bf9491c2-211c-40b6-a87f-b167fabb26bf","ios":"levelo://app?vid=bf9491c2-211c-40b6-a87f-b167fabb26bf"},"vehicle_type_id":"4","last_reported":1732328002,"current_range_meters":27600,"station_id":"ce501612rcd8frsf0b60","pricing_plan_id":"cebpf4jnsgd1na2vs0mg"},{"bike_id":"c2783b38-4249-458f-a0db-abc1d98992c4","system_id":"levelo_inurba_marseille","lat":43.29172,"lon":5.35812,"is_reserved":false,"is_disabled":false,"rental_uris":{"android":"levelo://app?vid=c2783b38-4249-458f-a0db-abc1d98992c4","ios":"levelo://app?vid=c2783b38-4249-458f-a0db-abc1d98992c4"},"vehicle_type_id":"4","last_reported":1732328002,"current_range_meters":17200,"station_id":"ce4bhb12rcd13ifvqel0","pricing_plan_id":"cebpf4jnsgd1na2vs0mg"},{"bike_id":"598543c3-4504-4ea3-976e-b45e767de5ed","system_id":"levelo_inurba_marseille","lat":43.32364,"lon":5.38896,"is_reserved":false,"is_disabled":false,"rental_uris":{"android":"levelo://app?vid=598543c3-4504-4ea3-976e-b45e767de5ed","ios":"levelo://app?vid=598543c3-4504-4ea3-976e-b45e767de5ed"},"vehicle_type_id":"4","last_reported":1732328002,"current_range_meters":32800,"station_id":"ce4bhqp2rcd13ifvqhog","pricing_plan_id":"cebpf4jnsgd1na2vs0mg"},{"bike_id":"6d4abf82-2eae-4b30-9437-26a6dc918bb7","system_id":"levelo_inurba_marseille","lat":43.29219,"lon":5.40168,"is_reserved":false,"is_disabled":false,"rental_uris":{"android":"levelo://app?vid=6d4abf82-2eae-4b30-9437-26a6dc918bb7","ios":"levelo://app?vid=6d4abf82-2eae-4b30-9437-26a6dc918bb7"},"vehicle_type_id":"4","last_reported":1732328002,"current_range_meters":37600,"station_id":"ce4bh312rcd13ifvqdk0","pricing_plan_id":"cebpf4jnsgd1na2vs0mg"},{"bike_id":"44abef4f-7bb3-417f-9f17-632a234b6e5d","system_id":"levelo_inurba_marseille","lat":43.32107,"lon":5.368,"is_reserved":false,"is_disabled":false,"rental_uris":{"android":"levelo://app?vid=44abef4f-7bb3-417f-9f17-632a234b6e5d","ios":"levelo://app?vid=44abef4f-7bb3-417f-9f17-632a234b6e5d"},"vehicle_type_id":"4","last_reported":1732328002,"current_range_meters":18800,"station_id":"ce4bhrh2rcd13ifvqhug","pricing_plan_id":"cebpf4jnsgd1na2vs0mg"},{"bike_id":"830ab6f1-9f97-4b81-a374-96032fba99d2","system_id":"levelo_inurba_marseille","lat":43.24462,"lon":5.36892,"is_reserved":false,"is_disabled":true,"rental_uris":{"android":"levelo://app?vid=830ab6f1-9f97-4b81-a374-96032fba99d2","ios":"levelo://app?vid=830ab6f1-9f97-4b81-a374-96032fba99d2"},"vehicle_type_id":"4","last_reported":1732328002,"current_range_meters":24000,"station_id":"","pricing_plan_id":"cebpf4jnsgd1na2vs0mg"},{"bike_id":"6c948e9c-d5b3-4fe5-a918-1bd2f7c83b02","system_id":"levelo_inurba_marseille","lat":43.321,"lon":5.36784,"is_reserved":false,"is_disabled":false,"rental_uris":{"android":"levelo://app?vid=6c948e9c-d5b3-4fe5-a918-1bd2f7c83b02","ios":"levelo://app?vid=6c948e9c-d5b3-4fe5-a918-1bd2f7c83b02"},"vehicle_type_id":"4","last_reported":1732328002,"current_range_meters":35600,"station_id":"ce4bhrh2rcd13ifvqhug","pricing_plan_id":"cebpf4jnsgd1na2vs0mg"},{"bike_id":"9e620abf-d324-4f99-84fc-d67e71109f2a","system_id":"levelo_inurba_marseille","lat":43.31078,"lon":5.42428,"is_reserved":false,"is_disabled":true,"rental_uris":{"android":"levelo://app?vid=9e620abf-d324-4f99-84fc-d67e71109f2a","ios":"levelo://app?vid=9e620abf-d324-4f99-84fc-d67e71109f2a"},"vehicle_type_id":"4","last_reported":1732328002,"current_range_meters":0,"station_id":"ce4bhp92rcd13ifvqhag","pricing_plan_id":"cebpf4jnsgd1na2vs0mg"},{"bike_id":"9388a7ff-9c5c-4c26-9899-39b2408cf7e3","system_id":"levelo_inurba_marseille","lat":43.31025,"lon":5.38342,"is_reserved":false,"is_disabled":true,"rental_uris":{"android":"levelo://app?vid=9388a7ff-9c5c-4c26-9899-39b2408cf7e3","ios":"levelo://app?vid=9388a7ff-9c5c-4c26-9899-39b2408cf7e3"},"vehicle_type_id":"4","last_reported":1732328002,"current_range_meters":0,"station_id":"","pricing_plan_id":"cebpf4jnsgd1na2vs0mg"},{"bike_id":"510e9f28-21eb-4f2f-8550-9e4424ec416c","system_id":"levelo_inurba_marseille","lat":43.23964,"lon":5.3663,"is_reserved":false,"is_disabled":false,"rental_uris":{"android":"levelo://app?vid=510e9f28-21eb-4f2f-8550-9e4424ec416c","ios":"levelo://app?vid=510e9f28-21eb-4f2f-8550-9e4424ec416c"},"vehicle_type_id":"4","last_reported":1732328002,"current_range_meters":38400,"station_id":"ce4bhi12rcd13ifvqfp0","pricing_plan_id":"cebpf4jnsgd1na2vs0mg"},{"bike_id":"5107f061-ec16-425c-94c0-96240520b5b6","system_id":"levelo_inurba_marseille","lat":43.24678,"lon":5.38149,"is_reserved":false,"is_disabled":false,"rental_uris":{"android":"levelo://app?vid=5107f061-ec16-425c-94c0-96240520b5b6","ios":"levelo://app?vid=5107f061-ec16-425c-94c0-96240520b5b6"},"vehicle_type_id":"4","last_reported":1732328002,"current_range_meters":22400,"station_id":"ce4bhih2rcd13ifvqfr0","pricing_plan_id":"cebpf4jnsgd1na2vs0mg"},{"bike_id":"b655e67f-3daa-4d19-94e5-9c754246564d","system_id":"levelo_inurba_marseille","lat":43.32369,"lon":5.38879,"is_reserved":false,"is_disabled":false,"rental_uris":{"android":"levelo://app?vid=b655e67f-3daa-4d19-94e5-9c754246564d","ios":"levelo://app?vid=b655e67f-3daa-4d19-94e5-9c754246564d"},"vehicle_type_id":"4","last_reported":1732328002,"current_range_meters":16400,"station_id":"ce4bhqp2rcd13ifvqhog","pricing_plan_id":"cebpf4jnsgd1na2vs0mg"},{"bike_id":"164d8ecf-9ef9-4eba-a6de-29c17c03ee13","system_id":"levelo_inurba_marseille","lat":43.26035,"lon":5.37551,"is_reserved":false,"is_disabled":false,"rental_uris":{"android":"levelo://app?vid=164d8ecf-9ef9-4eba-a6de-29c17c03ee13","ios":"levelo://app?vid=164d8ecf-9ef9-4eba-a6de-29c17c03ee13"},"vehicle_type_id":"4","last_reported":1732328002,"current_range_meters":11600,"station_id":"ce4bhgh2rcd13ifvqfa0","pricing_plan_id":"cebpf4jnsgd1na2vs0mg"},{"bike_id":"5d97dd4f-62d2-4805-a5fe-afd07ea27b51","system_id":"levelo_inurba_marseille","lat":43.28034,"lon":5.36947,"is_reserved":false,"is_disabled":false,"rental_uris":{"android":"levelo://app?vid=5d97dd4f-62d2-4805-a5fe-afd07ea27b51","ios":"levelo://app?vid=5d97dd4f-62d2-4805-a5fe-afd07ea27b51"},"vehicle_type_id":"4","last_reported":1732328002,"current_range_meters":38400,"station_id":"ce4bha12rcd13ifvqef0","pricing_plan_id":"cebpf4jnsgd1na2vs0mg"},{"bike_id":"be4ab83e-8eac-4570-8e86-d490585c7602","system_id":"levelo_inurba_marseille","lat":43.2846,"lon":5.35879,"is_reserved":false,"is_disabled":false,"rental_uris":{"android":"levelo://app?vid=be4ab83e-8eac-4570-8e86-d490585c7602","ios":"levelo://app?vid=be4ab83e-8eac-4570-8e86-d490585c7602"},"vehicle_type_id":"4","last_reported":1732328002,"current_range_meters":24400,"station_id":"ce4bhah2rcd13ifvqei0","pricing_plan_id":"cebpf4jnsgd1na2vs0mg"},{"bike_id":"5c53cfbd-2547-413a-b79a-f8cc3b1ca992","system_id":"levelo_inurba_marseille","lat":43.3211,"lon":5.36786,"is_reserved":false,"is_disabled":false,"rental_uris":{"android":"levelo://app?vid=5c53cfbd-2547-413a-b79a-f8cc3b1ca992","ios":"levelo://app?vid=5c53cfbd-2547-413a-b79a-f8cc3b1ca992"},"vehicle_type_id":"4","last_reported":1732328002,"current_range_meters":12000,"station_id":"ce4bhrh2rcd13ifvqhug","pricing_plan_id":"cebpf4jnsgd1na2vs0mg"},{"bike_id":"e0b9eeec-d583-4d8c-8128-8821fd6a95c8","system_id":"levelo_inurba_marseille","lat":43.30883,"lon":5.39635,"is_reserved":false,"is_disabled":false,"rental_uris":{"android":"levelo://app?vid=e0b9eeec-d583-4d8c-8128-8821fd6a95c8","ios":"levelo://app?vid=e0b9eeec-d583-4d8c-8128-8821fd6a95c8"},"vehicle_type_id":"4","last_reported":1732328002,"current_range_meters":36800,"station_id":"ce4bh012rcd13ifvqcv0","pricing_plan_id":"cebpf4jnsgd1na2vs0mg"},{"bike_id":"61a35f1c-54d8-4a01-80b9-5352ba3741f9","system_id":"levelo_inurba_marseille","lat":43.31167,"lon":5.3871,"is_reserved":false,"is_disabled":false,"rental_uris":{"android":"levelo://app?vid=61a35f1c-54d8-4a01-80b9-5352ba3741f9","ios":"levelo://app?vid=61a35f1c-54d8-4a01-80b9-5352ba3741f9"},"vehicle_type_id":"4","last_reported":1732328002,"current_range_meters":27600,"station_id":"ce4bgv12rcd13ifvqcp0","pricing_plan_id":"cebpf4jnsgd1na2vs0mg"},{"bike_id":"85c01c0b-dd5c-4809-bf61-68287b12d903","system_id":"levelo_inurba_marseille","lat":43.32367,"lon":5.38893,"is_reserved":false,"is_disabled":false,"rental_uris":{"android":"levelo://app?vid=85c01c0b-dd5c-4809-bf61-68287b12d903","ios":"levelo://app?vid=85c01c0b-dd5c-4809-bf61-68287b12d903"},