{"last_updated":1732806567,"ttl":60,"version":"2.2","data":{"bikes":[{"bike_id":"1aed983f-4c3e-4fb0-9461-985c409763c2","system_id":"levelo_inurba_marseille","lat":43.29004,"lon":5.35613,"is_reserved":false,"is_disabled":false,"rental_uris":{"android":"levelo://app?vid=1aed983f-4c3e-4fb0-9461-985c409763c2","ios":"levelo://app?vid=1aed983f-4c3e-4fb0-9461-985c409763c2"},"vehicle_type_id":"4","last_reported":1732806567,"current_range_meters":19200,"station_id":"ce4bhb92rcd13ifvqen0","pricing_plan_id":"cebpf4jnsgd1na2vs0mg"},{"bike_id":"4ca5140b-0ba5-4370-a987-21f37b08b44e","system_id":"levelo_inurba_marseille","lat":43.29082,"lon":5.38117,"is_reserved":false,"is_disabled":false,"rental_uris":{"android":"levelo://app?vid=4ca5140b-0ba5-4370-a987-21f37b08b44e","ios":"levelo://app?vid=4ca5140b-0ba5-4370-a987-21f37b08b44e"},"vehicle_type_id":"4","last_reported":1732806567,"current_range_meters":11200,"station_id":"ce4bh512rcd13ifvqe2g","pricing_plan_id":"cebpf4jnsgd1na2vs0mg"},{"bike_id":"b856c8b4-412d-4c25-bdd4-e6b29aed04cb","system_id":"levelo_inurba_marseille","lat":43.22941,"lon":5.35378,"is_reserved":false,"is_disabled":false,"rental_uris":{"android":"levelo://app?vid=b856c8b4-412d-4c25-bdd4-e6b29aed04cb","ios":"levelo://app?vid=b856c8b4-412d-4c25-bdd4-e6b29aed04cb"},"vehicle_type_id":"4","last_reported":1732806567,"current_range_meters":39200,"station_id":"cpo3532slgdg3j2ikp40","pricing_plan_id":"cebpf4jnsgd1na2vs0mg"},{"bike_id":"d0754314-ad13-46f1-89ef-a51badd51de6","system_id":"levelo_inurba_marseille","lat":43.23155,"lon":5.43712,"is_reserved":false,"is_disabled":false,"rental_uris":{"android":"levelo://app?vid=d0754314-ad13-46f1-89ef-a51badd51de6","ios":"levelo://app?vid=d0754314-ad13-46f1-89ef-a51badd51de6"},"vehicle_type_id":"4","last_reported":1732806567,"current_range_meters":37600,"station_id":"ce4bhmp2rcd13ifvqgog","pricing_plan_id":"cebpf4jnsgd1na2vs0mg"},{"bike_id":"412f8536-852d-4775-81fa-fff8be0a8afc","system_id":"levelo_inurba_marseille","lat":43.30294,"lon":5.36885,"is_reserved":false,"is_disabled":false,"rental_uris":{"android":"levelo://app?vid=412f8536-852d-4775-81fa-fff8be0a8afc","ios":"levelo://app?vid=412f8536-852d-4775-81fa-fff8be0a8afc"},"vehicle_type_id":"4","last_reported":1732806567,"current_range_meters":17600,"station_id":"ce4bgqh2rcd13ifvqc5g","pricing_plan_id":"cebpf4jnsgd1na2vs0mg"},{"bike_id":"7bd7e44c-758d-4d28-bc61-c74ff858e1eb","system_id":"levelo_inurba_marseille","lat":43.31526,"lon":5.38041,"is_reserved":false,"is_disabled":false,"rental_uris":{"android":"levelo://app?vid=7bd7e44c-758d-4d28-bc61-c74ff858e1eb","ios":"levelo://app?vid=7bd7e44c-758d-4d28-bc61-c74ff858e1eb"},"vehicle_type_id":"4","last_reported":1732806567,"current_range_meters":29600,"station_id":"ce4bhsp2rcd13ifvqi50","pricing_plan_id":"cebpf4jnsgd1na2vs0mg"},{"bike_id":"88740c56-e146-4945-8045-2c9f1daf0885","system_id":"levelo_inurba_marseille","lat":43.26796,"lon":5.40272,"is_reserved":false,"is_disabled":false,"rental_uris":{"android":"levelo://app?vid=88740c56-e146-4945-8045-2c9f1daf0885","ios":"levelo://app?vid=88740c56-e146-4945-8045-2c9f1daf0885"},"vehicle_type_id":"4","last_reported":1732806567,"current_range_meters":37600,"station_id":"ce501612rcd8frsf0b60","pricing_plan_id":"cebpf4jnsgd1na2vs0mg"},{"bike_id":"8b606e12-d2c9-41bb-a2e2-b72a2fcca1e1","system_id":"levelo_inurba_marseille","lat":43.30869,"lon":5.37529,"is_reserved":false,"is_disabled":true,"rental_uris":{"android":"levelo://app?vid=8b606e12-d2c9-41bb-a2e2-b72a2fcca1e1","ios":"levelo://app?vid=8b606e12-d2c9-41bb-a2e2-b72a2fcca1e1"},"vehicle_type_id":"4","last_reported":1732806567,"current_range_meters":800,"station_id":"","pricing_plan_id":"cebpf4jnsgd1na2vs0mg"},{"bike_id":"5e9af714-f4b0-4b06-860f-9fcceffc0035","system_id":"levelo_inurba_marseille","lat":43.29789,"lon":5.37099,"is_reserved":false,"is_disabled":false,"rental_uris":{"android":"levelo://app?vid=5e9af714-f4b0-4b06-860f-9fcceffc0035","ios":"levelo://app?vid=5e9af714-f4b0-4b06-860f-9fcceffc0035"},"vehicle_type_id":"4","last_reported":1732806567,"current_range_meters":22400,"station_id":"ce4bgop2rcd13ifvqc1g","pricing_plan_id":"cebpf4jnsgd1na2vs0mg"},{"bike_id":"7cb050a2-dd31-4dfc-998c-812e09e5b7fc","system_id":"levelo_inurba_marseille","lat":43.29804,"lon":5.38107,"is_reserved":false,"is_disabled":true,"rental_uris":{"android":"levelo://app?vid=7cb050a2-dd31-4dfc-998c-812e09e5b7fc","ios":"levelo://app?vid=7cb050a2-dd31-4dfc-998c-812e09e5b7fc"},"vehicle_type_id":"4","last_reported":1732806567,"current_range_meters":0,"station_id":"ce4bgip2rcd13ifvqbb0","pricing_plan_id":"cebpf4jnsgd1na2vs0mg"},{"bike_id":"7a269e8a-4a6e-473b-9065-9f8e36b6d5d6","system_id":"levelo_inurba_marseille","lat":43.26949,"lon":5.40262,"is_reserved":false,"is_disabled":false,"rental_uris":{"android":"levelo://app?vid=7a269e8a-4a6e-473b-9065-9f8e36b6d5d6","ios":"levelo://app?vid=7a269e8a-4a6e-473b-9065-9f8e36b6d5d6"},"vehicle_type_id":"4","last_reported":1732806567,"current_range_meters":28400,"station_id":"cjm6bp8fraef2m0cb0m0","pricing_plan_id":"cebpf4jnsgd1na2vs0mg"},{"bike_id":"b3adb0ab-9e70-422e-b1a8-9ab8ab8701ac","system_id":"levelo_inurba_marseille","lat":43.245885,"lon":5.388459,"is_reserved":false,"is_disabled":false,"rental_uris":{"android":"levelo://app?vid=b3adb0ab-9e70-422e-b1a8-9ab8ab8701ac","ios":"levelo://app?vid=b3adb0ab-9e70-422e-b1a8-9ab8ab8701ac"},"vehicle_type_id":"4","last_reported":1732806567,"current_range_meters":11600,"station_id":"ce4bhg12rcd13ifvqf60","pricing_plan_id":"cebpf4jnsgd1na2vs0mg"},{"bike_id":"b4bd6423-cc07-40b6-b632-83c6dd01435c","system_id":"levelo_inurba_marseille","lat":43.29613,"lon":5.37732,"is_reserved":false,"is_disabled":false,"rental_uris":{"android":"levelo://app?vid=b4bd6423-cc07-40b6-b632-83c6dd01435c","ios":"levelo://app?vid=b4bd6423-cc07-40b6-b632-83c6dd01435c"},"vehicle_type_id":"4","last_reported":1732806567,"current_range_meters":18800,"station_id":"ce4bgi92rcd13ifvqb90","pricing_plan_id":"cebpf4jnsgd1na2vs0mg"},{"bike_id":"ce15a521-8a1d-47b7-92c8-091ca367d00e","system_id":"levelo_inurba_marseille","lat":43.33749,"lon":5.37439,"is_reserved":false,"is_disabled":false,"rental_uris":{"android":"levelo://app?vid=ce15a521-8a1d-47b7-92c8-091ca367d00e","ios":"levelo://app?vid=ce15a521-8a1d-47b7-92c8-091ca367d00e"},"vehicle_type_id":"4","last_reported":1732806567,"current_range_meters":37600,"station_id":"","pricing_plan_id":"cebpf4jnsgd1na2vs0mg"},{"bike_id":"8384c70a-9318-416d-abef-29841927cefb","system_id":"levelo_inurba_marseille","lat":43.30556,"lon":5.36707,"is_reserved":false,"is_disabled":false,"rental_uris":{"android":"levelo://app?vid=8384c70a-9318-416d-abef-29841927cefb","ios":"levelo://app?vid=8384c70a-9318-416d-abef-29841927cefb"},"vehicle_type_id":"4","last_reported":1732806567,"current_range_meters":8800,"station_id":"ce4bgrp2rcd13ifvqc9g","pricing_plan_id":"cebpf4jnsgd1na2vs0mg"},{"bike_id":"908a91b4-f74f-4175-9a94-be2178948b1b","system_id":"levelo_inurba_marseille","lat":43.25931,"lon":5.40911,"is_reserved":false,"is_disabled":true,"rental_uris":{"android":"levelo://app?vid=908a91b4-f74f-4175-9a94-be2178948b1b","ios":"levelo://app?vid=908a91b4-f74f-4175-9a94-be2178948b1b"},"vehicle_type_id":"4","last_reported":1732806567,"current_range_meters":0,"station_id":"ce4bhm92rcd13ifvqglg","pricing_plan_id":"cebpf4jnsgd1na2vs0mg"},{"bike_id":"106e461f-3874-428c-8522-21fc2ca5b5c8","system_id":"levelo_inurba_marseille","lat":43.28038,"lon":5.36946,"is_reserved":false,"is_disabled":true,"rental_uris":{"android":"levelo://app?vid=106e461f-3874-428c-8522-21fc2ca5b5c8","ios":"levelo://app?vid=106e461f-3874-428c-8522-21fc2ca5b5c8"},"vehicle_type_id":"4","last_reported":1732806567,"current_range_meters":2000,"station_id":"ce4bha12rcd13ifvqef0","pricing_plan_id":"cebpf4jnsgd1na2vs0mg"},{"bike_id":"1e6c3ebf-5fe6-4a58-a3a5-470ed290fc10","system_id":"levelo_inurba_marseille","lat":43.30549,"lon":5.36537,"is_reserved":false,"is_disabled":false,"rental_uris":{"android":"levelo://app?vid=1e6c3ebf-5fe6-4a58-a3a5-470ed290fc10","ios":"levelo://app?vid=1e6c3ebf-5fe6-4a58-a3a5-470ed290fc10"},"vehicle_type_id":"4","last_reported":1732806567,"current_range_meters":30400,"station_id":"ce4bgs12rcd13ifvqcag","pricing_plan_id":"cebpf4jnsgd1na2vs0mg"},{"bike_id":"ff9a1ec5-be80-43ec-9b6e-d2bb637a4f30","system_id":"levelo_inurba_marseille","lat":43.287153,"lon":5.399983,"is_reserved":false,"is_disabled":true,"rental_uris":{"android":"levelo://app?vid=ff9a1ec5-be80-43ec-9b6e-d2bb637a4f30","ios":"levelo://app?vid=ff9a1ec5-be80-43ec-9b6e-d2bb637a4f30"},"vehicle_type_id":"4","last_reported":1732806567,"current_range_meters":36000,"station_id":"ce4bho92rcd13ifvqh3g","pricing_plan_id":"cebpf4jnsgd1na2vs0mg"},{"bike_id":"6f7949e1-de87-4a49-8620-fec27e04447f","system_id":"levelo_inurba_marseille","lat":43.33738,"lon":5.39189,"is_reserved":false,"is_disabled":false,"rental_uris":{"android":"levelo://app?vid=6f7949e1-de87-4a49-8620-fec27e04447f","ios":"levelo://app?vid=6f7949e1-de87-4a49-8620-fec27e04447f"},"vehicle_type_id":"4","last_reported":1732806567,"current_range_meters":35200,"station_id":"ce4bhr92rcd13ifvqhsg","pricing_plan_id":"cebpf4jnsgd1na2vs0mg"},{"bike_id":"67260212-7a7a-4c78-858b-ed644dc9f9c1","system_id":"levelo_inurba_marseille","lat":43.2826,"lon":5.35067,"is_reserved":false,"is_disabled":false,"rental_uris":{"android":"levelo://app?vid=67260212-7a7a-4c78-858b-ed644dc9f9c1","ios":"levelo://app?vid=67260212-7a7a-4c78-858b-ed644dc9f9c1"},"vehicle_type_id":"4","last_reported":1732806567,"current_range_meters":12800,"station_id":"ce4bhbp2rcd13ifvqerg","pricing_plan_id":"cebpf4jnsgd1na2vs0mg"},{"bike_id":"fe2051a6-e330-446f-bf97-5a1311cdbc1a","system_id":"levelo_inurba_marseille","lat":43.28157,"lon":5.42644,"is_reserved":false,"is_disabled":false,"rental_uris":{"android":"levelo://app?vid=fe2051a6-e330-446f-bf97-5a1311cdbc1a","ios":"levelo://app?vid=fe2051a6-e330-446f-bf97-5a1311cdbc1a"},"vehicle_type_id":"4","last_reported":1732806567,"current_range_meters":16000,"station_id":"ce4bhnh2rcd13ifvqgug","pricing_plan_id":"cebpf4jnsgd1na2vs0mg"},{"bike_id":"a642e475-c90b-4a02-8d6d-439604229620","system_id":"levelo_inurba_marseille","lat":43.30142,"lon":5.37433,"is_reserved":false,"is_disabled":false,"rental_uris":{"android":"levelo://app?vid=a642e475-c90b-4a02-8d6d-439604229620","ios":"levelo://app?vid=a642e475-c90b-4a02-8d6d-439604229620"},"vehicle_type_id":"4","last_reported":1732806567,"current_range_meters":38800,"station_id":"ce4bgs92rcd13ifvqcc0","pricing_plan_id":"cebpf4jnsgd1na2vs0mg"},{"bike_id":"09ca27b9-f586-4eb0-8bf2-86ddb4bb36fb","system_id":"levelo_inurba_marseille","lat":43.28931,"lon":5.36641,"is_reserved":false,"is_disabled":false,"rental_uris":{"android":"levelo://app?vid=09ca27b9-f586-4eb0-8bf2-86ddb4bb36fb","ios":"levelo://app?vid=09ca27b9-f586-4eb0-8bf2-86ddb4bb36fb"},"vehicle_type_id":"4","last_reported":1732806567,"current_range_meters":39200,"station_id":"ce4bhap2rcd13ifvqek0","pricing_plan_id":"cebpf4jnsgd1na2vs0mg"},{"bike_id":"ee8960de-de0c-4e29-99ae-24d7049bee3f","system_id":"levelo_inurba_marseille","lat":43.23968,"lon":5.36633,"is_reserved":false,"is_disabled":false,"rental_uris":{"android":"levelo://app?vid=ee8960de-de0c-4e29-99ae-24d7049bee3f","ios":"levelo://app?vid=ee8960de-de0c-4e29-99ae-24d7049bee3f"},"vehicle_type_id":"4","last_reported":1732806567,"current_range_meters":28800,"station_id":"ce4bhi12rcd13ifvqfp0","pricing_plan_id":"cebpf4jnsgd1na2vs0mg"},{"bike_id":"2077ec5d-d43e-49c1-995b-4a73848946d3","system_id":"levelo_inurba_marseille","lat":43.26489,"lon":5.3955,"is_reserved":false,"is_disabled":false,"rental_uris":{"android":"levelo://app?vid=2077ec5d-d43e-49c1-995b-4a73848946d3","ios":"levelo://app?vid=2077ec5d-d43e-49c1-995b-4a73848946d3"},"vehicle_type_id":"4","last_reported":1732806567,"current_range_meters":9200,"station_id":"ce4bhi12rcd13ifvqfq0","pricing_plan_id":"cebpf4jnsgd1na2vs0mg"},{"bike_id":"1a7e090f-c041-42c1-8afa-71d082691e55","system_id":"levelo_inurba_marseille","lat":43.24392,"lon":5.37065,"is_reserved":false,"is_disabled":false,"rental_uris":{"android":"levelo://app?vid=1a7e090f-c041-42c1-8afa-71d082691e55","ios":"levelo://app?vid=1a7e090f-c041-42c1-8afa-71d082691e55"},"vehicle_type_id":"4","last_reported":1732806567,"current_range_meters":3200,"station_id":"ce4bhlh2rcd13ifvqgig","pricing_plan_id":"cebpf4jnsgd1na2vs0mg"},{"bike_id":"b1422ff8-74e2-4dc1-94ac-a145ceea1d5e","system_id":"levelo_inurba_marseille","lat":43.32367,"lon":5.36713,"is_reserved":false,"is_disabled":false,"rental_uris":{"android":"levelo://app?vid=b1422ff8-74e2-4dc1-94ac-a145ceea1d5e","ios":"levelo://app?vid=b1422ff8-74e2-4dc1-94ac-a145ceea1d5e"},"vehicle_type_id":"4","last_reported":1732806567,"current_range_meters":12800,"station_id":"","pricing_plan_id":"cebpf4jnsgd1na2vs0mg"},{"bike_id":"2767d88a-7019-4bec-90b1-76b3c34b1d78","system_id":"levelo_inurba_marseille","lat":43.27606,"lon":5.36127,"is_reserved":false,"is_disabled":false,"rental_uris":{"android":"levelo://app?vid=2767d88a-7019-4bec-90b1-76b3c34b1d78","ios":"levelo://app?vid=2767d88a-7019-4bec-90b1-76b3c34b1d78"},"vehicle_type_id":"4","last_reported":1732806567,"current_range_meters":37600,"station_id":"ce4bgj92rcd13ifvqbe0","pricing_plan_id":"cebpf4jnsgd1na2vs0mg"},{"bike_id":"4709c438-f4af-415a-a919-d27302b75dca","system_id":"levelo_inurba_marseille","lat":43.23198,"lon":5.35556,"is_reserved":false,"is_disabled":false,"rental_uris":{"android":"levelo://app?vid=4709c438-f4af-415a-a919-d27302b75dca","ios":"levelo://app?vid=4709c438-f4af-415a-a919-d27302b75dca"},"vehicle_type_id":"4","last_reported":1732806567,"current_range_meters":39200,"station_id":"ce4bhu92rcd13ifvqi70","pricing_plan_id":"cebpf4jnsgd1na2vs0mg"},{"bike_id":"2b921899-1359-49b6-a793-ffb9ef50e656","system_id":"levelo_inurba_marseille","lat":43.29623,"lon":5.37713,"is_reserved":false,"is_disabled":true,"rental_uris":{"android":"levelo://app?vid=2b921899-1359-49b6-a793-ffb9ef50e656","ios":"levelo://app?vid=2b921899-1359-49b6-a793-ffb9ef50e656"},"vehicle_type_id":"4","last_reported":1732806567,"current_range_meters":36800,"station_id":"ce4bgi92rcd13ifvqb90","pricing_plan_id":"cebpf4jnsgd1na2vs0mg"},{"bike_id":"02d1787d-842d-4c26-952b-fa0bb085ea79","system_id":"levelo_inurba_marseille","lat":43.300931,"lon":5.390861,"is_reserved":false,"is_disabled":false,"rental_uris":{"android":"levelo://app?vid=02d1787d-842d-4c26-952b-fa0bb085ea79","ios":"levelo://app?vid=02d1787d-842d-4c26-952b-fa0bb085ea79"},"vehicle_type_id":"4","last_reported":1732806567,"current_range_meters":30000,"station_id":"ce4bh192rcd13ifvqdb0","pricing_plan_id":"cebpf4jnsgd1na2vs0mg"},{"bike_id":"e68b29d6-57c2-4e82-b64e-5c0e5453674f","system_id":"levelo_inurba_marseille","lat":43.23153,"lon":5.43704,"is_reserved":false,"is_disabled":false,"rental_uris":{"android":"levelo://app?vid=e68b29d6-57c2-4e82-b64e-5c0e5453674f","ios":"levelo://app?vid=e68b29d6-57c2-4e82-b64e-5c0e5453674f"},"vehicle_type_id":"4","last_reported":1732806567,"current_range_meters":6800,"station_id":"ce4bhmp2rcd13ifvqgog","pricing_plan_id":"cebpf4jnsgd1na2vs0mg"},{"bike_id":"46dff904-be06-4755-bad8-d9d1b01876f1","system_id":"levelo_inurba_marseille","lat":43.288519,"lon":5.358494,"is_reserved":false,"is_disabled":false,"rental_uris":{"android":"levelo://app?vid=46dff904-be06-4755-bad8-d9d1b01876f1","ios":"levelo://app?vid=46dff904-be06-4755-bad8-d9d1b01876f1"},"vehicle_type_id":"4","last_reported":1732806567,"current_range_meters":38400,"station_id":"ce4bhb12rcd13ifvqem0","pricing_plan_id":"cebpf4jnsgd1na2vs0mg"},{"bike_id":"fbab3102-fe03-49af-bbaa-d57c7a8c6fa3","system_id":"levelo_inurba_marseille","lat":43.28676,"lon":5.36355,"is_reserved":false,"is_disabled":false,"rental_uris":{"android":"levelo://app?vid=fbab3102-fe03-49af-bbaa-d57c7a8c6fa3","ios":"levelo://app?vid=fbab3102-fe03-49af-bbaa-d57c7a8c6fa3"},"vehicle_type_id":"4","last_reported":1732806567,"current_range_meters":6000,"station_id":"ce4bhah2rcd13ifvqej0","pricing_plan_id":"cebpf4jnsgd1na2vs0mg"},{"bike_id":"013c3408-b53f-4b33-b442-b78dc4660140","system_id":"levelo_inurba_marseille","lat":43.23152,"lon":5.43726,"is_reserved":false,"is_disabled":true,"rental_uris":{"android":"levelo://app?vid=013c3408-b53f-4b33-b442-b78dc4660140","ios":"levelo://app?vid=013c3408-b53f-4b33-b442-b78dc4660140"},"vehicle_type_id":"4","last_reported":1732806567,"current_range_meters":0,"station_id":"ce4bhmp2rcd13ifvqgog","pricing_plan_id":"cebpf4jnsgd1na2vs0mg"},{"bike_id":"945ff00b-5904-449e-948a-0a34aaf33769","system_id":"levelo_inurba_marseille","lat":43.32657,"lon":5.40998,"is_reserved":false,"is_disabled":false,"rental_uris":{"android":"levelo://app?vid=945ff00b-5904-449e-948a-0a34aaf33769","ios":"levelo://app?vid=945ff00b-5904-449e-948a-0a34aaf33769"},"vehicle_type_id":"4","last_reported":1732806567,"current_range_meters":27600,"station_id":"ce4bhpp2rcd13ifvqhgg","pricing_plan_id":"cebpf4jnsgd1na2vs0mg"},{"bike_id":"8a7026ec-ece9-4425-b203-849730d538b7","system_id":"levelo_inurba_marseille","lat":43.31686,"lon":5.4048,"is_reserved":false,"is_disabled":false,"rental_uris":{"android":"levelo://app?vid=8a7026ec-ece9-4425-b203-849730d538b7","ios":"levelo://app?vid=8a7026ec-ece9-4425-b203-849730d538b7"},"vehicle_type_id":"4","last_reported":1732806567,"current_range_meters":26000,"station_id":"ce4bh012rcd13ifvqd00","pricing_plan_id":"cebpf4jnsgd1na2vs0mg"},{"bike_id":"13748854-c7ec-4486-bb35-86cbf66f8ec7","system_id":"levelo_inurba_marseille","lat":43.23153,"lon":5.43708,"is_reserved":false,"is_disabled":true,"rental_uris":{"android":"levelo://app?vid=13748854-c7ec-4486-bb35-86cbf66f8ec7","ios":"levelo://app?vid=13748854-c7ec-4486-bb35-86cbf66f8ec7"},"vehicle_type_id":"4","last_reported":1732806567,"current_range_meters":0,"station_id":"ce4bhmp2rcd13ifvqgog","pricing_plan_id":"cebpf4jnsgd1na2vs0mg"},{"bike_id":"659f7882-e3b9-4ee8-97c8-2612831da931","system_id":"levelo_inurba_marseille","lat":43.28462,"lon":5.359,"is_reserved":false,"is_disabled":false,"rental_uris":{"android":"levelo://app?vid=659f7882-e3b9-4ee8-97c8-2612831da931","ios":"levelo://app?vid=659f7882-e3b9-4ee8-97c8-2612831da931"},"vehicle_type_id":"4","last_reported":1732806567,"current_range_meters":3200,"station_id":"ce4bhah2rcd13ifvqei0","pricing_plan_id":"cebpf4jnsgd1na2vs0mg"},{"bike_id":"8e2041ad-6bf5-4186-becc-025de1939b87","system_id":"levelo_inurba_marseille","lat":43.28458,"lon":5.35906,"is_reserved":false,"is_disabled":true,"rental_uris":{"android":"levelo://app?vid=8e2041ad-6bf5-4186-becc-025de1939b87","ios":"levelo://app?vid=8e2041ad-6bf5-4186-becc-025de1939b87"},"vehicle_type_id":"4","last_reported":1732806567,"current_range_meters":14800,"station_id":"ce4bhah2rcd13ifvqei0","pricing_plan_id":"cebpf4jnsgd1na2vs0mg"},{"bike_id":"eef9b8c6-6e43-4200-8c8f-0a1ee3ad449f","system_id":"levelo_inurba_marseille","lat":43.287088,"lon":5.379421,"is_reserved":false,"is_disabled":false,"rental_uris":{"android":"levelo://app?vid=eef9b8c6-6e43-4200-8c8f-0a1ee3ad449f","ios":"levelo://app?vid=eef9b8c6-6e43-4200-8c8f-0a1ee3ad449f"},"vehicle_type_id":"4","last_reported":1732806567,"current_range_meters":38800,"station_id":"ce4bh9p2rcd13ifvqec0","pricing_plan_id":"cebpf4jnsgd1na2vs0mg"},{"bike_id":"4d4c884f-6933-49c0-8899-f9856d90f44d","system_id":"levelo_inurba_marseille","lat":43.29748,"lon":5.37971,"is_reserved":false,"is_disabled":true,"rental_uris":{"android":"levelo://app?vid=4d4c884f-6933-49c0-8899-f9856d90f44d","ios":"levelo://app?vid=4d4c884f-6933-49c0-8899-f9856d90f44d"},"vehicle_type_id":"4","last_reported":1732806567,"current_range_meters":0,"station_id":"","pricing_plan_id":"cebpf4jnsgd1na2vs0mg"},{"bike_id":"65d2562a-5a68-462e-941e-29c998025e60","system_id":"levelo_inurba_marseille","lat":43.24171,"lon":5.36402,"is_reserved":false,"is_disabled":false,"rental_uris":{"android":"levelo://app?vid=65d2562a-5a68-462e-941e-29c998025e60","ios":"levelo://app?vid=65d2562a-5a68-462e-941e-29c998025e60"},"vehicle_type_id":"4","last_reported":1732806567,"current_range_meters":8400,"station_id":"cpo36qri1sfpv3e86is0","pricing_plan_id":"cebpf4jnsgd1na2vs0mg"},{"bike_id":"4c046710-fde9-4d79-8234-631766a0aaf1","system_id":"levelo_inurba_marseille","lat":43.30549,"lon":5.36539,"is_reserved":false,"is_disabled":false,"rental_uris":{"android":"levelo://app?vid=4c046710-fde9-4d79-8234-631766a0aaf1","ios":"levelo://app?vid=4c046710-fde9-4d79-8234-631766a0aaf1"},"vehicle_type_id":"4","last_reported":1732806567,"current_range_meters":24800,"station_id":"ce4bgs12rcd13ifvqcag","pricing_plan_id":"cebpf4jnsgd1na2vs0mg"},{"bike_id":"10e50711-9e23-47a6-9d48-e3f9082fb175","system_id":"levelo_inurba_marseille","lat":43.29876,"lon":5.39738,"is_reserved":false,"is_disabled":false,"rental_uris":{"android":"levelo://app?vid=10e50711-9e23-47a6-9d48-e3f9082fb175","ios":"levelo://app?vid=10e50711-9e23-47a6-9d48-e3f9082fb175"},"vehicle_type_id":"4","last_reported":1732806567,"current_range_meters":38800,"station_id":"ce4bh0h2rcd13ifvqd50","pricing_plan_id":"cebpf4jnsgd1na2vs0mg"},{"bike_id":"9009be37-c6b1-406b-b0a8-fbab355f715e","system_id":"levelo_inurba_marseille","lat":43.33772,"lon":5.37494,"is_reserved":false,"is_disabled":false,"rental_uris":{"android":"levelo://app?vid=9009be37-c6b1-406b-b0a8-fbab355f715e","ios":"levelo://app?vid=9009be37-c6b1-406b-b0a8-fbab355f715e"},"vehicle_type_id":"4","last_reported":1732806567,"current_range_meters":38800,"station_id":"","pricing_plan_id":"cebpf4jnsgd1na2vs0mg"},{"bike_id":"f036ea2e-96a3-4f76-99f7-7f3c5e6948be","system_id":"levelo_inurba_marseille","lat":43.27181,"lon":5.40991,"is_reserved":false,"is_disabled":false,"rental_uris":{"android":"levelo://app?vid=f036ea2e-96a3-4f76-99f7-7f3c5e6948be","ios":"levelo://app?vid=f036ea2e-96a3-4f76-99f7-7f3c5e6948be"},"vehicle_type_id":"4","last_reported":1732806567,"current_range_meters":39200,"station_id":"ce4bhl12rcd13ifvqgf0","pricing_plan_id":"cebpf4jnsgd1na2vs0mg"},{"bike_id":"8cb4c403-fa9c-461e-8f13-2d533423a008","system_id":"levelo_inurba_marseille","lat":43.2969,"lon":5.37288,"is_reserved":false,"is_disabled":false,"rental_uris":{"android":"levelo://app?vid=8cb4c403-fa9c-461e-8f13-2d533423a008","ios":"levelo://app?vid=8cb4c403-fa9c-461e-8f13-2d533423a008"},"vehicle_type_id":"4","last_reported":1732806567,"current_range_meters":24400,"station_id":"ce4bgk12rcd13ifvqbj0","pricing_plan_id":"cebpf4jnsgd1na2vs0mg"},{"bike_id":"6574a6fa-86e2-4209-b26b-2d65a1f72d3d","system_id":"levelo_inurba_marseille","lat":43.29781,"lon":5.39353,"is_reserved":false,"is_disabled":false,"rental_uris":{"android":"levelo://app?vid=6574a6fa-86e2-4209-b26b-2d65a1f72d3d","ios":"levelo://app?vid=6574a6fa-86e2-4209-b26b-2d65a1f72d3d"},"vehicle_type_id":"4","last_reported":1732806567,"current_range_meters":32000,"station_id":"chh1huq6cuj3fo74tm60","pricing_plan_id":"cebpf4jnsgd1na2vs0mg"},{"bike_id":"6f1d2424-9fbb-4af1-87e1-da8e8e94ded7","system_id":"levelo_inurba_marseille","lat":43.28942,"lon":5.36641,"is_reserved":false,"is_disabled":false,"rental_uris":{"android":"levelo://app?vid=6f1d2424-9fbb-4af1-87e1-da8e8e94ded7","ios":"levelo://app?vid=6f1d2424-9fbb-4af1-87e1-da8e8e94ded7"},"vehicle_type_id":"4","last_reported":1732806567,"current_range_meters":35600,"station_id":"ce4bhap2rcd13ifvqek0","pricing_plan_id":"cebpf4jnsgd1na2vs0mg"},{"bike_id":"2d21300d-a391-4188-9f67-8146cad0e14a","system_id":"levelo_inurba_marseille","lat":43.27685,"lon":5.38902,"is_reserved":false,"is_disabled":false,"rental_uris":{"android":"levelo://app?vid=2d21300d-a391-4188-9f67-8146cad0e14a","ios":"levelo://app?vid=2d21300d-a391-4188-9f67-8146cad0e14a"},"vehicle_type_id":"4","last_reported":1732806567,"current_range_meters":27600,"station_id":"ce4bhi12rcd13ifvqfo0","pricing_plan_id":"cebpf4jnsgd1na2vs0mg"},{"bike_id":"1133126e-d171-4f0f-884e-79d9aa75d560","system_id":"levelo_inurba_marseille","lat":43.27673,"lon":5.38898,"is_reserved":false,"is_disabled":false,"rental_uris":{"android":"levelo://app?vid=1133126e-d171-4f0f-884e-79d9aa75d560","ios":"levelo://app?vid=1133126e-d171-4f0f-884e-79d9aa75d560"},"vehicle_type_id":"4","last_reported":1732806567,"current_range_meters":32400,"station_id":"ce4bhi12rcd13ifvqfo0","pricing_plan_id":"cebpf4jnsgd1na2vs0mg"},{"bike_id":"7b3145f2-b950-4b0e-a27f-9153a3f87386","system_id":"levelo_inurba_marseille","lat":43.2439,"lon":5.37064,"is_reserved":false,"is_disabled":false,"rental_uris":{"android":"levelo://app?vid=7b3145f2-b950-4b0e-a27f-9153a3f87386","ios":"levelo://app?vid=7b3145f2-b950-4b0e-a27f-9153a3f87386"},"vehicle_type_id":"4","last_reported":1732806567,"current_range_meters":29600,"station_id":"ce4bhhh2rcd13ifvqfk0","pricing_plan_id":"cebpf4jnsgd1na2vs0mg"},{"bike_id":"00803545-9510-4376-a25f-ebacd2cf7e5a","system_id":"levelo_inurba_marseille","lat":43.27686,"lon":5.38885,"is_reserved":false,"is_disabled":false,"rental_uris":{"android":"levelo://app?vid=00803545-9510-4376-a25f-ebacd2cf7e5a","ios":"levelo://app?vid=00803545-9510-4376-a25f-ebacd2cf7e5a"},"vehicle_type_id":"4","last_reported":1732806567,"current_range_meters":38800,"station_id":"ce4bhi12rcd13ifvqfo0","pricing_plan_id":"cebpf4jnsgd1na2vs0mg"},{"bike_id":"7c1b4caa-ad10-4248-afa4-847c1d45dcbd","system_id":"levelo_inurba_marseille","lat":43.25935,"lon":5.40912,"is_reserved":false,"is_disabled":false,"rental_uris":{"android":"levelo://app?vid=7c1b4caa-ad10-4248-afa4-847c1d45dcbd","ios":"levelo://app?vid=7c1b4caa-ad10-4248-afa4-847c1d45dcbd"},"vehicle_type_id":"4","last_reported":1732806567,"current_range_meters":24800,"station_id":"ce4bhm92rcd13ifvqglg","pricing_plan_id":"cebpf4jnsgd1na2vs0mg"},{"bike_id":"e8fa7be1-2407-41a7-b843-e7c70f1917ef","system_id":"levelo_inurba_marseille","lat":43.27606,"lon":5.36122,"is_reserved":false,"is_disabled":true,"rental_uris":{"android":"levelo://app?vid=e8fa7be1-2407-41a7-b843-e7c70f1917ef","ios":"levelo://app?vid=e8fa7be1-2407-41a7-b843-e7c70f1917ef"},"vehicle_type_id":"4","last_reported":1732806567,"current_range_meters":0,"station_id":"ce4bgj92rcd13ifvqbe0","pricing_plan_id":"cebpf4jnsgd1na2vs0mg"},{"bike_id":"76fb3e76-d1b9-4c78-ae29-b1a48d7d9921","system_id":"levelo_inurba_marseille","lat":43.27681,"lon":5.38882,"is_reserved":false,"is_disabled":false,"rental_uris":{"android":"levelo://app?vid=76fb3e76-d1b9-4c78-ae29-b1a48d7d9921","ios":"levelo://app?vid=76fb3e76-d1b9-4c78-ae29-b1a48d7d9921"},"vehicle_type_id":"4","last_reported":1732806567,"current_range_meters":27600,"station_id":"ce4bhi12rcd13ifvqfo0","pricing_plan_id":"cebpf4jnsgd1na2vs0mg"},{"bike_id":"95c39abd-631b-4674-8877-bb71fdbca347","system_id":"levelo_inurba_marseille","lat":43.29585,"lon":5.37724,"is_reserved":false,"is_disabled":true,"rental_uris":{"android":"levelo://app?vid=95c39abd-631b-4674-8877-bb71fdbca347","ios":"levelo://app?vid=95c39abd-631b-4674-8877-bb71fdbca347"},"vehicle_type_id":"4","last_reported":1732806567,"current_range_meters":0,"station_id":"ce4bgi92rcd13ifvqb90","pricing_plan_id":"cebpf4jnsgd1na2vs0mg"},{"bike_id":"35637c9f-d6c4-4d75-82b5-13284fd1c1f7","system_id":"levelo_inurba_marseille","lat":43.30483,"lon":5.366,"is_reserved":false,"is_disabled":false,"rental_uris":{"android":"levelo://app?vid=35637c9f-d6c4-4d75-82b5-13284fd1c1f7","ios":"levelo://app?vid=35637c9f-d6c4-4d75-82b5-13284fd1c1f7"},"vehicle_type_id":"4","last_reported":1732806567,"current_range_meters":28800,"station_id":"","pricing_plan_id":"cebpf4jnsgd1na2vs0mg"},{"bike_id":"1dee5398-ece1-4217-b5b9-984f22c2ff59","system_id":"levelo_inurba_marseille","lat":43.29248,"lon":5.3844,"is_reserved":false,"is_disabled":true,"rental_uris":{"android":"levelo://app?vid=1dee5398-ece1-4217-b5b9-984f22c2ff59","ios":"levelo://app?vid=1dee5398-ece1-4217-b5b9-984f22c2ff59"},"vehicle_type_id":"4","last_reported":1732806567,"current_range_meters":0,"station_id":"ce4bh692rcd13ifvqea0","pricing_plan_id":"cebpf4jnsgd1na2vs0mg"},{"bike_id":"c250d3b1-8402-414a-8ba4-ba6b91af0239","system_id":"levelo_inurba_marseille","lat":43.28718,"lon":5.36086,"is_reserved":false,"is_disabled":false,"rental_uris":{"android":"levelo://app?vid=c250d3b1-8402-414a-8ba4-ba6b91af0239","ios":"levelo://app?vid=c250d3b1-8402-414a-8ba4-ba6b91af0239"},"vehicle_type_id":"4","last_reported":1732806567,"current_range_meters":15200,"station_id":"cki0cbj6b192h4jlfktg","pricing_plan_id":"cebpf4jnsgd1na2vs0mg"},{"bike_id":"fa1bfa44-daf2-45a5-af0e-a3432e1f34ef","system_id":"levelo_inurba_marseille","lat":43.31199,"lon":5.38714,"is_reserved":false,"is_disabled":false,"rental_uris":{"android":"levelo://app?vid=fa1bfa44-daf2-45a5-af0e-a3432e1f34ef","ios":"levelo://app?vid=fa1bfa44-daf2-45a5-af0e-a3432e1f34ef"},"vehicle_type_id":"4","last_reported":1732806567,"current_range_meters":6000,"station_id":"ce4bgv12rcd13ifvqcp0","pricing_plan_id":"cebpf4jnsgd1na2vs0mg"},{"bike_id":"5614c6f7-bcae-4467-8a51-ae1eb5576158","system_id":"levelo_inurba_marseille","lat":43.26783,"lon":5.39416,"is_reserved":false,"is_disabled":false,"rental_uris":{"android":"levelo://app?vid=5614c6f7-bcae-4467-8a51-ae1eb5576158","ios":"levelo://app?vid=5614c6f7-bcae-4467-8a51-ae1eb5576158"},"vehicle_type_id":"4","last_reported":1732806567,"current_range_meters":9200,"station_id":"ce4bhh12rcd13ifvqfg0","pricing_plan_id":"cebpf4jnsgd1na2vs0mg"},{"bike_id":"1c0d751f-60b2-4399-9bee-3531cb714aa1","system_id":"levelo_inurba_marseille","lat":43.25116,"lon":5.40322,"is_reserved":false,"is_disabled":false,"rental_uris":{"android":"levelo://app?vid=1c0d751f-60b2-4399-9bee-3531cb714aa1","ios":"levelo://app?vid=1c0d751f-60b2-4399-9bee-3531cb714aa1"},"vehicle_type_id":"4","last_reported":1732806567,"current_range_meters":35600,"station_id":"ce4bhlh2rcd13ifvqgig","pricing_plan_id":"cebpf4jnsgd1na2vs0mg"},{"bike_id":"5d182a8f-66ec-404a-94bd-5ad5a5f898f9","system_id":"levelo_inurba_marseille","lat":43.29554,"lon":5.4229,"is_reserved":false,"is_disabled":false,"rental_uris":{"android":"levelo://app?vid=5d182a8f-66ec-404a-94bd-5ad5a5f898f9","ios":"levelo://app?vid=5d182a8f-66ec-404a-94bd-5ad5a5f898f9"},"vehicle_type_id":"4","last_reported":1732806567,"current_range_meters":24800,"station_id":"ce4bhph2rcd13ifvqhdg","pricing_plan_id":"cebpf4jnsgd1na2vs0mg"},{"bike_id":"51398210-3c12-4b6a-8447-e8168ecd05b9","system_id":"levelo_inurba_marseille","lat":43.29566,"lon":5.3752,"is_reserved":false,"is_disabled":false,"rental_uris":{"android":"levelo://app?vid=51398210-3c12-4b6a-8447-e8168ecd05b9","ios":"levelo://app?vid=51398210-3c12-4b6a-8447-e8168ecd05b9"},"vehicle_type_id":"4","last_reported":1732806567,"current_range_meters":38800,"station_id":"ce4bgh92rcd13ifvqb50","pricing_plan_id":"cebpf4jnsgd1na2vs0mg"},{"bike_id":"39b04c21-6a6a-40a7-a489-741c2b67c9bd","system_id":"levelo_inurba_marseille","lat":43.33732,"lon":5.3919,"is_reserved":false,"is_disabled":false,"rental_uris":{"android":"levelo://app?vid=39b04c21-6a6a-40a7-a489-741c2b67c9bd","ios":"levelo://app?vid=39b04c21-6a6a-40a7-a489-741c2b67c9bd"},"vehicle_type_id":"4","last_reported":1732806567,"current_range_meters":38800,"station_id":"ce4bhr92rcd13ifvqhsg","pricing_plan_id":"cebpf4jnsgd1na2vs0mg"},{"bike_id":"c3b7322f-91f3-428a-985b-c42ea594f228","system_id":"levelo_inurba_marseille","lat":43.27679,"lon":5.38869,"is_reserved":false,"is_disabled":false,"rental_uris":{"android":"levelo://app?vid=c3b7322f-91f3-428a-985b-c42ea594f228","ios":"levelo://app?vid=c3b7322f-91f3-428a-985b-c42ea594f228"},"vehicle_type_id":"4","last_reported":1732806567,"current_range_meters":36800,"station_id":"ce4bhi12rcd13ifvqfo0","pricing_plan_id":"cebpf4jnsgd1na2vs0mg"},{"bike_id":"a0294619-58a5-4c73-b522-6ad5747668ba","system_id":"levelo_inurba_marseille","lat":43.28027,"lon":5.36952,"is_reserved":false,"is_disabled":false,"rental_uris":{"android":"levelo://app?vid=a0294619-58a5-4c73-b522-6ad5747668ba","ios":"levelo://app?vid=a0294619-58a5-4c73-b522-6ad5747668ba"},"vehicle_type_id":"4","last_reported":1732806567,"current_range_meters":26800,"station_id":"ce4bha12rcd13ifvqef0","pricing_plan_id":"cebpf4jnsgd1na2vs0mg"},{"bike_id":"0508acae-e9ee-4f5a-b362-ca7c6e9086a5","system_id":"levelo_inurba_marseille","lat":43.27939,"lon":5.41046,"is_reserved":false,"is_disabled":false,"rental_uris":{"android":"levelo://app?vid=0508acae-e9ee-4f5a-b362-ca7c6e9086a5","ios":"levelo://app?vid=0508acae-e9ee-4f5a-b362-ca7c6e9086a5"},"vehicle_type_id":"4","last_reported":1732806567,"current_range_meters":14000,"station_id":"ce4bhnp2rcd13ifvqh0g","pricing_plan_id":"cebpf4jnsgd1na2vs0mg"},{"bike_id":"53acd5a8-ce0f-41f0-96bc-8786e46cf6d2","system_id":"levelo_inurba_marseille","lat":43.27997,"lon":5.41662,"is_reserved":false,"is_disabled":true,"rental_uris":{"android":"levelo://app?vid=53acd5a8-ce0f-41f0-96bc-8786e46cf6d2","ios":"levelo://app?vid=53acd5a8-ce0f-41f0-96bc-8786e46cf6d2"},"vehicle_type_id":"4","last_reported":1732806567,"current_range_meters":0,"station_id":"ce4bho12rcd13ifvqh1g","pricing_plan_id":"cebpf4jnsgd1na2vs0mg"},{"bike_id":"0a6f89f0-eb55-4eec-b5ef-066f8ec5dc64","system_id":"levelo_inurba_marseille","lat":43.28867,"lon":5.35842,"is_reserved":false,"is_disabled":false,"rental_uris":{"android":"levelo://app?vid=0a6f89f0-eb55-4eec-b5ef-066f8ec5dc64","ios":"levelo://app?vid=0a6f89f0-eb55-4eec-b5ef-066f8ec5dc64"},"vehicle_type_id":"4","last_reported":1732806567,"current_range_meters":8000,"station_id":"ce4bhb12rcd13ifvqem0","pricing_plan_id":"cebpf4jnsgd1na2vs0mg"},{"bike_id":"16259231-83f4-4c0b-b4de-0dcb1d03ab7a","system_id":"levelo_inurba_marseille","lat":43.28029,"lon":5.36957,"is_reserved":false,"is_disabled":false,"rental_uris":{"android":"levelo://app?vid=16259231-83f4-4c0b-b4de-0dcb1d03ab7a","ios":"levelo://app?vid=16259231-83f4-4c0b-b4de-0dcb1d03ab7a"},"vehicle_type_id":"4","last_reported":1732806567,"current_range_meters":28000,"station_id":"ce4bha12rcd13ifvqef0","pricing_plan_id":"cebpf4jnsgd1na2vs0mg"},{"bike_id":"45a67577-ce08-436f-b7b4-96ed39f0a993","system_id":"levelo_inurba_marseille","lat":43.26946,"lon":5.40252,"is_reserved":false,"is_disabled":false,"rental_uris":{"android":"levelo://app?vid=45a67577-ce08-436f-b7b4-96ed39f0a993","ios":"levelo://app?vid=45a67577-ce08-436f-b7b4-96ed39f0a993"},"vehicle_type_id":"4","last_reported":1732806567,"current_range_meters":27200,"station_id":"cjm6bp8fraef2m0cb0m0","pricing_plan_id":"cebpf4jnsgd1na2vs0mg"},{"bike_id":"ee06e85f-2043-4ef2-bdf4-f253ece1515e","system_id":"levelo_inurba_marseille","lat":43.28619,"lon":5.35106,"is_reserved":false,"is_disabled":false,"rental_uris":{"android":"levelo://app?vid=ee06e85f-2043-4ef2-bdf4-f253ece1515e","ios":"levelo://app?vid=ee06e85f-2043-4ef2-bdf4-f253ece1515e"},"vehicle_type_id":"4","last_reported":1732806567,"current_range_meters":20000,"station_id":"ce4bhch2rcd13ifvqeug","pricing_plan_id":"cebpf4jnsgd1na2vs0mg"},{"bike_id":"220ce8bf-6055-439a-932f-70112f24c52b","system_id":"levelo_inurba_marseille","lat":43.32105,"lon":5.36778,"is_reserved":false,"is_disabled":false,"rental_uris":{"android":"levelo://app?vid=220ce8bf-6055-439a-932f-70112f24c52b","ios":"levelo://app?vid=220ce8bf-6055-439a-932f-70112f24c52b"},"vehicle_type_id":"4","last_reported":1732806567,"current_range_meters":10000,"station_id":"ce4bhrh2rcd13ifvqhug","pricing_plan_id":"cebpf4jnsgd1na2vs0mg"},{"bike_id":"6e0f216c-a7fb-4cf4-a1c9-5f30dad59a71","system_id":"levelo_inurba_marseille","lat":43.2706,"lon":5.40262,"is_reserved":false,"is_disabled":false,"rental_uris":{"android":"levelo://app?vid=6e0f216c-a7fb-4cf4-a1c9-5f30dad59a71","ios":"levelo://app?vid=6e0f216c-a7fb-4cf4-a1c9-5f30dad59a71"},"vehicle_type_id":"4","last_reported":1732806567,"current_range_meters":28800,"station_id":"ce4bhk92rcd13ifvqgc0","pricing_plan_id":"cebpf4jnsgd1na2vs0mg"},{"bike_id":"4ad8e3da-3c5a-48f9-9a97-0dcba338ffec","system_id":"levelo_inurba_marseille","lat":43.2841,"lon":5.37514,"is_reserved":false,"is_disabled":false,"rental_uris":{"android":"levelo://app?vid=4ad8e3da-3c5a-48f9-9a97-0dcba338ffec","ios":"levelo://app?vid=4ad8e3da-3c5a-48f9-9a97-0dcba338ffec"},"vehicle_type_id":"4","last_reported":1732806567,"current_range_meters":36000,"station_id":"ce4bh412rcd13ifvqds0","pricing_plan_id":"cebpf4jnsgd1na2vs0mg"},{"bike_id":"f1690367-cbb9-4ecf-be77-59f1e87c0a6d","system_id":"levelo_inurba_marseille","lat":43.27375,"lon":5.36256,"is_reserved":false,"is_disabled":false,"rental_uris":{"android":"levelo://app?vid=f1690367-cbb9-4ecf-be77-59f1e87c0a6d","ios":"levelo://app?vid=f1690367-cbb9-4ecf-be77-59f1e87c0a6d"},"vehicle_type_id":"4","last_reported":1732806567,"current_range_meters":19600,"station_id":"ce4bhbh2rcd13ifvqeo0","pricing_plan_id":"cebpf4jnsgd1na2vs0mg"},{"bike_id":"485e8c04-062d-4f9a-9edc-753ca5d87f28","system_id":"levelo_inurba_marseille","lat":43.30812,"lon":5.38158,"is_reserved":false,"is_disabled":false,"rental_uris":{"android":"levelo://app?vid=485e8c04-062d-4f9a-9edc-753ca5d87f28","ios":"levelo://app?vid=485e8c04-062d-4f9a-9edc-753ca5d87f28"},"vehicle_type_id":"4","last_reported":1732806567,"current_range_meters":10800,"station_id":"ce4bgt12rcd13ifvqce0","pricing_plan_id":"cebpf4jnsgd1na2vs0mg"},{"bike_id":"cf1978e8-258f-4c13-8890-94cf5a74f111","system_id":"levelo_inurba_marseille","lat":43.29372,"lon":5.37854,"is_reserved":false,"is_disabled":true,"rental_uris":{"android":"levelo://app?vid=cf1978e8-258f-4c13-8890-94cf5a74f111","ios":"levelo://app?vid=cf1978e8-258f-4c13-8890-94cf5a74f111"},"vehicle_type_id":"4","last_reported":1732806567,"current_range_meters":0,"station_id":"ce4bgjh2rcd13ifvqbf0","pricing_plan_id":"cebpf4jnsgd1na2vs0mg"},{"bike_id":"fab79947-e52f-48a0-9e1b-09c103b132db","system_id":"levelo_inurba_marseille","lat":43.25503,"lon":5.37649,"is_reserved":false,"is_disabled":false,"rental_uris":{"android":"levelo://app?vid=fab79947-e52f-48a0-9e1b-09c103b132db","ios":"levelo://app?vid=fab79947-e52f-48a0-9e1b-09c103b132db"},"vehicle_type_id":"4","last_reported":1732806567,"current_range_meters":28800,"station_id":"ce4bhh12rcd13ifvqff0","pricing_plan_id":"cebpf4jnsgd1na2vs0mg"},{"bike_id":"1cd78e3c-eca2-430e-a00b-3450b52eb373","system_id":"levelo_inurba_marseille","lat":43.22931,"lon":5.35377,"is_reserved":false,"is_disabled":false,"rental_uris":{"android":"levelo://app?vid=1cd78e3c-eca2-430e-a00b-3450b52eb373","ios":"levelo://app?vid=1cd78e3c-eca2-430e-a00b-3450b52eb373"},"vehicle_type_id":"4","last_reported":1732806567,"current_range_meters":32400,"station_id":"cpo3532slgdg3j2ikp40","pricing_plan_id":"cebpf4jnsgd1na2vs0mg"},{"bike_id":"1bf7f94a-ade6-4f30-b648-8518595b4a0e","system_id":"levelo_inurba_marseille","lat":43.3149,"lon":5.3731,"is_reserved":false,"is_disabled":false,"rental_uris":{"android":"levelo://app?vid=1bf7f94a-ade6-4f30-b648-8518595b4a0e","ios":"levelo://app?vid=1bf7f94a-ade6-4f30-b648-8518595b4a0e"},"vehicle_type_id":"4","last_reported":1732806567,"current_range_meters":23200,"station_id":"ce4bgt12rcd13ifvqcd0","pricing_plan_id":"cebpf4jnsgd1na2vs0mg"},{"bike_id":"f794b8fa-1f88-483b-a054-16f24b00c834","system_id":"levelo_inurba_marseille","lat":43.28278,"lon":5.35057,"is_reserved":false,"is_disabled":true,"rental_uris":{"android":"levelo://app?vid=f794b8fa-1f88-483b-a054-16f24b00c834","ios":"levelo://app?vid=f794b8fa-1f88-483b-a054-16f24b00c834"},"vehicle_type_id":"4","last_reported":1732806567,"current_range_meters":19600,"station_id":"ce4bhbp2rcd13ifvqerg","pricing_plan_id":"cebpf4jnsgd1na2vs0mg"},{"bike_id":"8781107a-bca3-4fb5-8e13-c1a0e84595bc","system_id":"levelo_inurba_marseille","lat":43.27074,"lon":5.42276,"is_reserved":false,"is_disabled":false,"rental_uris":{"android":"levelo://app?vid=8781107a-bca3-4fb5-8e13-c1a0e84595bc","ios":"levelo://app?vid=8781107a-bca3-4fb5-8e13-c1a0e84595bc"},"vehicle_type_id":"4","last_reported":1732806567,"current_range_meters":7200,"station_id":"ce4bhk92rcd13ifvqgb0","pricing_plan_id":"cebpf4jnsgd1na2vs0mg"},{"bike_id":"e6060ef1-391a-480c-81fb-1d41a4490686","system_id":"levelo_inurba_marseille","lat":43.30899,"lon":5.36846,"is_reserved":false,"is_disabled":false,"rental_uris":{"android":"levelo://app?vid=e6060ef1-391a-480c-81fb-1d41a4490686","ios":"levelo://app?vid=e6060ef1-391a-480c-81fb-1d41a4490686"},"vehicle_type_id":"4","last_reported":1732806567,"current_range_meters":18800,"station_id":"ce4bgn92rcd13ifvqbvg","pricing_plan_id":"cebpf4jnsgd1na2vs0mg"},{"bike_id":"66413734-e8fa-41aa-940e-c92214493abd","system_id":"levelo_inurba_marseille","lat":43.2718,"lon":5.40999,"is_reserved":false,"is_disabled":false,"rental_uris":{"android":"levelo://app?vid=66413734-e8fa-41aa-940e-c92214493abd","ios":"levelo://app?vid=66413734-e8fa-41aa-940e-c92214493abd"},"vehicle_type_id":"4","last_reported":1732806567,"current_range_meters":25600,"station_id":"ce4bhl12rcd13ifvqgf0","pricing_plan_id":"cebpf4jnsgd1na2vs0mg"},{"bike_id":"2e323373-107b-4142-ba5c-e93e6f573133","system_id":"levelo_inurba_marseille","lat":43.3178,"lon":5.39017,"is_reserved":false,"is_disabled":false,"rental_uris":{"android":"levelo://app?vid=2e323373-107b-4142-ba5c-e93e6f573133","ios":"levelo://app?vid=2e323373-107b-4142-ba5c-e93e6f573133"},"vehicle_type_id":"4","last_reported":1732806567,"current_range_meters":38000,"station_id":"ce4bhqp2rcd13ifvqhng","pricing_plan_id":"cebpf4jnsgd1na2vs0mg"},{"bike_id":"3dd27f14-51ec-4d1e-8d64-1ea7632555f3","system_id":"levelo_inurba_marseille","lat":43.3211,"lon":5.36785,"is_reserved":false,"is_disabled":false,"rental_uris":{"android":"levelo://app?vid=3dd27f14-51ec-4d1e-8d64-1ea7632555f3","ios":"levelo://app?vid=3dd27f14-51ec-4d1e-8d64-1ea7632555f3"},"vehicle_type_id":"4","last_reported":1732806567,"current_range_meters":36000,"station_id":"ce4bhrh2rcd13ifvqhug","pricing_plan_id":"cebpf4jnsgd1na2vs0mg"},{"bike_id":"ef7faf07-a670-4e15-b564-bded5c7ce834","system_id":"levelo_inurba_marseille","lat":43.32363,"lon":5.36756,"is_reserved":false,"is_disabled":false,"rental_uris":{"android":"levelo://app?vid=ef7faf07-a670-4e15-b564-bded5c7ce834","ios":"levelo://app?vid=ef7faf07-a670-4e15-b564-bded5c7ce834"},"vehicle_type_id":"4","last_reported":1732806567,"current_range_meters":36800,"station_id":"","pricing_plan_id":"cebpf4jnsgd1na2vs0mg"},{"bike_id":"15d22fe3-53fe-4e9a-a4ac-01870bb6477d","system_id":"levelo_inurba_marseille","lat":43.2986,"lon":5.36277,"is_reserved":false,"is_disabled":false,"rental_uris":{"android":"levelo://app?vid=15d22fe3-53fe-4e9a-a4ac-01870bb6477d","ios":"levelo://app?vid=15d22fe3-53fe-4e9a-a4ac-01870bb6477d"},"vehicle_type_id":"4","last_reported":1732806567,"current_range_meters":38000,"station_id":"ce4bgpp2rcd13ifvqc3g","pricing_plan_id":"cebpf4jnsgd1na2vs0mg"},{"bike_id":"7acf64e6-102c-4b24-bfca-4cd2f2ab9f83","system_id":"levelo_inurba_marseille","lat":43.3054,"lon":5.36534,"is_reserved":false,"is_disabled":false,"rental_uris":{"android":"levelo://app?vid=7acf64e6-102c-4b24-bfca-4cd2f2ab9f83","ios":"levelo://app?vid=7acf64e6-102c-4b24-bfca-4cd2f2ab9f83"},"vehicle_type_id":"4","last_reported":1732806567,"current_range_meters":38000,"station_id":"","pricing_plan_id":"cebpf4jnsgd1na2vs0mg"},{"bike_id":"2e95a691-d7d8-426b-8dba-47b6b56c6a41","system_id":"levelo_inurba_marseille","lat":43.28151,"lon":5.42641,"is_reserved":false,"is_disabled":true,"rental_uris":{"android":"levelo://app?vid=2e95a691-d7d8-426b-8dba-47b6b56c6a41","ios":"levelo://app?vid=2e95a691-d7d8-426b-8dba-47b6b56c6a41"},"vehicle_type_id":"4","last_reported":1732806567,"current_range_meters":1200,"station_id":"ce4bhnh2rcd13ifvqgug","pricing_plan_id":"cebpf4jnsgd1na2vs0mg"},{"bike_id":"2ba011b5-0117-4cf2-99ac-9fe18b2c0c10","system_id":"levelo_inurba_marseille","lat":43.29533,"lon":5.3854,"is_reserved":false,"is_disabled":false,"rental_uris":{"android":"levelo://app?vid=2ba011b5-0117-4cf2-99ac-9fe18b2c0c10","ios":"levelo://app?vid=2ba011b5-0117-4cf2-99ac-9fe18b2c0c10"},"vehicle_type_id":"4","last_reported":1732806567,"current_range_meters":38000,"station_id":"ce4bgih2rcd13ifvqba0","pricing_plan_id":"cebpf4jnsgd1na2vs0mg"},{"bike_id":"6d6a57da-2e4f-4084-b73d-4f239edf00fa","system_id":"levelo_inurba_marseille","lat":43.27811,"lon":5.40719,"is_reserved":false,"is_disabled":false,"rental_uris":{"android":"levelo://app?vid=6d6a57da-2e4f-4084-b73d-4f239edf00fa","ios":"levelo://app?vid=6d6a57da-2e4f-4084-b73d-4f239edf00fa"},"vehicle_type_id":"4","last_reported":1732806567,"current_range_meters":16400,"station_id":"ce4bhnh2rcd13ifvqgtg","pricing_plan_id":"cebpf4jnsgd1na2vs0mg"},{"bike_id":"70844b26-a600-44b3-90df-c40326e534bb","system_id":"levelo_inurba_marseille","lat":43.29529,"lon":5.38551,"is_reserved":false,"is_disabled":false,"rental_uris":{"android":"levelo://app?vid=70844b26-a600-44b3-90df-c40326e534bb","ios":"levelo://app?vid=70844b26-a600-44b3-90df-c40326e534bb"},"vehicle_type_id":"4","last_reported":1732806567,"current_range_meters":11200,"station_id":"ce4bgih2rcd13ifvqba0","pricing_plan_id":"cebpf4jnsgd1na2vs0mg"},{"bike_id":"b1eb794b-dc61-4f90-9f29-8e17626537a8","system_id":"levelo_inurba_marseille","lat":43.23061,"lon":5.35496,"is_reserved":false,"is_disabled":false,"rental_uris":{"android":"levelo://app?vid=b1eb794b-dc61-4f90-9f29-8e17626537a8","ios":"levelo://app?vid=b1eb794b-dc61-4f90-9f29-8e17626537a8"},"vehicle_type_id":"4","last_reported":1732806567,"current_range_meters":9200,"station_id":"cpo3342slgdg3j2ifvpg","pricing_plan_id":"cebpf4jnsgd1na2vs0mg"},{"bike_id":"e51b2acb-d883-446b-9ce9-347608453ece","system_id":"levelo_inurba_marseille","lat":43.22945,"lon":5.3537,"is_reserved":false,"is_disabled":false,"rental_uris":{"android":"levelo://app?vid=e51b2acb-d883-446b-9ce9-347608453ece","ios":"levelo://app?vid=e51b2acb-d883-446b-9ce9-347608453ece"},"vehicle_type_id":"4","last_reported":1732806567,"current_range_meters":31200,"station_id":"cpo3532slgdg3j2ikp40","pricing_plan_id":"cebpf4jnsgd1na2vs0mg"},{"bike_id":"43736712-c09e-441f-a9ac-5e3ae1f23c05","system_id":"levelo_inurba_marseille","lat":43.30646,"lon":5.36841,"is_reserved":false,"is_disabled":false,"rental_uris":{"android":"levelo://app?vid=43736712-c09e-441f-a9ac-5e3ae1f23c05","ios":"levelo://app?vid=43736712-c09e-441f-a9ac-5e3ae1f23c05"},"vehicle_type_id":"4","last_reported":1732806567,"current_range_meters":36400,"station_id":"","pricing_plan_id":"cebpf4jnsgd1na2vs0mg"},{"bike_id":"9f48a22d-55db-465e-b329-98ca286fe715","system_id":"levelo_inurba_marseille","lat":43.31355,"lon":5.385,"is_reserved":false,"is_disabled":false,"rental_uris":{"android":"levelo://app?vid=9f48a22d-55db-465e-b329-98ca286fe715","ios":"levelo://app?vid=9f48a22d-55db-465e-b329-98ca286fe715"},"vehicle_type_id":"4","last_reported":1732806567,"current_range_meters":6400,"station_id":"ce4bgt92rcd13ifvqcf0","pricing_plan_id":"cebpf4jnsgd1na2vs0mg"},{"bike_id":"e2deb1f3-8e75-4ad7-aac7-55f9a31ae3f8","system_id":"levelo_inurba_marseille","lat":43.30415,"lon":5.41304,"is_reserved":false,"is_disabled":false,"rental_uris":{"android":"levelo://app?vid=e2deb1f3-8e75-4ad7-aac7-55f9a31ae3f8","ios":"levelo://app?vid=e2deb1f3-8e75-4ad7-aac7-55f9a31ae3f8"},"vehicle_type_id":"4","last_reported":1732806567,"current_range_meters":38800,"station_id":"ce4bhop2rcd13ifvqh8g","pricing_plan_id":"cebpf4jnsgd1na2vs0mg"},{"bike_id":"6942bc5d-3b51-4606-80d2-187aea7c15a2","system_id":"levelo_inurba_marseille","lat":43.2842,"lon":5.34977,"is_reserved":false,"is_disabled":false,"rental_uris":{"android":"levelo://app?vid=6942bc5d-3b51-4606-80d2-187aea7c15a2","ios":"levelo://app?vid=6942bc5d-3b51-4606-80d2-187aea7c15a2"},"vehicle_type_id":"4","last_reported":1732806567,"current_range_meters":26800,"station_id":"ce4bhbh2rcd13ifvqepg","pricing_plan_id":"cebpf4jnsgd1na2vs0mg"},{"bike_id":"371abac0-5dd0-42bb-a641-ca0cac7a118a","system_id":"levelo_inurba_marseille","lat":43.27683,"lon":5.38875,"is_reserved":false,"is_disabled":true,"rental_uris":{"android":"levelo://app?vid=371abac0-5dd0-42bb-a641-ca0cac7a118a","ios":"levelo://app?vid=371abac0-5dd0-42bb-a641-ca0cac7a118a"},"vehicle_type_id":"4","last_reported":1732806567,"current_range_meters":0,"station_id":"ce4bhi12rcd13ifvqfo0","pricing_plan_id":"cebpf4jnsgd1na2vs0mg"},{"bike_id":"36c2e099-818d-4574-9908-042aa295646a","system_id":"levelo_inurba_marseille","lat":43.25936,"lon":5.4091,"is_reserved":false,"is_disabled":false,"rental_uris":{"android":"levelo://app?vid=36c2e099-818d-4574-9908-042aa295646a","ios":"levelo://app?vid=36c2e099-818d-4574-9908-042aa295646a"},"vehicle_type_id":"4","last_reported":1732806567,"current_range_meters":38800,"station_id":"ce4bhm92rcd13ifvqglg","pricing_plan_id":"cebpf4jnsgd1na2vs0mg"},{"bike_id":"44692518-f307-4d34-bde3-20456f8e1767","system_id":"levelo_inurba_marseille","lat":43.27454,"lon":5.39056,"is_reserved":false,"is_disabled":false,"rental_uris":{"android":"levelo://app?vid=44692518-f307-4d34-bde3-20456f8e1767","ios":"levelo://app?vid=44692518-f307-4d34-bde3-20456f8e1767"},"vehicle_type_id":"4","last_reported":1732806567,"current_range_meters":28800,"station_id":"","pricing_plan_id":"cebpf4jnsgd1na2vs0mg"},{"bike_id":"a77e1a4d-a3ba-4e04-b327-364509e2acc8","system_id":"levelo_inurba_marseille","lat":43.28393,"lon":5.34972,"is_reserved":false,"is_disabled":false,"rental_uris":{"android":"levelo://app?vid=a77e1a4d-a3ba-4e04-b327-364509e2acc8","ios":"levelo://app?vid=a77e1a4d-a3ba-4e04-b327-364509e2acc8"},"vehicle_type_id":"4","last_reported":1732806567,"current_range_meters":30400,"station_id":"ce4bhbh2rcd13ifvqepg","pricing_plan_id":"cebpf4jnsgd1na2vs0mg"},{"bike_id":"3f5279ab-43c7-4696-8f2e-15c936bb4565","system_id":"levelo_inurba_marseille","lat":43.29579,"lon":5.42265,"is_reserved":false,"is_disabled":false,"rental_uris":{"android":"levelo://app?vid=3f5279ab-43c7-4696-8f2e-15c936bb4565","ios":"levelo://app?vid=3f5279ab-43c7-4696-8f2e-15c936bb4565"},"vehicle_type_id":"4","last_reported":1732806567,"current_range_meters":24400,"station_id":"ce4bhph2rcd13ifvqhdg","pricing_plan_id":"cebpf4jnsgd1na2vs0mg"},{"bike_id":"70f06862-cb93-49c8-85b5-ec385820252c","system_id":"levelo_inurba_marseille","lat":43.28609,"lon":5.3511,"is_reserved":false,"is_disabled":false,"rental_uris":{"android":"levelo://app?vid=70f06862-cb93-49c8-85b5-ec385820252c","ios":"levelo://app?vid=70f06862-cb93-49c8-85b5-ec385820252c"},"vehicle_type_id":"4","last_reported":1732806567,"current_range_meters":27600,"station_id":"ce4bhch2rcd13ifvqeug","pricing_plan_id":"cebpf4jnsgd1na2vs0mg"},{"bike_id":"0e780bcf-e70e-4410-8fac-4acbba7e83be","system_id":"levelo_inurba_marseille","lat":43.27672,"lon":5.38908,"is_reserved":false,"is_disabled":false,"rental_uris":{"android":"levelo://app?vid=0e780bcf-e70e-4410-8fac-4acbba7e83be","ios":"levelo://app?vid=0e780bcf-e70e-4410-8fac-4acbba7e83be"},"vehicle_type_id":"4","last_reported":1732806567,"current_range_meters":39200,"station_id":"ce4bhi12rcd13ifvqfo0","pricing_plan_id":"cebpf4jnsgd1na2vs0mg"},{"bike_id":"cb0aa2f3-062b-4007-b318-c631fc100182","system_id":"levelo_inurba_marseille","lat":43.255,"lon":5.37652,"is_reserved":false,"is_disabled":false,"rental_uris":{"android":"levelo://app?vid=cb0aa2f3-062b-4007-b318-c631fc100182","ios":"levelo://app?vid=cb0aa2f3-062b-4007-b318-c631fc100182"},"vehicle_type_id":"4","last_reported":1732806567,"current_range_meters":18000,"station_id":"ce4bhh12rcd13ifvqff0","pricing_plan_id":"cebpf4jnsgd1na2vs0mg"},{"bike_id":"302590e9-5a08-4b54-9e44-b6de93387570","system_id":"levelo_inurba_marseille","lat":43.29788,"lon":5.37108,"is_reserved":false,"is_disabled":false,"rental_uris":{"android":"levelo://app?vid=302590e9-5a08-4b54-9e44-b6de93387570","ios":"levelo://app?vid=302590e9-5a08-4b54-9e44-b6de93387570"},"vehicle_type_id":"4","last_reported":1732806567,"current_range_meters":18800,"station_id":"ce4bgop2rcd13ifvqc1g","pricing_plan_id":"cebpf4jnsgd1na2vs0mg"},{"bike_id":"464dd3db-600f-45e6-8f7a-d494c55c3e14","system_id":"levelo_inurba_marseille","lat":43.25114,"lon":5.4032,"is_reserved":false,"is_disabled":true,"rental_uris":{"android":"levelo://app?vid=464dd3db-600f-45e6-8f7a-d494c55c3e14","ios":"levelo://app?vid=464dd3db-600f-45e6-8f7a-d494c55c3e14"},"vehicle_type_id":"4","last_reported":1732806567,"current_range_meters":1200,"station_id":"ce4bhlh2rcd13ifvqgig","pricing_plan_id":"cebpf4jnsgd1na2vs0mg"},{"bike_id":"e2bf0561-c95b-40f5-9896-b28dda5617dd","system_id":"levelo_inurba_marseille","lat":43.30551,"lon":5.36555,"is_reserved":false,"is_disabled":false,"rental_uris":{"android":"levelo://app?vid=e2bf0561-c95b-40f5-9896-b28dda5617dd","ios":"levelo://app?vid=e2bf0561-c95b-40f5-9896-b28dda5617dd"},"vehicle_type_id":"4","last_reported":1732806567,"current_range_meters":27600,"station_id":"ce4bgs12rcd13ifvqcag","pricing_plan_id":"cebpf4jnsgd1na2vs0mg"},{"bike_id":"a11c87cd-c5ed-4a29-ba8a-78abe7a5d984","system_id":"levelo_inurba_marseille","lat":43.27814,"lon":5.39214,"is_reserved":false,"is_disabled":true,"rental_uris":{"android":"levelo://app?vid=a11c87cd-c5ed-4a29-ba8a-78abe7a5d984","ios":"levelo://app?vid=a11c87cd-c5ed-4a29-ba8a-78abe7a5d984"},"vehicle_type_id":"4","last_reported":1732806567,"current_range_meters":32000,"station_id":"ce4bhjp2rcd13ifvqga0","pricing_plan_id":"cebpf4jnsgd1na2vs0mg"},{"bike_id":"289e9cf4-b132-495f-91b6-9e22d6532191","system_id":"levelo_inurba_marseille","lat":43.29623,"lon":5.3717,"is_reserved":false,"is_disabled":false,"rental_uris":{"android":"levelo://app?vid=289e9cf4-b132-495f-91b6-9e22d6532191","ios":"levelo://app?vid=289e9cf4-b132-495f-91b6-9e22d6532191"},"vehicle_type_id":"4","last_reported":1732806567,"current_range_meters":14000,"station_id":"ce4bgnh2rcd13ifvqc0g","pricing_plan_id":"cebpf4jnsgd1na2vs0mg"},{"bike_id":"7fdaf613-7626-4f42-8466-217890550c1e","system_id":"levelo_inurba_marseille","lat":43.23206,"lon":5.39997,"is_reserved":false,"is_disabled":false,"rental_uris":{"android":"levelo://app?vid=7fdaf613-7626-4f42-8466-217890550c1e","ios":"levelo://app?vid=7fdaf613-7626-4f42-8466-217890550c1e"},"vehicle_type_id":"4","last_reported":1732806567,"current_range_meters":24800,"station_id":"ce4bhn12rcd13ifvqgqg","pricing_plan_id":"cebpf4jnsgd1na2vs0mg"},{"bike_id":"f54ef5d0-353a-4695-b0e1-09e4d4c59cf6","system_id":"levelo_inurba_marseille","lat":43.28041,"lon":5.36954,"is_reserved":false,"is_disabled":false,"rental_uris":{"android":"levelo://app?vid=f54ef5d0-353a-4695-b0e1-09e4d4c59cf6","ios":"levelo://app?vid=f54ef5d0-353a-4695-b0e1-09e4d4c59cf6"},"vehicle_type_id":"4","last_reported":1732806567,"current_range_meters":33200,"station_id":"ce4bha12rcd13ifvqef0","pricing_plan_id":"cebpf4jnsgd1na2vs0mg"},{"bike_id":"a5909545-3e09-4859-9fda-9ffe4e6e4883","system_id":"levelo_inurba_marseille","lat":43.23067,"lon":5.35489,"is_reserved":false,"is_disabled":false,"rental_uris":{"android":"levelo://app?vid=a5909545-3e09-4859-9fda-9ffe4e6e4883","ios":"levelo://app?vid=a5909545-3e09-4859-9fda-9ffe4e6e4883"},"vehicle_type_id":"4","last_reported":1732806567,"current_range_meters":22800,"station_id":"cpo3342slgdg3j2ifvpg","pricing_plan_id":"cebpf4jnsgd1na2vs0mg"},{"bike_id":"1e56e736-28ba-4cc1-8f14-7224cdd257bf","system_id":"levelo_inurba_marseille","lat":43.29718,"lon":5.37695,"is_reserved":false,"is_disabled":false,"rental_uris":{"android":"levelo://app?vid=1e56e736-28ba-4cc1-8f14-7224cdd257bf","ios":"levelo://app?vid=1e56e736-28ba-4cc1-8f14-7224cdd257bf"},"vehicle_type_id":"4","last_reported":1732806567,"current_range_meters":24400,"station_id":"ce4bgkh2rcd13ifvqbl0","pricing_plan_id":"cebpf4jnsgd1na2vs0mg"},{"bike_id":"636c38c7-b57f-44ef-879f-37f296bc8e0a","system_id":"levelo_inurba_marseille","lat":43.32125,"lon":5.36797,"is_reserved":false,"is_disabled":false,"rental_uris":{"android":"levelo://app?vid=636c38c7-b57f-44ef-879f-37f296bc8e0a","ios":"levelo://app?vid=636c38c7-b57f-44ef-879f-37f296bc8e0a"},"vehicle_type_id":"4","last_reported":1732806567,"current_range_meters":18000,"station_id":"ce4bhrh2rcd13ifvqhug","pricing_plan_id":"cebpf4jnsgd1na2vs0mg"},{"bike_id":"fd32dea9-c2fc-4391-97b4-d73540f3941e","system_id":"levelo_inurba_marseille","lat":43.26683,"lon":5.38265,"is_reserved":false,"is_disabled":false,"rental_uris":{"android":"levelo://app?vid=fd32dea9-c2fc-4391-97b4-d73540f3941e","ios":"levelo://app?vid=fd32dea9-c2fc-4391-97b4-d73540f3941e"},"vehicle_type_id":"4","last_reported":1732806567,"current_range_meters":28000,"station_id":"ce4bhg92rcd13ifvqf90","pricing_plan_id":"cebpf4jnsgd1na2vs0mg"},{"bike_id":"5f04bedd-a1d9-4865-af8a-6ab9276a825d","system_id":"levelo_inurba_marseille","lat":43.31336,"lon":5.39699,"is_reserved":false,"is_disabled":false,"rental_uris":{"android":"levelo://app?vid=5f04bedd-a1d9-4865-af8a-6ab9276a825d","ios":"levelo://app?vid=5f04bedd-a1d9-4865-af8a-6ab9276a825d"},"vehicle_type_id":"4","last_reported":1732806567,"current_range_meters":33200,"station_id":"ce4bgvp2rcd13ifvqcu0","pricing_plan_id":"cebpf4jnsgd1na2vs0mg"},{"bike_id":"a2765649-dd2c-4435-b553-9975218014e2","system_id":"levelo_inurba_marseille","lat":43.31353,"lon":5.36715,"is_reserved":false,"is_disabled":false,"rental_uris":{"android":"levelo://app?vid=a2765649-dd2c-4435-b553-9975218014e2","ios":"levelo://app?vid=a2765649-dd2c-4435-b553-9975218014e2"},"vehicle_type_id":"4","last_reported":1732806567,"current_range_meters":38800,"station_id":"ce4bgr92rcd13ifvqc6g","pricing_plan_id":"cebpf4jnsgd1na2vs0mg"},{"bike_id":"e5951ee3-4a5a-4ebb-b469-096c5188dfa3","system_id":"levelo_inurba_marseille","lat":43.23194,"lon":5.35551,"is_reserved":false,"is_disabled":false,"rental_uris":{"android":"levelo://app?vid=e5951ee3-4a5a-4ebb-b469-096c5188dfa3","ios":"levelo://app?vid=e5951ee3-4a5a-4ebb-b469-096c5188dfa3"},"vehicle_type_id":"4","last_reported":1732806567,"current_range_meters":27600,"station_id":"ce4bhu92rcd13ifvqi70","pricing_plan_id":"cebpf4jnsgd1na2vs0mg"},{"bike_id":"a474ae2a-91c8-434b-9a96-c893afb2de73","system_id":"levelo_inurba_marseille","lat":43.28033,"lon":5.36954,"is_reserved":false,"is_disabled":false,"rental_uris":{"android":"levelo://app?vid=a474ae2a-91c8-434b-9a96-c893afb2de73","ios":"levelo://app?vid=a474ae2a-91c8-434b-9a96-c893afb2de73"},"vehicle_type_id":"4","last_reported":1732806567,"current_range_meters":39200,"station_id":"ce4bha12rcd13ifvqef0","pricing_plan_id":"cebpf4jnsgd1na2vs0mg"},{"bike_id":"551079ac-62f6-4029-9579-63ffc464325f","system_id":"levelo_inurba_marseille","lat":43.23225,"lon":5.35543,"is_reserved":false,"is_disabled":false,"rental_uris":{"android":"levelo://app?vid=551079ac-62f6-4029-9579-63ffc464325f","ios":"levelo://app?vid=551079ac-62f6-4029-9579-63ffc464325f"},"vehicle_type_id":"4","last_reported":1732806567,"current_range_meters":38800,"station_id":"ce4bhu92rcd13ifvqi70","pricing_plan_id":"cebpf4jnsgd1na2vs0mg"},{"bike_id":"6c948e9c-d5b3-4fe5-a918-1bd2f7c83b02","system_id":"levelo_inurba_marseille","lat":43.32107,"lon":5.36759,"is_reserved":false,"is_disabled":false,"rental_uris":{"android":"levelo://app?vid=6c948e9c-d5b3-4fe5-a918-1bd2f7c83b02","ios":"levelo://app?vid=6c948e9c-d5b3-4fe5-a918-1bd2f7c83b02"},"vehicle_type_id":"4","last_reported":1732806567,"current_range_meters":8400,"station_id":"ce4bhrh2rcd13ifvqhug","pricing_plan_id":"cebpf4jnsgd1na2vs0mg"},{"bike_id":"81d5315b-ecf8-4a90-acd8-dcf42a7aa5bc","system_id":"levelo_inurba_marseille","lat":43.27499,"lon":5.4245,"is_reserved":false,"is_disabled":true,"rental_uris":{"android":"levelo://app?vid=81d5315b-ecf8-4a90-acd8-dcf42a7aa5bc","ios":"levelo://app?vid=81d5315b-ecf8-4a90-acd8-dcf42a7aa5bc"},"vehicle_type_id":"4","last_reported":1732806567,"current_range_meters":0,"station_id":"ce4bhn92rcd13ifvqgrg","pricing_plan_id":"cebpf4jnsgd1na2vs0mg"},{"bike_id":"9348214a-19c1-4e31-8d04-d909338f54a3","system_id":"levelo_inurba_marseille","lat":43.23179,"lon":5.39998,"is_reserved":false,"is_disabled":false,"rental_uris":{"android":"levelo://app?vid=9348214a-19c1-4e31-8d04-d909338f54a3","ios":"levelo://app?vid=9348214a-19c1-4e31-8d04-d909338f54a3"},"vehicle_type_id":"4","last_reported":1732806567,"current_range_meters":22400,"station_id":"ce4bhn12rcd13ifvqgqg","pricing_plan_id":"cebpf4jnsgd1na2vs0mg"},{"bike_id":"45ba5f73-ec93-4f07-a828-0cb625a1ae35","system_id":"levelo_inurba_marseille","lat":43.27067,"lon":5.42273,"is_reserved":false,"is_disabled":true,"rental_uris":{"android":"levelo://app?vid=45ba5f73-ec93-4f07-a828-0cb625a1ae35","ios":"levelo://app?vid=45ba5f73-ec93-4f07-a828-0cb625a1ae35"},"vehicle_type_id":"4","last_reported":1732806567,"current_range_meters":2000,"station_id":"ce4bhk92rcd13ifvqgb0","pricing_plan_id":"cebpf4jnsgd1na2vs0mg"},{"bike_id":"cc31ca8c-479a-47f7-ba0e-d1a28b9efb12","system_id":"levelo_inurba_marseille","lat":43.25868,"lon":5.39906,"is_reserved":false,"is_disabled":false,"rental_uris":{"android":"levelo://app?vid=cc31ca8c-479a-47f7-ba0e-d1a28b9efb12","ios":"levelo://app?vid=cc31ca8c-479a-47f7-ba0e-d1a28b9efb12"},"vehicle_type_id":"4","last_reported":1732806567,"current_range_meters":39200,"station_id":"ce4bhl92rcd13ifvqghg","pricing_plan_id":"cebpf4jnsgd1na2vs0mg"},{"bike_id":"dfc2b30d-13ff-48cb-b1c9-645106aa86fa","system_id":"levelo_inurba_marseille","lat":43.27563,"lon":5.38421,"is_reserved":false,"is_disabled":false,"rental_uris":{"android":"levelo://app?vid=dfc2b30d-13ff-48cb-b1c9-645106aa86fa","ios":"levelo://app?vid=dfc2b30d-13ff-48cb-b1c9-645106aa86fa"},"vehicle_type_id":"4","last_reported":1732806567,"current_range_meters":22800,"station_id":"ce4bhh92rcd13ifvqfi0","pricing_plan_id":"cebpf4jnsgd1na2vs0mg"},{"bike_id":"7e1dd4a4-1fba-4d0a-a10c-c719f1d9a652","system_id":"levelo_inurba_marseille","lat":43.31702,"lon":5.37733,"is_reserved":false,"is_disabled":false,"rental_uris":{"android":"levelo://app?vid=7e1dd4a4-1fba-4d0a-a10c-c719f1d9a652","ios":"levelo://app?vid=7e1dd4a4-1fba-4d0a-a10c-c719f1d9a652"},"vehicle_type_id":"4","last_reported":1732806567,"current_range_meters":28800,"station_id":"ce4bgth2rcd13ifvqch0","pricing_plan_id":"cebpf4jnsgd1na2vs0mg"},{"bike_id":"05d97e4b-032c-4624-8ded-4be3cbf66681","system_id":"levelo_inurba_marseille","lat":43.246441,"lon":5.381646,"is_reserved":false,"is_disabled":false,"rental_uris":{"android":"levelo://app?vid=05d97e4b-032c-4624-8ded-4be3cbf66681","ios":"levelo://app?vid=05d97e4b-032c-4624-8ded-4be3cbf66681"},"vehicle_type_id":"4","last_reported":1732806567,"current_range_meters":12000,"station_id":"ce4bhih2rcd13ifvqfr0","pricing_plan_id":"cebpf4jnsgd1na2vs0mg"},{"bike_id":"e38db114-7d01-4ba6-9e0f-af65d4bea072","system_id":"levelo_inurba_marseille","lat":43.28717,"lon":5.37377,"is_reserved":false,"is_disabled":false,"rental_uris":{"android":"levelo://app?vid=e38db114-7d01-4ba6-9e0f-af65d4bea072","ios":"levelo://app?vid=e38db114-7d01-4ba6-9e0f-af65d4bea072"},"vehicle_type_id":"4","last_reported":1732806567,"current_range_meters":3600,"station_id":"ce4bh3p2rcd13ifvqdq0","pricing_plan_id":"cebpf4jnsgd1na2vs0mg"},{"bike_id":"e14587dc-7f13-44f8-abd4-ea0dfa860ab0","system_id":"levelo_inurba_marseille","lat":43.32483,"lon":5.3658,"is_reserved":false,"is_disabled":true,"rental_uris":{"android":"levelo://app?vid=e14587dc-7f13-44f8-abd4-ea0dfa860ab0","ios":"levelo://app?vid=e14587dc-7f13-44f8-abd4-ea0dfa860ab0"},"vehicle_type_id":"4","last_reported":1732806567,"current_range_meters":0,"station_id":"ce4bhs12rcd13ifvqhvg","pricing_plan_id":"cebpf4jnsgd1na2vs0mg"},{"bike_id":"64d4b03f-278f-4ada-b6de-95e00ac1bef1","system_id":"levelo_inurba_marseille","lat":43.27172,"lon":5.40993,"is_reserved":false,"is_disabled":false,"rental_uris":{"android":"levelo://app?vid=64d4b03f-278f-4ada-b6de-95e00ac1bef1","ios":"levelo://app?vid=64d4b03f-278f-4ada-b6de-95e00ac1bef1"},"vehicle_type_id":"4","last_reported":1732806567,"current_range_meters":24000,"station_id":"ce4bhl12rcd13ifvqgf0","pricing_plan_id":"cebpf4jnsgd1na2vs0mg"},{"bike_id":"9b767232-5c2b-49ff-b0f6-3592aae87a3d","system_id":"levelo_inurba_marseille","lat":43.23155,"lon":5.43706,"is_reserved":false,"is_disabled":false,"rental_uris":{"android":"levelo://app?vid=9b767232-5c2b-49ff-b0f6-3592aae87a3d","ios":"levelo://app?vid=9b767232-5c2b-49ff-b0f6-3592aae87a3d"},"vehicle_type_id":"4","last_reported":1732806567,"current_range_meters":8800,"station_id":"ce4bhmp2rcd13ifvqgog","pricing_plan_id":"cebpf4jnsgd1na2vs0mg"},{"bike_id":"8953892f-5075-40e6-979d-22456e9ed851","system_id":"levelo_inurba_marseille","lat":43.287,"lon":5.37387,"is_reserved":false,"is_disabled":false,"rental_uris":{"android":"levelo://app?vid=8953892f-5075-40e6-979d-22456e9ed851","ios":"levelo://app?vid=8953892f-5075-40e6-979d-22456e9ed851"},"vehicle_type_id":"4","last_reported":1732806567,"current_range_meters":37600,"station_id":"ce4bh3p2rcd13ifvqdq0","pricing_plan_id":"cebpf4jnsgd1na2vs0mg"},{"bike_id":"d89b6d2e-6449-4d2d-a746-39e5508eef2b","system_id":"levelo_inurba_marseille","lat":43.27671,"lon":5.38875,"is_reserved":false,"is_disabled":false,"rental_uris":{"android":"levelo://app?vid=d89b6d2e-6449-4d2d-a746-39e5508eef2b","ios":"levelo://app?vid=d89b6d2e-6449-4d2d-a746-39e5508eef2b"},"vehicle_type_id":"4","last_reported":1732806567,"current_range_meters":27200,"station_id":"ce4bhi12rcd13ifvqfo0","pricing_plan_id":"cebpf4jnsgd1na2vs0mg"},{"bike_id":"60f23062-e767-482f-8b25-2ef722ca2fc5","system_id":"levelo_inurba_marseille","lat":43.34147,"lon":5.40901,"is_reserved":false,"is_disabled":false,"rental_uris":{"android":"levelo://app?vid=60f23062-e767-482f-8b25-2ef722ca2fc5","ios":"levelo://app?vid=60f23062-e767-482f-8b25-2ef722ca2fc5"},"vehicle_type_id":"4","last_reported":1732806567,"current_range_meters":19200,"station_id":"ce4bhqh2rcd13ifvqhlg","pricing_plan_id":"cebpf4jnsgd1na2vs0mg"},{"bike_id":"43746d86-8a13-4845-9faf-ae69b548d714","system_id":"levelo_inurba_marseille","lat":43.29459,"lon":5.37917,"is_reserved":false,"is_disabled":true,"rental_uris":{"android":"levelo://app?vid=43746d86-8a13-4845-9faf-ae69b548d714","ios":"levelo://app?vid=43746d86-8a13-4845-9faf-ae69b548d714"},"vehicle_type_id":"4","last_reported":1732806567,"current_range_meters":0,"station_id":"","pricing_plan_id":"cebpf4jnsgd1na2vs0mg"},{"bike_id":"cea419d5-9bbc-44b0-87d2-ea55fd4752be","system_id":"levelo_inurba_marseille","lat":43.23159,"lon":5.43701,"is_reserved":false,"is_disabled":true,"rental_uris":{"android":"levelo://app?vid=cea419d5-9bbc-44b0-87d2-ea55fd4752be","ios":"levelo://app?vid=cea419d5-9bbc-44b0-87d2-ea55fd4752be"},"vehicle_type_id":"4","last_reported":1732806567,"current_range_meters":0,"station_id":"ce4bhmp2rcd13ifvqgog","pricing_plan_id":"cebpf4jnsgd1na2vs0mg"},{"bike_id":"c696d99e-1ca4-4825-a6fe-b8aff3720681","system_id":"levelo_inurba_marseille","lat":43.29868,"lon":5.36531,"is_reserved":false,"is_disabled":false,"rental_uris":{"android":"levelo://app?vid=c696d99e-1ca4-4825-a6fe-b8aff3720681","ios":"levelo://app?vid=c696d99e-1ca4-4825-a6fe-b8aff3720681"},"vehicle_type_id":"4","last_reported":1732806567,"current_range_meters":38400,"station_id":"ce4bgm92rcd13ifvqbr0","pricing_plan_id":"cebpf4jnsgd1na2vs0mg"},{"bike_id":"df76b7bf-b879-4e94-9796-439ee296ef0a","system_id":"levelo_inurba_marseille","lat":43.22926,"lon":5.35377,"is_reserved":false,"is_disabled":false,"rental_uris":{"android":"levelo://app?vid=df76b7bf-b879-4e94-9796-439ee296ef0a","ios":"levelo://app?vid=df76b7bf-b879-4e94-9796-439ee296ef0a"},"vehicle_type_id":"4","last_reported":1732806567,"current_range_meters":30800,"station_id":"cpo3532slgdg3j2ikp40","pricing_plan_id":"cebpf4jnsgd1na2vs0mg"},{"bike_id":"c10e7a53-7421-4376-ba09-05540d389754","system_id":"levelo_inurba_marseille","lat":43.23176,"lon":5.39994,"is_reserved":false,"is_disabled":false,"rental_uris":{"android":"levelo://app?vid=c10e7a53-7421-4376-ba09-05540d389754","ios":"levelo://app?vid=c10e7a53-7421-4376-ba09-05540d389754"},"vehicle_type_id":"4","last_reported":1732806567,"current_range_meters":7200,"station_id":"ce4bhn12rcd13ifvqgqg","pricing_plan_id":"cebpf4jnsgd1na2vs0mg"},{"bike_id":"42f4e685-2b6f-45da-b7dd-73e74f8c66d0","system_id":"levelo_inurba_marseille","lat":43.25501,"lon":5.37653,"is_reserved":false,"is_disabled":false,"rental_uris":{"android":"levelo://app?vid=42f4e685-2b6f-45da-b7dd-73e74f8c66d0","ios":"levelo://app?vid=42f4e685-2b6f-45da-b7dd-73e74f8c66d0"},"vehicle_type_id":"4","last_reported":1732806567,"current_range_meters":36800,"station_id":"ce4bhh12rcd13ifvqff0","pricing_plan_id":"cebpf4jnsgd1na2vs0mg"},{"bike_id":"1903435d-438a-48b8-b59a-379592c1581e","system_id":"levelo_inurba_marseille","lat":43.27325,"lon":5.39091,"is_reserved":false,"is_disabled":false,"rental_uris":{"android":"levelo://app?vid=1903435d-438a-48b8-b59a-379592c1581e","ios":"levelo://app?vid=1903435d-438a-48b8-b59a-379592c1581e"},"vehicle_type_id":"4","last_reported":1732806567,"current_range_meters":38800,"station_id":"ce4bhgp2rcd13ifvqfe0","pricing_plan_id":"cebpf4jnsgd1na2vs0mg"},{"bike_id":"9d4a1dda-d54d-40d5-9952-36037bac869a","system_id":"levelo_inurba_marseille","lat":43.26938,"lon":5.40259,"is_reserved":false,"is_disabled":false,"rental_uris":{"android":"levelo://app?vid=9d4a1dda-d54d-40d5-9952-36037bac869a","ios":"levelo://app?vid=9d4a1dda-d54d-40d5-9952-36037bac869a"},"vehicle_type_id":"4","last_reported":1732806567,"current_range_meters":6800,"station_id":"cjm6bp8fraef2m0cb0m0","pricing_plan_id":"cebpf4jnsgd1na2vs0mg"},{"bike_id":"3030554a-2d35-4c9f-af4d-9a9d9d2e4fbf","system_id":"levelo_inurba_marseille","lat":43.23173,"lon":5.39995,"is_reserved":false,"is_disabled":false,"rental_uris":{"android":"levelo://app?vid=3030554a-2d35-4c9f-af4d-9a9d9d2e4fbf","ios":"levelo://app?vid=3030554a-2d35-4c9f-af4d-9a9d9d2e4fbf"},"vehicle_type_id":"4","last_reported":1732806567,"current_range_meters":38800,"station_id":"ce4bhn12rcd13ifvqgqg","pricing_plan_id":"cebpf4jnsgd1na2vs0mg"},{"bike_id":"f6f8f10f-ad7b-482c-b4de-ae12cd77c764","system_id":"levelo_inurba_marseille","lat":43.25503,"lon":5.37651,"is_reserved":false,"is_disabled":false,"rental_uris":{"android":"levelo://app?vid=f6f8f10f-ad7b-482c-b4de-ae12cd77c764","ios":"levelo://app?vid=f6f8f10f-ad7b-482c-b4de-ae12cd77c764"},"vehicle_type_id":"4","last_reported":1732806567,"current_range_meters":38800,"station_id":"ce4bhh12rcd13ifvqff0","pricing_plan_id":"cebpf4jnsgd1na2vs0mg"},{"bike_id":"2068bea6-b554-4e30-8255-13770c871bb8","system_id":"levelo_inurba_marseille","lat":43.2557,"lon":5.38227,"is_reserved":false,"is_disabled":true,"rental_uris":{"android":"levelo://app?vid=2068bea6-b554-4e30-8255-13770c871bb8","ios":"levelo://app?vid=2068bea6-b554-4e30-8255-13770c871bb8"},"vehicle_type_id":"4","last_reported":1732806567,"current_range_meters":800,"station_id":"ce4bhih2rcd13ifvqfs0","pricing_plan_id":"cebpf4jnsgd1na2vs0mg"},{"bike_id":"83178270-3e45-4f35-9631-337a64886327","system_id":"levelo_inurba_marseille","lat":43.30197,"lon":5.36632,"is_reserved":false,"is_disabled":false,"rental_uris":{"android":"levelo://app?vid=83178270-3e45-4f35-9631-337a64886327","ios":"levelo://app?vid=83178270-3e45-4f35-9631-337a64886327"},"vehicle_type_id":"4","last_reported":1732806567,"current_range_meters":36800,"station_id":"ce4bgrh2rcd13ifvqc8g","pricing_plan_id":"cebpf4jnsgd1na2vs0mg"},{"bike_id":"5d094a6f-8162-4686-820c-0d99a2b2dff2","system_id":"levelo_inurba_marseille","lat":43.32652,"lon":5.40998,"is_reserved":false,"is_disabled":false,"rental_uris":{"android":"levelo://app?vid=5d094a6f-8162-4686-820c-0d99a2b2dff2","ios":"levelo://app?vid=5d094a6f-8162-4686-820c-0d99a2b2dff2"},"vehicle_type_id":"4","last_reported":1732806567,"current_range_meters":33600,"station_id":"ce4bhpp2rcd13ifvqhgg","pricing_plan_id":"cebpf4jnsgd1na2vs0mg"},{"bike_id":"73237246-d3c1-43bc-bad7-8e44028b6f2d","system_id":"levelo_inurba_marseille","lat":43.2318,"lon":5.39987,"is_reserved":false,"is_disabled":false,"rental_uris":{"android":"levelo://app?vid=73237246-d3c1-43bc-bad7-8e44028b6f2d","ios":"levelo://app?vid=73237246-d3c1-43bc-bad7-8e44028b6f2d"},"vehicle_type_id":"4","last_reported":1732806567,"current_range_meters":30800,"station_id":"ce4bhn12rcd13ifvqgqg","pricing_plan_id":"cebpf4jnsgd1na2vs0mg"},{"bike_id":"fc4d15f5-6256-45a3-90d6-77bb4c676955","system_id":"levelo_inurba_marseille","lat":43.296284,"lon":5.377877,"is_reserved":false,"is_disabled":true,"rental_uris":{"android":"levelo://app?vid=fc4d15f5-6256-45a3-90d6-77bb4c676955","ios":"levelo://app?vid=fc4d15f5-6256-45a3-90d6-77bb4c676955"},"vehicle_type_id":"4","last_reported":1732806567,"current_range_meters":33200,"station_id":"","pricing_plan_id":"cebpf4jnsgd1na2vs0mg"},{"bike_id":"8a6d2d87-b63e-4f2d-a6bb-a798f0427308","system_id":"levelo_inurba_marseille","lat":43.27804,"lon":5.40711,"is_reserved":false,"is_disabled":false,"rental_uris":{"android":"levelo://app?vid=8a6d2d87-b63e-4f2d-a6bb-a798f0427308","ios":"levelo://app?vid=8a6d2d87-b63e-4f2d-a6bb-a798f0427308"},"vehicle_type_id":"4","last_reported":1732806567,"current_range_meters":39200,"station_id":"ce4bhnh2rcd13ifvqgtg","pricing_plan_id":"cebpf4jnsgd1na2vs0mg"},{"bike_id":"c88f8730-1176-4717-97e2-17c27b15274f","system_id":"levelo_inurba_marseille","lat":43.23203,"lon":5.35555,"is_reserved":false,"is_disabled":true,"rental_uris":{"android":"levelo://app?vid=c88f8730-1176-4717-97e2-17c27b15274f","ios":"levelo://app?vid=c88f8730-1176-4717-97e2-17c27b15274f"},"vehicle_type_id":"4","last_reported":1732806567,"current_range_meters":0,"station_id":"ce4bhu92rcd13ifvqi70","pricing_plan_id":"cebpf4jnsgd1na2vs0mg"},{"bike_id":"5e5feb69-3ec7-4d8a-a1e8-418f282a39d2","system_id":"levelo_inurba_marseille","lat":43.2894,"lon":5.36631,"is_reserved":false,"is_disabled":true,"rental_uris":{"android":"levelo://app?vid=5e5feb69-3ec7-4d8a-a1e8-418f282a39d2","ios":"levelo://app?vid=5e5feb69-3ec7-4d8a-a1e8-418f282a39d2"},"vehicle_type_id":"4","last_reported":1732806567,"current_range_meters":8800,"station_id":"ce4bhap2rcd13ifvqek0","pricing_plan_id":"cebpf4jnsgd1na2vs0mg"},{"bike_id":"b6ed1910-de57-401d-8b1d-af35755f9004","system_id":"levelo_inurba_marseille","lat":43.27954,"lon":5.41046,"is_reserved":false,"is_disabled":true,"rental_uris":{"android":"levelo://app?vid=b6ed1910-de57-401d-8b1d-af35755f9004","ios":"levelo://app?vid=b6ed1910-de57-401d-8b1d-af35755f9004"},"vehicle_type_id":"4","last_reported":1732806567,"current_range_meters":29600,"station_id":"ce4bhnp2rcd13ifvqh0g","pricing_plan_id":"cebpf4jnsgd1na2vs0mg"},{"bike_id":"32a151d9-7005-40eb-a8f7-814ea7e149e3","system_id":"levelo_inurba_marseille","lat":43.30539,"lon":5.36543,"is_reserved":false,"is_disabled":false,"rental_uris":{"android":"levelo://app?vid=32a151d9-7005-40eb-a8f7-814ea7e149e3","ios":"levelo://app?vid=32a151d9-7005-40eb-a8f7-814ea7e149e3"},"vehicle_type_id":"4","last_reported":1732806567,"current_range_meters":38000,"station_id":"ce4bgs12rcd13ifvqcag","pricing_plan_id":"cebpf4jnsgd1na2vs0mg"},{"bike_id":"b944efa8-8bfd-4cf3-9742-93239c780cac","system_id":"levelo_inurba_marseille","lat":43.29002,"lon":5.35621,"is_reserved":false,"is_disabled":false,"rental_uris":{"android":"levelo://app?vid=b944efa8-8bfd-4cf3-9742-93239c780cac","ios":"levelo://app?vid=b944efa8-8bfd-4cf3-9742-93239c780cac"},"vehicle_type_id":"4","last_reported":1732806567,"current_range_meters":31200,"station_id":"ce4bhb92rcd13ifvqen0","pricing_plan_id":"cebpf4jnsgd1na2vs0mg"},{"bike_id":"c0c814f8-5da5-485f-b863-3458dcd8a348","system_id":"levelo_inurba_marseille","lat":43.24548,"lon":5.39526,"is_reserved":false,"is_disabled":false,"rental_uris":{"android":"levelo://app?vid=c0c814f8-5da5-485f-b863-3458dcd8a348","ios":"levelo://app?vid=c0c814f8-5da5-485f-b863-3458dcd8a348"},"vehicle_type_id":"4","last_reported":1732806567,"current_range_meters":28400,"station_id":"ce4bhlp2rcd13ifvqgjg","pricing_plan_id":"cebpf4jnsgd1na2vs0mg"},{"bike_id":"b9372e5b-e26c-4c2d-9dc6-310f8d994894","system_id":"levelo_inurba_marseille","lat":43.28861,"lon":5.35854,"is_reserved":false,"is_disabled":false,"rental_uris":{"android":"levelo://app?vid=b9372e5b-e26c-4c2d-9dc6-310f8d994894","ios":"levelo://app?vid=b9372e5b-e26c-4c2d-9dc6-310f8d994894"},"vehicle_type_id":"4","last_reported":1732806567,"current_range_meters":25200,"station_id":"ce4bhb12rcd13ifvqem0","pricing_plan_id":"cebpf4jnsgd1na2vs0mg"},{"bike_id":"7eeb585d-a0f3-4eb6-8db7-0a401d4c0421","system_id":"levelo_inurba_marseille","lat":43.27386,"lon":5.36261,"is_reserved":false,"is_disabled":false,"rental_uris":{"android":"levelo://app?vid=7eeb585d-a0f3-4eb6-8db7-0a401d4c0421","ios":"levelo://app?vid=7eeb585d-a0f3-4eb6-8db7-0a401d4c0421"},"vehicle_type_id":"4","last_reported":1732806567,"current_range_meters":24800,"station_id":"ce4bhbh2rcd13ifvqeo0","pricing_plan_id":"cebpf4jnsgd1na2vs0mg"},{"bike_id":"528cfaa0-f79b-46ac-8b1b-5871dc90dbf8","system_id":"levelo_inurba_marseille","lat":43.30588,"lon":5.39368,"is_reserved":false,"is_disabled":true,"rental_uris":{"android":"levelo://app?vid=528cfaa0-f79b-46ac-8b1b-5871dc90dbf8","ios":"levelo://app?vid=528cfaa0-f79b-46ac-8b1b-5871dc90dbf8"},"vehicle_type_id":"4","last_reported":1732806567,"current_range_meters":0,"station_id":"ce4bh0p2rcd13ifvqd80","pricing_plan_id":"cebpf4jnsgd1na2vs0mg"},{"bike_id":"e54f0174-c7bd-4711-b39d-83487d0a1cd5","system_id":"levelo_inurba_marseille","lat":43.29577,"lon":5.42272,"is_reserved":false,"is_disabled":false,"rental_uris":{"android":"levelo://app?vid=e54f0174-c7bd-4711-b39d-83487d0a1cd5","ios":"levelo://app?vid=e54f0174-c7bd-4711-b39d-83487d0a1cd5"},"vehicle_type_id":"4","last_reported":1732806567,"current_range_meters":38800,"station_id":"ce4bhph2rcd13ifvqhdg","pricing_plan_id":"cebpf4jnsgd1na2vs0mg"},{"bike_id":"a9227b71-75c7-442a-b2f5-890f94740a4c","system_id":"levelo_inurba_marseille","lat":43.31069,"lon":5.38361,"is_reserved":false,"is_disabled":false,"rental_uris":{"android":"levelo://app?vid=a9227b71-75c7-442a-b2f5-890f94740a4c","ios":"levelo://app?vid=a9227b71-75c7-442a-b2f5-890f94740a4c"},"vehicle_type_id":"4","last_reported":1732806567,"current_range_meters":10000,"station_id":"ce4bgv92rcd13ifvqcr0","pricing_plan_id":"cebpf4jnsgd1na2vs0mg"},{"bike_id":"2e7f7981-c8f0-48c8-8747-f724b6017810","system_id":"levelo_inurba_marseille","lat":43.31365,"lon":5.38492,"is_reserved":false,"is_disabled":false,"rental_uris":{"android":"levelo://app?vid=2e7f7981-c8f0-48c8-8747-f724b6017810","ios":"levelo://app?vid=2e7f7981-c8f0-48c8-8747-f724b6017810"},"vehicle_type_id":"4","last_reported":1732806567,"current_range_meters":28000,"station_id":"ce4bgt92rcd13ifvqcf0","pricing_plan_id":"cebpf4jnsgd1na2vs0mg"},{"bike_id":"ad9439e4-3166-4ea2-a899-c3fe497c4f34","system_id":"levelo_inurba_marseille","lat":43.2868,"lon":5.37435,"is_reserved":false,"is_disabled":false,"rental_uris":{"android":"levelo://app?vid=ad9439e4-3166-4ea2-a899-c3fe497c4f34","ios":"levelo://app?vid=ad9439e4-3166-4ea2-a899-c3fe497c4f34"},"vehicle_type_id":"4","last_reported":1732806567,"current_range_meters":33200,"station_id":"ce4bhbh2rcd13ifvqeo0","pricing_plan_id":"cebpf4jnsgd1na2vs0mg"},{"bike_id":"ca469a7e-8f58-4153-99ad-e36df31eb087","system_id":"levelo_inurba_marseille","lat":43.30138,"lon":5.37423,"is_reserved":false,"is_disabled":false,"rental_uris":{"android":"levelo://app?vid=ca469a7e-8f58-4153-99ad-e36df31eb087","ios":"levelo://app?vid=ca469a7e-8f58-4153-99ad-e36df31eb087"},"vehicle_type_id":"4","last_reported":1732806567,"current_range_meters":18000,"station_id":"ce4bgs92rcd13ifvqcc0","pricing_plan_id":"cebpf4jnsgd1na2vs0mg"},{"bike_id":"0e45148f-1a7e-42d3-9cc8-08bc63689057","system_id":"levelo_inurba_marseille","lat":43.23197,"lon":5.35556,"is_reserved":false,"is_disabled":false,"rental_uris":{"android":"levelo://app?vid=0e45148f-1a7e-42d3-9cc8-08bc63689057","ios":"levelo://app?vid=0e45148f-1a7e-42d3-9cc8-08bc63689057"},"vehicle_type_id":"4","last_reported":1732806567,"current_range_meters":8000,"station_id":"ce4bhu92rcd13ifvqi70","pricing_plan_id":"cebpf4jnsgd1na2vs0mg"},{"bike_id":"5aee8f34-f29b-4446-a958-d36daab9b202","system_id":"levelo_inurba_marseille","lat":43.23144,"lon":5.43721,"is_reserved":false,"is_disabled":true,"rental_uris":{"android":"levelo://app?vid=5aee8f34-f29b-4446-a958-d36daab9b202","ios":"levelo://app?vid=5aee8f34-f29b-4446-a958-d36daab9b202"},"vehicle_type_id":"4","last_reported":1732806567,"current_range_meters":0,"station_id":"ce4bhmp2rcd13ifvqgog","pricing_plan_id":"cebpf4jnsgd1na2vs0mg"},{"bike_id":"de41877b-f65a-455d-a4d3-cc57826d07c2","system_id":"levelo_inurba_marseille","lat":43.31332,"lon":5.39698,"is_reserved":false,"is_disabled":false,"rental_uris":{"android":"levelo://app?vid=de41877b-f65a-455d-a4d3-cc57826d07c2","ios":"levelo://app?vid=de41877b-f65a-455d-a4d3-cc57826d07c2"},"vehicle_type_id":"4","last_reported":1732806567,"current_range_meters":22800,"station_id":"ce4bgvp2rcd13ifvqcu0","pricing_plan_id":"cebpf4jnsgd1na2vs0mg"},{"bike_id":"82ce2089-c9fb-4c60-a3de-5e8e4098ffb1","system_id":"levelo_inurba_marseille","lat":43.3266,"lon":5.40993,"is_reserved":false,"is_disabled":true,"rental_uris":{"android":"levelo://app?vid=82ce2089-c9fb-4c60-a3de-5e8e4098ffb1","ios":"levelo://app?vid=82ce2089-c9fb-4c60-a3de-5e8e4098ffb1"},"vehicle_type_id":"4","last_reported":1732806567,"current_range_meters":0,"station_id":"ce4bhpp2rcd13ifvqhgg","pricing_plan_id":"cebpf4jnsgd1na2vs0mg"},{"bike_id":"87b938c7-f6f3-401a-bf2a-2ffc8779c060","system_id":"levelo_inurba_marseille","lat":43.23155,"lon":5.43724,"is_reserved":false,"is_disabled":false,"rental_uris":{"android":"levelo://app?vid=87b938c7-f6f3-401a-bf2a-2ffc8779c060","ios":"levelo://app?vid=87b938c7-f6f3-401a-bf2a-2ffc8779c060"},"vehicle_type_id":"4","last_reported":1732806567,"current_range_meters":4800,"station_id":"ce4bhmp2rcd13ifvqgog","pricing_plan_id":"cebpf4jnsgd1na2vs0mg"},{"bike_id":"28e35b8a-63c1-436f-851f-462ff8db4d51","system_id":"levelo_inurba_marseille","lat":43.30321,"lon":5.40443,"is_reserved":false,"is_disabled":true,"rental_uris":{"android":"levelo://app?vid=28e35b8a-63c1-436f-851f-462ff8db4d51","ios":"levelo://app?vid=28e35b8a-63c1-436f-851f-462ff8db4d51"},"vehicle_type_id":"4","last_reported":1732806567,"current_range_meters":0,"station_id":"ce4bh012rcd13ifvqd10","pricing_plan_id":"cebpf4jnsgd1na2vs0mg"},{"bike_id":"a971b12c-91dd-4e3e-a648-1ccbe1b306cb","system_id":"levelo_inurba_marseille","lat":43.23203,"lon":5.35553,"is_reserved":false,"is_disabled":false,"rental_uris":{"android":"levelo://app?vid=a971b12c-91dd-4e3e-a648-1ccbe1b306cb","ios":"levelo://app?vid=a971b12c-91dd-4e3e-a648-1ccbe1b306cb"},"vehicle_type_id":"4","last_reported":1732806567,"current_range_meters":20000,"station_id":"ce4bhu92rcd13ifvqi70","pricing_plan_id":"cebpf4jnsgd1na2vs0mg"},{"bike_id":"6f8f7372-ecd4-442e-95dd-7b099b7e1a39","system_id":"levelo_inurba_marseille","lat":43.29898,"lon":5.43671,"is_reserved":false,"is_disabled":false,"rental_uris":{"android":"levelo://app?vid=6f8f7372-ecd4-442e-95dd-7b099b7e1a39","ios":"levelo://app?vid=6f8f7372-ecd4-442e-95dd-7b099b7e1a39"},"vehicle_type_id":"4","last_reported":1732806567,"current_range_meters":40000,"station_id":"ce4bhpp2rcd13ifvqhfg","pricing_plan_id":"cebpf4jnsgd1na2vs0mg"},{"bike_id":"7a728d3c-ea5b-4f10-bb84-13fc4a05c334","system_id":"levelo_inurba_marseille","lat":43.32547,"lon":5.41432,"is_reserved":false,"is_disabled":false,"rental_uris":{"android":"levelo://app?vid=7a728d3c-ea5b-4f10-bb84-13fc4a05c334","ios":"levelo://app?vid=7a728d3c-ea5b-4f10-bb84-13fc4a05c334"},"vehicle_type_id":"4","last_reported":1732806567,"current_range_meters":30400,"station_id":"ce4bhq12rcd13ifvqhhg","pricing_plan_id":"cebpf4jnsgd1na2vs0mg"},{"bike_id":"84a39aa1-c3bb-4923-8aa7-297faaeb5b77","system_id":"levelo_inurba_marseille","lat":43.27997,"lon":5.40003,"is_reserved":false,"is_disabled":false,"rental_uris":{"android":"levelo://app?vid=84a39aa1-c3bb-4923-8aa7-297faaeb5b77","ios":"levelo://app?vid=84a39aa1-c3bb-4923-8aa7-297faaeb5b77"},"vehicle_type_id":"4","last_reported":1732806567,"current_range_meters":28400,"station_id":"ce4bho92rcd13ifvqh4g","pricing_plan_id":"cebpf4jnsgd1na2vs0mg"},{"bike_id":"9e944db9-d48e-4848-b5fa-4af701aee80b","system_id":"levelo_inurba_marseille","lat":48.80797,"lon":2.40127,"is_reserved":false,"is_disabled":true,"rental_uris":{"android":"levelo://app?vid=9e944db9-d48e-4848-b5fa-4af701aee80b","ios":"levelo://app?vid=9e944db9-d48e-4848-b5fa-4af701aee80b"},"vehicle_type_id":"4","last_reported":1732806567,"current_range_meters":23200,"station_id":"","pricing_plan_id":"cebpf4jnsgd1na2vs0mg"},{"bike_id":"4431b3b2-6cd9-4be7-b139-d865461cb8ce","system_id":"levelo_inurba_marseille","lat":43.2731,"lon":5.39102,"is_reserved":false,"is_disabled":false,"rental_uris":{"android":"levelo://app?vid=4431b3b2-6cd9-4be7-b139-d865461cb8ce","ios":"levelo://app?vid=4431b3b2-6cd9-4be7-b139-d865461cb8ce"},"vehicle_type_id":"4","last_reported":1732806567,"current_range_meters":37600,"station_id":"ce4bhgp2rcd13ifvqfe0","pricing_plan_id":"cebpf4jnsgd1na2vs0mg"},{"bike_id":"641c847a-aa14-4a64-8e61-175a53706cef","system_id":"levelo_inurba_marseille","lat":43.28032,"lon":5.36957,"is_reserved":false,"is_disabled":false,"rental_uris":{"android":"levelo://app?vid=641c847a-aa14-4a64-8e61-175a53706cef","ios":"levelo://app?vid=641c847a-aa14-4a64-8e61-175a53706cef"},"vehicle_type_id":"4","last_reported":1732806567,"current_range_meters":34800,"station_id":"ce4bha12rcd13ifvqef0","pricing_plan_id":"cebpf4jnsgd1na2vs0mg"},{"bike_id":"2f957a49-db41-421b-98c6-d38488931bb0","system_id":"levelo_inurba_marseille","lat":43.32059,"lon":5.41554,"is_reserved":false,"is_disabled":false,"rental_uris":{"android":"levelo://app?vid=2f957a49-db41-421b-98c6-d38488931bb0","ios":"levelo://app?vid=2f957a49-db41-421b-98c6-d38488931bb0"},"vehicle_type_id":"4","last_reported":1732806567,"current_range_meters":39200,"station_id":"ce4bhq92rcd13ifvqhkg","pricing_plan_id":"cebpf4jnsgd1na2vs0mg"},{"bike_id":"adb35817-9639-49d4-a7ee-4ea135cedc57","system_id":"levelo_inurba_marseille","lat":43.32664,"lon":5.40997,"is_reserved":false,"is_disabled":false,"rental_uris":{"android":"levelo://app?vid=adb35817-9639-49d4-a7ee-4ea135cedc57","ios":"levelo://app?vid=adb35817-9639-49d4-a7ee-4ea135cedc57"},"vehicle_type_id":"4","last_reported":1732806567,"current_range_meters":33600,"station_id":"ce4bhpp2rcd13ifvqhgg","pricing_plan_id":"cebpf4jnsgd1na2vs0mg"},{"bike_id":"1759cfea-84dd-4019-b6a2-906c2c1285df","system_id":"levelo_inurba_marseille","lat":43.26794,"lon":5.39412,"is_reserved":false,"is_disabled":false,"rental_uris":{"android":"levelo://app?vid=1759cfea-84dd-4019-b6a2-906c2c1285df","ios":"levelo://app?vid=1759cfea-84dd-4019-b6a2-906c2c1285df"},"vehicle_type_id":"4","last_reported":1732806567,"current_range_meters":16400,"station_id":"ce4bhh12rcd13ifvqfg0","pricing_plan_id":"cebpf4jnsgd1na2vs0mg"},{"bike_id":"ba4fd573-6474-49bf-a884-7d987d65270d","system_id":"levelo_inurba_marseille","lat":43.2511,"lon":5.40322,"is_reserved":false,"is_disabled":false,"rental_uris":{"android":"levelo://app?vid=ba4fd573-6474-49bf-a884-7d987d65270d","ios":"levelo://app?vid=ba4fd573-6474-49bf-a884-7d987d65270d"},"vehicle_type_id":"4","last_reported":1732806567,"current_range_meters":26000,"station_id":"ce4bhlh2rcd13ifvqgig","pricing_plan_id":"cebpf4jnsgd1na2vs0mg"},{"bike_id":"bad16d43-1f2b-4314-9599-d12a9c9f1646","system_id":"levelo_inurba_marseille","lat":43.29556,"lon":5.42297,"is_reserved":false,"is_disabled":false,"rental_uris":{"android":"levelo://app?vid=bad16d43-1f2b-4314-9599-d12a9c9f1646","ios":"levelo://app?vid=bad16d43-1f2b-4314-9599-d12a9c9f1646"},"vehicle_type_id":"4","last_reported":1732806567,"current_range_meters":23200,"station_id":"ce4bhph2rcd13ifvqhdg","pricing_plan_id":"cebpf4jnsgd1na2vs0mg"},{"bike_id":"4e5b4f86-7e36-4b12-95d9-3ddd868bd423","system_id":"levelo_inurba_marseille","lat":43.27428,"lon":5.39422,"is_reserved":false,"is_disabled":false,"rental_uris":{"android":"levelo://app?vid=4e5b4f86-7e36-4b12-95d9-3ddd868bd423","ios":"levelo://app?vid=4e5b4f86-7e36-4b12-95d9-3ddd868bd423"},"vehicle_type_id":"4","last_reported":1732806567,"current_range_meters":38400,"station_id":"ce4bhdp2rcd13ifvqf20","pricing_plan_id":"cebpf4jnsgd1na2vs0mg"},{"bike_id":"a864f98b-c5d9-4659-9f10-e46bcf320de3","system_id":"levelo_inurba_marseille","lat":43.28262,"lon":5.35072,"is_reserved":false,"is_disabled":false,"rental_uris":{"android":"levelo://app?vid=a864f98b-c5d9-4659-9f10-e46bcf320de3","ios":"levelo://app?vid=a864f98b-c5d9-4659-9f10-e46bcf320de3"},"vehicle_type_id":"4","last_reported":1732806567,"current_range_meters":8400,"station_id":"ce4bhbp2rcd13ifvqerg","pricing_plan_id":"cebpf4jnsgd1na2vs0mg"},{"bike_id":"d204ff42-6ea2-4115-b1d0-1a8a095ec384","system_id":"levelo_inurba_marseille","lat":43.2656,"lon":5.37302,"is_reserved":false,"is_disabled":false,"rental_uris":{"android":"levelo://app?vid=d204ff42-6ea2-4115-b1d0-1a8a095ec384","ios":"levelo://app?vid=d204ff42-6ea2-4115-b1d0-1a8a095ec384"},"vehicle_type_id":"4","last_reported":1732806567,"current_range_meters":20800,"station_id":"ce4bhg12rcd13ifvqf70","pricing_plan_id":"cebpf4jnsgd1na2vs0mg"},{"bike_id":"1130996c-ba07-491b-a538-69e310f93db2","system_id":"levelo_inurba_marseille","lat":43.2737,"lon":5.36271,"is_reserved":false,"is_disabled":false,"rental_uris":{"android":"levelo://app?vid=1130996c-ba07-491b-a538-69e310f93db2","ios":"levelo://app?vid=1130996c-ba07-491b-a538-69e310f93db2"},"vehicle_type_id":"4","last_reported":1732806567,"current_range_meters":39200,"station_id":"ce4bhbh2rcd13ifvqeo0","pricing_plan_id":"cebpf4jnsgd1na2vs0mg"},{"bike_id":"d93dc51c-5ac0-4cec-a3da-65b74f4a5e14","system_id":"levelo_inurba_marseille","lat":43.28936,"lon":5.364,"is_reserved":false,"is_disabled":false,"rental_uris":{"android":"levelo://app?vid=d93dc51c-5ac0-4cec-a3da-65b74f4a5e14","ios":"levelo://app?vid=d93dc51c-5ac0-4cec-a3da-65b74f4a5e14"},"vehicle_type_id":"4","last_reported":1732806567,"current_range_meters":32800,"station_id":"ce4bhc92rcd13ifvqetg","pricing_plan_id":"cebpf4jnsgd1na2vs0mg"},{"bike_id":"22c50c1e-cd5b-47bd-9dfa-8504056fc454","system_id":"levelo_inurba_marseille","lat":43.23177,"lon":5.39996,"is_reserved":false,"is_disabled":false,"rental_uris":{"android":"levelo://app?vid=22c50c1e-cd5b-47bd-9dfa-8504056fc454","ios":"levelo://app?vid=22c50c1e-cd5b-47bd-9dfa-8504056fc454"},"vehicle_type_id":"4","last_reported":1732806567,"current_range_meters":8000,"station_id":"ce4bhn12rcd13ifvqgqg","pricing_plan_id":"cebpf4jnsgd1na2vs0mg"},{"bike_id":"b33b601f-2606-4353-90b6-5420eec2069b","system_id":"levelo_inurba_marseille","lat":43.28663,"lon":5.38662,"is_reserved":false,"is_disabled":false,"rental_uris":{"android":"levelo://app?vid=b33b601f-2606-4353-90b6-5420eec2069b","ios":"levelo://app?vid=b33b601f-2606-4353-90b6-5420eec2069b"},"vehicle_type_id":"4","last_reported":1732806567,"current_range_meters":33600,"station_id":"ce4bh492rcd13ifvqdug","pricing_plan_id":"cebpf4jnsgd1na2vs0mg"},{"bike_id":"12b93dcc-51c0-43db-87b4-e693434b4c55","system_id":"levelo_inurba_marseille","lat":43.28735,"lon":5.37387,"is_reserved":false,"is_disabled":false,"rental_uris":{"android":"levelo://app?vid=12b93dcc-51c0-43db-87b4-e693434b4c55","ios":"levelo://app?vid=12b93dcc-51c0-43db-87b4-e693434b4c55"},"vehicle_type_id":"4","last_reported":1732806567,"current_range_meters":31200,"station_id":"ce4bh3p2rcd13ifvqdq0","pricing_plan_id":"cebpf4jnsgd1na2vs0mg"},{"bike_id":"ae3817ed-117b-4ae4-bc47-be03692973ed","system_id":"levelo_inurba_marseille","lat":43.231945,"lon":5.355575,"is_reserved":false,"is_disabled":false,"rental_uris":{"android":"levelo://app?vid=ae3817ed-117b-4ae4-bc47-be03692973ed","ios":"levelo://app?vid=ae3817ed-117b-4ae4-bc47-be03692973ed"},"vehicle_type_id":"4","last_reported":1732806567,"current_range_meters":25600,"station_id":"ce4bhu92rcd13ifvqi70","pricing_plan_id":"cebpf4jnsgd1na2vs0mg"},{"bike_id":"617d0220-e70a-479c-a975-2b4daa5c4166","system_id":"levelo_inurba_marseille","lat":43.23152,"lon":5.43716,"is_reserved":false,"is_disabled":true,"rental_uris":{"android":"levelo://app?vid=617d0220-e70a-479c-a975-2b4daa5c4166","ios":"levelo://app?vid=617d0220-e70a-479c-a975-2b4daa5c4166"},"vehicle_type_id":"4","last_reported":1732806567,"current_range_meters":0,"station_id":"ce4bhmp2rcd13ifvqgog","pricing_plan_id":"cebpf4jnsgd1na2vs0mg"},{"bike_id":"7576e97e-0b83-4632-a64f-5de8c82098e7","system_id":"levelo_inurba_marseille","lat":43.27374,"lon":5.36256,"is_reserved":false,"is_disabled":false,"rental_uris":{"android":"levelo://app?vid=7576e97e-0b83-4632-a64f-5de8c82098e7","ios":"levelo://app?vid=7576e97e-0b83-4632-a64f-5de8c82098e7"},"vehicle_type_id":"4","last_reported":1732806567,"current_range_meters":31200,"station_id":"ce4bhbh2rcd13ifvqeo0","pricing_plan_id":"cebpf4jnsgd1na2vs0mg"},{"bike_id":"b0115449-693d-4f8e-a246-32b9f100e441","system_id":"levelo_inurba_marseille","lat":43.2849,"lon":5.38543,"is_reserved":false,"is_disabled":false,"rental_uris":{"android":"levelo://app?vid=b0115449-693d-4f8e-a246-32b9f100e441","ios":"levelo://app?vid=b0115449-693d-4f8e-a246-32b9f100e441"},"vehicle_type_id":"4","last_reported":1732806567,"current_range_meters":22400,"station_id":"ce4bh8p2rcd13ifvqeb0","pricing_plan_id":"cebpf4jnsgd1na2vs0mg"},{"bike_id":"5481ba4b-fa13-4e61-b8f9-95d380e91c18","system_id":"levelo_inurba_marseille","lat":43.26809,"lon":5.40276,"is_reserved":false,"is_disabled":false,"rental_uris":{"android":"levelo://app?vid=5481ba4b-fa13-4e61-b8f9-95d380e91c18","ios":"levelo://app?vid=5481ba4b-fa13-4e61-b8f9-95d380e91c18"},"vehicle_type_id":"4","last_reported":1732806567,"current_range_meters":24400,"station_id":"ce501612rcd8frsf0b60","pricing_plan_id":"cebpf4jnsgd1na2vs0mg"},{"bike_id":"18d86c8a-d5f1-413b-b707-4911ca550967","system_id":"levelo_inurba_marseille","lat":43.31324,"lon":5.39698,"is_reserved":false,"is_disabled":false,"rental_uris":{"android":"levelo://app?vid=18d86c8a-d5f1-413b-b707-4911ca550967","ios":"levelo://app?vid=18d86c8a-d5f1-413b-b707-4911ca550967"},"vehicle_type_id":"4","last_reported":1732806567,"current_range_meters":20400,"station_id":"ce4bgvp2rcd13ifvqcu0","pricing_plan_id":"cebpf4jnsgd1na2vs0mg"},{"bike_id":"aa264b76-788a-4baf-b2d8-de9310c31e8e","system_id":"levelo_inurba_marseille","lat":43.28935,"lon":5.36394,"is_reserved":false,"is_disabled":false,"rental_uris":{"android":"levelo://app?vid=aa264b76-788a-4baf-b2d8-de9310c31e8e","ios":"levelo://app?vid=aa264b76-788a-4baf-b2d8-de9310c31e8e"},"vehicle_type_id":"4","last_reported":1732806567,"current_range_meters":38800,"station_id":"ce4bhc92rcd13ifvqetg","pricing_plan_id":"cebpf4jnsgd1na2vs0mg"},{"bike_id":"de38d9f7-5326-4c76-a248-e0dc26ec6e5f","system_id":"levelo_inurba_marseille","lat":43.28932,"lon":5.36636,"is_reserved":false,"is_disabled":false,"rental_uris":{"android":"levelo://app?vid=de38d9f7-5326-4c76-a248-e0dc26ec6e5f","ios":"levelo://app?vid=de38d9f7-5326-4c76-a248-e0dc26ec6e5f"},"vehicle_type_id":"4","last_reported":1732806567,"current_range_meters":38800,"station_id":"ce4bhap2rcd13ifvqek0","pricing_plan_id":"cebpf4jnsgd1na2vs0mg"},{"bike_id":"b4d58e23-01ae-4c65-b568-c25ecb787930","system_id":"levelo_inurba_marseille","lat":43.26532,"lon":5.39389,"is_reserved":false,"is_disabled":true,"rental_uris":{"android":"levelo://app?vid=b4d58e23-01ae-4c65-b568-c25ecb787930","ios":"levelo://app?vid=b4d58e23-01ae-4c65-b568-c25ecb787930"},"vehicle_type_id":"4","last_reported":1732806567,"current_range_meters":0,"station_id":"","pricing_plan_id":"cebpf4jnsgd1na2vs0mg"},{"bike_id":"29bfd9ad-0365-4b6b-9f4a-b320e49f4b13","system_id":"levelo_inurba_marseille","lat":43.337444,"lon":5.374475,"is_reserved":false,"is_disabled":false,"rental_uris":{"android":"levelo://app?vid=29bfd9ad-0365-4b6b-9f4a-b320e49f4b13","ios":"levelo://app?vid=29bfd9ad-0365-4b6b-9f4a-b320e49f4b13"},"vehicle_type_id":"4","last_reported":1732806567,"current_range_meters":27200,"station_id":"","pricing_plan_id":"cebpf4jnsgd1na2vs0mg"},{"bike_id":"c344d59a-51d1-47da-b97f-1bc39ff3eae8","system_id":"levelo_inurba_marseille","lat":43.30453,"lon":5.36605,"is_reserved":false,"is_disabled":false,"rental_uris":{"android":"levelo://app?vid=c344d59a-51d1-47da-b97f-1bc39ff3eae8","ios":"levelo://app?vid=c344d59a-51d1-47da-b97f-1bc39ff3eae8"},"vehicle_type_id":"4","last_reported":1732806567,"current_range_meters":35200,"station_id":"","pricing_plan_id":"cebpf4jnsgd1na2vs0mg"},{"bike_id":"6b05a3d3-0be8-49e3-b409-4477b0c15995","system_id":"levelo_inurba_marseille","lat":43.28409,"lon":5.34988,"is_reserved":false,"is_disabled":false,"rental_uris":{"android":"levelo://app?vid=6b05a3d3-0be8-49e3-b409-4477b0c15995","ios":"levelo://app?vid=6b05a3d3-0be8-49e3-b409-4477b0c15995"},"vehicle_type_id":"4","last_reported":1732806567,"current_range_meters":39200,"station_id":"ce4bhbh2rcd13ifvqepg","pricing_plan_id":"cebpf4jnsgd1na2vs0mg"},{"bike_id":"447c7286-7fd2-40d7-a11c-845c88099efe","system_id":"levelo_inurba_marseille","lat":43.22925,"lon":5.35376,"is_reserved":false,"is_disabled":true,"rental_uris":{"android":"levelo://app?vid=447c7286-7fd2-40d7-a11c-845c88099efe","ios":"levelo://app?vid=447c7286-7fd2-40d7-a11c-845c88099efe"},"vehicle_type_id":"4","last_reported":1732806567,"current_range_meters":10800,"station_id":"cpo3532slgdg3j2ikp40","pricing_plan_id":"cebpf4jnsgd1na2vs0mg"},{"bike_id":"a1723da1-667d-458a-a389-796cdfff081b","system_id":"levelo_inurba_marseille","lat":43.23153,"lon":5.43717,"is_reserved":false,"is_disabled":false,"rental_uris":{"android":"levelo://app?vid=a1723da1-667d-458a-a389-796cdfff081b","ios":"levelo://app?vid=a1723da1-667d-458a-a389-796cdfff081b"},"vehicle_type_id":"4","last_reported":1732806567,"current_range_meters":4400,"station_id":"ce4bhmp2rcd13ifvqgog","pricing_plan_id":"cebpf4jnsgd1na2vs0mg"},{"bike_id":"5df56a47-47ee-41a8-a84f-6d6cb0e240a4","system_id":"levelo_inurba_marseille","lat":43.32295,"lon":5.38276,"is_reserved":false,"is_disabled":false,"rental_uris":{"android":"levelo://app?vid=5df56a47-47ee-41a8-a84f-6d6cb0e240a4","ios":"levelo://app?vid=5df56a47-47ee-41a8-a84f-6d6cb0e240a4"},"vehicle_type_id":"4","last_reported":1732806567,"current_range_meters":38800,"station_id":"ce4bhr12rcd13ifvqhqg","pricing_plan_id":"cebpf4jnsgd1na2vs0mg"},{"bike_id":"5090afa9-2f30-4836-a9c2-d8743ee0afae","system_id":"levelo_inurba_marseille","lat":43.3056,"lon":5.36545,"is_reserved":false,"is_disabled":false,"rental_uris":{"android":"levelo://app?vid=5090afa9-2f30-4836-a9c2-d8743ee0afae","ios":"levelo://app?vid=5090afa9-2f30-4836-a9c2-d8743ee0afae"},"vehicle_type_id":"4","last_reported":1732806567,"current_range_meters":19200,"station_id":"ce4bgs12rcd13ifvqcag","pricing_plan_id":"cebpf4jnsgd1na2vs0mg"},{"bike_id":"08836f09-dfff-4226-befa-d4d4ccd371e8","system_id":"levelo_inurba_marseille","lat":43.26948,"lon":5.40261,"is_reserved":false,"is_disabled":false,"rental_uris":{"android":"levelo://app?vid=08836f09-dfff-4226-befa-d4d4ccd371e8","ios":"levelo://app?vid=08836f09-dfff-4226-befa-d4d4ccd371e8"},"vehicle_type_id":"4","last_reported":1732806567,"current_range_meters":28400,"station_id":"cjm6bp8fraef2m0cb0m0","pricing_plan_id":"cebpf4jnsgd1na2vs0mg"},{"bike_id":"6e6df06a-a429-4f85-8c99-7a1d4762e144","system_id":"levelo_inurba_marseille","lat":43.30143,"lon":5.3809,"is_reserved":false,"is_disabled":false,"rental_uris":{"android":"levelo://app?vid=6e6df06a-a429-4f85-8c99-7a1d4762e144","ios":"levelo://app?vid=6e6df06a-a429-4f85-8c99-7a1d4762e144"},"vehicle_type_id":"4","last_reported":1732806567,"current_range_meters":35600,"station_id":"ce4bgjp2rcd13ifvqbh0","pricing_plan_id":"cebpf4jnsgd1na2vs0mg"},{"bike_id":"fc9a1955-9659-4ed3-9915-10e2b629f683","system_id":"levelo_inurba_marseille","lat":43.27678,"lon":5.38862,"is_reserved":false,"is_disabled":false,"rental_uris":{"android":"levelo://app?vid=fc9a1955-9659-4ed3-9915-10e2b629f683","ios":"levelo://app?vid=fc9a1955-9659-4ed3-9915-10e2b629f683"},"vehicle_type_id":"4","last_reported":1732806567,"current_range_meters":2000,"station_id":"ce4bhi12rcd13ifvqfo0","pricing_plan_id":"cebpf4jnsgd1na2vs0mg"},{"bike_id":"8eb8ff42-f44c-42aa-8232-6285070c5d9b","system_id":"levelo_inurba_marseille","lat":43.26484,"lon":5.39554,"is_reserved":false,"is_disabled":false,"rental_uris":{"android":"levelo://app?vid=8eb8ff42-f44c-42aa-8232-6285070c5d9b","ios":"levelo://app?vid=8eb8ff42-f44c-42aa-8232-6285070c5d9b"},"vehicle_type_id":"4","last_reported":1732806567,"current_range_meters":5600,"station_id":"ce4bhi12rcd13ifvqfq0","pricing_plan_id":"cebpf4jnsgd1na2vs0mg"},{"bike_id":"8aded858-5bd1-4bd8-ad27-df8ed18ce87c","system_id":"levelo_inurba_marseille","lat":43.23154,"lon":5.43709,"is_reserved":false,"is_disabled":true,"rental_uris":{"android":"levelo://app?vid=8aded858-5bd1-4bd8-ad27-df8ed18ce87c","ios":"levelo://app?vid=8aded858-5bd1-4bd8-ad27-df8ed18ce87c"},