{"last_updated":1745165450,"ttl":60,"version":"2.2","data":{"bikes":[{"bike_id":"6c0a8c09-2f91-4065-9b4f-599f0edafb3a","system_id":"levelo_inurba_marseille","lat":43.254917,"lon":5.376312,"is_reserved":false,"is_disabled":false,"rental_uris":{"android":"levelo://app?vid=6c0a8c09-2f91-4065-9b4f-599f0edafb3a","ios":"levelo://app?vid=6c0a8c09-2f91-4065-9b4f-599f0edafb3a"},"vehicle_type_id":"4","last_reported":1745165451,"current_range_meters":2800,"station_id":"ce4bhh12rcd13ifvqff0","pricing_plan_id":"cebpf4jnsgd1na2vs0mg"},{"bike_id":"ae184ac5-d09c-49ad-a99c-1c1d60c02ad4","system_id":"levelo_inurba_marseille","lat":43.262153,"lon":5.374377,"is_reserved":false,"is_disabled":false,"rental_uris":{"android":"levelo://app?vid=ae184ac5-d09c-49ad-a99c-1c1d60c02ad4","ios":"levelo://app?vid=ae184ac5-d09c-49ad-a99c-1c1d60c02ad4"},"vehicle_type_id":"4","last_reported":1745165451,"current_range_meters":2800,"station_id":"ce4bhgp2rcd13ifvqfc0","pricing_plan_id":"cebpf4jnsgd1na2vs0mg"},{"bike_id":"c42c97dc-851b-476d-ba23-67d0582febc0","system_id":"levelo_inurba_marseille","lat":43.303211,"lon":5.404394,"is_reserved":false,"is_disabled":true,"rental_uris":{"android":"levelo://app?vid=c42c97dc-851b-476d-ba23-67d0582febc0","ios":"levelo://app?vid=c42c97dc-851b-476d-ba23-67d0582febc0"},"vehicle_type_id":"4","last_reported":1745165451,"current_range_meters":2800,"station_id":"ce4bh012rcd13ifvqd10","pricing_plan_id":"cebpf4jnsgd1na2vs0mg"},{"bike_id":"19ada103-4cbd-4062-a809-34f5987a7a6d","system_id":"levelo_inurba_marseille","lat":43.26821,"lon":5.38904,"is_reserved":false,"is_disabled":false,"rental_uris":{"android":"levelo://app?vid=19ada103-4cbd-4062-a809-34f5987a7a6d","ios":"levelo://app?vid=19ada103-4cbd-4062-a809-34f5987a7a6d"},"vehicle_type_id":"4","last_reported":1745165451,"current_range_meters":2800,"station_id":"","pricing_plan_id":"cebpf4jnsgd1na2vs0mg"},{"bike_id":"62b7eb0e-d006-4b90-b39e-c925e68b5a6d","system_id":"levelo_inurba_marseille","lat":43.29198,"lon":5.35801,"is_reserved":false,"is_disabled":false,"rental_uris":{"android":"levelo://app?vid=62b7eb0e-d006-4b90-b39e-c925e68b5a6d","ios":"levelo://app?vid=62b7eb0e-d006-4b90-b39e-c925e68b5a6d"},"vehicle_type_id":"4","last_reported":1745165451,"current_range_meters":2800,"station_id":"ce4bhb12rcd13ifvqel0","pricing_plan_id":"cebpf4jnsgd1na2vs0mg"},{"bike_id":"c7e39290-2c2b-4e03-929f-56e90e3e7e1e","system_id":"levelo_inurba_marseille","lat":43.26202,"lon":5.37933,"is_reserved":false,"is_disabled":false,"rental_uris":{"android":"levelo://app?vid=c7e39290-2c2b-4e03-929f-56e90e3e7e1e","ios":"levelo://app?vid=c7e39290-2c2b-4e03-929f-56e90e3e7e1e"},"vehicle_type_id":"4","last_reported":1745165451,"current_range_meters":2800,"station_id":"ce4bhjp2rcd13ifvqg90","pricing_plan_id":"cebpf4jnsgd1na2vs0mg"},{"bike_id":"63aee823-6a0a-4b6e-8c16-742fca7dbcdb","system_id":"levelo_inurba_marseille","lat":43.25087,"lon":5.39529,"is_reserved":false,"is_disabled":false,"rental_uris":{"android":"levelo://app?vid=63aee823-6a0a-4b6e-8c16-742fca7dbcdb","ios":"levelo://app?vid=63aee823-6a0a-4b6e-8c16-742fca7dbcdb"},"vehicle_type_id":"4","last_reported":1745165451,"current_range_meters":3200,"station_id":"ce4bhm12rcd13ifvqgkg","pricing_plan_id":"cebpf4jnsgd1na2vs0mg"},{"bike_id":"5c7115d0-1c72-4494-89af-517632f63ac9","system_id":"levelo_inurba_marseille","lat":43.28484,"lon":5.38407,"is_reserved":false,"is_disabled":false,"rental_uris":{"android":"levelo://app?vid=5c7115d0-1c72-4494-89af-517632f63ac9","ios":"levelo://app?vid=5c7115d0-1c72-4494-89af-517632f63ac9"},"vehicle_type_id":"4","last_reported":1745165451,"current_range_meters":3200,"station_id":"ce4bh512rcd13ifvqe3g","pricing_plan_id":"cebpf4jnsgd1na2vs0mg"},{"bike_id":"c0107e6c-3f99-46da-a9b1-78bcc48c9eaf","system_id":"levelo_inurba_marseille","lat":43.22935,"lon":5.35375,"is_reserved":false,"is_disabled":false,"rental_uris":{"android":"levelo://app?vid=c0107e6c-3f99-46da-a9b1-78bcc48c9eaf","ios":"levelo://app?vid=c0107e6c-3f99-46da-a9b1-78bcc48c9eaf"},"vehicle_type_id":"4","last_reported":1745165451,"current_range_meters":3200,"station_id":"cpo3532slgdg3j2ikp40","pricing_plan_id":"cebpf4jnsgd1na2vs0mg"},{"bike_id":"fe4efa8b-c091-43ef-88ee-0b487edef4c8","system_id":"levelo_inurba_marseille","lat":43.30445,"lon":5.39742,"is_reserved":false,"is_disabled":false,"rental_uris":{"android":"levelo://app?vid=fe4efa8b-c091-43ef-88ee-0b487edef4c8","ios":"levelo://app?vid=fe4efa8b-c091-43ef-88ee-0b487edef4c8"},"vehicle_type_id":"4","last_reported":1745165451,"current_range_meters":3200,"station_id":"ce4bh092rcd13ifvqd20","pricing_plan_id":"cebpf4jnsgd1na2vs0mg"},{"bike_id":"4cdb0a0f-6366-43af-85c7-3c43d75a4386","system_id":"levelo_inurba_marseille","lat":43.31925,"lon":5.36395,"is_reserved":false,"is_disabled":false,"rental_uris":{"android":"levelo://app?vid=4cdb0a0f-6366-43af-85c7-3c43d75a4386","ios":"levelo://app?vid=4cdb0a0f-6366-43af-85c7-3c43d75a4386"},"vehicle_type_id":"4","last_reported":1745165451,"current_range_meters":3200,"station_id":"","pricing_plan_id":"cebpf4jnsgd1na2vs0mg"},{"bike_id":"9fe8c14c-2d24-41b2-9662-956cdf9f075c","system_id":"levelo_inurba_marseille","lat":43.24472,"lon":5.36918,"is_reserved":false,"is_disabled":false,"rental_uris":{"android":"levelo://app?vid=9fe8c14c-2d24-41b2-9662-956cdf9f075c","ios":"levelo://app?vid=9fe8c14c-2d24-41b2-9662-956cdf9f075c"},"vehicle_type_id":"4","last_reported":1745165451,"current_range_meters":3600,"station_id":"","pricing_plan_id":"cebpf4jnsgd1na2vs0mg"},{"bike_id":"50948660-8ded-4b3f-aabc-2208edd92fee","system_id":"levelo_inurba_marseille","lat":43.302911,"lon":5.368902,"is_reserved":false,"is_disabled":false,"rental_uris":{"android":"levelo://app?vid=50948660-8ded-4b3f-aabc-2208edd92fee","ios":"levelo://app?vid=50948660-8ded-4b3f-aabc-2208edd92fee"},"vehicle_type_id":"4","last_reported":1745165451,"current_range_meters":3600,"station_id":"ce4bgqh2rcd13ifvqc5g","pricing_plan_id":"cebpf4jnsgd1na2vs0mg"},{"bike_id":"066f1a3f-2f55-42ac-aa57-b561bb82f13e","system_id":"levelo_inurba_marseille","lat":43.30856,"lon":5.37374,"is_reserved":false,"is_disabled":false,"rental_uris":{"android":"levelo://app?vid=066f1a3f-2f55-42ac-aa57-b561bb82f13e","ios":"levelo://app?vid=066f1a3f-2f55-42ac-aa57-b561bb82f13e"},"vehicle_type_id":"4","last_reported":1745165451,"current_range_meters":3600,"station_id":"","pricing_plan_id":"cebpf4jnsgd1na2vs0mg"},{"bike_id":"7b876d00-9349-4027-9a64-26c5e2666ce1","system_id":"levelo_inurba_marseille","lat":43.29535,"lon":5.38554,"is_reserved":false,"is_disabled":true,"rental_uris":{"android":"levelo://app?vid=7b876d00-9349-4027-9a64-26c5e2666ce1","ios":"levelo://app?vid=7b876d00-9349-4027-9a64-26c5e2666ce1"},"vehicle_type_id":"4","last_reported":1745165451,"current_range_meters":3600,"station_id":"ce4bgih2rcd13ifvqba0","pricing_plan_id":"cebpf4jnsgd1na2vs0mg"},{"bike_id":"e3224750-ec92-4cd9-8d8b-c70fc45f9081","system_id":"levelo_inurba_marseille","lat":43.25581,"lon":5.38258,"is_reserved":false,"is_disabled":false,"rental_uris":{"android":"levelo://app?vid=e3224750-ec92-4cd9-8d8b-c70fc45f9081","ios":"levelo://app?vid=e3224750-ec92-4cd9-8d8b-c70fc45f9081"},"vehicle_type_id":"4","last_reported":1745165451,"current_range_meters":3600,"station_id":"ce4bhih2rcd13ifvqfs0","pricing_plan_id":"cebpf4jnsgd1na2vs0mg"},{"bike_id":"ab42e793-35c0-4a52-a3f6-ac07eb6ffa88","system_id":"levelo_inurba_marseille","lat":43.23195,"lon":5.35549,"is_reserved":false,"is_disabled":true,"rental_uris":{"android":"levelo://app?vid=ab42e793-35c0-4a52-a3f6-ac07eb6ffa88","ios":"levelo://app?vid=ab42e793-35c0-4a52-a3f6-ac07eb6ffa88"},"vehicle_type_id":"4","last_reported":1745165451,"current_range_meters":3600,"station_id":"ce4bhu92rcd13ifvqi70","pricing_plan_id":"cebpf4jnsgd1na2vs0mg"},{"bike_id":"cd48c8b9-2ffb-448c-9cac-77065011964c","system_id":"levelo_inurba_marseille","lat":43.25002,"lon":5.38931,"is_reserved":false,"is_disabled":false,"rental_uris":{"android":"levelo://app?vid=cd48c8b9-2ffb-448c-9cac-77065011964c","ios":"levelo://app?vid=cd48c8b9-2ffb-448c-9cac-77065011964c"},"vehicle_type_id":"4","last_reported":1745165451,"current_range_meters":3600,"station_id":"ce4bhgp2rcd13ifvqfd0","pricing_plan_id":"cebpf4jnsgd1na2vs0mg"},{"bike_id":"f3a4e01b-c701-4986-a10e-513f5743d1b1","system_id":"levelo_inurba_marseille","lat":43.26546,"lon":5.37305,"is_reserved":false,"is_disabled":false,"rental_uris":{"android":"levelo://app?vid=f3a4e01b-c701-4986-a10e-513f5743d1b1","ios":"levelo://app?vid=f3a4e01b-c701-4986-a10e-513f5743d1b1"},"vehicle_type_id":"4","last_reported":1745165451,"current_range_meters":3600,"station_id":"ce4bhg12rcd13ifvqf70","pricing_plan_id":"cebpf4jnsgd1na2vs0mg"},{"bike_id":"a0ddb0a5-f7f0-4281-aa27-9e82747cc573","system_id":"levelo_inurba_marseille","lat":43.33754,"lon":5.37491,"is_reserved":false,"is_disabled":false,"rental_uris":{"android":"levelo://app?vid=a0ddb0a5-f7f0-4281-aa27-9e82747cc573","ios":"levelo://app?vid=a0ddb0a5-f7f0-4281-aa27-9e82747cc573"},"vehicle_type_id":"4","last_reported":1745165451,"current_range_meters":3600,"station_id":"","pricing_plan_id":"cebpf4jnsgd1na2vs0mg"},{"bike_id":"35f0a6e1-f9a9-47ee-bab6-2641cdd8ae57","system_id":"levelo_inurba_marseille","lat":43.27316,"lon":5.39108,"is_reserved":false,"is_disabled":true,"rental_uris":{"android":"levelo://app?vid=35f0a6e1-f9a9-47ee-bab6-2641cdd8ae57","ios":"levelo://app?vid=35f0a6e1-f9a9-47ee-bab6-2641cdd8ae57"},"vehicle_type_id":"4","last_reported":1745165451,"current_range_meters":4000,"station_id":"ce4bhgp2rcd13ifvqfe0","pricing_plan_id":"cebpf4jnsgd1na2vs0mg"},{"bike_id":"a2312ae9-dce8-45aa-ad80-d7a59c31a1f2","system_id":"levelo_inurba_marseille","lat":43.283599,"lon":5.386249,"is_reserved":false,"is_disabled":false,"rental_uris":{"android":"levelo://app?vid=a2312ae9-dce8-45aa-ad80-d7a59c31a1f2","ios":"levelo://app?vid=a2312ae9-dce8-45aa-ad80-d7a59c31a1f2"},"vehicle_type_id":"4","last_reported":1745165451,"current_range_meters":4000,"station_id":"ce4bh492rcd13ifvqdvg","pricing_plan_id":"cebpf4jnsgd1na2vs0mg"},{"bike_id":"79c1bdf1-0ce7-4cf9-a30e-80d22d781d02","system_id":"levelo_inurba_marseille","lat":43.29412,"lon":5.38605,"is_reserved":false,"is_disabled":false,"rental_uris":{"android":"levelo://app?vid=79c1bdf1-0ce7-4cf9-a30e-80d22d781d02","ios":"levelo://app?vid=79c1bdf1-0ce7-4cf9-a30e-80d22d781d02"},"vehicle_type_id":"4","last_reported":1745165451,"current_range_meters":4000,"station_id":"ce4bh2h2rcd13ifvqdh0","pricing_plan_id":"cebpf4jnsgd1na2vs0mg"},{"bike_id":"bdafc366-aefb-4c8a-89a9-08428b24a9b7","system_id":"levelo_inurba_marseille","lat":43.30097,"lon":5.39079,"is_reserved":false,"is_disabled":false,"rental_uris":{"android":"levelo://app?vid=bdafc366-aefb-4c8a-89a9-08428b24a9b7","ios":"levelo://app?vid=bdafc366-aefb-4c8a-89a9-08428b24a9b7"},"vehicle_type_id":"4","last_reported":1745165451,"current_range_meters":3600,"station_id":"ce4bh192rcd13ifvqdb0","pricing_plan_id":"cebpf4jnsgd1na2vs0mg"},{"bike_id":"f1669f30-c518-4fbd-93b9-5308ef4b52b8","system_id":"levelo_inurba_marseille","lat":43.26942,"lon":5.40251,"is_reserved":false,"is_disabled":false,"rental_uris":{"android":"levelo://app?vid=f1669f30-c518-4fbd-93b9-5308ef4b52b8","ios":"levelo://app?vid=f1669f30-c518-4fbd-93b9-5308ef4b52b8"},"vehicle_type_id":"4","last_reported":1745165451,"current_range_meters":4400,"station_id":"cjm6bp8fraef2m0cb0m0","pricing_plan_id":"cebpf4jnsgd1na2vs0mg"},{"bike_id":"5701a54a-9200-4718-b54f-d20905005f5c","system_id":"levelo_inurba_marseille","lat":43.27072,"lon":5.42275,"is_reserved":false,"is_disabled":false,"rental_uris":{"android":"levelo://app?vid=5701a54a-9200-4718-b54f-d20905005f5c","ios":"levelo://app?vid=5701a54a-9200-4718-b54f-d20905005f5c"},"vehicle_type_id":"4","last_reported":1745165451,"current_range_meters":4400,"station_id":"ce4bhk92rcd13ifvqgb0","pricing_plan_id":"cebpf4jnsgd1na2vs0mg"},{"bike_id":"4e4cb17e-bc32-406a-b111-160763dbbc8a","system_id":"levelo_inurba_marseille","lat":43.21196,"lon":5.35069,"is_reserved":false,"is_disabled":false,"rental_uris":{"android":"levelo://app?vid=4e4cb17e-bc32-406a-b111-160763dbbc8a","ios":"levelo://app?vid=4e4cb17e-bc32-406a-b111-160763dbbc8a"},"vehicle_type_id":"4","last_reported":1745165451,"current_range_meters":4400,"station_id":"st_cvj6sg6p6f1abm77japg","pricing_plan_id":"cebpf4jnsgd1na2vs0mg"},{"bike_id":"7dcdef15-1980-4995-904f-86bb708bb2e7","system_id":"levelo_inurba_marseille","lat":43.25103,"lon":5.40349,"is_reserved":false,"is_disabled":false,"rental_uris":{"android":"levelo://app?vid=7dcdef15-1980-4995-904f-86bb708bb2e7","ios":"levelo://app?vid=7dcdef15-1980-4995-904f-86bb708bb2e7"},"vehicle_type_id":"4","last_reported":1745165451,"current_range_meters":4800,"station_id":"ce4bhlh2rcd13ifvqgig","pricing_plan_id":"cebpf4jnsgd1na2vs0mg"},{"bike_id":"d0afabed-9a1c-4aca-b189-4b6878aaa911","system_id":"levelo_inurba_marseille","lat":43.2738,"lon":5.36265,"is_reserved":false,"is_disabled":false,"rental_uris":{"android":"levelo://app?vid=d0afabed-9a1c-4aca-b189-4b6878aaa911","ios":"levelo://app?vid=d0afabed-9a1c-4aca-b189-4b6878aaa911"},"vehicle_type_id":"4","last_reported":1745165451,"current_range_meters":4800,"station_id":"ce4bhbh2rcd13ifvqeo0","pricing_plan_id":"cebpf4jnsgd1na2vs0mg"},{"bike_id":"597d4289-c7b9-4f5b-91a0-9725539681e3","system_id":"levelo_inurba_marseille","lat":43.29421,"lon":5.38625,"is_reserved":false,"is_disabled":false,"rental_uris":{"android":"levelo://app?vid=597d4289-c7b9-4f5b-91a0-9725539681e3","ios":"levelo://app?vid=597d4289-c7b9-4f5b-91a0-9725539681e3"},"vehicle_type_id":"4","last_reported":1745165451,"current_range_meters":4800,"station_id":"ce4bh2h2rcd13ifvqdh0","pricing_plan_id":"cebpf4jnsgd1na2vs0mg"},{"bike_id":"cecd7c84-becb-41c3-9869-71d934006a59","system_id":"levelo_inurba_marseille","lat":43.27388,"lon":5.36262,"is_reserved":false,"is_disabled":false,"rental_uris":{"android":"levelo://app?vid=cecd7c84-becb-41c3-9869-71d934006a59","ios":"levelo://app?vid=cecd7c84-becb-41c3-9869-71d934006a59"},"vehicle_type_id":"4","last_reported":1745165451,"current_range_meters":4800,"station_id":"ce4bhbh2rcd13ifvqeo0","pricing_plan_id":"cebpf4jnsgd1na2vs0mg"},{"bike_id":"61460afb-461f-4e95-b6cd-369571b89f8f","system_id":"levelo_inurba_marseille","lat":43.29035,"lon":5.35914,"is_reserved":false,"is_disabled":false,"rental_uris":{"android":"levelo://app?vid=61460afb-461f-4e95-b6cd-369571b89f8f","ios":"levelo://app?vid=61460afb-461f-4e95-b6cd-369571b89f8f"},"vehicle_type_id":"4","last_reported":1745165451,"current_range_meters":5600,"station_id":"ce4bha92rcd13ifvqeg0","pricing_plan_id":"cebpf4jnsgd1na2vs0mg"},{"bike_id":"b52a1751-28c1-4412-9819-bb1cff38059d","system_id":"levelo_inurba_marseille","lat":43.25545,"lon":5.40634,"is_reserved":false,"is_disabled":false,"rental_uris":{"android":"levelo://app?vid=b52a1751-28c1-4412-9819-bb1cff38059d","ios":"levelo://app?vid=b52a1751-28c1-4412-9819-bb1cff38059d"},"vehicle_type_id":"4","last_reported":1745165451,"current_range_meters":4800,"station_id":"","pricing_plan_id":"cebpf4jnsgd1na2vs0mg"},{"bike_id":"f1b544c2-7043-4219-81c7-a814678c455f","system_id":"levelo_inurba_marseille","lat":43.30329,"lon":5.40433,"is_reserved":false,"is_disabled":false,"rental_uris":{"android":"levelo://app?vid=f1b544c2-7043-4219-81c7-a814678c455f","ios":"levelo://app?vid=f1b544c2-7043-4219-81c7-a814678c455f"},"vehicle_type_id":"4","last_reported":1745165451,"current_range_meters":4800,"station_id":"ce4bh012rcd13ifvqd10","pricing_plan_id":"cebpf4jnsgd1na2vs0mg"},{"bike_id":"8be585ad-85cb-41c1-b0ed-a62c1654368b","system_id":"levelo_inurba_marseille","lat":43.26567,"lon":5.37282,"is_reserved":false,"is_disabled":false,"rental_uris":{"android":"levelo://app?vid=8be585ad-85cb-41c1-b0ed-a62c1654368b","ios":"levelo://app?vid=8be585ad-85cb-41c1-b0ed-a62c1654368b"},"vehicle_type_id":"4","last_reported":1745165451,"current_range_meters":5600,"station_id":"ce4bhg12rcd13ifvqf70","pricing_plan_id":"cebpf4jnsgd1na2vs0mg"},{"bike_id":"54fe39e1-a796-4b78-bda7-e06b08464b67","system_id":"levelo_inurba_marseille","lat":43.25456,"lon":5.37684,"is_reserved":false,"is_disabled":false,"rental_uris":{"android":"levelo://app?vid=54fe39e1-a796-4b78-bda7-e06b08464b67","ios":"levelo://app?vid=54fe39e1-a796-4b78-bda7-e06b08464b67"},"vehicle_type_id":"4","last_reported":1745165451,"current_range_meters":5600,"station_id":"","pricing_plan_id":"cebpf4jnsgd1na2vs0mg"},{"bike_id":"80e399c6-ea35-4e48-b798-aa559a4f8c6d","system_id":"levelo_inurba_marseille","lat":43.27381,"lon":5.36254,"is_reserved":false,"is_disabled":false,"rental_uris":{"android":"levelo://app?vid=80e399c6-ea35-4e48-b798-aa559a4f8c6d","ios":"levelo://app?vid=80e399c6-ea35-4e48-b798-aa559a4f8c6d"},"vehicle_type_id":"4","last_reported":1745165451,"current_range_meters":5600,"station_id":"ce4bhbh2rcd13ifvqeo0","pricing_plan_id":"cebpf4jnsgd1na2vs0mg"},{"bike_id":"84873140-d537-4ab8-93d2-e64bd28d05c8","system_id":"levelo_inurba_marseille","lat":43.27907,"lon":5.3801,"is_reserved":false,"is_disabled":false,"rental_uris":{"android":"levelo://app?vid=84873140-d537-4ab8-93d2-e64bd28d05c8","ios":"levelo://app?vid=84873140-d537-4ab8-93d2-e64bd28d05c8"},"vehicle_type_id":"4","last_reported":1745165451,"current_range_meters":5600,"station_id":"ce4bhf92rcd13ifvqf50","pricing_plan_id":"cebpf4jnsgd1na2vs0mg"},{"bike_id":"fc0aa298-eb13-4377-aa67-0f08d7df95ad","system_id":"levelo_inurba_marseille","lat":43.269379,"lon":5.402588,"is_reserved":false,"is_disabled":false,"rental_uris":{"android":"levelo://app?vid=fc0aa298-eb13-4377-aa67-0f08d7df95ad","ios":"levelo://app?vid=fc0aa298-eb13-4377-aa67-0f08d7df95ad"},"vehicle_type_id":"4","last_reported":1745165451,"current_range_meters":5600,"station_id":"cjm6bp8fraef2m0cb0m0","pricing_plan_id":"cebpf4jnsgd1na2vs0mg"},{"bike_id":"cf9ef38c-e26f-4577-beb2-4bbb872d5e7e","system_id":"levelo_inurba_marseille","lat":43.25134,"lon":5.40318,"is_reserved":false,"is_disabled":false,"rental_uris":{"android":"levelo://app?vid=cf9ef38c-e26f-4577-beb2-4bbb872d5e7e","ios":"levelo://app?vid=cf9ef38c-e26f-4577-beb2-4bbb872d5e7e"},"vehicle_type_id":"4","last_reported":1745165451,"current_range_meters":5600,"station_id":"ce4bhlh2rcd13ifvqgig","pricing_plan_id":"cebpf4jnsgd1na2vs0mg"},{"bike_id":"e5a0ada5-09ef-44c0-8bab-52a6047551b7","system_id":"levelo_inurba_marseille","lat":43.26954,"lon":5.38624,"is_reserved":false,"is_disabled":false,"rental_uris":{"android":"levelo://app?vid=e5a0ada5-09ef-44c0-8bab-52a6047551b7","ios":"levelo://app?vid=e5a0ada5-09ef-44c0-8bab-52a6047551b7"},"vehicle_type_id":"4","last_reported":1745165451,"current_range_meters":5600,"station_id":"ce4bhh92rcd13ifvqfh0","pricing_plan_id":"cebpf4jnsgd1na2vs0mg"},{"bike_id":"10901109-dd8b-4da9-9837-2ccd5b1c4427","system_id":"levelo_inurba_marseille","lat":43.23186,"lon":5.39996,"is_reserved":false,"is_disabled":false,"rental_uris":{"android":"levelo://app?vid=10901109-dd8b-4da9-9837-2ccd5b1c4427","ios":"levelo://app?vid=10901109-dd8b-4da9-9837-2ccd5b1c4427"},"vehicle_type_id":"4","last_reported":1745165451,"current_range_meters":5600,"station_id":"ce4bhn12rcd13ifvqgqg","pricing_plan_id":"cebpf4jnsgd1na2vs0mg"},{"bike_id":"8e066549-e1f4-4dbf-b6c2-d4480f07d4ef","system_id":"levelo_inurba_marseille","lat":43.26068,"lon":5.39401,"is_reserved":false,"is_disabled":false,"rental_uris":{"android":"levelo://app?vid=8e066549-e1f4-4dbf-b6c2-d4480f07d4ef","ios":"levelo://app?vid=8e066549-e1f4-4dbf-b6c2-d4480f07d4ef"},"vehicle_type_id":"4","last_reported":1745165451,"current_range_meters":6000,"station_id":"ce4bhh92rcd13ifvqfj0","pricing_plan_id":"cebpf4jnsgd1na2vs0mg"},{"bike_id":"37b2cb7d-a6cb-427e-8346-dfc7edd45186","system_id":"levelo_inurba_marseille","lat":43.25115,"lon":5.40305,"is_reserved":false,"is_disabled":false,"rental_uris":{"android":"levelo://app?vid=37b2cb7d-a6cb-427e-8346-dfc7edd45186","ios":"levelo://app?vid=37b2cb7d-a6cb-427e-8346-dfc7edd45186"},"vehicle_type_id":"4","last_reported":1745165451,"current_range_meters":6000,"station_id":"ce4bhlh2rcd13ifvqgig","pricing_plan_id":"cebpf4jnsgd1na2vs0mg"},{"bike_id":"a17ccd19-d2e1-478b-9cef-a2ec890783e8","system_id":"levelo_inurba_marseille","lat":43.25575,"lon":5.38219,"is_reserved":false,"is_disabled":false,"rental_uris":{"android":"levelo://app?vid=a17ccd19-d2e1-478b-9cef-a2ec890783e8","ios":"levelo://app?vid=a17ccd19-d2e1-478b-9cef-a2ec890783e8"},"vehicle_type_id":"4","last_reported":1745165451,"current_range_meters":6000,"station_id":"ce4bhih2rcd13ifvqfs0","pricing_plan_id":"cebpf4jnsgd1na2vs0mg"},{"bike_id":"13f72e1d-387b-480f-b045-b2007099ede8","system_id":"levelo_inurba_marseille","lat":43.27178,"lon":5.40995,"is_reserved":false,"is_disabled":false,"rental_uris":{"android":"levelo://app?vid=13f72e1d-387b-480f-b045-b2007099ede8","ios":"levelo://app?vid=13f72e1d-387b-480f-b045-b2007099ede8"},"vehicle_type_id":"4","last_reported":1745165451,"current_range_meters":6000,"station_id":"ce4bhl12rcd13ifvqgf0","pricing_plan_id":"cebpf4jnsgd1na2vs0mg"},{"bike_id":"e45737d8-4e0b-4db0-a45b-0b9936d251c2","system_id":"levelo_inurba_marseille","lat":43.2738,"lon":5.36269,"is_reserved":false,"is_disabled":false,"rental_uris":{"android":"levelo://app?vid=e45737d8-4e0b-4db0-a45b-0b9936d251c2","ios":"levelo://app?vid=e45737d8-4e0b-4db0-a45b-0b9936d251c2"},"vehicle_type_id":"4","last_reported":1745165451,"current_range_meters":6000,"station_id":"ce4bhbh2rcd13ifvqeo0","pricing_plan_id":"cebpf4jnsgd1na2vs0mg"},{"bike_id":"fbac7086-f1a0-4fd3-9781-73302746f4c5","system_id":"levelo_inurba_marseille","lat":43.29101,"lon":5.38132,"is_reserved":false,"is_disabled":false,"rental_uris":{"android":"levelo://app?vid=fbac7086-f1a0-4fd3-9781-73302746f4c5","ios":"levelo://app?vid=fbac7086-f1a0-4fd3-9781-73302746f4c5"},"vehicle_type_id":"4","last_reported":1745165451,"current_range_meters":6000,"station_id":"ce4bh512rcd13ifvqe2g","pricing_plan_id":"cebpf4jnsgd1na2vs0mg"},{"bike_id":"501b1c56-b5c3-4cfb-932f-a774c7db70f2","system_id":"levelo_inurba_marseille","lat":43.265472,"lon":5.372858,"is_reserved":false,"is_disabled":true,"rental_uris":{"android":"levelo://app?vid=501b1c56-b5c3-4cfb-932f-a774c7db70f2","ios":"levelo://app?vid=501b1c56-b5c3-4cfb-932f-a774c7db70f2"},"vehicle_type_id":"4","last_reported":1745165451,"current_range_meters":6000,"station_id":"ce4bhap2rcd13ifvqek0","pricing_plan_id":"cebpf4jnsgd1na2vs0mg"},{"bike_id":"25ac8711-23d8-4ac6-be71-7887a0c13eb0","system_id":"levelo_inurba_marseille","lat":43.32658,"lon":5.41003,"is_reserved":false,"is_disabled":false,"rental_uris":{"android":"levelo://app?vid=25ac8711-23d8-4ac6-be71-7887a0c13eb0","ios":"levelo://app?vid=25ac8711-23d8-4ac6-be71-7887a0c13eb0"},"vehicle_type_id":"4","last_reported":1745165451,"current_range_meters":6000,"station_id":"ce4bhpp2rcd13ifvqhgg","pricing_plan_id":"cebpf4jnsgd1na2vs0mg"},{"bike_id":"f62e104c-1b5e-4cef-9eb3-5f61d855667e","system_id":"levelo_inurba_marseille","lat":43.25585,"lon":5.38226,"is_reserved":false,"is_disabled":false,"rental_uris":{"android":"levelo://app?vid=f62e104c-1b5e-4cef-9eb3-5f61d855667e","ios":"levelo://app?vid=f62e104c-1b5e-4cef-9eb3-5f61d855667e"},"vehicle_type_id":"4","last_reported":1745165451,"current_range_meters":6400,"station_id":"ce4bhih2rcd13ifvqfs0","pricing_plan_id":"cebpf4jnsgd1na2vs0mg"},{"bike_id":"656ac081-c121-4824-81a4-fa92b7720ed4","system_id":"levelo_inurba_marseille","lat":43.23187,"lon":5.35576,"is_reserved":false,"is_disabled":false,"rental_uris":{"android":"levelo://app?vid=656ac081-c121-4824-81a4-fa92b7720ed4","ios":"levelo://app?vid=656ac081-c121-4824-81a4-fa92b7720ed4"},"vehicle_type_id":"4","last_reported":1745165451,"current_range_meters":6400,"station_id":"ce4bhu92rcd13ifvqi70","pricing_plan_id":"cebpf4jnsgd1na2vs0mg"},{"bike_id":"9d3ad93b-bc10-4cce-99a5-42053953bee4","system_id":"levelo_inurba_marseille","lat":43.2873,"lon":5.36085,"is_reserved":false,"is_disabled":false,"rental_uris":{"android":"levelo://app?vid=9d3ad93b-bc10-4cce-99a5-42053953bee4","ios":"levelo://app?vid=9d3ad93b-bc10-4cce-99a5-42053953bee4"},"vehicle_type_id":"4","last_reported":1745165451,"current_range_meters":6000,"station_id":"cki0cbj6b192h4jlfktg","pricing_plan_id":"cebpf4jnsgd1na2vs0mg"},{"bike_id":"9f175db3-24f6-4cf3-98ab-a115bef16bbe","system_id":"levelo_inurba_marseille","lat":43.29423,"lon":5.386,"is_reserved":false,"is_disabled":false,"rental_uris":{"android":"levelo://app?vid=9f175db3-24f6-4cf3-98ab-a115bef16bbe","ios":"levelo://app?vid=9f175db3-24f6-4cf3-98ab-a115bef16bbe"},"vehicle_type_id":"4","last_reported":1745165451,"current_range_meters":6400,"station_id":"ce4bh2h2rcd13ifvqdh0","pricing_plan_id":"cebpf4jnsgd1na2vs0mg"},{"bike_id":"f978b953-11e3-4c20-ac96-847436a14a12","system_id":"levelo_inurba_marseille","lat":43.28275,"lon":5.35073,"is_reserved":false,"is_disabled":false,"rental_uris":{"android":"levelo://app?vid=f978b953-11e3-4c20-ac96-847436a14a12","ios":"levelo://app?vid=f978b953-11e3-4c20-ac96-847436a14a12"},"vehicle_type_id":"4","last_reported":1745165451,"current_range_meters":6400,"station_id":"ce4bhbp2rcd13ifvqerg","pricing_plan_id":"cebpf4jnsgd1na2vs0mg"},{"bike_id":"6e426b00-42b3-4cd0-b5d1-8922cda60258","system_id":"levelo_inurba_marseille","lat":43.27624,"lon":5.36103,"is_reserved":false,"is_disabled":false,"rental_uris":{"android":"levelo://app?vid=6e426b00-42b3-4cd0-b5d1-8922cda60258","ios":"levelo://app?vid=6e426b00-42b3-4cd0-b5d1-8922cda60258"},"vehicle_type_id":"4","last_reported":1745165451,"current_range_meters":6400,"station_id":"ce4bgj92rcd13ifvqbe0","pricing_plan_id":"cebpf4jnsgd1na2vs0mg"},{"bike_id":"186380b9-3dab-457b-b648-71d123fa0368","system_id":"levelo_inurba_marseille","lat":43.25114,"lon":5.40343,"is_reserved":false,"is_disabled":true,"rental_uris":{"android":"levelo://app?vid=186380b9-3dab-457b-b648-71d123fa0368","ios":"levelo://app?vid=186380b9-3dab-457b-b648-71d123fa0368"},"vehicle_type_id":"4","last_reported":1745165451,"current_range_meters":6400,"station_id":"ce4bhlh2rcd13ifvqgig","pricing_plan_id":"cebpf4jnsgd1na2vs0mg"},{"bike_id":"d2ba4413-c35f-41b1-8baf-f83e6001a359","system_id":"levelo_inurba_marseille","lat":43.29042,"lon":5.38655,"is_reserved":false,"is_disabled":true,"rental_uris":{"android":"levelo://app?vid=d2ba4413-c35f-41b1-8baf-f83e6001a359","ios":"levelo://app?vid=d2ba4413-c35f-41b1-8baf-f83e6001a359"},"vehicle_type_id":"4","last_reported":1745165451,"current_range_meters":6400,"station_id":"ce4bh4p2rcd13ifvqe0g","pricing_plan_id":"cebpf4jnsgd1na2vs0mg"},{"bike_id":"e97d674a-57be-4b39-842d-58b649486536","system_id":"levelo_inurba_marseille","lat":43.29888,"lon":5.38896,"is_reserved":false,"is_disabled":false,"rental_uris":{"android":"levelo://app?vid=e97d674a-57be-4b39-842d-58b649486536","ios":"levelo://app?vid=e97d674a-57be-4b39-842d-58b649486536"},"vehicle_type_id":"4","last_reported":1745165451,"current_range_meters":6400,"station_id":"ce4bh392rcd13ifvqdl0","pricing_plan_id":"cebpf4jnsgd1na2vs0mg"},{"bike_id":"1eaca8f5-0017-418a-9bfc-52185bf67513","system_id":"levelo_inurba_marseille","lat":43.33732,"lon":5.39182,"is_reserved":false,"is_disabled":false,"rental_uris":{"android":"levelo://app?vid=1eaca8f5-0017-418a-9bfc-52185bf67513","ios":"levelo://app?vid=1eaca8f5-0017-418a-9bfc-52185bf67513"},"vehicle_type_id":"4","last_reported":1745165451,"current_range_meters":6800,"station_id":"ce4bhr92rcd13ifvqhsg","pricing_plan_id":"cebpf4jnsgd1na2vs0mg"},{"bike_id":"56ac77c5-4616-4ebe-a9f5-dfb885b492e5","system_id":"levelo_inurba_marseille","lat":43.303181,"lon":5.368954,"is_reserved":false,"is_disabled":false,"rental_uris":{"android":"levelo://app?vid=56ac77c5-4616-4ebe-a9f5-dfb885b492e5","ios":"levelo://app?vid=56ac77c5-4616-4ebe-a9f5-dfb885b492e5"},"vehicle_type_id":"4","last_reported":1745165451,"current_range_meters":6800,"station_id":"ce4bgqh2rcd13ifvqc5g","pricing_plan_id":"cebpf4jnsgd1na2vs0mg"},{"bike_id":"ea5de3fd-c004-4a5a-8438-ab2b0025be5c","system_id":"levelo_inurba_marseille","lat":43.27686,"lon":5.38861,"is_reserved":false,"is_disabled":false,"rental_uris":{"android":"levelo://app?vid=ea5de3fd-c004-4a5a-8438-ab2b0025be5c","ios":"levelo://app?vid=ea5de3fd-c004-4a5a-8438-ab2b0025be5c"},"vehicle_type_id":"4","last_reported":1745165451,"current_range_meters":6800,"station_id":"ce4bhi12rcd13ifvqfo0","pricing_plan_id":"cebpf4jnsgd1na2vs0mg"},{"bike_id":"9b0ec8eb-f454-4089-a408-904efbf07130","system_id":"levelo_inurba_marseille","lat":43.23189,"lon":5.35566,"is_reserved":false,"is_disabled":false,"rental_uris":{"android":"levelo://app?vid=9b0ec8eb-f454-4089-a408-904efbf07130","ios":"levelo://app?vid=9b0ec8eb-f454-4089-a408-904efbf07130"},"vehicle_type_id":"4","last_reported":1745165451,"current_range_meters":6800,"station_id":"ce4bhu92rcd13ifvqi70","pricing_plan_id":"cebpf4jnsgd1na2vs0mg"},{"bike_id":"ed31bf60-28a9-4aa9-b1aa-0dafeec55598","system_id":"levelo_inurba_marseille","lat":43.27375,"lon":5.36259,"is_reserved":false,"is_disabled":false,"rental_uris":{"android":"levelo://app?vid=ed31bf60-28a9-4aa9-b1aa-0dafeec55598","ios":"levelo://app?vid=ed31bf60-28a9-4aa9-b1aa-0dafeec55598"},"vehicle_type_id":"4","last_reported":1745165451,"current_range_meters":6800,"station_id":"ce4bhbh2rcd13ifvqeo0","pricing_plan_id":"cebpf4jnsgd1na2vs0mg"},{"bike_id":"44b36cab-8a6f-4013-851c-dbf7ccb1a69a","system_id":"levelo_inurba_marseille","lat":43.28085,"lon":5.39658,"is_reserved":false,"is_disabled":false,"rental_uris":{"android":"levelo://app?vid=44b36cab-8a6f-4013-851c-dbf7ccb1a69a","ios":"levelo://app?vid=44b36cab-8a6f-4013-851c-dbf7ccb1a69a"},"vehicle_type_id":"4","last_reported":1745165451,"current_range_meters":6800,"station_id":"ce4bho12rcd13ifvqh2g","pricing_plan_id":"cebpf4jnsgd1na2vs0mg"},{"bike_id":"32b61607-587a-4e6f-9d29-693af488f618","system_id":"levelo_inurba_marseille","lat":43.26057,"lon":5.39394,"is_reserved":false,"is_disabled":false,"rental_uris":{"android":"levelo://app?vid=32b61607-587a-4e6f-9d29-693af488f618","ios":"levelo://app?vid=32b61607-587a-4e6f-9d29-693af488f618"},"vehicle_type_id":"4","last_reported":1745165451,"current_range_meters":6800,"station_id":"ce4bhh92rcd13ifvqfj0","pricing_plan_id":"cebpf4jnsgd1na2vs0mg"},{"bike_id":"f8266a8e-1bd9-4182-b247-939bdafbb72c","system_id":"levelo_inurba_marseille","lat":43.30457,"lon":5.37903,"is_reserved":false,"is_disabled":true,"rental_uris":{"android":"levelo://app?vid=f8266a8e-1bd9-4182-b247-939bdafbb72c","ios":"levelo://app?vid=f8266a8e-1bd9-4182-b247-939bdafbb72c"},"vehicle_type_id":"4","last_reported":1745165451,"current_range_meters":6800,"station_id":"ce4bgup2rcd13ifvqcn0","pricing_plan_id":"cebpf4jnsgd1na2vs0mg"},{"bike_id":"1965f819-3778-4654-96e5-aaaf9c36cc08","system_id":"levelo_inurba_marseille","lat":43.30381,"lon":5.42495,"is_reserved":false,"is_disabled":true,"rental_uris":{"android":"levelo://app?vid=1965f819-3778-4654-96e5-aaaf9c36cc08","ios":"levelo://app?vid=1965f819-3778-4654-96e5-aaaf9c36cc08"},"vehicle_type_id":"4","last_reported":1745165451,"current_range_meters":6800,"station_id":"ce4bhoh2rcd13ifvqh6g","pricing_plan_id":"cebpf4jnsgd1na2vs0mg"},{"bike_id":"0548272c-175c-4628-910d-709dd787ebcf","system_id":"levelo_inurba_marseille","lat":43.27999,"lon":5.40015,"is_reserved":false,"is_disabled":false,"rental_uris":{"android":"levelo://app?vid=0548272c-175c-4628-910d-709dd787ebcf","ios":"levelo://app?vid=0548272c-175c-4628-910d-709dd787ebcf"},"vehicle_type_id":"4","last_reported":1745165451,"current_range_meters":6400,"station_id":"ce4bho92rcd13ifvqh4g","pricing_plan_id":"cebpf4jnsgd1na2vs0mg"},{"bike_id":"358e1f20-d875-48ca-9d8c-02d4bc4fc797","system_id":"levelo_inurba_marseille","lat":43.33757,"lon":5.39194,"is_reserved":false,"is_disabled":false,"rental_uris":{"android":"levelo://app?vid=358e1f20-d875-48ca-9d8c-02d4bc4fc797","ios":"levelo://app?vid=358e1f20-d875-48ca-9d8c-02d4bc4fc797"},"vehicle_type_id":"4","last_reported":1745165451,"current_range_meters":6800,"station_id":"ce4bhr92rcd13ifvqhsg","pricing_plan_id":"cebpf4jnsgd1na2vs0mg"},{"bike_id":"2d3126cf-b80c-4e57-97c7-64c7fc89823a","system_id":"levelo_inurba_marseille","lat":43.26559,"lon":5.37289,"is_reserved":false,"is_disabled":false,"rental_uris":{"android":"levelo://app?vid=2d3126cf-b80c-4e57-97c7-64c7fc89823a","ios":"levelo://app?vid=2d3126cf-b80c-4e57-97c7-64c7fc89823a"},"vehicle_type_id":"4","last_reported":1745165451,"current_range_meters":6800,"station_id":"ce4bhg12rcd13ifvqf70","pricing_plan_id":"cebpf4jnsgd1na2vs0mg"},{"bike_id":"beb0d3c0-549a-4a90-8320-da73ac782083","system_id":"levelo_inurba_marseille","lat":43.23057,"lon":5.35507,"is_reserved":false,"is_disabled":false,"rental_uris":{"android":"levelo://app?vid=beb0d3c0-549a-4a90-8320-da73ac782083","ios":"levelo://app?vid=beb0d3c0-549a-4a90-8320-da73ac782083"},"vehicle_type_id":"4","last_reported":1745165451,"current_range_meters":7200,"station_id":"cpo3342slgdg3j2ifvpg","pricing_plan_id":"cebpf4jnsgd1na2vs0mg"},{"bike_id":"bdb0af5e-f1a4-4b4a-831e-019f5c36e387","system_id":"levelo_inurba_marseille","lat":43.29,"lon":5.35594,"is_reserved":false,"is_disabled":true,"rental_uris":{"android":"levelo://app?vid=bdb0af5e-f1a4-4b4a-831e-019f5c36e387","ios":"levelo://app?vid=bdb0af5e-f1a4-4b4a-831e-019f5c36e387"},"vehicle_type_id":"4","last_reported":1745165451,"current_range_meters":7200,"station_id":"ce4bhb92rcd13ifvqen0","pricing_plan_id":"cebpf4jnsgd1na2vs0mg"},{"bike_id":"cb8e819d-ddec-47fd-b28b-999ae8c83863","system_id":"levelo_inurba_marseille","lat":43.293163,"lon":5.370588,"is_reserved":false,"is_disabled":false,"rental_uris":{"android":"levelo://app?vid=cb8e819d-ddec-47fd-b28b-999ae8c83863","ios":"levelo://app?vid=cb8e819d-ddec-47fd-b28b-999ae8c83863"},"vehicle_type_id":"4","last_reported":1745165451,"current_range_meters":4800,"station_id":"ce4bhb92rcd13ifvqen0","pricing_plan_id":"cebpf4jnsgd1na2vs0mg"},{"bike_id":"967fc5c2-2d8c-40dc-b0d8-39b0debd9469","system_id":"levelo_inurba_marseille","lat":43.23069,"lon":5.35491,"is_reserved":false,"is_disabled":false,"rental_uris":{"android":"levelo://app?vid=967fc5c2-2d8c-40dc-b0d8-39b0debd9469","ios":"levelo://app?vid=967fc5c2-2d8c-40dc-b0d8-39b0debd9469"},"vehicle_type_id":"4","last_reported":1745165451,"current_range_meters":7200,"station_id":"cpo3342slgdg3j2ifvpg","pricing_plan_id":"cebpf4jnsgd1na2vs0mg"},{"bike_id":"b8025843-47e5-45b5-a02a-f72159c95b66","system_id":"levelo_inurba_marseille","lat":43.30445,"lon":5.38889,"is_reserved":false,"is_disabled":false,"rental_uris":{"android":"levelo://app?vid=b8025843-47e5-45b5-a02a-f72159c95b66","ios":"levelo://app?vid=b8025843-47e5-45b5-a02a-f72159c95b66"},"vehicle_type_id":"4","last_reported":1745165451,"current_range_meters":4800,"station_id":"ce4bgk12rcd13ifvqbi0","pricing_plan_id":"cebpf4jnsgd1na2vs0mg"},{"bike_id":"a969d1ed-77d3-4189-b5a7-0bf8cf90d349","system_id":"levelo_inurba_marseille","lat":43.23197,"lon":5.35546,"is_reserved":false,"is_disabled":false,"rental_uris":{"android":"levelo://app?vid=a969d1ed-77d3-4189-b5a7-0bf8cf90d349","ios":"levelo://app?vid=a969d1ed-77d3-4189-b5a7-0bf8cf90d349"},"vehicle_type_id":"4","last_reported":1745165451,"current_range_meters":7200,"station_id":"ce4bhu92rcd13ifvqi70","pricing_plan_id":"cebpf4jnsgd1na2vs0mg"},{"bike_id":"931800f0-f5ae-42dc-9401-5ef75e1edc12","system_id":"levelo_inurba_marseille","lat":43.27364,"lon":5.41384,"is_reserved":false,"is_disabled":false,"rental_uris":{"android":"levelo://app?vid=931800f0-f5ae-42dc-9401-5ef75e1edc12","ios":"levelo://app?vid=931800f0-f5ae-42dc-9401-5ef75e1edc12"},"vehicle_type_id":"4","last_reported":1745165451,"current_range_meters":7200,"station_id":"","pricing_plan_id":"cebpf4jnsgd1na2vs0mg"},{"bike_id":"e970a77c-97b4-4b75-8155-7044bacc8b02","system_id":"levelo_inurba_marseille","lat":43.251,"lon":5.40377,"is_reserved":false,"is_disabled":false,"rental_uris":{"android":"levelo://app?vid=e970a77c-97b4-4b75-8155-7044bacc8b02","ios":"levelo://app?vid=e970a77c-97b4-4b75-8155-7044bacc8b02"},"vehicle_type_id":"4","last_reported":1745165451,"current_range_meters":8000,"station_id":"ce4bhlh2rcd13ifvqgig","pricing_plan_id":"cebpf4jnsgd1na2vs0mg"},{"bike_id":"6b2a2f68-fd74-4a24-a495-23dd8d3467f4","system_id":"levelo_inurba_marseille","lat":43.21196,"lon":5.35062,"is_reserved":false,"is_disabled":false,"rental_uris":{"android":"levelo://app?vid=6b2a2f68-fd74-4a24-a495-23dd8d3467f4","ios":"levelo://app?vid=6b2a2f68-fd74-4a24-a495-23dd8d3467f4"},"vehicle_type_id":"4","last_reported":1745165451,"current_range_meters":8000,"station_id":"st_cvj6sg6p6f1abm77japg","pricing_plan_id":"cebpf4jnsgd1na2vs0mg"},{"bike_id":"bb67c96f-4e51-4829-af34-07fdb4a73af6","system_id":"levelo_inurba_marseille","lat":43.2293,"lon":5.35363,"is_reserved":false,"is_disabled":false,"rental_uris":{"android":"levelo://app?vid=bb67c96f-4e51-4829-af34-07fdb4a73af6","ios":"levelo://app?vid=bb67c96f-4e51-4829-af34-07fdb4a73af6"},"vehicle_type_id":"4","last_reported":1745165451,"current_range_meters":8000,"station_id":"cpo3532slgdg3j2ikp40","pricing_plan_id":"cebpf4jnsgd1na2vs0mg"},{"bike_id":"8c0ab829-6fa9-4954-be46-be68d624bc94","system_id":"levelo_inurba_marseille","lat":43.25146,"lon":5.403073,"is_reserved":false,"is_disabled":false,"rental_uris":{"android":"levelo://app?vid=8c0ab829-6fa9-4954-be46-be68d624bc94","ios":"levelo://app?vid=8c0ab829-6fa9-4954-be46-be68d624bc94"},"vehicle_type_id":"4","last_reported":1745165451,"current_range_meters":8000,"station_id":"ce4bhlh2rcd13ifvqgig","pricing_plan_id":"cebpf4jnsgd1na2vs0mg"},{"bike_id":"f30bfaeb-c00b-4dcd-a9ce-200ed6c7405b","system_id":"levelo_inurba_marseille","lat":43.29395,"lon":5.41255,"is_reserved":false,"is_disabled":false,"rental_uris":{"android":"levelo://app?vid=f30bfaeb-c00b-4dcd-a9ce-200ed6c7405b","ios":"levelo://app?vid=f30bfaeb-c00b-4dcd-a9ce-200ed6c7405b"},"vehicle_type_id":"4","last_reported":1745165451,"current_range_meters":8000,"station_id":"","pricing_plan_id":"cebpf4jnsgd1na2vs0mg"},{"bike_id":"954c0ac0-1f5a-4f75-9237-6b98acc0aa2a","system_id":"levelo_inurba_marseille","lat":43.22925,"lon":5.35373,"is_reserved":false,"is_disabled":false,"rental_uris":{"android":"levelo://app?vid=954c0ac0-1f5a-4f75-9237-6b98acc0aa2a","ios":"levelo://app?vid=954c0ac0-1f5a-4f75-9237-6b98acc0aa2a"},"vehicle_type_id":"4","last_reported":1745165451,"current_range_meters":8000,"station_id":"cpo3532slgdg3j2ikp40","pricing_plan_id":"cebpf4jnsgd1na2vs0mg"},{"bike_id":"8add90be-7694-4829-ba13-0c5919aef581","system_id":"levelo_inurba_marseille","lat":43.2956,"lon":5.37369,"is_reserved":false,"is_disabled":false,"rental_uris":{"android":"levelo://app?vid=8add90be-7694-4829-ba13-0c5919aef581","ios":"levelo://app?vid=8add90be-7694-4829-ba13-0c5919aef581"},"vehicle_type_id":"4","last_reported":1745165451,"current_range_meters":8400,"station_id":"","pricing_plan_id":"cebpf4jnsgd1na2vs0mg"},{"bike_id":"97e50bb0-9a70-481b-b370-e509345e710a","system_id":"levelo_inurba_marseille","lat":43.28046,"lon":5.36916,"is_reserved":false,"is_disabled":true,"rental_uris":{"android":"levelo://app?vid=97e50bb0-9a70-481b-b370-e509345e710a","ios":"levelo://app?vid=97e50bb0-9a70-481b-b370-e509345e710a"},"vehicle_type_id":"4","last_reported":1745165451,"current_range_meters":8400,"station_id":"ce4bha12rcd13ifvqef0","pricing_plan_id":"cebpf4jnsgd1na2vs0mg"},{"bike_id":"ab9be9a2-b412-4e12-b774-0ac14e1c75f2","system_id":"levelo_inurba_marseille","lat":43.23192,"lon":5.35555,"is_reserved":false,"is_disabled":false,"rental_uris":{"android":"levelo://app?vid=ab9be9a2-b412-4e12-b774-0ac14e1c75f2","ios":"levelo://app?vid=ab9be9a2-b412-4e12-b774-0ac14e1c75f2"},"vehicle_type_id":"4","last_reported":1745165451,"current_range_meters":8400,"station_id":"ce4bhu92rcd13ifvqi70","pricing_plan_id":"cebpf4jnsgd1na2vs0mg"},{"bike_id":"f0b6af0d-1cbf-47a3-af07-dab09fabbbf0","system_id":"levelo_inurba_marseille","lat":43.23198,"lon":5.35558,"is_reserved":false,"is_disabled":false,"rental_uris":{"android":"levelo://app?vid=f0b6af0d-1cbf-47a3-af07-dab09fabbbf0","ios":"levelo://app?vid=f0b6af0d-1cbf-47a3-af07-dab09fabbbf0"},"vehicle_type_id":"4","last_reported":1745165451,"current_range_meters":8400,"station_id":"ce4bhu92rcd13ifvqi70","pricing_plan_id":"cebpf4jnsgd1na2vs0mg"},{"bike_id":"fd79e18a-5e62-4363-990c-73486070de07","system_id":"levelo_inurba_marseille","lat":43.274247,"lon":5.39055,"is_reserved":false,"is_disabled":false,"rental_uris":{"android":"levelo://app?vid=fd79e18a-5e62-4363-990c-73486070de07","ios":"levelo://app?vid=fd79e18a-5e62-4363-990c-73486070de07"},"vehicle_type_id":"4","last_reported":1745165451,"current_range_meters":8400,"station_id":"ce4bhh12rcd13ifvqff0","pricing_plan_id":"cebpf4jnsgd1na2vs0mg"},{"bike_id":"3f739a98-6c38-48fb-8166-02aaebd9875c","system_id":"levelo_inurba_marseille","lat":43.24167,"lon":5.36398,"is_reserved":false,"is_disabled":false,"rental_uris":{"android":"levelo://app?vid=3f739a98-6c38-48fb-8166-02aaebd9875c","ios":"levelo://app?vid=3f739a98-6c38-48fb-8166-02aaebd9875c"},"vehicle_type_id":"4","last_reported":1745165451,"current_range_meters":8400,"station_id":"cpo36qri1sfpv3e86is0","pricing_plan_id":"cebpf4jnsgd1na2vs0mg"},{"bike_id":"6565ca44-2e63-4f42-a847-09fa2bdb37f3","system_id":"levelo_inurba_marseille","lat":43.32018,"lon":5.38161,"is_reserved":false,"is_disabled":true,"rental_uris":{"android":"levelo://app?vid=6565ca44-2e63-4f42-a847-09fa2bdb37f3","ios":"levelo://app?vid=6565ca44-2e63-4f42-a847-09fa2bdb37f3"},"vehicle_type_id":"4","last_reported":1745165451,"current_range_meters":8400,"station_id":"ce4bhr12rcd13ifvqhpg","pricing_plan_id":"cebpf4jnsgd1na2vs0mg"},{"bike_id":"138d6608-886e-4863-a664-7df6e5cc9a47","system_id":"levelo_inurba_marseille","lat":43.3264,"lon":5.42186,"is_reserved":false,"is_disabled":false,"rental_uris":{"android":"levelo://app?vid=138d6608-886e-4863-a664-7df6e5cc9a47","ios":"levelo://app?vid=138d6608-886e-4863-a664-7df6e5cc9a47"},"vehicle_type_id":"4","last_reported":1745165451,"current_range_meters":8400,"station_id":"","pricing_plan_id":"cebpf4jnsgd1na2vs0mg"},{"bike_id":"e1f73e8b-98fe-43c0-9684-e0c282e2d57e","system_id":"levelo_inurba_marseille","lat":43.26807,"lon":5.40265,"is_reserved":false,"is_disabled":false,"rental_uris":{"android":"levelo://app?vid=e1f73e8b-98fe-43c0-9684-e0c282e2d57e","ios":"levelo://app?vid=e1f73e8b-98fe-43c0-9684-e0c282e2d57e"},"vehicle_type_id":"4","last_reported":1745165451,"current_range_meters":8800,"station_id":"ce501612rcd8frsf0b60","pricing_plan_id":"cebpf4jnsgd1na2vs0mg"},{"bike_id":"329e6399-029e-41ea-92d1-8dd93f89cfc0","system_id":"levelo_inurba_marseille","lat":43.25113,"lon":5.40319,"is_reserved":false,"is_disabled":false,"rental_uris":{"android":"levelo://app?vid=329e6399-029e-41ea-92d1-8dd93f89cfc0","ios":"levelo://app?vid=329e6399-029e-41ea-92d1-8dd93f89cfc0"},"vehicle_type_id":"4","last_reported":1745165451,"current_range_meters":8800,"station_id":"ce4bhlh2rcd13ifvqgig","pricing_plan_id":"cebpf4jnsgd1na2vs0mg"},{"bike_id":"36ac02ba-2835-48d7-9d54-047188b88f77","system_id":"levelo_inurba_marseille","lat":43.24227,"lon":5.39677,"is_reserved":false,"is_disabled":false,"rental_uris":{"android":"levelo://app?vid=36ac02ba-2835-48d7-9d54-047188b88f77","ios":"levelo://app?vid=36ac02ba-2835-48d7-9d54-047188b88f77"},"vehicle_type_id":"4","last_reported":1745165451,"current_range_meters":8800,"station_id":"","pricing_plan_id":"cebpf4jnsgd1na2vs0mg"},{"bike_id":"24213b37-b766-4d9c-a174-f6bf34920497","system_id":"levelo_inurba_marseille","lat":43.28469,"lon":5.384178,"is_reserved":false,"is_disabled":false,"rental_uris":{"android":"levelo://app?vid=24213b37-b766-4d9c-a174-f6bf34920497","ios":"levelo://app?vid=24213b37-b766-4d9c-a174-f6bf34920497"},"vehicle_type_id":"4","last_reported":1745165451,"current_range_meters":8800,"station_id":"ce4bh512rcd13ifvqe3g","pricing_plan_id":"cebpf4jnsgd1na2vs0mg"},{"bike_id":"ee77508c-6f9d-400c-9442-6494c8451c48","system_id":"levelo_inurba_marseille","lat":43.25127,"lon":5.40318,"is_reserved":false,"is_disabled":false,"rental_uris":{"android":"levelo://app?vid=ee77508c-6f9d-400c-9442-6494c8451c48","ios":"levelo://app?vid=ee77508c-6f9d-400c-9442-6494c8451c48"},"vehicle_type_id":"4","last_reported":1745165451,"current_range_meters":8800,"station_id":"ce4bhlh2rcd13ifvqgig","pricing_plan_id":"cebpf4jnsgd1na2vs0mg"},{"bike_id":"8a3401e6-5f82-46ee-bdf2-d36c21e1ff2f","system_id":"levelo_inurba_marseille","lat":43.21193,"lon":5.35064,"is_reserved":false,"is_disabled":false,"rental_uris":{"android":"levelo://app?vid=8a3401e6-5f82-46ee-bdf2-d36c21e1ff2f","ios":"levelo://app?vid=8a3401e6-5f82-46ee-bdf2-d36c21e1ff2f"},"vehicle_type_id":"4","last_reported":1745165451,"current_range_meters":8800,"station_id":"st_cvj6sg6p6f1abm77japg","pricing_plan_id":"cebpf4jnsgd1na2vs0mg"},{"bike_id":"83737fdd-005d-403e-8fa2-1644fc83261a","system_id":"levelo_inurba_marseille","lat":43.30998,"lon":5.39012,"is_reserved":false,"is_disabled":false,"rental_uris":{"android":"levelo://app?vid=83737fdd-005d-403e-8fa2-1644fc83261a","ios":"levelo://app?vid=83737fdd-005d-403e-8fa2-1644fc83261a"},"vehicle_type_id":"4","last_reported":1745165451,"current_range_meters":8800,"station_id":"ce4bgup2rcd13ifvqco0","pricing_plan_id":"cebpf4jnsgd1na2vs0mg"},{"bike_id":"00e6efe6-6865-47fb-a112-d2a790160188","system_id":"levelo_inurba_marseille","lat":43.26561,"lon":5.37288,"is_reserved":false,"is_disabled":false,"rental_uris":{"android":"levelo://app?vid=00e6efe6-6865-47fb-a112-d2a790160188","ios":"levelo://app?vid=00e6efe6-6865-47fb-a112-d2a790160188"},"vehicle_type_id":"4","last_reported":1745165451,"current_range_meters":8800,"station_id":"ce4bhg12rcd13ifvqf70","pricing_plan_id":"cebpf4jnsgd1na2vs0mg"},{"bike_id":"70b6b29a-6d83-460b-bd27-e86a3209e93e","system_id":"levelo_inurba_marseille","lat":43.265589,"lon":5.372937,"is_reserved":false,"is_disabled":false,"rental_uris":{"android":"levelo://app?vid=70b6b29a-6d83-460b-bd27-e86a3209e93e","ios":"levelo://app?vid=70b6b29a-6d83-460b-bd27-e86a3209e93e"},"vehicle_type_id":"4","last_reported":1745165451,"current_range_meters":8800,"station_id":"ce4bhg12rcd13ifvqf70","pricing_plan_id":"cebpf4jnsgd1na2vs0mg"},{"bike_id":"a9b4466f-526f-4704-aad3-52f5d3985235","system_id":"levelo_inurba_marseille","lat":43.29301,"lon":5.37191,"is_reserved":false,"is_disabled":false,"rental_uris":{"android":"levelo://app?vid=a9b4466f-526f-4704-aad3-52f5d3985235","ios":"levelo://app?vid=a9b4466f-526f-4704-aad3-52f5d3985235"},"vehicle_type_id":"4","last_reported":1745165451,"current_range_meters":8800,"station_id":"ce4bgh92rcd13ifvqb40","pricing_plan_id":"cebpf4jnsgd1na2vs0mg"},{"bike_id":"126553b9-40d1-4883-a41d-140aec70f9f3","system_id":"levelo_inurba_marseille","lat":43.21189,"lon":5.3507,"is_reserved":false,"is_disabled":false,"rental_uris":{"android":"levelo://app?vid=126553b9-40d1-4883-a41d-140aec70f9f3","ios":"levelo://app?vid=126553b9-40d1-4883-a41d-140aec70f9f3"},"vehicle_type_id":"4","last_reported":1745165451,"current_range_meters":8800,"station_id":"st_cvj6sg6p6f1abm77japg","pricing_plan_id":"cebpf4jnsgd1na2vs0mg"},{"bike_id":"d0395819-ea40-46d3-acfe-3a01d6c396c0","system_id":"levelo_inurba_marseille","lat":43.23199,"lon":5.39987,"is_reserved":false,"is_disabled":true,"rental_uris":{"android":"levelo://app?vid=d0395819-ea40-46d3-acfe-3a01d6c396c0","ios":"levelo://app?vid=d0395819-ea40-46d3-acfe-3a01d6c396c0"},"vehicle_type_id":"4","last_reported":1745165451,"current_range_meters":8800,"station_id":"ce4bhn12rcd13ifvqgqg","pricing_plan_id":"cebpf4jnsgd1na2vs0mg"},{"bike_id":"09cd3403-18db-4b98-ae70-ec85a6682f80","system_id":"levelo_inurba_marseille","lat":43.32485,"lon":5.36561,"is_reserved":false,"is_disabled":false,"rental_uris":{"android":"levelo://app?vid=09cd3403-18db-4b98-ae70-ec85a6682f80","ios":"levelo://app?vid=09cd3403-18db-4b98-ae70-ec85a6682f80"},"vehicle_type_id":"4","last_reported":1745165451,"current_range_meters":9200,"station_id":"ce4bhs12rcd13ifvqhvg","pricing_plan_id":"cebpf4jnsgd1na2vs0mg"},{"bike_id":"7f545bbc-a0a7-4368-8a07-6a6863048111","system_id":"levelo_inurba_marseille","lat":43.22942,"lon":5.3538,"is_reserved":false,"is_disabled":false,"rental_uris":{"android":"levelo://app?vid=7f545bbc-a0a7-4368-8a07-6a6863048111","ios":"levelo://app?vid=7f545bbc-a0a7-4368-8a07-6a6863048111"},"vehicle_type_id":"4","last_reported":1745165451,"current_range_meters":9200,"station_id":"cpo3532slgdg3j2ikp40","pricing_plan_id":"cebpf4jnsgd1na2vs0mg"},{"bike_id":"527fac75-0783-4b2c-bd4e-07f2f2fee902","system_id":"levelo_inurba_marseille","lat":43.31116,"lon":5.37798,"is_reserved":false,"is_disabled":true,"rental_uris":{"android":"levelo://app?vid=527fac75-0783-4b2c-bd4e-07f2f2fee902","ios":"levelo://app?vid=527fac75-0783-4b2c-bd4e-07f2f2fee902"},"vehicle_type_id":"4","last_reported":1745165451,"current_range_meters":9200,"station_id":"ce4bgt92rcd13ifvqcg0","pricing_plan_id":"cebpf4jnsgd1na2vs0mg"},{"bike_id":"1b64a06c-8c3f-4044-b435-0c5447524fd5","system_id":"levelo_inurba_marseille","lat":43.2871,"lon":5.3739,"is_reserved":false,"is_disabled":true,"rental_uris":{"android":"levelo://app?vid=1b64a06c-8c3f-4044-b435-0c5447524fd5","ios":"levelo://app?vid=1b64a06c-8c3f-4044-b435-0c5447524fd5"},"vehicle_type_id":"4","last_reported":1745165451,"current_range_meters":9200,"station_id":"ce4bh3p2rcd13ifvqdq0","pricing_plan_id":"cebpf4jnsgd1na2vs0mg"},{"bike_id":"4e6892ef-dbe3-43e4-bc69-b2da5d802c90","system_id":"levelo_inurba_marseille","lat":43.27392,"lon":5.36261,"is_reserved":false,"is_disabled":true,"rental_uris":{"android":"levelo://app?vid=4e6892ef-dbe3-43e4-bc69-b2da5d802c90","ios":"levelo://app?vid=4e6892ef-dbe3-43e4-bc69-b2da5d802c90"},"vehicle_type_id":"4","last_reported":1745165451,"current_range_meters":9600,"station_id":"ce4bhbh2rcd13ifvqeo0","pricing_plan_id":"cebpf4jnsgd1na2vs0mg"},{"bike_id":"c6eb518d-f8e2-4c5c-8098-b5d751548fcd","system_id":"levelo_inurba_marseille","lat":43.2593,"lon":5.409,"is_reserved":false,"is_disabled":false,"rental_uris":{"android":"levelo://app?vid=c6eb518d-f8e2-4c5c-8098-b5d751548fcd","ios":"levelo://app?vid=c6eb518d-f8e2-4c5c-8098-b5d751548fcd"},"vehicle_type_id":"4","last_reported":1745165451,"current_range_meters":9600,"station_id":"ce4bhm92rcd13ifvqglg","pricing_plan_id":"cebpf4jnsgd1na2vs0mg"},{"bike_id":"05c06363-db26-49c0-b48d-a8082eb3f248","system_id":"levelo_inurba_marseille","lat":43.25495,"lon":5.3765,"is_reserved":false,"is_disabled":false,"rental_uris":{"android":"levelo://app?vid=05c06363-db26-49c0-b48d-a8082eb3f248","ios":"levelo://app?vid=05c06363-db26-49c0-b48d-a8082eb3f248"},"vehicle_type_id":"4","last_reported":1745165451,"current_range_meters":9600,"station_id":"ce4bhh12rcd13ifvqff0","pricing_plan_id":"cebpf4jnsgd1na2vs0mg"},{"bike_id":"80521a72-230c-4bd2-885c-9ed49425a31f","system_id":"levelo_inurba_marseille","lat":43.31759,"lon":5.3901,"is_reserved":false,"is_disabled":false,"rental_uris":{"android":"levelo://app?vid=80521a72-230c-4bd2-885c-9ed49425a31f","ios":"levelo://app?vid=80521a72-230c-4bd2-885c-9ed49425a31f"},"vehicle_type_id":"4","last_reported":1745165451,"current_range_meters":9600,"station_id":"ce4bhqp2rcd13ifvqhng","pricing_plan_id":"cebpf4jnsgd1na2vs0mg"},{"bike_id":"37c04ff8-bfdb-409d-bc1d-1084c8f764eb","system_id":"levelo_inurba_marseille","lat":43.2997,"lon":5.37174,"is_reserved":false,"is_disabled":false,"rental_uris":{"android":"levelo://app?vid=37c04ff8-bfdb-409d-bc1d-1084c8f764eb","ios":"levelo://app?vid=37c04ff8-bfdb-409d-bc1d-1084c8f764eb"},"vehicle_type_id":"4","last_reported":1745165451,"current_range_meters":14000,"station_id":"ce4bgr92rcd13ifvqc7g","pricing_plan_id":"cebpf4jnsgd1na2vs0mg"},{"bike_id":"313dac5b-e74c-4dd4-87af-4c7f9600f145","system_id":"levelo_inurba_marseille","lat":43.30279,"lon":5.37721,"is_reserved":false,"is_disabled":false,"rental_uris":{"android":"levelo://app?vid=313dac5b-e74c-4dd4-87af-4c7f9600f145","ios":"levelo://app?vid=313dac5b-e74c-4dd4-87af-4c7f9600f145"},"vehicle_type_id":"4","last_reported":1745165451,"current_range_meters":10000,"station_id":"ce4bguh2rcd13ifvqcj0","pricing_plan_id":"cebpf4jnsgd1na2vs0mg"},{"bike_id":"d8754dce-3ce6-4f68-ba47-f64cfc8b26ab","system_id":"levelo_inurba_marseille","lat":43.2319,"lon":5.35559,"is_reserved":false,"is_disabled":false,"rental_uris":{"android":"levelo://app?vid=d8754dce-3ce6-4f68-ba47-f64cfc8b26ab","ios":"levelo://app?vid=d8754dce-3ce6-4f68-ba47-f64cfc8b26ab"},"vehicle_type_id":"4","last_reported":1745165451,"current_range_meters":10000,"station_id":"ce4bhu92rcd13ifvqi70","pricing_plan_id":"cebpf4jnsgd1na2vs0mg"},{"bike_id":"eb08d599-f23f-4282-b1d8-df7c03f0c529","system_id":"levelo_inurba_marseille","lat":43.29616,"lon":5.38082,"is_reserved":false,"is_disabled":false,"rental_uris":{"android":"levelo://app?vid=eb08d599-f23f-4282-b1d8-df7c03f0c529","ios":"levelo://app?vid=eb08d599-f23f-4282-b1d8-df7c03f0c529"},"vehicle_type_id":"4","last_reported":1745165451,"current_range_meters":10000,"station_id":"ce4bgl12rcd13ifvqbo0","pricing_plan_id":"cebpf4jnsgd1na2vs0mg"},{"bike_id":"6019b3a9-be6c-4063-92bb-dfdce576086f","system_id":"levelo_inurba_marseille","lat":43.23074,"lon":5.35495,"is_reserved":false,"is_disabled":false,"rental_uris":{"android":"levelo://app?vid=6019b3a9-be6c-4063-92bb-dfdce576086f","ios":"levelo://app?vid=6019b3a9-be6c-4063-92bb-dfdce576086f"},"vehicle_type_id":"4","last_reported":1745165451,"current_range_meters":10000,"station_id":"cpo3342slgdg3j2ifvpg","pricing_plan_id":"cebpf4jnsgd1na2vs0mg"},{"bike_id":"1886fb80-2895-40f7-844d-7933f5d904dc","system_id":"levelo_inurba_marseille","lat":43.2789,"lon":5.39314,"is_reserved":false,"is_disabled":false,"rental_uris":{"android":"levelo://app?vid=1886fb80-2895-40f7-844d-7933f5d904dc","ios":"levelo://app?vid=1886fb80-2895-40f7-844d-7933f5d904dc"},"vehicle_type_id":"4","last_reported":1745165451,"current_range_meters":10000,"station_id":"","pricing_plan_id":"cebpf4jnsgd1na2vs0mg"},{"bike_id":"04cf0ab7-d841-4686-a526-0bb9c69ab862","system_id":"levelo_inurba_marseille","lat":43.28421,"lon":5.34997,"is_reserved":false,"is_disabled":false,"rental_uris":{"android":"levelo://app?vid=04cf0ab7-d841-4686-a526-0bb9c69ab862","ios":"levelo://app?vid=04cf0ab7-d841-4686-a526-0bb9c69ab862"},"vehicle_type_id":"4","last_reported":1745165451,"current_range_meters":10000,"station_id":"ce4bhbh2rcd13ifvqepg","pricing_plan_id":"cebpf4jnsgd1na2vs0mg"},{"bike_id":"8a2f5b40-79de-4753-92a1-8bba8a337839","system_id":"levelo_inurba_marseille","lat":43.32354,"lon":5.38907,"is_reserved":false,"is_disabled":false,"rental_uris":{"android":"levelo://app?vid=8a2f5b40-79de-4753-92a1-8bba8a337839","ios":"levelo://app?vid=8a2f5b40-79de-4753-92a1-8bba8a337839"},"vehicle_type_id":"4","last_reported":1745165451,"current_range_meters":10000,"station_id":"ce4bhqp2rcd13ifvqhog","pricing_plan_id":"cebpf4jnsgd1na2vs0mg"},{"bike_id":"412c86cd-f603-4e90-b126-40d51a4e7ee6","system_id":"levelo_inurba_marseille","lat":43.29716,"lon":5.37692,"is_reserved":false,"is_disabled":false,"rental_uris":{"android":"levelo://app?vid=412c86cd-f603-4e90-b126-40d51a4e7ee6","ios":"levelo://app?vid=412c86cd-f603-4e90-b126-40d51a4e7ee6"},"vehicle_type_id":"4","last_reported":1745165451,"current_range_meters":10000,"station_id":"ce4bgkh2rcd13ifvqbl0","pricing_plan_id":"cebpf4jnsgd1na2vs0mg"},{"bike_id":"f7080221-319a-4de6-a361-2c69e82a4108","system_id":"levelo_inurba_marseille","lat":43.2762,"lon":5.3612,"is_reserved":false,"is_disabled":false,"rental_uris":{"android":"levelo://app?vid=f7080221-319a-4de6-a361-2c69e82a4108","ios":"levelo://app?vid=f7080221-319a-4de6-a361-2c69e82a4108"},"vehicle_type_id":"4","last_reported":1745165451,"current_range_meters":10800,"station_id":"ce4bgj92rcd13ifvqbe0","pricing_plan_id":"cebpf4jnsgd1na2vs0mg"},{"bike_id":"9782340e-0b35-4a12-a43c-c7e07b3038cf","system_id":"levelo_inurba_marseille","lat":43.289627,"lon":5.36479,"is_reserved":false,"is_disabled":false,"rental_uris":{"android":"levelo://app?vid=9782340e-0b35-4a12-a43c-c7e07b3038cf","ios":"levelo://app?vid=9782340e-0b35-4a12-a43c-c7e07b3038cf"},"vehicle_type_id":"4","last_reported":1745165451,"current_range_meters":12800,"station_id":"ce4bha92rcd13ifvqeg0","pricing_plan_id":"cebpf4jnsgd1na2vs0mg"},{"bike_id":"2c5ea424-0ce5-4be8-acdd-94faf804c35a","system_id":"levelo_inurba_marseille","lat":43.3303,"lon":5.39045,"is_reserved":false,"is_disabled":false,"rental_uris":{"android":"levelo://app?vid=2c5ea424-0ce5-4be8-acdd-94faf804c35a","ios":"levelo://app?vid=2c5ea424-0ce5-4be8-acdd-94faf804c35a"},"vehicle_type_id":"4","last_reported":1745165451,"current_range_meters":10800,"station_id":"ce4bhr92rcd13ifvqhrg","pricing_plan_id":"cebpf4jnsgd1na2vs0mg"},{"bike_id":"23a30e2b-c6a6-4f98-b12f-1571d3fb3349","system_id":"levelo_inurba_marseille","lat":43.254945,"lon":5.37648,"is_reserved":false,"is_disabled":false,"rental_uris":{"android":"levelo://app?vid=23a30e2b-c6a6-4f98-b12f-1571d3fb3349","ios":"levelo://app?vid=23a30e2b-c6a6-4f98-b12f-1571d3fb3349"},"vehicle_type_id":"4","last_reported":1745165451,"current_range_meters":10800,"station_id":"ce4bhh12rcd13ifvqff0","pricing_plan_id":"cebpf4jnsgd1na2vs0mg"},{"bike_id":"6276c712-dc71-4137-9a44-e63299fa20b2","system_id":"levelo_inurba_marseille","lat":43.29531,"lon":5.36343,"is_reserved":false,"is_disabled":false,"rental_uris":{"android":"levelo://app?vid=6276c712-dc71-4137-9a44-e63299fa20b2","ios":"levelo://app?vid=6276c712-dc71-4137-9a44-e63299fa20b2"},"vehicle_type_id":"4","last_reported":1745165451,"current_range_meters":10800,"station_id":"","pricing_plan_id":"cebpf4jnsgd1na2vs0mg"},{"bike_id":"d177bdcb-ba4d-4c2e-8899-f6b0f9af395c","system_id":"levelo_inurba_marseille","lat":43.2594,"lon":5.4089,"is_reserved":false,"is_disabled":false,"rental_uris":{"android":"levelo://app?vid=d177bdcb-ba4d-4c2e-8899-f6b0f9af395c","ios":"levelo://app?vid=d177bdcb-ba4d-4c2e-8899-f6b0f9af395c"},"vehicle_type_id":"4","last_reported":1745165451,"current_range_meters":10800,"station_id":"ce4bhm92rcd13ifvqglg","pricing_plan_id":"cebpf4jnsgd1na2vs0mg"},{"bike_id":"33399c5a-7b71-4ae2-a964-55b2f2e618d0","system_id":"levelo_inurba_marseille","lat":43.302131,"lon":5.365616,"is_reserved":false,"is_disabled":true,"rental_uris":{"android":"levelo://app?vid=33399c5a-7b71-4ae2-a964-55b2f2e618d0","ios":"levelo://app?vid=33399c5a-7b71-4ae2-a964-55b2f2e618d0"},"vehicle_type_id":"4","last_reported":1745165451,"current_range_meters":10800,"station_id":"","pricing_plan_id":"cebpf4jnsgd1na2vs0mg"},{"bike_id":"6bcef319-8181-4682-ab27-253c7d61cbd5","system_id":"levelo_inurba_marseille","lat":43.303999,"lon":5.397239,"is_reserved":false,"is_disabled":false,"rental_uris":{"android":"levelo://app?vid=6bcef319-8181-4682-ab27-253c7d61cbd5","ios":"levelo://app?vid=6bcef319-8181-4682-ab27-253c7d61cbd5"},"vehicle_type_id":"4","last_reported":1745165451,"current_range_meters":10800,"station_id":"ce4bh092rcd13ifvqd20","pricing_plan_id":"cebpf4jnsgd1na2vs0mg"},{"bike_id":"20970d72-2314-48f7-8b3f-7f1a6aa87070","system_id":"levelo_inurba_marseille","lat":43.309814,"lon":5.389884,"is_reserved":false,"is_disabled":false,"rental_uris":{"android":"levelo://app?vid=20970d72-2314-48f7-8b3f-7f1a6aa87070","ios":"levelo://app?vid=20970d72-2314-48f7-8b3f-7f1a6aa87070"},"vehicle_type_id":"4","last_reported":1745165451,"current_range_meters":10800,"station_id":"ce4bgv12rcd13ifvqcp0","pricing_plan_id":"cebpf4jnsgd1na2vs0mg"},{"bike_id":"d5ef647d-00ca-43ce-8de2-a9826ded3f15","system_id":"levelo_inurba_marseille","lat":43.211929,"lon":5.350793,"is_reserved":false,"is_disabled":false,"rental_uris":{"android":"levelo://app?vid=d5ef647d-00ca-43ce-8de2-a9826ded3f15","ios":"levelo://app?vid=d5ef647d-00ca-43ce-8de2-a9826ded3f15"},"vehicle_type_id":"4","last_reported":1745165451,"current_range_meters":10800,"station_id":"st_cvj6sg6p6f1abm77japg","pricing_plan_id":"cebpf4jnsgd1na2vs0mg"},{"bike_id":"7dd2a08f-8716-48d5-9ac7-0e99b21d8221","system_id":"levelo_inurba_marseille","lat":43.27176,"lon":5.40998,"is_reserved":false,"is_disabled":false,"rental_uris":{"android":"levelo://app?vid=7dd2a08f-8716-48d5-9ac7-0e99b21d8221","ios":"levelo://app?vid=7dd2a08f-8716-48d5-9ac7-0e99b21d8221"},"vehicle_type_id":"4","last_reported":1745165451,"current_range_meters":10800,"station_id":"ce4bhl12rcd13ifvqgf0","pricing_plan_id":"cebpf4jnsgd1na2vs0mg"},{"bike_id":"d64c3fc5-3b20-424d-a9df-83c170571095","system_id":"levelo_inurba_marseille","lat":43.23065,"lon":5.35485,"is_reserved":false,"is_disabled":false,"rental_uris":{"android":"levelo://app?vid=d64c3fc5-3b20-424d-a9df-83c170571095","ios":"levelo://app?vid=d64c3fc5-3b20-424d-a9df-83c170571095"},"vehicle_type_id":"4","last_reported":1745165451,"current_range_meters":11200,"station_id":"cpo3342slgdg3j2ifvpg","pricing_plan_id":"cebpf4jnsgd1na2vs0mg"},{"bike_id":"239516c6-a8b8-4115-9feb-de0a61f69488","system_id":"levelo_inurba_marseille","lat":43.25508,"lon":5.37639,"is_reserved":false,"is_disabled":false,"rental_uris":{"android":"levelo://app?vid=239516c6-a8b8-4115-9feb-de0a61f69488","ios":"levelo://app?vid=239516c6-a8b8-4115-9feb-de0a61f69488"},"vehicle_type_id":"4","last_reported":1745165451,"current_range_meters":11200,"station_id":"ce4bhh12rcd13ifvqff0","pricing_plan_id":"cebpf4jnsgd1na2vs0mg"},{"bike_id":"72bdc773-e917-4ed7-9c21-ed6e0decc0c0","system_id":"levelo_inurba_marseille","lat":43.27685,"lon":5.38869,"is_reserved":false,"is_disabled":false,"rental_uris":{"android":"levelo://app?vid=72bdc773-e917-4ed7-9c21-ed6e0decc0c0","ios":"levelo://app?vid=72bdc773-e917-4ed7-9c21-ed6e0decc0c0"},"vehicle_type_id":"4","last_reported":1745165451,"current_range_meters":11200,"station_id":"ce4bhi12rcd13ifvqfo0","pricing_plan_id":"cebpf4jnsgd1na2vs0mg"},{"bike_id":"cc4e8daf-8846-4035-942b-a36b9137d061","system_id":"levelo_inurba_marseille","lat":43.25505,"lon":5.37656,"is_reserved":false,"is_disabled":true,"rental_uris":{"android":"levelo://app?vid=cc4e8daf-8846-4035-942b-a36b9137d061","ios":"levelo://app?vid=cc4e8daf-8846-4035-942b-a36b9137d061"},"vehicle_type_id":"4","last_reported":1745165451,"current_range_meters":11200,"station_id":"ce4bhh12rcd13ifvqff0","pricing_plan_id":"cebpf4jnsgd1na2vs0mg"},{"bike_id":"88d0468a-6b50-40af-82f9-f3b38434dc7e","system_id":"levelo_inurba_marseille","lat":43.30331,"lon":5.40439,"is_reserved":false,"is_disabled":false,"rental_uris":{"android":"levelo://app?vid=88d0468a-6b50-40af-82f9-f3b38434dc7e","ios":"levelo://app?vid=88d0468a-6b50-40af-82f9-f3b38434dc7e"},"vehicle_type_id":"4","last_reported":1745165451,"current_range_meters":11600,"station_id":"ce4bh012rcd13ifvqd10","pricing_plan_id":"cebpf4jnsgd1na2vs0mg"},{"bike_id":"6fb747cc-1d9d-4160-8236-863ae817e2b1","system_id":"levelo_inurba_marseille","lat":43.2873,"lon":5.36079,"is_reserved":false,"is_disabled":false,"rental_uris":{"android":"levelo://app?vid=6fb747cc-1d9d-4160-8236-863ae817e2b1","ios":"levelo://app?vid=6fb747cc-1d9d-4160-8236-863ae817e2b1"},"vehicle_type_id":"4","last_reported":1745165451,"current_range_meters":11200,"station_id":"cki0cbj6b192h4jlfktg","pricing_plan_id":"cebpf4jnsgd1na2vs0mg"},{"bike_id":"3c68d4af-f244-4d5b-a673-170645748e37","system_id":"levelo_inurba_marseille","lat":43.27674,"lon":5.39852,"is_reserved":false,"is_disabled":false,"rental_uris":{"android":"levelo://app?vid=3c68d4af-f244-4d5b-a673-170645748e37","ios":"levelo://app?vid=3c68d4af-f244-4d5b-a673-170645748e37"},"vehicle_type_id":"4","last_reported":1745165451,"current_range_meters":11600,"station_id":"","pricing_plan_id":"cebpf4jnsgd1na2vs0mg"},{"bike_id":"e3c69d16-f624-4421-a7d2-c589a27a59a0","system_id":"levelo_inurba_marseille","lat":43.29029,"lon":5.38655,"is_reserved":false,"is_disabled":false,"rental_uris":{"android":"levelo://app?vid=e3c69d16-f624-4421-a7d2-c589a27a59a0","ios":"levelo://app?vid=e3c69d16-f624-4421-a7d2-c589a27a59a0"},"vehicle_type_id":"4","last_reported":1745165451,"current_range_meters":11200,"station_id":"ce4bh4p2rcd13ifvqe0g","pricing_plan_id":"cebpf4jnsgd1na2vs0mg"},{"bike_id":"a47e9eec-9aca-49b7-be3d-25350aae1cab","system_id":"levelo_inurba_marseille","lat":43.30927,"lon":5.40142,"is_reserved":false,"is_disabled":false,"rental_uris":{"android":"levelo://app?vid=a47e9eec-9aca-49b7-be3d-25350aae1cab","ios":"levelo://app?vid=a47e9eec-9aca-49b7-be3d-25350aae1cab"},"vehicle_type_id":"4","last_reported":1745165451,"current_range_meters":11600,"station_id":"ce4bgvp2rcd13ifvqct0","pricing_plan_id":"cebpf4jnsgd1na2vs0mg"},{"bike_id":"26bfd5bf-5d82-4957-8eb1-6b0bb4cf5092","system_id":"levelo_inurba_marseille","lat":43.28487,"lon":5.3842,"is_reserved":false,"is_disabled":false,"rental_uris":{"android":"levelo://app?vid=26bfd5bf-5d82-4957-8eb1-6b0bb4cf5092","ios":"levelo://app?vid=26bfd5bf-5d82-4957-8eb1-6b0bb4cf5092"},"vehicle_type_id":"4","last_reported":1745165451,"current_range_meters":12000,"station_id":"ce4bh512rcd13ifvqe3g","pricing_plan_id":"cebpf4jnsgd1na2vs0mg"},{"bike_id":"76678597-c23c-47ef-be2d-dc8ee6c4aa59","system_id":"levelo_inurba_marseille","lat":43.27506,"lon":5.42474,"is_reserved":false,"is_disabled":false,"rental_uris":{"android":"levelo://app?vid=76678597-c23c-47ef-be2d-dc8ee6c4aa59","ios":"levelo://app?vid=76678597-c23c-47ef-be2d-dc8ee6c4aa59"},"vehicle_type_id":"4","last_reported":1745165451,"current_range_meters":12000,"station_id":"ce4bhn92rcd13ifvqgrg","pricing_plan_id":"cebpf4jnsgd1na2vs0mg"},{"bike_id":"b0c8e6d7-020a-4c2c-987e-80dcd9db3fe3","system_id":"levelo_inurba_marseille","lat":43.30641,"lon":5.40088,"is_reserved":false,"is_disabled":false,"rental_uris":{"android":"levelo://app?vid=b0c8e6d7-020a-4c2c-987e-80dcd9db3fe3","ios":"levelo://app?vid=b0c8e6d7-020a-4c2c-987e-80dcd9db3fe3"},"vehicle_type_id":"4","last_reported":1745165451,"current_range_meters":11600,"station_id":"ce4bh112rcd13ifvqda0","pricing_plan_id":"cebpf4jnsgd1na2vs0mg"},{"bike_id":"7cfc78d2-c544-44c2-8cc8-48c3f907db5b","system_id":"levelo_inurba_marseille","lat":43.26179,"lon":5.40526,"is_reserved":false,"is_disabled":false,"rental_uris":{"android":"levelo://app?vid=7cfc78d2-c544-44c2-8cc8-48c3f907db5b","ios":"levelo://app?vid=7cfc78d2-c544-44c2-8cc8-48c3f907db5b"},"vehicle_type_id":"4","last_reported":1745165451,"current_range_meters":12000,"station_id":"ce4bhmh2rcd13ifvqgmg","pricing_plan_id":"cebpf4jnsgd1na2vs0mg"},{"bike_id":"59216526-d01c-4d77-b6e3-a6c766976571","system_id":"levelo_inurba_marseille","lat":43.22505,"lon":5.34767,"is_reserved":false,"is_disabled":false,"rental_uris":{"android":"levelo://app?vid=59216526-d01c-4d77-b6e3-a6c766976571","ios":"levelo://app?vid=59216526-d01c-4d77-b6e3-a6c766976571"},"vehicle_type_id":"4","last_reported":1745165451,"current_range_meters":12000,"station_id":"st_cvj5dfep6f1abm77gieg","pricing_plan_id":"cebpf4jnsgd1na2vs0mg"},{"bike_id":"f6b06603-46d7-458b-9dc9-fbc0bce785af","system_id":"levelo_inurba_marseille","lat":43.25127,"lon":5.40325,"is_reserved":false,"is_disabled":false,"rental_uris":{"android":"levelo://app?vid=f6b06603-46d7-458b-9dc9-fbc0bce785af","ios":"levelo://app?vid=f6b06603-46d7-458b-9dc9-fbc0bce785af"},"vehicle_type_id":"4","last_reported":1745165451,"current_range_meters":12000,"station_id":"ce4bhlh2rcd13ifvqgig","pricing_plan_id":"cebpf4jnsgd1na2vs0mg"},{"bike_id":"5801a3ca-80c0-4f04-85da-122046aa79e1","system_id":"levelo_inurba_marseille","lat":43.29008,"lon":5.43817,"is_reserved":false,"is_disabled":false,"rental_uris":{"android":"levelo://app?vid=5801a3ca-80c0-4f04-85da-122046aa79e1","ios":"levelo://app?vid=5801a3ca-80c0-4f04-85da-122046aa79e1"},"vehicle_type_id":"4","last_reported":1745165451,"current_range_meters":12400,"station_id":"","pricing_plan_id":"cebpf4jnsgd1na2vs0mg"},{"bike_id":"9f1246a7-6121-4dfb-b19d-be14127ddd08","system_id":"levelo_inurba_marseille","lat":43.23068,"lon":5.35491,"is_reserved":false,"is_disabled":false,"rental_uris":{"android":"levelo://app?vid=9f1246a7-6121-4dfb-b19d-be14127ddd08","ios":"levelo://app?vid=9f1246a7-6121-4dfb-b19d-be14127ddd08"},"vehicle_type_id":"4","last_reported":1745165451,"current_range_meters":12400,"station_id":"cpo3342slgdg3j2ifvpg","pricing_plan_id":"cebpf4jnsgd1na2vs0mg"},{"bike_id":"1ace1b61-e2c8-4a41-a3cf-5c94b36f34ae","system_id":"levelo_inurba_marseille","lat":43.21198,"lon":5.35066,"is_reserved":false,"is_disabled":false,"rental_uris":{"android":"levelo://app?vid=1ace1b61-e2c8-4a41-a3cf-5c94b36f34ae","ios":"levelo://app?vid=1ace1b61-e2c8-4a41-a3cf-5c94b36f34ae"},"vehicle_type_id":"4","last_reported":1745165451,"current_range_meters":12400,"station_id":"st_cvj6sg6p6f1abm77japg","pricing_plan_id":"cebpf4jnsgd1na2vs0mg"},{"bike_id":"6019390b-7088-4c04-b80b-2acf1cb29041","system_id":"levelo_inurba_marseille","lat":43.29394,"lon":5.41265,"is_reserved":false,"is_disabled":false,"rental_uris":{"android":"levelo://app?vid=6019390b-7088-4c04-b80b-2acf1cb29041","ios":"levelo://app?vid=6019390b-7088-4c04-b80b-2acf1cb29041"},"vehicle_type_id":"4","last_reported":1745165451,"current_range_meters":12800,"station_id":"","pricing_plan_id":"cebpf4jnsgd1na2vs0mg"},{"bike_id":"cab64969-2640-47ee-abb9-f11afb1f3a59","system_id":"levelo_inurba_marseille","lat":43.28618,"lon":5.35134,"is_reserved":false,"is_disabled":true,"rental_uris":{"android":"levelo://app?vid=cab64969-2640-47ee-abb9-f11afb1f3a59","ios":"levelo://app?vid=cab64969-2640-47ee-abb9-f11afb1f3a59"},"vehicle_type_id":"4","last_reported":1745165451,"current_range_meters":12800,"station_id":"ce4bhch2rcd13ifvqeug","pricing_plan_id":"cebpf4jnsgd1na2vs0mg"},{"bike_id":"8791819b-3cea-4f57-bb6a-cf9e074dfed7","system_id":"levelo_inurba_marseille","lat":43.23057,"lon":5.3549,"is_reserved":false,"is_disabled":false,"rental_uris":{"android":"levelo://app?vid=8791819b-3cea-4f57-bb6a-cf9e074dfed7","ios":"levelo://app?vid=8791819b-3cea-4f57-bb6a-cf9e074dfed7"},"vehicle_type_id":"4","last_reported":1745165451,"current_range_meters":12800,"station_id":"cpo3342slgdg3j2ifvpg","pricing_plan_id":"cebpf4jnsgd1na2vs0mg"},{"bike_id":"404743df-21fe-4296-bd87-4efacc1a952e","system_id":"levelo_inurba_marseille","lat":43.30148,"lon":5.39811,"is_reserved":false,"is_disabled":false,"rental_uris":{"android":"levelo://app?vid=404743df-21fe-4296-bd87-4efacc1a952e","ios":"levelo://app?vid=404743df-21fe-4296-bd87-4efacc1a952e"},"vehicle_type_id":"4","last_reported":1745165451,"current_range_meters":12400,"station_id":"ce4bh0h2rcd13ifvqd40","pricing_plan_id":"cebpf4jnsgd1na2vs0mg"},{"bike_id":"5fd8ff23-5005-4693-a9db-471eff4c1202","system_id":"levelo_inurba_marseille","lat":43.24802,"lon":5.37442,"is_reserved":false,"is_disabled":false,"rental_uris":{"android":"levelo://app?vid=5fd8ff23-5005-4693-a9db-471eff4c1202","ios":"levelo://app?vid=5fd8ff23-5005-4693-a9db-471eff4c1202"},"vehicle_type_id":"4","last_reported":1745165451,"current_range_meters":12800,"station_id":"ce4bhgh2rcd13ifvqfb0","pricing_plan_id":"cebpf4jnsgd1na2vs0mg"},{"bike_id":"4e0feb4b-9af5-4c5c-a215-eabded87c4f9","system_id":"levelo_inurba_marseille","lat":43.23194,"lon":5.35554,"is_reserved":false,"is_disabled":false,"rental_uris":{"android":"levelo://app?vid=4e0feb4b-9af5-4c5c-a215-eabded87c4f9","ios":"levelo://app?vid=4e0feb4b-9af5-4c5c-a215-eabded87c4f9"},"vehicle_type_id":"4","last_reported":1745165451,"current_range_meters":12800,"station_id":"ce4bhu92rcd13ifvqi70","pricing_plan_id":"cebpf4jnsgd1na2vs0mg"},{"bike_id":"f01fc261-033f-49c7-b09e-b9967362bd76","system_id":"levelo_inurba_marseille","lat":43.28853,"lon":5.35908,"is_reserved":false,"is_disabled":true,"rental_uris":{"android":"levelo://app?vid=f01fc261-033f-49c7-b09e-b9967362bd76","ios":"levelo://app?vid=f01fc261-033f-49c7-b09e-b9967362bd76"},"vehicle_type_id":"4","last_reported":1745165451,"current_range_meters":12800,"station_id":"ce4bhb12rcd13ifvqem0","pricing_plan_id":"cebpf4jnsgd1na2vs0mg"},{"bike_id":"9b72a48e-88d6-4245-a098-43b66e2f0740","system_id":"levelo_inurba_marseille","lat":43.22938,"lon":5.35372,"is_reserved":false,"is_disabled":false,"rental_uris":{"android":"levelo://app?vid=9b72a48e-88d6-4245-a098-43b66e2f0740","ios":"levelo://app?vid=9b72a48e-88d6-4245-a098-43b66e2f0740"},"vehicle_type_id":"4","last_reported":1745165451,"current_range_meters":12800,"station_id":"cpo3532slgdg3j2ikp40","pricing_plan_id":"cebpf4jnsgd1na2vs0mg"},{"bike_id":"a3dd9a0b-1e95-49bd-9b52-a761b312f104","system_id":"levelo_inurba_marseille","lat":43.2557,"lon":5.38244,"is_reserved":false,"is_disabled":false,"rental_uris":{"android":"levelo://app?vid=a3dd9a0b-1e95-49bd-9b52-a761b312f104","ios":"levelo://app?vid=a3dd9a0b-1e95-49bd-9b52-a761b312f104"},"vehicle_type_id":"4","last_reported":1745165451,"current_range_meters":13600,"station_id":"ce4bhih2rcd13ifvqfs0","pricing_plan_id":"cebpf4jnsgd1na2vs0mg"},{"bike_id":"635327bc-d280-4676-9818-c1af3e76102c","system_id":"levelo_inurba_marseille","lat":43.21193,"lon":5.35071,"is_reserved":false,"is_disabled":false,"rental_uris":{"android":"levelo://app?vid=635327bc-d280-4676-9818-c1af3e76102c","ios":"levelo://app?vid=635327bc-d280-4676-9818-c1af3e76102c"},"vehicle_type_id":"4","last_reported":1745165451,"current_range_meters":13600,"station_id":"st_cvj6sg6p6f1abm77japg","pricing_plan_id":"cebpf4jnsgd1na2vs0mg"},{"bike_id":"ce034b4a-bb67-4c72-856c-a0c7ed4c8b8f","system_id":"levelo_inurba_marseille","lat":43.23442,"lon":5.35951,"is_reserved":false,"is_disabled":false,"rental_uris":{"android":"levelo://app?vid=ce034b4a-bb67-4c72-856c-a0c7ed4c8b8f","ios":"levelo://app?vid=ce034b4a-bb67-4c72-856c-a0c7ed4c8b8f"},"vehicle_type_id":"4","last_reported":1745165451,"current_range_meters":13600,"station_id":"","pricing_plan_id":"cebpf4jnsgd1na2vs0mg"},{"bike_id":"50720bbe-5512-41d7-86e0-3df313b565c6","system_id":"levelo_inurba_marseille","lat":43.32371,"lon":5.38903,"is_reserved":false,"is_disabled":true,"rental_uris":{"android":"levelo://app?vid=50720bbe-5512-41d7-86e0-3df313b565c6","ios":"levelo://app?vid=50720bbe-5512-41d7-86e0-3df313b565c6"},"vehicle_type_id":"4","last_reported":1745165451,"current_range_meters":13600,"station_id":"ce4bhqp2rcd13ifvqhog","pricing_plan_id":"cebpf4jnsgd1na2vs0mg"},{"bike_id":"2001f4e6-c9a1-4b9e-a2f6-4f3ea6adbdf6","system_id":"levelo_inurba_marseille","lat":43.27616,"lon":5.36123,"is_reserved":false,"is_disabled":false,"rental_uris":{"android":"levelo://app?vid=2001f4e6-c9a1-4b9e-a2f6-4f3ea6adbdf6","ios":"levelo://app?vid=2001f4e6-c9a1-4b9e-a2f6-4f3ea6adbdf6"},"vehicle_type_id":"4","last_reported":1745165451,"current_range_meters":12800,"station_id":"ce4bgj92rcd13ifvqbe0","pricing_plan_id":"cebpf4jnsgd1na2vs0mg"},{"bike_id":"baaf0725-4678-4309-a852-f493cf531115","system_id":"levelo_inurba_marseille","lat":43.2844,"lon":5.39195,"is_reserved":false,"is_disabled":false,"rental_uris":{"android":"levelo://app?vid=baaf0725-4678-4309-a852-f493cf531115","ios":"levelo://app?vid=baaf0725-4678-4309-a852-f493cf531115"},"vehicle_type_id":"4","last_reported":1745165451,"current_range_meters":13600,"station_id":"ce4bhoh2rcd13ifvqh5g","pricing_plan_id":"cebpf4jnsgd1na2vs0mg"},{"bike_id":"9bf9f1af-0f0d-487b-b8d6-fcdc49416662","system_id":"levelo_inurba_marseille","lat":43.2894,"lon":5.36639,"is_reserved":false,"is_disabled":false,"rental_uris":{"android":"levelo://app?vid=9bf9f1af-0f0d-487b-b8d6-fcdc49416662","ios":"levelo://app?vid=9bf9f1af-0f0d-487b-b8d6-fcdc49416662"},"vehicle_type_id":"4","last_reported":1745165451,"current_range_meters":13600,"station_id":"ce4bhap2rcd13ifvqek0","pricing_plan_id":"cebpf4jnsgd1na2vs0mg"},{"bike_id":"aa4956c6-6845-4783-8776-ee4b88f920ec","system_id":"levelo_inurba_marseille","lat":43.28643,"lon":5.37079,"is_reserved":false,"is_disabled":true,"rental_uris":{"android":"levelo://app?vid=aa4956c6-6845-4783-8776-ee4b88f920ec","ios":"levelo://app?vid=aa4956c6-6845-4783-8776-ee4b88f920ec"},"vehicle_type_id":"4","last_reported":1745165451,"current_range_meters":14000,"station_id":"ce4bht12rcd13ifvqi60","pricing_plan_id":"cebpf4jnsgd1na2vs0mg"},{"bike_id":"cbf7d151-4588-4128-ae1c-ee61f4143499","system_id":"levelo_inurba_marseille","lat":43.25592,"lon":5.38238,"is_reserved":false,"is_disabled":false,"rental_uris":{"android":"levelo://app?vid=cbf7d151-4588-4128-ae1c-ee61f4143499","ios":"levelo://app?vid=cbf7d151-4588-4128-ae1c-ee61f4143499"},"vehicle_type_id":"4","last_reported":1745165451,"current_range_meters":14000,"station_id":"ce4bhih2rcd13ifvqfs0","pricing_plan_id":"cebpf4jnsgd1na2vs0mg"},{"bike_id":"80b55b8f-4b91-4662-b23c-f0419d420337","system_id":"levelo_inurba_marseille","lat":43.23075,"lon":5.35497,"is_reserved":false,"is_disabled":false,"rental_uris":{"android":"levelo://app?vid=80b55b8f-4b91-4662-b23c-f0419d420337","ios":"levelo://app?vid=80b55b8f-4b91-4662-b23c-f0419d420337"},"vehicle_type_id":"4","last_reported":1745165451,"current_range_meters":14000,"station_id":"cpo3342slgdg3j2ifvpg","pricing_plan_id":"cebpf4jnsgd1na2vs0mg"},{"bike_id":"a6898d3c-5c42-48ff-8a83-982ad1666674","system_id":"levelo_inurba_marseille","lat":43.29279,"lon":5.40113,"is_reserved":false,"is_disabled":false,"rental_uris":{"android":"levelo://app?vid=a6898d3c-5c42-48ff-8a83-982ad1666674","ios":"levelo://app?vid=a6898d3c-5c42-48ff-8a83-982ad1666674"},"vehicle_type_id":"4","last_reported":1745165451,"current_range_meters":14000,"station_id":"ce4bh312rcd13ifvqdk0","pricing_plan_id":"cebpf4jnsgd1na2vs0mg"},{"bike_id":"1737dea4-541f-4bc8-9731-1ab03c2deae6","system_id":"levelo_inurba_marseille","lat":43.23958,"lon":5.36628,"is_reserved":false,"is_disabled":true,"rental_uris":{"android":"levelo://app?vid=1737dea4-541f-4bc8-9731-1ab03c2deae6","ios":"levelo://app?vid=1737dea4-541f-4bc8-9731-1ab03c2deae6"},"vehicle_type_id":"4","last_reported":1745165451,"current_range_meters":14000,"station_id":"ce4bhi12rcd13ifvqfp0","pricing_plan_id":"cebpf4jnsgd1na2vs0mg"},{"bike_id":"ef7fc6e6-d68a-4801-bcb6-dfaef6ff5c0a","system_id":"levelo_inurba_marseille","lat":43.27678,"lon":5.38896,"is_reserved":false,"is_disabled":false,"rental_uris":{"android":"levelo://app?vid=ef7fc6e6-d68a-4801-bcb6-dfaef6ff5c0a","ios":"levelo://app?vid=ef7fc6e6-d68a-4801-bcb6-dfaef6ff5c0a"},"vehicle_type_id":"4","last_reported":1745165451,"current_range_meters":14000,"station_id":"ce4bhi12rcd13ifvqfo0","pricing_plan_id":"cebpf4jnsgd1na2vs0mg"},{"bike_id":"d53e964c-f934-484c-a259-3e8f23cdd819","system_id":"levelo_inurba_marseille","lat":43.33722,"lon":5.39193,"is_reserved":false,"is_disabled":false,"rental_uris":{"android":"levelo://app?vid=d53e964c-f934-484c-a259-3e8f23cdd819","ios":"levelo://app?vid=d53e964c-f934-484c-a259-3e8f23cdd819"},"vehicle_type_id":"4","last_reported":1745165451,"current_range_meters":14400,"station_id":"ce4bhr92rcd13ifvqhsg","pricing_plan_id":"cebpf4jnsgd1na2vs0mg"},{"bike_id":"83bdb8b9-a80f-4c43-87d6-405681e4b705","system_id":"levelo_inurba_marseille","lat":43.284575,"lon":5.392067,"is_reserved":false,"is_disabled":false,"rental_uris":{"android":"levelo://app?vid=83bdb8b9-a80f-4c43-87d6-405681e4b705","ios":"levelo://app?vid=83bdb8b9-a80f-4c43-87d6-405681e4b705"},"vehicle_type_id":"4","last_reported":1745165451,"current_range_meters":14400,"station_id":"ce4bhoh2rcd13ifvqh5g","pricing_plan_id":"cebpf4jnsgd1na2vs0mg"},{"bike_id":"eda87f9a-1635-4d74-9fb5-aafa436ef8c7","system_id":"levelo_inurba_marseille","lat":43.29257,"lon":5.38445,"is_reserved":false,"is_disabled":false,"rental_uris":{"android":"levelo://app?vid=eda87f9a-1635-4d74-9fb5-aafa436ef8c7","ios":"levelo://app?vid=eda87f9a-1635-4d74-9fb5-aafa436ef8c7"},"vehicle_type_id":"4","last_reported":1745165451,"current_range_meters":14400,"station_id":"ce4bh692rcd13ifvqea0","pricing_plan_id":"cebpf4jnsgd1na2vs0mg"},{"bike_id":"cb5cf5f4-d78d-4602-b886-a175268d195a","system_id":"levelo_inurba_marseille","lat":43.28619,"lon":5.37055,"is_reserved":false,"is_disabled":false,"rental_uris":{"android":"levelo://app?vid=cb5cf5f4-d78d-4602-b886-a175268d195a","ios":"levelo://app?vid=cb5cf5f4-d78d-4602-b886-a175268d195a"},"vehicle_type_id":"4","last_reported":1745165451,"current_range_meters":14400,"station_id":"ce4bht12rcd13ifvqi60","pricing_plan_id":"cebpf4jnsgd1na2vs0mg"},{"bike_id":"6b67ad3c-b3ef-40f3-b8d0-565129977f23","system_id":"levelo_inurba_marseille","lat":43.30876,"lon":5.37082,"is_reserved":false,"is_disabled":false,"rental_uris":{"android":"levelo://app?vid=6b67ad3c-b3ef-40f3-b8d0-565129977f23","ios":"levelo://app?vid=6b67ad3c-b3ef-40f3-b8d0-565129977f23"},"vehicle_type_id":"4","last_reported":1745165451,"current_range_meters":14800,"station_id":"","pricing_plan_id":"cebpf4jnsgd1na2vs0mg"},{"bike_id":"71ab536b-49f0-4544-91dd-0af253d8891f","system_id":"levelo_inurba_marseille","lat":43.25513,"lon":5.37633,"is_reserved":false,"is_disabled":false,"rental_uris":{"android":"levelo://app?vid=71ab536b-49f0-4544-91dd-0af253d8891f","ios":"levelo://app?vid=71ab536b-49f0-4544-91dd-0af253d8891f"},"vehicle_type_id":"4","last_reported":1745165451,"current_range_meters":15200,"station_id":"ce4bhh12rcd13ifvqff0","pricing_plan_id":"cebpf4jnsgd1na2vs0mg"},{"bike_id":"54333f71-3852-4e7b-b374-b14e492e4962","system_id":"levelo_inurba_marseille","lat":43.30421,"lon":5.41297,"is_reserved":false,"is_disabled":true,"rental_uris":{"android":"levelo://app?vid=54333f71-3852-4e7b-b374-b14e492e4962","ios":"levelo://app?vid=54333f71-3852-4e7b-b374-b14e492e4962"},"vehicle_type_id":"4","last_reported":1745165451,"current_range_meters":15200,"station_id":"ce4bhop2rcd13ifvqh8g","pricing_plan_id":"cebpf4jnsgd1na2vs0mg"},{"bike_id":"cb04d036-524e-497d-b1e8-d53251979b05","system_id":"levelo_inurba_marseille","lat":43.29883,"lon":5.39773,"is_reserved":false,"is_disabled":true,"rental_uris":{"android":"levelo://app?vid=cb04d036-524e-497d-b1e8-d53251979b05","ios":"levelo://app?vid=cb04d036-524e-497d-b1e8-d53251979b05"},"vehicle_type_id":"4","last_reported":1745165451,"current_range_meters":15200,"station_id":"ce4bh0h2rcd13ifvqd50","pricing_plan_id":"cebpf4jnsgd1na2vs0mg"},{"bike_id":"7543c7c6-ca16-46ed-becd-b3b88b5f5d8a","system_id":"levelo_inurba_marseille","lat":43.29552,"lon":5.38515,"is_reserved":false,"is_disabled":false,"rental_uris":{"android":"levelo://app?vid=7543c7c6-ca16-46ed-becd-b3b88b5f5d8a","ios":"levelo://app?vid=7543c7c6-ca16-46ed-becd-b3b88b5f5d8a"},"vehicle_type_id":"4","last_reported":1745165451,"current_range_meters":15200,"station_id":"ce4bgih2rcd13ifvqba0","pricing_plan_id":"cebpf4jnsgd1na2vs0mg"},{"bike_id":"d66f2fbf-84c1-4006-a003-d92ef3aa9479","system_id":"levelo_inurba_marseille","lat":43.2322,"lon":5.35551,"is_reserved":false,"is_disabled":false,"rental_uris":{"android":"levelo://app?vid=d66f2fbf-84c1-4006-a003-d92ef3aa9479","ios":"levelo://app?vid=d66f2fbf-84c1-4006-a003-d92ef3aa9479"},"vehicle_type_id":"4","last_reported":1745165451,"current_range_meters":15200,"station_id":"ce4bhu92rcd13ifvqi70","pricing_plan_id":"cebpf4jnsgd1na2vs0mg"},{"bike_id":"8605282b-b417-44ef-b921-2c93f06b4d14","system_id":"levelo_inurba_marseille","lat":43.25115,"lon":5.40334,"is_reserved":false,"is_disabled":false,"rental_uris":{"android":"levelo://app?vid=8605282b-b417-44ef-b921-2c93f06b4d14","ios":"levelo://app?vid=8605282b-b417-44ef-b921-2c93f06b4d14"},"vehicle_type_id":"4","last_reported":1745165451,"current_range_meters":15200,"station_id":"ce4bhlh2rcd13ifvqgig","pricing_plan_id":"cebpf4jnsgd1na2vs0mg"},{"bike_id":"322fbf36-4a06-4f07-824d-f7f43bffca5d","system_id":"levelo_inurba_marseille","lat":43.2512,"lon":5.40346,"is_reserved":false,"is_disabled":false,"rental_uris":{"android":"levelo://app?vid=322fbf36-4a06-4f07-824d-f7f43bffca5d","ios":"levelo://app?vid=322fbf36-4a06-4f07-824d-f7f43bffca5d"},"vehicle_type_id":"4","last_reported":1745165451,"current_range_meters":14000,"station_id":"ce4bhlh2rcd13ifvqgig","pricing_plan_id":"cebpf4jnsgd1na2vs0mg"},{"bike_id":"8350d679-5a11-483e-b692-c0b1863549b0","system_id":"levelo_inurba_marseille","lat":43.29572,"lon":5.3753,"is_reserved":false,"is_disabled":false,"rental_uris":{"android":"levelo://app?vid=8350d679-5a11-483e-b692-c0b1863549b0","ios":"levelo://app?vid=8350d679-5a11-483e-b692-c0b1863549b0"},"vehicle_type_id":"4","last_reported":1745165451,"current_range_meters":16000,"station_id":"ce4bgh92rcd13ifvqb50","pricing_plan_id":"cebpf4jnsgd1na2vs0mg"},{"bike_id":"20c9a851-68c0-466e-824f-52a3a4bc49f8","system_id":"levelo_inurba_marseille","lat":43.28425,"lon":5.34973,"is_reserved":false,"is_disabled":false,"rental_uris":{"android":"levelo://app?vid=20c9a851-68c0-466e-824f-52a3a4bc49f8","ios":"levelo://app?vid=20c9a851-68c0-466e-824f-52a3a4bc49f8"},"vehicle_type_id":"4","last_reported":1745165451,"current_range_meters":16000,"station_id":"ce4bhbh2rcd13ifvqepg","pricing_plan_id":"cebpf4jnsgd1na2vs0mg"},{"bike_id":"b157dc81-51c5-45f3-a677-9e9c3cf6283b","system_id":"levelo_inurba_marseille","lat":43.30598,"lon":5.3716,"is_reserved":false,"is_disabled":false,"rental_uris":{"android":"levelo://app?vid=b157dc81-51c5-45f3-a677-9e9c3cf6283b","ios":"levelo://app?vid=b157dc81-51c5-45f3-a677-9e9c3cf6283b"},"vehicle_type_id":"4","last_reported":1745165451,"current_range_meters":16000,"station_id":"","pricing_plan_id":"cebpf4jnsgd1na2vs0mg"},{"bike_id":"9cd66f20-0974-44a3-a00c-3af08e74ebf2","system_id":"levelo_inurba_marseille","lat":43.26029,"lon":5.4175,"is_reserved":false,"is_disabled":false,"rental_uris":{"android":"levelo://app?vid=9cd66f20-0974-44a3-a00c-3af08e74ebf2","ios":"levelo://app?vid=9cd66f20-0974-44a3-a00c-3af08e74ebf2"},"vehicle_type_id":"4","last_reported":1745165451,"current_range_meters":16000,"station_id":"","pricing_plan_id":"cebpf4jnsgd1na2vs0mg"},{"bike_id":"cc015b0e-d256-409b-bfae-d243633a1e3e","system_id":"levelo_inurba_marseille","lat":43.22932,"lon":5.35392,"is_reserved":false,"is_disabled":false,"rental_uris":{"android":"levelo://app?vid=cc015b0e-d256-409b-bfae-d243633a1e3e","ios":"levelo://app?vid=cc015b0e-d256-409b-bfae-d243633a1e3e"},"vehicle_type_id":"4","last_reported":1745165451,"current_range_meters":16000,"station_id":"cpo3532slgdg3j2ikp40","pricing_plan_id":"cebpf4jnsgd1na2vs0mg"},{"bike_id":"ee910e3a-4ec1-4a75-b39a-8a2ef121fc79","system_id":"levelo_inurba_marseille","lat":43.25493,"lon":5.37645,"is_reserved":false,"is_disabled":false,"rental_uris":{"android":"levelo://app?vid=ee910e3a-4ec1-4a75-b39a-8a2ef121fc79","ios":"levelo://app?vid=ee910e3a-4ec1-4a75-b39a-8a2ef121fc79"},"vehicle_type_id":"4","last_reported":1745165451,"current_range_meters":16400,"station_id":"ce4bhh12rcd13ifvqff0","pricing_plan_id":"cebpf4jnsgd1na2vs0mg"},{"bike_id":"6997608a-d515-49c5-9087-a8eb832f4563","system_id":"levelo_inurba_marseille","lat":43.25828,"lon":5.39434,"is_reserved":false,"is_disabled":false,"rental_uris":{"android":"levelo://app?vid=6997608a-d515-49c5-9087-a8eb832f4563","ios":"levelo://app?vid=6997608a-d515-49c5-9087-a8eb832f4563"},"vehicle_type_id":"4","last_reported":1745165451,"current_range_meters":16400,"station_id":"ce4bhip2rcd13ifvqft0","pricing_plan_id":"cebpf4jnsgd1na2vs0mg"},{"bike_id":"721f595d-f057-44ac-ac8d-4aec1bc01567","system_id":"levelo_inurba_marseille","lat":43.2508,"lon":5.40387,"is_reserved":false,"is_disabled":false,"rental_uris":{"android":"levelo://app?vid=721f595d-f057-44ac-ac8d-4aec1bc01567","ios":"levelo://app?vid=721f595d-f057-44ac-ac8d-4aec1bc01567"},"vehicle_type_id":"4","last_reported":1745165451,"current_range_meters":16400,"station_id":"","pricing_plan_id":"cebpf4jnsgd1na2vs0mg"},{"bike_id":"5069dd58-c0a4-4a82-89c4-361b75ac07f9","system_id":"levelo_inurba_marseille","lat":43.25576,"lon":5.3824,"is_reserved":false,"is_disabled":false,"rental_uris":{"android":"levelo://app?vid=5069dd58-c0a4-4a82-89c4-361b75ac07f9","ios":"levelo://app?vid=5069dd58-c0a4-4a82-89c4-361b75ac07f9"},"vehicle_type_id":"4","last_reported":1745165451,"current_range_meters":16400,"station_id":"ce4bhih2rcd13ifvqfs0","pricing_plan_id":"cebpf4jnsgd1na2vs0mg"},{"bike_id":"9c051c2b-99ca-47bf-b830-42b313fc092b","system_id":"levelo_inurba_marseille","lat":43.28843,"lon":5.39316,"is_reserved":false,"is_disabled":false,"rental_uris":{"android":"levelo://app?vid=9c051c2b-99ca-47bf-b830-42b313fc092b","ios":"levelo://app?vid=9c051c2b-99ca-47bf-b830-42b313fc092b"},"vehicle_type_id":"4","last_reported":1745165451,"current_range_meters":16400,"station_id":"ce4bh2p2rcd13ifvqdi0","pricing_plan_id":"cebpf4jnsgd1na2vs0mg"},{"bike_id":"1a381c69-8db7-4c2e-b584-6a332fca0dc2","system_id":"levelo_inurba_marseille","lat":43.2867,"lon":5.36346,"is_reserved":false,"is_disabled":false,"rental_uris":{"android":"levelo://app?vid=1a381c69-8db7-4c2e-b584-6a332fca0dc2","ios":"levelo://app?vid=1a381c69-8db7-4c2e-b584-6a332fca0dc2"},"vehicle_type_id":"4","last_reported":1745165451,"current_range_meters":16400,"station_id":"ce4bhah2rcd13ifvqej0","pricing_plan_id":"cebpf4jnsgd1na2vs0mg"},{"bike_id":"f36c50e9-99a2-48ac-ba24-bbee1a1c2a9b","system_id":"levelo_inurba_marseille","lat":43.23197,"lon":5.40011,"is_reserved":false,"is_disabled":false,"rental_uris":{"android":"levelo://app?vid=f36c50e9-99a2-48ac-ba24-bbee1a1c2a9b","ios":"levelo://app?vid=f36c50e9-99a2-48ac-ba24-bbee1a1c2a9b"},"vehicle_type_id":"4","last_reported":1745165451,"current_range_meters":16400,"station_id":"ce4bhn12rcd13ifvqgqg","pricing_plan_id":"cebpf4jnsgd1na2vs0mg"},{"bike_id":"1a5f2cec-6354-428d-a667-d2081b30c7f2","system_id":"levelo_inurba_marseille","lat":43.27683,"lon":5.39805,"is_reserved":false,"is_disabled":false,"rental_uris":{"android":"levelo://app?vid=1a5f2cec-6354-428d-a667-d2081b30c7f2","ios":"levelo://app?vid=1a5f2cec-6354-428d-a667-d2081b30c7f2"},"vehicle_type_id":"4","last_reported":1745165451,"current_range_meters":16400,"station_id":"","pricing_plan_id":"cebpf4jnsgd1na2vs0mg"},{"bike_id":"c4fc050b-7c58-4380-8033-ffe242748317","system_id":"levelo_inurba_marseille","lat":43.2952,"lon":5.39416,"is_reserved":false,"is_disabled":true,"rental_uris":{"android":"levelo://app?vid=c4fc050b-7c58-4380-8033-ffe242748317","ios":"levelo://app?vid=c4fc050b-7c58-4380-8033-ffe242748317"},"vehicle_type_id":"4","last_reported":1745165451,"current_range_meters":16800,"station_id":"ce4bh292rcd13ifvqdf0","pricing_plan_id":"cebpf4jnsgd1na2vs0mg"},{"bike_id":"c8e23f70-df9f-4ff5-a38a-f1f368c097f1","system_id":"levelo_inurba_marseille","lat":43.28719,"lon":5.37936,"is_reserved":false,"is_disabled":false,"rental_uris":{"android":"levelo://app?vid=c8e23f70-df9f-4ff5-a38a-f1f368c097f1","ios":"levelo://app?vid=c8e23f70-df9f-4ff5-a38a-f1f368c097f1"},"vehicle_type_id":"4","last_reported":1745165451,"current_range_meters":16800,"station_id":"ce4bh9p2rcd13ifvqec0","pricing_plan_id":"cebpf4jnsgd1na2vs0mg"},{"bike_id":"450a057a-4053-4dc7-9951-a081f46685b6","system_id":"levelo_inurba_marseille","lat":43.32482,"lon":5.36568,"is_reserved":false,"is_disabled":false,"rental_uris":{"android":"levelo://app?vid=450a057a-4053-4dc7-9951-a081f46685b6","ios":"levelo://app?vid=450a057a-4053-4dc7-9951-a081f46685b6"},"vehicle_type_id":"4","last_reported":1745165451,"current_range_meters":16800,"station_id":"ce4bhs12rcd13ifvqhvg","pricing_plan_id":"cebpf4jnsgd1na2vs0mg"},{"bike_id":"14aa5634-cccd-46db-a638-6f36ff4f4d85","system_id":"levelo_inurba_marseille","lat":43.22936,"lon":5.35369,"is_reserved":false,"is_disabled":false,"rental_uris":{"android":"levelo://app?vid=14aa5634-cccd-46db-a638-6f36ff4f4d85","ios":"levelo://app?vid=14aa5634-cccd-46db-a638-6f36ff4f4d85"},"vehicle_type_id":"4","last_reported":1745165451,"current_range_meters":16800,"station_id":"cpo3532slgdg3j2ikp40","pricing_plan_id":"cebpf4jnsgd1na2vs0mg"},{"bike_id":"fa0e2da6-a784-405b-a63a-e123918df129","system_id":"levelo_inurba_marseille","lat":43.27387,"lon":5.36264,"is_reserved":false,"is_disabled":false,"rental_uris":{"android":"levelo://app?vid=fa0e2da6-a784-405b-a63a-e123918df129","ios":"levelo://app?vid=fa0e2da6-a784-405b-a63a-e123918df129"},"vehicle_type_id":"4","last_reported":1745165451,"current_range_meters":16800,"station_id":"ce4bhbh2rcd13ifvqeo0","pricing_plan_id":"cebpf4jnsgd1na2vs0mg"},{"bike_id":"7d45c8ed-ee6e-4ae0-8353-9a96f10579c5","system_id":"levelo_inurba_marseille","lat":43.281005,"lon":5.378204,"is_reserved":false,"is_disabled":false,"rental_uris":{"android":"levelo://app?vid=7d45c8ed-ee6e-4ae0-8353-9a96f10579c5","ios":"levelo://app?vid=7d45c8ed-ee6e-4ae0-8353-9a96f10579c5"},"vehicle_type_id":"4","last_reported":1745165451,"current_range_meters":16800,"station_id":"ce4bha12rcd13ifvqee0","pricing_plan_id":"cebpf4jnsgd1na2vs0mg"},{"bike_id":"8110197b-fa0b-4df1-9e1a-f698e8e5f647","system_id":"levelo_inurba_marseille","lat":43.292337,"lon":5.360677,"is_reserved":false,"is_disabled":false,"rental_uris":{"android":"levelo://app?vid=8110197b-fa0b-4df1-9e1a-f698e8e5f647","ios":"levelo://app?vid=8110197b-fa0b-4df1-9e1a-f698e8e5f647"},"vehicle_type_id":"4","last_reported":1745165451,"current_range_meters":17200,"station_id":"ce4bhbh2rcd13ifvqeqg","pricing_plan_id":"cebpf4jnsgd1na2vs0mg"},{"bike_id":"cc5945bd-6cb2-40fe-b415-e7c2fa8ca568","system_id":"levelo_inurba_marseille","lat":43.21195,"lon":5.35077,"is_reserved":false,"is_disabled":false,"rental_uris":{"android":"levelo://app?vid=cc5945bd-6cb2-40fe-b415-e7c2fa8ca568","ios":"levelo://app?vid=cc5945bd-6cb2-40fe-b415-e7c2fa8ca568"},"vehicle_type_id":"4","last_reported":1745165451,"current_range_meters":17200,"station_id":"st_cvj6sg6p6f1abm77japg","pricing_plan_id":"cebpf4jnsgd1na2vs0mg"},{"bike_id":"b50ac1ac-8112-49a9-9684-58c93de8a551","system_id":"levelo_inurba_marseille","lat":43.255,"lon":5.37648,"is_reserved":false,"is_disabled":false,"rental_uris":{"android":"levelo://app?vid=b50ac1ac-8112-49a9-9684-58c93de8a551","ios":"levelo://app?vid=b50ac1ac-8112-49a9-9684-58c93de8a551"},"vehicle_type_id":"4","last_reported":1745165451,"current_range_meters":17200,"station_id":"ce4bhh12rcd13ifvqff0","pricing_plan_id":"cebpf4jnsgd1na2vs0mg"},{"bike_id":"e73d4967-6342-4e68-8e2c-6c9eec8eb214","system_id":"levelo_inurba_marseille","lat":43.274964,"lon":5.424512,"is_reserved":false,"is_disabled":false,"rental_uris":{"android":"levelo://app?vid=e73d4967-6342-4e68-8e2c-6c9eec8eb214","ios":"levelo://app?vid=e73d4967-6342-4e68-8e2c-6c9eec8eb214"},"vehicle_type_id":"4","last_reported":1745165451,"current_range_meters":17200,"station_id":"ce4bhn92rcd13ifvqgrg","pricing_plan_id":"cebpf4jnsgd1na2vs0mg"},{"bike_id":"b63b7a5e-a38c-41b2-b8ca-03dcb2ce1a70","system_id":"levelo_inurba_marseille","lat":43.250885,"lon":5.395125,"is_reserved":false,"is_disabled":true,"rental_uris":{"android":"levelo://app?vid=b63b7a5e-a38c-41b2-b8ca-03dcb2ce1a70","ios":"levelo://app?vid=b63b7a5e-a38c-41b2-b8ca-03dcb2ce1a70"},"vehicle_type_id":"4","last_reported":1745165451,"current_range_meters":17200,"station_id":"ce4bhm12rcd13ifvqgkg","pricing_plan_id":"cebpf4jnsgd1na2vs0mg"},{"bike_id":"acb337f8-9a02-4c16-ad32-3a6e67af21e4","system_id":"levelo_inurba_marseille","lat":43.28464,"lon":5.35893,"is_reserved":false,"is_disabled":true,"rental_uris":{"android":"levelo://app?vid=acb337f8-9a02-4c16-ad32-3a6e67af21e4","ios":"levelo://app?vid=acb337f8-9a02-4c16-ad32-3a6e67af21e4"},"vehicle_type_id":"4","last_reported":1745165451,"current_range_meters":17600,"station_id":"ce4bhah2rcd13ifvqei0","pricing_plan_id":"cebpf4jnsgd1na2vs0mg"},{"bike_id":"788c796b-811e-4a70-a99c-8a4d1e3c4562","system_id":"levelo_inurba_marseille","lat":43.27624,"lon":5.36104,"is_reserved":false,"is_disabled":false,"rental_uris":{"android":"levelo://app?vid=788c796b-811e-4a70-a99c-8a4d1e3c4562","ios":"levelo://app?vid=788c796b-811e-4a70-a99c-8a4d1e3c4562"},"vehicle_type_id":"4","last_reported":1745165451,"current_range_meters":17600,"station_id":"ce4bgj92rcd13ifvqbe0","pricing_plan_id":"cebpf4jnsgd1na2vs0mg"},{"bike_id":"d331577a-9171-4bbf-995a-bfa2aa3298ec","system_id":"levelo_inurba_marseille","lat":43.29636,"lon":5.406,"is_reserved":false,"is_disabled":false,"rental_uris":{"android":"levelo://app?vid=d331577a-9171-4bbf-995a-bfa2aa3298ec","ios":"levelo://app?vid=d331577a-9171-4bbf-995a-bfa2aa3298ec"},"vehicle_type_id":"4","last_reported":1745165451,"current_range_meters":17600,"station_id":"ce4bh0h2rcd13ifvqd60","pricing_plan_id":"cebpf4jnsgd1na2vs0mg"},{"bike_id":"1f9711e8-a53a-4103-abe6-fe515248ded0","system_id":"levelo_inurba_marseille","lat":43.28419,"lon":5.34977,"is_reserved":false,"is_disabled":false,"rental_uris":{"android":"levelo://app?vid=1f9711e8-a53a-4103-abe6-fe515248ded0","ios":"levelo://app?vid=1f9711e8-a53a-4103-abe6-fe515248ded0"},"vehicle_type_id":"4","last_reported":1745165451,"current_range_meters":17600,"station_id":"ce4bhbh2rcd13ifvqepg","pricing_plan_id":"cebpf4jnsgd1na2vs0mg"},{"bike_id":"17b3a3ed-8624-43f8-9b90-cf0e091e69a6","system_id":"levelo_inurba_marseille","lat":43.26212,"lon":5.3744,"is_reserved":false,"is_disabled":false,"rental_uris":{"android":"levelo://app?vid=17b3a3ed-8624-43f8-9b90-cf0e091e69a6","ios":"levelo://app?vid=17b3a3ed-8624-43f8-9b90-cf0e091e69a6"},"vehicle_type_id":"4","last_reported":1745165451,"current_range_meters":17600,"station_id":"ce4bhgp2rcd13ifvqfc0","pricing_plan_id":"cebpf4jnsgd1na2vs0mg"},{"bike_id":"5481b6d2-15d7-4961-aa1d-fdd18d7b9b34","system_id":"levelo_inurba_marseille","lat":43.23206,"lon":5.35541,"is_reserved":false,"is_disabled":false,"rental_uris":{"android":"levelo://app?vid=5481b6d2-15d7-4961-aa1d-fdd18d7b9b34","ios":"levelo://app?vid=5481b6d2-15d7-4961-aa1d-fdd18d7b9b34"},"vehicle_type_id":"4","last_reported":1745165451,"current_range_meters":17600,"station_id":"ce4bhu92rcd13ifvqi70","pricing_plan_id":"cebpf4jnsgd1na2vs0mg"},{"bike_id":"a7f91fb8-2846-493f-a68f-69867197cfa1","system_id":"levelo_inurba_marseille","lat":43.33654,"lon":5.39771,"is_reserved":false,"is_disabled":false,"rental_uris":{"android":"levelo://app?vid=a7f91fb8-2846-493f-a68f-69867197cfa1","ios":"levelo://app?vid=a7f91fb8-2846-493f-a68f-69867197cfa1"},"vehicle_type_id":"4","last_reported":1745165451,"current_range_meters":18000,"station_id":"","pricing_plan_id":"cebpf4jnsgd1na2vs0mg"},{"bike_id":"b8b65b83-38a3-4e5f-83f7-bcdcfcb454b1","system_id":"levelo_inurba_marseille","lat":43.2119,"lon":5.35102,"is_reserved":false,"is_disabled":false,"rental_uris":{"android":"levelo://app?vid=b8b65b83-38a3-4e5f-83f7-bcdcfcb454b1","ios":"levelo://app?vid=b8b65b83-38a3-4e5f-83f7-bcdcfcb454b1"},"vehicle_type_id":"4","last_reported":1745165451,"current_range_meters":18000,"station_id":"st_cvj6sg6p6f1abm77japg","pricing_plan_id":"cebpf4jnsgd1na2vs0mg"},{"bike_id":"083cfed2-241c-438b-9ab2-07c0e4bbaba8","system_id":"levelo_inurba_marseille","lat":43.24079,"lon":5.3776,"is_reserved":false,"is_disabled":false,"rental_uris":{"android":"levelo://app?vid=083cfed2-241c-438b-9ab2-07c0e4bbaba8","ios":"levelo://app?vid=083cfed2-241c-438b-9ab2-07c0e4bbaba8"},"vehicle_type_id":"4","last_reported":1745165451,"current_range_meters":18000,"station_id":"ce4bhnp2rcd13ifvqgvg","pricing_plan_id":"cebpf4jnsgd1na2vs0mg"},{"bike_id":"54547122-c9e3-44aa-92d3-ee29b2aa8445","system_id":"levelo_inurba_marseille","lat":43.28428,"lon":5.35009,"is_reserved":false,"is_disabled":true,"rental_uris":{"android":"levelo://app?vid=54547122-c9e3-44aa-92d3-ee29b2aa8445","ios":"levelo://app?vid=54547122-c9e3-44aa-92d3-ee29b2aa8445"},"vehicle_type_id":"4","last_reported":1745165451,"current_range_meters":18000,"station_id":"ce4bhbh2rcd13ifvqepg","pricing_plan_id":"cebpf4jnsgd1na2vs0mg"},{"bike_id":"5421f91f-c5b9-4312-b8b1-ba44221bb5c0","system_id":"levelo_inurba_marseille","lat":43.26211,"lon":5.379217,"is_reserved":false,"is_disabled":true,"rental_uris":{"android":"levelo://app?vid=5421f91f-c5b9-4312-b8b1-ba44221bb5c0","ios":"levelo://app?vid=5421f91f-c5b9-4312-b8b1-ba44221bb5c0"},"vehicle_type_id":"4","last_reported":1745165451,"current_range_meters":18000,"station_id":"ce4bhjp2rcd13ifvqg90","pricing_plan_id":"cebpf4jnsgd1na2vs0mg"},{"bike_id":"925d836c-cb6c-48e0-b318-40b78145bd80","system_id":"levelo_inurba_marseille","lat":43.31502,"lon":5.3731,"is_reserved":false,"is_disabled":false,"rental_uris":{"android":"levelo://app?vid=925d836c-cb6c-48e0-b318-40b78145bd80","ios":"levelo://app?vid=925d836c-cb6c-48e0-b318-40b78145bd80"},"vehicle_type_id":"4","last_reported":1745165451,"current_range_meters":18000,"station_id":"ce4bgt12rcd13ifvqcd0","pricing_plan_id":"cebpf4jnsgd1na2vs0mg"},{"bike_id":"bf8345d9-207f-48b6-8077-b65e35030033","system_id":"levelo_inurba_marseille","lat":43.286648,"lon":5.363459,"is_reserved":false,"is_disabled":false,"rental_uris":{"android":"levelo://app?vid=bf8345d9-207f-48b6-8077-b65e35030033","ios":"levelo://app?vid=bf8345d9-207f-48b6-8077-b65e35030033"},"vehicle_type_id":"4","last_reported":1745165451,"current_range_meters":18000,"station_id":"ce4bhah2rcd13ifvqej0","pricing_plan_id":"cebpf4jnsgd1na2vs0mg"},