{"last_updated":1768998491,"ttl":60,"version":"2.2","data":{"bikes":[{"bike_id":"7db0be04-a532-468b-902a-7b5fe08e94a8","system_id":"levelo_inurba_marseille","lat":43.31223,"lon":5.36856,"is_reserved":false,"is_disabled":false,"rental_uris":{"android":"levelo://app?vid=7db0be04-a532-468b-902a-7b5fe08e94a8","ios":"levelo://app?vid=7db0be04-a532-468b-902a-7b5fe08e94a8"},"vehicle_type_id":"4","last_reported":1768998491,"current_range_meters":2800,"station_id":"ce4bgl92rcd13ifvqbq0","pricing_plan_id":"cebpf4jnsgd1na2vs0mg"},{"bike_id":"9c94dc2e-96d0-4731-bf64-626d3181b58a","system_id":"levelo_inurba_marseille","lat":43.26682,"lon":5.38265,"is_reserved":false,"is_disabled":false,"rental_uris":{"android":"levelo://app?vid=9c94dc2e-96d0-4731-bf64-626d3181b58a","ios":"levelo://app?vid=9c94dc2e-96d0-4731-bf64-626d3181b58a"},"vehicle_type_id":"4","last_reported":1768998491,"current_range_meters":2800,"station_id":"ce4bhg92rcd13ifvqf90","pricing_plan_id":"cebpf4jnsgd1na2vs0mg"},{"bike_id":"f91fafdf-4beb-4f47-9e7a-8b26cea83a19","system_id":"levelo_inurba_marseille","lat":43.28034,"lon":5.3694,"is_reserved":false,"is_disabled":false,"rental_uris":{"android":"levelo://app?vid=f91fafdf-4beb-4f47-9e7a-8b26cea83a19","ios":"levelo://app?vid=f91fafdf-4beb-4f47-9e7a-8b26cea83a19"},"vehicle_type_id":"4","last_reported":1768998491,"current_range_meters":2800,"station_id":"ce4bha12rcd13ifvqef0","pricing_plan_id":"cebpf4jnsgd1na2vs0mg"},{"bike_id":"a89da980-36be-4958-9aa0-4e1f42aab655","system_id":"levelo_inurba_marseille","lat":43.24998,"lon":5.38935,"is_reserved":false,"is_disabled":false,"rental_uris":{"android":"levelo://app?vid=a89da980-36be-4958-9aa0-4e1f42aab655","ios":"levelo://app?vid=a89da980-36be-4958-9aa0-4e1f42aab655"},"vehicle_type_id":"4","last_reported":1768998491,"current_range_meters":2800,"station_id":"ce4bhgp2rcd13ifvqfd0","pricing_plan_id":"cebpf4jnsgd1na2vs0mg"},{"bike_id":"1af80c1a-b0d4-4c2c-abaf-c31326f7004a","system_id":"levelo_inurba_marseille","lat":43.28032,"lon":5.36941,"is_reserved":false,"is_disabled":false,"rental_uris":{"android":"levelo://app?vid=1af80c1a-b0d4-4c2c-abaf-c31326f7004a","ios":"levelo://app?vid=1af80c1a-b0d4-4c2c-abaf-c31326f7004a"},"vehicle_type_id":"4","last_reported":1768998491,"current_range_meters":2800,"station_id":"ce4bha12rcd13ifvqef0","pricing_plan_id":"cebpf4jnsgd1na2vs0mg"},{"bike_id":"f6daaaf2-4477-4f37-9800-a0a36038e36e","system_id":"levelo_inurba_marseille","lat":43.30296,"lon":5.39208,"is_reserved":false,"is_disabled":false,"rental_uris":{"android":"levelo://app?vid=f6daaaf2-4477-4f37-9800-a0a36038e36e","ios":"levelo://app?vid=f6daaaf2-4477-4f37-9800-a0a36038e36e"},"vehicle_type_id":"4","last_reported":1768998491,"current_range_meters":2800,"station_id":"ce4bgkh2rcd13ifvqbk0","pricing_plan_id":"cebpf4jnsgd1na2vs0mg"},{"bike_id":"eba35bf4-5c62-460a-a13b-00402f0f2ba9","system_id":"levelo_inurba_marseille","lat":43.30735,"lon":5.42448,"is_reserved":false,"is_disabled":false,"rental_uris":{"android":"levelo://app?vid=eba35bf4-5c62-460a-a13b-00402f0f2ba9","ios":"levelo://app?vid=eba35bf4-5c62-460a-a13b-00402f0f2ba9"},"vehicle_type_id":"4","last_reported":1768998491,"current_range_meters":2800,"station_id":"st_cvj6ca6bvosntc0bfgr0","pricing_plan_id":"cebpf4jnsgd1na2vs0mg"},{"bike_id":"4d9fb050-4361-4bab-ba3c-960b4264587c","system_id":"levelo_inurba_marseille","lat":43.32593,"lon":5.37876,"is_reserved":false,"is_disabled":false,"rental_uris":{"android":"levelo://app?vid=4d9fb050-4361-4bab-ba3c-960b4264587c","ios":"levelo://app?vid=4d9fb050-4361-4bab-ba3c-960b4264587c"},"vehicle_type_id":"4","last_reported":1768998491,"current_range_meters":2800,"station_id":"","pricing_plan_id":"cebpf4jnsgd1na2vs0mg"},{"bike_id":"fd3a3f8e-1b61-4abf-8d57-ae23a02dc58c","system_id":"levelo_inurba_marseille","lat":43.276695,"lon":5.388804,"is_reserved":false,"is_disabled":false,"rental_uris":{"android":"levelo://app?vid=fd3a3f8e-1b61-4abf-8d57-ae23a02dc58c","ios":"levelo://app?vid=fd3a3f8e-1b61-4abf-8d57-ae23a02dc58c"},"vehicle_type_id":"4","last_reported":1768998491,"current_range_meters":2800,"station_id":"ce4bhi12rcd13ifvqfo0","pricing_plan_id":"cebpf4jnsgd1na2vs0mg"},{"bike_id":"0d29d4c9-95a8-47dd-b130-0b89ff1f9b9b","system_id":"levelo_inurba_marseille","lat":43.2417,"lon":5.36393,"is_reserved":false,"is_disabled":false,"rental_uris":{"android":"levelo://app?vid=0d29d4c9-95a8-47dd-b130-0b89ff1f9b9b","ios":"levelo://app?vid=0d29d4c9-95a8-47dd-b130-0b89ff1f9b9b"},"vehicle_type_id":"4","last_reported":1768998491,"current_range_meters":2800,"station_id":"cpo36qri1sfpv3e86is0","pricing_plan_id":"cebpf4jnsgd1na2vs0mg"},{"bike_id":"c01a2081-77b9-4bca-a28c-0a50c35491c9","system_id":"levelo_inurba_marseille","lat":43.29757,"lon":5.42787,"is_reserved":false,"is_disabled":false,"rental_uris":{"android":"levelo://app?vid=c01a2081-77b9-4bca-a28c-0a50c35491c9","ios":"levelo://app?vid=c01a2081-77b9-4bca-a28c-0a50c35491c9"},"vehicle_type_id":"4","last_reported":1768998491,"current_range_meters":3200,"station_id":"st_d3md5207bmas73dh9klg","pricing_plan_id":"cebpf4jnsgd1na2vs0mg"},{"bike_id":"67ff9a75-4fe8-45e7-914d-fc416a457597","system_id":"levelo_inurba_marseille","lat":43.32104,"lon":5.36774,"is_reserved":false,"is_disabled":false,"rental_uris":{"android":"levelo://app?vid=67ff9a75-4fe8-45e7-914d-fc416a457597","ios":"levelo://app?vid=67ff9a75-4fe8-45e7-914d-fc416a457597"},"vehicle_type_id":"4","last_reported":1768998491,"current_range_meters":3200,"station_id":"ce4bhrh2rcd13ifvqhug","pricing_plan_id":"cebpf4jnsgd1na2vs0mg"},{"bike_id":"c90f8d49-c464-4abb-b50f-a6f2833250ba","system_id":"levelo_inurba_marseille","lat":43.26069,"lon":5.39398,"is_reserved":false,"is_disabled":false,"rental_uris":{"android":"levelo://app?vid=c90f8d49-c464-4abb-b50f-a6f2833250ba","ios":"levelo://app?vid=c90f8d49-c464-4abb-b50f-a6f2833250ba"},"vehicle_type_id":"4","last_reported":1768998491,"current_range_meters":3200,"station_id":"ce4bhh92rcd13ifvqfj0","pricing_plan_id":"cebpf4jnsgd1na2vs0mg"},{"bike_id":"c2deccf4-cb65-45a1-9538-7937c634d5aa","system_id":"levelo_inurba_marseille","lat":43.269583,"lon":5.386248,"is_reserved":false,"is_disabled":false,"rental_uris":{"android":"levelo://app?vid=c2deccf4-cb65-45a1-9538-7937c634d5aa","ios":"levelo://app?vid=c2deccf4-cb65-45a1-9538-7937c634d5aa"},"vehicle_type_id":"4","last_reported":1768998491,"current_range_meters":3200,"station_id":"ce4bhh92rcd13ifvqfh0","pricing_plan_id":"cebpf4jnsgd1na2vs0mg"},{"bike_id":"fbbedfeb-5767-4a40-9eeb-fb558ba05242","system_id":"levelo_inurba_marseille","lat":43.24994,"lon":5.389419,"is_reserved":false,"is_disabled":false,"rental_uris":{"android":"levelo://app?vid=fbbedfeb-5767-4a40-9eeb-fb558ba05242","ios":"levelo://app?vid=fbbedfeb-5767-4a40-9eeb-fb558ba05242"},"vehicle_type_id":"4","last_reported":1768998491,"current_range_meters":3200,"station_id":"ce4bhgp2rcd13ifvqfd0","pricing_plan_id":"cebpf4jnsgd1na2vs0mg"},{"bike_id":"13e68844-984d-480e-98cc-d0701f689c57","system_id":"levelo_inurba_marseille","lat":43.25823,"lon":5.39442,"is_reserved":false,"is_disabled":false,"rental_uris":{"android":"levelo://app?vid=13e68844-984d-480e-98cc-d0701f689c57","ios":"levelo://app?vid=13e68844-984d-480e-98cc-d0701f689c57"},"vehicle_type_id":"4","last_reported":1768998491,"current_range_meters":3200,"station_id":"ce4bhip2rcd13ifvqft0","pricing_plan_id":"cebpf4jnsgd1na2vs0mg"},{"bike_id":"9f1f7870-6657-49b4-805f-362b36e89ae8","system_id":"levelo_inurba_marseille","lat":43.27805,"lon":5.40707,"is_reserved":false,"is_disabled":false,"rental_uris":{"android":"levelo://app?vid=9f1f7870-6657-49b4-805f-362b36e89ae8","ios":"levelo://app?vid=9f1f7870-6657-49b4-805f-362b36e89ae8"},"vehicle_type_id":"4","last_reported":1768998491,"current_range_meters":3200,"station_id":"ce4bhnh2rcd13ifvqgtg","pricing_plan_id":"cebpf4jnsgd1na2vs0mg"},{"bike_id":"ce65da15-5103-4c08-86e5-b4783ea2b238","system_id":"levelo_inurba_marseille","lat":43.29313,"lon":5.37181,"is_reserved":false,"is_disabled":false,"rental_uris":{"android":"levelo://app?vid=ce65da15-5103-4c08-86e5-b4783ea2b238","ios":"levelo://app?vid=ce65da15-5103-4c08-86e5-b4783ea2b238"},"vehicle_type_id":"4","last_reported":1768998491,"current_range_meters":3200,"station_id":"ce4bgh92rcd13ifvqb40","pricing_plan_id":"cebpf4jnsgd1na2vs0mg"},{"bike_id":"5d6ec190-4e3f-4728-8145-239caf53150f","system_id":"levelo_inurba_marseille","lat":43.30686,"lon":5.40291,"is_reserved":false,"is_disabled":false,"rental_uris":{"android":"levelo://app?vid=5d6ec190-4e3f-4728-8145-239caf53150f","ios":"levelo://app?vid=5d6ec190-4e3f-4728-8145-239caf53150f"},"vehicle_type_id":"4","last_reported":1768998491,"current_range_meters":3200,"station_id":"","pricing_plan_id":"cebpf4jnsgd1na2vs0mg"},{"bike_id":"31096d93-1491-4886-84da-d02432ca2a62","system_id":"levelo_inurba_marseille","lat":43.2415,"lon":5.36401,"is_reserved":false,"is_disabled":false,"rental_uris":{"android":"levelo://app?vid=31096d93-1491-4886-84da-d02432ca2a62","ios":"levelo://app?vid=31096d93-1491-4886-84da-d02432ca2a62"},"vehicle_type_id":"4","last_reported":1768998491,"current_range_meters":3200,"station_id":"cpo36qri1sfpv3e86is0","pricing_plan_id":"cebpf4jnsgd1na2vs0mg"},{"bike_id":"627dbf1f-0919-45a7-a8b9-d0e95e16ab30","system_id":"levelo_inurba_marseille","lat":43.29565,"lon":5.37525,"is_reserved":false,"is_disabled":false,"rental_uris":{"android":"levelo://app?vid=627dbf1f-0919-45a7-a8b9-d0e95e16ab30","ios":"levelo://app?vid=627dbf1f-0919-45a7-a8b9-d0e95e16ab30"},"vehicle_type_id":"4","last_reported":1768998491,"current_range_meters":3600,"station_id":"ce4bgh92rcd13ifvqb50","pricing_plan_id":"cebpf4jnsgd1na2vs0mg"},{"bike_id":"d2cb0070-0422-466b-b462-1892f78475a2","system_id":"levelo_inurba_marseille","lat":43.22922,"lon":5.35374,"is_reserved":false,"is_disabled":true,"rental_uris":{"android":"levelo://app?vid=d2cb0070-0422-466b-b462-1892f78475a2","ios":"levelo://app?vid=d2cb0070-0422-466b-b462-1892f78475a2"},"vehicle_type_id":"4","last_reported":1768998491,"current_range_meters":3600,"station_id":"cpo3532slgdg3j2ikp40","pricing_plan_id":"cebpf4jnsgd1na2vs0mg"},{"bike_id":"52c85b02-607c-4226-bd7b-fd246dd2dae8","system_id":"levelo_inurba_marseille","lat":43.22555,"lon":5.41637,"is_reserved":false,"is_disabled":false,"rental_uris":{"android":"levelo://app?vid=52c85b02-607c-4226-bd7b-fd246dd2dae8","ios":"levelo://app?vid=52c85b02-607c-4226-bd7b-fd246dd2dae8"},"vehicle_type_id":"4","last_reported":1768998491,"current_range_meters":3600,"station_id":"st_d2o4gvlbi1j2169b742g","pricing_plan_id":"cebpf4jnsgd1na2vs0mg"},{"bike_id":"52a8e2dc-a331-438b-8cd8-653c6d5644ae","system_id":"levelo_inurba_marseille","lat":43.27925,"lon":5.38292,"is_reserved":false,"is_disabled":false,"rental_uris":{"android":"levelo://app?vid=52a8e2dc-a331-438b-8cd8-653c6d5644ae","ios":"levelo://app?vid=52a8e2dc-a331-438b-8cd8-653c6d5644ae"},"vehicle_type_id":"4","last_reported":1768998491,"current_range_meters":3600,"station_id":"","pricing_plan_id":"cebpf4jnsgd1na2vs0mg"},{"bike_id":"ab8f0e9e-82c0-4cd4-ae4a-73fe86db6b63","system_id":"levelo_inurba_marseille","lat":43.30142,"lon":5.38083,"is_reserved":false,"is_disabled":false,"rental_uris":{"android":"levelo://app?vid=ab8f0e9e-82c0-4cd4-ae4a-73fe86db6b63","ios":"levelo://app?vid=ab8f0e9e-82c0-4cd4-ae4a-73fe86db6b63"},"vehicle_type_id":"4","last_reported":1768998491,"current_range_meters":3600,"station_id":"ce4bgjp2rcd13ifvqbh0","pricing_plan_id":"cebpf4jnsgd1na2vs0mg"},{"bike_id":"4730ac5c-64de-49aa-82c1-159fded22752","system_id":"levelo_inurba_marseille","lat":43.2463,"lon":5.43156,"is_reserved":false,"is_disabled":false,"rental_uris":{"android":"levelo://app?vid=4730ac5c-64de-49aa-82c1-159fded22752","ios":"levelo://app?vid=4730ac5c-64de-49aa-82c1-159fded22752"},"vehicle_type_id":"4","last_reported":1768998491,"current_range_meters":3600,"station_id":"st_d2m6c4gdas8pm72e190g","pricing_plan_id":"cebpf4jnsgd1na2vs0mg"},{"bike_id":"91876447-e099-4f67-b082-cb9738d8353a","system_id":"levelo_inurba_marseille","lat":43.28852,"lon":5.35859,"is_reserved":false,"is_disabled":false,"rental_uris":{"android":"levelo://app?vid=91876447-e099-4f67-b082-cb9738d8353a","ios":"levelo://app?vid=91876447-e099-4f67-b082-cb9738d8353a"},"vehicle_type_id":"4","last_reported":1768998491,"current_range_meters":3600,"station_id":"ce4bhb12rcd13ifvqem0","pricing_plan_id":"cebpf4jnsgd1na2vs0mg"},{"bike_id":"f9c756b7-6ab4-4842-b242-46f06e32e85d","system_id":"levelo_inurba_marseille","lat":43.27993,"lon":5.40023,"is_reserved":false,"is_disabled":false,"rental_uris":{"android":"levelo://app?vid=f9c756b7-6ab4-4842-b242-46f06e32e85d","ios":"levelo://app?vid=f9c756b7-6ab4-4842-b242-46f06e32e85d"},"vehicle_type_id":"4","last_reported":1768998491,"current_range_meters":4000,"station_id":"ce4bho92rcd13ifvqh4g","pricing_plan_id":"cebpf4jnsgd1na2vs0mg"},{"bike_id":"780ec5ee-3a9f-429a-b3e1-83652545a390","system_id":"levelo_inurba_marseille","lat":43.29262,"lon":5.38445,"is_reserved":false,"is_disabled":false,"rental_uris":{"android":"levelo://app?vid=780ec5ee-3a9f-429a-b3e1-83652545a390","ios":"levelo://app?vid=780ec5ee-3a9f-429a-b3e1-83652545a390"},"vehicle_type_id":"4","last_reported":1768998491,"current_range_meters":4000,"station_id":"ce4bh692rcd13ifvqea0","pricing_plan_id":"cebpf4jnsgd1na2vs0mg"},{"bike_id":"f58dc067-4dd9-4635-8ae5-365aced9c977","system_id":"levelo_inurba_marseille","lat":43.2622,"lon":5.40444,"is_reserved":false,"is_disabled":false,"rental_uris":{"android":"levelo://app?vid=f58dc067-4dd9-4635-8ae5-365aced9c977","ios":"levelo://app?vid=f58dc067-4dd9-4635-8ae5-365aced9c977"},"vehicle_type_id":"4","last_reported":1768998491,"current_range_meters":4000,"station_id":"ce4bhmh2rcd13ifvqgmg","pricing_plan_id":"cebpf4jnsgd1na2vs0mg"},{"bike_id":"8794cdb3-b07a-4a6a-b8a7-d49e68bcc2e0","system_id":"levelo_inurba_marseille","lat":43.27803,"lon":5.40703,"is_reserved":false,"is_disabled":false,"rental_uris":{"android":"levelo://app?vid=8794cdb3-b07a-4a6a-b8a7-d49e68bcc2e0","ios":"levelo://app?vid=8794cdb3-b07a-4a6a-b8a7-d49e68bcc2e0"},"vehicle_type_id":"4","last_reported":1768998491,"current_range_meters":4000,"station_id":"ce4bhnh2rcd13ifvqgtg","pricing_plan_id":"cebpf4jnsgd1na2vs0mg"},{"bike_id":"10483c0a-1726-407f-8492-2530493c0d67","system_id":"levelo_inurba_marseille","lat":43.25013,"lon":5.38918,"is_reserved":false,"is_disabled":false,"rental_uris":{"android":"levelo://app?vid=10483c0a-1726-407f-8492-2530493c0d67","ios":"levelo://app?vid=10483c0a-1726-407f-8492-2530493c0d67"},"vehicle_type_id":"4","last_reported":1768998491,"current_range_meters":4000,"station_id":"ce4bhgp2rcd13ifvqfd0","pricing_plan_id":"cebpf4jnsgd1na2vs0mg"},{"bike_id":"56aebe64-5e14-40af-99f2-62c233e94a99","system_id":"levelo_inurba_marseille","lat":43.297202,"lon":5.38736,"is_reserved":false,"is_disabled":false,"rental_uris":{"android":"levelo://app?vid=56aebe64-5e14-40af-99f2-62c233e94a99","ios":"levelo://app?vid=56aebe64-5e14-40af-99f2-62c233e94a99"},"vehicle_type_id":"4","last_reported":1768998491,"current_range_meters":4000,"station_id":"","pricing_plan_id":"cebpf4jnsgd1na2vs0mg"},{"bike_id":"5d8d5d3f-1fe4-4527-8d1b-a00bfbbe312f","system_id":"levelo_inurba_marseille","lat":43.24391,"lon":5.37069,"is_reserved":false,"is_disabled":false,"rental_uris":{"android":"levelo://app?vid=5d8d5d3f-1fe4-4527-8d1b-a00bfbbe312f","ios":"levelo://app?vid=5d8d5d3f-1fe4-4527-8d1b-a00bfbbe312f"},"vehicle_type_id":"4","last_reported":1768998491,"current_range_meters":4000,"station_id":"ce4bhhh2rcd13ifvqfk0","pricing_plan_id":"cebpf4jnsgd1na2vs0mg"},{"bike_id":"5c5d8eba-7ee4-4e8f-8c15-5f2384fc7801","system_id":"levelo_inurba_marseille","lat":43.29929,"lon":5.36549,"is_reserved":false,"is_disabled":false,"rental_uris":{"android":"levelo://app?vid=5c5d8eba-7ee4-4e8f-8c15-5f2384fc7801","ios":"levelo://app?vid=5c5d8eba-7ee4-4e8f-8c15-5f2384fc7801"},"vehicle_type_id":"4","last_reported":1768998491,"current_range_meters":4000,"station_id":"ce4bgm92rcd13ifvqbr0","pricing_plan_id":"cebpf4jnsgd1na2vs0mg"},{"bike_id":"15323a66-193b-4084-987d-2a29bba519f3","system_id":"levelo_inurba_marseille","lat":43.30119,"lon":5.4312,"is_reserved":false,"is_disabled":false,"rental_uris":{"android":"levelo://app?vid=15323a66-193b-4084-987d-2a29bba519f3","ios":"levelo://app?vid=15323a66-193b-4084-987d-2a29bba519f3"},"vehicle_type_id":"4","last_reported":1768998491,"current_range_meters":4000,"station_id":"st_d3js3co5814s73ftftug","pricing_plan_id":"cebpf4jnsgd1na2vs0mg"},{"bike_id":"9dff9bae-d519-49ab-850f-a6b93762d1fc","system_id":"levelo_inurba_marseille","lat":43.2534,"lon":5.42178,"is_reserved":false,"is_disabled":false,"rental_uris":{"android":"levelo://app?vid=9dff9bae-d519-49ab-850f-a6b93762d1fc","ios":"levelo://app?vid=9dff9bae-d519-49ab-850f-a6b93762d1fc"},"vehicle_type_id":"4","last_reported":1768998491,"current_range_meters":4000,"station_id":"st_d2m65c5bi1j21697t3ng","pricing_plan_id":"cebpf4jnsgd1na2vs0mg"},{"bike_id":"4b68c0f2-a098-4371-9aa9-73b5399ef6fa","system_id":"levelo_inurba_marseille","lat":43.255789,"lon":5.382273,"is_reserved":false,"is_disabled":false,"rental_uris":{"android":"levelo://app?vid=4b68c0f2-a098-4371-9aa9-73b5399ef6fa","ios":"levelo://app?vid=4b68c0f2-a098-4371-9aa9-73b5399ef6fa"},"vehicle_type_id":"4","last_reported":1768998491,"current_range_meters":4000,"station_id":"ce4bhih2rcd13ifvqfs0","pricing_plan_id":"cebpf4jnsgd1na2vs0mg"},{"bike_id":"36d5dc57-c991-4b46-b209-ebe4525537c8","system_id":"levelo_inurba_marseille","lat":43.29569,"lon":5.37513,"is_reserved":false,"is_disabled":false,"rental_uris":{"android":"levelo://app?vid=36d5dc57-c991-4b46-b209-ebe4525537c8","ios":"levelo://app?vid=36d5dc57-c991-4b46-b209-ebe4525537c8"},"vehicle_type_id":"4","last_reported":1768998491,"current_range_meters":4400,"station_id":"ce4bgh92rcd13ifvqb50","pricing_plan_id":"cebpf4jnsgd1na2vs0mg"},{"bike_id":"bd531886-670a-42a0-9612-b4af39dae082","system_id":"levelo_inurba_marseille","lat":43.27957,"lon":5.3874,"is_reserved":false,"is_disabled":false,"rental_uris":{"android":"levelo://app?vid=bd531886-670a-42a0-9612-b4af39dae082","ios":"levelo://app?vid=bd531886-670a-42a0-9612-b4af39dae082"},"vehicle_type_id":"4","last_reported":1768998491,"current_range_meters":4400,"station_id":"ce4bhg12rcd13ifvqf80","pricing_plan_id":"cebpf4jnsgd1na2vs0mg"},{"bike_id":"93c7a025-127d-40b2-862c-98919fbc02da","system_id":"levelo_inurba_marseille","lat":43.23183,"lon":5.39978,"is_reserved":false,"is_disabled":false,"rental_uris":{"android":"levelo://app?vid=93c7a025-127d-40b2-862c-98919fbc02da","ios":"levelo://app?vid=93c7a025-127d-40b2-862c-98919fbc02da"},"vehicle_type_id":"4","last_reported":1768998491,"current_range_meters":4400,"station_id":"ce4bhn12rcd13ifvqgqg","pricing_plan_id":"cebpf4jnsgd1na2vs0mg"},{"bike_id":"60c977f0-6fe4-4ffb-8349-88cc64943172","system_id":"levelo_inurba_marseille","lat":43.30256,"lon":5.40053,"is_reserved":false,"is_disabled":false,"rental_uris":{"android":"levelo://app?vid=60c977f0-6fe4-4ffb-8349-88cc64943172","ios":"levelo://app?vid=60c977f0-6fe4-4ffb-8349-88cc64943172"},"vehicle_type_id":"4","last_reported":1768998491,"current_range_meters":4400,"station_id":"ce4bgvh2rcd13ifvqcs0","pricing_plan_id":"cebpf4jnsgd1na2vs0mg"},{"bike_id":"35eb0f0f-42a8-4fd5-956e-bec6aa3f7ee3","system_id":"levelo_inurba_marseille","lat":43.231788,"lon":5.399988,"is_reserved":false,"is_disabled":false,"rental_uris":{"android":"levelo://app?vid=35eb0f0f-42a8-4fd5-956e-bec6aa3f7ee3","ios":"levelo://app?vid=35eb0f0f-42a8-4fd5-956e-bec6aa3f7ee3"},"vehicle_type_id":"4","last_reported":1768998491,"current_range_meters":4400,"station_id":"ce4bhn12rcd13ifvqgqg","pricing_plan_id":"cebpf4jnsgd1na2vs0mg"},{"bike_id":"342d70b7-1c6c-4346-a813-5ef14c2baf8a","system_id":"levelo_inurba_marseille","lat":43.29194,"lon":5.39334,"is_reserved":false,"is_disabled":false,"rental_uris":{"android":"levelo://app?vid=342d70b7-1c6c-4346-a813-5ef14c2baf8a","ios":"levelo://app?vid=342d70b7-1c6c-4346-a813-5ef14c2baf8a"},"vehicle_type_id":"4","last_reported":1768998491,"current_range_meters":4400,"station_id":"ce4bh192rcd13ifvqdd0","pricing_plan_id":"cebpf4jnsgd1na2vs0mg"},{"bike_id":"05445378-8a5d-473e-a02e-3796d63a29c8","system_id":"levelo_inurba_marseille","lat":43.26388,"lon":5.41059,"is_reserved":false,"is_disabled":false,"rental_uris":{"android":"levelo://app?vid=05445378-8a5d-473e-a02e-3796d63a29c8","ios":"levelo://app?vid=05445378-8a5d-473e-a02e-3796d63a29c8"},"vehicle_type_id":"4","last_reported":1768998491,"current_range_meters":4400,"station_id":"st_d4e5ca6na9uc73bfl5fg","pricing_plan_id":"cebpf4jnsgd1na2vs0mg"},{"bike_id":"ae82840e-6713-4278-be7e-382935799675","system_id":"levelo_inurba_marseille","lat":43.32355,"lon":5.38527,"is_reserved":false,"is_disabled":false,"rental_uris":{"android":"levelo://app?vid=ae82840e-6713-4278-be7e-382935799675","ios":"levelo://app?vid=ae82840e-6713-4278-be7e-382935799675"},"vehicle_type_id":"4","last_reported":1768998491,"current_range_meters":4400,"station_id":"st_d45171o9ee8s73djdqug","pricing_plan_id":"cebpf4jnsgd1na2vs0mg"},{"bike_id":"8155f86b-6d64-4287-9ed7-7fbe9d103dde","system_id":"levelo_inurba_marseille","lat":43.2256,"lon":5.41623,"is_reserved":false,"is_disabled":false,"rental_uris":{"android":"levelo://app?vid=8155f86b-6d64-4287-9ed7-7fbe9d103dde","ios":"levelo://app?vid=8155f86b-6d64-4287-9ed7-7fbe9d103dde"},"vehicle_type_id":"4","last_reported":1768998491,"current_range_meters":4400,"station_id":"st_d2o4gvlbi1j2169b742g","pricing_plan_id":"cebpf4jnsgd1na2vs0mg"},{"bike_id":"c9632c24-d4ba-453f-a643-952c5a012a8a","system_id":"levelo_inurba_marseille","lat":43.22566,"lon":5.41615,"is_reserved":false,"is_disabled":false,"rental_uris":{"android":"levelo://app?vid=c9632c24-d4ba-453f-a643-952c5a012a8a","ios":"levelo://app?vid=c9632c24-d4ba-453f-a643-952c5a012a8a"},"vehicle_type_id":"4","last_reported":1768998491,"current_range_meters":4800,"station_id":"st_d2o4gvlbi1j2169b742g","pricing_plan_id":"cebpf4jnsgd1na2vs0mg"},{"bike_id":"04d1fa74-7078-4e54-86c0-c9d3f7b08c45","system_id":"levelo_inurba_marseille","lat":43.25579,"lon":5.38242,"is_reserved":false,"is_disabled":false,"rental_uris":{"android":"levelo://app?vid=04d1fa74-7078-4e54-86c0-c9d3f7b08c45","ios":"levelo://app?vid=04d1fa74-7078-4e54-86c0-c9d3f7b08c45"},"vehicle_type_id":"4","last_reported":1768998491,"current_range_meters":4800,"station_id":"ce4bhih2rcd13ifvqfs0","pricing_plan_id":"cebpf4jnsgd1na2vs0mg"},{"bike_id":"ff420292-33a4-47f1-b129-ae45e1e7b7ea","system_id":"levelo_inurba_marseille","lat":43.29203,"lon":5.36066,"is_reserved":false,"is_disabled":false,"rental_uris":{"android":"levelo://app?vid=ff420292-33a4-47f1-b129-ae45e1e7b7ea","ios":"levelo://app?vid=ff420292-33a4-47f1-b129-ae45e1e7b7ea"},"vehicle_type_id":"4","last_reported":1768998491,"current_range_meters":4800,"station_id":"ce4bhbh2rcd13ifvqeqg","pricing_plan_id":"cebpf4jnsgd1na2vs0mg"},{"bike_id":"99d36ae9-5092-4bee-8cd2-6d3ff1e4bf9e","system_id":"levelo_inurba_marseille","lat":43.311121,"lon":5.384334,"is_reserved":false,"is_disabled":false,"rental_uris":{"android":"levelo://app?vid=99d36ae9-5092-4bee-8cd2-6d3ff1e4bf9e","ios":"levelo://app?vid=99d36ae9-5092-4bee-8cd2-6d3ff1e4bf9e"},"vehicle_type_id":"4","last_reported":1768998491,"current_range_meters":4800,"station_id":"ce4bgv92rcd13ifvqcr0","pricing_plan_id":"cebpf4jnsgd1na2vs0mg"},{"bike_id":"796b2cb4-5d78-44fd-bb54-6e6749ebae45","system_id":"levelo_inurba_marseille","lat":43.28004,"lon":5.41656,"is_reserved":false,"is_disabled":false,"rental_uris":{"android":"levelo://app?vid=796b2cb4-5d78-44fd-bb54-6e6749ebae45","ios":"levelo://app?vid=796b2cb4-5d78-44fd-bb54-6e6749ebae45"},"vehicle_type_id":"4","last_reported":1768998491,"current_range_meters":4800,"station_id":"ce4bho12rcd13ifvqh1g","pricing_plan_id":"cebpf4jnsgd1na2vs0mg"},{"bike_id":"4eb65647-d6b4-459f-956c-bbf8516fc1cf","system_id":"levelo_inurba_marseille","lat":43.30297,"lon":5.39201,"is_reserved":false,"is_disabled":false,"rental_uris":{"android":"levelo://app?vid=4eb65647-d6b4-459f-956c-bbf8516fc1cf","ios":"levelo://app?vid=4eb65647-d6b4-459f-956c-bbf8516fc1cf"},"vehicle_type_id":"4","last_reported":1768998491,"current_range_meters":4800,"station_id":"ce4bgkh2rcd13ifvqbk0","pricing_plan_id":"cebpf4jnsgd1na2vs0mg"},{"bike_id":"49c677e4-5dd3-4007-a654-3225657fb064","system_id":"levelo_inurba_marseille","lat":43.276687,"lon":5.388756,"is_reserved":false,"is_disabled":false,"rental_uris":{"android":"levelo://app?vid=49c677e4-5dd3-4007-a654-3225657fb064","ios":"levelo://app?vid=49c677e4-5dd3-4007-a654-3225657fb064"},"vehicle_type_id":"4","last_reported":1768998491,"current_range_meters":4800,"station_id":"ce4bhi12rcd13ifvqfo0","pricing_plan_id":"cebpf4jnsgd1na2vs0mg"},{"bike_id":"06b55bb1-0cad-4cf7-ad4f-fcec9527ae13","system_id":"levelo_inurba_marseille","lat":43.24678,"lon":5.38145,"is_reserved":false,"is_disabled":false,"rental_uris":{"android":"levelo://app?vid=06b55bb1-0cad-4cf7-ad4f-fcec9527ae13","ios":"levelo://app?vid=06b55bb1-0cad-4cf7-ad4f-fcec9527ae13"},"vehicle_type_id":"4","last_reported":1768998491,"current_range_meters":4800,"station_id":"ce4bhih2rcd13ifvqfr0","pricing_plan_id":"cebpf4jnsgd1na2vs0mg"},{"bike_id":"66160d64-23f9-4d70-b989-daa254cf260e","system_id":"levelo_inurba_marseille","lat":43.28155,"lon":5.4265,"is_reserved":false,"is_disabled":true,"rental_uris":{"android":"levelo://app?vid=66160d64-23f9-4d70-b989-daa254cf260e","ios":"levelo://app?vid=66160d64-23f9-4d70-b989-daa254cf260e"},"vehicle_type_id":"4","last_reported":1768998491,"current_range_meters":4800,"station_id":"ce4bhnh2rcd13ifvqgug","pricing_plan_id":"cebpf4jnsgd1na2vs0mg"},{"bike_id":"f28dab8c-22b5-43d8-96b4-ff15ffb80192","system_id":"levelo_inurba_marseille","lat":43.29744,"lon":5.4278,"is_reserved":false,"is_disabled":false,"rental_uris":{"android":"levelo://app?vid=f28dab8c-22b5-43d8-96b4-ff15ffb80192","ios":"levelo://app?vid=f28dab8c-22b5-43d8-96b4-ff15ffb80192"},"vehicle_type_id":"4","last_reported":1768998491,"current_range_meters":4800,"station_id":"st_d3md5207bmas73dh9klg","pricing_plan_id":"cebpf4jnsgd1na2vs0mg"},{"bike_id":"29084be8-d62f-4c30-a971-523598e20afa","system_id":"levelo_inurba_marseille","lat":43.24672,"lon":5.3815,"is_reserved":false,"is_disabled":false,"rental_uris":{"android":"levelo://app?vid=29084be8-d62f-4c30-a971-523598e20afa","ios":"levelo://app?vid=29084be8-d62f-4c30-a971-523598e20afa"},"vehicle_type_id":"4","last_reported":1768998491,"current_range_meters":4800,"station_id":"ce4bhih2rcd13ifvqfr0","pricing_plan_id":"cebpf4jnsgd1na2vs0mg"},{"bike_id":"2cf1ea64-26bb-4964-939a-03465aee6659","system_id":"levelo_inurba_marseille","lat":43.22555,"lon":5.41639,"is_reserved":false,"is_disabled":false,"rental_uris":{"android":"levelo://app?vid=2cf1ea64-26bb-4964-939a-03465aee6659","ios":"levelo://app?vid=2cf1ea64-26bb-4964-939a-03465aee6659"},"vehicle_type_id":"4","last_reported":1768998491,"current_range_meters":4800,"station_id":"st_d2o4gvlbi1j2169b742g","pricing_plan_id":"cebpf4jnsgd1na2vs0mg"},{"bike_id":"70c4dff7-2a4a-497f-87c5-b875ff1b597a","system_id":"levelo_inurba_marseille","lat":43.26547,"lon":5.37289,"is_reserved":false,"is_disabled":false,"rental_uris":{"android":"levelo://app?vid=70c4dff7-2a4a-497f-87c5-b875ff1b597a","ios":"levelo://app?vid=70c4dff7-2a4a-497f-87c5-b875ff1b597a"},"vehicle_type_id":"4","last_reported":1768998491,"current_range_meters":4800,"station_id":"ce4bhg12rcd13ifvqf70","pricing_plan_id":"cebpf4jnsgd1na2vs0mg"},{"bike_id":"86976cc9-5276-4e95-9375-f92333a066fe","system_id":"levelo_inurba_marseille","lat":43.28444,"lon":5.39204,"is_reserved":false,"is_disabled":false,"rental_uris":{"android":"levelo://app?vid=86976cc9-5276-4e95-9375-f92333a066fe","ios":"levelo://app?vid=86976cc9-5276-4e95-9375-f92333a066fe"},"vehicle_type_id":"4","last_reported":1768998491,"current_range_meters":5600,"station_id":"ce4bhoh2rcd13ifvqh5g","pricing_plan_id":"cebpf4jnsgd1na2vs0mg"},{"bike_id":"a53ce889-7f48-423c-a39a-8f7e906a512a","system_id":"levelo_inurba_marseille","lat":43.26706,"lon":5.38263,"is_reserved":false,"is_disabled":false,"rental_uris":{"android":"levelo://app?vid=a53ce889-7f48-423c-a39a-8f7e906a512a","ios":"levelo://app?vid=a53ce889-7f48-423c-a39a-8f7e906a512a"},"vehicle_type_id":"4","last_reported":1768998491,"current_range_meters":5600,"station_id":"ce4bhg92rcd13ifvqf90","pricing_plan_id":"cebpf4jnsgd1na2vs0mg"},{"bike_id":"a3e2caaf-f379-45ac-a2b8-d61c1da080dd","system_id":"levelo_inurba_marseille","lat":43.32498,"lon":5.38286,"is_reserved":false,"is_disabled":true,"rental_uris":{"android":"levelo://app?vid=a3e2caaf-f379-45ac-a2b8-d61c1da080dd","ios":"levelo://app?vid=a3e2caaf-f379-45ac-a2b8-d61c1da080dd"},"vehicle_type_id":"4","last_reported":1768998491,"current_range_meters":5600,"station_id":"st_d4asgbiv49dc73anf9m0","pricing_plan_id":"cebpf4jnsgd1na2vs0mg"},{"bike_id":"02b19501-ae2b-4d21-ae93-ce26586838ae","system_id":"levelo_inurba_marseille","lat":43.29568,"lon":5.42285,"is_reserved":false,"is_disabled":false,"rental_uris":{"android":"levelo://app?vid=02b19501-ae2b-4d21-ae93-ce26586838ae","ios":"levelo://app?vid=02b19501-ae2b-4d21-ae93-ce26586838ae"},"vehicle_type_id":"4","last_reported":1768998491,"current_range_meters":5600,"station_id":"ce4bhph2rcd13ifvqhdg","pricing_plan_id":"cebpf4jnsgd1na2vs0mg"},{"bike_id":"7d2f250a-191b-441d-876b-7325dd6245a6","system_id":"levelo_inurba_marseille","lat":43.24999,"lon":5.389349,"is_reserved":false,"is_disabled":false,"rental_uris":{"android":"levelo://app?vid=7d2f250a-191b-441d-876b-7325dd6245a6","ios":"levelo://app?vid=7d2f250a-191b-441d-876b-7325dd6245a6"},"vehicle_type_id":"4","last_reported":1768998491,"current_range_meters":5600,"station_id":"ce4bhgp2rcd13ifvqfd0","pricing_plan_id":"cebpf4jnsgd1na2vs0mg"},{"bike_id":"c103ce9c-0aaa-4a53-b373-a704be8ed706","system_id":"levelo_inurba_marseille","lat":43.25344,"lon":5.42175,"is_reserved":false,"is_disabled":false,"rental_uris":{"android":"levelo://app?vid=c103ce9c-0aaa-4a53-b373-a704be8ed706","ios":"levelo://app?vid=c103ce9c-0aaa-4a53-b373-a704be8ed706"},"vehicle_type_id":"4","last_reported":1768998491,"current_range_meters":5600,"station_id":"st_d2m65c5bi1j21697t3ng","pricing_plan_id":"cebpf4jnsgd1na2vs0mg"},{"bike_id":"f2c8a745-3692-4ee6-8fe8-fc048916ab78","system_id":"levelo_inurba_marseille","lat":43.30919,"lon":5.40146,"is_reserved":false,"is_disabled":false,"rental_uris":{"android":"levelo://app?vid=f2c8a745-3692-4ee6-8fe8-fc048916ab78","ios":"levelo://app?vid=f2c8a745-3692-4ee6-8fe8-fc048916ab78"},"vehicle_type_id":"4","last_reported":1768998491,"current_range_meters":5600,"station_id":"ce4bgvp2rcd13ifvqct0","pricing_plan_id":"cebpf4jnsgd1na2vs0mg"},{"bike_id":"5dbfcf3f-7cec-4c29-8168-14f9c37f7762","system_id":"levelo_inurba_marseille","lat":43.22561,"lon":5.4164,"is_reserved":false,"is_disabled":false,"rental_uris":{"android":"levelo://app?vid=5dbfcf3f-7cec-4c29-8168-14f9c37f7762","ios":"levelo://app?vid=5dbfcf3f-7cec-4c29-8168-14f9c37f7762"},"vehicle_type_id":"4","last_reported":1768998491,"current_range_meters":5600,"station_id":"st_d2o4gvlbi1j2169b742g","pricing_plan_id":"cebpf4jnsgd1na2vs0mg"},{"bike_id":"a10fa045-aa65-4578-bbc4-ef92222c05b9","system_id":"levelo_inurba_marseille","lat":43.27831,"lon":5.39215,"is_reserved":false,"is_disabled":false,"rental_uris":{"android":"levelo://app?vid=a10fa045-aa65-4578-bbc4-ef92222c05b9","ios":"levelo://app?vid=a10fa045-aa65-4578-bbc4-ef92222c05b9"},"vehicle_type_id":"4","last_reported":1768998491,"current_range_meters":5600,"station_id":"ce4bhjp2rcd13ifvqga0","pricing_plan_id":"cebpf4jnsgd1na2vs0mg"},{"bike_id":"7f57e4b7-adcc-40f6-a2f9-1294ef7abba0","system_id":"levelo_inurba_marseille","lat":43.30899,"lon":5.3684,"is_reserved":false,"is_disabled":false,"rental_uris":{"android":"levelo://app?vid=7f57e4b7-adcc-40f6-a2f9-1294ef7abba0","ios":"levelo://app?vid=7f57e4b7-adcc-40f6-a2f9-1294ef7abba0"},"vehicle_type_id":"4","last_reported":1768998491,"current_range_meters":6000,"station_id":"ce4bgn92rcd13ifvqbvg","pricing_plan_id":"cebpf4jnsgd1na2vs0mg"},{"bike_id":"bad72b34-7a97-441b-a2de-27c23c8fe149","system_id":"levelo_inurba_marseille","lat":43.32343,"lon":5.38493,"is_reserved":false,"is_disabled":false,"rental_uris":{"android":"levelo://app?vid=bad72b34-7a97-441b-a2de-27c23c8fe149","ios":"levelo://app?vid=bad72b34-7a97-441b-a2de-27c23c8fe149"},"vehicle_type_id":"4","last_reported":1768998491,"current_range_meters":6000,"station_id":"st_d45171o9ee8s73djdqug","pricing_plan_id":"cebpf4jnsgd1na2vs0mg"},{"bike_id":"3f38d2f5-11f7-4e5d-bb6a-06e6cf4d2c8c","system_id":"levelo_inurba_marseille","lat":43.30291,"lon":5.39224,"is_reserved":false,"is_disabled":false,"rental_uris":{"android":"levelo://app?vid=3f38d2f5-11f7-4e5d-bb6a-06e6cf4d2c8c","ios":"levelo://app?vid=3f38d2f5-11f7-4e5d-bb6a-06e6cf4d2c8c"},"vehicle_type_id":"4","last_reported":1768998491,"current_range_meters":6000,"station_id":"ce4bgkh2rcd13ifvqbk0","pricing_plan_id":"cebpf4jnsgd1na2vs0mg"},{"bike_id":"f0b953a0-5d3c-473f-91ac-fa5ee4590a8d","system_id":"levelo_inurba_marseille","lat":43.24079,"lon":5.37756,"is_reserved":false,"is_disabled":false,"rental_uris":{"android":"levelo://app?vid=f0b953a0-5d3c-473f-91ac-fa5ee4590a8d","ios":"levelo://app?vid=f0b953a0-5d3c-473f-91ac-fa5ee4590a8d"},"vehicle_type_id":"4","last_reported":1768998491,"current_range_meters":6000,"station_id":"ce4bhnp2rcd13ifvqgvg","pricing_plan_id":"cebpf4jnsgd1na2vs0mg"},{"bike_id":"d4dcb7b1-9567-4037-a839-c9ada8fdb74f","system_id":"levelo_inurba_marseille","lat":43.26781,"lon":5.39417,"is_reserved":false,"is_disabled":false,"rental_uris":{"android":"levelo://app?vid=d4dcb7b1-9567-4037-a839-c9ada8fdb74f","ios":"levelo://app?vid=d4dcb7b1-9567-4037-a839-c9ada8fdb74f"},"vehicle_type_id":"4","last_reported":1768998491,"current_range_meters":6000,"station_id":"ce4bhh12rcd13ifvqfg0","pricing_plan_id":"cebpf4jnsgd1na2vs0mg"},{"bike_id":"367610fd-314c-4b42-b6fb-f1cf13016be3","system_id":"levelo_inurba_marseille","lat":43.29291,"lon":5.37467,"is_reserved":false,"is_disabled":false,"rental_uris":{"android":"levelo://app?vid=367610fd-314c-4b42-b6fb-f1cf13016be3","ios":"levelo://app?vid=367610fd-314c-4b42-b6fb-f1cf13016be3"},"vehicle_type_id":"4","last_reported":1768998491,"current_range_meters":6000,"station_id":"ce4bgi12rcd13ifvqb70","pricing_plan_id":"cebpf4jnsgd1na2vs0mg"},{"bike_id":"5b1bd5c9-d178-476d-b09d-36e29337329a","system_id":"levelo_inurba_marseille","lat":43.29566,"lon":5.37522,"is_reserved":false,"is_disabled":false,"rental_uris":{"android":"levelo://app?vid=5b1bd5c9-d178-476d-b09d-36e29337329a","ios":"levelo://app?vid=5b1bd5c9-d178-476d-b09d-36e29337329a"},"vehicle_type_id":"4","last_reported":1768998491,"current_range_meters":6000,"station_id":"ce4bgh92rcd13ifvqb50","pricing_plan_id":"cebpf4jnsgd1na2vs0mg"},{"bike_id":"ae14426c-d055-48d5-a4ff-6e0b03ad465f","system_id":"levelo_inurba_marseille","lat":43.258267,"lon":5.39431,"is_reserved":false,"is_disabled":false,"rental_uris":{"android":"levelo://app?vid=ae14426c-d055-48d5-a4ff-6e0b03ad465f","ios":"levelo://app?vid=ae14426c-d055-48d5-a4ff-6e0b03ad465f"},"vehicle_type_id":"4","last_reported":1768998491,"current_range_meters":6000,"station_id":"ce4bhip2rcd13ifvqft0","pricing_plan_id":"cebpf4jnsgd1na2vs0mg"},{"bike_id":"97c8daba-7ecb-4682-9951-b3cd3fecb231","system_id":"levelo_inurba_marseille","lat":43.30845,"lon":5.38886,"is_reserved":false,"is_disabled":false,"rental_uris":{"android":"levelo://app?vid=97c8daba-7ecb-4682-9951-b3cd3fecb231","ios":"levelo://app?vid=97c8daba-7ecb-4682-9951-b3cd3fecb231"},"vehicle_type_id":"4","last_reported":1768998491,"current_range_meters":6000,"station_id":"","pricing_plan_id":"cebpf4jnsgd1na2vs0mg"},{"bike_id":"dac7effe-be4c-4138-bdef-88d3853190a9","system_id":"levelo_inurba_marseille","lat":43.29804,"lon":5.38083,"is_reserved":false,"is_disabled":false,"rental_uris":{"android":"levelo://app?vid=dac7effe-be4c-4138-bdef-88d3853190a9","ios":"levelo://app?vid=dac7effe-be4c-4138-bdef-88d3853190a9"},"vehicle_type_id":"4","last_reported":1768998491,"current_range_meters":6000,"station_id":"ce4bgip2rcd13ifvqbb0","pricing_plan_id":"cebpf4jnsgd1na2vs0mg"},{"bike_id":"35bdffdc-1fe9-4f9d-946d-4f7ac3f6d9cf","system_id":"levelo_inurba_marseille","lat":43.30138,"lon":5.38077,"is_reserved":false,"is_disabled":false,"rental_uris":{"android":"levelo://app?vid=35bdffdc-1fe9-4f9d-946d-4f7ac3f6d9cf","ios":"levelo://app?vid=35bdffdc-1fe9-4f9d-946d-4f7ac3f6d9cf"},"vehicle_type_id":"4","last_reported":1768998491,"current_range_meters":6000,"station_id":"ce4bgjp2rcd13ifvqbh0","pricing_plan_id":"cebpf4jnsgd1na2vs0mg"},{"bike_id":"712ec087-a356-4cd9-bfaf-e3cefb499eba","system_id":"levelo_inurba_marseille","lat":43.27328,"lon":5.39075,"is_reserved":false,"is_disabled":false,"rental_uris":{"android":"levelo://app?vid=712ec087-a356-4cd9-bfaf-e3cefb499eba","ios":"levelo://app?vid=712ec087-a356-4cd9-bfaf-e3cefb499eba"},"vehicle_type_id":"4","last_reported":1768998491,"current_range_meters":6400,"station_id":"ce4bhgp2rcd13ifvqfe0","pricing_plan_id":"cebpf4jnsgd1na2vs0mg"},{"bike_id":"e9cf4d98-a47d-4cc7-82f6-b2e075f45c6a","system_id":"levelo_inurba_marseille","lat":43.22567,"lon":5.41628,"is_reserved":false,"is_disabled":false,"rental_uris":{"android":"levelo://app?vid=e9cf4d98-a47d-4cc7-82f6-b2e075f45c6a","ios":"levelo://app?vid=e9cf4d98-a47d-4cc7-82f6-b2e075f45c6a"},"vehicle_type_id":"4","last_reported":1768998491,"current_range_meters":6400,"station_id":"st_d2o4gvlbi1j2169b742g","pricing_plan_id":"cebpf4jnsgd1na2vs0mg"},{"bike_id":"e518b3b5-ceb8-42df-a40f-1b9cad67801c","system_id":"levelo_inurba_marseille","lat":43.24459,"lon":5.42544,"is_reserved":false,"is_disabled":false,"rental_uris":{"android":"levelo://app?vid=e518b3b5-ceb8-42df-a40f-1b9cad67801c","ios":"levelo://app?vid=e518b3b5-ceb8-42df-a40f-1b9cad67801c"},"vehicle_type_id":"4","last_reported":1768998491,"current_range_meters":6400,"station_id":"st_d4a3vfp97mjs738cd8kg","pricing_plan_id":"cebpf4jnsgd1na2vs0mg"},{"bike_id":"68bf9f6a-08f4-497b-a503-30b8054ca8e4","system_id":"levelo_inurba_marseille","lat":43.29973,"lon":5.38496,"is_reserved":false,"is_disabled":false,"rental_uris":{"android":"levelo://app?vid=68bf9f6a-08f4-497b-a503-30b8054ca8e4","ios":"levelo://app?vid=68bf9f6a-08f4-497b-a503-30b8054ca8e4"},"vehicle_type_id":"4","last_reported":1768998491,"current_range_meters":6400,"station_id":"ce4bgj92rcd13ifvqbd0","pricing_plan_id":"cebpf4jnsgd1na2vs0mg"},{"bike_id":"1857481e-2ff8-4f81-aa1d-bd5ba0f43d8d","system_id":"levelo_inurba_marseille","lat":43.24814,"lon":5.37458,"is_reserved":false,"is_disabled":false,"rental_uris":{"android":"levelo://app?vid=1857481e-2ff8-4f81-aa1d-bd5ba0f43d8d","ios":"levelo://app?vid=1857481e-2ff8-4f81-aa1d-bd5ba0f43d8d"},"vehicle_type_id":"4","last_reported":1768998491,"current_range_meters":6400,"station_id":"ce4bhgh2rcd13ifvqfb0","pricing_plan_id":"cebpf4jnsgd1na2vs0mg"},{"bike_id":"511fc97e-4342-48bd-969a-a85990179b2c","system_id":"levelo_inurba_marseille","lat":43.30115,"lon":5.38093,"is_reserved":false,"is_disabled":false,"rental_uris":{"android":"levelo://app?vid=511fc97e-4342-48bd-969a-a85990179b2c","ios":"levelo://app?vid=511fc97e-4342-48bd-969a-a85990179b2c"},"vehicle_type_id":"4","last_reported":1768998491,"current_range_meters":6400,"station_id":"ce4bgjp2rcd13ifvqbh0","pricing_plan_id":"cebpf4jnsgd1na2vs0mg"},{"bike_id":"baeeb74f-c803-4e53-bbd4-ec049ecdd2a8","system_id":"levelo_inurba_marseille","lat":43.29905,"lon":5.37513,"is_reserved":false,"is_disabled":false,"rental_uris":{"android":"levelo://app?vid=baeeb74f-c803-4e53-bbd4-ec049ecdd2a8","ios":"levelo://app?vid=baeeb74f-c803-4e53-bbd4-ec049ecdd2a8"},"vehicle_type_id":"4","last_reported":1768998491,"current_range_meters":6400,"station_id":"ce4bgjh2rcd13ifvqbg0","pricing_plan_id":"cebpf4jnsgd1na2vs0mg"},{"bike_id":"1be3c126-35b8-469c-9930-5172da036ca8","system_id":"levelo_inurba_marseille","lat":43.27208,"lon":5.39172,"is_reserved":false,"is_disabled":false,"rental_uris":{"android":"levelo://app?vid=1be3c126-35b8-469c-9930-5172da036ca8","ios":"levelo://app?vid=1be3c126-35b8-469c-9930-5172da036ca8"},"vehicle_type_id":"4","last_reported":1768998491,"current_range_meters":6400,"station_id":"ce4bhhp2rcd13ifvqfm0","pricing_plan_id":"cebpf4jnsgd1na2vs0mg"},{"bike_id":"56496f15-285b-4dff-92b3-54ffdff3e399","system_id":"levelo_inurba_marseille","lat":43.2684,"lon":5.39644,"is_reserved":false,"is_disabled":false,"rental_uris":{"android":"levelo://app?vid=56496f15-285b-4dff-92b3-54ffdff3e399","ios":"levelo://app?vid=56496f15-285b-4dff-92b3-54ffdff3e399"},"vehicle_type_id":"4","last_reported":1768998491,"current_range_meters":6400,"station_id":"","pricing_plan_id":"cebpf4jnsgd1na2vs0mg"},{"bike_id":"4eba8ab0-a760-4c8f-be2e-adcd88a4d0b1","system_id":"levelo_inurba_marseille","lat":43.26488,"lon":5.3955,"is_reserved":false,"is_disabled":false,"rental_uris":{"android":"levelo://app?vid=4eba8ab0-a760-4c8f-be2e-adcd88a4d0b1","ios":"levelo://app?vid=4eba8ab0-a760-4c8f-be2e-adcd88a4d0b1"},"vehicle_type_id":"4","last_reported":1768998491,"current_range_meters":6400,"station_id":"ce4bhi12rcd13ifvqfq0","pricing_plan_id":"cebpf4jnsgd1na2vs0mg"},{"bike_id":"6b0a7910-4f3c-47d6-b165-5319282e4ed9","system_id":"levelo_inurba_marseille","lat":43.33532,"lon":5.37474,"is_reserved":false,"is_disabled":false,"rental_uris":{"android":"levelo://app?vid=6b0a7910-4f3c-47d6-b165-5319282e4ed9","ios":"levelo://app?vid=6b0a7910-4f3c-47d6-b165-5319282e4ed9"},"vehicle_type_id":"4","last_reported":1768998491,"current_range_meters":6400,"station_id":"","pricing_plan_id":"cebpf4jnsgd1na2vs0mg"},{"bike_id":"324cdd4d-bbd3-454c-8384-774dfe86de49","system_id":"levelo_inurba_marseille","lat":43.28557,"lon":5.39492,"is_reserved":false,"is_disabled":false,"rental_uris":{"android":"levelo://app?vid=324cdd4d-bbd3-454c-8384-774dfe86de49","ios":"levelo://app?vid=324cdd4d-bbd3-454c-8384-774dfe86de49"},"vehicle_type_id":"4","last_reported":1768998491,"current_range_meters":6400,"station_id":"ce4bh292rcd13ifvqdg0","pricing_plan_id":"cebpf4jnsgd1na2vs0mg"},{"bike_id":"02bb5eed-6d46-4907-942b-2953f5d09c0c","system_id":"levelo_inurba_marseille","lat":43.309089,"lon":5.368459,"is_reserved":false,"is_disabled":false,"rental_uris":{"android":"levelo://app?vid=02bb5eed-6d46-4907-942b-2953f5d09c0c","ios":"levelo://app?vid=02bb5eed-6d46-4907-942b-2953f5d09c0c"},"vehicle_type_id":"4","last_reported":1768998491,"current_range_meters":6400,"station_id":"ce4bgn92rcd13ifvqbvg","pricing_plan_id":"cebpf4jnsgd1na2vs0mg"},{"bike_id":"bc53fded-5652-4ab5-920f-ec142a69c388","system_id":"levelo_inurba_marseille","lat":43.29782,"lon":5.39382,"is_reserved":false,"is_disabled":false,"rental_uris":{"android":"levelo://app?vid=bc53fded-5652-4ab5-920f-ec142a69c388","ios":"levelo://app?vid=bc53fded-5652-4ab5-920f-ec142a69c388"},"vehicle_type_id":"4","last_reported":1768998491,"current_range_meters":6400,"station_id":"chh1huq6cuj3fo74tm60","pricing_plan_id":"cebpf4jnsgd1na2vs0mg"},{"bike_id":"37bf797b-18ef-4836-9cb3-d3ead8cb520d","system_id":"levelo_inurba_marseille","lat":43.29979,"lon":5.38493,"is_reserved":false,"is_disabled":true,"rental_uris":{"android":"levelo://app?vid=37bf797b-18ef-4836-9cb3-d3ead8cb520d","ios":"levelo://app?vid=37bf797b-18ef-4836-9cb3-d3ead8cb520d"},"vehicle_type_id":"4","last_reported":1768998491,"current_range_meters":6400,"station_id":"ce4bgj92rcd13ifvqbd0","pricing_plan_id":"cebpf4jnsgd1na2vs0mg"},{"bike_id":"1e9683fd-3419-4707-ab97-e3b80d5f4bea","system_id":"levelo_inurba_marseille","lat":43.27158,"lon":5.40458,"is_reserved":false,"is_disabled":false,"rental_uris":{"android":"levelo://app?vid=1e9683fd-3419-4707-ab97-e3b80d5f4bea","ios":"levelo://app?vid=1e9683fd-3419-4707-ab97-e3b80d5f4bea"},"vehicle_type_id":"4","last_reported":1768998491,"current_range_meters":6400,"station_id":"","pricing_plan_id":"cebpf4jnsgd1na2vs0mg"},{"bike_id":"29bfec45-ad76-429c-882a-34b6f5ca4191","system_id":"levelo_inurba_marseille","lat":43.3213,"lon":5.36741,"is_reserved":false,"is_disabled":false,"rental_uris":{"android":"levelo://app?vid=29bfec45-ad76-429c-882a-34b6f5ca4191","ios":"levelo://app?vid=29bfec45-ad76-429c-882a-34b6f5ca4191"},"vehicle_type_id":"4","last_reported":1768998491,"current_range_meters":6400,"station_id":"ce4bhrh2rcd13ifvqhug","pricing_plan_id":"cebpf4jnsgd1na2vs0mg"},{"bike_id":"06b43346-a86c-476a-ad81-b5f13f3adc99","system_id":"levelo_inurba_marseille","lat":43.21191,"lon":5.35075,"is_reserved":false,"is_disabled":false,"rental_uris":{"android":"levelo://app?vid=06b43346-a86c-476a-ad81-b5f13f3adc99","ios":"levelo://app?vid=06b43346-a86c-476a-ad81-b5f13f3adc99"},"vehicle_type_id":"4","last_reported":1768998491,"current_range_meters":6800,"station_id":"st_cvj6sg6p6f1abm77japg","pricing_plan_id":"cebpf4jnsgd1na2vs0mg"},{"bike_id":"993f1288-6929-4206-b35f-06e772769526","system_id":"levelo_inurba_marseille","lat":43.30733,"lon":5.42442,"is_reserved":false,"is_disabled":false,"rental_uris":{"android":"levelo://app?vid=993f1288-6929-4206-b35f-06e772769526","ios":"levelo://app?vid=993f1288-6929-4206-b35f-06e772769526"},"vehicle_type_id":"4","last_reported":1768998491,"current_range_meters":6800,"station_id":"st_cvj6ca6bvosntc0bfgr0","pricing_plan_id":"cebpf4jnsgd1na2vs0mg"},{"bike_id":"279ecc0c-732d-4b1d-b5af-667c2f79f52d","system_id":"levelo_inurba_marseille","lat":43.2315,"lon":5.437024,"is_reserved":false,"is_disabled":false,"rental_uris":{"android":"levelo://app?vid=279ecc0c-732d-4b1d-b5af-667c2f79f52d","ios":"levelo://app?vid=279ecc0c-732d-4b1d-b5af-667c2f79f52d"},"vehicle_type_id":"4","last_reported":1768998491,"current_range_meters":6800,"station_id":"ce4bhmp2rcd13ifvqgog","pricing_plan_id":"cebpf4jnsgd1na2vs0mg"},{"bike_id":"fc4e3a66-55ac-450e-a159-861862597655","system_id":"levelo_inurba_marseille","lat":43.27321,"lon":5.39079,"is_reserved":false,"is_disabled":false,"rental_uris":{"android":"levelo://app?vid=fc4e3a66-55ac-450e-a159-861862597655","ios":"levelo://app?vid=fc4e3a66-55ac-450e-a159-861862597655"},"vehicle_type_id":"4","last_reported":1768998491,"current_range_meters":6800,"station_id":"ce4bhgp2rcd13ifvqfe0","pricing_plan_id":"cebpf4jnsgd1na2vs0mg"},{"bike_id":"99d65f09-c0e6-4f0f-b72f-6e110c0f1bd4","system_id":"levelo_inurba_marseille","lat":43.28988,"lon":5.37621,"is_reserved":false,"is_disabled":false,"rental_uris":{"android":"levelo://app?vid=99d65f09-c0e6-4f0f-b72f-6e110c0f1bd4","ios":"levelo://app?vid=99d65f09-c0e6-4f0f-b72f-6e110c0f1bd4"},"vehicle_type_id":"4","last_reported":1768998491,"current_range_meters":6800,"station_id":"","pricing_plan_id":"cebpf4jnsgd1na2vs0mg"},{"bike_id":"9fe9b7fa-bf5e-456b-b148-d56a572e2392","system_id":"levelo_inurba_marseille","lat":43.22565,"lon":5.41633,"is_reserved":false,"is_disabled":false,"rental_uris":{"android":"levelo://app?vid=9fe9b7fa-bf5e-456b-b148-d56a572e2392","ios":"levelo://app?vid=9fe9b7fa-bf5e-456b-b148-d56a572e2392"},"vehicle_type_id":"4","last_reported":1768998491,"current_range_meters":6800,"station_id":"st_d2o4gvlbi1j2169b742g","pricing_plan_id":"cebpf4jnsgd1na2vs0mg"},{"bike_id":"2351e1c9-97c0-42ed-8ba7-93d168c64106","system_id":"levelo_inurba_marseille","lat":43.29771,"lon":5.42781,"is_reserved":false,"is_disabled":false,"rental_uris":{"android":"levelo://app?vid=2351e1c9-97c0-42ed-8ba7-93d168c64106","ios":"levelo://app?vid=2351e1c9-97c0-42ed-8ba7-93d168c64106"},"vehicle_type_id":"4","last_reported":1768998491,"current_range_meters":6800,"station_id":"st_d3md5207bmas73dh9klg","pricing_plan_id":"cebpf4jnsgd1na2vs0mg"},{"bike_id":"00729f81-defe-4949-ab38-da427b717ebf","system_id":"levelo_inurba_marseille","lat":43.26223,"lon":5.40437,"is_reserved":false,"is_disabled":false,"rental_uris":{"android":"levelo://app?vid=00729f81-defe-4949-ab38-da427b717ebf","ios":"levelo://app?vid=00729f81-defe-4949-ab38-da427b717ebf"},"vehicle_type_id":"4","last_reported":1768998491,"current_range_meters":6800,"station_id":"ce4bhmh2rcd13ifvqgmg","pricing_plan_id":"cebpf4jnsgd1na2vs0mg"},{"bike_id":"8069f374-6bb2-4df8-950d-be2e50fcd180","system_id":"levelo_inurba_marseille","lat":43.31119,"lon":5.37773,"is_reserved":false,"is_disabled":true,"rental_uris":{"android":"levelo://app?vid=8069f374-6bb2-4df8-950d-be2e50fcd180","ios":"levelo://app?vid=8069f374-6bb2-4df8-950d-be2e50fcd180"},"vehicle_type_id":"4","last_reported":1768998491,"current_range_meters":6800,"station_id":"ce4bgt92rcd13ifvqcg0","pricing_plan_id":"cebpf4jnsgd1na2vs0mg"},{"bike_id":"389e3e45-2f25-42d3-8e4e-8835b8ebf1b9","system_id":"levelo_inurba_marseille","lat":43.30566,"lon":5.36739,"is_reserved":false,"is_disabled":false,"rental_uris":{"android":"levelo://app?vid=389e3e45-2f25-42d3-8e4e-8835b8ebf1b9","ios":"levelo://app?vid=389e3e45-2f25-42d3-8e4e-8835b8ebf1b9"},"vehicle_type_id":"4","last_reported":1768998491,"current_range_meters":6800,"station_id":"ce4bgrp2rcd13ifvqc9g","pricing_plan_id":"cebpf4jnsgd1na2vs0mg"},{"bike_id":"30279577-45fe-4bed-998a-a72a3d5d67c3","system_id":"levelo_inurba_marseille","lat":43.30881,"lon":5.39655,"is_reserved":false,"is_disabled":false,"rental_uris":{"android":"levelo://app?vid=30279577-45fe-4bed-998a-a72a3d5d67c3","ios":"levelo://app?vid=30279577-45fe-4bed-998a-a72a3d5d67c3"},"vehicle_type_id":"4","last_reported":1768998491,"current_range_meters":6800,"station_id":"ce4bh012rcd13ifvqcv0","pricing_plan_id":"cebpf4jnsgd1na2vs0mg"},{"bike_id":"2e67810b-4f4a-431b-b148-ec05c2d01539","system_id":"levelo_inurba_marseille","lat":43.28153,"lon":5.42644,"is_reserved":false,"is_disabled":false,"rental_uris":{"android":"levelo://app?vid=2e67810b-4f4a-431b-b148-ec05c2d01539","ios":"levelo://app?vid=2e67810b-4f4a-431b-b148-ec05c2d01539"},"vehicle_type_id":"4","last_reported":1768998491,"current_range_meters":6800,"station_id":"ce4bhnh2rcd13ifvqgug","pricing_plan_id":"cebpf4jnsgd1na2vs0mg"},{"bike_id":"31c21be6-18ca-494d-8d01-2f205767068d","system_id":"levelo_inurba_marseille","lat":43.318503,"lon":5.374708,"is_reserved":false,"is_disabled":false,"rental_uris":{"android":"levelo://app?vid=31c21be6-18ca-494d-8d01-2f205767068d","ios":"levelo://app?vid=31c21be6-18ca-494d-8d01-2f205767068d"},"vehicle_type_id":"4","last_reported":1768998491,"current_range_meters":6800,"station_id":"","pricing_plan_id":"cebpf4jnsgd1na2vs0mg"},{"bike_id":"8f2f0b3c-7316-4115-8a0b-7c17f62f1448","system_id":"levelo_inurba_marseille","lat":43.29524,"lon":5.38557,"is_reserved":false,"is_disabled":false,"rental_uris":{"android":"levelo://app?vid=8f2f0b3c-7316-4115-8a0b-7c17f62f1448","ios":"levelo://app?vid=8f2f0b3c-7316-4115-8a0b-7c17f62f1448"},"vehicle_type_id":"4","last_reported":1768998491,"current_range_meters":6800,"station_id":"ce4bgih2rcd13ifvqba0","pricing_plan_id":"cebpf4jnsgd1na2vs0mg"},{"bike_id":"b881e9c6-22fb-4ece-a1e3-dcd9a61a8589","system_id":"levelo_inurba_marseille","lat":43.29311,"lon":5.37173,"is_reserved":false,"is_disabled":false,"rental_uris":{"android":"levelo://app?vid=b881e9c6-22fb-4ece-a1e3-dcd9a61a8589","ios":"levelo://app?vid=b881e9c6-22fb-4ece-a1e3-dcd9a61a8589"},"vehicle_type_id":"4","last_reported":1768998491,"current_range_meters":6800,"station_id":"ce4bgh92rcd13ifvqb40","pricing_plan_id":"cebpf4jnsgd1na2vs0mg"},{"bike_id":"60148071-7ffe-4c05-9362-c2fce58ba206","system_id":"levelo_inurba_marseille","lat":43.27993,"lon":5.41651,"is_reserved":false,"is_disabled":false,"rental_uris":{"android":"levelo://app?vid=60148071-7ffe-4c05-9362-c2fce58ba206","ios":"levelo://app?vid=60148071-7ffe-4c05-9362-c2fce58ba206"},"vehicle_type_id":"4","last_reported":1768998491,"current_range_meters":6800,"station_id":"ce4bho12rcd13ifvqh1g","pricing_plan_id":"cebpf4jnsgd1na2vs0mg"},{"bike_id":"e2c28729-8d62-45b4-8926-9ab1e71d898f","system_id":"levelo_inurba_marseille","lat":43.298189,"lon":5.365781,"is_reserved":false,"is_disabled":false,"rental_uris":{"android":"levelo://app?vid=e2c28729-8d62-45b4-8926-9ab1e71d898f","ios":"levelo://app?vid=e2c28729-8d62-45b4-8926-9ab1e71d898f"},"vehicle_type_id":"4","last_reported":1768998491,"current_range_meters":6800,"station_id":"","pricing_plan_id":"cebpf4jnsgd1na2vs0mg"},{"bike_id":"e6df6fb7-994b-4037-99d6-76175fe9a7d0","system_id":"levelo_inurba_marseille","lat":43.23187,"lon":5.3998,"is_reserved":false,"is_disabled":false,"rental_uris":{"android":"levelo://app?vid=e6df6fb7-994b-4037-99d6-76175fe9a7d0","ios":"levelo://app?vid=e6df6fb7-994b-4037-99d6-76175fe9a7d0"},"vehicle_type_id":"4","last_reported":1768998491,"current_range_meters":6800,"station_id":"ce4bhn12rcd13ifvqgqg","pricing_plan_id":"cebpf4jnsgd1na2vs0mg"},{"bike_id":"e7f76cdd-69c1-4b4a-aab9-81b38847c33b","system_id":"levelo_inurba_marseille","lat":43.24387,"lon":5.37052,"is_reserved":false,"is_disabled":false,"rental_uris":{"android":"levelo://app?vid=e7f76cdd-69c1-4b4a-aab9-81b38847c33b","ios":"levelo://app?vid=e7f76cdd-69c1-4b4a-aab9-81b38847c33b"},"vehicle_type_id":"4","last_reported":1768998491,"current_range_meters":6800,"station_id":"ce4bhhh2rcd13ifvqfk0","pricing_plan_id":"cebpf4jnsgd1na2vs0mg"},{"bike_id":"e47dfb0a-fd42-4915-8bd4-c942b77cb4c9","system_id":"levelo_inurba_marseille","lat":43.25566,"lon":5.38245,"is_reserved":false,"is_disabled":false,"rental_uris":{"android":"levelo://app?vid=e47dfb0a-fd42-4915-8bd4-c942b77cb4c9","ios":"levelo://app?vid=e47dfb0a-fd42-4915-8bd4-c942b77cb4c9"},"vehicle_type_id":"4","last_reported":1768998491,"current_range_meters":6800,"station_id":"ce4bhih2rcd13ifvqfs0","pricing_plan_id":"cebpf4jnsgd1na2vs0mg"},{"bike_id":"f3f27d86-0784-4222-889b-15433e5b0baf","system_id":"levelo_inurba_marseille","lat":43.24467,"lon":5.42539,"is_reserved":false,"is_disabled":false,"rental_uris":{"android":"levelo://app?vid=f3f27d86-0784-4222-889b-15433e5b0baf","ios":"levelo://app?vid=f3f27d86-0784-4222-889b-15433e5b0baf"},"vehicle_type_id":"4","last_reported":1768998491,"current_range_meters":7200,"station_id":"st_d4a3vfp97mjs738cd8kg","pricing_plan_id":"cebpf4jnsgd1na2vs0mg"},{"bike_id":"f73788f7-dec5-4308-a431-6e346b811946","system_id":"levelo_inurba_marseille","lat":43.301724,"lon":5.380716,"is_reserved":false,"is_disabled":false,"rental_uris":{"android":"levelo://app?vid=f73788f7-dec5-4308-a431-6e346b811946","ios":"levelo://app?vid=f73788f7-dec5-4308-a431-6e346b811946"},"vehicle_type_id":"4","last_reported":1768998491,"current_range_meters":7200,"station_id":"ce4bgjp2rcd13ifvqbh0","pricing_plan_id":"cebpf4jnsgd1na2vs0mg"},{"bike_id":"5f477738-733e-4c98-961a-33429c5938fd","system_id":"levelo_inurba_marseille","lat":43.260586,"lon":5.393984,"is_reserved":false,"is_disabled":false,"rental_uris":{"android":"levelo://app?vid=5f477738-733e-4c98-961a-33429c5938fd","ios":"levelo://app?vid=5f477738-733e-4c98-961a-33429c5938fd"},"vehicle_type_id":"4","last_reported":1768998491,"current_range_meters":7200,"station_id":"ce4bhh92rcd13ifvqfj0","pricing_plan_id":"cebpf4jnsgd1na2vs0mg"},{"bike_id":"4b5aa404-a223-4202-a9b4-4364010f0fb4","system_id":"levelo_inurba_marseille","lat":43.33758,"lon":5.37493,"is_reserved":false,"is_disabled":false,"rental_uris":{"android":"levelo://app?vid=4b5aa404-a223-4202-a9b4-4364010f0fb4","ios":"levelo://app?vid=4b5aa404-a223-4202-a9b4-4364010f0fb4"},"vehicle_type_id":"4","last_reported":1768998491,"current_range_meters":7200,"station_id":"","pricing_plan_id":"cebpf4jnsgd1na2vs0mg"},{"bike_id":"054e163b-1e47-4a0a-a038-a7939885860e","system_id":"levelo_inurba_marseille","lat":43.32351,"lon":5.36751,"is_reserved":false,"is_disabled":false,"rental_uris":{"android":"levelo://app?vid=054e163b-1e47-4a0a-a038-a7939885860e","ios":"levelo://app?vid=054e163b-1e47-4a0a-a038-a7939885860e"},"vehicle_type_id":"4","last_reported":1768998491,"current_range_meters":7200,"station_id":"ce4bhsh2rcd13ifvqi2g","pricing_plan_id":"cebpf4jnsgd1na2vs0mg"},{"bike_id":"5bdad711-817a-42cc-84b1-10d4beae812a","system_id":"levelo_inurba_marseille","lat":43.22565,"lon":5.41626,"is_reserved":false,"is_disabled":false,"rental_uris":{"android":"levelo://app?vid=5bdad711-817a-42cc-84b1-10d4beae812a","ios":"levelo://app?vid=5bdad711-817a-42cc-84b1-10d4beae812a"},"vehicle_type_id":"4","last_reported":1768998491,"current_range_meters":7200,"station_id":"st_d2o4gvlbi1j2169b742g","pricing_plan_id":"cebpf4jnsgd1na2vs0mg"},{"bike_id":"27cee823-711e-4c32-8330-bbb2e27af237","system_id":"levelo_inurba_marseille","lat":43.2834,"lon":5.38104,"is_reserved":false,"is_disabled":false,"rental_uris":{"android":"levelo://app?vid=27cee823-711e-4c32-8330-bbb2e27af237","ios":"levelo://app?vid=27cee823-711e-4c32-8330-bbb2e27af237"},"vehicle_type_id":"4","last_reported":1768998491,"current_range_meters":7200,"station_id":"ce4bh412rcd13ifvqdr0","pricing_plan_id":"cebpf4jnsgd1na2vs0mg"},{"bike_id":"8c9d9dd5-6ae3-4a8b-ab79-ea51ac5d3931","system_id":"levelo_inurba_marseille","lat":43.279816,"lon":5.416624,"is_reserved":false,"is_disabled":true,"rental_uris":{"android":"levelo://app?vid=8c9d9dd5-6ae3-4a8b-ab79-ea51ac5d3931","ios":"levelo://app?vid=8c9d9dd5-6ae3-4a8b-ab79-ea51ac5d3931"},"vehicle_type_id":"4","last_reported":1768998491,"current_range_meters":7200,"station_id":"ce4bho12rcd13ifvqh1g","pricing_plan_id":"cebpf4jnsgd1na2vs0mg"},{"bike_id":"e16a1716-709d-4830-b4cc-3f4c9537f310","system_id":"levelo_inurba_marseille","lat":43.30465,"lon":5.37922,"is_reserved":false,"is_disabled":false,"rental_uris":{"android":"levelo://app?vid=e16a1716-709d-4830-b4cc-3f4c9537f310","ios":"levelo://app?vid=e16a1716-709d-4830-b4cc-3f4c9537f310"},"vehicle_type_id":"4","last_reported":1768998491,"current_range_meters":7200,"station_id":"ce4bgup2rcd13ifvqcn0","pricing_plan_id":"cebpf4jnsgd1na2vs0mg"},{"bike_id":"b2b1dff7-f6c8-4dbd-b544-d71f01a6a04b","system_id":"levelo_inurba_marseille","lat":43.279933,"lon":5.400191,"is_reserved":false,"is_disabled":false,"rental_uris":{"android":"levelo://app?vid=b2b1dff7-f6c8-4dbd-b544-d71f01a6a04b","ios":"levelo://app?vid=b2b1dff7-f6c8-4dbd-b544-d71f01a6a04b"},"vehicle_type_id":"4","last_reported":1768998491,"current_range_meters":7200,"station_id":"ce4bho92rcd13ifvqh4g","pricing_plan_id":"cebpf4jnsgd1na2vs0mg"},{"bike_id":"d800779d-1be3-4b3b-bd26-326b29efb8d6","system_id":"levelo_inurba_marseille","lat":43.24723,"lon":5.392816,"is_reserved":false,"is_disabled":false,"rental_uris":{"android":"levelo://app?vid=d800779d-1be3-4b3b-bd26-326b29efb8d6","ios":"levelo://app?vid=d800779d-1be3-4b3b-bd26-326b29efb8d6"},"vehicle_type_id":"4","last_reported":1768998491,"current_range_meters":7200,"station_id":"st_d3nk18o9ro0c73en2l3g","pricing_plan_id":"cebpf4jnsgd1na2vs0mg"},{"bike_id":"5b9b3b18-99c1-4f9d-8b57-c4139ebc48e1","system_id":"levelo_inurba_marseille","lat":43.317065,"lon":5.376988,"is_reserved":false,"is_disabled":false,"rental_uris":{"android":"levelo://app?vid=5b9b3b18-99c1-4f9d-8b57-c4139ebc48e1","ios":"levelo://app?vid=5b9b3b18-99c1-4f9d-8b57-c4139ebc48e1"},"vehicle_type_id":"4","last_reported":1768998491,"current_range_meters":7200,"station_id":"","pricing_plan_id":"cebpf4jnsgd1na2vs0mg"},{"bike_id":"d9e6b6d3-613e-4602-a340-a9b755cdb3fe","system_id":"levelo_inurba_marseille","lat":43.27071,"lon":5.42276,"is_reserved":false,"is_disabled":false,"rental_uris":{"android":"levelo://app?vid=d9e6b6d3-613e-4602-a340-a9b755cdb3fe","ios":"levelo://app?vid=d9e6b6d3-613e-4602-a340-a9b755cdb3fe"},"vehicle_type_id":"4","last_reported":1768998491,"current_range_meters":7200,"station_id":"ce4bhk92rcd13ifvqgb0","pricing_plan_id":"cebpf4jnsgd1na2vs0mg"},{"bike_id":"d219e86e-7bd2-4634-893c-c4dc3b412045","system_id":"levelo_inurba_marseille","lat":43.2559,"lon":5.38271,"is_reserved":false,"is_disabled":false,"rental_uris":{"android":"levelo://app?vid=d219e86e-7bd2-4634-893c-c4dc3b412045","ios":"levelo://app?vid=d219e86e-7bd2-4634-893c-c4dc3b412045"},"vehicle_type_id":"4","last_reported":1768998491,"current_range_meters":7200,"station_id":"ce4bhih2rcd13ifvqfs0","pricing_plan_id":"cebpf4jnsgd1na2vs0mg"},{"bike_id":"175048aa-a7ad-4f7d-98cf-d9f628e4d150","system_id":"levelo_inurba_marseille","lat":43.26542,"lon":5.37292,"is_reserved":false,"is_disabled":false,"rental_uris":{"android":"levelo://app?vid=175048aa-a7ad-4f7d-98cf-d9f628e4d150","ios":"levelo://app?vid=175048aa-a7ad-4f7d-98cf-d9f628e4d150"},"vehicle_type_id":"4","last_reported":1768998491,"current_range_meters":7200,"station_id":"ce4bhg12rcd13ifvqf70","pricing_plan_id":"cebpf4jnsgd1na2vs0mg"},{"bike_id":"f6ca8f9d-1875-47e3-ab58-c0f160b2fedf","system_id":"levelo_inurba_marseille","lat":43.29247,"lon":5.38452,"is_reserved":false,"is_disabled":false,"rental_uris":{"android":"levelo://app?vid=f6ca8f9d-1875-47e3-ab58-c0f160b2fedf","ios":"levelo://app?vid=f6ca8f9d-1875-47e3-ab58-c0f160b2fedf"},"vehicle_type_id":"4","last_reported":1768998491,"current_range_meters":7200,"station_id":"ce4bh692rcd13ifvqea0","pricing_plan_id":"cebpf4jnsgd1na2vs0mg"},{"bike_id":"6da61cd4-1cf4-43fa-922d-ca1b6d722142","system_id":"levelo_inurba_marseille","lat":43.30948,"lon":5.39062,"is_reserved":false,"is_disabled":false,"rental_uris":{"android":"levelo://app?vid=6da61cd4-1cf4-43fa-922d-ca1b6d722142","ios":"levelo://app?vid=6da61cd4-1cf4-43fa-922d-ca1b6d722142"},"vehicle_type_id":"4","last_reported":1768998491,"current_range_meters":7200,"station_id":"ce4bgup2rcd13ifvqco0","pricing_plan_id":"cebpf4jnsgd1na2vs0mg"},{"bike_id":"6b46c1f0-67a6-428e-8312-39c113622848","system_id":"levelo_inurba_marseille","lat":43.28002,"lon":5.40006,"is_reserved":false,"is_disabled":false,"rental_uris":{"android":"levelo://app?vid=6b46c1f0-67a6-428e-8312-39c113622848","ios":"levelo://app?vid=6b46c1f0-67a6-428e-8312-39c113622848"},"vehicle_type_id":"4","last_reported":1768998491,"current_range_meters":7200,"station_id":"ce4bho92rcd13ifvqh4g","pricing_plan_id":"cebpf4jnsgd1na2vs0mg"},{"bike_id":"6d0b875f-3074-4dcf-9340-aa752d3937ab","system_id":"levelo_inurba_marseille","lat":43.31081,"lon":5.38359,"is_reserved":false,"is_disabled":false,"rental_uris":{"android":"levelo://app?vid=6d0b875f-3074-4dcf-9340-aa752d3937ab","ios":"levelo://app?vid=6d0b875f-3074-4dcf-9340-aa752d3937ab"},"vehicle_type_id":"4","last_reported":1768998491,"current_range_meters":7200,"station_id":"ce4bgv92rcd13ifvqcr0","pricing_plan_id":"cebpf4jnsgd1na2vs0mg"},{"bike_id":"1c8947e5-4f1b-49fc-b662-826bffdd3f41","system_id":"levelo_inurba_marseille","lat":43.30541,"lon":5.36709,"is_reserved":false,"is_disabled":false,"rental_uris":{"android":"levelo://app?vid=1c8947e5-4f1b-49fc-b662-826bffdd3f41","ios":"levelo://app?vid=1c8947e5-4f1b-49fc-b662-826bffdd3f41"},"vehicle_type_id":"4","last_reported":1768998491,"current_range_meters":7200,"station_id":"ce4bgrp2rcd13ifvqc9g","pricing_plan_id":"cebpf4jnsgd1na2vs0mg"},{"bike_id":"416786c9-5441-4ae2-97be-8dd18ff4a833","system_id":"levelo_inurba_marseille","lat":43.26561,"lon":5.40329,"is_reserved":false,"is_disabled":false,"rental_uris":{"android":"levelo://app?vid=416786c9-5441-4ae2-97be-8dd18ff4a833","ios":"levelo://app?vid=416786c9-5441-4ae2-97be-8dd18ff4a833"},"vehicle_type_id":"4","last_reported":1768998491,"current_range_meters":7200,"station_id":"ce4bhmp2rcd13ifvqgng","pricing_plan_id":"cebpf4jnsgd1na2vs0mg"},{"bike_id":"1141b6d2-71b5-427e-8b05-713fbc1fe692","system_id":"levelo_inurba_marseille","lat":43.28696,"lon":5.3739,"is_reserved":false,"is_disabled":false,"rental_uris":{"android":"levelo://app?vid=1141b6d2-71b5-427e-8b05-713fbc1fe692","ios":"levelo://app?vid=1141b6d2-71b5-427e-8b05-713fbc1fe692"},"vehicle_type_id":"4","last_reported":1768998491,"current_range_meters":7200,"station_id":"ce4bh3p2rcd13ifvqdq0","pricing_plan_id":"cebpf4jnsgd1na2vs0mg"},{"bike_id":"f09c06aa-a05d-4b00-b228-d8bee2b62b4f","system_id":"levelo_inurba_marseille","lat":43.323483,"lon":5.367428,"is_reserved":false,"is_disabled":false,"rental_uris":{"android":"levelo://app?vid=f09c06aa-a05d-4b00-b228-d8bee2b62b4f","ios":"levelo://app?vid=f09c06aa-a05d-4b00-b228-d8bee2b62b4f"},"vehicle_type_id":"4","last_reported":1768998491,"current_range_meters":8000,"station_id":"ce4bhsh2rcd13ifvqi2g","pricing_plan_id":"cebpf4jnsgd1na2vs0mg"},{"bike_id":"8c5338b9-fd66-4f4e-92b1-eef99bac0915","system_id":"levelo_inurba_marseille","lat":43.286209,"lon":5.351021,"is_reserved":false,"is_disabled":false,"rental_uris":{"android":"levelo://app?vid=8c5338b9-fd66-4f4e-92b1-eef99bac0915","ios":"levelo://app?vid=8c5338b9-fd66-4f4e-92b1-eef99bac0915"},"vehicle_type_id":"4","last_reported":1768998491,"current_range_meters":8000,"station_id":"ce4bhch2rcd13ifvqeug","pricing_plan_id":"cebpf4jnsgd1na2vs0mg"},{"bike_id":"a57784bc-f5d9-4a04-91a0-a0ce88abf185","system_id":"levelo_inurba_marseille","lat":43.2438,"lon":5.37062,"is_reserved":false,"is_disabled":false,"rental_uris":{"android":"levelo://app?vid=a57784bc-f5d9-4a04-91a0-a0ce88abf185","ios":"levelo://app?vid=a57784bc-f5d9-4a04-91a0-a0ce88abf185"},"vehicle_type_id":"4","last_reported":1768998491,"current_range_meters":8000,"station_id":"ce4bhhh2rcd13ifvqfk0","pricing_plan_id":"cebpf4jnsgd1na2vs0mg"},{"bike_id":"f3a01c85-86e9-4a7c-837b-602faf4bbfde","system_id":"levelo_inurba_marseille","lat":43.27985,"lon":5.387,"is_reserved":false,"is_disabled":false,"rental_uris":{"android":"levelo://app?vid=f3a01c85-86e9-4a7c-837b-602faf4bbfde","ios":"levelo://app?vid=f3a01c85-86e9-4a7c-837b-602faf4bbfde"},"vehicle_type_id":"4","last_reported":1768998491,"current_range_meters":8000,"station_id":"ce4bhg12rcd13ifvqf80","pricing_plan_id":"cebpf4jnsgd1na2vs0mg"},{"bike_id":"ffabd398-f54b-45bd-9851-1b3115defcf6","system_id":"levelo_inurba_marseille","lat":43.24179,"lon":5.3972,"is_reserved":false,"is_disabled":false,"rental_uris":{"android":"levelo://app?vid=ffabd398-f54b-45bd-9851-1b3115defcf6","ios":"levelo://app?vid=ffabd398-f54b-45bd-9851-1b3115defcf6"},"vehicle_type_id":"4","last_reported":1768998491,"current_range_meters":8000,"station_id":"ce4bhn12rcd13ifvqgpg","pricing_plan_id":"cebpf4jnsgd1na2vs0mg"},{"bike_id":"89ba516a-c0ac-4e78-b375-cdff89d5f9c1","system_id":"levelo_inurba_marseille","lat":43.29448,"lon":5.39754,"is_reserved":false,"is_disabled":false,"rental_uris":{"android":"levelo://app?vid=89ba516a-c0ac-4e78-b375-cdff89d5f9c1","ios":"levelo://app?vid=89ba516a-c0ac-4e78-b375-cdff89d5f9c1"},"vehicle_type_id":"4","last_reported":1768998491,"current_range_meters":8000,"station_id":"ce4bh3h2rcd13ifvqdo0","pricing_plan_id":"cebpf4jnsgd1na2vs0mg"},{"bike_id":"0d8d9316-b7ae-47dd-beee-c054fd379c42","system_id":"levelo_inurba_marseille","lat":43.28659,"lon":5.38665,"is_reserved":false,"is_disabled":false,"rental_uris":{"android":"levelo://app?vid=0d8d9316-b7ae-47dd-beee-c054fd379c42","ios":"levelo://app?vid=0d8d9316-b7ae-47dd-beee-c054fd379c42"},"vehicle_type_id":"4","last_reported":1768998491,"current_range_meters":8000,"station_id":"ce4bh492rcd13ifvqdug","pricing_plan_id":"cebpf4jnsgd1na2vs0mg"},{"bike_id":"88718b1a-0b41-4247-9187-dd16a929e14b","system_id":"levelo_inurba_marseille","lat":43.26549,"lon":5.37295,"is_reserved":false,"is_disabled":false,"rental_uris":{"android":"levelo://app?vid=88718b1a-0b41-4247-9187-dd16a929e14b","ios":"levelo://app?vid=88718b1a-0b41-4247-9187-dd16a929e14b"},"vehicle_type_id":"4","last_reported":1768998491,"current_range_meters":8000,"station_id":"ce4bhg12rcd13ifvqf70","pricing_plan_id":"cebpf4jnsgd1na2vs0mg"},{"bike_id":"5eda08d4-18a6-41b7-b60f-b678592fc1ec","system_id":"levelo_inurba_marseille","lat":43.31227,"lon":5.36862,"is_reserved":false,"is_disabled":false,"rental_uris":{"android":"levelo://app?vid=5eda08d4-18a6-41b7-b60f-b678592fc1ec","ios":"levelo://app?vid=5eda08d4-18a6-41b7-b60f-b678592fc1ec"},"vehicle_type_id":"4","last_reported":1768998491,"current_range_meters":8000,"station_id":"ce4bgl92rcd13ifvqbq0","pricing_plan_id":"cebpf4jnsgd1na2vs0mg"},{"bike_id":"df4049dc-9a8b-4faa-aedc-bb3153116fad","system_id":"levelo_inurba_marseille","lat":43.30469,"lon":5.37916,"is_reserved":false,"is_disabled":false,"rental_uris":{"android":"levelo://app?vid=df4049dc-9a8b-4faa-aedc-bb3153116fad","ios":"levelo://app?vid=df4049dc-9a8b-4faa-aedc-bb3153116fad"},"vehicle_type_id":"4","last_reported":1768998491,"current_range_meters":8000,"station_id":"ce4bgup2rcd13ifvqcn0","pricing_plan_id":"cebpf4jnsgd1na2vs0mg"},{"bike_id":"67ee24bc-76b2-4aeb-9e34-516f561b3506","system_id":"levelo_inurba_marseille","lat":43.25951,"lon":5.40919,"is_reserved":false,"is_disabled":false,"rental_uris":{"android":"levelo://app?vid=67ee24bc-76b2-4aeb-9e34-516f561b3506","ios":"levelo://app?vid=67ee24bc-76b2-4aeb-9e34-516f561b3506"},"vehicle_type_id":"4","last_reported":1768998491,"current_range_meters":8000,"station_id":"ce4bhm92rcd13ifvqglg","pricing_plan_id":"cebpf4jnsgd1na2vs0mg"},{"bike_id":"69cadbd2-5224-4e51-ae89-c9629cd1670e","system_id":"levelo_inurba_marseille","lat":43.21193,"lon":5.35075,"is_reserved":false,"is_disabled":false,"rental_uris":{"android":"levelo://app?vid=69cadbd2-5224-4e51-ae89-c9629cd1670e","ios":"levelo://app?vid=69cadbd2-5224-4e51-ae89-c9629cd1670e"},"vehicle_type_id":"4","last_reported":1768998491,"current_range_meters":8000,"station_id":"st_cvj6sg6p6f1abm77japg","pricing_plan_id":"cebpf4jnsgd1na2vs0mg"},{"bike_id":"b4b624c7-6dbf-4031-9da7-a4cd7ff60fb3","system_id":"levelo_inurba_marseille","lat":43.28847,"lon":5.35858,"is_reserved":false,"is_disabled":false,"rental_uris":{"android":"levelo://app?vid=b4b624c7-6dbf-4031-9da7-a4cd7ff60fb3","ios":"levelo://app?vid=b4b624c7-6dbf-4031-9da7-a4cd7ff60fb3"},"vehicle_type_id":"4","last_reported":1768998491,"current_range_meters":8000,"station_id":"ce4bhb12rcd13ifvqem0","pricing_plan_id":"cebpf4jnsgd1na2vs0mg"},{"bike_id":"5e4f73e3-15b5-4161-b411-195292d3e766","system_id":"levelo_inurba_marseille","lat":43.244725,"lon":5.42532,"is_reserved":false,"is_disabled":false,"rental_uris":{"android":"levelo://app?vid=5e4f73e3-15b5-4161-b411-195292d3e766","ios":"levelo://app?vid=5e4f73e3-15b5-4161-b411-195292d3e766"},"vehicle_type_id":"4","last_reported":1768998491,"current_range_meters":8000,"station_id":"st_d4a3vfp97mjs738cd8kg","pricing_plan_id":"cebpf4jnsgd1na2vs0mg"},{"bike_id":"87376c51-7b52-4611-acd2-49441baafe3f","system_id":"levelo_inurba_marseille","lat":43.246162,"lon":5.402035,"is_reserved":false,"is_disabled":false,"rental_uris":{"android":"levelo://app?vid=87376c51-7b52-4611-acd2-49441baafe3f","ios":"levelo://app?vid=87376c51-7b52-4611-acd2-49441baafe3f"},"vehicle_type_id":"4","last_reported":1768998491,"current_range_meters":8000,"station_id":"","pricing_plan_id":"cebpf4jnsgd1na2vs0mg"},{"bike_id":"cc08d2b6-69fb-4c32-9f0f-91f88c556b74","system_id":"levelo_inurba_marseille","lat":43.22935,"lon":5.35374,"is_reserved":false,"is_disabled":false,"rental_uris":{"android":"levelo://app?vid=cc08d2b6-69fb-4c32-9f0f-91f88c556b74","ios":"levelo://app?vid=cc08d2b6-69fb-4c32-9f0f-91f88c556b74"},"vehicle_type_id":"4","last_reported":1768998491,"current_range_meters":8000,"station_id":"cpo3532slgdg3j2ikp40","pricing_plan_id":"cebpf4jnsgd1na2vs0mg"},{"bike_id":"c055199c-bd62-490e-8577-d64c0f179897","system_id":"levelo_inurba_marseille","lat":43.2854,"lon":5.44104,"is_reserved":false,"is_disabled":false,"rental_uris":{"android":"levelo://app?vid=c055199c-bd62-490e-8577-d64c0f179897","ios":"levelo://app?vid=c055199c-bd62-490e-8577-d64c0f179897"},"vehicle_type_id":"4","last_reported":1768998491,"current_range_meters":8000,"station_id":"st_d3j3df2ikq2c7380ej80","pricing_plan_id":"cebpf4jnsgd1na2vs0mg"},{"bike_id":"6fb19c91-7ffd-4222-b20e-e8f53699bc07","system_id":"levelo_inurba_marseille","lat":43.31883,"lon":5.40754,"is_reserved":false,"is_disabled":false,"rental_uris":{"android":"levelo://app?vid=6fb19c91-7ffd-4222-b20e-e8f53699bc07","ios":"levelo://app?vid=6fb19c91-7ffd-4222-b20e-e8f53699bc07"},"vehicle_type_id":"4","last_reported":1768998491,"current_range_meters":8400,"station_id":"ce4bhq12rcd13ifvqhig","pricing_plan_id":"cebpf4jnsgd1na2vs0mg"},{"bike_id":"19c9b524-76f1-4e5d-8be9-000b11a19079","system_id":"levelo_inurba_marseille","lat":43.25016,"lon":5.38911,"is_reserved":false,"is_disabled":false,"rental_uris":{"android":"levelo://app?vid=19c9b524-76f1-4e5d-8be9-000b11a19079","ios":"levelo://app?vid=19c9b524-76f1-4e5d-8be9-000b11a19079"},"vehicle_type_id":"4","last_reported":1768998491,"current_range_meters":8400,"station_id":"ce4bhgp2rcd13ifvqfd0","pricing_plan_id":"cebpf4jnsgd1na2vs0mg"},{"bike_id":"fe2a828f-710f-491e-b529-f22ca09a8365","system_id":"levelo_inurba_marseille","lat":43.30729,"lon":5.40947,"is_reserved":false,"is_disabled":false,"rental_uris":{"android":"levelo://app?vid=fe2a828f-710f-491e-b529-f22ca09a8365","ios":"levelo://app?vid=fe2a828f-710f-491e-b529-f22ca09a8365"},"vehicle_type_id":"4","last_reported":1768998491,"current_range_meters":8400,"station_id":"","pricing_plan_id":"cebpf4jnsgd1na2vs0mg"},{"bike_id":"ca1f68a2-e356-46d7-8d5f-503710c9279d","system_id":"levelo_inurba_marseille","lat":43.25577,"lon":5.38239,"is_reserved":false,"is_disabled":false,"rental_uris":{"android":"levelo://app?vid=ca1f68a2-e356-46d7-8d5f-503710c9279d","ios":"levelo://app?vid=ca1f68a2-e356-46d7-8d5f-503710c9279d"},"vehicle_type_id":"4","last_reported":1768998491,"current_range_meters":8400,"station_id":"ce4bhih2rcd13ifvqfs0","pricing_plan_id":"cebpf4jnsgd1na2vs0mg"},{"bike_id":"0c39f0d8-be10-4e6d-9b77-03ab45f27e26","system_id":"levelo_inurba_marseille","lat":43.27804,"lon":5.40715,"is_reserved":false,"is_disabled":false,"rental_uris":{"android":"levelo://app?vid=0c39f0d8-be10-4e6d-9b77-03ab45f27e26","ios":"levelo://app?vid=0c39f0d8-be10-4e6d-9b77-03ab45f27e26"},"vehicle_type_id":"4","last_reported":1768998491,"current_range_meters":8400,"station_id":"ce4bhnh2rcd13ifvqgtg","pricing_plan_id":"cebpf4jnsgd1na2vs0mg"},{"bike_id":"53cb02c5-7d2f-407e-b6aa-ed3271992fdd","system_id":"levelo_inurba_marseille","lat":43.27208,"lon":5.39186,"is_reserved":false,"is_disabled":false,"rental_uris":{"android":"levelo://app?vid=53cb02c5-7d2f-407e-b6aa-ed3271992fdd","ios":"levelo://app?vid=53cb02c5-7d2f-407e-b6aa-ed3271992fdd"},"vehicle_type_id":"4","last_reported":1768998491,"current_range_meters":8400,"station_id":"ce4bhhp2rcd13ifvqfm0","pricing_plan_id":"cebpf4jnsgd1na2vs0mg"},{"bike_id":"af810d0b-f695-4286-a0d5-3e1ff6f3f852","system_id":"levelo_inurba_marseille","lat":43.231904,"lon":5.399825,"is_reserved":false,"is_disabled":false,"rental_uris":{"android":"levelo://app?vid=af810d0b-f695-4286-a0d5-3e1ff6f3f852","ios":"levelo://app?vid=af810d0b-f695-4286-a0d5-3e1ff6f3f852"},"vehicle_type_id":"4","last_reported":1768998491,"current_range_meters":8400,"station_id":"ce4bhn12rcd13ifvqgqg","pricing_plan_id":"cebpf4jnsgd1na2vs0mg"},{"bike_id":"2df2b395-8651-45e0-b24b-6ceb74dd000d","system_id":"levelo_inurba_marseille","lat":43.30954,"lon":5.39039,"is_reserved":false,"is_disabled":false,"rental_uris":{"android":"levelo://app?vid=2df2b395-8651-45e0-b24b-6ceb74dd000d","ios":"levelo://app?vid=2df2b395-8651-45e0-b24b-6ceb74dd000d"},"vehicle_type_id":"4","last_reported":1768998491,"current_range_meters":8400,"station_id":"ce4bgup2rcd13ifvqco0","pricing_plan_id":"cebpf4jnsgd1na2vs0mg"},{"bike_id":"d68cd528-87dc-4a28-8471-721b0cea6df0","system_id":"levelo_inurba_marseille","lat":43.28167,"lon":5.3922,"is_reserved":false,"is_disabled":false,"rental_uris":{"android":"levelo://app?vid=d68cd528-87dc-4a28-8471-721b0cea6df0","ios":"levelo://app?vid=d68cd528-87dc-4a28-8471-721b0cea6df0"},"vehicle_type_id":"4","last_reported":1768998491,"current_range_meters":8400,"station_id":"","pricing_plan_id":"cebpf4jnsgd1na2vs0mg"},{"bike_id":"faae3dc3-e6e5-47ef-b106-b1dd29106503","system_id":"levelo_inurba_marseille","lat":43.31707,"lon":5.43708,"is_reserved":false,"is_disabled":false,"rental_uris":{"android":"levelo://app?vid=faae3dc3-e6e5-47ef-b106-b1dd29106503","ios":"levelo://app?vid=faae3dc3-e6e5-47ef-b106-b1dd29106503"},"vehicle_type_id":"4","last_reported":1768998491,"current_range_meters":8400,"station_id":"ce4bhp92rcd13ifvqhcg","pricing_plan_id":"cebpf4jnsgd1na2vs0mg"},{"bike_id":"913427db-c933-48bd-ad8f-4cf1ab0df780","system_id":"levelo_inurba_marseille","lat":43.28969,"lon":5.37265,"is_reserved":false,"is_disabled":false,"rental_uris":{"android":"levelo://app?vid=913427db-c933-48bd-ad8f-4cf1ab0df780","ios":"levelo://app?vid=913427db-c933-48bd-ad8f-4cf1ab0df780"},"vehicle_type_id":"4","last_reported":1768998491,"current_range_meters":8400,"station_id":"ce4bghh2rcd13ifvqb60","pricing_plan_id":"cebpf4jnsgd1na2vs0mg"},{"bike_id":"19c9b4d2-1ea0-4167-80ed-614d6330d907","system_id":"levelo_inurba_marseille","lat":43.23217,"lon":5.39955,"is_reserved":false,"is_disabled":false,"rental_uris":{"android":"levelo://app?vid=19c9b4d2-1ea0-4167-80ed-614d6330d907","ios":"levelo://app?vid=19c9b4d2-1ea0-4167-80ed-614d6330d907"},"vehicle_type_id":"4","last_reported":1768998491,"current_range_meters":8400,"station_id":"","pricing_plan_id":"cebpf4jnsgd1na2vs0mg"},{"bike_id":"b833392c-9d0c-48ae-8345-0d764cc95dee","system_id":"levelo_inurba_marseille","lat":43.33602,"lon":5.41033,"is_reserved":false,"is_disabled":false,"rental_uris":{"android":"levelo://app?vid=b833392c-9d0c-48ae-8345-0d764cc95dee","ios":"levelo://app?vid=b833392c-9d0c-48ae-8345-0d764cc95dee"},"vehicle_type_id":"4","last_reported":1768998491,"current_range_meters":8400,"station_id":"ce4bhqh2rcd13ifvqhmg","pricing_plan_id":"cebpf4jnsgd1na2vs0mg"},{"bike_id":"6ec86b6a-11af-44ec-aa58-beb1b9c8a19f","system_id":"levelo_inurba_marseille","lat":43.32495,"lon":5.36566,"is_reserved":false,"is_disabled":false,"rental_uris":{"android":"levelo://app?vid=6ec86b6a-11af-44ec-aa58-beb1b9c8a19f","ios":"levelo://app?vid=6ec86b6a-11af-44ec-aa58-beb1b9c8a19f"},"vehicle_type_id":"4","last_reported":1768998491,"current_range_meters":8400,"station_id":"ce4bhs12rcd13ifvqhvg","pricing_plan_id":"cebpf4jnsgd1na2vs0mg"},{"bike_id":"2a7c59ff-de2a-4e18-998e-2131fb7a74d6","system_id":"levelo_inurba_marseille","lat":43.30296,"lon":5.36903,"is_reserved":false,"is_disabled":false,"rental_uris":{"android":"levelo://app?vid=2a7c59ff-de2a-4e18-998e-2131fb7a74d6","ios":"levelo://app?vid=2a7c59ff-de2a-4e18-998e-2131fb7a74d6"},"vehicle_type_id":"4","last_reported":1768998491,"current_range_meters":8400,"station_id":"ce4bgqh2rcd13ifvqc5g","pricing_plan_id":"cebpf4jnsgd1na2vs0mg"},{"bike_id":"e60b80c1-e035-4d06-8dfd-6a5996278e1f","system_id":"levelo_inurba_marseille","lat":43.244733,"lon":5.425385,"is_reserved":false,"is_disabled":false,"rental_uris":{"android":"levelo://app?vid=e60b80c1-e035-4d06-8dfd-6a5996278e1f","ios":"levelo://app?vid=e60b80c1-e035-4d06-8dfd-6a5996278e1f"},"vehicle_type_id":"4","last_reported":1768998491,"current_range_meters":8400,"station_id":"st_d4a3vfp97mjs738cd8kg","pricing_plan_id":"cebpf4jnsgd1na2vs0mg"},{"bike_id":"131d083d-d299-49de-ae79-91ebeb210640","system_id":"levelo_inurba_marseille","lat":43.25712,"lon":5.41813,"is_reserved":false,"is_disabled":false,"rental_uris":{"android":"levelo://app?vid=131d083d-d299-49de-ae79-91ebeb210640","ios":"levelo://app?vid=131d083d-d299-49de-ae79-91ebeb210640"},"vehicle_type_id":"4","last_reported":1768998491,"current_range_meters":8400,"station_id":"","pricing_plan_id":"cebpf4jnsgd1na2vs0mg"},{"bike_id":"408e8636-0be7-4b88-bee2-39675973c9f7","system_id":"levelo_inurba_marseille","lat":43.29049,"lon":5.39984,"is_reserved":false,"is_disabled":false,"rental_uris":{"android":"levelo://app?vid=408e8636-0be7-4b88-bee2-39675973c9f7","ios":"levelo://app?vid=408e8636-0be7-4b88-bee2-39675973c9f7"},"vehicle_type_id":"4","last_reported":1768998491,"current_range_meters":8800,"station_id":"ce4bh392rcd13ifvqdm0","pricing_plan_id":"cebpf4jnsgd1na2vs0mg"},{"bike_id":"e18e15b1-254c-4764-89f5-4ecaf6dde180","system_id":"levelo_inurba_marseille","lat":43.31359,"lon":5.36746,"is_reserved":false,"is_disabled":false,"rental_uris":{"android":"levelo://app?vid=e18e15b1-254c-4764-89f5-4ecaf6dde180","ios":"levelo://app?vid=e18e15b1-254c-4764-89f5-4ecaf6dde180"},"vehicle_type_id":"4","last_reported":1768998491,"current_range_meters":8800,"station_id":"ce4bgr92rcd13ifvqc6g","pricing_plan_id":"cebpf4jnsgd1na2vs0mg"},{"bike_id":"e07cc4c7-f8da-43b9-86b7-9b5a29a91e8f","system_id":"levelo_inurba_marseille","lat":43.278949,"lon":5.380238,"is_reserved":false,"is_disabled":false,"rental_uris":{"android":"levelo://app?vid=e07cc4c7-f8da-43b9-86b7-9b5a29a91e8f","ios":"levelo://app?vid=e07cc4c7-f8da-43b9-86b7-9b5a29a91e8f"},"vehicle_type_id":"4","last_reported":1768998491,"current_range_meters":8800,"station_id":"ce4bhf92rcd13ifvqf50","pricing_plan_id":"cebpf4jnsgd1na2vs0mg"},{"bike_id":"ebc59118-e1a4-482d-84d0-eafb34b0b9ea","system_id":"levelo_inurba_marseille","lat":43.237779,"lon":5.366309,"is_reserved":false,"is_disabled":false,"rental_uris":{"android":"levelo://app?vid=ebc59118-e1a4-482d-84d0-eafb34b0b9ea","ios":"levelo://app?vid=ebc59118-e1a4-482d-84d0-eafb34b0b9ea"},"vehicle_type_id":"4","last_reported":1768998491,"current_range_meters":8800,"station_id":"st_d3nk18o9ro0c73en2l3g","pricing_plan_id":"cebpf4jnsgd1na2vs0mg"},{"bike_id":"28f55ca8-d2ea-41c1-902d-e5277b239569","system_id":"levelo_inurba_marseille","lat":43.264205,"lon":5.410627,"is_reserved":false,"is_disabled":false,"rental_uris":{"android":"levelo://app?vid=28f55ca8-d2ea-41c1-902d-e5277b239569","ios":"levelo://app?vid=28f55ca8-d2ea-41c1-902d-e5277b239569"},"vehicle_type_id":"4","last_reported":1768998491,"current_range_meters":8800,"station_id":"st_d4e5ca6na9uc73bfl5fg","pricing_plan_id":"cebpf4jnsgd1na2vs0mg"},{"bike_id":"d9fff92a-3943-4a01-98e1-7c430b29f114","system_id":"levelo_inurba_marseille","lat":43.27988,"lon":5.41673,"is_reserved":false,"is_disabled":false,"rental_uris":{"android":"levelo://app?vid=d9fff92a-3943-4a01-98e1-7c430b29f114","ios":"levelo://app?vid=d9fff92a-3943-4a01-98e1-7c430b29f114"},"vehicle_type_id":"4","last_reported":1768998491,"current_range_meters":8800,"station_id":"ce4bho12rcd13ifvqh1g","pricing_plan_id":"cebpf4jnsgd1na2vs0mg"},{"bike_id":"42132d88-64cb-4462-b090-1b5246d15bc2","system_id":"levelo_inurba_marseille","lat":43.28657,"lon":5.36354,"is_reserved":false,"is_disabled":false,"rental_uris":{"android":"levelo://app?vid=42132d88-64cb-4462-b090-1b5246d15bc2","ios":"levelo://app?vid=42132d88-64cb-4462-b090-1b5246d15bc2"},"vehicle_type_id":"4","last_reported":1768998491,"current_range_meters":8800,"station_id":"ce4bhah2rcd13ifvqej0","pricing_plan_id":"cebpf4jnsgd1na2vs0mg"},{"bike_id":"90fd9743-abf7-4844-951b-b0c621e30ae6","system_id":"levelo_inurba_marseille","lat":43.30909,"lon":5.36846,"is_reserved":false,"is_disabled":false,"rental_uris":{"android":"levelo://app?vid=90fd9743-abf7-4844-951b-b0c621e30ae6","ios":"levelo://app?vid=90fd9743-abf7-4844-951b-b0c621e30ae6"},"vehicle_type_id":"4","last_reported":1768998491,"current_range_meters":8800,"station_id":"ce4bgn92rcd13ifvqbvg","pricing_plan_id":"cebpf4jnsgd1na2vs0mg"},{"bike_id":"ea2e5c50-51dc-4864-abbd-d7036acc9462","system_id":"levelo_inurba_marseille","lat":43.29009,"lon":5.35609,"is_reserved":false,"is_disabled":false,"rental_uris":{"android":"levelo://app?vid=ea2e5c50-51dc-4864-abbd-d7036acc9462","ios":"levelo://app?vid=ea2e5c50-51dc-4864-abbd-d7036acc9462"},"vehicle_type_id":"4","last_reported":1768998491,"current_range_meters":8800,"station_id":"ce4bhb92rcd13ifvqen0","pricing_plan_id":"cebpf4jnsgd1na2vs0mg"},{"bike_id":"f6de2d43-1f49-448d-9d89-c685ca8fe5a3","system_id":"levelo_inurba_marseille","lat":43.30532,"lon":5.36528,"is_reserved":false,"is_disabled":false,"rental_uris":{"android":"levelo://app?vid=f6de2d43-1f49-448d-9d89-c685ca8fe5a3","ios":"levelo://app?vid=f6de2d43-1f49-448d-9d89-c685ca8fe5a3"},"vehicle_type_id":"4","last_reported":1768998491,"current_range_meters":8800,"station_id":"ce4bgs12rcd13ifvqcag","pricing_plan_id":"cebpf4jnsgd1na2vs0mg"},{"bike_id":"fddbb7cb-a21d-46ff-8d07-df9eecd44019","system_id":"levelo_inurba_marseille","lat":43.32105,"lon":5.36793,"is_reserved":false,"is_disabled":false,"rental_uris":{"android":"levelo://app?vid=fddbb7cb-a21d-46ff-8d07-df9eecd44019","ios":"levelo://app?vid=fddbb7cb-a21d-46ff-8d07-df9eecd44019"},"vehicle_type_id":"4","last_reported":1768998491,"current_range_meters":8800,"station_id":"ce4bhrh2rcd13ifvqhug","pricing_plan_id":"cebpf4jnsgd1na2vs0mg"},{"bike_id":"bf9df301-dc0d-41cc-96a1-27301e9f819b","system_id":"levelo_inurba_marseille","lat":43.28484,"lon":5.483899,"is_reserved":false,"is_disabled":false,"rental_uris":{"android":"levelo://app?vid=bf9df301-dc0d-41cc-96a1-27301e9f819b","ios":"levelo://app?vid=bf9df301-dc0d-41cc-96a1-27301e9f819b"},"vehicle_type_id":"4","last_reported":1768998491,"current_range_meters":8800,"station_id":"","pricing_plan_id":"cebpf4jnsgd1na2vs0mg"},{"bike_id":"f9ca995a-cc09-49fb-a65b-5cbcd6266ccb","system_id":"levelo_inurba_marseille","lat":43.301513,"lon":5.380912,"is_reserved":false,"is_disabled":false,"rental_uris":{"android":"levelo://app?vid=f9ca995a-cc09-49fb-a65b-5cbcd6266ccb","ios":"levelo://app?vid=f9ca995a-cc09-49fb-a65b-5cbcd6266ccb"},"vehicle_type_id":"4","last_reported":1768998491,"current_range_meters":8800,"station_id":"ce4bgjp2rcd13ifvqbh0","pricing_plan_id":"cebpf4jnsgd1na2vs0mg"},{"bike_id":"3a05cc6e-50be-46aa-996b-cd6b30cbdddf","system_id":"levelo_inurba_marseille","lat":43.26686,"lon":5.38278,"is_reserved":false,"is_disabled":false,"rental_uris":{"android":"levelo://app?vid=3a05cc6e-50be-46aa-996b-cd6b30cbdddf","ios":"levelo://app?vid=3a05cc6e-50be-46aa-996b-cd6b30cbdddf"},"vehicle_type_id":"4","last_reported":1768998491,"current_range_meters":8800,"station_id":"ce4bhg92rcd13ifvqf90","pricing_plan_id":"cebpf4jnsgd1na2vs0mg"},{"bike_id":"800ac751-b72d-4eb8-b5ef-7e899db1abd8","system_id":"levelo_inurba_marseille","lat":43.32716,"lon":5.39262,"is_reserved":false,"is_disabled":false,"rental_uris":{"android":"levelo://app?vid=800ac751-b72d-4eb8-b5ef-7e899db1abd8","ios":"levelo://app?vid=800ac751-b72d-4eb8-b5ef-7e899db1abd8"},"vehicle_type_id":"4","last_reported":1768998491,"current_range_meters":8800,"station_id":"","pricing_plan_id":"cebpf4jnsgd1na2vs0mg"},{"bike_id":"6ce190b6-c466-4ac6-bb9d-9cc75b2398c8","system_id":"levelo_inurba_marseille","lat":43.30947,"lon":5.39042,"is_reserved":false,"is_disabled":false,"rental_uris":{"android":"levelo://app?vid=6ce190b6-c466-4ac6-bb9d-9cc75b2398c8","ios":"levelo://app?vid=6ce190b6-c466-4ac6-bb9d-9cc75b2398c8"},"vehicle_type_id":"4","last_reported":1768998491,"current_range_meters":8800,"station_id":"ce4bgup2rcd13ifvqco0","pricing_plan_id":"cebpf4jnsgd1na2vs0mg"},{"bike_id":"488d3d36-c3f0-4390-80be-f0194a76248a","system_id":"levelo_inurba_marseille","lat":43.25568,"lon":5.40446,"is_reserved":false,"is_disabled":false,"rental_uris":{"android":"levelo://app?vid=488d3d36-c3f0-4390-80be-f0194a76248a","ios":"levelo://app?vid=488d3d36-c3f0-4390-80be-f0194a76248a"},"vehicle_type_id":"4","last_reported":1768998491,"current_range_meters":8800,"station_id":"","pricing_plan_id":"cebpf4jnsgd1na2vs0mg"},{"bike_id":"957a6de9-2653-427d-853c-7cc91d659270","system_id":"levelo_inurba_marseille","lat":43.30938,"lon":5.40128,"is_reserved":false,"is_disabled":false,"rental_uris":{"android":"levelo://app?vid=957a6de9-2653-427d-853c-7cc91d659270","ios":"levelo://app?vid=957a6de9-2653-427d-853c-7cc91d659270"},"vehicle_type_id":"4","last_reported":1768998491,"current_range_meters":8800,"station_id":"ce4bgvp2rcd13ifvqct0","pricing_plan_id":"cebpf4jnsgd1na2vs0mg"},{"bike_id":"aec5c08c-9f05-47e9-bb02-2d63b83fc483","system_id":"levelo_inurba_marseille","lat":43.26736,"lon":5.39258,"is_reserved":false,"is_disabled":false,"rental_uris":{"android":"levelo://app?vid=aec5c08c-9f05-47e9-bb02-2d63b83fc483","ios":"levelo://app?vid=aec5c08c-9f05-47e9-bb02-2d63b83fc483"},"vehicle_type_id":"4","last_reported":1768998491,"current_range_meters":8800,"station_id":"","pricing_plan_id":"cebpf4jnsgd1na2vs0mg"},{"bike_id":"53ec5590-36d9-4d66-b6fa-28be4e71ff12","system_id":"levelo_inurba_marseille","lat":43.23144,"lon":5.43708,"is_reserved":false,"is_disabled":false,"rental_uris":{"android":"levelo://app?vid=53ec5590-36d9-4d66-b6fa-28be4e71ff12","ios":"levelo://app?vid=53ec5590-36d9-4d66-b6fa-28be4e71ff12"},"vehicle_type_id":"4","last_reported":1768998491,"current_range_meters":8800,"station_id":"ce4bhmp2rcd13ifvqgog","pricing_plan_id":"cebpf4jnsgd1na2vs0mg"},{"bike_id":"608693ee-146a-43ab-bdee-d762de330fcf","system_id":"levelo_inurba_marseille","lat":43.28533,"lon":5.44094,"is_reserved":false,"is_disabled":false,"rental_uris":{"android":"levelo://app?vid=608693ee-146a-43ab-bdee-d762de330fcf","ios":"levelo://app?vid=608693ee-146a-43ab-bdee-d762de330fcf"},"vehicle_type_id":"4","last_reported":1768998491,"current_range_meters":8800,"station_id":"st_d3j3df2ikq2c7380ej80","pricing_plan_id":"cebpf4jnsgd1na2vs0mg"},{"bike_id":"83461687-2d6f-44e3-8195-fb721f9fb181","system_id":"levelo_inurba_marseille","lat":43.2847,"lon":5.48404,"is_reserved":false,"is_disabled":false,"rental_uris":{"android":"levelo://app?vid=83461687-2d6f-44e3-8195-fb721f9fb181","ios":"levelo://app?vid=83461687-2d6f-44e3-8195-fb721f9fb181"},"vehicle_type_id":"4","last_reported":1768998491,"current_range_meters":8800,"station_id":"","pricing_plan_id":"cebpf4jnsgd1na2vs0mg"},{"bike_id":"b451a4e3-2bf4-4d2b-8c22-e5d25007c832","system_id":"levelo_inurba_marseille","lat":43.2975,"lon":5.42772,"is_reserved":false,"is_disabled":false,"rental_uris":{"android":"levelo://app?vid=b451a4e3-2bf4-4d2b-8c22-e5d25007c832","ios":"levelo://app?vid=b451a4e3-2bf4-4d2b-8c22-e5d25007c832"},"vehicle_type_id":"4","last_reported":1768998491,"current_range_meters":8800,"station_id":"st_d3md5207bmas73dh9klg","pricing_plan_id":"cebpf4jnsgd1na2vs0mg"},{"bike_id":"66588bd4-ede7-4f16-9000-80e9462d12b2","system_id":"levelo_inurba_marseille","lat":43.3095,"lon":5.39053,"is_reserved":false,"is_disabled":false,"rental_uris":{"android":"levelo://app?vid=66588bd4-ede7-4f16-9000-80e9462d12b2","ios":"levelo://app?vid=66588bd4-ede7-4f16-9000-80e9462d12b2"},"vehicle_type_id":"4","last_reported":1768998491,"current_range_meters":8800,"station_id":"ce4bgup2rcd13ifvqco0","pricing_plan_id":"cebpf4jnsgd1na2vs0mg"},{"bike_id":"db5c533d-ad6a-4cca-9da6-b7b91ac05bc1","system_id":"levelo_inurba_marseille","lat":43.21768,"lon":5.34614,"is_reserved":false,"is_disabled":false,"rental_uris":{"android":"levelo://app?vid=db5c533d-ad6a-4cca-9da6-b7b91ac05bc1","ios":"levelo://app?vid=db5c533d-ad6a-4cca-9da6-b7b91ac05bc1"},"vehicle_type_id":"4","last_reported":1768998491,"current_range_meters":8800,"station_id":"st_cvj6r9ubvosntc0bgbag","pricing_plan_id":"cebpf4jnsgd1na2vs0mg"},{"bike_id":"8a4a9240-9ce5-4138-8cf7-d52d8e272c70","system_id":"levelo_inurba_marseille","lat":43.29787,"lon":5.39339,"is_reserved":false,"is_disabled":false,"rental_uris":{"android":"levelo://app?vid=8a4a9240-9ce5-4138-8cf7-d52d8e272c70","ios":"levelo://app?vid=8a4a9240-9ce5-4138-8cf7-d52d8e272c70"},"vehicle_type_id":"4","last_reported":1768998491,"current_range_meters":8800,"station_id":"chh1huq6cuj3fo74tm60","pricing_plan_id":"cebpf4jnsgd1na2vs0mg"},{"bike_id":"0889aa33-5aba-4df7-b8e4-1d512f6c4e0c","system_id":"levelo_inurba_marseille","lat":43.30468,"lon":5.37909,"is_reserved":false,"is_disabled":false,"rental_uris":{"android":"levelo://app?vid=0889aa33-5aba-4df7-b8e4-1d512f6c4e0c","ios":"levelo://app?vid=0889aa33-5aba-4df7-b8e4-1d512f6c4e0c"},"vehicle_type_id":"4","last_reported":1768998491,"current_range_meters":8800,"station_id":"ce4bgup2rcd13ifvqcn0","pricing_plan_id":"cebpf4jnsgd1na2vs0mg"},{"bike_id":"ae082b45-528d-4d2d-a946-c7dc2ab87b58","system_id":"levelo_inurba_marseille","lat":43.27372,"lon":5.36233,"is_reserved":false,"is_disabled":false,"rental_uris":{"android":"levelo://app?vid=ae082b45-528d-4d2d-a946-c7dc2ab87b58","ios":"levelo://app?vid=ae082b45-528d-4d2d-a946-c7dc2ab87b58"},"vehicle_type_id":"4","last_reported":1768998491,"current_range_meters":9200,"station_id":"ce4bhbh2rcd13ifvqeo0","pricing_plan_id":"cebpf4jnsgd1na2vs0mg"},{"bike_id":"3bc05be6-93f9-4c68-bb3c-998af79460ca","system_id":"levelo_inurba_marseille","lat":43.2315,"lon":5.43723,"is_reserved":false,"is_disabled":false,"rental_uris":{"android":"levelo://app?vid=3bc05be6-93f9-4c68-bb3c-998af79460ca","ios":"levelo://app?vid=3bc05be6-93f9-4c68-bb3c-998af79460ca"},"vehicle_type_id":"4","last_reported":1768998491,"current_range_meters":9200,"station_id":"ce4bhmp2rcd13ifvqgog","pricing_plan_id":"cebpf4jnsgd1na2vs0mg"},{"bike_id":"86fab962-3ac3-4bbf-b258-0c4cf3a7dea9","system_id":"levelo_inurba_marseille","lat":43.2862,"lon":5.37073,"is_reserved":false,"is_disabled":false,"rental_uris":{"android":"levelo://app?vid=86fab962-3ac3-4bbf-b258-0c4cf3a7dea9","ios":"levelo://app?vid=86fab962-3ac3-4bbf-b258-0c4cf3a7dea9"},"vehicle_type_id":"4","last_reported":1768998491,"current_range_meters":9200,"station_id":"ce4bht12rcd13ifvqi60","pricing_plan_id":"cebpf4jnsgd1na2vs0mg"},{"bike_id":"55a93059-46da-4326-b3f6-eca54949cf8d","system_id":"levelo_inurba_marseille","lat":43.27808,"lon":5.40714,"is_reserved":false,"is_disabled":false,"rental_uris":{"android":"levelo://app?vid=55a93059-46da-4326-b3f6-eca54949cf8d","ios":"levelo://app?vid=55a93059-46da-4326-b3f6-eca54949cf8d"},"vehicle_type_id":"4","last_reported":1768998491,"current_range_meters":9200,"station_id":"ce4bhnh2rcd13ifvqgtg","pricing_plan_id":"cebpf4jnsgd1na2vs0mg"},{"bike_id":"e82068f2-30b9-404d-b65c-0b14de8ebbc8","system_id":"levelo_inurba_marseille","lat":43.30146,"lon":5.380867,"is_reserved":false,"is_disabled":false,"rental_uris":{"android":"levelo://app?vid=e82068f2-30b9-404d-b65c-0b14de8ebbc8","ios":"levelo://app?vid=e82068f2-30b9-404d-b65c-0b14de8ebbc8"},"vehicle_type_id":"4","last_reported":1768998491,"current_range_meters":9200,"station_id":"ce4bgjp2rcd13ifvqbh0","pricing_plan_id":"cebpf4jnsgd1na2vs0mg"},{"bike_id":"b3af5828-d55e-4f7d-a788-0b9c5f8f9492","system_id":"levelo_inurba_marseille","lat":43.26484,"lon":5.41901,"is_reserved":false,"is_disabled":true,"rental_uris":{"android":"levelo://app?vid=b3af5828-d55e-4f7d-a788-0b9c5f8f9492","ios":"levelo://app?vid=b3af5828-d55e-4f7d-a788-0b9c5f8f9492"},"vehicle_type_id":"4","last_reported":1768998491,"current_range_meters":9200,"station_id":"","pricing_plan_id":"cebpf4jnsgd1na2vs0mg"},{"bike_id":"22bc6d8e-7e0c-4234-afe0-c88e2589ac70","system_id":"levelo_inurba_marseille","lat":43.27076,"lon":5.39874,"is_reserved":false,"is_disabled":false,"rental_uris":{"android":"levelo://app?vid=22bc6d8e-7e0c-4234-afe0-c88e2589ac70","ios":"levelo://app?vid=22bc6d8e-7e0c-4234-afe0-c88e2589ac70"},"vehicle_type_id":"4","last_reported":1768998491,"current_range_meters":9200,"station_id":"","pricing_plan_id":"cebpf4jnsgd1na2vs0mg"},{"bike_id":"b14b7864-c78c-4d3b-8985-7705cba3866f","system_id":"levelo_inurba_marseille","lat":43.2293,"lon":5.35379,"is_reserved":false,"is_disabled":false,"rental_uris":{"android":"levelo://app?vid=b14b7864-c78c-4d3b-8985-7705cba3866f","ios":"levelo://app?vid=b14b7864-c78c-4d3b-8985-7705cba3866f"},"vehicle_type_id":"4","last_reported":1768998491,"current_range_meters":9200,"station_id":"cpo3532slgdg3j2ikp40","pricing_plan_id":"cebpf4jnsgd1na2vs0mg"},{"bike_id":"0b1abdce-2b71-4e52-99c9-ef200349b114","system_id":"levelo_inurba_marseille","lat":43.27804,"lon":5.40696,"is_reserved":false,"is_disabled":false,"rental_uris":{"android":"levelo://app?vid=0b1abdce-2b71-4e52-99c9-ef200349b114","ios":"levelo://app?vid=0b1abdce-2b71-4e52-99c9-ef200349b114"},"vehicle_type_id":"4","last_reported":1768998491,"current_range_meters":9200,"station_id":"ce4bhnh2rcd13ifvqgtg","pricing_plan_id":"cebpf4jnsgd1na2vs0mg"},{"bike_id":"8d79b599-322a-4b8d-bfb0-fd0690ea34d0","system_id":"levelo_inurba_marseille","lat":43.28784,"lon":5.3805,"is_reserved":false,"is_disabled":false,"rental_uris":{"android":"levelo://app?vid=8d79b599-322a-4b8d-bfb0-fd0690ea34d0","ios":"levelo://app?vid=8d79b599-322a-4b8d-bfb0-fd0690ea34d0"},"vehicle_type_id":"4","last_reported":1768998491,"current_range_meters":9200,"station_id":"","pricing_plan_id":"cebpf4jnsgd1na2vs0mg"},{"bike_id":"072ac4a5-f0c3-4278-9c83-b6b073c5f5ed","system_id":"levelo_inurba_marseille","lat":43.301485,"lon":5.380879,"is_reserved":false,"is_disabled":false,"rental_uris":{"android":"levelo://app?vid=072ac4a5-f0c3-4278-9c83-b6b073c5f5ed","ios":"levelo://app?vid=072ac4a5-f0c3-4278-9c83-b6b073c5f5ed"},"vehicle_type_id":"4","last_reported":1768998491,"current_range_meters":9600,"station_id":"ce4bgjp2rcd13ifvqbh0","pricing_plan_id":"cebpf4jnsgd1na2vs0mg"},{"bike_id":"fc5d102e-6a36-4a5b-99d5-23cf30eec9b5","system_id":"levelo_inurba_marseille","lat":43.23192,"lon":5.3555,"is_reserved":false,"is_disabled":false,"rental_uris":{"android":"levelo://app?vid=fc5d102e-6a36-4a5b-99d5-23cf30eec9b5","ios":"levelo://app?vid=fc5d102e-6a36-4a5b-99d5-23cf30eec9b5"},"vehicle_type_id":"4","last_reported":1768998491,"current_range_meters":9600,"station_id":"ce4bhu92rcd13ifvqi70","pricing_plan_id":"cebpf4jnsgd1na2vs0mg"},{"bike_id":"0fb3d036-2071-4d4b-a99c-0b94be6cfd65","system_id":"levelo_inurba_marseille","lat":43.281716,"lon":5.426384,"is_reserved":false,"is_disabled":false,"rental_uris":{"android":"levelo://app?vid=0fb3d036-2071-4d4b-a99c-0b94be6cfd65","ios":"levelo://app?vid=0fb3d036-2071-4d4b-a99c-0b94be6cfd65"},"vehicle_type_id":"4","last_reported":1768998491,"current_range_meters":9600,"station_id":"ce4bhnh2rcd13ifvqgug","pricing_plan_id":"cebpf4jnsgd1na2vs0mg"},{"bike_id":"bd3222b3-dffe-4214-a25c-da1b23e1c71b","system_id":"levelo_inurba_marseille","lat":43.32363,"lon":5.3674,"is_reserved":false,"is_disabled":false,"rental_uris":{"android":"levelo://app?vid=bd3222b3-dffe-4214-a25c-da1b23e1c71b","ios":"levelo://app?vid=bd3222b3-dffe-4214-a25c-da1b23e1c71b"},"vehicle_type_id":"4","last_reported":1768998491,"current_range_meters":9600,"station_id":"ce4bhsh2rcd13ifvqi2g","pricing_plan_id":"cebpf4jnsgd1na2vs0mg"},{"bike_id":"7af840f7-7e20-4613-a37d-d52094ae40f7","system_id":"levelo_inurba_marseille","lat":43.28267,"lon":5.35062,"is_reserved":false,"is_disabled":false,"rental_uris":{"android":"levelo://app?vid=7af840f7-7e20-4613-a37d-d52094ae40f7","ios":"levelo://app?vid=7af840f7-7e20-4613-a37d-d52094ae40f7"},"vehicle_type_id":"4","last_reported":1768998491,"current_range_meters":9600,"station_id":"ce4bhbp2rcd13ifvqerg","pricing_plan_id":"cebpf4jnsgd1na2vs0mg"},{"bike_id":"a463ac44-7536-49ce-b5b2-dcc926d6685a","system_id":"levelo_inurba_marseille","lat":43.21189,"lon":5.35076,"is_reserved":false,"is_disabled":false,"rental_uris":{"android":"levelo://app?vid=a463ac44-7536-49ce-b5b2-dcc926d6685a","ios":"levelo://app?vid=a463ac44-7536-49ce-b5b2-dcc926d6685a"},"vehicle_type_id":"4","last_reported":1768998491,"current_range_meters":9600,"station_id":"st_cvj6sg6p6f1abm77japg","pricing_plan_id":"cebpf4jnsgd1na2vs0mg"},{"bike_id":"c9b96b08-3a78-47e7-8280-11f2d4f3aea4","system_id":"levelo_inurba_marseille","lat":43.29225,"lon":5.36079,"is_reserved":false,"is_disabled":true,"rental_uris":{"android":"levelo://app?vid=c9b96b08-3a78-47e7-8280-11f2d4f3aea4","ios":"levelo://app?vid=c9b96b08-3a78-47e7-8280-11f2d4f3aea4"},"vehicle_type_id":"4","last_reported":1768998491,"current_range_meters":9600,"station_id":"ce4bhbh2rcd13ifvqeqg","pricing_plan_id":"cebpf4jnsgd1na2vs0mg"},{"bike_id":"4b79c6ba-24db-417a-b307-75ad61c062ef","system_id":"levelo_inurba_marseille","lat":43.309495,"lon":5.390443,"is_reserved":false,"is_disabled":false,"rental_uris":{"android":"levelo://app?vid=4b79c6ba-24db-417a-b307-75ad61c062ef","ios":"levelo://app?vid=4b79c6ba-24db-417a-b307-75ad61c062ef"},"vehicle_type_id":"4","last_reported":1768998491,"current_range_meters":9600,"station_id":"ce4bgup2rcd13ifvqco0","pricing_plan_id":"cebpf4jnsgd1na2vs0mg"},{"bike_id":"bb8c5d93-1f95-40fe-8c36-a8746698ea69","system_id":"levelo_inurba_marseille","lat":43.30958,"lon":5.39043,"is_reserved":false,"is_disabled":false,"rental_uris":{"android":"levelo://app?vid=bb8c5d93-1f95-40fe-8c36-a8746698ea69","ios":"levelo://app?vid=bb8c5d93-1f95-40fe-8c36-a8746698ea69"},"vehicle_type_id":"4","last_reported":1768998491,"current_range_meters":9600,"station_id":"ce4bgup2rcd13ifvqco0","pricing_plan_id":"cebpf4jnsgd1na2vs0mg"},{"bike_id":"779abb0e-4f39-4b8e-8b0d-385800da86cf","system_id":"levelo_inurba_marseille","lat":43.28464,"lon":5.38535,"is_reserved":false,"is_disabled":true,"rental_uris":{"android":"levelo://app?vid=779abb0e-4f39-4b8e-8b0d-385800da86cf","ios":"levelo://app?vid=779abb0e-4f39-4b8e-8b0d-385800da86cf"},"vehicle_type_id":"4","last_reported":1768998491,"current_range_meters":9600,"station_id":"ce4bh8p2rcd13ifvqeb0","pricing_plan_id":"cebpf4jnsgd1na2vs0mg"},