{"last_updated":1727971844,"ttl":60,"version":"2.2","data":{"bikes":[{"bike_id":"18588757-cdc7-4164-b275-329b63991fa8","system_id":"levelo_inurba_marseille","lat":43.28617,"lon":5.35099,"is_reserved":false,"is_disabled":false,"rental_uris":{"android":"levelo://app?vid=18588757-cdc7-4164-b275-329b63991fa8","ios":"levelo://app?vid=18588757-cdc7-4164-b275-329b63991fa8"},"vehicle_type_id":"4","last_reported":1727971844,"current_range_meters":28800,"station_id":"ce4bhch2rcd13ifvqeug","pricing_plan_id":"cebpf4jnsgd1na2vs0mg"},{"bike_id":"9e4dfbb9-8ef1-4ef5-9c64-4465d934bf51","system_id":"levelo_inurba_marseille","lat":43.29301,"lon":5.37442,"is_reserved":false,"is_disabled":false,"rental_uris":{"android":"levelo://app?vid=9e4dfbb9-8ef1-4ef5-9c64-4465d934bf51","ios":"levelo://app?vid=9e4dfbb9-8ef1-4ef5-9c64-4465d934bf51"},"vehicle_type_id":"4","last_reported":1727971844,"current_range_meters":4000,"station_id":"ce4bgi12rcd13ifvqb70","pricing_plan_id":"cebpf4jnsgd1na2vs0mg"},{"bike_id":"11170623-2ddd-4805-998e-11dd7f68e978","system_id":"levelo_inurba_marseille","lat":43.29012,"lon":5.35622,"is_reserved":false,"is_disabled":false,"rental_uris":{"android":"levelo://app?vid=11170623-2ddd-4805-998e-11dd7f68e978","ios":"levelo://app?vid=11170623-2ddd-4805-998e-11dd7f68e978"},"vehicle_type_id":"4","last_reported":1727971844,"current_range_meters":39200,"station_id":"ce4bhb92rcd13ifvqen0","pricing_plan_id":"cebpf4jnsgd1na2vs0mg"},{"bike_id":"75d81fb4-1568-4c00-b04d-ea163228d557","system_id":"levelo_inurba_marseille","lat":43.3021,"lon":5.41315,"is_reserved":false,"is_disabled":false,"rental_uris":{"android":"levelo://app?vid=75d81fb4-1568-4c00-b04d-ea163228d557","ios":"levelo://app?vid=75d81fb4-1568-4c00-b04d-ea163228d557"},"vehicle_type_id":"4","last_reported":1727971844,"current_range_meters":17600,"station_id":"ce4bhop2rcd13ifvqh8g","pricing_plan_id":"cebpf4jnsgd1na2vs0mg"},{"bike_id":"d03a686f-7c4e-4697-81d3-8e3e27af0f5f","system_id":"levelo_inurba_marseille","lat":43.27842,"lon":5.39208,"is_reserved":false,"is_disabled":false,"rental_uris":{"android":"levelo://app?vid=d03a686f-7c4e-4697-81d3-8e3e27af0f5f","ios":"levelo://app?vid=d03a686f-7c4e-4697-81d3-8e3e27af0f5f"},"vehicle_type_id":"4","last_reported":1727971844,"current_range_meters":38800,"station_id":"ce4bhjp2rcd13ifvqga0","pricing_plan_id":"cebpf4jnsgd1na2vs0mg"},{"bike_id":"dfa316ed-31fe-4eb7-ae98-3312a562d760","system_id":"levelo_inurba_marseille","lat":43.27183,"lon":5.40989,"is_reserved":false,"is_disabled":false,"rental_uris":{"android":"levelo://app?vid=dfa316ed-31fe-4eb7-ae98-3312a562d760","ios":"levelo://app?vid=dfa316ed-31fe-4eb7-ae98-3312a562d760"},"vehicle_type_id":"4","last_reported":1727971844,"current_range_meters":35200,"station_id":"ce4bhl12rcd13ifvqgf0","pricing_plan_id":"cebpf4jnsgd1na2vs0mg"},{"bike_id":"b01ae42f-95c5-4024-85fa-0e1f16193566","system_id":"levelo_inurba_marseille","lat":43.3112,"lon":5.3777,"is_reserved":false,"is_disabled":false,"rental_uris":{"android":"levelo://app?vid=b01ae42f-95c5-4024-85fa-0e1f16193566","ios":"levelo://app?vid=b01ae42f-95c5-4024-85fa-0e1f16193566"},"vehicle_type_id":"4","last_reported":1727971844,"current_range_meters":30800,"station_id":"ce4bgt92rcd13ifvqcg0","pricing_plan_id":"cebpf4jnsgd1na2vs0mg"},{"bike_id":"756088e4-bd38-4606-aa6f-cbbf1461af00","system_id":"levelo_inurba_marseille","lat":43.22931,"lon":5.35388,"is_reserved":false,"is_disabled":false,"rental_uris":{"android":"levelo://app?vid=756088e4-bd38-4606-aa6f-cbbf1461af00","ios":"levelo://app?vid=756088e4-bd38-4606-aa6f-cbbf1461af00"},"vehicle_type_id":"4","last_reported":1727971844,"current_range_meters":18000,"station_id":"cpo3532slgdg3j2ikp40","pricing_plan_id":"cebpf4jnsgd1na2vs0mg"},{"bike_id":"e1c594fe-c7f2-42cb-a232-7f4a1f8aaa6e","system_id":"levelo_inurba_marseille","lat":43.29783,"lon":5.381,"is_reserved":false,"is_disabled":false,"rental_uris":{"android":"levelo://app?vid=e1c594fe-c7f2-42cb-a232-7f4a1f8aaa6e","ios":"levelo://app?vid=e1c594fe-c7f2-42cb-a232-7f4a1f8aaa6e"},"vehicle_type_id":"4","last_reported":1727971844,"current_range_meters":2000,"station_id":"ce4bgip2rcd13ifvqbb0","pricing_plan_id":"cebpf4jnsgd1na2vs0mg"},{"bike_id":"55284b84-83c5-4b2c-928e-9a74cd123c12","system_id":"levelo_inurba_marseille","lat":43.28076,"lon":5.39651,"is_reserved":false,"is_disabled":false,"rental_uris":{"android":"levelo://app?vid=55284b84-83c5-4b2c-928e-9a74cd123c12","ios":"levelo://app?vid=55284b84-83c5-4b2c-928e-9a74cd123c12"},"vehicle_type_id":"4","last_reported":1727971844,"current_range_meters":38800,"station_id":"ce4bho12rcd13ifvqh2g","pricing_plan_id":"cebpf4jnsgd1na2vs0mg"},{"bike_id":"8a1e11c5-046a-4038-8186-8c4b87b37eed","system_id":"levelo_inurba_marseille","lat":43.26864,"lon":5.40142,"is_reserved":false,"is_disabled":false,"rental_uris":{"android":"levelo://app?vid=8a1e11c5-046a-4038-8186-8c4b87b37eed","ios":"levelo://app?vid=8a1e11c5-046a-4038-8186-8c4b87b37eed"},"vehicle_type_id":"4","last_reported":1727971844,"current_range_meters":36000,"station_id":"cjm6bp8fraef2m0cb0m0","pricing_plan_id":"cebpf4jnsgd1na2vs0mg"},{"bike_id":"bc41810d-3fc6-4e9c-bcc1-3b1d7bce3ce2","system_id":"levelo_inurba_marseille","lat":43.232,"lon":5.3999,"is_reserved":false,"is_disabled":false,"rental_uris":{"android":"levelo://app?vid=bc41810d-3fc6-4e9c-bcc1-3b1d7bce3ce2","ios":"levelo://app?vid=bc41810d-3fc6-4e9c-bcc1-3b1d7bce3ce2"},"vehicle_type_id":"4","last_reported":1727971844,"current_range_meters":24000,"station_id":"ce4bhn12rcd13ifvqgqg","pricing_plan_id":"cebpf4jnsgd1na2vs0mg"},{"bike_id":"1f47ec80-9eac-4256-a2c7-a9d430357ea7","system_id":"levelo_inurba_marseille","lat":43.29094,"lon":5.37166,"is_reserved":false,"is_disabled":false,"rental_uris":{"android":"levelo://app?vid=1f47ec80-9eac-4256-a2c7-a9d430357ea7","ios":"levelo://app?vid=1f47ec80-9eac-4256-a2c7-a9d430357ea7"},"vehicle_type_id":"4","last_reported":1727971844,"current_range_meters":5600,"station_id":"ce4bh5p2rcd13ifvqe4g","pricing_plan_id":"cebpf4jnsgd1na2vs0mg"},{"bike_id":"c4839fcc-81ab-4136-bf8e-0cc97f7156a1","system_id":"levelo_inurba_marseille","lat":43.27196,"lon":5.40995,"is_reserved":false,"is_disabled":false,"rental_uris":{"android":"levelo://app?vid=c4839fcc-81ab-4136-bf8e-0cc97f7156a1","ios":"levelo://app?vid=c4839fcc-81ab-4136-bf8e-0cc97f7156a1"},"vehicle_type_id":"4","last_reported":1727971844,"current_range_meters":38400,"station_id":"ce4bhl12rcd13ifvqgf0","pricing_plan_id":"cebpf4jnsgd1na2vs0mg"},{"bike_id":"30f601df-0265-41bc-8dbe-14fe6c715b95","system_id":"levelo_inurba_marseille","lat":43.29598,"lon":5.38113,"is_reserved":false,"is_disabled":false,"rental_uris":{"android":"levelo://app?vid=30f601df-0265-41bc-8dbe-14fe6c715b95","ios":"levelo://app?vid=30f601df-0265-41bc-8dbe-14fe6c715b95"},"vehicle_type_id":"4","last_reported":1727971844,"current_range_meters":31200,"station_id":"ce4bgl12rcd13ifvqbo0","pricing_plan_id":"cebpf4jnsgd1na2vs0mg"},{"bike_id":"c395d1a4-5d68-4c33-924f-f304e074e2f9","system_id":"levelo_inurba_marseille","lat":43.292999,"lon":5.371557,"is_reserved":false,"is_disabled":false,"rental_uris":{"android":"levelo://app?vid=c395d1a4-5d68-4c33-924f-f304e074e2f9","ios":"levelo://app?vid=c395d1a4-5d68-4c33-924f-f304e074e2f9"},"vehicle_type_id":"4","last_reported":1727971844,"current_range_meters":28000,"station_id":"ce4bgph2rcd13ifvqc2g","pricing_plan_id":"cebpf4jnsgd1na2vs0mg"},{"bike_id":"5091a8df-4352-493d-93ee-a8dc1c42ff3f","system_id":"levelo_inurba_marseille","lat":43.27845,"lon":5.39203,"is_reserved":false,"is_disabled":false,"rental_uris":{"android":"levelo://app?vid=5091a8df-4352-493d-93ee-a8dc1c42ff3f","ios":"levelo://app?vid=5091a8df-4352-493d-93ee-a8dc1c42ff3f"},"vehicle_type_id":"4","last_reported":1727971844,"current_range_meters":24000,"station_id":"ce4bhjp2rcd13ifvqga0","pricing_plan_id":"cebpf4jnsgd1na2vs0mg"},{"bike_id":"bb7586ff-7289-494f-9cbe-9f325690c3e9","system_id":"levelo_inurba_marseille","lat":43.31075,"lon":5.38369,"is_reserved":false,"is_disabled":false,"rental_uris":{"android":"levelo://app?vid=bb7586ff-7289-494f-9cbe-9f325690c3e9","ios":"levelo://app?vid=bb7586ff-7289-494f-9cbe-9f325690c3e9"},"vehicle_type_id":"4","last_reported":1727971844,"current_range_meters":28800,"station_id":"ce4bgv92rcd13ifvqcr0","pricing_plan_id":"cebpf4jnsgd1na2vs0mg"},{"bike_id":"c5fecbe0-5846-476b-9414-9b2f28eb6319","system_id":"levelo_inurba_marseille","lat":43.24651,"lon":5.38893,"is_reserved":false,"is_disabled":false,"rental_uris":{"android":"levelo://app?vid=c5fecbe0-5846-476b-9414-9b2f28eb6319","ios":"levelo://app?vid=c5fecbe0-5846-476b-9414-9b2f28eb6319"},"vehicle_type_id":"4","last_reported":1727971844,"current_range_meters":19200,"station_id":"ce4bhg12rcd13ifvqf60","pricing_plan_id":"cebpf4jnsgd1na2vs0mg"},{"bike_id":"d3ec8902-e742-4682-aea9-37122f040b4a","system_id":"levelo_inurba_marseille","lat":43.28154,"lon":5.42643,"is_reserved":false,"is_disabled":false,"rental_uris":{"android":"levelo://app?vid=d3ec8902-e742-4682-aea9-37122f040b4a","ios":"levelo://app?vid=d3ec8902-e742-4682-aea9-37122f040b4a"},"vehicle_type_id":"4","last_reported":1727971844,"current_range_meters":6800,"station_id":"ce4bhnh2rcd13ifvqgug","pricing_plan_id":"cebpf4jnsgd1na2vs0mg"},{"bike_id":"bf69332b-e47d-4d0c-82d2-dd5c2865b370","system_id":"levelo_inurba_marseille","lat":43.286255,"lon":5.38507,"is_reserved":false,"is_disabled":false,"rental_uris":{"android":"levelo://app?vid=bf69332b-e47d-4d0c-82d2-dd5c2865b370","ios":"levelo://app?vid=bf69332b-e47d-4d0c-82d2-dd5c2865b370"},"vehicle_type_id":"4","last_reported":1727971844,"current_range_meters":14400,"station_id":"ce4bhhh2rcd13ifvqfl0","pricing_plan_id":"cebpf4jnsgd1na2vs0mg"},{"bike_id":"75ae865b-18dc-4981-b8a0-9c762a1bfa9c","system_id":"levelo_inurba_marseille","lat":43.33022,"lon":5.39045,"is_reserved":false,"is_disabled":false,"rental_uris":{"android":"levelo://app?vid=75ae865b-18dc-4981-b8a0-9c762a1bfa9c","ios":"levelo://app?vid=75ae865b-18dc-4981-b8a0-9c762a1bfa9c"},"vehicle_type_id":"4","last_reported":1727971844,"current_range_meters":1600,"station_id":"ce4bhr92rcd13ifvqhrg","pricing_plan_id":"cebpf4jnsgd1na2vs0mg"},{"bike_id":"2d659e87-ae43-42a4-8ce3-8e7371715798","system_id":"levelo_inurba_marseille","lat":43.28039,"lon":5.36949,"is_reserved":false,"is_disabled":false,"rental_uris":{"android":"levelo://app?vid=2d659e87-ae43-42a4-8ce3-8e7371715798","ios":"levelo://app?vid=2d659e87-ae43-42a4-8ce3-8e7371715798"},"vehicle_type_id":"4","last_reported":1727971844,"current_range_meters":31200,"station_id":"ce4bha12rcd13ifvqef0","pricing_plan_id":"cebpf4jnsgd1na2vs0mg"},{"bike_id":"6a941fe7-7830-406a-9219-cff9917654a7","system_id":"levelo_inurba_marseille","lat":43.24994,"lon":5.38941,"is_reserved":false,"is_disabled":false,"rental_uris":{"android":"levelo://app?vid=6a941fe7-7830-406a-9219-cff9917654a7","ios":"levelo://app?vid=6a941fe7-7830-406a-9219-cff9917654a7"},"vehicle_type_id":"4","last_reported":1727971844,"current_range_meters":35600,"station_id":"ce4bhgp2rcd13ifvqfd0","pricing_plan_id":"cebpf4jnsgd1na2vs0mg"},{"bike_id":"067137d1-b01e-4db3-8afa-dbe448ff1ea0","system_id":"levelo_inurba_marseille","lat":43.28614,"lon":5.35108,"is_reserved":false,"is_disabled":false,"rental_uris":{"android":"levelo://app?vid=067137d1-b01e-4db3-8afa-dbe448ff1ea0","ios":"levelo://app?vid=067137d1-b01e-4db3-8afa-dbe448ff1ea0"},"vehicle_type_id":"4","last_reported":1727971844,"current_range_meters":30400,"station_id":"ce4bhch2rcd13ifvqeug","pricing_plan_id":"cebpf4jnsgd1na2vs0mg"},{"bike_id":"e6b2df58-b4a0-4aec-933d-a62e42f34d34","system_id":"levelo_inurba_marseille","lat":43.33718,"lon":5.3919,"is_reserved":false,"is_disabled":false,"rental_uris":{"android":"levelo://app?vid=e6b2df58-b4a0-4aec-933d-a62e42f34d34","ios":"levelo://app?vid=e6b2df58-b4a0-4aec-933d-a62e42f34d34"},"vehicle_type_id":"4","last_reported":1727971844,"current_range_meters":36400,"station_id":"ce4bhr92rcd13ifvqhsg","pricing_plan_id":"cebpf4jnsgd1na2vs0mg"},{"bike_id":"b1caede3-9948-4c10-a88e-31db67871077","system_id":"levelo_inurba_marseille","lat":43.313683,"lon":5.384773,"is_reserved":false,"is_disabled":false,"rental_uris":{"android":"levelo://app?vid=b1caede3-9948-4c10-a88e-31db67871077","ios":"levelo://app?vid=b1caede3-9948-4c10-a88e-31db67871077"},"vehicle_type_id":"4","last_reported":1727971844,"current_range_meters":27600,"station_id":"ce4bgt92rcd13ifvqcf0","pricing_plan_id":"cebpf4jnsgd1na2vs0mg"},{"bike_id":"5cf6aade-4d8e-4b12-8d5b-0a105e925e14","system_id":"levelo_inurba_marseille","lat":43.24514,"lon":5.37352,"is_reserved":false,"is_disabled":false,"rental_uris":{"android":"levelo://app?vid=5cf6aade-4d8e-4b12-8d5b-0a105e925e14","ios":"levelo://app?vid=5cf6aade-4d8e-4b12-8d5b-0a105e925e14"},"vehicle_type_id":"4","last_reported":1727971844,"current_range_meters":20400,"station_id":"","pricing_plan_id":"cebpf4jnsgd1na2vs0mg"},{"bike_id":"56287f66-1668-4a5d-b3e1-733e18339fb8","system_id":"levelo_inurba_marseille","lat":43.32373,"lon":5.38881,"is_reserved":false,"is_disabled":false,"rental_uris":{"android":"levelo://app?vid=56287f66-1668-4a5d-b3e1-733e18339fb8","ios":"levelo://app?vid=56287f66-1668-4a5d-b3e1-733e18339fb8"},"vehicle_type_id":"4","last_reported":1727971844,"current_range_meters":29600,"station_id":"ce4bhqp2rcd13ifvqhog","pricing_plan_id":"cebpf4jnsgd1na2vs0mg"},{"bike_id":"b9a8888a-397d-49ea-ad1b-2cda05a2361a","system_id":"levelo_inurba_marseille","lat":43.22936,"lon":5.3537,"is_reserved":false,"is_disabled":false,"rental_uris":{"android":"levelo://app?vid=b9a8888a-397d-49ea-ad1b-2cda05a2361a","ios":"levelo://app?vid=b9a8888a-397d-49ea-ad1b-2cda05a2361a"},"vehicle_type_id":"4","last_reported":1727971844,"current_range_meters":8400,"station_id":"cpo3532slgdg3j2ikp40","pricing_plan_id":"cebpf4jnsgd1na2vs0mg"},{"bike_id":"b73551f1-4737-42f3-8efd-5f2fca843848","system_id":"levelo_inurba_marseille","lat":43.29898,"lon":5.43673,"is_reserved":false,"is_disabled":false,"rental_uris":{"android":"levelo://app?vid=b73551f1-4737-42f3-8efd-5f2fca843848","ios":"levelo://app?vid=b73551f1-4737-42f3-8efd-5f2fca843848"},"vehicle_type_id":"4","last_reported":1727971844,"current_range_meters":23200,"station_id":"ce4bhpp2rcd13ifvqhfg","pricing_plan_id":"cebpf4jnsgd1na2vs0mg"},{"bike_id":"3f463f20-19fa-41a3-ad6c-8c46699d39b7","system_id":"levelo_inurba_marseille","lat":43.28412,"lon":5.37518,"is_reserved":false,"is_disabled":false,"rental_uris":{"android":"levelo://app?vid=3f463f20-19fa-41a3-ad6c-8c46699d39b7","ios":"levelo://app?vid=3f463f20-19fa-41a3-ad6c-8c46699d39b7"},"vehicle_type_id":"4","last_reported":1727971844,"current_range_meters":0,"station_id":"ce4bh412rcd13ifvqds0","pricing_plan_id":"cebpf4jnsgd1na2vs0mg"},{"bike_id":"f2e6f79e-495f-4011-aa3c-82644fd24314","system_id":"levelo_inurba_marseille","lat":43.26956,"lon":5.38633,"is_reserved":false,"is_disabled":false,"rental_uris":{"android":"levelo://app?vid=f2e6f79e-495f-4011-aa3c-82644fd24314","ios":"levelo://app?vid=f2e6f79e-495f-4011-aa3c-82644fd24314"},"vehicle_type_id":"4","last_reported":1727971844,"current_range_meters":3600,"station_id":"ce4bhh92rcd13ifvqfh0","pricing_plan_id":"cebpf4jnsgd1na2vs0mg"},{"bike_id":"0ab90f6d-4412-499d-b748-1cb0f53cdaab","system_id":"levelo_inurba_marseille","lat":43.25096,"lon":5.3952,"is_reserved":false,"is_disabled":false,"rental_uris":{"android":"levelo://app?vid=0ab90f6d-4412-499d-b748-1cb0f53cdaab","ios":"levelo://app?vid=0ab90f6d-4412-499d-b748-1cb0f53cdaab"},"vehicle_type_id":"4","last_reported":1727971844,"current_range_meters":31200,"station_id":"ce4bhm12rcd13ifvqgkg","pricing_plan_id":"cebpf4jnsgd1na2vs0mg"},{"bike_id":"75bd6fc4-d95e-417e-9af3-606c5988c543","system_id":"levelo_inurba_marseille","lat":43.29804,"lon":5.40402,"is_reserved":false,"is_disabled":false,"rental_uris":{"android":"levelo://app?vid=75bd6fc4-d95e-417e-9af3-606c5988c543","ios":"levelo://app?vid=75bd6fc4-d95e-417e-9af3-606c5988c543"},"vehicle_type_id":"4","last_reported":1727971844,"current_range_meters":15200,"station_id":"ce4bh112rcd13ifvqd90","pricing_plan_id":"cebpf4jnsgd1na2vs0mg"},{"bike_id":"a0feab16-2f1f-4214-9058-21d8b9b7774f","system_id":"levelo_inurba_marseille","lat":43.27994,"lon":5.4096,"is_reserved":false,"is_disabled":false,"rental_uris":{"android":"levelo://app?vid=a0feab16-2f1f-4214-9058-21d8b9b7774f","ios":"levelo://app?vid=a0feab16-2f1f-4214-9058-21d8b9b7774f"},"vehicle_type_id":"4","last_reported":1727971844,"current_range_meters":14800,"station_id":"","pricing_plan_id":"cebpf4jnsgd1na2vs0mg"},{"bike_id":"0d38caac-4e1b-4bc6-8634-fba8549655ca","system_id":"levelo_inurba_marseille","lat":43.32112,"lon":5.36784,"is_reserved":false,"is_disabled":false,"rental_uris":{"android":"levelo://app?vid=0d38caac-4e1b-4bc6-8634-fba8549655ca","ios":"levelo://app?vid=0d38caac-4e1b-4bc6-8634-fba8549655ca"},"vehicle_type_id":"4","last_reported":1727971844,"current_range_meters":36000,"station_id":"ce4bhrh2rcd13ifvqhug","pricing_plan_id":"cebpf4jnsgd1na2vs0mg"},{"bike_id":"cc431757-c1bd-4707-8117-c3fff07d573d","system_id":"levelo_inurba_marseille","lat":43.28616,"lon":5.35101,"is_reserved":false,"is_disabled":false,"rental_uris":{"android":"levelo://app?vid=cc431757-c1bd-4707-8117-c3fff07d573d","ios":"levelo://app?vid=cc431757-c1bd-4707-8117-c3fff07d573d"},"vehicle_type_id":"4","last_reported":1727971844,"current_range_meters":10000,"station_id":"ce4bhch2rcd13ifvqeug","pricing_plan_id":"cebpf4jnsgd1na2vs0mg"},{"bike_id":"d90d58c7-0a1c-4c51-a77e-d9522cf3efe0","system_id":"levelo_inurba_marseille","lat":43.26945,"lon":5.40257,"is_reserved":false,"is_disabled":false,"rental_uris":{"android":"levelo://app?vid=d90d58c7-0a1c-4c51-a77e-d9522cf3efe0","ios":"levelo://app?vid=d90d58c7-0a1c-4c51-a77e-d9522cf3efe0"},"vehicle_type_id":"4","last_reported":1727971844,"current_range_meters":30400,"station_id":"cjm6bp8fraef2m0cb0m0","pricing_plan_id":"cebpf4jnsgd1na2vs0mg"},{"bike_id":"a1e1aa0b-3e73-41bf-a345-f6efa9f0b53d","system_id":"levelo_inurba_marseille","lat":43.30143,"lon":5.38781,"is_reserved":false,"is_disabled":false,"rental_uris":{"android":"levelo://app?vid=a1e1aa0b-3e73-41bf-a345-f6efa9f0b53d","ios":"levelo://app?vid=a1e1aa0b-3e73-41bf-a345-f6efa9f0b53d"},"vehicle_type_id":"4","last_reported":1727971844,"current_range_meters":37600,"station_id":"ce4bghh2rcd13ifvqb60","pricing_plan_id":"cebpf4jnsgd1na2vs0mg"},{"bike_id":"499cb64c-6fb8-4407-89d8-a118e3c5c28d","system_id":"levelo_inurba_marseille","lat":43.27988,"lon":5.40018,"is_reserved":false,"is_disabled":false,"rental_uris":{"android":"levelo://app?vid=499cb64c-6fb8-4407-89d8-a118e3c5c28d","ios":"levelo://app?vid=499cb64c-6fb8-4407-89d8-a118e3c5c28d"},"vehicle_type_id":"4","last_reported":1727971844,"current_range_meters":19200,"station_id":"ce4bho92rcd13ifvqh4g","pricing_plan_id":"cebpf4jnsgd1na2vs0mg"},{"bike_id":"8d6bf164-29e6-4f3f-8dbe-8843b5260193","system_id":"levelo_inurba_marseille","lat":43.31759,"lon":5.39023,"is_reserved":false,"is_disabled":false,"rental_uris":{"android":"levelo://app?vid=8d6bf164-29e6-4f3f-8dbe-8843b5260193","ios":"levelo://app?vid=8d6bf164-29e6-4f3f-8dbe-8843b5260193"},"vehicle_type_id":"4","last_reported":1727971844,"current_range_meters":4800,"station_id":"ce4bhqp2rcd13ifvqhng","pricing_plan_id":"cebpf4jnsgd1na2vs0mg"},{"bike_id":"ad9d6e94-a639-469e-9892-0c7fed511f97","system_id":"levelo_inurba_marseille","lat":43.26554,"lon":5.37287,"is_reserved":false,"is_disabled":false,"rental_uris":{"android":"levelo://app?vid=ad9d6e94-a639-469e-9892-0c7fed511f97","ios":"levelo://app?vid=ad9d6e94-a639-469e-9892-0c7fed511f97"},"vehicle_type_id":"4","last_reported":1727971844,"current_range_meters":20000,"station_id":"ce4bhg12rcd13ifvqf70","pricing_plan_id":"cebpf4jnsgd1na2vs0mg"},{"bike_id":"6dc975b5-bb98-425b-9e2f-3868892e0a87","system_id":"levelo_inurba_marseille","lat":43.2846,"lon":5.35882,"is_reserved":false,"is_disabled":false,"rental_uris":{"android":"levelo://app?vid=6dc975b5-bb98-425b-9e2f-3868892e0a87","ios":"levelo://app?vid=6dc975b5-bb98-425b-9e2f-3868892e0a87"},"vehicle_type_id":"4","last_reported":1727971844,"current_range_meters":38800,"station_id":"ce4bhah2rcd13ifvqei0","pricing_plan_id":"cebpf4jnsgd1na2vs0mg"},{"bike_id":"58cef174-6306-4e2b-ad10-ea6fd1dace90","system_id":"levelo_inurba_marseille","lat":43.33728,"lon":5.39194,"is_reserved":false,"is_disabled":false,"rental_uris":{"android":"levelo://app?vid=58cef174-6306-4e2b-ad10-ea6fd1dace90","ios":"levelo://app?vid=58cef174-6306-4e2b-ad10-ea6fd1dace90"},"vehicle_type_id":"4","last_reported":1727971844,"current_range_meters":30000,"station_id":"ce4bhr92rcd13ifvqhsg","pricing_plan_id":"cebpf4jnsgd1na2vs0mg"},{"bike_id":"d85c419f-d401-4c0a-afc2-77f25ac29b20","system_id":"levelo_inurba_marseille","lat":43.28073,"lon":5.39657,"is_reserved":false,"is_disabled":false,"rental_uris":{"android":"levelo://app?vid=d85c419f-d401-4c0a-afc2-77f25ac29b20","ios":"levelo://app?vid=d85c419f-d401-4c0a-afc2-77f25ac29b20"},"vehicle_type_id":"4","last_reported":1727971844,"current_range_meters":28400,"station_id":"ce4bho12rcd13ifvqh2g","pricing_plan_id":"cebpf4jnsgd1na2vs0mg"},{"bike_id":"3e2daf70-0524-4e71-8de4-0ed4b5df5a53","system_id":"levelo_inurba_marseille","lat":43.25505,"lon":5.37654,"is_reserved":false,"is_disabled":false,"rental_uris":{"android":"levelo://app?vid=3e2daf70-0524-4e71-8de4-0ed4b5df5a53","ios":"levelo://app?vid=3e2daf70-0524-4e71-8de4-0ed4b5df5a53"},"vehicle_type_id":"4","last_reported":1727971844,"current_range_meters":22000,"station_id":"ce4bhh12rcd13ifvqff0","pricing_plan_id":"cebpf4jnsgd1na2vs0mg"},{"bike_id":"76f567d4-1967-4cea-af8b-fd617ffaec8d","system_id":"levelo_inurba_marseille","lat":43.2828,"lon":5.35065,"is_reserved":false,"is_disabled":false,"rental_uris":{"android":"levelo://app?vid=76f567d4-1967-4cea-af8b-fd617ffaec8d","ios":"levelo://app?vid=76f567d4-1967-4cea-af8b-fd617ffaec8d"},"vehicle_type_id":"4","last_reported":1727971844,"current_range_meters":26800,"station_id":"ce4bhbp2rcd13ifvqerg","pricing_plan_id":"cebpf4jnsgd1na2vs0mg"},{"bike_id":"59da39d8-149f-4b73-85c2-57c2702d9cd9","system_id":"levelo_inurba_marseille","lat":43.30095,"lon":5.39063,"is_reserved":false,"is_disabled":false,"rental_uris":{"android":"levelo://app?vid=59da39d8-149f-4b73-85c2-57c2702d9cd9","ios":"levelo://app?vid=59da39d8-149f-4b73-85c2-57c2702d9cd9"},"vehicle_type_id":"4","last_reported":1727971844,"current_range_meters":25200,"station_id":"ce4bh192rcd13ifvqdb0","pricing_plan_id":"cebpf4jnsgd1na2vs0mg"},{"bike_id":"7bfb5721-baf3-4893-bbf9-7c8112a113a1","system_id":"levelo_inurba_marseille","lat":43.27985,"lon":5.40014,"is_reserved":false,"is_disabled":false,"rental_uris":{"android":"levelo://app?vid=7bfb5721-baf3-4893-bbf9-7c8112a113a1","ios":"levelo://app?vid=7bfb5721-baf3-4893-bbf9-7c8112a113a1"},"vehicle_type_id":"4","last_reported":1727971844,"current_range_meters":33200,"station_id":"ce4bho92rcd13ifvqh4g","pricing_plan_id":"cebpf4jnsgd1na2vs0mg"},{"bike_id":"9c99ebef-8051-4a8a-af3d-067eaf268805","system_id":"levelo_inurba_marseille","lat":43.31894,"lon":5.40741,"is_reserved":false,"is_disabled":false,"rental_uris":{"android":"levelo://app?vid=9c99ebef-8051-4a8a-af3d-067eaf268805","ios":"levelo://app?vid=9c99ebef-8051-4a8a-af3d-067eaf268805"},"vehicle_type_id":"4","last_reported":1727971844,"current_range_meters":12400,"station_id":"ce4bhq12rcd13ifvqhig","pricing_plan_id":"cebpf4jnsgd1na2vs0mg"},{"bike_id":"0fc7ae8d-9102-4d20-8337-a47ebec4b5f1","system_id":"levelo_inurba_marseille","lat":43.32539,"lon":5.414183,"is_reserved":false,"is_disabled":false,"rental_uris":{"android":"levelo://app?vid=0fc7ae8d-9102-4d20-8337-a47ebec4b5f1","ios":"levelo://app?vid=0fc7ae8d-9102-4d20-8337-a47ebec4b5f1"},"vehicle_type_id":"4","last_reported":1727971844,"current_range_meters":39200,"station_id":"ce4bhq12rcd13ifvqhhg","pricing_plan_id":"cebpf4jnsgd1na2vs0mg"},{"bike_id":"8c55e717-1456-49d4-9649-e9124c9435fb","system_id":"levelo_inurba_marseille","lat":43.29307,"lon":5.37173,"is_reserved":false,"is_disabled":false,"rental_uris":{"android":"levelo://app?vid=8c55e717-1456-49d4-9649-e9124c9435fb","ios":"levelo://app?vid=8c55e717-1456-49d4-9649-e9124c9435fb"},"vehicle_type_id":"4","last_reported":1727971844,"current_range_meters":38000,"station_id":"ce4bgh92rcd13ifvqb40","pricing_plan_id":"cebpf4jnsgd1na2vs0mg"},{"bike_id":"c07e6155-335c-411e-9ae6-07d03639270b","system_id":"levelo_inurba_marseille","lat":43.28408,"lon":5.37526,"is_reserved":false,"is_disabled":false,"rental_uris":{"android":"levelo://app?vid=c07e6155-335c-411e-9ae6-07d03639270b","ios":"levelo://app?vid=c07e6155-335c-411e-9ae6-07d03639270b"},"vehicle_type_id":"4","last_reported":1727971844,"current_range_meters":38800,"station_id":"ce4bh412rcd13ifvqds0","pricing_plan_id":"cebpf4jnsgd1na2vs0mg"},{"bike_id":"5b7b7f31-2ad6-409b-8235-1bb722bdf0ca","system_id":"levelo_inurba_marseille","lat":43.23965,"lon":5.36626,"is_reserved":false,"is_disabled":false,"rental_uris":{"android":"levelo://app?vid=5b7b7f31-2ad6-409b-8235-1bb722bdf0ca","ios":"levelo://app?vid=5b7b7f31-2ad6-409b-8235-1bb722bdf0ca"},"vehicle_type_id":"4","last_reported":1727971844,"current_range_meters":22800,"station_id":"ce4bhi12rcd13ifvqfp0","pricing_plan_id":"cebpf4jnsgd1na2vs0mg"},{"bike_id":"4d7b92bd-fb4a-4851-9d74-ec38fbbbdb1b","system_id":"levelo_inurba_marseille","lat":43.337444,"lon":5.374475,"is_reserved":false,"is_disabled":false,"rental_uris":{"android":"levelo://app?vid=4d7b92bd-fb4a-4851-9d74-ec38fbbbdb1b","ios":"levelo://app?vid=4d7b92bd-fb4a-4851-9d74-ec38fbbbdb1b"},"vehicle_type_id":"4","last_reported":1727971844,"current_range_meters":35600,"station_id":"","pricing_plan_id":"cebpf4jnsgd1na2vs0mg"},{"bike_id":"48d03c70-6c29-4934-aef5-2d85d0b2b09d","system_id":"levelo_inurba_marseille","lat":43.23063,"lon":5.3549,"is_reserved":false,"is_disabled":false,"rental_uris":{"android":"levelo://app?vid=48d03c70-6c29-4934-aef5-2d85d0b2b09d","ios":"levelo://app?vid=48d03c70-6c29-4934-aef5-2d85d0b2b09d"},"vehicle_type_id":"4","last_reported":1727971844,"current_range_meters":16800,"station_id":"cpo3342slgdg3j2ifvpg","pricing_plan_id":"cebpf4jnsgd1na2vs0mg"},{"bike_id":"8ba14eb6-6914-4b4d-8fcd-afdaedf52b46","system_id":"levelo_inurba_marseille","lat":43.29983,"lon":5.37182,"is_reserved":false,"is_disabled":false,"rental_uris":{"android":"levelo://app?vid=8ba14eb6-6914-4b4d-8fcd-afdaedf52b46","ios":"levelo://app?vid=8ba14eb6-6914-4b4d-8fcd-afdaedf52b46"},"vehicle_type_id":"4","last_reported":1727971844,"current_range_meters":25200,"station_id":"ce4bgr92rcd13ifvqc7g","pricing_plan_id":"cebpf4jnsgd1na2vs0mg"},{"bike_id":"c6b7f946-24b3-4394-9a23-1c9296536b54","system_id":"levelo_inurba_marseille","lat":43.29532,"lon":5.3854,"is_reserved":false,"is_disabled":false,"rental_uris":{"android":"levelo://app?vid=c6b7f946-24b3-4394-9a23-1c9296536b54","ios":"levelo://app?vid=c6b7f946-24b3-4394-9a23-1c9296536b54"},"vehicle_type_id":"4","last_reported":1727971844,"current_range_meters":30400,"station_id":"ce4bgih2rcd13ifvqba0","pricing_plan_id":"cebpf4jnsgd1na2vs0mg"},{"bike_id":"7601070d-d811-48a7-9691-9d1b5ec3619e","system_id":"levelo_inurba_marseille","lat":43.22932,"lon":5.35379,"is_reserved":false,"is_disabled":false,"rental_uris":{"android":"levelo://app?vid=7601070d-d811-48a7-9691-9d1b5ec3619e","ios":"levelo://app?vid=7601070d-d811-48a7-9691-9d1b5ec3619e"},"vehicle_type_id":"4","last_reported":1727971844,"current_range_meters":19600,"station_id":"cpo3532slgdg3j2ikp40","pricing_plan_id":"cebpf4jnsgd1na2vs0mg"},{"bike_id":"cc672fa0-56b6-49af-8c7d-01c54754b29a","system_id":"levelo_inurba_marseille","lat":43.28038,"lon":5.36945,"is_reserved":false,"is_disabled":false,"rental_uris":{"android":"levelo://app?vid=cc672fa0-56b6-49af-8c7d-01c54754b29a","ios":"levelo://app?vid=cc672fa0-56b6-49af-8c7d-01c54754b29a"},"vehicle_type_id":"4","last_reported":1727971844,"current_range_meters":14800,"station_id":"ce4bha12rcd13ifvqef0","pricing_plan_id":"cebpf4jnsgd1na2vs0mg"},{"bike_id":"e7a7e228-0eca-410a-af9c-c69e523ed20b","system_id":"levelo_inurba_marseille","lat":43.2942,"lon":5.38623,"is_reserved":false,"is_disabled":false,"rental_uris":{"android":"levelo://app?vid=e7a7e228-0eca-410a-af9c-c69e523ed20b","ios":"levelo://app?vid=e7a7e228-0eca-410a-af9c-c69e523ed20b"},"vehicle_type_id":"4","last_reported":1727971844,"current_range_meters":1600,"station_id":"ce4bh2h2rcd13ifvqdh0","pricing_plan_id":"cebpf4jnsgd1na2vs0mg"},{"bike_id":"6d36a6b1-67a6-490e-bace-7acc3a31507b","system_id":"levelo_inurba_marseille","lat":43.29531,"lon":5.38551,"is_reserved":false,"is_disabled":false,"rental_uris":{"android":"levelo://app?vid=6d36a6b1-67a6-490e-bace-7acc3a31507b","ios":"levelo://app?vid=6d36a6b1-67a6-490e-bace-7acc3a31507b"},"vehicle_type_id":"4","last_reported":1727971844,"current_range_meters":10800,"station_id":"ce4bgih2rcd13ifvqba0","pricing_plan_id":"cebpf4jnsgd1na2vs0mg"},{"bike_id":"d29d17e6-ff99-4080-aacb-01580bfe085b","system_id":"levelo_inurba_marseille","lat":43.27812,"lon":5.40718,"is_reserved":false,"is_disabled":false,"rental_uris":{"android":"levelo://app?vid=d29d17e6-ff99-4080-aacb-01580bfe085b","ios":"levelo://app?vid=d29d17e6-ff99-4080-aacb-01580bfe085b"},"vehicle_type_id":"4","last_reported":1727971844,"current_range_meters":12800,"station_id":"ce4bhnh2rcd13ifvqgtg","pricing_plan_id":"cebpf4jnsgd1na2vs0mg"},{"bike_id":"550e497f-57d5-42c3-8bf9-1099f9d6a264","system_id":"levelo_inurba_marseille","lat":43.29259,"lon":5.40907,"is_reserved":false,"is_disabled":false,"rental_uris":{"android":"levelo://app?vid=550e497f-57d5-42c3-8bf9-1099f9d6a264","ios":"levelo://app?vid=550e497f-57d5-42c3-8bf9-1099f9d6a264"},"vehicle_type_id":"4","last_reported":1727971844,"current_range_meters":37600,"station_id":"ce4bh192rcd13ifvqdc0","pricing_plan_id":"cebpf4jnsgd1na2vs0mg"},{"bike_id":"fd872ba7-9877-4e67-9269-d8995abba644","system_id":"levelo_inurba_marseille","lat":43.22933,"lon":5.35378,"is_reserved":false,"is_disabled":false,"rental_uris":{"android":"levelo://app?vid=fd872ba7-9877-4e67-9269-d8995abba644","ios":"levelo://app?vid=fd872ba7-9877-4e67-9269-d8995abba644"},"vehicle_type_id":"4","last_reported":1727971844,"current_range_meters":24800,"station_id":"cpo3532slgdg3j2ikp40","pricing_plan_id":"cebpf4jnsgd1na2vs0mg"},{"bike_id":"4ce22d40-fb86-4b4e-b321-3e4fe9937193","system_id":"levelo_inurba_marseille","lat":43.32333,"lon":5.4062,"is_reserved":false,"is_disabled":false,"rental_uris":{"android":"levelo://app?vid=4ce22d40-fb86-4b4e-b321-3e4fe9937193","ios":"levelo://app?vid=4ce22d40-fb86-4b4e-b321-3e4fe9937193"},"vehicle_type_id":"4","last_reported":1727971844,"current_range_meters":2800,"station_id":"ce4bhq92rcd13ifvqhjg","pricing_plan_id":"cebpf4jnsgd1na2vs0mg"},{"bike_id":"37c6743b-35fc-493a-86e9-a659fca38002","system_id":"levelo_inurba_marseille","lat":43.24663,"lon":5.38163,"is_reserved":false,"is_disabled":false,"rental_uris":{"android":"levelo://app?vid=37c6743b-35fc-493a-86e9-a659fca38002","ios":"levelo://app?vid=37c6743b-35fc-493a-86e9-a659fca38002"},"vehicle_type_id":"4","last_reported":1727971844,"current_range_meters":22000,"station_id":"ce4bhih2rcd13ifvqfr0","pricing_plan_id":"cebpf4jnsgd1na2vs0mg"},{"bike_id":"8b3c50f3-8b90-4fdf-925b-419cef19e8bf","system_id":"levelo_inurba_marseille","lat":43.2694,"lon":5.40257,"is_reserved":false,"is_disabled":false,"rental_uris":{"android":"levelo://app?vid=8b3c50f3-8b90-4fdf-925b-419cef19e8bf","ios":"levelo://app?vid=8b3c50f3-8b90-4fdf-925b-419cef19e8bf"},"vehicle_type_id":"4","last_reported":1727971844,"current_range_meters":10000,"station_id":"cjm6bp8fraef2m0cb0m0","pricing_plan_id":"cebpf4jnsgd1na2vs0mg"},{"bike_id":"3cc85df8-67a7-4b60-9155-fa4d073f6c38","system_id":"levelo_inurba_marseille","lat":43.28711,"lon":5.39991,"is_reserved":false,"is_disabled":false,"rental_uris":{"android":"levelo://app?vid=3cc85df8-67a7-4b60-9155-fa4d073f6c38","ios":"levelo://app?vid=3cc85df8-67a7-4b60-9155-fa4d073f6c38"},"vehicle_type_id":"4","last_reported":1727971844,"current_range_meters":5600,"station_id":"ce4bho92rcd13ifvqh3g","pricing_plan_id":"cebpf4jnsgd1na2vs0mg"},{"bike_id":"6112e5a5-416c-4ebd-a3a0-a7d40a09e394","system_id":"levelo_inurba_marseille","lat":43.295258,"lon":5.385214,"is_reserved":false,"is_disabled":false,"rental_uris":{"android":"levelo://app?vid=6112e5a5-416c-4ebd-a3a0-a7d40a09e394","ios":"levelo://app?vid=6112e5a5-416c-4ebd-a3a0-a7d40a09e394"},"vehicle_type_id":"4","last_reported":1727971844,"current_range_meters":35200,"station_id":"ce4bgih2rcd13ifvqba0","pricing_plan_id":"cebpf4jnsgd1na2vs0mg"},{"bike_id":"0f53c290-ccde-436e-93da-5e6799c490b6","system_id":"levelo_inurba_marseille","lat":43.31755,"lon":5.39022,"is_reserved":false,"is_disabled":false,"rental_uris":{"android":"levelo://app?vid=0f53c290-ccde-436e-93da-5e6799c490b6","ios":"levelo://app?vid=0f53c290-ccde-436e-93da-5e6799c490b6"},"vehicle_type_id":"4","last_reported":1727971844,"current_range_meters":16400,"station_id":"ce4bhqp2rcd13ifvqhng","pricing_plan_id":"cebpf4jnsgd1na2vs0mg"},{"bike_id":"e184861d-8a7b-4aa2-8581-0463cf166f6a","system_id":"levelo_inurba_marseille","lat":43.29305,"lon":5.37174,"is_reserved":false,"is_disabled":false,"rental_uris":{"android":"levelo://app?vid=e184861d-8a7b-4aa2-8581-0463cf166f6a","ios":"levelo://app?vid=e184861d-8a7b-4aa2-8581-0463cf166f6a"},"vehicle_type_id":"4","last_reported":1727971844,"current_range_meters":27200,"station_id":"ce4bgh92rcd13ifvqb40","pricing_plan_id":"cebpf4jnsgd1na2vs0mg"},{"bike_id":"070812f2-c57c-4a72-992b-eb617862d06c","system_id":"levelo_inurba_marseille","lat":43.28924,"lon":5.3841,"is_reserved":false,"is_disabled":false,"rental_uris":{"android":"levelo://app?vid=070812f2-c57c-4a72-992b-eb617862d06c","ios":"levelo://app?vid=070812f2-c57c-4a72-992b-eb617862d06c"},"vehicle_type_id":"4","last_reported":1727971844,"current_range_meters":14400,"station_id":"ce4bh612rcd13ifvqe6g","pricing_plan_id":"cebpf4jnsgd1na2vs0mg"},{"bike_id":"4f218502-2572-40df-9649-57a68a87d2b5","system_id":"levelo_inurba_marseille","lat":43.31233,"lon":5.36861,"is_reserved":false,"is_disabled":false,"rental_uris":{"android":"levelo://app?vid=4f218502-2572-40df-9649-57a68a87d2b5","ios":"levelo://app?vid=4f218502-2572-40df-9649-57a68a87d2b5"},"vehicle_type_id":"4","last_reported":1727971844,"current_range_meters":36800,"station_id":"ce4bgl92rcd13ifvqbq0","pricing_plan_id":"cebpf4jnsgd1na2vs0mg"},{"bike_id":"d30beee0-c9ba-4c3b-afe8-5f74bf1011fd","system_id":"levelo_inurba_marseille","lat":43.323364,"lon":5.406179,"is_reserved":false,"is_disabled":false,"rental_uris":{"android":"levelo://app?vid=d30beee0-c9ba-4c3b-afe8-5f74bf1011fd","ios":"levelo://app?vid=d30beee0-c9ba-4c3b-afe8-5f74bf1011fd"},"vehicle_type_id":"4","last_reported":1727971844,"current_range_meters":21600,"station_id":"ce4bhq92rcd13ifvqhjg","pricing_plan_id":"cebpf4jnsgd1na2vs0mg"},{"bike_id":"92b5c022-a316-4370-85f1-cd9056a17cee","system_id":"levelo_inurba_marseille","lat":43.29873,"lon":5.39745,"is_reserved":false,"is_disabled":false,"rental_uris":{"android":"levelo://app?vid=92b5c022-a316-4370-85f1-cd9056a17cee","ios":"levelo://app?vid=92b5c022-a316-4370-85f1-cd9056a17cee"},"vehicle_type_id":"4","last_reported":1727971844,"current_range_meters":16400,"station_id":"ce4bh0h2rcd13ifvqd50","pricing_plan_id":"cebpf4jnsgd1na2vs0mg"},{"bike_id":"f0a84c05-9167-4155-b8c9-dec288b0c254","system_id":"levelo_inurba_marseille","lat":43.27969,"lon":5.38739,"is_reserved":false,"is_disabled":false,"rental_uris":{"android":"levelo://app?vid=f0a84c05-9167-4155-b8c9-dec288b0c254","ios":"levelo://app?vid=f0a84c05-9167-4155-b8c9-dec288b0c254"},"vehicle_type_id":"4","last_reported":1727971844,"current_range_meters":1600,"station_id":"ce4bhg12rcd13ifvqf80","pricing_plan_id":"cebpf4jnsgd1na2vs0mg"},{"bike_id":"1bf36f31-ac9d-4a4e-afcb-dde11420f6cc","system_id":"levelo_inurba_marseille","lat":43.2945,"lon":5.39755,"is_reserved":false,"is_disabled":false,"rental_uris":{"android":"levelo://app?vid=1bf36f31-ac9d-4a4e-afcb-dde11420f6cc","ios":"levelo://app?vid=1bf36f31-ac9d-4a4e-afcb-dde11420f6cc"},"vehicle_type_id":"4","last_reported":1727971844,"current_range_meters":36000,"station_id":"ce4bh3h2rcd13ifvqdo0","pricing_plan_id":"cebpf4jnsgd1na2vs0mg"},{"bike_id":"06ebb798-ce72-42fe-8e85-89d255931826","system_id":"levelo_inurba_marseille","lat":43.31173,"lon":5.38709,"is_reserved":false,"is_disabled":false,"rental_uris":{"android":"levelo://app?vid=06ebb798-ce72-42fe-8e85-89d255931826","ios":"levelo://app?vid=06ebb798-ce72-42fe-8e85-89d255931826"},"vehicle_type_id":"4","last_reported":1727971844,"current_range_meters":37600,"station_id":"ce4bgv12rcd13ifvqcp0","pricing_plan_id":"cebpf4jnsgd1na2vs0mg"},{"bike_id":"e40751f8-28b2-4194-9914-61d7d7e03fcb","system_id":"levelo_inurba_marseille","lat":43.26555,"lon":5.37286,"is_reserved":false,"is_disabled":false,"rental_uris":{"android":"levelo://app?vid=e40751f8-28b2-4194-9914-61d7d7e03fcb","ios":"levelo://app?vid=e40751f8-28b2-4194-9914-61d7d7e03fcb"},"vehicle_type_id":"4","last_reported":1727971844,"current_range_meters":30800,"station_id":"ce4bhg12rcd13ifvqf70","pricing_plan_id":"cebpf4jnsgd1na2vs0mg"},{"bike_id":"e88dff39-156b-4b3c-a101-5eec12affac6","system_id":"levelo_inurba_marseille","lat":43.29712,"lon":5.37693,"is_reserved":false,"is_disabled":false,"rental_uris":{"android":"levelo://app?vid=e88dff39-156b-4b3c-a101-5eec12affac6","ios":"levelo://app?vid=e88dff39-156b-4b3c-a101-5eec12affac6"},"vehicle_type_id":"4","last_reported":1727971844,"current_range_meters":4800,"station_id":"ce4bgkh2rcd13ifvqbl0","pricing_plan_id":"cebpf4jnsgd1na2vs0mg"},{"bike_id":"3ecc21a3-3111-4d92-b17c-11c39c051368","system_id":"levelo_inurba_marseille","lat":43.24808,"lon":5.37461,"is_reserved":false,"is_disabled":false,"rental_uris":{"android":"levelo://app?vid=3ecc21a3-3111-4d92-b17c-11c39c051368","ios":"levelo://app?vid=3ecc21a3-3111-4d92-b17c-11c39c051368"},"vehicle_type_id":"4","last_reported":1727971844,"current_range_meters":26000,"station_id":"ce4bhgh2rcd13ifvqfb0","pricing_plan_id":"cebpf4jnsgd1na2vs0mg"},{"bike_id":"0e332f98-f200-4e2c-a677-a9071e9945f8","system_id":"levelo_inurba_marseille","lat":43.29529,"lon":5.38544,"is_reserved":false,"is_disabled":false,"rental_uris":{"android":"levelo://app?vid=0e332f98-f200-4e2c-a677-a9071e9945f8","ios":"levelo://app?vid=0e332f98-f200-4e2c-a677-a9071e9945f8"},"vehicle_type_id":"4","last_reported":1727971844,"current_range_meters":24400,"station_id":"ce4bgih2rcd13ifvqba0","pricing_plan_id":"cebpf4jnsgd1na2vs0mg"},{"bike_id":"4cee54fe-4f6c-4014-bd5f-d2bb25486b95","system_id":"levelo_inurba_marseille","lat":43.30656,"lon":5.40103,"is_reserved":false,"is_disabled":false,"rental_uris":{"android":"levelo://app?vid=4cee54fe-4f6c-4014-bd5f-d2bb25486b95","ios":"levelo://app?vid=4cee54fe-4f6c-4014-bd5f-d2bb25486b95"},"vehicle_type_id":"4","last_reported":1727971844,"current_range_meters":38800,"station_id":"ce4bh112rcd13ifvqda0","pricing_plan_id":"cebpf4jnsgd1na2vs0mg"},{"bike_id":"67f4cb14-6207-4453-a4b3-421d1377a820","system_id":"levelo_inurba_marseille","lat":43.32366,"lon":5.38886,"is_reserved":false,"is_disabled":false,"rental_uris":{"android":"levelo://app?vid=67f4cb14-6207-4453-a4b3-421d1377a820","ios":"levelo://app?vid=67f4cb14-6207-4453-a4b3-421d1377a820"},"vehicle_type_id":"4","last_reported":1727971844,"current_range_meters":26800,"station_id":"ce4bhqp2rcd13ifvqhog","pricing_plan_id":"cebpf4jnsgd1na2vs0mg"},{"bike_id":"53c6fe7a-c5f0-4c29-bdb6-08c6c7db5c71","system_id":"levelo_inurba_marseille","lat":43.32113,"lon":5.36781,"is_reserved":false,"is_disabled":false,"rental_uris":{"android":"levelo://app?vid=53c6fe7a-c5f0-4c29-bdb6-08c6c7db5c71","ios":"levelo://app?vid=53c6fe7a-c5f0-4c29-bdb6-08c6c7db5c71"},"vehicle_type_id":"4","last_reported":1727971844,"current_range_meters":9200,"station_id":"ce4bhrh2rcd13ifvqhug","pricing_plan_id":"cebpf4jnsgd1na2vs0mg"},{"bike_id":"f8b11799-11de-4f98-8380-305f027a675d","system_id":"levelo_inurba_marseille","lat":43.31687,"lon":5.40469,"is_reserved":false,"is_disabled":false,"rental_uris":{"android":"levelo://app?vid=f8b11799-11de-4f98-8380-305f027a675d","ios":"levelo://app?vid=f8b11799-11de-4f98-8380-305f027a675d"},"vehicle_type_id":"4","last_reported":1727971844,"current_range_meters":32800,"station_id":"ce4bh012rcd13ifvqd00","pricing_plan_id":"cebpf4jnsgd1na2vs0mg"},{"bike_id":"287197d8-f653-4694-a5cb-c769db5816ad","system_id":"levelo_inurba_marseille","lat":43.28002,"lon":5.4001,"is_reserved":false,"is_disabled":false,"rental_uris":{"android":"levelo://app?vid=287197d8-f653-4694-a5cb-c769db5816ad","ios":"levelo://app?vid=287197d8-f653-4694-a5cb-c769db5816ad"},"vehicle_type_id":"4","last_reported":1727971844,"current_range_meters":34000,"station_id":"ce4bho92rcd13ifvqh4g","pricing_plan_id":"cebpf4jnsgd1na2vs0mg"},{"bike_id":"6ce60676-3f86-4aaa-a5df-572436c32ad4","system_id":"levelo_inurba_marseille","lat":43.232,"lon":5.35549,"is_reserved":false,"is_disabled":false,"rental_uris":{"android":"levelo://app?vid=6ce60676-3f86-4aaa-a5df-572436c32ad4","ios":"levelo://app?vid=6ce60676-3f86-4aaa-a5df-572436c32ad4"},"vehicle_type_id":"4","last_reported":1727971844,"current_range_meters":19200,"station_id":"ce4bhu92rcd13ifvqi70","pricing_plan_id":"cebpf4jnsgd1na2vs0mg"},{"bike_id":"db529dbd-a157-4db6-ab56-5a5e47145cac","system_id":"levelo_inurba_marseille","lat":43.25507,"lon":5.37657,"is_reserved":false,"is_disabled":false,"rental_uris":{"android":"levelo://app?vid=db529dbd-a157-4db6-ab56-5a5e47145cac","ios":"levelo://app?vid=db529dbd-a157-4db6-ab56-5a5e47145cac"},"vehicle_type_id":"4","last_reported":1727971844,"current_range_meters":39200,"station_id":"ce4bhh12rcd13ifvqff0","pricing_plan_id":"cebpf4jnsgd1na2vs0mg"},{"bike_id":"e0e8042a-d50e-476d-917b-bdd01d039fa8","system_id":"levelo_inurba_marseille","lat":43.27675,"lon":5.38888,"is_reserved":false,"is_disabled":false,"rental_uris":{"android":"levelo://app?vid=e0e8042a-d50e-476d-917b-bdd01d039fa8","ios":"levelo://app?vid=e0e8042a-d50e-476d-917b-bdd01d039fa8"},"vehicle_type_id":"4","last_reported":1727971844,"current_range_meters":2000,"station_id":"ce4bhi12rcd13ifvqfo0","pricing_plan_id":"cebpf4jnsgd1na2vs0mg"},{"bike_id":"b5249686-0ddc-44dd-a33d-521fb1269284","system_id":"levelo_inurba_marseille","lat":43.30418,"lon":5.41289,"is_reserved":false,"is_disabled":false,"rental_uris":{"android":"levelo://app?vid=b5249686-0ddc-44dd-a33d-521fb1269284","ios":"levelo://app?vid=b5249686-0ddc-44dd-a33d-521fb1269284"},"vehicle_type_id":"4","last_reported":1727971844,"current_range_meters":31200,"station_id":"ce4bhop2rcd13ifvqh8g","pricing_plan_id":"cebpf4jnsgd1na2vs0mg"},{"bike_id":"924d6973-5ba3-419b-98be-4d16e483ec97","system_id":"levelo_inurba_marseille","lat":43.30592,"lon":5.39359,"is_reserved":false,"is_disabled":false,"rental_uris":{"android":"levelo://app?vid=924d6973-5ba3-419b-98be-4d16e483ec97","ios":"levelo://app?vid=924d6973-5ba3-419b-98be-4d16e483ec97"},"vehicle_type_id":"4","last_reported":1727971844,"current_range_meters":19200,"station_id":"ce4bh0p2rcd13ifvqd80","pricing_plan_id":"cebpf4jnsgd1na2vs0mg"},{"bike_id":"ac491eed-1fef-4832-b4ca-d42b5b54f337","system_id":"levelo_inurba_marseille","lat":43.28419,"lon":5.34981,"is_reserved":false,"is_disabled":false,"rental_uris":{"android":"levelo://app?vid=ac491eed-1fef-4832-b4ca-d42b5b54f337","ios":"levelo://app?vid=ac491eed-1fef-4832-b4ca-d42b5b54f337"},"vehicle_type_id":"4","last_reported":1727971844,"current_range_meters":38800,"station_id":"ce4bhbh2rcd13ifvqepg","pricing_plan_id":"cebpf4jnsgd1na2vs0mg"},{"bike_id":"b801e896-2c34-4a7f-a1e8-6f675e7e67fd","system_id":"levelo_inurba_marseille","lat":43.28672,"lon":5.38679,"is_reserved":false,"is_disabled":false,"rental_uris":{"android":"levelo://app?vid=b801e896-2c34-4a7f-a1e8-6f675e7e67fd","ios":"levelo://app?vid=b801e896-2c34-4a7f-a1e8-6f675e7e67fd"},"vehicle_type_id":"4","last_reported":1727971844,"current_range_meters":1600,"station_id":"ce4bh492rcd13ifvqdug","pricing_plan_id":"cebpf4jnsgd1na2vs0mg"},{"bike_id":"1b2aea28-052c-48d6-968e-19ba306c4304","system_id":"levelo_inurba_marseille","lat":43.26687,"lon":5.38273,"is_reserved":false,"is_disabled":false,"rental_uris":{"android":"levelo://app?vid=1b2aea28-052c-48d6-968e-19ba306c4304","ios":"levelo://app?vid=1b2aea28-052c-48d6-968e-19ba306c4304"},"vehicle_type_id":"4","last_reported":1727971844,"current_range_meters":38800,"station_id":"ce4bhg92rcd13ifvqf90","pricing_plan_id":"cebpf4jnsgd1na2vs0mg"},{"bike_id":"008c2873-daf7-42f3-bfb1-fee1809837be","system_id":"levelo_inurba_marseille","lat":43.26553,"lon":5.373,"is_reserved":false,"is_disabled":false,"rental_uris":{"android":"levelo://app?vid=008c2873-daf7-42f3-bfb1-fee1809837be","ios":"levelo://app?vid=008c2873-daf7-42f3-bfb1-fee1809837be"},"vehicle_type_id":"4","last_reported":1727971844,"current_range_meters":6800,"station_id":"ce4bhg12rcd13ifvqf70","pricing_plan_id":"cebpf4jnsgd1na2vs0mg"},{"bike_id":"ddf75281-988c-4c19-880b-719d01004a8f","system_id":"levelo_inurba_marseille","lat":43.30802,"lon":5.4352,"is_reserved":false,"is_disabled":false,"rental_uris":{"android":"levelo://app?vid=ddf75281-988c-4c19-880b-719d01004a8f","ios":"levelo://app?vid=ddf75281-988c-4c19-880b-719d01004a8f"},"vehicle_type_id":"4","last_reported":1727971844,"current_range_meters":8800,"station_id":"ce4bhph2rcd13ifvqheg","pricing_plan_id":"cebpf4jnsgd1na2vs0mg"},{"bike_id":"17e4208d-3c5b-4db3-93db-de8341fe0fcf","system_id":"levelo_inurba_marseille","lat":43.28419,"lon":5.34979,"is_reserved":false,"is_disabled":false,"rental_uris":{"android":"levelo://app?vid=17e4208d-3c5b-4db3-93db-de8341fe0fcf","ios":"levelo://app?vid=17e4208d-3c5b-4db3-93db-de8341fe0fcf"},"vehicle_type_id":"4","last_reported":1727971844,"current_range_meters":11600,"station_id":"ce4bhbh2rcd13ifvqepg","pricing_plan_id":"cebpf4jnsgd1na2vs0mg"},{"bike_id":"d77a79fe-863e-42e1-8239-da344827cb2c","system_id":"levelo_inurba_marseille","lat":43.29546,"lon":5.42287,"is_reserved":false,"is_disabled":false,"rental_uris":{"android":"levelo://app?vid=d77a79fe-863e-42e1-8239-da344827cb2c","ios":"levelo://app?vid=d77a79fe-863e-42e1-8239-da344827cb2c"},"vehicle_type_id":"4","last_reported":1727971844,"current_range_meters":28400,"station_id":"ce4bhph2rcd13ifvqhdg","pricing_plan_id":"cebpf4jnsgd1na2vs0mg"},{"bike_id":"70a6e5d9-f7dc-45fe-93de-dcba5cdbc45d","system_id":"levelo_inurba_marseille","lat":43.28613,"lon":5.35108,"is_reserved":false,"is_disabled":false,"rental_uris":{"android":"levelo://app?vid=70a6e5d9-f7dc-45fe-93de-dcba5cdbc45d","ios":"levelo://app?vid=70a6e5d9-f7dc-45fe-93de-dcba5cdbc45d"},"vehicle_type_id":"4","last_reported":1727971844,"current_range_meters":5600,"station_id":"ce4bhch2rcd13ifvqeug","pricing_plan_id":"cebpf4jnsgd1na2vs0mg"},{"bike_id":"bdd607e9-859d-402e-8914-3a4c42675274","system_id":"levelo_inurba_marseille","lat":43.25493,"lon":5.37637,"is_reserved":false,"is_disabled":false,"rental_uris":{"android":"levelo://app?vid=bdd607e9-859d-402e-8914-3a4c42675274","ios":"levelo://app?vid=bdd607e9-859d-402e-8914-3a4c42675274"},"vehicle_type_id":"4","last_reported":1727971844,"current_range_meters":24400,"station_id":"ce4bhh12rcd13ifvqff0","pricing_plan_id":"cebpf4jnsgd1na2vs0mg"},{"bike_id":"59159da8-5731-4ee9-8b51-0da55af482c6","system_id":"levelo_inurba_marseille","lat":43.29526,"lon":5.39037,"is_reserved":false,"is_disabled":false,"rental_uris":{"android":"levelo://app?vid=59159da8-5731-4ee9-8b51-0da55af482c6","ios":"levelo://app?vid=59159da8-5731-4ee9-8b51-0da55af482c6"},"vehicle_type_id":"4","last_reported":1727971844,"current_range_meters":30400,"station_id":"ce4bh3p2rcd13ifvqdp0","pricing_plan_id":"cebpf4jnsgd1na2vs0mg"},{"bike_id":"1e9249c2-e801-4594-af63-a90268bda67f","system_id":"levelo_inurba_marseille","lat":43.295199,"lon":5.375798,"is_reserved":false,"is_disabled":false,"rental_uris":{"android":"levelo://app?vid=1e9249c2-e801-4594-af63-a90268bda67f","ios":"levelo://app?vid=1e9249c2-e801-4594-af63-a90268bda67f"},"vehicle_type_id":"4","last_reported":1727971844,"current_range_meters":38000,"station_id":"","pricing_plan_id":"cebpf4jnsgd1na2vs0mg"},{"bike_id":"9129a35c-8d86-4670-9c11-4fedfa04f9fd","system_id":"levelo_inurba_marseille","lat":43.30949,"lon":5.39035,"is_reserved":false,"is_disabled":false,"rental_uris":{"android":"levelo://app?vid=9129a35c-8d86-4670-9c11-4fedfa04f9fd","ios":"levelo://app?vid=9129a35c-8d86-4670-9c11-4fedfa04f9fd"},"vehicle_type_id":"4","last_reported":1727971844,"current_range_meters":18800,"station_id":"ce4bgup2rcd13ifvqco0","pricing_plan_id":"cebpf4jnsgd1na2vs0mg"},{"bike_id":"e7ee0246-da93-466a-81b3-f8b083b00d16","system_id":"levelo_inurba_marseille","lat":43.287842,"lon":5.360215,"is_reserved":false,"is_disabled":false,"rental_uris":{"android":"levelo://app?vid=e7ee0246-da93-466a-81b3-f8b083b00d16","ios":"levelo://app?vid=e7ee0246-da93-466a-81b3-f8b083b00d16"},"vehicle_type_id":"4","last_reported":1727971844,"current_range_meters":8800,"station_id":"cki0cbj6b192h4jlfktg","pricing_plan_id":"cebpf4jnsgd1na2vs0mg"},{"bike_id":"c8e4ff73-620c-4248-92f7-758d5098242c","system_id":"levelo_inurba_marseille","lat":43.22928,"lon":5.35376,"is_reserved":false,"is_disabled":false,"rental_uris":{"android":"levelo://app?vid=c8e4ff73-620c-4248-92f7-758d5098242c","ios":"levelo://app?vid=c8e4ff73-620c-4248-92f7-758d5098242c"},"vehicle_type_id":"4","last_reported":1727971844,"current_range_meters":26800,"station_id":"cpo3532slgdg3j2ikp40","pricing_plan_id":"cebpf4jnsgd1na2vs0mg"},{"bike_id":"13d51a0a-4f02-42c9-b3d0-2489b5fbabf4","system_id":"levelo_inurba_marseille","lat":43.33022,"lon":5.3904,"is_reserved":false,"is_disabled":false,"rental_uris":{"android":"levelo://app?vid=13d51a0a-4f02-42c9-b3d0-2489b5fbabf4","ios":"levelo://app?vid=13d51a0a-4f02-42c9-b3d0-2489b5fbabf4"},"vehicle_type_id":"4","last_reported":1727971844,"current_range_meters":2800,"station_id":"ce4bhr92rcd13ifvqhrg","pricing_plan_id":"cebpf4jnsgd1na2vs0mg"},{"bike_id":"adbde646-6479-43de-a0d0-d6e9ebf0bbb7","system_id":"levelo_inurba_marseille","lat":43.294586,"lon":5.375274,"is_reserved":false,"is_disabled":false,"rental_uris":{"android":"levelo://app?vid=adbde646-6479-43de-a0d0-d6e9ebf0bbb7","ios":"levelo://app?vid=adbde646-6479-43de-a0d0-d6e9ebf0bbb7"},"vehicle_type_id":"4","last_reported":1727971844,"current_range_meters":12800,"station_id":"ce4bgkp2rcd13ifvqbmg","pricing_plan_id":"cebpf4jnsgd1na2vs0mg"},{"bike_id":"df19166c-ecb8-4c24-b5fd-04013749e810","system_id":"levelo_inurba_marseille","lat":43.2396,"lon":5.36627,"is_reserved":false,"is_disabled":false,"rental_uris":{"android":"levelo://app?vid=df19166c-ecb8-4c24-b5fd-04013749e810","ios":"levelo://app?vid=df19166c-ecb8-4c24-b5fd-04013749e810"},"vehicle_type_id":"4","last_reported":1727971844,"current_range_meters":6400,"station_id":"ce4bhi12rcd13ifvqfp0","pricing_plan_id":"cebpf4jnsgd1na2vs0mg"},{"bike_id":"4b52503b-98f2-4c2e-b731-ac2f5f00f655","system_id":"levelo_inurba_marseille","lat":43.258301,"lon":5.394388,"is_reserved":false,"is_disabled":false,"rental_uris":{"android":"levelo://app?vid=4b52503b-98f2-4c2e-b731-ac2f5f00f655","ios":"levelo://app?vid=4b52503b-98f2-4c2e-b731-ac2f5f00f655"},"vehicle_type_id":"4","last_reported":1727971844,"current_range_meters":8400,"station_id":"ce4bhip2rcd13ifvqft0","pricing_plan_id":"cebpf4jnsgd1na2vs0mg"},{"bike_id":"f1903ed4-308e-456a-8f4d-eed010908fde","system_id":"levelo_inurba_marseille","lat":43.26064,"lon":5.39397,"is_reserved":false,"is_disabled":false,"rental_uris":{"android":"levelo://app?vid=f1903ed4-308e-456a-8f4d-eed010908fde","ios":"levelo://app?vid=f1903ed4-308e-456a-8f4d-eed010908fde"},"vehicle_type_id":"4","last_reported":1727971844,"current_range_meters":14400,"station_id":"ce4bhh92rcd13ifvqfj0","pricing_plan_id":"cebpf4jnsgd1na2vs0mg"},{"bike_id":"9111912f-5f92-4e01-9623-79e0ea71aff6","system_id":"levelo_inurba_marseille","lat":43.32296,"lon":5.38271,"is_reserved":false,"is_disabled":false,"rental_uris":{"android":"levelo://app?vid=9111912f-5f92-4e01-9623-79e0ea71aff6","ios":"levelo://app?vid=9111912f-5f92-4e01-9623-79e0ea71aff6"},"vehicle_type_id":"4","last_reported":1727971844,"current_range_meters":38800,"station_id":"ce4bhr12rcd13ifvqhqg","pricing_plan_id":"cebpf4jnsgd1na2vs0mg"},{"bike_id":"d6ba6178-30e3-4cf4-9bd8-8c2f6cfade73","system_id":"levelo_inurba_marseille","lat":43.29848,"lon":5.36276,"is_reserved":false,"is_disabled":false,"rental_uris":{"android":"levelo://app?vid=d6ba6178-30e3-4cf4-9bd8-8c2f6cfade73","ios":"levelo://app?vid=d6ba6178-30e3-4cf4-9bd8-8c2f6cfade73"},"vehicle_type_id":"4","last_reported":1727971844,"current_range_meters":31200,"station_id":"ce4bgpp2rcd13ifvqc3g","pricing_plan_id":"cebpf4jnsgd1na2vs0mg"},{"bike_id":"279905d2-31cb-4375-9057-1a2156283393","system_id":"levelo_inurba_marseille","lat":43.28413,"lon":5.34985,"is_reserved":false,"is_disabled":false,"rental_uris":{"android":"levelo://app?vid=279905d2-31cb-4375-9057-1a2156283393","ios":"levelo://app?vid=279905d2-31cb-4375-9057-1a2156283393"},"vehicle_type_id":"4","last_reported":1727971844,"current_range_meters":32400,"station_id":"ce4bhbh2rcd13ifvqepg","pricing_plan_id":"cebpf4jnsgd1na2vs0mg"},{"bike_id":"1c573ac0-4645-49eb-a3ce-2b843a0e63b4","system_id":"levelo_inurba_marseille","lat":43.31163,"lon":5.3872,"is_reserved":false,"is_disabled":false,"rental_uris":{"android":"levelo://app?vid=1c573ac0-4645-49eb-a3ce-2b843a0e63b4","ios":"levelo://app?vid=1c573ac0-4645-49eb-a3ce-2b843a0e63b4"},"vehicle_type_id":"4","last_reported":1727971844,"current_range_meters":38800,"station_id":"ce4bgv12rcd13ifvqcp0","pricing_plan_id":"cebpf4jnsgd1na2vs0mg"},{"bike_id":"53972523-dcee-4338-9e88-5ed44b7824bf","system_id":"levelo_inurba_marseille","lat":43.295041,"lon":5.390402,"is_reserved":false,"is_disabled":false,"rental_uris":{"android":"levelo://app?vid=53972523-dcee-4338-9e88-5ed44b7824bf","ios":"levelo://app?vid=53972523-dcee-4338-9e88-5ed44b7824bf"},"vehicle_type_id":"4","last_reported":1727971844,"current_range_meters":16800,"station_id":"ce4bh3p2rcd13ifvqdp0","pricing_plan_id":"cebpf4jnsgd1na2vs0mg"},{"bike_id":"30e2f0ec-0394-406c-8829-fe660566e51a","system_id":"levelo_inurba_marseille","lat":43.27811,"lon":5.40713,"is_reserved":false,"is_disabled":false,"rental_uris":{"android":"levelo://app?vid=30e2f0ec-0394-406c-8829-fe660566e51a","ios":"levelo://app?vid=30e2f0ec-0394-406c-8829-fe660566e51a"},"vehicle_type_id":"4","last_reported":1727971844,"current_range_meters":39200,"station_id":"ce4bhnh2rcd13ifvqgtg","pricing_plan_id":"cebpf4jnsgd1na2vs0mg"},{"bike_id":"bd8535c5-ba76-4f16-8ad2-6b9441b72570","system_id":"levelo_inurba_marseille","lat":43.28612,"lon":5.35104,"is_reserved":false,"is_disabled":false,"rental_uris":{"android":"levelo://app?vid=bd8535c5-ba76-4f16-8ad2-6b9441b72570","ios":"levelo://app?vid=bd8535c5-ba76-4f16-8ad2-6b9441b72570"},"vehicle_type_id":"4","last_reported":1727971844,"current_range_meters":38800,"station_id":"ce4bhch2rcd13ifvqeug","pricing_plan_id":"cebpf4jnsgd1na2vs0mg"},{"bike_id":"638ea2d4-cb56-475a-9712-21b4df19cbce","system_id":"levelo_inurba_marseille","lat":43.31762,"lon":5.39016,"is_reserved":false,"is_disabled":false,"rental_uris":{"android":"levelo://app?vid=638ea2d4-cb56-475a-9712-21b4df19cbce","ios":"levelo://app?vid=638ea2d4-cb56-475a-9712-21b4df19cbce"},"vehicle_type_id":"4","last_reported":1727971844,"current_range_meters":32400,"station_id":"ce4bhqp2rcd13ifvqhng","pricing_plan_id":"cebpf4jnsgd1na2vs0mg"},{"bike_id":"4f69c4e4-4aab-4ccb-88ff-64579ae1a72c","system_id":"levelo_inurba_marseille","lat":43.24187,"lon":5.39719,"is_reserved":false,"is_disabled":false,"rental_uris":{"android":"levelo://app?vid=4f69c4e4-4aab-4ccb-88ff-64579ae1a72c","ios":"levelo://app?vid=4f69c4e4-4aab-4ccb-88ff-64579ae1a72c"},"vehicle_type_id":"4","last_reported":1727971844,"current_range_meters":11600,"station_id":"ce4bhn12rcd13ifvqgpg","pricing_plan_id":"cebpf4jnsgd1na2vs0mg"},{"bike_id":"63171411-f419-4530-a14d-8f91ae8aeacf","system_id":"levelo_inurba_marseille","lat":43.28573,"lon":5.3949,"is_reserved":false,"is_disabled":false,"rental_uris":{"android":"levelo://app?vid=63171411-f419-4530-a14d-8f91ae8aeacf","ios":"levelo://app?vid=63171411-f419-4530-a14d-8f91ae8aeacf"},"vehicle_type_id":"4","last_reported":1727971844,"current_range_meters":6800,"station_id":"ce4bh292rcd13ifvqdg0","pricing_plan_id":"cebpf4jnsgd1na2vs0mg"},{"bike_id":"7b90d071-bbd1-4203-a899-e836a3d4ed7d","system_id":"levelo_inurba_marseille","lat":43.28071,"lon":5.39648,"is_reserved":false,"is_disabled":false,"rental_uris":{"android":"levelo://app?vid=7b90d071-bbd1-4203-a899-e836a3d4ed7d","ios":"levelo://app?vid=7b90d071-bbd1-4203-a899-e836a3d4ed7d"},"vehicle_type_id":"4","last_reported":1727971844,"current_range_meters":30800,"station_id":"ce4bho12rcd13ifvqh2g","pricing_plan_id":"cebpf4jnsgd1na2vs0mg"},{"bike_id":"dc086a08-bc01-4a19-b785-58f21f6829ae","system_id":"levelo_inurba_marseille","lat":43.25498,"lon":5.37653,"is_reserved":false,"is_disabled":false,"rental_uris":{"android":"levelo://app?vid=dc086a08-bc01-4a19-b785-58f21f6829ae","ios":"levelo://app?vid=dc086a08-bc01-4a19-b785-58f21f6829ae"},"vehicle_type_id":"4","last_reported":1727971844,"current_range_meters":11600,"station_id":"ce4bhh12rcd13ifvqff0","pricing_plan_id":"cebpf4jnsgd1na2vs0mg"},{"bike_id":"7211bed2-8514-4169-9df5-9ea6b7b446bf","system_id":"levelo_inurba_marseille","lat":43.28611,"lon":5.35103,"is_reserved":false,"is_disabled":false,"rental_uris":{"android":"levelo://app?vid=7211bed2-8514-4169-9df5-9ea6b7b446bf","ios":"levelo://app?vid=7211bed2-8514-4169-9df5-9ea6b7b446bf"},"vehicle_type_id":"4","last_reported":1727971844,"current_range_meters":17200,"station_id":"ce4bhch2rcd13ifvqeug","pricing_plan_id":"cebpf4jnsgd1na2vs0mg"},{"bike_id":"f948ff39-84c0-4f72-8df7-c5f9687fe03f","system_id":"levelo_inurba_marseille","lat":43.26867,"lon":5.38686,"is_reserved":false,"is_disabled":false,"rental_uris":{"android":"levelo://app?vid=f948ff39-84c0-4f72-8df7-c5f9687fe03f","ios":"levelo://app?vid=f948ff39-84c0-4f72-8df7-c5f9687fe03f"},"vehicle_type_id":"4","last_reported":1727971844,"current_range_meters":7200,"station_id":"","pricing_plan_id":"cebpf4jnsgd1na2vs0mg"},{"bike_id":"295be391-b78e-4745-9330-7c291df87cf9","system_id":"levelo_inurba_marseille","lat":43.28389,"lon":5.38601,"is_reserved":false,"is_disabled":false,"rental_uris":{"android":"levelo://app?vid=295be391-b78e-4745-9330-7c291df87cf9","ios":"levelo://app?vid=295be391-b78e-4745-9330-7c291df87cf9"},"vehicle_type_id":"4","last_reported":1727971844,"current_range_meters":37600,"station_id":"ce4bh492rcd13ifvqdvg","pricing_plan_id":"cebpf4jnsgd1na2vs0mg"},{"bike_id":"ba268cfb-32df-4ac2-8d53-f107185f5557","system_id":"levelo_inurba_marseille","lat":43.27618,"lon":5.36109,"is_reserved":false,"is_disabled":false,"rental_uris":{"android":"levelo://app?vid=ba268cfb-32df-4ac2-8d53-f107185f5557","ios":"levelo://app?vid=ba268cfb-32df-4ac2-8d53-f107185f5557"},"vehicle_type_id":"4","last_reported":1727971844,"current_range_meters":3600,"station_id":"ce4bgj92rcd13ifvqbe0","pricing_plan_id":"cebpf4jnsgd1na2vs0mg"},{"bike_id":"c5bf6c57-7703-4962-bea8-fc52f0c9311e","system_id":"levelo_inurba_marseille","lat":43.27807,"lon":5.40706,"is_reserved":false,"is_disabled":false,"rental_uris":{"android":"levelo://app?vid=c5bf6c57-7703-4962-bea8-fc52f0c9311e","ios":"levelo://app?vid=c5bf6c57-7703-4962-bea8-fc52f0c9311e"},"vehicle_type_id":"4","last_reported":1727971844,"current_range_meters":35600,"station_id":"ce4bhnh2rcd13ifvqgtg","pricing_plan_id":"cebpf4jnsgd1na2vs0mg"},{"bike_id":"3105fdf2-84bb-43d6-8931-838bfe14be8f","system_id":"levelo_inurba_marseille","lat":43.29034,"lon":5.38649,"is_reserved":false,"is_disabled":false,"rental_uris":{"android":"levelo://app?vid=3105fdf2-84bb-43d6-8931-838bfe14be8f","ios":"levelo://app?vid=3105fdf2-84bb-43d6-8931-838bfe14be8f"},"vehicle_type_id":"4","last_reported":1727971844,"current_range_meters":37600,"station_id":"ce4bh4p2rcd13ifvqe0g","pricing_plan_id":"cebpf4jnsgd1na2vs0mg"},{"bike_id":"38ccb47c-cec4-440c-a317-244788fef8a1","system_id":"levelo_inurba_marseille","lat":43.23964,"lon":5.36629,"is_reserved":false,"is_disabled":false,"rental_uris":{"android":"levelo://app?vid=38ccb47c-cec4-440c-a317-244788fef8a1","ios":"levelo://app?vid=38ccb47c-cec4-440c-a317-244788fef8a1"},"vehicle_type_id":"4","last_reported":1727971844,"current_range_meters":36800,"station_id":"ce4bhi12rcd13ifvqfp0","pricing_plan_id":"cebpf4jnsgd1na2vs0mg"},{"bike_id":"a4bbbbd7-6caf-4754-8ce8-7fea21309f71","system_id":"levelo_inurba_marseille","lat":43.29708,"lon":5.36617,"is_reserved":false,"is_disabled":false,"rental_uris":{"android":"levelo://app?vid=a4bbbbd7-6caf-4754-8ce8-7fea21309f71","ios":"levelo://app?vid=a4bbbbd7-6caf-4754-8ce8-7fea21309f71"},"vehicle_type_id":"4","last_reported":1727971844,"current_range_meters":38800,"station_id":"ce4bgn12rcd13ifvqbt0","pricing_plan_id":"cebpf4jnsgd1na2vs0mg"},{"bike_id":"bb3a76e5-5c40-4797-9b3e-e16394c6b8c7","system_id":"levelo_inurba_marseille","lat":43.27496,"lon":5.4245,"is_reserved":false,"is_disabled":false,"rental_uris":{"android":"levelo://app?vid=bb3a76e5-5c40-4797-9b3e-e16394c6b8c7","ios":"levelo://app?vid=bb3a76e5-5c40-4797-9b3e-e16394c6b8c7"},"vehicle_type_id":"4","last_reported":1727971844,"current_range_meters":38800,"station_id":"ce4bhpp2rcd13ifvqhfg","pricing_plan_id":"cebpf4jnsgd1na2vs0mg"},{"bike_id":"6f618680-da85-463a-83ac-1b68d2d9ec6d","system_id":"levelo_inurba_marseille","lat":43.30095,"lon":5.3908,"is_reserved":false,"is_disabled":false,"rental_uris":{"android":"levelo://app?vid=6f618680-da85-463a-83ac-1b68d2d9ec6d","ios":"levelo://app?vid=6f618680-da85-463a-83ac-1b68d2d9ec6d"},"vehicle_type_id":"4","last_reported":1727971844,"current_range_meters":30800,"station_id":"ce4bh192rcd13ifvqdb0","pricing_plan_id":"cebpf4jnsgd1na2vs0mg"},{"bike_id":"f6fb4332-457c-409e-aa21-ccf8206748e0","system_id":"levelo_inurba_marseille","lat":43.26556,"lon":5.37286,"is_reserved":false,"is_disabled":false,"rental_uris":{"android":"levelo://app?vid=f6fb4332-457c-409e-aa21-ccf8206748e0","ios":"levelo://app?vid=f6fb4332-457c-409e-aa21-ccf8206748e0"},"vehicle_type_id":"4","last_reported":1727971844,"current_range_meters":9200,"station_id":"ce4bhg12rcd13ifvqf70","pricing_plan_id":"cebpf4jnsgd1na2vs0mg"},{"bike_id":"d9513a24-3235-43a7-b9a5-1c5cfe37603f","system_id":"levelo_inurba_marseille","lat":43.23059,"lon":5.3549,"is_reserved":false,"is_disabled":false,"rental_uris":{"android":"levelo://app?vid=d9513a24-3235-43a7-b9a5-1c5cfe37603f","ios":"levelo://app?vid=d9513a24-3235-43a7-b9a5-1c5cfe37603f"},"vehicle_type_id":"4","last_reported":1727971844,"current_range_meters":28800,"station_id":"cpo3342slgdg3j2ifvpg","pricing_plan_id":"cebpf4jnsgd1na2vs0mg"},{"bike_id":"2e939934-455d-4244-9f5b-b67bdcc72a19","system_id":"levelo_inurba_marseille","lat":43.27824,"lon":5.39204,"is_reserved":false,"is_disabled":false,"rental_uris":{"android":"levelo://app?vid=2e939934-455d-4244-9f5b-b67bdcc72a19","ios":"levelo://app?vid=2e939934-455d-4244-9f5b-b67bdcc72a19"},"vehicle_type_id":"4","last_reported":1727971844,"current_range_meters":28400,"station_id":"ce4bhjp2rcd13ifvqga0","pricing_plan_id":"cebpf4jnsgd1na2vs0mg"},{"bike_id":"a9d82a85-2c2f-48f4-942c-7b1789e4060e","system_id":"levelo_inurba_marseille","lat":43.30541,"lon":5.3842,"is_reserved":false,"is_disabled":false,"rental_uris":{"android":"levelo://app?vid=a9d82a85-2c2f-48f4-942c-7b1789e4060e","ios":"levelo://app?vid=a9d82a85-2c2f-48f4-942c-7b1789e4060e"},"vehicle_type_id":"4","last_reported":1727971844,"current_range_meters":17200,"station_id":"ce4bgg92rcd13ifvqb30","pricing_plan_id":"cebpf4jnsgd1na2vs0mg"},{"bike_id":"cf2f556e-3991-4e9e-a3c9-d55a0202bac2","system_id":"levelo_inurba_marseille","lat":43.26032,"lon":5.37553,"is_reserved":false,"is_disabled":false,"rental_uris":{"android":"levelo://app?vid=cf2f556e-3991-4e9e-a3c9-d55a0202bac2","ios":"levelo://app?vid=cf2f556e-3991-4e9e-a3c9-d55a0202bac2"},"vehicle_type_id":"4","last_reported":1727971844,"current_range_meters":38800,"station_id":"ce4bhgh2rcd13ifvqfa0","pricing_plan_id":"cebpf4jnsgd1na2vs0mg"},{"bike_id":"93b9cd56-4725-4d7c-b990-e8e30ed5ca75","system_id":"levelo_inurba_marseille","lat":43.28465,"lon":5.35894,"is_reserved":false,"is_disabled":false,"rental_uris":{"android":"levelo://app?vid=93b9cd56-4725-4d7c-b990-e8e30ed5ca75","ios":"levelo://app?vid=93b9cd56-4725-4d7c-b990-e8e30ed5ca75"},"vehicle_type_id":"4","last_reported":1727971844,"current_range_meters":4000,"station_id":"ce4bhah2rcd13ifvqei0","pricing_plan_id":"cebpf4jnsgd1na2vs0mg"},{"bike_id":"02d5a78d-3145-4058-9f36-78449ed626f4","system_id":"levelo_inurba_marseille","lat":43.27905,"lon":5.38013,"is_reserved":false,"is_disabled":false,"rental_uris":{"android":"levelo://app?vid=02d5a78d-3145-4058-9f36-78449ed626f4","ios":"levelo://app?vid=02d5a78d-3145-4058-9f36-78449ed626f4"},"vehicle_type_id":"4","last_reported":1727971844,"current_range_meters":9200,"station_id":"ce4bhf92rcd13ifvqf50","pricing_plan_id":"cebpf4jnsgd1na2vs0mg"},{"bike_id":"fe0e7130-228b-42c0-aff6-01922a265f0b","system_id":"levelo_inurba_marseille","lat":43.299,"lon":5.43671,"is_reserved":false,"is_disabled":false,"rental_uris":{"android":"levelo://app?vid=fe0e7130-228b-42c0-aff6-01922a265f0b","ios":"levelo://app?vid=fe0e7130-228b-42c0-aff6-01922a265f0b"},"vehicle_type_id":"4","last_reported":1727971844,"current_range_meters":19600,"station_id":"ce4bhpp2rcd13ifvqhfg","pricing_plan_id":"cebpf4jnsgd1na2vs0mg"},{"bike_id":"198216f1-b10b-422c-b569-e6c58b5d0361","system_id":"levelo_inurba_marseille","lat":43.26558,"lon":5.37281,"is_reserved":false,"is_disabled":false,"rental_uris":{"android":"levelo://app?vid=198216f1-b10b-422c-b569-e6c58b5d0361","ios":"levelo://app?vid=198216f1-b10b-422c-b569-e6c58b5d0361"},"vehicle_type_id":"4","last_reported":1727971844,"current_range_meters":27200,"station_id":"ce4bhg12rcd13ifvqf70","pricing_plan_id":"cebpf4jnsgd1na2vs0mg"},{"bike_id":"f53f4873-b0ae-4474-b36b-db6ea8c8f799","system_id":"levelo_inurba_marseille","lat":43.26193,"lon":5.37446,"is_reserved":false,"is_disabled":false,"rental_uris":{"android":"levelo://app?vid=f53f4873-b0ae-4474-b36b-db6ea8c8f799","ios":"levelo://app?vid=f53f4873-b0ae-4474-b36b-db6ea8c8f799"},"vehicle_type_id":"4","last_reported":1727971844,"current_range_meters":38800,"station_id":"ce4bhgp2rcd13ifvqfc0","pricing_plan_id":"cebpf4jnsgd1na2vs0mg"},{"bike_id":"eee1dc5a-9ffe-417d-a588-57898aac93ea","system_id":"levelo_inurba_marseille","lat":43.2808,"lon":5.39661,"is_reserved":false,"is_disabled":false,"rental_uris":{"android":"levelo://app?vid=eee1dc5a-9ffe-417d-a588-57898aac93ea","ios":"levelo://app?vid=eee1dc5a-9ffe-417d-a588-57898aac93ea"},"vehicle_type_id":"4","last_reported":1727971844,"current_range_meters":24800,"station_id":"ce4bho12rcd13ifvqh2g","pricing_plan_id":"cebpf4jnsgd1na2vs0mg"},{"bike_id":"a7e299c3-1289-44a4-a82c-e85162448a97","system_id":"levelo_inurba_marseille","lat":43.29228,"lon":5.36068,"is_reserved":false,"is_disabled":false,"rental_uris":{"android":"levelo://app?vid=a7e299c3-1289-44a4-a82c-e85162448a97","ios":"levelo://app?vid=a7e299c3-1289-44a4-a82c-e85162448a97"},"vehicle_type_id":"4","last_reported":1727971844,"current_range_meters":14400,"station_id":"ce4bhbh2rcd13ifvqeqg","pricing_plan_id":"cebpf4jnsgd1na2vs0mg"},{"bike_id":"1123f66a-c17f-4d0e-8a27-17d6dcb51c46","system_id":"levelo_inurba_marseille","lat":43.26213,"lon":5.37442,"is_reserved":false,"is_disabled":false,"rental_uris":{"android":"levelo://app?vid=1123f66a-c17f-4d0e-8a27-17d6dcb51c46","ios":"levelo://app?vid=1123f66a-c17f-4d0e-8a27-17d6dcb51c46"},"vehicle_type_id":"4","last_reported":1727971844,"current_range_meters":23200,"station_id":"ce4bhgp2rcd13ifvqfc0","pricing_plan_id":"cebpf4jnsgd1na2vs0mg"},{"bike_id":"96b9453f-a7be-42c0-a6ff-b340287e7ff4","system_id":"levelo_inurba_marseille","lat":43.28461,"lon":5.35895,"is_reserved":false,"is_disabled":false,"rental_uris":{"android":"levelo://app?vid=96b9453f-a7be-42c0-a6ff-b340287e7ff4","ios":"levelo://app?vid=96b9453f-a7be-42c0-a6ff-b340287e7ff4"},"vehicle_type_id":"4","last_reported":1727971844,"current_range_meters":17200,"station_id":"ce4bhah2rcd13ifvqei0","pricing_plan_id":"cebpf4jnsgd1na2vs0mg"},{"bike_id":"11b8c89b-343f-45f5-a0c2-56afa719b5b3","system_id":"levelo_inurba_marseille","lat":43.28857,"lon":5.35866,"is_reserved":false,"is_disabled":false,"rental_uris":{"android":"levelo://app?vid=11b8c89b-343f-45f5-a0c2-56afa719b5b3","ios":"levelo://app?vid=11b8c89b-343f-45f5-a0c2-56afa719b5b3"},"vehicle_type_id":"4","last_reported":1727971844,"current_range_meters":2000,"station_id":"ce4bhb12rcd13ifvqem0","pricing_plan_id":"cebpf4jnsgd1na2vs0mg"},{"bike_id":"37ef81d2-8d96-4bad-9da1-4f79f238dcc7","system_id":"levelo_inurba_marseille","lat":43.29799,"lon":5.38103,"is_reserved":false,"is_disabled":false,"rental_uris":{"android":"levelo://app?vid=37ef81d2-8d96-4bad-9da1-4f79f238dcc7","ios":"levelo://app?vid=37ef81d2-8d96-4bad-9da1-4f79f238dcc7"},"vehicle_type_id":"4","last_reported":1727971844,"current_range_meters":11600,"station_id":"ce4bgip2rcd13ifvqbb0","pricing_plan_id":"cebpf4jnsgd1na2vs0mg"},{"bike_id":"8a5a2d85-0285-4d8d-b47c-fed0af5b6685","system_id":"levelo_inurba_marseille","lat":43.29602,"lon":5.38098,"is_reserved":false,"is_disabled":false,"rental_uris":{"android":"levelo://app?vid=8a5a2d85-0285-4d8d-b47c-fed0af5b6685","ios":"levelo://app?vid=8a5a2d85-0285-4d8d-b47c-fed0af5b6685"},"vehicle_type_id":"4","last_reported":1727971844,"current_range_meters":10000,"station_id":"ce4bgl12rcd13ifvqbo0","pricing_plan_id":"cebpf4jnsgd1na2vs0mg"},{"bike_id":"48d0d96a-1da1-48ac-96f5-299318241009","system_id":"levelo_inurba_marseille","lat":43.280334,"lon":5.369448,"is_reserved":false,"is_disabled":false,"rental_uris":{"android":"levelo://app?vid=48d0d96a-1da1-48ac-96f5-299318241009","ios":"levelo://app?vid=48d0d96a-1da1-48ac-96f5-299318241009"},"vehicle_type_id":"4","last_reported":1727971844,"current_range_meters":15200,"station_id":"ce4bha12rcd13ifvqef0","pricing_plan_id":"cebpf4jnsgd1na2vs0mg"},{"bike_id":"d4ca3cb7-3285-4e3b-9f6a-2440127c81f8","system_id":"levelo_inurba_marseille","lat":43.31712,"lon":5.37762,"is_reserved":false,"is_disabled":false,"rental_uris":{"android":"levelo://app?vid=d4ca3cb7-3285-4e3b-9f6a-2440127c81f8","ios":"levelo://app?vid=d4ca3cb7-3285-4e3b-9f6a-2440127c81f8"},"vehicle_type_id":"4","last_reported":1727971844,"current_range_meters":38800,"station_id":"ce4bgth2rcd13ifvqch0","pricing_plan_id":"cebpf4jnsgd1na2vs0mg"},{"bike_id":"5bd745a8-2b2c-4f75-ab60-6ff3223c0a7c","system_id":"levelo_inurba_marseille","lat":43.28475,"lon":5.38408,"is_reserved":false,"is_disabled":false,"rental_uris":{"android":"levelo://app?vid=5bd745a8-2b2c-4f75-ab60-6ff3223c0a7c","ios":"levelo://app?vid=5bd745a8-2b2c-4f75-ab60-6ff3223c0a7c"},"vehicle_type_id":"4","last_reported":1727971844,"current_range_meters":3200,"station_id":"ce4bh512rcd13ifvqe3g","pricing_plan_id":"cebpf4jnsgd1na2vs0mg"},{"bike_id":"9d92c710-124c-4ba9-9a90-8ecfe745ad29","system_id":"levelo_inurba_marseille","lat":43.28463,"lon":5.35878,"is_reserved":false,"is_disabled":false,"rental_uris":{"android":"levelo://app?vid=9d92c710-124c-4ba9-9a90-8ecfe745ad29","ios":"levelo://app?vid=9d92c710-124c-4ba9-9a90-8ecfe745ad29"},"vehicle_type_id":"4","last_reported":1727971844,"current_range_meters":4400,"station_id":"ce4bhah2rcd13ifvqei0","pricing_plan_id":"cebpf4jnsgd1na2vs0mg"},{"bike_id":"e571a55b-92e2-4b67-b8f6-5174cc410bfc","system_id":"levelo_inurba_marseille","lat":43.29424,"lon":5.3862,"is_reserved":false,"is_disabled":false,"rental_uris":{"android":"levelo://app?vid=e571a55b-92e2-4b67-b8f6-5174cc410bfc","ios":"levelo://app?vid=e571a55b-92e2-4b67-b8f6-5174cc410bfc"},"vehicle_type_id":"4","last_reported":1727971844,"current_range_meters":30800,"station_id":"ce4bh2h2rcd13ifvqdh0","pricing_plan_id":"cebpf4jnsgd1na2vs0mg"},{"bike_id":"e2ad51f5-5ee7-4e98-a7eb-47b1e5c2da94","system_id":"levelo_inurba_marseille","lat":43.31124,"lon":5.3777,"is_reserved":false,"is_disabled":false,"rental_uris":{"android":"levelo://app?vid=e2ad51f5-5ee7-4e98-a7eb-47b1e5c2da94","ios":"levelo://app?vid=e2ad51f5-5ee7-4e98-a7eb-47b1e5c2da94"},"vehicle_type_id":"4","last_reported":1727971844,"current_range_meters":38800,"station_id":"ce4bgt92rcd13ifvqcg0","pricing_plan_id":"cebpf4jnsgd1na2vs0mg"},{"bike_id":"498215df-d95c-41a9-a11e-17593db243d8","system_id":"levelo_inurba_marseille","lat":43.312261,"lon":5.368748,"is_reserved":false,"is_disabled":false,"rental_uris":{"android":"levelo://app?vid=498215df-d95c-41a9-a11e-17593db243d8","ios":"levelo://app?vid=498215df-d95c-41a9-a11e-17593db243d8"},"vehicle_type_id":"4","last_reported":1727971844,"current_range_meters":16400,"station_id":"ce4bhhh2rcd13ifvqfl0","pricing_plan_id":"cebpf4jnsgd1na2vs0mg"},{"bike_id":"043a60e8-4ad4-458f-b9ae-be26520215cd","system_id":"levelo_inurba_marseille","lat":43.28676,"lon":5.38656,"is_reserved":false,"is_disabled":false,"rental_uris":{"android":"levelo://app?vid=043a60e8-4ad4-458f-b9ae-be26520215cd","ios":"levelo://app?vid=043a60e8-4ad4-458f-b9ae-be26520215cd"},"vehicle_type_id":"4","last_reported":1727971844,"current_range_meters":16000,"station_id":"ce4bh492rcd13ifvqdug","pricing_plan_id":"cebpf4jnsgd1na2vs0mg"},{"bike_id":"4846c4fa-96d3-4add-8c3b-2ecb7d77627f","system_id":"levelo_inurba_marseille","lat":43.26552,"lon":5.37284,"is_reserved":false,"is_disabled":false,"rental_uris":{"android":"levelo://app?vid=4846c4fa-96d3-4add-8c3b-2ecb7d77627f","ios":"levelo://app?vid=4846c4fa-96d3-4add-8c3b-2ecb7d77627f"},"vehicle_type_id":"4","last_reported":1727971844,"current_range_meters":34800,"station_id":"ce4bhg12rcd13ifvqf70","pricing_plan_id":"cebpf4jnsgd1na2vs0mg"},{"bike_id":"6d3b1c04-05e9-4d69-88d0-198652d5ec22","system_id":"levelo_inurba_marseille","lat":43.30877,"lon":5.39653,"is_reserved":false,"is_disabled":false,"rental_uris":{"android":"levelo://app?vid=6d3b1c04-05e9-4d69-88d0-198652d5ec22","ios":"levelo://app?vid=6d3b1c04-05e9-4d69-88d0-198652d5ec22"},"vehicle_type_id":"4","last_reported":1727971844,"current_range_meters":28000,"station_id":"ce4bh012rcd13ifvqcv0","pricing_plan_id":"cebpf4jnsgd1na2vs0mg"},{"bike_id":"821d3f8b-a340-4a0a-9e22-21cda3c17d6e","system_id":"levelo_inurba_marseille","lat":43.29833,"lon":5.36285,"is_reserved":false,"is_disabled":false,"rental_uris":{"android":"levelo://app?vid=821d3f8b-a340-4a0a-9e22-21cda3c17d6e","ios":"levelo://app?vid=821d3f8b-a340-4a0a-9e22-21cda3c17d6e"},"vehicle_type_id":"4","last_reported":1727971844,"current_range_meters":8400,"station_id":"ce4bgpp2rcd13ifvqc3g","pricing_plan_id":"cebpf4jnsgd1na2vs0mg"},{"bike_id":"406982e2-8e20-4dcd-8389-321efabe6d3c","system_id":"levelo_inurba_marseille","lat":43.2971,"lon":5.36613,"is_reserved":false,"is_disabled":false,"rental_uris":{"android":"levelo://app?vid=406982e2-8e20-4dcd-8389-321efabe6d3c","ios":"levelo://app?vid=406982e2-8e20-4dcd-8389-321efabe6d3c"},"vehicle_type_id":"4","last_reported":1727971844,"current_range_meters":36400,"station_id":"ce4bgn12rcd13ifvqbt0","pricing_plan_id":"cebpf4jnsgd1na2vs0mg"},{"bike_id":"ad9bef34-8f1a-4613-ab3f-1206bcf403b7","system_id":"levelo_inurba_marseille","lat":43.2742,"lon":5.39417,"is_reserved":false,"is_disabled":false,"rental_uris":{"android":"levelo://app?vid=ad9bef34-8f1a-4613-ab3f-1206bcf403b7","ios":"levelo://app?vid=ad9bef34-8f1a-4613-ab3f-1206bcf403b7"},"vehicle_type_id":"4","last_reported":1727971844,"current_range_meters":29600,"station_id":"ce4bhdp2rcd13ifvqf20","pricing_plan_id":"cebpf4jnsgd1na2vs0mg"},{"bike_id":"830ac713-2724-4fda-92cc-5a303e26e2fc","system_id":"levelo_inurba_marseille","lat":43.33032,"lon":5.39046,"is_reserved":false,"is_disabled":false,"rental_uris":{"android":"levelo://app?vid=830ac713-2724-4fda-92cc-5a303e26e2fc","ios":"levelo://app?vid=830ac713-2724-4fda-92cc-5a303e26e2fc"},"vehicle_type_id":"4","last_reported":1727971844,"current_range_meters":26000,"station_id":"ce4bhr92rcd13ifvqhrg","pricing_plan_id":"cebpf4jnsgd1na2vs0mg"},{"bike_id":"17774e5e-4ca1-4447-afa9-8f03dd4b5e12","system_id":"levelo_inurba_marseille","lat":43.2618,"lon":5.37462,"is_reserved":false,"is_disabled":false,"rental_uris":{"android":"levelo://app?vid=17774e5e-4ca1-4447-afa9-8f03dd4b5e12","ios":"levelo://app?vid=17774e5e-4ca1-4447-afa9-8f03dd4b5e12"},"vehicle_type_id":"4","last_reported":1727971844,"current_range_meters":8000,"station_id":"ce4bhgp2rcd13ifvqfc0","pricing_plan_id":"cebpf4jnsgd1na2vs0mg"},{"bike_id":"c84a4a46-46dc-4683-a864-76b1f2bedd55","system_id":"levelo_inurba_marseille","lat":43.24811,"lon":5.3746,"is_reserved":false,"is_disabled":false,"rental_uris":{"android":"levelo://app?vid=c84a4a46-46dc-4683-a864-76b1f2bedd55","ios":"levelo://app?vid=c84a4a46-46dc-4683-a864-76b1f2bedd55"},"vehicle_type_id":"4","last_reported":1727971844,"current_range_meters":37600,"station_id":"ce4bhgh2rcd13ifvqfb0","pricing_plan_id":"cebpf4jnsgd1na2vs0mg"},{"bike_id":"4e414bbe-8226-448d-a5c2-f8da9c4a2b14","system_id":"levelo_inurba_marseille","lat":43.29276,"lon":5.40116,"is_reserved":false,"is_disabled":false,"rental_uris":{"android":"levelo://app?vid=4e414bbe-8226-448d-a5c2-f8da9c4a2b14","ios":"levelo://app?vid=4e414bbe-8226-448d-a5c2-f8da9c4a2b14"},"vehicle_type_id":"4","last_reported":1727971844,"current_range_meters":22800,"station_id":"ce4bh312rcd13ifvqdk0","pricing_plan_id":"cebpf4jnsgd1na2vs0mg"},{"bike_id":"bd7a6481-5a1b-4aea-a2f5-4580bce85b72","system_id":"levelo_inurba_marseille","lat":43.23973,"lon":5.3662,"is_reserved":false,"is_disabled":false,"rental_uris":{"android":"levelo://app?vid=bd7a6481-5a1b-4aea-a2f5-4580bce85b72","ios":"levelo://app?vid=bd7a6481-5a1b-4aea-a2f5-4580bce85b72"},"vehicle_type_id":"4","last_reported":1727971844,"current_range_meters":6800,"station_id":"ce4bhi12rcd13ifvqfp0","pricing_plan_id":"cebpf4jnsgd1na2vs0mg"},{"bike_id":"d87c6f5a-da3b-4e48-8268-b3c931123d3e","system_id":"levelo_inurba_marseille","lat":43.27995,"lon":5.40029,"is_reserved":false,"is_disabled":false,"rental_uris":{"android":"levelo://app?vid=d87c6f5a-da3b-4e48-8268-b3c931123d3e","ios":"levelo://app?vid=d87c6f5a-da3b-4e48-8268-b3c931123d3e"},"vehicle_type_id":"4","last_reported":1727971844,"current_range_meters":10800,"station_id":"ce4bho92rcd13ifvqh4g","pricing_plan_id":"cebpf4jnsgd1na2vs0mg"},{"bike_id":"05662129-7f24-4845-8846-890b52d14eca","system_id":"levelo_inurba_marseille","lat":43.31077,"lon":5.38356,"is_reserved":false,"is_disabled":false,"rental_uris":{"android":"levelo://app?vid=05662129-7f24-4845-8846-890b52d14eca","ios":"levelo://app?vid=05662129-7f24-4845-8846-890b52d14eca"},"vehicle_type_id":"4","last_reported":1727971844,"current_range_meters":11200,"station_id":"ce4bgv92rcd13ifvqcr0","pricing_plan_id":"cebpf4jnsgd1na2vs0mg"},{"bike_id":"f95d571d-2d6d-4cfe-a4cf-97c1ee64af90","system_id":"levelo_inurba_marseille","lat":43.27953,"lon":5.41039,"is_reserved":false,"is_disabled":false,"rental_uris":{"android":"levelo://app?vid=f95d571d-2d6d-4cfe-a4cf-97c1ee64af90","ios":"levelo://app?vid=f95d571d-2d6d-4cfe-a4cf-97c1ee64af90"},"vehicle_type_id":"4","last_reported":1727971844,"current_range_meters":27600,"station_id":"ce4bhnp2rcd13ifvqh0g","pricing_plan_id":"cebpf4jnsgd1na2vs0mg"},{"bike_id":"a976baeb-9313-4147-b5ab-a8352ba3fd11","system_id":"levelo_inurba_marseille","lat":43.31121,"lon":5.37767,"is_reserved":false,"is_disabled":false,"rental_uris":{"android":"levelo://app?vid=a976baeb-9313-4147-b5ab-a8352ba3fd11","ios":"levelo://app?vid=a976baeb-9313-4147-b5ab-a8352ba3fd11"},"vehicle_type_id":"4","last_reported":1727971844,"current_range_meters":22000,"station_id":"ce4bgt92rcd13ifvqcg0","pricing_plan_id":"cebpf4jnsgd1na2vs0mg"},{"bike_id":"b6a194ba-6f3d-4b66-8e69-d1e9d13b658a","system_id":"levelo_inurba_marseille","lat":43.28425,"lon":5.34989,"is_reserved":false,"is_disabled":false,"rental_uris":{"android":"levelo://app?vid=b6a194ba-6f3d-4b66-8e69-d1e9d13b658a","ios":"levelo://app?vid=b6a194ba-6f3d-4b66-8e69-d1e9d13b658a"},"vehicle_type_id":"4","last_reported":1727971844,"current_range_meters":38800,"station_id":"ce4bhbh2rcd13ifvqepg","pricing_plan_id":"cebpf4jnsgd1na2vs0mg"},{"bike_id":"795866be-d8e0-46fd-8087-450446bab873","system_id":"levelo_inurba_marseille","lat":43.23064,"lon":5.35501,"is_reserved":false,"is_disabled":false,"rental_uris":{"android":"levelo://app?vid=795866be-d8e0-46fd-8087-450446bab873","ios":"levelo://app?vid=795866be-d8e0-46fd-8087-450446bab873"},"vehicle_type_id":"4","last_reported":1727971844,"current_range_meters":26800,"station_id":"cpo3342slgdg3j2ifvpg","pricing_plan_id":"cebpf4jnsgd1na2vs0mg"},{"bike_id":"00177c29-ca99-487a-9aff-f0699e35ea4e","system_id":"levelo_inurba_marseille","lat":43.2959,"lon":5.36732,"is_reserved":false,"is_disabled":false,"rental_uris":{"android":"levelo://app?vid=00177c29-ca99-487a-9aff-f0699e35ea4e","ios":"levelo://app?vid=00177c29-ca99-487a-9aff-f0699e35ea4e"},"vehicle_type_id":"4","last_reported":1727971844,"current_range_meters":25200,"station_id":"ce4bgph2rcd13ifvqc2g","pricing_plan_id":"cebpf4jnsgd1na2vs0mg"},{"bike_id":"89955d2e-53a1-48c9-86ba-e262c53bb477","system_id":"levelo_inurba_marseille","lat":43.26208,"lon":5.37442,"is_reserved":false,"is_disabled":false,"rental_uris":{"android":"levelo://app?vid=89955d2e-53a1-48c9-86ba-e262c53bb477","ios":"levelo://app?vid=89955d2e-53a1-48c9-86ba-e262c53bb477"},"vehicle_type_id":"4","last_reported":1727971844,"current_range_meters":9200,"station_id":"ce4bhgp2rcd13ifvqfc0","pricing_plan_id":"cebpf4jnsgd1na2vs0mg"},{"bike_id":"b412a961-2241-4072-b3d5-bd91862a39d3","system_id":"levelo_inurba_marseille","lat":43.28613,"lon":5.35111,"is_reserved":false,"is_disabled":false,"rental_uris":{"android":"levelo://app?vid=b412a961-2241-4072-b3d5-bd91862a39d3","ios":"levelo://app?vid=b412a961-2241-4072-b3d5-bd91862a39d3"},"vehicle_type_id":"4","last_reported":1727971844,"current_range_meters":33200,"station_id":"ce4bhch2rcd13ifvqeug","pricing_plan_id":"cebpf4jnsgd1na2vs0mg"},{"bike_id":"35e72393-290c-44e0-b96f-826efca7ddd2","system_id":"levelo_inurba_marseille","lat":43.29197,"lon":5.39317,"is_reserved":false,"is_disabled":false,"rental_uris":{"android":"levelo://app?vid=35e72393-290c-44e0-b96f-826efca7ddd2","ios":"levelo://app?vid=35e72393-290c-44e0-b96f-826efca7ddd2"},"vehicle_type_id":"4","last_reported":1727971844,"current_range_meters":21600,"station_id":"ce4bh192rcd13ifvqdd0","pricing_plan_id":"cebpf4jnsgd1na2vs0mg"},{"bike_id":"aee7dc49-dffa-4b9f-a900-876c2edd37bf","system_id":"levelo_inurba_marseille","lat":43.24184,"lon":5.39731,"is_reserved":false,"is_disabled":false,"rental_uris":{"android":"levelo://app?vid=aee7dc49-dffa-4b9f-a900-876c2edd37bf","ios":"levelo://app?vid=aee7dc49-dffa-4b9f-a900-876c2edd37bf"},"vehicle_type_id":"4","last_reported":1727971844,"current_range_meters":10000,"station_id":"ce4bhn12rcd13ifvqgpg","pricing_plan_id":"cebpf4jnsgd1na2vs0mg"},{"bike_id":"0f53e38e-c97b-463c-8114-cbce164fd8f3","system_id":"levelo_inurba_marseille","lat":43.2719,"lon":5.40985,"is_reserved":false,"is_disabled":false,"rental_uris":{"android":"levelo://app?vid=0f53e38e-c97b-463c-8114-cbce164fd8f3","ios":"levelo://app?vid=0f53e38e-c97b-463c-8114-cbce164fd8f3"},"vehicle_type_id":"4","last_reported":1727971844,"current_range_meters":38800,"station_id":"ce4bhl12rcd13ifvqgf0","pricing_plan_id":"cebpf4jnsgd1na2vs0mg"},{"bike_id":"64bd957e-b978-44cb-a85c-928d627d24ec","system_id":"levelo_inurba_marseille","lat":43.35749,"lon":5.359,"is_reserved":false,"is_disabled":false,"rental_uris":{"android":"levelo://app?vid=64bd957e-b978-44cb-a85c-928d627d24ec","ios":"levelo://app?vid=64bd957e-b978-44cb-a85c-928d627d24ec"},"vehicle_type_id":"4","last_reported":1727971844,"current_range_meters":11600,"station_id":"","pricing_plan_id":"cebpf4jnsgd1na2vs0mg"},{"bike_id":"9eecd779-c6c0-4e07-ac55-d8d18d2fd278","system_id":"levelo_inurba_marseille","lat":43.27996,"lon":5.40002,"is_reserved":false,"is_disabled":false,"rental_uris":{"android":"levelo://app?vid=9eecd779-c6c0-4e07-ac55-d8d18d2fd278","ios":"levelo://app?vid=9eecd779-c6c0-4e07-ac55-d8d18d2fd278"},"vehicle_type_id":"4","last_reported":1727971844,"current_range_meters":24800,"station_id":"ce4bho92rcd13ifvqh4g","pricing_plan_id":"cebpf4jnsgd1na2vs0mg"},{"bike_id":"c940e2b8-0cd5-458b-865c-330180539f5d","system_id":"levelo_inurba_marseille","lat":43.31125,"lon":5.3777,"is_reserved":false,"is_disabled":false,"rental_uris":{"android":"levelo://app?vid=c940e2b8-0cd5-458b-865c-330180539f5d","ios":"levelo://app?vid=c940e2b8-0cd5-458b-865c-330180539f5d"},"vehicle_type_id":"4","last_reported":1727971844,"current_range_meters":38800,"station_id":"ce4bgt92rcd13ifvqcg0","pricing_plan_id":"cebpf4jnsgd1na2vs0mg"},{"bike_id":"d45d9a97-1129-45c9-9f44-4f962bebcce1","system_id":"levelo_inurba_marseille","lat":43.28613,"lon":5.35098,"is_reserved":false,"is_disabled":false,"rental_uris":{"android":"levelo://app?vid=d45d9a97-1129-45c9-9f44-4f962bebcce1","ios":"levelo://app?vid=d45d9a97-1129-45c9-9f44-4f962bebcce1"},"vehicle_type_id":"4","last_reported":1727971844,"current_range_meters":21600,"station_id":"ce4bhch2rcd13ifvqeug","pricing_plan_id":"cebpf4jnsgd1na2vs0mg"},{"bike_id":"0f971758-4afe-4438-bed5-2c6c461120fd","system_id":"levelo_inurba_marseille","lat":43.29875,"lon":5.38907,"is_reserved":false,"is_disabled":false,"rental_uris":{"android":"levelo://app?vid=0f971758-4afe-4438-bed5-2c6c461120fd","ios":"levelo://app?vid=0f971758-4afe-4438-bed5-2c6c461120fd"},"vehicle_type_id":"4","last_reported":1727971844,"current_range_meters":9600,"station_id":"ce4bh392rcd13ifvqdl0","pricing_plan_id":"cebpf4jnsgd1na2vs0mg"},{"bike_id":"22888a81-788a-45ee-8d23-f9017fcb25b9","system_id":"levelo_inurba_marseille","lat":43.31282,"lon":5.40175,"is_reserved":false,"is_disabled":false,"rental_uris":{"android":"levelo://app?vid=22888a81-788a-45ee-8d23-f9017fcb25b9","ios":"levelo://app?vid=22888a81-788a-45ee-8d23-f9017fcb25b9"},"vehicle_type_id":"4","last_reported":1727971844,"current_range_meters":6800,"station_id":"ce4bh092rcd13ifvqd30","pricing_plan_id":"cebpf4jnsgd1na2vs0mg"},{"bike_id":"a0a6bc1c-ca3c-4a34-82a0-b9fbcb50dea0","system_id":"levelo_inurba_marseille","lat":43.23192,"lon":5.39989,"is_reserved":false,"is_disabled":false,"rental_uris":{"android":"levelo://app?vid=a0a6bc1c-ca3c-4a34-82a0-b9fbcb50dea0","ios":"levelo://app?vid=a0a6bc1c-ca3c-4a34-82a0-b9fbcb50dea0"},"vehicle_type_id":"4","last_reported":1727971844,"current_range_meters":24800,"station_id":"ce4bhn12rcd13ifvqgqg","pricing_plan_id":"cebpf4jnsgd1na2vs0mg"},{"bike_id":"9e085f2a-958d-4160-8187-ff4894a6e484","system_id":"levelo_inurba_marseille","lat":43.32333,"lon":5.40608,"is_reserved":false,"is_disabled":false,"rental_uris":{"android":"levelo://app?vid=9e085f2a-958d-4160-8187-ff4894a6e484","ios":"levelo://app?vid=9e085f2a-958d-4160-8187-ff4894a6e484"},"vehicle_type_id":"4","last_reported":1727971844,"current_range_meters":26000,"station_id":"ce4bhq92rcd13ifvqhjg","pricing_plan_id":"cebpf4jnsgd1na2vs0mg"},{"bike_id":"6c657b64-008e-4e54-81c9-511c9341c4e9","system_id":"levelo_inurba_marseille","lat":43.29918,"lon":5.38129,"is_reserved":false,"is_disabled":false,"rental_uris":{"android":"levelo://app?vid=6c657b64-008e-4e54-81c9-511c9341c4e9","ios":"levelo://app?vid=6c657b64-008e-4e54-81c9-511c9341c4e9"},"vehicle_type_id":"4","last_reported":1727971844,"current_range_meters":4800,"station_id":"ce4bgj12rcd13ifvqbc0","pricing_plan_id":"cebpf4jnsgd1na2vs0mg"},{"bike_id":"b5acc57b-5f11-4b7a-9f9e-62a9792e6d78","system_id":"levelo_inurba_marseille","lat":43.30426,"lon":5.36669,"is_reserved":false,"is_disabled":false,"rental_uris":{"android":"levelo://app?vid=b5acc57b-5f11-4b7a-9f9e-62a9792e6d78","ios":"levelo://app?vid=b5acc57b-5f11-4b7a-9f9e-62a9792e6d78"},"vehicle_type_id":"4","last_reported":1727971844,"current_range_meters":8400,"station_id":"ce4bgrp2rcd13ifvqc9g","pricing_plan_id":"cebpf4jnsgd1na2vs0mg"},{"bike_id":"6d679b6b-38e0-4f37-8caf-d0dfb3677fc5","system_id":"levelo_inurba_marseille","lat":43.22932,"lon":5.35379,"is_reserved":false,"is_disabled":false,"rental_uris":{"android":"levelo://app?vid=6d679b6b-38e0-4f37-8caf-d0dfb3677fc5","ios":"levelo://app?vid=6d679b6b-38e0-4f37-8caf-d0dfb3677fc5"},"vehicle_type_id":"4","last_reported":1727971844,"current_range_meters":32800,"station_id":"cpo3532slgdg3j2ikp40","pricing_plan_id":"cebpf4jnsgd1na2vs0mg"},{"bike_id":"f0ed8c34-724d-442e-9c56-228a206952af","system_id":"levelo_inurba_marseille","lat":43.31991,"lon":5.38154,"is_reserved":false,"is_disabled":false,"rental_uris":{"android":"levelo://app?vid=f0ed8c34-724d-442e-9c56-228a206952af","ios":"levelo://app?vid=f0ed8c34-724d-442e-9c56-228a206952af"},"vehicle_type_id":"4","last_reported":1727971844,"current_range_meters":37600,"station_id":"ce4bhr12rcd13ifvqhpg","pricing_plan_id":"cebpf4jnsgd1na2vs0mg"},{"bike_id":"cbdaef61-cd85-490c-a46f-f1668b37771b","system_id":"levelo_inurba_marseille","lat":43.25088,"lon":5.39525,"is_reserved":false,"is_disabled":false,"rental_uris":{"android":"levelo://app?vid=cbdaef61-cd85-490c-a46f-f1668b37771b","ios":"levelo://app?vid=cbdaef61-cd85-490c-a46f-f1668b37771b"},"vehicle_type_id":"4","last_reported":1727971844,"current_range_meters":19200,"station_id":"ce4bhm12rcd13ifvqgkg","pricing_plan_id":"cebpf4jnsgd1na2vs0mg"},{"bike_id":"c0e2c851-377d-4e41-bd9e-aa35f16f7256","system_id":"levelo_inurba_marseille","lat":43.26025,"lon":5.37553,"is_reserved":false,"is_disabled":false,"rental_uris":{"android":"levelo://app?vid=c0e2c851-377d-4e41-bd9e-aa35f16f7256","ios":"levelo://app?vid=c0e2c851-377d-4e41-bd9e-aa35f16f7256"},"vehicle_type_id":"4","last_reported":1727971844,"current_range_meters":8000,"station_id":"ce4bhgh2rcd13ifvqfa0","pricing_plan_id":"cebpf4jnsgd1na2vs0mg"},{"bike_id":"61ef9b86-db33-4fe7-8434-94883dc3fffd","system_id":"levelo_inurba_marseille","lat":43.23185,"lon":5.39997,"is_reserved":false,"is_disabled":false,"rental_uris":{"android":"levelo://app?vid=61ef9b86-db33-4fe7-8434-94883dc3fffd","ios":"levelo://app?vid=61ef9b86-db33-4fe7-8434-94883dc3fffd"},"vehicle_type_id":"4","last_reported":1727971844,"current_range_meters":26000,"station_id":"ce4bhn12rcd13ifvqgqg","pricing_plan_id":"cebpf4jnsgd1na2vs0mg"},{"bike_id":"7cecb45f-88bd-4c5c-b8df-f037b413969f","system_id":"levelo_inurba_marseille","lat":43.28456,"lon":5.35884,"is_reserved":false,"is_disabled":false,"rental_uris":{"android":"levelo://app?vid=7cecb45f-88bd-4c5c-b8df-f037b413969f","ios":"levelo://app?vid=7cecb45f-88bd-4c5c-b8df-f037b413969f"},"vehicle_type_id":"4","last_reported":1727971844,"current_range_meters":28400,"station_id":"ce4bhah2rcd13ifvqei0","pricing_plan_id":"cebpf4jnsgd1na2vs0mg"},{"bike_id":"42715632-e225-47f3-813c-9451f24e5700","system_id":"levelo_inurba_marseille","lat":43.23191,"lon":5.35549,"is_reserved":false,"is_disabled":false,"rental_uris":{"android":"levelo://app?vid=42715632-e225-47f3-813c-9451f24e5700","ios":"levelo://app?vid=42715632-e225-47f3-813c-9451f24e5700"},"vehicle_type_id":"4","last_reported":1727971844,"current_range_meters":25200,"station_id":"ce4bhu92rcd13ifvqi70","pricing_plan_id":"cebpf4jnsgd1na2vs0mg"},{"bike_id":"d42f01b5-8432-4fed-a08a-1a56743f54c2","system_id":"levelo_inurba_marseille","lat":43.27375,"lon":5.36263,"is_reserved":false,"is_disabled":false,"rental_uris":{"android":"levelo://app?vid=d42f01b5-8432-4fed-a08a-1a56743f54c2","ios":"levelo://app?vid=d42f01b5-8432-4fed-a08a-1a56743f54c2"},"vehicle_type_id":"4","last_reported":1727971844,"current_range_meters":9600,"station_id":"ce4bhbh2rcd13ifvqeo0","pricing_plan_id":"cebpf4jnsgd1na2vs0mg"},{"bike_id":"ef690e6d-f867-4f3a-b84f-aad100835ce8","system_id":"levelo_inurba_marseille","lat":43.2756,"lon":5.38445,"is_reserved":false,"is_disabled":false,"rental_uris":{"android":"levelo://app?vid=ef690e6d-f867-4f3a-b84f-aad100835ce8","ios":"levelo://app?vid=ef690e6d-f867-4f3a-b84f-aad100835ce8"},"vehicle_type_id":"4","last_reported":1727971844,"current_range_meters":16800,"station_id":"ce4bhh92rcd13ifvqfi0","pricing_plan_id":"cebpf4jnsgd1na2vs0mg"},{"bike_id":"5217aff9-c3d8-457d-a112-3078e1019e11","system_id":"levelo_inurba_marseille","lat":43.32042,"lon":5.40882,"is_reserved":false,"is_disabled":false,"rental_uris":{"android":"levelo://app?vid=5217aff9-c3d8-457d-a112-3078e1019e11","ios":"levelo://app?vid=5217aff9-c3d8-457d-a112-3078e1019e11"},"vehicle_type_id":"4","last_reported":1727971844,"current_range_meters":29600,"station_id":"ce4bhq92rcd13ifvqhjg","pricing_plan_id":"cebpf4jnsgd1na2vs0mg"},{"bike_id":"2ce3680e-bce5-4e5a-8b7e-a4a896b7d4e1","system_id":"levelo_inurba_marseille","lat":43.26025,"lon":5.37553,"is_reserved":false,"is_disabled":false,"rental_uris":{"android":"levelo://app?vid=2ce3680e-bce5-4e5a-8b7e-a4a896b7d4e1","ios":"levelo://app?vid=2ce3680e-bce5-4e5a-8b7e-a4a896b7d4e1"},"vehicle_type_id":"4","last_reported":1727971844,"current_range_meters":39200,"station_id":"ce4bhgh2rcd13ifvqfa0","pricing_plan_id":"cebpf4jnsgd1na2vs0mg"},{"bike_id":"e9878552-5a00-4c02-8144-e73c9212228e","system_id":"levelo_inurba_marseille","lat":43.29557,"lon":5.42295,"is_reserved":false,"is_disabled":false,"rental_uris":{"android":"levelo://app?vid=e9878552-5a00-4c02-8144-e73c9212228e","ios":"levelo://app?vid=e9878552-5a00-4c02-8144-e73c9212228e"},"vehicle_type_id":"4","last_reported":1727971844,"current_range_meters":14800,"station_id":"ce4bhph2rcd13ifvqhdg","pricing_plan_id":"cebpf4jnsgd1na2vs0mg"},{"bike_id":"c6868386-d401-49b8-a3ff-8186a12cf7c9","system_id":"levelo_inurba_marseille","lat":43.31167,"lon":5.38714,"is_reserved":false,"is_disabled":false,"rental_uris":{"android":"levelo://app?vid=c6868386-d401-49b8-a3ff-8186a12cf7c9","ios":"levelo://app?vid=c6868386-d401-49b8-a3ff-8186a12cf7c9"},"vehicle_type_id":"4","last_reported":1727971844,"current_range_meters":17200,"station_id":"ce4bgv12rcd13ifvqcp0","pricing_plan_id":"cebpf4jnsgd1na2vs0mg"},{"bike_id":"3ff22cbd-168f-490d-a639-4e04d1e6b696","system_id":"levelo_inurba_marseille","lat":43.28402,"lon":5.34999,"is_reserved":false,"is_disabled":false,"rental_uris":{"android":"levelo://app?vid=3ff22cbd-168f-490d-a639-4e04d1e6b696","ios":"levelo://app?vid=3ff22cbd-168f-490d-a639-4e04d1e6b696"},"vehicle_type_id":"4","last_reported":1727971844,"current_range_meters":32000,"station_id":"ce4bhbh2rcd13ifvqepg","pricing_plan_id":"cebpf4jnsgd1na2vs0mg"},{"bike_id":"d239ac4c-1bd9-4b3b-a707-2fe1a4442cab","system_id":"levelo_inurba_marseille","lat":43.31695,"lon":5.3776,"is_reserved":false,"is_disabled":false,"rental_uris":{"android":"levelo://app?vid=d239ac4c-1bd9-4b3b-a707-2fe1a4442cab","ios":"levelo://app?vid=d239ac4c-1bd9-4b3b-a707-2fe1a4442cab"},"vehicle_type_id":"4","last_reported":1727971844,"current_range_meters":7200,"station_id":"ce4bgth2rcd13ifvqch0","pricing_plan_id":"cebpf4jnsgd1na2vs0mg"},{"bike_id":"520a0142-97a8-41c0-aa08-89a547ba9367","system_id":"levelo_inurba_marseille","lat":43.2861,"lon":5.37059,"is_reserved":false,"is_disabled":false,"rental_uris":{"android":"levelo://app?vid=520a0142-97a8-41c0-aa08-89a547ba9367","ios":"levelo://app?vid=520a0142-97a8-41c0-aa08-89a547ba9367"},"vehicle_type_id":"4","last_reported":1727971844,"current_range_meters":30800,"station_id":"ce4bht12rcd13ifvqi60","pricing_plan_id":"cebpf4jnsgd1na2vs0mg"},{"bike_id":"df805fc4-f3aa-4a6e-93f6-d16e6c118619","system_id":"levelo_inurba_marseille","lat":43.28039,"lon":5.36945,"is_reserved":false,"is_disabled":false,"rental_uris":{"android":"levelo://app?vid=df805fc4-f3aa-4a6e-93f6-d16e6c118619","ios":"levelo://app?vid=df805fc4-f3aa-4a6e-93f6-d16e6c118619"},"vehicle_type_id":"4","last_reported":1727971844,"current_range_meters":4800,"station_id":"ce4bha12rcd13ifvqef0","pricing_plan_id":"cebpf4jnsgd1na2vs0mg"},{"bike_id":"961a490b-989e-4394-b274-258386a1a8c8","system_id":"levelo_inurba_marseille","lat":43.26496,"lon":5.3955,"is_reserved":false,"is_disabled":false,"rental_uris":{"android":"levelo://app?vid=961a490b-989e-4394-b274-258386a1a8c8","ios":"levelo://app?vid=961a490b-989e-4394-b274-258386a1a8c8"},"vehicle_type_id":"4","last_reported":1727971844,"current_range_meters":39200,"station_id":"ce4bhi12rcd13ifvqfq0","pricing_plan_id":"cebpf4jnsgd1na2vs0mg"},{"bike_id":"b043eaab-b449-40fc-83db-2ef103049170","system_id":"levelo_inurba_marseille","lat":43.29598,"lon":5.38099,"is_reserved":false,"is_disabled":false,"rental_uris":{"android":"levelo://app?vid=b043eaab-b449-40fc-83db-2ef103049170","ios":"levelo://app?vid=b043eaab-b449-40fc-83db-2ef103049170"},"vehicle_type_id":"4","last_reported":1727971844,"current_range_meters":6400,"station_id":"ce4bgl12rcd13ifvqbo0","pricing_plan_id":"cebpf4jnsgd1na2vs0mg"},{"bike_id":"2c0d041f-2d27-4ee3-95c1-9a337d23edea","system_id":"levelo_inurba_marseille","lat":43.284915,"lon":5.385623,"is_reserved":false,"is_disabled":false,"rental_uris":{"android":"levelo://app?vid=2c0d041f-2d27-4ee3-95c1-9a337d23edea","ios":"levelo://app?vid=2c0d041f-2d27-4ee3-95c1-9a337d23edea"},"vehicle_type_id":"4","last_reported":1727971844,"current_range_meters":36000,"station_id":"ce4bh8p2rcd13ifvqeb0","pricing_plan_id":"cebpf4jnsgd1na2vs0mg"},{"bike_id":"60ddb029-599a-4b1d-8b4a-0c9e65a7d862","system_id":"levelo_inurba_marseille","lat":43.29256,"lon":5.4091,"is_reserved":false,"is_disabled":false,"rental_uris":{"android":"levelo://app?vid=60ddb029-599a-4b1d-8b4a-0c9e65a7d862","ios":"levelo://app?vid=60ddb029-599a-4b1d-8b4a-0c9e65a7d862"},"vehicle_type_id":"4","last_reported":1727971844,"current_range_meters":27600,"station_id":"ce4bh192rcd13ifvqdc0","pricing_plan_id":"cebpf4jnsgd1na2vs0mg"},{"bike_id":"84e36f04-12d6-46d4-b11e-6edf8d1599e7","system_id":"levelo_inurba_marseille","lat":43.30948,"lon":5.39043,"is_reserved":false,"is_disabled":false,"rental_uris":{"android":"levelo://app?vid=84e36f04-12d6-46d4-b11e-6edf8d1599e7","ios":"levelo://app?vid=84e36f04-12d6-46d4-b11e-6edf8d1599e7"},"vehicle_type_id":"4","last_reported":1727971844,"current_range_meters":10800,"station_id":"ce4bgup2rcd13ifvqco0","pricing_plan_id":"cebpf4jnsgd1na2vs0mg"},{"bike_id":"620214d0-60a9-4b06-89cc-6ab9889c9439","system_id":"levelo_inurba_marseille","lat":43.29959,"lon":5.37162,"is_reserved":false,"is_disabled":false,"rental_uris":{"android":"levelo://app?vid=620214d0-60a9-4b06-89cc-6ab9889c9439","ios":"levelo://app?vid=620214d0-60a9-4b06-89cc-6ab9889c9439"},"vehicle_type_id":"4","last_reported":1727971844,"current_range_meters":21600,"station_id":"ce4bgr92rcd13ifvqc7g","pricing_plan_id":"cebpf4jnsgd1na2vs0mg"},{"bike_id":"f6d03982-becc-4720-a439-65a0a33374bb","system_id":"levelo_inurba_marseille","lat":43.28417,"lon":5.37801,"is_reserved":false,"is_disabled":false,"rental_uris":{"android":"levelo://app?vid=f6d03982-becc-4720-a439-65a0a33374bb","ios":"levelo://app?vid=f6d03982-becc-4720-a439-65a0a33374bb"},"vehicle_type_id":"4","last_reported":1727971844,"current_range_meters":18000,"station_id":"ce4bhg92rcd13ifvqf90","pricing_plan_id":"cebpf4jnsgd1na2vs0mg"},{"bike_id":"d132be65-3966-42f1-b71c-b0237de7d6a2","system_id":"levelo_inurba_marseille","lat":43.26066,"lon":5.39402,"is_reserved":false,"is_disabled":false,"rental_uris":{"android":"levelo://app?vid=d132be65-3966-42f1-b71c-b0237de7d6a2","ios":"levelo://app?vid=d132be65-3966-42f1-b71c-b0237de7d6a2"},"vehicle_type_id":"4","last_reported":1727971844,"current_range_meters":24400,"station_id":"ce4bhh92rcd13ifvqfj0","pricing_plan_id":"cebpf4jnsgd1na2vs0mg"},{"bike_id":"78ef1d26-2836-43e0-8fc5-7b2ad7786b2c","system_id":"levelo_inurba_marseille","lat":43.306233,"lon":5.372049,"is_reserved":false,"is_disabled":false,"rental_uris":{"android":"levelo://app?vid=78ef1d26-2836-43e0-8fc5-7b2ad7786b2c","ios":"levelo://app?vid=78ef1d26-2836-43e0-8fc5-7b2ad7786b2c"},"vehicle_type_id":"4","last_reported":1727971844,"current_range_meters":38800,"station_id":"ce4bgqh2rcd13ifvqc4g","pricing_plan_id":"cebpf4jnsgd1na2vs0mg"},{"bike_id":"84c67bbf-5c7b-439f-a282-8225092db2be","system_id":"levelo_inurba_marseille","lat":43.29315,"lon":5.37183,"is_reserved":false,"is_disabled":false,"rental_uris":{"android":"levelo://app?vid=84c67bbf-5c7b-439f-a282-8225092db2be","ios":"levelo://app?vid=84c67bbf-5c7b-439f-a282-8225092db2be"},"vehicle_type_id":"4","last_reported":1727971844,"current_range_meters":11600,"station_id":"ce4bgh92rcd13ifvqb40","pricing_plan_id":"cebpf4jnsgd1na2vs0mg"},