{"last_updated":1717189659,"ttl":30,"version":"2.2","data":{"bikes":[{"bike_id":"99feba81-b2f2-40dc-ae44-2195b3103acd","system_id":"levelo_inurba_marseille","lat":43.312239,"lon":5.368562,"is_reserved":false,"is_disabled":false,"rental_uris":{"android":"levelo://app?vid=99feba81-b2f2-40dc-ae44-2195b3103acd","ios":"levelo://app?vid=99feba81-b2f2-40dc-ae44-2195b3103acd"},"vehicle_type_id":"4","last_reported":1717189659,"current_range_meters":15600,"station_id":"ce4bgl92rcd13ifvqbq0","pricing_plan_id":"cebpf4jnsgd1na2vs0mg"},{"bike_id":"6fe3832f-528e-4e9d-8891-c34692751a73","system_id":"levelo_inurba_marseille","lat":43.312239,"lon":5.368562,"is_reserved":false,"is_disabled":false,"rental_uris":{"android":"levelo://app?vid=6fe3832f-528e-4e9d-8891-c34692751a73","ios":"levelo://app?vid=6fe3832f-528e-4e9d-8891-c34692751a73"},"vehicle_type_id":"4","last_reported":1717189659,"current_range_meters":2400,"station_id":"ce4bgl92rcd13ifvqbq0","pricing_plan_id":"cebpf4jnsgd1na2vs0mg"},{"bike_id":"2c86a315-ff8d-4220-863b-a4065cac140b","system_id":"levelo_inurba_marseille","lat":43.30911,"lon":5.36856,"is_reserved":false,"is_disabled":false,"rental_uris":{"android":"levelo://app?vid=2c86a315-ff8d-4220-863b-a4065cac140b","ios":"levelo://app?vid=2c86a315-ff8d-4220-863b-a4065cac140b"},"vehicle_type_id":"4","last_reported":1717189659,"current_range_meters":0,"station_id":"ce4bgn92rcd13ifvqbvg","pricing_plan_id":"cebpf4jnsgd1na2vs0mg"},{"bike_id":"a293bd6c-f711-476f-aa7b-9f00e798e832","system_id":"levelo_inurba_marseille","lat":43.314811,"lon":5.373103,"is_reserved":false,"is_disabled":false,"rental_uris":{"android":"levelo://app?vid=a293bd6c-f711-476f-aa7b-9f00e798e832","ios":"levelo://app?vid=a293bd6c-f711-476f-aa7b-9f00e798e832"},"vehicle_type_id":"4","last_reported":1717189659,"current_range_meters":0,"station_id":"ce4bgt12rcd13ifvqcd0","pricing_plan_id":"cebpf4jnsgd1na2vs0mg"},{"bike_id":"aa80be88-10ec-4d70-ac04-cb774cb2991e","system_id":"levelo_inurba_marseille","lat":43.314811,"lon":5.373103,"is_reserved":false,"is_disabled":false,"rental_uris":{"android":"levelo://app?vid=aa80be88-10ec-4d70-ac04-cb774cb2991e","ios":"levelo://app?vid=aa80be88-10ec-4d70-ac04-cb774cb2991e"},"vehicle_type_id":"4","last_reported":1717189659,"current_range_meters":9200,"station_id":"ce4bgt12rcd13ifvqcd0","pricing_plan_id":"cebpf4jnsgd1na2vs0mg"},{"bike_id":"e04cfe18-f057-4b79-815f-d0d63f17cc94","system_id":"levelo_inurba_marseille","lat":43.314811,"lon":5.373104,"is_reserved":false,"is_disabled":false,"rental_uris":{"android":"levelo://app?vid=e04cfe18-f057-4b79-815f-d0d63f17cc94","ios":"levelo://app?vid=e04cfe18-f057-4b79-815f-d0d63f17cc94"},"vehicle_type_id":"4","last_reported":1717189659,"current_range_meters":22000,"station_id":"ce4bgt12rcd13ifvqcd0","pricing_plan_id":"cebpf4jnsgd1na2vs0mg"},{"bike_id":"0a155838-e286-4dd3-b161-311e9e7a8428","system_id":"levelo_inurba_marseille","lat":43.31502,"lon":5.37308,"is_reserved":false,"is_disabled":false,"rental_uris":{"android":"levelo://app?vid=0a155838-e286-4dd3-b161-311e9e7a8428","ios":"levelo://app?vid=0a155838-e286-4dd3-b161-311e9e7a8428"},"vehicle_type_id":"4","last_reported":1717189659,"current_range_meters":0,"station_id":"ce4bgt12rcd13ifvqcd0","pricing_plan_id":"cebpf4jnsgd1na2vs0mg"},{"bike_id":"3dd13760-804c-4808-8187-825b045fc12e","system_id":"levelo_inurba_marseille","lat":43.309039,"lon":5.371797,"is_reserved":false,"is_disabled":false,"rental_uris":{"android":"levelo://app?vid=3dd13760-804c-4808-8187-825b045fc12e","ios":"levelo://app?vid=3dd13760-804c-4808-8187-825b045fc12e"},"vehicle_type_id":"4","last_reported":1717189659,"current_range_meters":21200,"station_id":"ce4bguh2rcd13ifvqckg","pricing_plan_id":"cebpf4jnsgd1na2vs0mg"},{"bike_id":"be95db35-8ad5-4a72-8af2-bb389fcc370d","system_id":"levelo_inurba_marseille","lat":43.308883,"lon":5.371816,"is_reserved":false,"is_disabled":false,"rental_uris":{"android":"levelo://app?vid=be95db35-8ad5-4a72-8af2-bb389fcc370d","ios":"levelo://app?vid=be95db35-8ad5-4a72-8af2-bb389fcc370d"},"vehicle_type_id":"4","last_reported":1717189659,"current_range_meters":0,"station_id":"ce4bguh2rcd13ifvqckg","pricing_plan_id":"cebpf4jnsgd1na2vs0mg"},{"bike_id":"f7e2f711-528c-4538-b0ea-413b7a0dd432","system_id":"levelo_inurba_marseille","lat":43.309034,"lon":5.371783,"is_reserved":false,"is_disabled":false,"rental_uris":{"android":"levelo://app?vid=f7e2f711-528c-4538-b0ea-413b7a0dd432","ios":"levelo://app?vid=f7e2f711-528c-4538-b0ea-413b7a0dd432"},"vehicle_type_id":"4","last_reported":1717189659,"current_range_meters":16800,"station_id":"ce4bguh2rcd13ifvqckg","pricing_plan_id":"cebpf4jnsgd1na2vs0mg"},{"bike_id":"7baa6c80-c883-42a9-bf94-48af49ed78cc","system_id":"levelo_inurba_marseille","lat":43.31476,"lon":5.37378,"is_reserved":false,"is_disabled":false,"rental_uris":{"android":"levelo://app?vid=7baa6c80-c883-42a9-bf94-48af49ed78cc","ios":"levelo://app?vid=7baa6c80-c883-42a9-bf94-48af49ed78cc"},"vehicle_type_id":"4","last_reported":1717189659,"current_range_meters":14800,"station_id":"","pricing_plan_id":"cebpf4jnsgd1na2vs0mg"},{"bike_id":"36c0007f-aa40-4402-9aa9-41634e6591d6","system_id":"levelo_inurba_marseille","lat":43.309034,"lon":5.371783,"is_reserved":false,"is_disabled":false,"rental_uris":{"android":"levelo://app?vid=36c0007f-aa40-4402-9aa9-41634e6591d6","ios":"levelo://app?vid=36c0007f-aa40-4402-9aa9-41634e6591d6"},"vehicle_type_id":"4","last_reported":1717189659,"current_range_meters":0,"station_id":"ce4bguh2rcd13ifvqckg","pricing_plan_id":"cebpf4jnsgd1na2vs0mg"},{"bike_id":"48718770-193f-47b4-a93d-424104766c11","system_id":"levelo_inurba_marseille","lat":43.305368,"lon":5.367343,"is_reserved":false,"is_disabled":false,"rental_uris":{"android":"levelo://app?vid=48718770-193f-47b4-a93d-424104766c11","ios":"levelo://app?vid=48718770-193f-47b4-a93d-424104766c11"},"vehicle_type_id":"4","last_reported":1717189659,"current_range_meters":9600,"station_id":"ce4bgrp2rcd13ifvqc9g","pricing_plan_id":"cebpf4jnsgd1na2vs0mg"},{"bike_id":"0e8ccd3b-4fb0-44f9-a096-da253330a659","system_id":"levelo_inurba_marseille","lat":43.305996,"lon":5.372101,"is_reserved":false,"is_disabled":false,"rental_uris":{"android":"levelo://app?vid=0e8ccd3b-4fb0-44f9-a096-da253330a659","ios":"levelo://app?vid=0e8ccd3b-4fb0-44f9-a096-da253330a659"},"vehicle_type_id":"4","last_reported":1717189659,"current_range_meters":0,"station_id":"ce4bgqh2rcd13ifvqc4g","pricing_plan_id":"cebpf4jnsgd1na2vs0mg"},{"bike_id":"076c388f-c94d-4ef0-8e21-ec798b5d00d0","system_id":"levelo_inurba_marseille","lat":43.311125,"lon":5.377624,"is_reserved":false,"is_disabled":false,"rental_uris":{"android":"levelo://app?vid=076c388f-c94d-4ef0-8e21-ec798b5d00d0","ios":"levelo://app?vid=076c388f-c94d-4ef0-8e21-ec798b5d00d0"},"vehicle_type_id":"4","last_reported":1717189659,"current_range_meters":0,"station_id":"ce4bgt92rcd13ifvqcg0","pricing_plan_id":"cebpf4jnsgd1na2vs0mg"},{"bike_id":"67c0c03b-a29a-4fa7-9faa-dfba6c02316d","system_id":"levelo_inurba_marseille","lat":43.31124,"lon":5.377755,"is_reserved":false,"is_disabled":false,"rental_uris":{"android":"levelo://app?vid=67c0c03b-a29a-4fa7-9faa-dfba6c02316d","ios":"levelo://app?vid=67c0c03b-a29a-4fa7-9faa-dfba6c02316d"},"vehicle_type_id":"4","last_reported":1717189659,"current_range_meters":0,"station_id":"ce4bgt92rcd13ifvqcg0","pricing_plan_id":"cebpf4jnsgd1na2vs0mg"},{"bike_id":"564f6766-fe16-4035-a9c8-c3c11bf4e2f2","system_id":"levelo_inurba_marseille","lat":43.307945,"lon":5.376487,"is_reserved":false,"is_disabled":false,"rental_uris":{"android":"levelo://app?vid=564f6766-fe16-4035-a9c8-c3c11bf4e2f2","ios":"levelo://app?vid=564f6766-fe16-4035-a9c8-c3c11bf4e2f2"},"vehicle_type_id":"4","last_reported":1717189659,"current_range_meters":2800,"station_id":"ce4bgv92rcd13ifvqcq0","pricing_plan_id":"cebpf4jnsgd1na2vs0mg"},{"bike_id":"077deac4-756f-4636-990a-db6d70f90559","system_id":"levelo_inurba_marseille","lat":43.307945,"lon":5.376487,"is_reserved":false,"is_disabled":false,"rental_uris":{"android":"levelo://app?vid=077deac4-756f-4636-990a-db6d70f90559","ios":"levelo://app?vid=077deac4-756f-4636-990a-db6d70f90559"},"vehicle_type_id":"4","last_reported":1717189659,"current_range_meters":17200,"station_id":"ce4bgv92rcd13ifvqcq0","pricing_plan_id":"cebpf4jnsgd1na2vs0mg"},{"bike_id":"1e1366c2-676b-475c-9ef8-01a3b2dbf8d1","system_id":"levelo_inurba_marseille","lat":43.307945,"lon":5.376487,"is_reserved":false,"is_disabled":false,"rental_uris":{"android":"levelo://app?vid=1e1366c2-676b-475c-9ef8-01a3b2dbf8d1","ios":"levelo://app?vid=1e1366c2-676b-475c-9ef8-01a3b2dbf8d1"},"vehicle_type_id":"4","last_reported":1717189659,"current_range_meters":4400,"station_id":"ce4bgv92rcd13ifvqcq0","pricing_plan_id":"cebpf4jnsgd1na2vs0mg"},{"bike_id":"e25bf541-1d6b-47ff-aa68-02c591251dbc","system_id":"levelo_inurba_marseille","lat":43.307945,"lon":5.376487,"is_reserved":false,"is_disabled":false,"rental_uris":{"android":"levelo://app?vid=e25bf541-1d6b-47ff-aa68-02c591251dbc","ios":"levelo://app?vid=e25bf541-1d6b-47ff-aa68-02c591251dbc"},"vehicle_type_id":"4","last_reported":1717189659,"current_range_meters":10800,"station_id":"ce4bgv92rcd13ifvqcq0","pricing_plan_id":"cebpf4jnsgd1na2vs0mg"},{"bike_id":"21d40e1e-60a1-4a21-b08f-3bd28dfcccfc","system_id":"levelo_inurba_marseille","lat":43.307945,"lon":5.376487,"is_reserved":false,"is_disabled":false,"rental_uris":{"android":"levelo://app?vid=21d40e1e-60a1-4a21-b08f-3bd28dfcccfc","ios":"levelo://app?vid=21d40e1e-60a1-4a21-b08f-3bd28dfcccfc"},"vehicle_type_id":"4","last_reported":1717189659,"current_range_meters":12800,"station_id":"ce4bgv92rcd13ifvqcq0","pricing_plan_id":"cebpf4jnsgd1na2vs0mg"},{"bike_id":"34910ff9-09b5-4faa-ab23-747b49428da5","system_id":"levelo_inurba_marseille","lat":43.307945,"lon":5.376487,"is_reserved":false,"is_disabled":false,"rental_uris":{"android":"levelo://app?vid=34910ff9-09b5-4faa-ab23-747b49428da5","ios":"levelo://app?vid=34910ff9-09b5-4faa-ab23-747b49428da5"},"vehicle_type_id":"4","last_reported":1717189659,"current_range_meters":28800,"station_id":"ce4bgv92rcd13ifvqcq0","pricing_plan_id":"cebpf4jnsgd1na2vs0mg"},{"bike_id":"0d694640-c926-4189-82e1-cfb16721f1cf","system_id":"levelo_inurba_marseille","lat":43.303046,"lon":5.368981,"is_reserved":false,"is_disabled":false,"rental_uris":{"android":"levelo://app?vid=0d694640-c926-4189-82e1-cfb16721f1cf","ios":"levelo://app?vid=0d694640-c926-4189-82e1-cfb16721f1cf"},"vehicle_type_id":"4","last_reported":1717189659,"current_range_meters":23200,"station_id":"ce4bgqh2rcd13ifvqc5g","pricing_plan_id":"cebpf4jnsgd1na2vs0mg"},{"bike_id":"1ffa0b55-9131-44b0-80e1-d7cc18b677a1","system_id":"levelo_inurba_marseille","lat":43.303046,"lon":5.368981,"is_reserved":false,"is_disabled":false,"rental_uris":{"android":"levelo://app?vid=1ffa0b55-9131-44b0-80e1-d7cc18b677a1","ios":"levelo://app?vid=1ffa0b55-9131-44b0-80e1-d7cc18b677a1"},"vehicle_type_id":"4","last_reported":1717189659,"current_range_meters":17600,"station_id":"ce4bgqh2rcd13ifvqc5g","pricing_plan_id":"cebpf4jnsgd1na2vs0mg"},{"bike_id":"3b827a6e-9c6a-4ee2-af36-b4a15d6247af","system_id":"levelo_inurba_marseille","lat":43.315293,"lon":5.380349,"is_reserved":false,"is_disabled":false,"rental_uris":{"android":"levelo://app?vid=3b827a6e-9c6a-4ee2-af36-b4a15d6247af","ios":"levelo://app?vid=3b827a6e-9c6a-4ee2-af36-b4a15d6247af"},"vehicle_type_id":"4","last_reported":1717189659,"current_range_meters":0,"station_id":"ce4bhsp2rcd13ifvqi50","pricing_plan_id":"cebpf4jnsgd1na2vs0mg"},{"bike_id":"dc11d491-b3a9-457d-92e2-c6b0791d8a57","system_id":"levelo_inurba_marseille","lat":43.301939,"lon":5.366286,"is_reserved":false,"is_disabled":false,"rental_uris":{"android":"levelo://app?vid=dc11d491-b3a9-457d-92e2-c6b0791d8a57","ios":"levelo://app?vid=dc11d491-b3a9-457d-92e2-c6b0791d8a57"},"vehicle_type_id":"4","last_reported":1717189659,"current_range_meters":3200,"station_id":"ce4bgrh2rcd13ifvqc8g","pricing_plan_id":"cebpf4jnsgd1na2vs0mg"},{"bike_id":"92360de2-bb90-4760-bec7-d9e8ef46b93f","system_id":"levelo_inurba_marseille","lat":43.301939,"lon":5.366286,"is_reserved":false,"is_disabled":false,"rental_uris":{"android":"levelo://app?vid=92360de2-bb90-4760-bec7-d9e8ef46b93f","ios":"levelo://app?vid=92360de2-bb90-4760-bec7-d9e8ef46b93f"},"vehicle_type_id":"4","last_reported":1717189659,"current_range_meters":3200,"station_id":"ce4bgrh2rcd13ifvqc8g","pricing_plan_id":"cebpf4jnsgd1na2vs0mg"},{"bike_id":"28f3a2f8-f820-4546-b740-e3c4faf4d74f","system_id":"levelo_inurba_marseille","lat":43.308012,"lon":5.381511,"is_reserved":false,"is_disabled":false,"rental_uris":{"android":"levelo://app?vid=28f3a2f8-f820-4546-b740-e3c4faf4d74f","ios":"levelo://app?vid=28f3a2f8-f820-4546-b740-e3c4faf4d74f"},"vehicle_type_id":"4","last_reported":1717189659,"current_range_meters":24400,"station_id":"ce4bgt12rcd13ifvqce0","pricing_plan_id":"cebpf4jnsgd1na2vs0mg"},{"bike_id":"7864c138-cf41-4e0d-85ae-79fc04620b06","system_id":"levelo_inurba_marseille","lat":43.308012,"lon":5.381511,"is_reserved":false,"is_disabled":false,"rental_uris":{"android":"levelo://app?vid=7864c138-cf41-4e0d-85ae-79fc04620b06","ios":"levelo://app?vid=7864c138-cf41-4e0d-85ae-79fc04620b06"},"vehicle_type_id":"4","last_reported":1717189659,"current_range_meters":24000,"station_id":"ce4bgt12rcd13ifvqce0","pricing_plan_id":"cebpf4jnsgd1na2vs0mg"},{"bike_id":"e5d45f90-6a98-4617-bb3c-3b570db88159","system_id":"levelo_inurba_marseille","lat":43.308012,"lon":5.381511,"is_reserved":false,"is_disabled":false,"rental_uris":{"android":"levelo://app?vid=e5d45f90-6a98-4617-bb3c-3b570db88159","ios":"levelo://app?vid=e5d45f90-6a98-4617-bb3c-3b570db88159"},"vehicle_type_id":"4","last_reported":1717189659,"current_range_meters":25200,"station_id":"ce4bgt12rcd13ifvqce0","pricing_plan_id":"cebpf4jnsgd1na2vs0mg"},{"bike_id":"6ab918d7-a06c-4086-b4c0-da8e5f348a2b","system_id":"levelo_inurba_marseille","lat":43.308012,"lon":5.381511,"is_reserved":false,"is_disabled":false,"rental_uris":{"android":"levelo://app?vid=6ab918d7-a06c-4086-b4c0-da8e5f348a2b","ios":"levelo://app?vid=6ab918d7-a06c-4086-b4c0-da8e5f348a2b"},"vehicle_type_id":"4","last_reported":1717189659,"current_range_meters":31600,"station_id":"ce4bgt12rcd13ifvqce0","pricing_plan_id":"cebpf4jnsgd1na2vs0mg"},{"bike_id":"977f37bf-5b0c-41c7-a531-c2f747be01e4","system_id":"levelo_inurba_marseille","lat":43.308012,"lon":5.381511,"is_reserved":false,"is_disabled":false,"rental_uris":{"android":"levelo://app?vid=977f37bf-5b0c-41c7-a531-c2f747be01e4","ios":"levelo://app?vid=977f37bf-5b0c-41c7-a531-c2f747be01e4"},"vehicle_type_id":"4","last_reported":1717189659,"current_range_meters":19200,"station_id":"ce4bgt12rcd13ifvqce0","pricing_plan_id":"cebpf4jnsgd1na2vs0mg"},{"bike_id":"09a23f3e-71cb-406c-a41d-682846d49308","system_id":"levelo_inurba_marseille","lat":43.324771,"lon":5.36557,"is_reserved":false,"is_disabled":false,"rental_uris":{"android":"levelo://app?vid=09a23f3e-71cb-406c-a41d-682846d49308","ios":"levelo://app?vid=09a23f3e-71cb-406c-a41d-682846d49308"},"vehicle_type_id":"4","last_reported":1717189659,"current_range_meters":22400,"station_id":"ce4bhs12rcd13ifvqhvg","pricing_plan_id":"cebpf4jnsgd1na2vs0mg"},{"bike_id":"0cce203b-70e1-4c12-bec8-e995b59c42de","system_id":"levelo_inurba_marseille","lat":43.324771,"lon":5.36557,"is_reserved":false,"is_disabled":false,"rental_uris":{"android":"levelo://app?vid=0cce203b-70e1-4c12-bec8-e995b59c42de","ios":"levelo://app?vid=0cce203b-70e1-4c12-bec8-e995b59c42de"},"vehicle_type_id":"4","last_reported":1717189659,"current_range_meters":17600,"station_id":"ce4bhs12rcd13ifvqhvg","pricing_plan_id":"cebpf4jnsgd1na2vs0mg"},{"bike_id":"43164aca-1fb2-448b-8cee-a63ae8cc3f73","system_id":"levelo_inurba_marseille","lat":43.324771,"lon":5.36557,"is_reserved":false,"is_disabled":false,"rental_uris":{"android":"levelo://app?vid=43164aca-1fb2-448b-8cee-a63ae8cc3f73","ios":"levelo://app?vid=43164aca-1fb2-448b-8cee-a63ae8cc3f73"},"vehicle_type_id":"4","last_reported":1717189659,"current_range_meters":3200,"station_id":"ce4bhs12rcd13ifvqhvg","pricing_plan_id":"cebpf4jnsgd1na2vs0mg"},{"bike_id":"e7b5d43e-79e3-471c-8dbb-1d88bd546cd5","system_id":"levelo_inurba_marseille","lat":43.324771,"lon":5.36557,"is_reserved":false,"is_disabled":false,"rental_uris":{"android":"levelo://app?vid=e7b5d43e-79e3-471c-8dbb-1d88bd546cd5","ios":"levelo://app?vid=e7b5d43e-79e3-471c-8dbb-1d88bd546cd5"},"vehicle_type_id":"4","last_reported":1717189659,"current_range_meters":19200,"station_id":"ce4bhs12rcd13ifvqhvg","pricing_plan_id":"cebpf4jnsgd1na2vs0mg"},{"bike_id":"bcbe4e8c-399a-4c3a-ad31-e31bd96e25bf","system_id":"levelo_inurba_marseille","lat":43.324771,"lon":5.36557,"is_reserved":false,"is_disabled":false,"rental_uris":{"android":"levelo://app?vid=bcbe4e8c-399a-4c3a-ad31-e31bd96e25bf","ios":"levelo://app?vid=bcbe4e8c-399a-4c3a-ad31-e31bd96e25bf"},"vehicle_type_id":"4","last_reported":1717189659,"current_range_meters":21600,"station_id":"ce4bhs12rcd13ifvqhvg","pricing_plan_id":"cebpf4jnsgd1na2vs0mg"},{"bike_id":"b3abe369-de9c-4992-ad31-8ddb8e01ed56","system_id":"levelo_inurba_marseille","lat":43.324771,"lon":5.36557,"is_reserved":false,"is_disabled":false,"rental_uris":{"android":"levelo://app?vid=b3abe369-de9c-4992-ad31-8ddb8e01ed56","ios":"levelo://app?vid=b3abe369-de9c-4992-ad31-8ddb8e01ed56"},"vehicle_type_id":"4","last_reported":1717189659,"current_range_meters":28400,"station_id":"ce4bhs12rcd13ifvqhvg","pricing_plan_id":"cebpf4jnsgd1na2vs0mg"},{"bike_id":"47159d9d-9df7-4f9f-96e9-c72a3253ace8","system_id":"levelo_inurba_marseille","lat":43.324771,"lon":5.36557,"is_reserved":false,"is_disabled":false,"rental_uris":{"android":"levelo://app?vid=47159d9d-9df7-4f9f-96e9-c72a3253ace8","ios":"levelo://app?vid=47159d9d-9df7-4f9f-96e9-c72a3253ace8"},"vehicle_type_id":"4","last_reported":1717189659,"current_range_meters":9200,"station_id":"ce4bhs12rcd13ifvqhvg","pricing_plan_id":"cebpf4jnsgd1na2vs0mg"},{"bike_id":"ec1da94d-4c0d-42b6-adb3-80671f5bce56","system_id":"levelo_inurba_marseille","lat":43.31078,"lon":5.38349,"is_reserved":false,"is_disabled":false,"rental_uris":{"android":"levelo://app?vid=ec1da94d-4c0d-42b6-adb3-80671f5bce56","ios":"levelo://app?vid=ec1da94d-4c0d-42b6-adb3-80671f5bce56"},"vehicle_type_id":"4","last_reported":1717189659,"current_range_meters":0,"station_id":"ce4bgv92rcd13ifvqcr0","pricing_plan_id":"cebpf4jnsgd1na2vs0mg"},{"bike_id":"81eeda70-bda3-400a-92c5-9cb7f9f1deb9","system_id":"levelo_inurba_marseille","lat":43.310804,"lon":5.38359,"is_reserved":false,"is_disabled":false,"rental_uris":{"android":"levelo://app?vid=81eeda70-bda3-400a-92c5-9cb7f9f1deb9","ios":"levelo://app?vid=81eeda70-bda3-400a-92c5-9cb7f9f1deb9"},"vehicle_type_id":"4","last_reported":1717189659,"current_range_meters":26400,"station_id":"ce4bgv92rcd13ifvqcr0","pricing_plan_id":"cebpf4jnsgd1na2vs0mg"},{"bike_id":"34d8f428-cabc-4432-8a92-9730c3b200ae","system_id":"levelo_inurba_marseille","lat":43.31072,"lon":5.3835,"is_reserved":false,"is_disabled":false,"rental_uris":{"android":"levelo://app?vid=34d8f428-cabc-4432-8a92-9730c3b200ae","ios":"levelo://app?vid=34d8f428-cabc-4432-8a92-9730c3b200ae"},"vehicle_type_id":"4","last_reported":1717189659,"current_range_meters":3200,"station_id":"ce4bgv92rcd13ifvqcr0","pricing_plan_id":"cebpf4jnsgd1na2vs0mg"},{"bike_id":"05fa4057-8900-4e05-9514-c7b11aef0499","system_id":"levelo_inurba_marseille","lat":43.310804,"lon":5.38359,"is_reserved":false,"is_disabled":false,"rental_uris":{"android":"levelo://app?vid=05fa4057-8900-4e05-9514-c7b11aef0499","ios":"levelo://app?vid=05fa4057-8900-4e05-9514-c7b11aef0499"},"vehicle_type_id":"4","last_reported":1717189659,"current_range_meters":18400,"station_id":"ce4bgv92rcd13ifvqcr0","pricing_plan_id":"cebpf4jnsgd1na2vs0mg"},{"bike_id":"0556dd0c-7420-41b9-ae9d-5f3734ee4afb","system_id":"levelo_inurba_marseille","lat":43.310804,"lon":5.38359,"is_reserved":false,"is_disabled":false,"rental_uris":{"android":"levelo://app?vid=0556dd0c-7420-41b9-ae9d-5f3734ee4afb","ios":"levelo://app?vid=0556dd0c-7420-41b9-ae9d-5f3734ee4afb"},"vehicle_type_id":"4","last_reported":1717189659,"current_range_meters":7600,"station_id":"ce4bgv92rcd13ifvqcr0","pricing_plan_id":"cebpf4jnsgd1na2vs0mg"},{"bike_id":"ef66b0cf-f1a2-4b74-8684-f5ed80685a0f","system_id":"levelo_inurba_marseille","lat":43.310804,"lon":5.38359,"is_reserved":false,"is_disabled":false,"rental_uris":{"android":"levelo://app?vid=ef66b0cf-f1a2-4b74-8684-f5ed80685a0f","ios":"levelo://app?vid=ef66b0cf-f1a2-4b74-8684-f5ed80685a0f"},"vehicle_type_id":"4","last_reported":1717189659,"current_range_meters":5200,"station_id":"ce4bgv92rcd13ifvqcr0","pricing_plan_id":"cebpf4jnsgd1na2vs0mg"},{"bike_id":"1c945eb0-c106-44c2-8a54-c06dba92a2e6","system_id":"levelo_inurba_marseille","lat":43.31062,"lon":5.383547,"is_reserved":false,"is_disabled":false,"rental_uris":{"android":"levelo://app?vid=1c945eb0-c106-44c2-8a54-c06dba92a2e6","ios":"levelo://app?vid=1c945eb0-c106-44c2-8a54-c06dba92a2e6"},"vehicle_type_id":"4","last_reported":1717189659,"current_range_meters":25200,"station_id":"ce4bgv92rcd13ifvqcr0","pricing_plan_id":"cebpf4jnsgd1na2vs0mg"},{"bike_id":"ede90fac-93b3-4e40-855d-4314bb4ac326","system_id":"levelo_inurba_marseille","lat":43.310804,"lon":5.38359,"is_reserved":false,"is_disabled":false,"rental_uris":{"android":"levelo://app?vid=ede90fac-93b3-4e40-855d-4314bb4ac326","ios":"levelo://app?vid=ede90fac-93b3-4e40-855d-4314bb4ac326"},"vehicle_type_id":"4","last_reported":1717189659,"current_range_meters":0,"station_id":"ce4bgv92rcd13ifvqcr0","pricing_plan_id":"cebpf4jnsgd1na2vs0mg"},{"bike_id":"b3045a12-ecdd-403e-a0e8-18b9fd1b3165","system_id":"levelo_inurba_marseille","lat":43.310804,"lon":5.38359,"is_reserved":false,"is_disabled":false,"rental_uris":{"android":"levelo://app?vid=b3045a12-ecdd-403e-a0e8-18b9fd1b3165","ios":"levelo://app?vid=b3045a12-ecdd-403e-a0e8-18b9fd1b3165"},"vehicle_type_id":"4","last_reported":1717189659,"current_range_meters":20800,"station_id":"ce4bgv92rcd13ifvqcr0","pricing_plan_id":"cebpf4jnsgd1na2vs0mg"},{"bike_id":"03c8799e-3b5f-44e8-b6a4-7fec779d2b20","system_id":"levelo_inurba_marseille","lat":43.310804,"lon":5.38359,"is_reserved":false,"is_disabled":false,"rental_uris":{"android":"levelo://app?vid=03c8799e-3b5f-44e8-b6a4-7fec779d2b20","ios":"levelo://app?vid=03c8799e-3b5f-44e8-b6a4-7fec779d2b20"},"vehicle_type_id":"4","last_reported":1717189659,"current_range_meters":29600,"station_id":"ce4bgv92rcd13ifvqcr0","pricing_plan_id":"cebpf4jnsgd1na2vs0mg"},{"bike_id":"6bb4f3df-b0f0-4b36-b2e1-ad67489e2c5b","system_id":"levelo_inurba_marseille","lat":43.30138,"lon":5.37426,"is_reserved":false,"is_disabled":false,"rental_uris":{"android":"levelo://app?vid=6bb4f3df-b0f0-4b36-b2e1-ad67489e2c5b","ios":"levelo://app?vid=6bb4f3df-b0f0-4b36-b2e1-ad67489e2c5b"},"vehicle_type_id":"4","last_reported":1717189659,"current_range_meters":2400,"station_id":"ce4bgs92rcd13ifvqcc0","pricing_plan_id":"cebpf4jnsgd1na2vs0mg"},{"bike_id":"ad242788-8c89-42bf-9f1e-e97d1e87ecb4","system_id":"levelo_inurba_marseille","lat":43.31997,"lon":5.38151,"is_reserved":false,"is_disabled":false,"rental_uris":{"android":"levelo://app?vid=ad242788-8c89-42bf-9f1e-e97d1e87ecb4","ios":"levelo://app?vid=ad242788-8c89-42bf-9f1e-e97d1e87ecb4"},"vehicle_type_id":"4","last_reported":1717189659,"current_range_meters":6400,"station_id":"ce4bhr12rcd13ifvqhpg","pricing_plan_id":"cebpf4jnsgd1na2vs0mg"},{"bike_id":"911d6343-6045-4d9b-adec-4a4553caa57c","system_id":"levelo_inurba_marseille","lat":43.32003,"lon":5.38146,"is_reserved":false,"is_disabled":false,"rental_uris":{"android":"levelo://app?vid=911d6343-6045-4d9b-adec-4a4553caa57c","ios":"levelo://app?vid=911d6343-6045-4d9b-adec-4a4553caa57c"},"vehicle_type_id":"4","last_reported":1717189659,"current_range_meters":31200,"station_id":"ce4bhr12rcd13ifvqhpg","pricing_plan_id":"cebpf4jnsgd1na2vs0mg"},{"bike_id":"3bba4408-ba64-40c9-b25d-fef51e266403","system_id":"levelo_inurba_marseille","lat":43.31997,"lon":5.38152,"is_reserved":false,"is_disabled":false,"rental_uris":{"android":"levelo://app?vid=3bba4408-ba64-40c9-b25d-fef51e266403","ios":"levelo://app?vid=3bba4408-ba64-40c9-b25d-fef51e266403"},"vehicle_type_id":"4","last_reported":1717189659,"current_range_meters":31200,"station_id":"ce4bhr12rcd13ifvqhpg","pricing_plan_id":"cebpf4jnsgd1na2vs0mg"},{"bike_id":"573b1bc5-fd22-4b6f-a1cf-c184004b3a92","system_id":"levelo_inurba_marseille","lat":43.31997,"lon":5.38154,"is_reserved":false,"is_disabled":false,"rental_uris":{"android":"levelo://app?vid=573b1bc5-fd22-4b6f-a1cf-c184004b3a92","ios":"levelo://app?vid=573b1bc5-fd22-4b6f-a1cf-c184004b3a92"},"vehicle_type_id":"4","last_reported":1717189659,"current_range_meters":16400,"station_id":"ce4bhr12rcd13ifvqhpg","pricing_plan_id":"cebpf4jnsgd1na2vs0mg"},{"bike_id":"7f583146-4757-4228-b3f5-11775036f66f","system_id":"levelo_inurba_marseille","lat":43.32006,"lon":5.38167,"is_reserved":false,"is_disabled":false,"rental_uris":{"android":"levelo://app?vid=7f583146-4757-4228-b3f5-11775036f66f","ios":"levelo://app?vid=7f583146-4757-4228-b3f5-11775036f66f"},"vehicle_type_id":"4","last_reported":1717189659,"current_range_meters":31200,"station_id":"ce4bhr12rcd13ifvqhpg","pricing_plan_id":"cebpf4jnsgd1na2vs0mg"},{"bike_id":"d749db96-d92b-46d0-aac6-72e1ce52dfd3","system_id":"levelo_inurba_marseille","lat":43.313571,"lon":5.384829,"is_reserved":false,"is_disabled":false,"rental_uris":{"android":"levelo://app?vid=d749db96-d92b-46d0-aac6-72e1ce52dfd3","ios":"levelo://app?vid=d749db96-d92b-46d0-aac6-72e1ce52dfd3"},"vehicle_type_id":"4","last_reported":1717189659,"current_range_meters":25600,"station_id":"ce4bgt92rcd13ifvqcf0","pricing_plan_id":"cebpf4jnsgd1na2vs0mg"},{"bike_id":"32a34a3b-b40e-471a-b8fa-4c98d8f5ba5b","system_id":"levelo_inurba_marseille","lat":43.313571,"lon":5.384829,"is_reserved":false,"is_disabled":false,"rental_uris":{"android":"levelo://app?vid=32a34a3b-b40e-471a-b8fa-4c98d8f5ba5b","ios":"levelo://app?vid=32a34a3b-b40e-471a-b8fa-4c98d8f5ba5b"},"vehicle_type_id":"4","last_reported":1717189659,"current_range_meters":30000,"station_id":"ce4bgt92rcd13ifvqcf0","pricing_plan_id":"cebpf4jnsgd1na2vs0mg"},{"bike_id":"a5d52519-472d-405b-b6f3-cef1573d9e3e","system_id":"levelo_inurba_marseille","lat":43.313571,"lon":5.384829,"is_reserved":false,"is_disabled":false,"rental_uris":{"android":"levelo://app?vid=a5d52519-472d-405b-b6f3-cef1573d9e3e","ios":"levelo://app?vid=a5d52519-472d-405b-b6f3-cef1573d9e3e"},"vehicle_type_id":"4","last_reported":1717189659,"current_range_meters":16000,"station_id":"ce4bgt92rcd13ifvqcf0","pricing_plan_id":"cebpf4jnsgd1na2vs0mg"},{"bike_id":"b47f1b4c-4805-45ba-a095-578bfdc54689","system_id":"levelo_inurba_marseille","lat":43.313571,"lon":5.384829,"is_reserved":false,"is_disabled":false,"rental_uris":{"android":"levelo://app?vid=b47f1b4c-4805-45ba-a095-578bfdc54689","ios":"levelo://app?vid=b47f1b4c-4805-45ba-a095-578bfdc54689"},"vehicle_type_id":"4","last_reported":1717189659,"current_range_meters":10000,"station_id":"ce4bgt92rcd13ifvqcf0","pricing_plan_id":"cebpf4jnsgd1na2vs0mg"},{"bike_id":"cf753348-a8f7-42f2-8dfd-804242c0559d","system_id":"levelo_inurba_marseille","lat":43.313571,"lon":5.384829,"is_reserved":false,"is_disabled":false,"rental_uris":{"android":"levelo://app?vid=cf753348-a8f7-42f2-8dfd-804242c0559d","ios":"levelo://app?vid=cf753348-a8f7-42f2-8dfd-804242c0559d"},"vehicle_type_id":"4","last_reported":1717189659,"current_range_meters":11200,"station_id":"ce4bgt92rcd13ifvqcf0","pricing_plan_id":"cebpf4jnsgd1na2vs0mg"},{"bike_id":"24ea4ed2-96bc-4e58-8c9a-0cf8772cdabb","system_id":"levelo_inurba_marseille","lat":43.313571,"lon":5.384829,"is_reserved":false,"is_disabled":false,"rental_uris":{"android":"levelo://app?vid=24ea4ed2-96bc-4e58-8c9a-0cf8772cdabb","ios":"levelo://app?vid=24ea4ed2-96bc-4e58-8c9a-0cf8772cdabb"},"vehicle_type_id":"4","last_reported":1717189659,"current_range_meters":0,"station_id":"ce4bgt92rcd13ifvqcf0","pricing_plan_id":"cebpf4jnsgd1na2vs0mg"},{"bike_id":"e09ff030-ce83-4666-9c59-409ce28214df","system_id":"levelo_inurba_marseille","lat":43.313571,"lon":5.384829,"is_reserved":false,"is_disabled":false,"rental_uris":{"android":"levelo://app?vid=e09ff030-ce83-4666-9c59-409ce28214df","ios":"levelo://app?vid=e09ff030-ce83-4666-9c59-409ce28214df"},"vehicle_type_id":"4","last_reported":1717189659,"current_range_meters":12800,"station_id":"ce4bgt92rcd13ifvqcf0","pricing_plan_id":"cebpf4jnsgd1na2vs0mg"},{"bike_id":"9993d5d8-18f0-4295-874a-955385af44e1","system_id":"levelo_inurba_marseille","lat":43.313571,"lon":5.384829,"is_reserved":false,"is_disabled":false,"rental_uris":{"android":"levelo://app?vid=9993d5d8-18f0-4295-874a-955385af44e1","ios":"levelo://app?vid=9993d5d8-18f0-4295-874a-955385af44e1"},"vehicle_type_id":"4","last_reported":1717189659,"current_range_meters":0,"station_id":"ce4bgt92rcd13ifvqcf0","pricing_plan_id":"cebpf4jnsgd1na2vs0mg"},{"bike_id":"2a1c39aa-4e8e-40c2-8d2e-a173cbc68c82","system_id":"levelo_inurba_marseille","lat":43.299724,"lon":5.371829,"is_reserved":false,"is_disabled":false,"rental_uris":{"android":"levelo://app?vid=2a1c39aa-4e8e-40c2-8d2e-a173cbc68c82","ios":"levelo://app?vid=2a1c39aa-4e8e-40c2-8d2e-a173cbc68c82"},"vehicle_type_id":"4","last_reported":1717189659,"current_range_meters":0,"station_id":"ce4bgr92rcd13ifvqc7g","pricing_plan_id":"cebpf4jnsgd1na2vs0mg"},{"bike_id":"cb8941ba-5e60-4ae7-b57d-dac31a2a6b8b","system_id":"levelo_inurba_marseille","lat":43.299724,"lon":5.371829,"is_reserved":false,"is_disabled":false,"rental_uris":{"android":"levelo://app?vid=cb8941ba-5e60-4ae7-b57d-dac31a2a6b8b","ios":"levelo://app?vid=cb8941ba-5e60-4ae7-b57d-dac31a2a6b8b"},"vehicle_type_id":"4","last_reported":1717189659,"current_range_meters":23600,"station_id":"ce4bgr92rcd13ifvqc7g","pricing_plan_id":"cebpf4jnsgd1na2vs0mg"},{"bike_id":"d31452ae-1721-461b-8adf-806fef77e867","system_id":"levelo_inurba_marseille","lat":43.299222,"lon":5.365554,"is_reserved":false,"is_disabled":false,"rental_uris":{"android":"levelo://app?vid=d31452ae-1721-461b-8adf-806fef77e867","ios":"levelo://app?vid=d31452ae-1721-461b-8adf-806fef77e867"},"vehicle_type_id":"4","last_reported":1717189659,"current_range_meters":0,"station_id":"ce4bgm92rcd13ifvqbr0","pricing_plan_id":"cebpf4jnsgd1na2vs0mg"},{"bike_id":"6ead4df0-27f2-4ac0-92d2-a67500355fcd","system_id":"levelo_inurba_marseille","lat":43.298433,"lon":5.362774,"is_reserved":false,"is_disabled":false,"rental_uris":{"android":"levelo://app?vid=6ead4df0-27f2-4ac0-92d2-a67500355fcd","ios":"levelo://app?vid=6ead4df0-27f2-4ac0-92d2-a67500355fcd"},"vehicle_type_id":"4","last_reported":1717189659,"current_range_meters":0,"station_id":"ce4bgpp2rcd13ifvqc3g","pricing_plan_id":"cebpf4jnsgd1na2vs0mg"},{"bike_id":"8d01e738-7ac3-4b1e-a116-495ee30e3dca","system_id":"levelo_inurba_marseille","lat":43.305364,"lon":5.384119,"is_reserved":false,"is_disabled":false,"rental_uris":{"android":"levelo://app?vid=8d01e738-7ac3-4b1e-a116-495ee30e3dca","ios":"levelo://app?vid=8d01e738-7ac3-4b1e-a116-495ee30e3dca"},"vehicle_type_id":"4","last_reported":1717189659,"current_range_meters":16400,"station_id":"ce4bgg92rcd13ifvqb30","pricing_plan_id":"cebpf4jnsgd1na2vs0mg"},{"bike_id":"3e5e2ca9-3e73-4e9b-9612-9b673c6943bd","system_id":"levelo_inurba_marseille","lat":43.305364,"lon":5.384119,"is_reserved":false,"is_disabled":false,"rental_uris":{"android":"levelo://app?vid=3e5e2ca9-3e73-4e9b-9612-9b673c6943bd","ios":"levelo://app?vid=3e5e2ca9-3e73-4e9b-9612-9b673c6943bd"},"vehicle_type_id":"4","last_reported":1717189659,"current_range_meters":22400,"station_id":"ce4bgg92rcd13ifvqb30","pricing_plan_id":"cebpf4jnsgd1na2vs0mg"},{"bike_id":"c62defcc-5a39-4cb3-9ef2-2f0456b6cce0","system_id":"levelo_inurba_marseille","lat":43.305364,"lon":5.384119,"is_reserved":false,"is_disabled":false,"rental_uris":{"android":"levelo://app?vid=c62defcc-5a39-4cb3-9ef2-2f0456b6cce0","ios":"levelo://app?vid=c62defcc-5a39-4cb3-9ef2-2f0456b6cce0"},"vehicle_type_id":"4","last_reported":1717189659,"current_range_meters":0,"station_id":"ce4bgg92rcd13ifvqb30","pricing_plan_id":"cebpf4jnsgd1na2vs0mg"},{"bike_id":"7c0279c4-785e-41cc-9875-11b1aa5697b0","system_id":"levelo_inurba_marseille","lat":43.298433,"lon":5.362774,"is_reserved":false,"is_disabled":false,"rental_uris":{"android":"levelo://app?vid=7c0279c4-785e-41cc-9875-11b1aa5697b0","ios":"levelo://app?vid=7c0279c4-785e-41cc-9875-11b1aa5697b0"},"vehicle_type_id":"4","last_reported":1717189659,"current_range_meters":30400,"station_id":"ce4bgpp2rcd13ifvqc3g","pricing_plan_id":"cebpf4jnsgd1na2vs0mg"},{"bike_id":"d70238b0-2955-49db-a0b6-c38ee9ec2145","system_id":"levelo_inurba_marseille","lat":43.305364,"lon":5.384119,"is_reserved":false,"is_disabled":false,"rental_uris":{"android":"levelo://app?vid=d70238b0-2955-49db-a0b6-c38ee9ec2145","ios":"levelo://app?vid=d70238b0-2955-49db-a0b6-c38ee9ec2145"},"vehicle_type_id":"4","last_reported":1717189659,"current_range_meters":17600,"station_id":"ce4bgg92rcd13ifvqb30","pricing_plan_id":"cebpf4jnsgd1na2vs0mg"},{"bike_id":"580b815a-a9d4-4b73-80b4-a40a447c7923","system_id":"levelo_inurba_marseille","lat":43.311722,"lon":5.387247,"is_reserved":false,"is_disabled":false,"rental_uris":{"android":"levelo://app?vid=580b815a-a9d4-4b73-80b4-a40a447c7923","ios":"levelo://app?vid=580b815a-a9d4-4b73-80b4-a40a447c7923"},"vehicle_type_id":"4","last_reported":1717189659,"current_range_meters":14800,"station_id":"ce4bgv12rcd13ifvqcp0","pricing_plan_id":"cebpf4jnsgd1na2vs0mg"},{"bike_id":"ca1dbcd6-1c2d-46f3-b3c6-f64815c30cf5","system_id":"levelo_inurba_marseille","lat":43.299243,"lon":5.37481,"is_reserved":false,"is_disabled":false,"rental_uris":{"android":"levelo://app?vid=ca1dbcd6-1c2d-46f3-b3c6-f64815c30cf5","ios":"levelo://app?vid=ca1dbcd6-1c2d-46f3-b3c6-f64815c30cf5"},"vehicle_type_id":"4","last_reported":1717189659,"current_range_meters":22800,"station_id":"ce4bgjh2rcd13ifvqbg0","pricing_plan_id":"cebpf4jnsgd1na2vs0mg"},{"bike_id":"ab20edd1-1d9d-446a-b7e7-e55f55792cbb","system_id":"levelo_inurba_marseille","lat":43.311722,"lon":5.387247,"is_reserved":false,"is_disabled":false,"rental_uris":{"android":"levelo://app?vid=ab20edd1-1d9d-446a-b7e7-e55f55792cbb","ios":"levelo://app?vid=ab20edd1-1d9d-446a-b7e7-e55f55792cbb"},"vehicle_type_id":"4","last_reported":1717189659,"current_range_meters":0,"station_id":"ce4bgv12rcd13ifvqcp0","pricing_plan_id":"cebpf4jnsgd1na2vs0mg"},{"bike_id":"08a4b112-3a14-4237-aca0-3dd8bd23900c","system_id":"levelo_inurba_marseille","lat":43.311722,"lon":5.387247,"is_reserved":false,"is_disabled":false,"rental_uris":{"android":"levelo://app?vid=08a4b112-3a14-4237-aca0-3dd8bd23900c","ios":"levelo://app?vid=08a4b112-3a14-4237-aca0-3dd8bd23900c"},"vehicle_type_id":"4","last_reported":1717189659,"current_range_meters":8800,"station_id":"ce4bgv12rcd13ifvqcp0","pricing_plan_id":"cebpf4jnsgd1na2vs0mg"},{"bike_id":"87ee929c-0180-4c05-8f2f-f26b64e4f48c","system_id":"levelo_inurba_marseille","lat":43.311722,"lon":5.387247,"is_reserved":false,"is_disabled":false,"rental_uris":{"android":"levelo://app?vid=87ee929c-0180-4c05-8f2f-f26b64e4f48c","ios":"levelo://app?vid=87ee929c-0180-4c05-8f2f-f26b64e4f48c"},"vehicle_type_id":"4","last_reported":1717189659,"current_range_meters":8400,"station_id":"ce4bgv12rcd13ifvqcp0","pricing_plan_id":"cebpf4jnsgd1na2vs0mg"},{"bike_id":"a305cda2-3572-470c-a58c-b08ff7458d6c","system_id":"levelo_inurba_marseille","lat":43.311722,"lon":5.387247,"is_reserved":false,"is_disabled":false,"rental_uris":{"android":"levelo://app?vid=a305cda2-3572-470c-a58c-b08ff7458d6c","ios":"levelo://app?vid=a305cda2-3572-470c-a58c-b08ff7458d6c"},"vehicle_type_id":"4","last_reported":1717189659,"current_range_meters":22000,"station_id":"ce4bgv12rcd13ifvqcp0","pricing_plan_id":"cebpf4jnsgd1na2vs0mg"},{"bike_id":"2d2da05d-09c0-4763-aab0-81cd62e3dbfc","system_id":"levelo_inurba_marseille","lat":43.311722,"lon":5.387247,"is_reserved":false,"is_disabled":false,"rental_uris":{"android":"levelo://app?vid=2d2da05d-09c0-4763-aab0-81cd62e3dbfc","ios":"levelo://app?vid=2d2da05d-09c0-4763-aab0-81cd62e3dbfc"},"vehicle_type_id":"4","last_reported":1717189659,"current_range_meters":6800,"station_id":"ce4bgv12rcd13ifvqcp0","pricing_plan_id":"cebpf4jnsgd1na2vs0mg"},{"bike_id":"787a8a9b-7dbf-4bfb-b39c-fdd7b038b073","system_id":"levelo_inurba_marseille","lat":43.300475,"lon":5.378395,"is_reserved":false,"is_disabled":false,"rental_uris":{"android":"levelo://app?vid=787a8a9b-7dbf-4bfb-b39c-fdd7b038b073","ios":"levelo://app?vid=787a8a9b-7dbf-4bfb-b39c-fdd7b038b073"},"vehicle_type_id":"4","last_reported":1717189659,"current_range_meters":24000,"station_id":"","pricing_plan_id":"cebpf4jnsgd1na2vs0mg"},{"bike_id":"bb3690e9-2a21-4884-898a-b3897dbed03f","system_id":"levelo_inurba_marseille","lat":43.311722,"lon":5.387247,"is_reserved":false,"is_disabled":false,"rental_uris":{"android":"levelo://app?vid=bb3690e9-2a21-4884-898a-b3897dbed03f","ios":"levelo://app?vid=bb3690e9-2a21-4884-898a-b3897dbed03f"},"vehicle_type_id":"4","last_reported":1717189659,"current_range_meters":10000,"station_id":"ce4bgv12rcd13ifvqcp0","pricing_plan_id":"cebpf4jnsgd1na2vs0mg"},{"bike_id":"2f60e66e-0c97-44a8-b12e-43a5986eeadf","system_id":"levelo_inurba_marseille","lat":43.297774,"lon":5.370875,"is_reserved":false,"is_disabled":false,"rental_uris":{"android":"levelo://app?vid=2f60e66e-0c97-44a8-b12e-43a5986eeadf","ios":"levelo://app?vid=2f60e66e-0c97-44a8-b12e-43a5986eeadf"},"vehicle_type_id":"4","last_reported":1717189659,"current_range_meters":4000,"station_id":"ce4bgop2rcd13ifvqc1g","pricing_plan_id":"cebpf4jnsgd1na2vs0mg"},{"bike_id":"10fb4334-c940-4455-979b-d3f1ca32e262","system_id":"levelo_inurba_marseille","lat":43.297794,"lon":5.370888,"is_reserved":false,"is_disabled":false,"rental_uris":{"android":"levelo://app?vid=10fb4334-c940-4455-979b-d3f1ca32e262","ios":"levelo://app?vid=10fb4334-c940-4455-979b-d3f1ca32e262"},"vehicle_type_id":"4","last_reported":1717189659,"current_range_meters":29200,"station_id":"ce4bgop2rcd13ifvqc1g","pricing_plan_id":"cebpf4jnsgd1na2vs0mg"},{"bike_id":"9898d07d-2b5f-4bfb-86cb-ad4aadba1d6a","system_id":"levelo_inurba_marseille","lat":43.297774,"lon":5.370875,"is_reserved":false,"is_disabled":false,"rental_uris":{"android":"levelo://app?vid=9898d07d-2b5f-4bfb-86cb-ad4aadba1d6a","ios":"levelo://app?vid=9898d07d-2b5f-4bfb-86cb-ad4aadba1d6a"},"vehicle_type_id":"4","last_reported":1717189659,"current_range_meters":24400,"station_id":"ce4bgop2rcd13ifvqc1g","pricing_plan_id":"cebpf4jnsgd1na2vs0mg"},{"bike_id":"27d59a54-fdac-422f-bce7-b4bc5a4b3c7f","system_id":"levelo_inurba_marseille","lat":43.3229,"lon":5.38256,"is_reserved":false,"is_disabled":false,"rental_uris":{"android":"levelo://app?vid=27d59a54-fdac-422f-bce7-b4bc5a4b3c7f","ios":"levelo://app?vid=27d59a54-fdac-422f-bce7-b4bc5a4b3c7f"},"vehicle_type_id":"4","last_reported":1717189659,"current_range_meters":28000,"station_id":"ce4bhr12rcd13ifvqhqg","pricing_plan_id":"cebpf4jnsgd1na2vs0mg"},{"bike_id":"2eb6e389-ac0c-428b-bb3e-a3bb93e162fc","system_id":"levelo_inurba_marseille","lat":43.29777,"lon":5.370991,"is_reserved":false,"is_disabled":false,"rental_uris":{"android":"levelo://app?vid=2eb6e389-ac0c-428b-bb3e-a3bb93e162fc","ios":"levelo://app?vid=2eb6e389-ac0c-428b-bb3e-a3bb93e162fc"},"vehicle_type_id":"4","last_reported":1717189659,"current_range_meters":0,"station_id":"ce4bgop2rcd13ifvqc1g","pricing_plan_id":"cebpf4jnsgd1na2vs0mg"},{"bike_id":"a957f1d3-073c-4b80-ad0c-c67398b30c5c","system_id":"levelo_inurba_marseille","lat":43.322902,"lon":5.382606,"is_reserved":false,"is_disabled":false,"rental_uris":{"android":"levelo://app?vid=a957f1d3-073c-4b80-ad0c-c67398b30c5c","ios":"levelo://app?vid=a957f1d3-073c-4b80-ad0c-c67398b30c5c"},"vehicle_type_id":"4","last_reported":1717189659,"current_range_meters":31200,"station_id":"ce4bhr12rcd13ifvqhqg","pricing_plan_id":"cebpf4jnsgd1na2vs0mg"},{"bike_id":"fb61b712-9731-47d5-b5e7-9904aa24e80f","system_id":"levelo_inurba_marseille","lat":43.322872,"lon":5.382756,"is_reserved":false,"is_disabled":false,"rental_uris":{"android":"levelo://app?vid=fb61b712-9731-47d5-b5e7-9904aa24e80f","ios":"levelo://app?vid=fb61b712-9731-47d5-b5e7-9904aa24e80f"},"vehicle_type_id":"4","last_reported":1717189659,"current_range_meters":31200,"station_id":"ce4bhr12rcd13ifvqhqg","pricing_plan_id":"cebpf4jnsgd1na2vs0mg"},{"bike_id":"8eb673f6-643f-4490-bd29-c9223166f8c5","system_id":"levelo_inurba_marseille","lat":43.32286,"lon":5.38271,"is_reserved":false,"is_disabled":false,"rental_uris":{"android":"levelo://app?vid=8eb673f6-643f-4490-bd29-c9223166f8c5","ios":"levelo://app?vid=8eb673f6-643f-4490-bd29-c9223166f8c5"},"vehicle_type_id":"4","last_reported":1717189659,"current_range_meters":24800,"station_id":"ce4bhr12rcd13ifvqhqg","pricing_plan_id":"cebpf4jnsgd1na2vs0mg"},{"bike_id":"53fa681e-0c29-4341-b759-f9f2ff09cbe0","system_id":"levelo_inurba_marseille","lat":43.3229,"lon":5.38268,"is_reserved":false,"is_disabled":false,"rental_uris":{"android":"levelo://app?vid=53fa681e-0c29-4341-b759-f9f2ff09cbe0","ios":"levelo://app?vid=53fa681e-0c29-4341-b759-f9f2ff09cbe0"},"vehicle_type_id":"4","last_reported":1717189659,"current_range_meters":31200,"station_id":"ce4bhr12rcd13ifvqhqg","pricing_plan_id":"cebpf4jnsgd1na2vs0mg"},{"bike_id":"5e16f1b5-120a-47f2-898f-8e907051683e","system_id":"levelo_inurba_marseille","lat":43.322856,"lon":5.382759,"is_reserved":false,"is_disabled":false,"rental_uris":{"android":"levelo://app?vid=5e16f1b5-120a-47f2-898f-8e907051683e","ios":"levelo://app?vid=5e16f1b5-120a-47f2-898f-8e907051683e"},"vehicle_type_id":"4","last_reported":1717189659,"current_range_meters":31200,"station_id":"ce4bhr12rcd13ifvqhqg","pricing_plan_id":"cebpf4jnsgd1na2vs0mg"},{"bike_id":"50a1b3e2-f888-460d-aae9-6981e5b3fc52","system_id":"levelo_inurba_marseille","lat":43.322907,"lon":5.382727,"is_reserved":false,"is_disabled":false,"rental_uris":{"android":"levelo://app?vid=50a1b3e2-f888-460d-aae9-6981e5b3fc52","ios":"levelo://app?vid=50a1b3e2-f888-460d-aae9-6981e5b3fc52"},"vehicle_type_id":"4","last_reported":1717189659,"current_range_meters":31200,"station_id":"ce4bhr12rcd13ifvqhqg","pricing_plan_id":"cebpf4jnsgd1na2vs0mg"},{"bike_id":"7401ca54-df27-448c-8505-0660b3b1486f","system_id":"levelo_inurba_marseille","lat":43.297163,"lon":5.365866,"is_reserved":false,"is_disabled":false,"rental_uris":{"android":"levelo://app?vid=7401ca54-df27-448c-8505-0660b3b1486f","ios":"levelo://app?vid=7401ca54-df27-448c-8505-0660b3b1486f"},"vehicle_type_id":"4","last_reported":1717189659,"current_range_meters":21200,"station_id":"ce4bgn12rcd13ifvqbt0","pricing_plan_id":"cebpf4jnsgd1na2vs0mg"},{"bike_id":"b75ad580-c894-47a4-9731-6ed1d26fe2f1","system_id":"levelo_inurba_marseille","lat":43.29618,"lon":5.363864,"is_reserved":false,"is_disabled":false,"rental_uris":{"android":"levelo://app?vid=b75ad580-c894-47a4-9731-6ed1d26fe2f1","ios":"levelo://app?vid=b75ad580-c894-47a4-9731-6ed1d26fe2f1"},"vehicle_type_id":"4","last_reported":1717189659,"current_range_meters":0,"station_id":"","pricing_plan_id":"cebpf4jnsgd1na2vs0mg"},{"bike_id":"4e3f9bc7-82c7-4b44-afc6-0f258539494a","system_id":"levelo_inurba_marseille","lat":43.29586,"lon":5.36735,"is_reserved":false,"is_disabled":false,"rental_uris":{"android":"levelo://app?vid=4e3f9bc7-82c7-4b44-afc6-0f258539494a","ios":"levelo://app?vid=4e3f9bc7-82c7-4b44-afc6-0f258539494a"},"vehicle_type_id":"4","last_reported":1717189659,"current_range_meters":23200,"station_id":"ce4bgph2rcd13ifvqc2g","pricing_plan_id":"cebpf4jnsgd1na2vs0mg"},{"bike_id":"df8f9c8d-9c3a-4ec9-b0cc-e9cb89333bed","system_id":"levelo_inurba_marseille","lat":43.296935,"lon":5.376544,"is_reserved":false,"is_disabled":false,"rental_uris":{"android":"levelo://app?vid=df8f9c8d-9c3a-4ec9-b0cc-e9cb89333bed","ios":"levelo://app?vid=df8f9c8d-9c3a-4ec9-b0cc-e9cb89333bed"},"vehicle_type_id":"4","last_reported":1717189659,"current_range_meters":20400,"station_id":"ce4bgkh2rcd13ifvqbl0","pricing_plan_id":"cebpf4jnsgd1na2vs0mg"},{"bike_id":"5ba4d75a-538b-421a-8b4c-dada444868e0","system_id":"levelo_inurba_marseille","lat":43.299028,"lon":5.381509,"is_reserved":false,"is_disabled":false,"rental_uris":{"android":"levelo://app?vid=5ba4d75a-538b-421a-8b4c-dada444868e0","ios":"levelo://app?vid=5ba4d75a-538b-421a-8b4c-dada444868e0"},"vehicle_type_id":"4","last_reported":1717189659,"current_range_meters":24800,"station_id":"ce4bgj12rcd13ifvqbc0","pricing_plan_id":"cebpf4jnsgd1na2vs0mg"},{"bike_id":"6c3b26be-7760-4b47-b5e4-e0fb00975a42","system_id":"levelo_inurba_marseille","lat":43.299028,"lon":5.381509,"is_reserved":false,"is_disabled":false,"rental_uris":{"android":"levelo://app?vid=6c3b26be-7760-4b47-b5e4-e0fb00975a42","ios":"levelo://app?vid=6c3b26be-7760-4b47-b5e4-e0fb00975a42"},"vehicle_type_id":"4","last_reported":1717189659,"current_range_meters":9600,"station_id":"ce4bgj12rcd13ifvqbc0","pricing_plan_id":"cebpf4jnsgd1na2vs0mg"},{"bike_id":"533f021e-c722-42b3-a1d7-d0a8d77e61f7","system_id":"levelo_inurba_marseille","lat":43.309589,"lon":5.390258,"is_reserved":false,"is_disabled":false,"rental_uris":{"android":"levelo://app?vid=533f021e-c722-42b3-a1d7-d0a8d77e61f7","ios":"levelo://app?vid=533f021e-c722-42b3-a1d7-d0a8d77e61f7"},"vehicle_type_id":"4","last_reported":1717189659,"current_range_meters":26400,"station_id":"ce4bgup2rcd13ifvqco0","pricing_plan_id":"cebpf4jnsgd1na2vs0mg"},{"bike_id":"1a48f5c1-179c-45e4-9003-8288373afa67","system_id":"levelo_inurba_marseille","lat":43.309589,"lon":5.390258,"is_reserved":false,"is_disabled":false,"rental_uris":{"android":"levelo://app?vid=1a48f5c1-179c-45e4-9003-8288373afa67","ios":"levelo://app?vid=1a48f5c1-179c-45e4-9003-8288373afa67"},"vehicle_type_id":"4","last_reported":1717189659,"current_range_meters":21200,"station_id":"ce4bgup2rcd13ifvqco0","pricing_plan_id":"cebpf4jnsgd1na2vs0mg"},{"bike_id":"6d89ce7e-cb8c-4228-a0cf-44dba8eb1616","system_id":"levelo_inurba_marseille","lat":43.309589,"lon":5.390258,"is_reserved":false,"is_disabled":false,"rental_uris":{"android":"levelo://app?vid=6d89ce7e-cb8c-4228-a0cf-44dba8eb1616","ios":"levelo://app?vid=6d89ce7e-cb8c-4228-a0cf-44dba8eb1616"},"vehicle_type_id":"4","last_reported":1717189659,"current_range_meters":4400,"station_id":"ce4bgup2rcd13ifvqco0","pricing_plan_id":"cebpf4jnsgd1na2vs0mg"},{"bike_id":"d842f2cc-0de2-46e6-8ba5-22c2faa2a625","system_id":"levelo_inurba_marseille","lat":43.309627,"lon":5.390423,"is_reserved":false,"is_disabled":false,"rental_uris":{"android":"levelo://app?vid=d842f2cc-0de2-46e6-8ba5-22c2faa2a625","ios":"levelo://app?vid=d842f2cc-0de2-46e6-8ba5-22c2faa2a625"},"vehicle_type_id":"4","last_reported":1717189659,"current_range_meters":0,"station_id":"ce4bgup2rcd13ifvqco0","pricing_plan_id":"cebpf4jnsgd1na2vs0mg"},{"bike_id":"fb0212c6-b03e-459d-9731-a426596c7462","system_id":"levelo_inurba_marseille","lat":43.30957,"lon":5.39043,"is_reserved":false,"is_disabled":false,"rental_uris":{"android":"levelo://app?vid=fb0212c6-b03e-459d-9731-a426596c7462","ios":"levelo://app?vid=fb0212c6-b03e-459d-9731-a426596c7462"},"vehicle_type_id":"4","last_reported":1717189659,"current_range_meters":0,"station_id":"ce4bgup2rcd13ifvqco0","pricing_plan_id":"cebpf4jnsgd1na2vs0mg"},{"bike_id":"678a4c0f-52f9-44db-aedc-f55258022622","system_id":"levelo_inurba_marseille","lat":43.296568,"lon":5.37577,"is_reserved":false,"is_disabled":false,"rental_uris":{"android":"levelo://app?vid=678a4c0f-52f9-44db-aedc-f55258022622","ios":"levelo://app?vid=678a4c0f-52f9-44db-aedc-f55258022622"},"vehicle_type_id":"4","last_reported":1717189659,"current_range_meters":13600,"station_id":"","pricing_plan_id":"cebpf4jnsgd1na2vs0mg"},{"bike_id":"3b708ee4-ec09-430f-bf50-787cb7aa202b","system_id":"levelo_inurba_marseille","lat":43.31755,"lon":5.39008,"is_reserved":false,"is_disabled":false,"rental_uris":{"android":"levelo://app?vid=3b708ee4-ec09-430f-bf50-787cb7aa202b","ios":"levelo://app?vid=3b708ee4-ec09-430f-bf50-787cb7aa202b"},"vehicle_type_id":"4","last_reported":1717189659,"current_range_meters":7200,"station_id":"ce4bhqp2rcd13ifvqhng","pricing_plan_id":"cebpf4jnsgd1na2vs0mg"},{"bike_id":"5e2fdc6b-276a-457c-92c4-dcdf1f81868f","system_id":"levelo_inurba_marseille","lat":43.31759,"lon":5.39013,"is_reserved":false,"is_disabled":false,"rental_uris":{"android":"levelo://app?vid=5e2fdc6b-276a-457c-92c4-dcdf1f81868f","ios":"levelo://app?vid=5e2fdc6b-276a-457c-92c4-dcdf1f81868f"},"vehicle_type_id":"4","last_reported":1717189659,"current_range_meters":0,"station_id":"ce4bhqp2rcd13ifvqhng","pricing_plan_id":"cebpf4jnsgd1na2vs0mg"},{"bike_id":"7abfe036-770b-4ae6-a345-13cc1316a1f4","system_id":"levelo_inurba_marseille","lat":43.317557,"lon":5.390173,"is_reserved":false,"is_disabled":false,"rental_uris":{"android":"levelo://app?vid=7abfe036-770b-4ae6-a345-13cc1316a1f4","ios":"levelo://app?vid=7abfe036-770b-4ae6-a345-13cc1316a1f4"},"vehicle_type_id":"4","last_reported":1717189659,"current_range_meters":16000,"station_id":"ce4bhqp2rcd13ifvqhng","pricing_plan_id":"cebpf4jnsgd1na2vs0mg"},{"bike_id":"5f04cb3b-9582-4dc6-9ab6-f2a1b8efe10b","system_id":"levelo_inurba_marseille","lat":43.317557,"lon":5.390173,"is_reserved":false,"is_disabled":false,"rental_uris":{"android":"levelo://app?vid=5f04cb3b-9582-4dc6-9ab6-f2a1b8efe10b","ios":"levelo://app?vid=5f04cb3b-9582-4dc6-9ab6-f2a1b8efe10b"},"vehicle_type_id":"4","last_reported":1717189659,"current_range_meters":0,"station_id":"ce4bhqp2rcd13ifvqhng","pricing_plan_id":"cebpf4jnsgd1na2vs0mg"},{"bike_id":"d9cec343-aa07-4728-939e-49526e956a7e","system_id":"levelo_inurba_marseille","lat":43.29725,"lon":5.37879,"is_reserved":false,"is_disabled":false,"rental_uris":{"android":"levelo://app?vid=d9cec343-aa07-4728-939e-49526e956a7e","ios":"levelo://app?vid=d9cec343-aa07-4728-939e-49526e956a7e"},"vehicle_type_id":"4","last_reported":1717189659,"current_range_meters":15600,"station_id":"","pricing_plan_id":"cebpf4jnsgd1na2vs0mg"},{"bike_id":"b936327f-d154-4186-9bd5-6e360323bbd3","system_id":"levelo_inurba_marseille","lat":43.298037,"lon":5.381066,"is_reserved":false,"is_disabled":false,"rental_uris":{"android":"levelo://app?vid=b936327f-d154-4186-9bd5-6e360323bbd3","ios":"levelo://app?vid=b936327f-d154-4186-9bd5-6e360323bbd3"},"vehicle_type_id":"4","last_reported":1717189659,"current_range_meters":24400,"station_id":"ce4bgip2rcd13ifvqbb0","pricing_plan_id":"cebpf4jnsgd1na2vs0mg"},{"bike_id":"fd6ea28e-90fa-4afb-81c2-0cb1cba65e28","system_id":"levelo_inurba_marseille","lat":43.29586,"lon":5.37511,"is_reserved":false,"is_disabled":false,"rental_uris":{"android":"levelo://app?vid=fd6ea28e-90fa-4afb-81c2-0cb1cba65e28","ios":"levelo://app?vid=fd6ea28e-90fa-4afb-81c2-0cb1cba65e28"},"vehicle_type_id":"4","last_reported":1717189659,"current_range_meters":10000,"station_id":"ce4bgh92rcd13ifvqb50","pricing_plan_id":"cebpf4jnsgd1na2vs0mg"},{"bike_id":"64a09ecd-101a-4020-9136-37314532e69f","system_id":"levelo_inurba_marseille","lat":43.298037,"lon":5.381066,"is_reserved":false,"is_disabled":false,"rental_uris":{"android":"levelo://app?vid=64a09ecd-101a-4020-9136-37314532e69f","ios":"levelo://app?vid=64a09ecd-101a-4020-9136-37314532e69f"},"vehicle_type_id":"4","last_reported":1717189659,"current_range_meters":0,"station_id":"ce4bgip2rcd13ifvqbb0","pricing_plan_id":"cebpf4jnsgd1na2vs0mg"},{"bike_id":"bac1bb8f-5918-4dbd-87bf-3292db977f64","system_id":"levelo_inurba_marseille","lat":43.295748,"lon":5.37522,"is_reserved":false,"is_disabled":false,"rental_uris":{"android":"levelo://app?vid=bac1bb8f-5918-4dbd-87bf-3292db977f64","ios":"levelo://app?vid=bac1bb8f-5918-4dbd-87bf-3292db977f64"},"vehicle_type_id":"4","last_reported":1717189659,"current_range_meters":18400,"station_id":"ce4bgh92rcd13ifvqb50","pricing_plan_id":"cebpf4jnsgd1na2vs0mg"},{"bike_id":"9926fe3c-160c-4b3b-a921-e2d6c4bfef14","system_id":"levelo_inurba_marseille","lat":43.298037,"lon":5.381066,"is_reserved":false,"is_disabled":false,"rental_uris":{"android":"levelo://app?vid=9926fe3c-160c-4b3b-a921-e2d6c4bfef14","ios":"levelo://app?vid=9926fe3c-160c-4b3b-a921-e2d6c4bfef14"},"vehicle_type_id":"4","last_reported":1717189659,"current_range_meters":0,"station_id":"ce4bgip2rcd13ifvqbb0","pricing_plan_id":"cebpf4jnsgd1na2vs0mg"},{"bike_id":"71d7a267-2fa7-45e7-83b2-e28d8d641290","system_id":"levelo_inurba_marseille","lat":43.29624,"lon":5.37719,"is_reserved":false,"is_disabled":false,"rental_uris":{"android":"levelo://app?vid=71d7a267-2fa7-45e7-83b2-e28d8d641290","ios":"levelo://app?vid=71d7a267-2fa7-45e7-83b2-e28d8d641290"},"vehicle_type_id":"4","last_reported":1717189659,"current_range_meters":0,"station_id":"ce4bgi92rcd13ifvqb90","pricing_plan_id":"cebpf4jnsgd1na2vs0mg"},{"bike_id":"29a15b60-0494-4b53-b989-6bf5fedef6a8","system_id":"levelo_inurba_marseille","lat":43.29606,"lon":5.37723,"is_reserved":false,"is_disabled":false,"rental_uris":{"android":"levelo://app?vid=29a15b60-0494-4b53-b989-6bf5fedef6a8","ios":"levelo://app?vid=29a15b60-0494-4b53-b989-6bf5fedef6a8"},"vehicle_type_id":"4","last_reported":1717189659,"current_range_meters":26400,"station_id":"ce4bgi92rcd13ifvqb90","pricing_plan_id":"cebpf4jnsgd1na2vs0mg"},{"bike_id":"ca9497ba-f76a-4eab-8c21-2be147aa0141","system_id":"levelo_inurba_marseille","lat":43.29545,"lon":5.37514,"is_reserved":false,"is_disabled":false,"rental_uris":{"android":"levelo://app?vid=ca9497ba-f76a-4eab-8c21-2be147aa0141","ios":"levelo://app?vid=ca9497ba-f76a-4eab-8c21-2be147aa0141"},"vehicle_type_id":"4","last_reported":1717189659,"current_range_meters":6800,"station_id":"ce4bgkp2rcd13ifvqbmg","pricing_plan_id":"cebpf4jnsgd1na2vs0mg"},{"bike_id":"0e037a09-b3c5-470d-82f2-9d47be63732c","system_id":"levelo_inurba_marseille","lat":43.29983,"lon":5.38478,"is_reserved":false,"is_disabled":false,"rental_uris":{"android":"levelo://app?vid=0e037a09-b3c5-470d-82f2-9d47be63732c","ios":"levelo://app?vid=0e037a09-b3c5-470d-82f2-9d47be63732c"},"vehicle_type_id":"4","last_reported":1717189659,"current_range_meters":0,"station_id":"ce4bgj92rcd13ifvqbd0","pricing_plan_id":"cebpf4jnsgd1na2vs0mg"},{"bike_id":"f3576374-24ac-440e-abd4-1df53fbcf242","system_id":"levelo_inurba_marseille","lat":43.295279,"lon":5.375048,"is_reserved":false,"is_disabled":false,"rental_uris":{"android":"levelo://app?vid=f3576374-24ac-440e-abd4-1df53fbcf242","ios":"levelo://app?vid=f3576374-24ac-440e-abd4-1df53fbcf242"},"vehicle_type_id":"4","last_reported":1717189659,"current_range_meters":19600,"station_id":"ce4bgkp2rcd13ifvqbmg","pricing_plan_id":"cebpf4jnsgd1na2vs0mg"},{"bike_id":"e9666732-b97c-446a-a03c-95a91bdd4b46","system_id":"levelo_inurba_marseille","lat":43.29597,"lon":5.37725,"is_reserved":false,"is_disabled":false,"rental_uris":{"android":"levelo://app?vid=e9666732-b97c-446a-a03c-95a91bdd4b46","ios":"levelo://app?vid=e9666732-b97c-446a-a03c-95a91bdd4b46"},"vehicle_type_id":"4","last_reported":1717189659,"current_range_meters":10800,"station_id":"ce4bgi92rcd13ifvqb90","pricing_plan_id":"cebpf4jnsgd1na2vs0mg"},{"bike_id":"256d656d-c086-4943-9c1f-5456fe0b222f","system_id":"levelo_inurba_marseille","lat":43.295279,"lon":5.375048,"is_reserved":false,"is_disabled":false,"rental_uris":{"android":"levelo://app?vid=256d656d-c086-4943-9c1f-5456fe0b222f","ios":"levelo://app?vid=256d656d-c086-4943-9c1f-5456fe0b222f"},"vehicle_type_id":"4","last_reported":1717189659,"current_range_meters":6800,"station_id":"ce4bgkp2rcd13ifvqbmg","pricing_plan_id":"cebpf4jnsgd1na2vs0mg"},{"bike_id":"7cef7e1f-a8ca-4ee4-8462-21fc9af1a65e","system_id":"levelo_inurba_marseille","lat":43.296263,"lon":5.377094,"is_reserved":false,"is_disabled":false,"rental_uris":{"android":"levelo://app?vid=7cef7e1f-a8ca-4ee4-8462-21fc9af1a65e","ios":"levelo://app?vid=7cef7e1f-a8ca-4ee4-8462-21fc9af1a65e"},"vehicle_type_id":"4","last_reported":1717189659,"current_range_meters":22000,"station_id":"ce4bgi92rcd13ifvqb90","pricing_plan_id":"cebpf4jnsgd1na2vs0mg"},{"bike_id":"2d2633b3-3921-490e-a590-ae8227ec374a","system_id":"levelo_inurba_marseille","lat":43.295279,"lon":5.375048,"is_reserved":false,"is_disabled":false,"rental_uris":{"android":"levelo://app?vid=2d2633b3-3921-490e-a590-ae8227ec374a","ios":"levelo://app?vid=2d2633b3-3921-490e-a590-ae8227ec374a"},"vehicle_type_id":"4","last_reported":1717189659,"current_range_meters":12400,"station_id":"ce4bgkp2rcd13ifvqbmg","pricing_plan_id":"cebpf4jnsgd1na2vs0mg"},{"bike_id":"db343371-ebfe-4ab4-9fcd-ff85e0627ac1","system_id":"levelo_inurba_marseille","lat":43.299707,"lon":5.384859,"is_reserved":false,"is_disabled":false,"rental_uris":{"android":"levelo://app?vid=db343371-ebfe-4ab4-9fcd-ff85e0627ac1","ios":"levelo://app?vid=db343371-ebfe-4ab4-9fcd-ff85e0627ac1"},"vehicle_type_id":"4","last_reported":1717189659,"current_range_meters":7600,"station_id":"ce4bgj92rcd13ifvqbd0","pricing_plan_id":"cebpf4jnsgd1na2vs0mg"},{"bike_id":"4e49ad72-5490-4384-b7a1-b3b1ac99799b","system_id":"levelo_inurba_marseille","lat":43.295279,"lon":5.375048,"is_reserved":false,"is_disabled":false,"rental_uris":{"android":"levelo://app?vid=4e49ad72-5490-4384-b7a1-b3b1ac99799b","ios":"levelo://app?vid=4e49ad72-5490-4384-b7a1-b3b1ac99799b"},"vehicle_type_id":"4","last_reported":1717189659,"current_range_meters":26400,"station_id":"ce4bgkp2rcd13ifvqbmg","pricing_plan_id":"cebpf4jnsgd1na2vs0mg"},{"bike_id":"cbf61130-c1d2-4d25-bebf-7d2cb8c503db","system_id":"levelo_inurba_marseille","lat":43.295223,"lon":5.375017,"is_reserved":false,"is_disabled":false,"rental_uris":{"android":"levelo://app?vid=cbf61130-c1d2-4d25-bebf-7d2cb8c503db","ios":"levelo://app?vid=cbf61130-c1d2-4d25-bebf-7d2cb8c503db"},"vehicle_type_id":"4","last_reported":1717189659,"current_range_meters":0,"station_id":"ce4bgkp2rcd13ifvqbmg","pricing_plan_id":"cebpf4jnsgd1na2vs0mg"},{"bike_id":"6f223417-644e-4800-94c5-d9651835934b","system_id":"levelo_inurba_marseille","lat":43.299717,"lon":5.384845,"is_reserved":false,"is_disabled":false,"rental_uris":{"android":"levelo://app?vid=6f223417-644e-4800-94c5-d9651835934b","ios":"levelo://app?vid=6f223417-644e-4800-94c5-d9651835934b"},"vehicle_type_id":"4","last_reported":1717189659,"current_range_meters":21200,"station_id":"ce4bgj92rcd13ifvqbd0","pricing_plan_id":"cebpf4jnsgd1na2vs0mg"},{"bike_id":"7a4f21c4-dcc7-4dc6-afa3-6a4d7ac7a098","system_id":"levelo_inurba_marseille","lat":43.295202,"lon":5.375106,"is_reserved":false,"is_disabled":false,"rental_uris":{"android":"levelo://app?vid=7a4f21c4-dcc7-4dc6-afa3-6a4d7ac7a098","ios":"levelo://app?vid=7a4f21c4-dcc7-4dc6-afa3-6a4d7ac7a098"},"vehicle_type_id":"4","last_reported":1717189659,"current_range_meters":0,"station_id":"ce4bgkp2rcd13ifvqbmg","pricing_plan_id":"cebpf4jnsgd1na2vs0mg"},{"bike_id":"0fea81f8-cdfe-4e0a-bce0-cccdff328a83","system_id":"levelo_inurba_marseille","lat":43.299707,"lon":5.384859,"is_reserved":false,"is_disabled":false,"rental_uris":{"android":"levelo://app?vid=0fea81f8-cdfe-4e0a-bce0-cccdff328a83","ios":"levelo://app?vid=0fea81f8-cdfe-4e0a-bce0-cccdff328a83"},"vehicle_type_id":"4","last_reported":1717189659,"current_range_meters":24000,"station_id":"ce4bgj92rcd13ifvqbd0","pricing_plan_id":"cebpf4jnsgd1na2vs0mg"},{"bike_id":"e8852747-549b-411b-bd7e-9ecf55adc82c","system_id":"levelo_inurba_marseille","lat":43.30114,"lon":5.38789,"is_reserved":false,"is_disabled":false,"rental_uris":{"android":"levelo://app?vid=e8852747-549b-411b-bd7e-9ecf55adc82c","ios":"levelo://app?vid=e8852747-549b-411b-bd7e-9ecf55adc82c"},"vehicle_type_id":"4","last_reported":1717189659,"current_range_meters":0,"station_id":"","pricing_plan_id":"cebpf4jnsgd1na2vs0mg"},{"bike_id":"7ead773a-95be-4531-81b8-834d1203a7dc","system_id":"levelo_inurba_marseille","lat":43.32367,"lon":5.388836,"is_reserved":false,"is_disabled":false,"rental_uris":{"android":"levelo://app?vid=7ead773a-95be-4531-81b8-834d1203a7dc","ios":"levelo://app?vid=7ead773a-95be-4531-81b8-834d1203a7dc"},"vehicle_type_id":"4","last_reported":1717189659,"current_range_meters":1600,"station_id":"ce4bhqp2rcd13ifvqhog","pricing_plan_id":"cebpf4jnsgd1na2vs0mg"},{"bike_id":"eefdd17b-b8c8-4c4d-9838-098cad96718f","system_id":"levelo_inurba_marseille","lat":43.323725,"lon":5.388965,"is_reserved":false,"is_disabled":false,"rental_uris":{"android":"levelo://app?vid=eefdd17b-b8c8-4c4d-9838-098cad96718f","ios":"levelo://app?vid=eefdd17b-b8c8-4c4d-9838-098cad96718f"},"vehicle_type_id":"4","last_reported":1717189659,"current_range_meters":0,"station_id":"ce4bhqp2rcd13ifvqhog","pricing_plan_id":"cebpf4jnsgd1na2vs0mg"},{"bike_id":"c13c3f3a-f456-4e71-a014-cb0debe99efc","system_id":"levelo_inurba_marseille","lat":43.29601,"lon":5.381084,"is_reserved":false,"is_disabled":false,"rental_uris":{"android":"levelo://app?vid=c13c3f3a-f456-4e71-a014-cb0debe99efc","ios":"levelo://app?vid=c13c3f3a-f456-4e71-a014-cb0debe99efc"},"vehicle_type_id":"4","last_reported":1717189659,"current_range_meters":15600,"station_id":"ce4bgl12rcd13ifvqbo0","pricing_plan_id":"cebpf4jnsgd1na2vs0mg"},{"bike_id":"f4b9b61a-318d-4d34-a68f-150ccd2cea72","system_id":"levelo_inurba_marseille","lat":43.304296,"lon":5.397513,"is_reserved":false,"is_disabled":false,"rental_uris":{"android":"levelo://app?vid=f4b9b61a-318d-4d34-a68f-150ccd2cea72","ios":"levelo://app?vid=f4b9b61a-318d-4d34-a68f-150ccd2cea72"},"vehicle_type_id":"4","last_reported":1717189659,"current_range_meters":14800,"station_id":"ce4bh092rcd13ifvqd20","pricing_plan_id":"cebpf4jnsgd1na2vs0mg"},{"bike_id":"82766695-2d02-4d11-9646-b9a9de9dd45e","system_id":"levelo_inurba_marseille","lat":43.293259,"lon":5.371586,"is_reserved":false,"is_disabled":false,"rental_uris":{"android":"levelo://app?vid=82766695-2d02-4d11-9646-b9a9de9dd45e","ios":"levelo://app?vid=82766695-2d02-4d11-9646-b9a9de9dd45e"},"vehicle_type_id":"4","last_reported":1717189659,"current_range_meters":8800,"station_id":"ce4bgh92rcd13ifvqb40","pricing_plan_id":"cebpf4jnsgd1na2vs0mg"},{"bike_id":"e616aa2a-f76a-457e-86ff-5f6efc824d98","system_id":"levelo_inurba_marseille","lat":43.292749,"lon":5.368402,"is_reserved":false,"is_disabled":false,"rental_uris":{"android":"levelo://app?vid=e616aa2a-f76a-457e-86ff-5f6efc824d98","ios":"levelo://app?vid=e616aa2a-f76a-457e-86ff-5f6efc824d98"},"vehicle_type_id":"4","last_reported":1717189659,"current_range_meters":30400,"station_id":"ce4bhbp2rcd13ifvqesg","pricing_plan_id":"cebpf4jnsgd1na2vs0mg"},{"bike_id":"dc67dae2-cf32-44e5-95f9-5d42a8ed1a1e","system_id":"levelo_inurba_marseille","lat":43.293259,"lon":5.371586,"is_reserved":false,"is_disabled":false,"rental_uris":{"android":"levelo://app?vid=dc67dae2-cf32-44e5-95f9-5d42a8ed1a1e","ios":"levelo://app?vid=dc67dae2-cf32-44e5-95f9-5d42a8ed1a1e"},"vehicle_type_id":"4","last_reported":1717189659,"current_range_meters":18400,"station_id":"ce4bgh92rcd13ifvqb40","pricing_plan_id":"cebpf4jnsgd1na2vs0mg"},{"bike_id":"2b4a56fa-c14a-487c-b065-696ef291e063","system_id":"levelo_inurba_marseille","lat":43.292749,"lon":5.368402,"is_reserved":false,"is_disabled":false,"rental_uris":{"android":"levelo://app?vid=2b4a56fa-c14a-487c-b065-696ef291e063","ios":"levelo://app?vid=2b4a56fa-c14a-487c-b065-696ef291e063"},"vehicle_type_id":"4","last_reported":1717189659,"current_range_meters":20800,"station_id":"ce4bhbp2rcd13ifvqesg","pricing_plan_id":"cebpf4jnsgd1na2vs0mg"},{"bike_id":"3bb4c561-41a0-4ed5-b637-a28dc8d36152","system_id":"levelo_inurba_marseille","lat":43.292749,"lon":5.368402,"is_reserved":false,"is_disabled":false,"rental_uris":{"android":"levelo://app?vid=3bb4c561-41a0-4ed5-b637-a28dc8d36152","ios":"levelo://app?vid=3bb4c561-41a0-4ed5-b637-a28dc8d36152"},"vehicle_type_id":"4","last_reported":1717189659,"current_range_meters":2400,"station_id":"ce4bhbp2rcd13ifvqesg","pricing_plan_id":"cebpf4jnsgd1na2vs0mg"},{"bike_id":"1002ff60-913a-4dc9-96e6-8d304dfdad8b","system_id":"levelo_inurba_marseille","lat":43.305994,"lon":5.393687,"is_reserved":false,"is_disabled":false,"rental_uris":{"android":"levelo://app?vid=1002ff60-913a-4dc9-96e6-8d304dfdad8b","ios":"levelo://app?vid=1002ff60-913a-4dc9-96e6-8d304dfdad8b"},"vehicle_type_id":"4","last_reported":1717189659,"current_range_meters":28400,"station_id":"ce4bh0p2rcd13ifvqd80","pricing_plan_id":"cebpf4jnsgd1na2vs0mg"},{"bike_id":"25effcb8-b38f-47f2-b9cf-505cdaafb37c","system_id":"levelo_inurba_marseille","lat":43.293009,"lon":5.374584,"is_reserved":false,"is_disabled":false,"rental_uris":{"android":"levelo://app?vid=25effcb8-b38f-47f2-b9cf-505cdaafb37c","ios":"levelo://app?vid=25effcb8-b38f-47f2-b9cf-505cdaafb37c"},"vehicle_type_id":"4","last_reported":1717189659,"current_range_meters":0,"station_id":"ce4bgi12rcd13ifvqb70","pricing_plan_id":"cebpf4jnsgd1na2vs0mg"},{"bike_id":"ea3f185c-bddf-43ca-9c08-b1c2477b17c3","system_id":"levelo_inurba_marseille","lat":43.305994,"lon":5.393687,"is_reserved":false,"is_disabled":false,"rental_uris":{"android":"levelo://app?vid=ea3f185c-bddf-43ca-9c08-b1c2477b17c3","ios":"levelo://app?vid=ea3f185c-bddf-43ca-9c08-b1c2477b17c3"},"vehicle_type_id":"4","last_reported":1717189659,"current_range_meters":15200,"station_id":"ce4bh0p2rcd13ifvqd80","pricing_plan_id":"cebpf4jnsgd1na2vs0mg"},{"bike_id":"d832707c-15f0-42a7-8e22-173dbb6dde1e","system_id":"levelo_inurba_marseille","lat":43.30594,"lon":5.3935,"is_reserved":false,"is_disabled":false,"rental_uris":{"android":"levelo://app?vid=d832707c-15f0-42a7-8e22-173dbb6dde1e","ios":"levelo://app?vid=d832707c-15f0-42a7-8e22-173dbb6dde1e"},"vehicle_type_id":"4","last_reported":1717189659,"current_range_meters":2000,"station_id":"ce4bh0p2rcd13ifvqd80","pricing_plan_id":"cebpf4jnsgd1na2vs0mg"},{"bike_id":"1e8dc379-656b-4b71-9029-f7a7f87a9c3a","system_id":"levelo_inurba_marseille","lat":43.30598,"lon":5.39358,"is_reserved":false,"is_disabled":false,"rental_uris":{"android":"levelo://app?vid=1e8dc379-656b-4b71-9029-f7a7f87a9c3a","ios":"levelo://app?vid=1e8dc379-656b-4b71-9029-f7a7f87a9c3a"},"vehicle_type_id":"4","last_reported":1717189659,"current_range_meters":3200,"station_id":"ce4bh0p2rcd13ifvqd80","pricing_plan_id":"cebpf4jnsgd1na2vs0mg"},{"bike_id":"ee326d9f-c70b-4589-b964-2c75530f119f","system_id":"levelo_inurba_marseille","lat":43.305994,"lon":5.393687,"is_reserved":false,"is_disabled":false,"rental_uris":{"android":"levelo://app?vid=ee326d9f-c70b-4589-b964-2c75530f119f","ios":"levelo://app?vid=ee326d9f-c70b-4589-b964-2c75530f119f"},"vehicle_type_id":"4","last_reported":1717189659,"current_range_meters":3600,"station_id":"ce4bh0p2rcd13ifvqd80","pricing_plan_id":"cebpf4jnsgd1na2vs0mg"},{"bike_id":"91e56c16-a250-4e18-9d04-727599a5d27a","system_id":"levelo_inurba_marseille","lat":43.305994,"lon":5.393687,"is_reserved":false,"is_disabled":false,"rental_uris":{"android":"levelo://app?vid=91e56c16-a250-4e18-9d04-727599a5d27a","ios":"levelo://app?vid=91e56c16-a250-4e18-9d04-727599a5d27a"},"vehicle_type_id":"4","last_reported":1717189659,"current_range_meters":22800,"station_id":"ce4bh0p2rcd13ifvqd80","pricing_plan_id":"cebpf4jnsgd1na2vs0mg"},{"bike_id":"6fe68f63-1d3e-4f03-826d-bdba5397c05d","system_id":"levelo_inurba_marseille","lat":43.305994,"lon":5.393687,"is_reserved":false,"is_disabled":false,"rental_uris":{"android":"levelo://app?vid=6fe68f63-1d3e-4f03-826d-bdba5397c05d","ios":"levelo://app?vid=6fe68f63-1d3e-4f03-826d-bdba5397c05d"},"vehicle_type_id":"4","last_reported":1717189659,"current_range_meters":27200,"station_id":"ce4bh0p2rcd13ifvqd80","pricing_plan_id":"cebpf4jnsgd1na2vs0mg"},{"bike_id":"98614bbc-63f6-42ee-b9e0-09dc523d8e28","system_id":"levelo_inurba_marseille","lat":43.29294,"lon":5.37462,"is_reserved":false,"is_disabled":false,"rental_uris":{"android":"levelo://app?vid=98614bbc-63f6-42ee-b9e0-09dc523d8e28","ios":"levelo://app?vid=98614bbc-63f6-42ee-b9e0-09dc523d8e28"},"vehicle_type_id":"4","last_reported":1717189659,"current_range_meters":0,"station_id":"ce4bgi12rcd13ifvqb70","pricing_plan_id":"cebpf4jnsgd1na2vs0mg"},{"bike_id":"295d0068-5e44-48ed-8041-ddbf7cdd034d","system_id":"levelo_inurba_marseille","lat":43.293721,"lon":5.378347,"is_reserved":false,"is_disabled":false,"rental_uris":{"android":"levelo://app?vid=295d0068-5e44-48ed-8041-ddbf7cdd034d","ios":"levelo://app?vid=295d0068-5e44-48ed-8041-ddbf7cdd034d"},"vehicle_type_id":"4","last_reported":1717189659,"current_range_meters":0,"station_id":"ce4bgjh2rcd13ifvqbf0","pricing_plan_id":"cebpf4jnsgd1na2vs0mg"},{"bike_id":"98f53871-5e5e-49c1-96b1-87a53cf27fcd","system_id":"levelo_inurba_marseille","lat":43.302992,"lon":5.392136,"is_reserved":false,"is_disabled":false,"rental_uris":{"android":"levelo://app?vid=98f53871-5e5e-49c1-96b1-87a53cf27fcd","ios":"levelo://app?vid=98f53871-5e5e-49c1-96b1-87a53cf27fcd"},"vehicle_type_id":"4","last_reported":1717189659,"current_range_meters":31600,"station_id":"ce4bgkh2rcd13ifvqbk0","pricing_plan_id":"cebpf4jnsgd1na2vs0mg"},{"bike_id":"c8c852da-9ce8-4a25-ad60-773bcedfb3b7","system_id":"levelo_inurba_marseille","lat":43.29367,"lon":5.37851,"is_reserved":false,"is_disabled":false,"rental_uris":{"android":"levelo://app?vid=c8c852da-9ce8-4a25-ad60-773bcedfb3b7","ios":"levelo://app?vid=c8c852da-9ce8-4a25-ad60-773bcedfb3b7"},"vehicle_type_id":"4","last_reported":1717189659,"current_range_meters":11200,"station_id":"ce4bgjh2rcd13ifvqbf0","pricing_plan_id":"cebpf4jnsgd1na2vs0mg"},{"bike_id":"65293864-597d-452d-93db-c15a82def71a","system_id":"levelo_inurba_marseille","lat":43.29368,"lon":5.378555,"is_reserved":false,"is_disabled":false,"rental_uris":{"android":"levelo://app?vid=65293864-597d-452d-93db-c15a82def71a","ios":"levelo://app?vid=65293864-597d-452d-93db-c15a82def71a"},"vehicle_type_id":"4","last_reported":1717189659,"current_range_meters":0,"station_id":"ce4bgjh2rcd13ifvqbf0","pricing_plan_id":"cebpf4jnsgd1na2vs0mg"},{"bike_id":"0fed0b62-a8d2-465f-afe2-a8e0ae09b950","system_id":"levelo_inurba_marseille","lat":43.2936,"lon":5.37835,"is_reserved":false,"is_disabled":false,"rental_uris":{"android":"levelo://app?vid=0fed0b62-a8d2-465f-afe2-a8e0ae09b950","ios":"levelo://app?vid=0fed0b62-a8d2-465f-afe2-a8e0ae09b950"},"vehicle_type_id":"4","last_reported":1717189659,"current_range_meters":3600,"station_id":"ce4bgjh2rcd13ifvqbf0","pricing_plan_id":"cebpf4jnsgd1na2vs0mg"},{"bike_id":"7cde30a9-4203-424a-9a66-b4b54c9ccf21","system_id":"levelo_inurba_marseille","lat":43.2936,"lon":5.37835,"is_reserved":false,"is_disabled":false,"rental_uris":{"android":"levelo://app?vid=7cde30a9-4203-424a-9a66-b4b54c9ccf21","ios":"levelo://app?vid=7cde30a9-4203-424a-9a66-b4b54c9ccf21"},"vehicle_type_id":"4","last_reported":1717189659,"current_range_meters":27600,"station_id":"ce4bgjh2rcd13ifvqbf0","pricing_plan_id":"cebpf4jnsgd1na2vs0mg"},{"bike_id":"210fc376-d97e-4e4d-90c8-8ea0a56c920b","system_id":"levelo_inurba_marseille","lat":43.30103,"lon":5.39074,"is_reserved":false,"is_disabled":false,"rental_uris":{"android":"levelo://app?vid=210fc376-d97e-4e4d-90c8-8ea0a56c920b","ios":"levelo://app?vid=210fc376-d97e-4e4d-90c8-8ea0a56c920b"},"vehicle_type_id":"4","last_reported":1717189659,"current_range_meters":28400,"station_id":"ce4bh192rcd13ifvqdb0","pricing_plan_id":"cebpf4jnsgd1na2vs0mg"},{"bike_id":"19abf843-c233-4681-9e03-3ce1a6dab6b9","system_id":"levelo_inurba_marseille","lat":43.309038,"lon":5.396546,"is_reserved":false,"is_disabled":false,"rental_uris":{"android":"levelo://app?vid=19abf843-c233-4681-9e03-3ce1a6dab6b9","ios":"levelo://app?vid=19abf843-c233-4681-9e03-3ce1a6dab6b9"},"vehicle_type_id":"4","last_reported":1717189659,"current_range_meters":18400,"station_id":"ce4bh012rcd13ifvqcv0","pricing_plan_id":"cebpf4jnsgd1na2vs0mg"},{"bike_id":"ca10250b-4628-4c93-83e6-73c26bdb0136","system_id":"levelo_inurba_marseille","lat":43.30082,"lon":5.39066,"is_reserved":false,"is_disabled":false,"rental_uris":{"android":"levelo://app?vid=ca10250b-4628-4c93-83e6-73c26bdb0136","ios":"levelo://app?vid=ca10250b-4628-4c93-83e6-73c26bdb0136"},"vehicle_type_id":"4","last_reported":1717189659,"current_range_meters":26800,"station_id":"ce4bh192rcd13ifvqdb0","pricing_plan_id":"cebpf4jnsgd1na2vs0mg"},{"bike_id":"6ca4235c-23c2-40e2-8652-6581e148cf0b","system_id":"levelo_inurba_marseille","lat":43.30085,"lon":5.39071,"is_reserved":false,"is_disabled":false,"rental_uris":{"android":"levelo://app?vid=6ca4235c-23c2-40e2-8652-6581e148cf0b","ios":"levelo://app?vid=6ca4235c-23c2-40e2-8652-6581e148cf0b"},"vehicle_type_id":"4","last_reported":1717189659,"current_range_meters":26000,"station_id":"ce4bh192rcd13ifvqdb0","pricing_plan_id":"cebpf4jnsgd1na2vs0mg"},{"bike_id":"6a2211a4-2b57-4b94-80a1-faa3a6d28cc8","system_id":"levelo_inurba_marseille","lat":43.30083,"lon":5.39074,"is_reserved":false,"is_disabled":false,"rental_uris":{"android":"levelo://app?vid=6a2211a4-2b57-4b94-80a1-faa3a6d28cc8","ios":"levelo://app?vid=6a2211a4-2b57-4b94-80a1-faa3a6d28cc8"},"vehicle_type_id":"4","last_reported":1717189659,"current_range_meters":27200,"station_id":"ce4bh192rcd13ifvqdb0","pricing_plan_id":"cebpf4jnsgd1na2vs0mg"},{"bike_id":"cdd0bc9d-e0a1-4754-8d38-1369665ac677","system_id":"levelo_inurba_marseille","lat":43.300852,"lon":5.390859,"is_reserved":false,"is_disabled":false,"rental_uris":{"android":"levelo://app?vid=cdd0bc9d-e0a1-4754-8d38-1369665ac677","ios":"levelo://app?vid=cdd0bc9d-e0a1-4754-8d38-1369665ac677"},"vehicle_type_id":"4","last_reported":1717189659,"current_range_meters":28800,"station_id":"ce4bh192rcd13ifvqdb0","pricing_plan_id":"cebpf4jnsgd1na2vs0mg"},{"bike_id":"297d0448-44f0-4170-901a-a7a1c5387976","system_id":"levelo_inurba_marseille","lat":43.30085,"lon":5.390856,"is_reserved":false,"is_disabled":false,"rental_uris":{"android":"levelo://app?vid=297d0448-44f0-4170-901a-a7a1c5387976","ios":"levelo://app?vid=297d0448-44f0-4170-901a-a7a1c5387976"},"vehicle_type_id":"4","last_reported":1717189659,"current_range_meters":20800,"station_id":"ce4bh192rcd13ifvqdb0","pricing_plan_id":"cebpf4jnsgd1na2vs0mg"},{"bike_id":"da2047d6-11a3-46c2-ad73-1148b67bf5e9","system_id":"levelo_inurba_marseille","lat":43.300852,"lon":5.390859,"is_reserved":false,"is_disabled":false,"rental_uris":{"android":"levelo://app?vid=da2047d6-11a3-46c2-ad73-1148b67bf5e9","ios":"levelo://app?vid=da2047d6-11a3-46c2-ad73-1148b67bf5e9"},"vehicle_type_id":"4","last_reported":1717189659,"current_range_meters":27600,"station_id":"ce4bh192rcd13ifvqdb0","pricing_plan_id":"cebpf4jnsgd1na2vs0mg"},{"bike_id":"7690defb-745a-4de8-8dfa-87361fb61267","system_id":"levelo_inurba_marseille","lat":43.291675,"lon":5.371583,"is_reserved":false,"is_disabled":false,"rental_uris":{"android":"levelo://app?vid=7690defb-745a-4de8-8dfa-87361fb61267","ios":"levelo://app?vid=7690defb-745a-4de8-8dfa-87361fb61267"},"vehicle_type_id":"4","last_reported":1717189659,"current_range_meters":400,"station_id":"ce4bha92rcd13ifvqeh0","pricing_plan_id":"cebpf4jnsgd1na2vs0mg"},{"bike_id":"71a74524-3b42-44ce-8d49-959109fda24e","system_id":"levelo_inurba_marseille","lat":43.30085,"lon":5.390856,"is_reserved":false,"is_disabled":false,"rental_uris":{"android":"levelo://app?vid=71a74524-3b42-44ce-8d49-959109fda24e","ios":"levelo://app?vid=71a74524-3b42-44ce-8d49-959109fda24e"},"vehicle_type_id":"4","last_reported":1717189659,"current_range_meters":7200,"station_id":"ce4bh192rcd13ifvqdb0","pricing_plan_id":"cebpf4jnsgd1na2vs0mg"},{"bike_id":"414ba371-4fb8-4d20-8af3-7f34d2b8da1c","system_id":"levelo_inurba_marseille","lat":43.2926,"lon":5.37617,"is_reserved":false,"is_disabled":false,"rental_uris":{"android":"levelo://app?vid=414ba371-4fb8-4d20-8af3-7f34d2b8da1c","ios":"levelo://app?vid=414ba371-4fb8-4d20-8af3-7f34d2b8da1c"},"vehicle_type_id":"4","last_reported":1717189659,"current_range_meters":0,"station_id":"","pricing_plan_id":"cebpf4jnsgd1na2vs0mg"},{"bike_id":"95c54f3d-164b-46a9-bf8e-6e57ae27349c","system_id":"levelo_inurba_marseille","lat":43.298764,"lon":5.388973,"is_reserved":false,"is_disabled":false,"rental_uris":{"android":"levelo://app?vid=95c54f3d-164b-46a9-bf8e-6e57ae27349c","ios":"levelo://app?vid=95c54f3d-164b-46a9-bf8e-6e57ae27349c"},"vehicle_type_id":"4","last_reported":1717189659,"current_range_meters":20000,"station_id":"ce4bh392rcd13ifvqdl0","pricing_plan_id":"cebpf4jnsgd1na2vs0mg"},{"bike_id":"0daee283-9a34-4f7f-ba9f-5eeb23da8421","system_id":"levelo_inurba_marseille","lat":43.298764,"lon":5.388973,"is_reserved":false,"is_disabled":false,"rental_uris":{"android":"levelo://app?vid=0daee283-9a34-4f7f-ba9f-5eeb23da8421","ios":"levelo://app?vid=0daee283-9a34-4f7f-ba9f-5eeb23da8421"},"vehicle_type_id":"4","last_reported":1717189659,"current_range_meters":8800,"station_id":"ce4bh392rcd13ifvqdl0","pricing_plan_id":"cebpf4jnsgd1na2vs0mg"},{"bike_id":"a1752668-058a-4a06-85c9-5f6bc5e9355c","system_id":"levelo_inurba_marseille","lat":43.29879,"lon":5.38903,"is_reserved":false,"is_disabled":false,"rental_uris":{"android":"levelo://app?vid=a1752668-058a-4a06-85c9-5f6bc5e9355c","ios":"levelo://app?vid=a1752668-058a-4a06-85c9-5f6bc5e9355c"},"vehicle_type_id":"4","last_reported":1717189659,"current_range_meters":14400,"station_id":"ce4bh392rcd13ifvqdl0","pricing_plan_id":"cebpf4jnsgd1na2vs0mg"},{"bike_id":"549ad929-db45-442e-a845-fb30b0fd26e6","system_id":"levelo_inurba_marseille","lat":43.298725,"lon":5.38902,"is_reserved":false,"is_disabled":false,"rental_uris":{"android":"levelo://app?vid=549ad929-db45-442e-a845-fb30b0fd26e6","ios":"levelo://app?vid=549ad929-db45-442e-a845-fb30b0fd26e6"},"vehicle_type_id":"4","last_reported":1717189659,"current_range_meters":28800,"station_id":"ce4bh392rcd13ifvqdl0","pricing_plan_id":"cebpf4jnsgd1na2vs0mg"},{"bike_id":"fecfd5e1-5d8d-4d6c-9a10-259e9dee2242","system_id":"levelo_inurba_marseille","lat":43.298764,"lon":5.388973,"is_reserved":false,"is_disabled":false,"rental_uris":{"android":"levelo://app?vid=fecfd5e1-5d8d-4d6c-9a10-259e9dee2242","ios":"levelo://app?vid=fecfd5e1-5d8d-4d6c-9a10-259e9dee2242"},"vehicle_type_id":"4","last_reported":1717189659,"current_range_meters":13600,"station_id":"ce4bh392rcd13ifvqdl0","pricing_plan_id":"cebpf4jnsgd1na2vs0mg"},{"bike_id":"5ad9d3f6-d54a-4a19-afee-ff71a041bfb2","system_id":"levelo_inurba_marseille","lat":43.31328,"lon":5.39686,"is_reserved":false,"is_disabled":false,"rental_uris":{"android":"levelo://app?vid=5ad9d3f6-d54a-4a19-afee-ff71a041bfb2","ios":"levelo://app?vid=5ad9d3f6-d54a-4a19-afee-ff71a041bfb2"},"vehicle_type_id":"4","last_reported":1717189659,"current_range_meters":0,"station_id":"ce4bgvp2rcd13ifvqcu0","pricing_plan_id":"cebpf4jnsgd1na2vs0mg"},{"bike_id":"16593699-5424-4b0f-8dac-998d2fec7246","system_id":"levelo_inurba_marseille","lat":43.313291,"lon":5.396838,"is_reserved":false,"is_disabled":false,"rental_uris":{"android":"levelo://app?vid=16593699-5424-4b0f-8dac-998d2fec7246","ios":"levelo://app?vid=16593699-5424-4b0f-8dac-998d2fec7246"},"vehicle_type_id":"4","last_reported":1717189659,"current_range_meters":4400,"station_id":"ce4bgvp2rcd13ifvqcu0","pricing_plan_id":"cebpf4jnsgd1na2vs0mg"},{"bike_id":"4d3c82a3-c6c6-4d5c-a61a-301f82f9bcdc","system_id":"levelo_inurba_marseille","lat":43.313291,"lon":5.396838,"is_reserved":false,"is_disabled":false,"rental_uris":{"android":"levelo://app?vid=4d3c82a3-c6c6-4d5c-a61a-301f82f9bcdc","ios":"levelo://app?vid=4d3c82a3-c6c6-4d5c-a61a-301f82f9bcdc"},"vehicle_type_id":"4","last_reported":1717189659,"current_range_meters":28000,"station_id":"ce4bgvp2rcd13ifvqcu0","pricing_plan_id":"cebpf4jnsgd1na2vs0mg"},{"bike_id":"c80eae39-fcb1-4652-91a2-5b5999994af8","system_id":"levelo_inurba_marseille","lat":43.313291,"lon":5.396838,"is_reserved":false,"is_disabled":false,"rental_uris":{"android":"levelo://app?vid=c80eae39-fcb1-4652-91a2-5b5999994af8","ios":"levelo://app?vid=c80eae39-fcb1-4652-91a2-5b5999994af8"},"vehicle_type_id":"4","last_reported":1717189659,"current_range_meters":2400,"station_id":"ce4bgvp2rcd13ifvqcu0","pricing_plan_id":"cebpf4jnsgd1na2vs0mg"},{"bike_id":"1724c9de-d91a-4aa3-a6e1-7c6ef16613a4","system_id":"levelo_inurba_marseille","lat":43.309038,"lon":5.396546,"is_reserved":false,"is_disabled":false,"rental_uris":{"android":"levelo://app?vid=1724c9de-d91a-4aa3-a6e1-7c6ef16613a4","ios":"levelo://app?vid=1724c9de-d91a-4aa3-a6e1-7c6ef16613a4"},"vehicle_type_id":"4","last_reported":1717189659,"current_range_meters":15200,"station_id":"ce4bh012rcd13ifvqcv0","pricing_plan_id":"cebpf4jnsgd1na2vs0mg"},{"bike_id":"7e704dbe-46ff-43c0-b76e-bb05bbccc6d2","system_id":"levelo_inurba_marseille","lat":43.29529,"lon":5.385581,"is_reserved":false,"is_disabled":false,"rental_uris":{"android":"levelo://app?vid=7e704dbe-46ff-43c0-b76e-bb05bbccc6d2","ios":"levelo://app?vid=7e704dbe-46ff-43c0-b76e-bb05bbccc6d2"},"vehicle_type_id":"4","last_reported":1717189659,"current_range_meters":14000,"station_id":"ce4bgih2rcd13ifvqba0","pricing_plan_id":"cebpf4jnsgd1na2vs0mg"},{"bike_id":"cf19b76a-42d9-4e1e-91c2-d6aabf62543b","system_id":"levelo_inurba_marseille","lat":43.29529,"lon":5.385581,"is_reserved":false,"is_disabled":false,"rental_uris":{"android":"levelo://app?vid=cf19b76a-42d9-4e1e-91c2-d6aabf62543b","ios":"levelo://app?vid=cf19b76a-42d9-4e1e-91c2-d6aabf62543b"},"vehicle_type_id":"4","last_reported":1717189659,"current_range_meters":22000,"station_id":"ce4bgih2rcd13ifvqba0","pricing_plan_id":"cebpf4jnsgd1na2vs0mg"},{"bike_id":"c84bc635-49e7-4ffe-b092-e0b8a8d761d1","system_id":"levelo_inurba_marseille","lat":43.29531,"lon":5.38537,"is_reserved":false,"is_disabled":false,"rental_uris":{"android":"levelo://app?vid=c84bc635-49e7-4ffe-b092-e0b8a8d761d1","ios":"levelo://app?vid=c84bc635-49e7-4ffe-b092-e0b8a8d761d1"},"vehicle_type_id":"4","last_reported":1717189659,"current_range_meters":3600,"station_id":"ce4bgih2rcd13ifvqba0","pricing_plan_id":"cebpf4jnsgd1na2vs0mg"},{"bike_id":"bba39fba-c9e6-43f3-9e2d-20dd702c5ca7","system_id":"levelo_inurba_marseille","lat":43.29529,"lon":5.385581,"is_reserved":false,"is_disabled":false,"rental_uris":{"android":"levelo://app?vid=bba39fba-c9e6-43f3-9e2d-20dd702c5ca7","ios":"levelo://app?vid=bba39fba-c9e6-43f3-9e2d-20dd702c5ca7"},"vehicle_type_id":"4","last_reported":1717189659,"current_range_meters":12400,"station_id":"ce4bgih2rcd13ifvqba0","pricing_plan_id":"cebpf4jnsgd1na2vs0mg"},{"bike_id":"26150082-ba21-4d3e-8026-60451a24624e","system_id":"levelo_inurba_marseille","lat":43.2953,"lon":5.38543,"is_reserved":false,"is_disabled":false,"rental_uris":{"android":"levelo://app?vid=26150082-ba21-4d3e-8026-60451a24624e","ios":"levelo://app?vid=26150082-ba21-4d3e-8026-60451a24624e"},"vehicle_type_id":"4","last_reported":1717189659,"current_range_meters":4800,"station_id":"ce4bgih2rcd13ifvqba0","pricing_plan_id":"cebpf4jnsgd1na2vs0mg"},{"bike_id":"a6df927b-50c6-4407-ada1-d10c1875059d","system_id":"levelo_inurba_marseille","lat":43.29529,"lon":5.385581,"is_reserved":false,"is_disabled":false,"rental_uris":{"android":"levelo://app?vid=a6df927b-50c6-4407-ada1-d10c1875059d","ios":"levelo://app?vid=a6df927b-50c6-4407-ada1-d10c1875059d"},"vehicle_type_id":"4","last_reported":1717189659,"current_range_meters":5200,"station_id":"ce4bgih2rcd13ifvqba0","pricing_plan_id":"cebpf4jnsgd1na2vs0mg"},{"bike_id":"f69153bc-668a-44d9-9582-e1dbdad60de0","system_id":"levelo_inurba_marseille","lat":43.29529,"lon":5.385581,"is_reserved":false,"is_disabled":false,"rental_uris":{"android":"levelo://app?vid=f69153bc-668a-44d9-9582-e1dbdad60de0","ios":"levelo://app?vid=f69153bc-668a-44d9-9582-e1dbdad60de0"},"vehicle_type_id":"4","last_reported":1717189659,"current_range_meters":2000,"station_id":"ce4bgih2rcd13ifvqba0","pricing_plan_id":"cebpf4jnsgd1na2vs0mg"},{"bike_id":"d73255ac-86f7-469c-a8e5-8100767bef1a","system_id":"levelo_inurba_marseille","lat":43.29529,"lon":5.385581,"is_reserved":false,"is_disabled":false,"rental_uris":{"android":"levelo://app?vid=d73255ac-86f7-469c-a8e5-8100767bef1a","ios":"levelo://app?vid=d73255ac-86f7-469c-a8e5-8100767bef1a"},"vehicle_type_id":"4","last_reported":1717189659,"current_range_meters":23200,"station_id":"ce4bgih2rcd13ifvqba0","pricing_plan_id":"cebpf4jnsgd1na2vs0mg"},{"bike_id":"fe283d54-0fd8-473e-b2b4-07e1d57bdeb5","system_id":"levelo_inurba_marseille","lat":43.29529,"lon":5.385581,"is_reserved":false,"is_disabled":false,"rental_uris":{"android":"levelo://app?vid=fe283d54-0fd8-473e-b2b4-07e1d57bdeb5","ios":"levelo://app?vid=fe283d54-0fd8-473e-b2b4-07e1d57bdeb5"},"vehicle_type_id":"4","last_reported":1717189659,"current_range_meters":26000,"station_id":"ce4bgih2rcd13ifvqba0","pricing_plan_id":"cebpf4jnsgd1na2vs0mg"},{"bike_id":"9a450adf-7eca-4d7a-b8c0-b3229649b03f","system_id":"levelo_inurba_marseille","lat":43.29529,"lon":5.385581,"is_reserved":false,"is_disabled":false,"rental_uris":{"android":"levelo://app?vid=9a450adf-7eca-4d7a-b8c0-b3229649b03f","ios":"levelo://app?vid=9a450adf-7eca-4d7a-b8c0-b3229649b03f"},"vehicle_type_id":"4","last_reported":1717189659,"current_range_meters":0,"station_id":"ce4bgih2rcd13ifvqba0","pricing_plan_id":"cebpf4jnsgd1na2vs0mg"},{"bike_id":"cde4f1de-f483-477e-be1e-80cce3d5560c","system_id":"levelo_inurba_marseille","lat":43.290779,"lon":5.371482,"is_reserved":false,"is_disabled":false,"rental_uris":{"android":"levelo://app?vid=cde4f1de-f483-477e-be1e-80cce3d5560c","ios":"levelo://app?vid=cde4f1de-f483-477e-be1e-80cce3d5560c"},"vehicle_type_id":"4","last_reported":1717189659,"current_range_meters":400,"station_id":"ce4bh5p2rcd13ifvqe4g","pricing_plan_id":"cebpf4jnsgd1na2vs0mg"},{"bike_id":"2e42c5e4-d0ca-4dd1-994c-73ab5309bc3d","system_id":"levelo_inurba_marseille","lat":43.29328,"lon":5.38316,"is_reserved":false,"is_disabled":false,"rental_uris":{"android":"levelo://app?vid=2e42c5e4-d0ca-4dd1-994c-73ab5309bc3d","ios":"levelo://app?vid=2e42c5e4-d0ca-4dd1-994c-73ab5309bc3d"},"vehicle_type_id":"4","last_reported":1717189659,"current_range_meters":800,"station_id":"","pricing_plan_id":"cebpf4jnsgd1na2vs0mg"},{"bike_id":"c3dde409-d595-4f14-a86e-5171274d45c0","system_id":"levelo_inurba_marseille","lat":43.302008,"lon":5.394694,"is_reserved":false,"is_disabled":false,"rental_uris":{"android":"levelo://app?vid=c3dde409-d595-4f14-a86e-5171274d45c0","ios":"levelo://app?vid=c3dde409-d595-4f14-a86e-5171274d45c0"},"vehicle_type_id":"4","last_reported":1717189659,"current_range_meters":30000,"station_id":"ce4bh0p2rcd13ifvqd70","pricing_plan_id":"cebpf4jnsgd1na2vs0mg"},{"bike_id":"70d9fbd5-668e-4d84-9d63-a8bb69967544","system_id":"levelo_inurba_marseille","lat":43.302008,"lon":5.394694,"is_reserved":false,"is_disabled":false,"rental_uris":{"android":"levelo://app?vid=70d9fbd5-668e-4d84-9d63-a8bb69967544","ios":"levelo://app?vid=70d9fbd5-668e-4d84-9d63-a8bb69967544"},"vehicle_type_id":"4","last_reported":1717189659,"current_range_meters":28800,"station_id":"ce4bh0p2rcd13ifvqd70","pricing_plan_id":"cebpf4jnsgd1na2vs0mg"},{"bike_id":"409139bf-d4c0-4271-b26f-d6491f7ebfc8","system_id":"levelo_inurba_marseille","lat":43.302008,"lon":5.394694,"is_reserved":false,"is_disabled":false,"rental_uris":{"android":"levelo://app?vid=409139bf-d4c0-4271-b26f-d6491f7ebfc8","ios":"levelo://app?vid=409139bf-d4c0-4271-b26f-d6491f7ebfc8"},"vehicle_type_id":"4","last_reported":1717189659,"current_range_meters":29200,"station_id":"ce4bh0p2rcd13ifvqd70","pricing_plan_id":"cebpf4jnsgd1na2vs0mg"},{"bike_id":"a3827d4a-6cff-4ac3-8837-5b3b75e4d393","system_id":"levelo_inurba_marseille","lat":43.294162,"lon":5.386292,"is_reserved":false,"is_disabled":false,"rental_uris":{"android":"levelo://app?vid=a3827d4a-6cff-4ac3-8837-5b3b75e4d393","ios":"levelo://app?vid=a3827d4a-6cff-4ac3-8837-5b3b75e4d393"},"vehicle_type_id":"4","last_reported":1717189659,"current_range_meters":16800,"station_id":"ce4bh2h2rcd13ifvqdh0","pricing_plan_id":"cebpf4jnsgd1na2vs0mg"},{"bike_id":"e9c9fa17-913b-4cc2-b579-2f9ec517a25f","system_id":"levelo_inurba_marseille","lat":43.294162,"lon":5.386292,"is_reserved":false,"is_disabled":false,"rental_uris":{"android":"levelo://app?vid=e9c9fa17-913b-4cc2-b579-2f9ec517a25f","ios":"levelo://app?vid=e9c9fa17-913b-4cc2-b579-2f9ec517a25f"},"vehicle_type_id":"4","last_reported":1717189659,"current_range_meters":11200,"station_id":"ce4bh2h2rcd13ifvqdh0","pricing_plan_id":"cebpf4jnsgd1na2vs0mg"},{"bike_id":"ba29d1e8-3302-4707-a8ea-2823d9a914ac","system_id":"levelo_inurba_marseille","lat":43.29418,"lon":5.3862,"is_reserved":false,"is_disabled":false,"rental_uris":{"android":"levelo://app?vid=ba29d1e8-3302-4707-a8ea-2823d9a914ac","ios":"levelo://app?vid=ba29d1e8-3302-4707-a8ea-2823d9a914ac"},"vehicle_type_id":"4","last_reported":1717189659,"current_range_meters":2000,"station_id":"ce4bh2h2rcd13ifvqdh0","pricing_plan_id":"cebpf4jnsgd1na2vs0mg"},{"bike_id":"f777f56f-a345-4983-88bd-7c3ae1c0ca3f","system_id":"levelo_inurba_marseille","lat":43.29417,"lon":5.38619,"is_reserved":false,"is_disabled":false,"rental_uris":{"android":"levelo://app?vid=f777f56f-a345-4983-88bd-7c3ae1c0ca3f","ios":"levelo://app?vid=f777f56f-a345-4983-88bd-7c3ae1c0ca3f"},"vehicle_type_id":"4","last_reported":1717189659,"current_range_meters":0,"station_id":"ce4bh2h2rcd13ifvqdh0","pricing_plan_id":"cebpf4jnsgd1na2vs0mg"},{"bike_id":"24ea8ed8-08b4-4da1-b678-3a7a9c455fb5","system_id":"levelo_inurba_marseille","lat":43.29419,"lon":5.38623,"is_reserved":false,"is_disabled":false,"rental_uris":{"android":"levelo://app?vid=24ea8ed8-08b4-4da1-b678-3a7a9c455fb5","ios":"levelo://app?vid=24ea8ed8-08b4-4da1-b678-3a7a9c455fb5"},"vehicle_type_id":"4","last_reported":1717189659,"current_range_meters":3200,"station_id":"ce4bh2h2rcd13ifvqdh0","pricing_plan_id":"cebpf4jnsgd1na2vs0mg"},{"bike_id":"b994bf04-53c5-4bb3-ade2-d9e7e86b3ae9","system_id":"levelo_inurba_marseille","lat":43.294162,"lon":5.386292,"is_reserved":false,"is_disabled":false,"rental_uris":{"android":"levelo://app?vid=b994bf04-53c5-4bb3-ade2-d9e7e86b3ae9","ios":"levelo://app?vid=b994bf04-53c5-4bb3-ade2-d9e7e86b3ae9"},"vehicle_type_id":"4","last_reported":1717189659,"current_range_meters":17600,"station_id":"ce4bh2h2rcd13ifvqdh0","pricing_plan_id":"cebpf4jnsgd1na2vs0mg"},{"bike_id":"bb74b90a-0319-4396-ba01-52e974d25d12","system_id":"levelo_inurba_marseille","lat":43.294162,"lon":5.386292,"is_reserved":false,"is_disabled":false,"rental_uris":{"android":"levelo://app?vid=bb74b90a-0319-4396-ba01-52e974d25d12","ios":"levelo://app?vid=bb74b90a-0319-4396-ba01-52e974d25d12"},"vehicle_type_id":"4","last_reported":1717189659,"current_range_meters":19600,"station_id":"ce4bh2h2rcd13ifvqdh0","pricing_plan_id":"cebpf4jnsgd1na2vs0mg"},{"bike_id":"4b0ce91d-734c-4150-be9f-ad17d9b16ede","system_id":"levelo_inurba_marseille","lat":43.294189,"lon":5.386254,"is_reserved":false,"is_disabled":false,"rental_uris":{"android":"levelo://app?vid=4b0ce91d-734c-4150-be9f-ad17d9b16ede","ios":"levelo://app?vid=4b0ce91d-734c-4150-be9f-ad17d9b16ede"},"vehicle_type_id":"4","last_reported":1717189659,"current_range_meters":16000,"station_id":"ce4bh2h2rcd13ifvqdh0","pricing_plan_id":"cebpf4jnsgd1na2vs0mg"},{"bike_id":"b99d85b0-d0dd-4c68-9990-a5eff177c346","system_id":"levelo_inurba_marseille","lat":43.294162,"lon":5.386292,"is_reserved":false,"is_disabled":false,"rental_uris":{"android":"levelo://app?vid=b99d85b0-d0dd-4c68-9990-a5eff177c346","ios":"levelo://app?vid=b99d85b0-d0dd-4c68-9990-a5eff177c346"},"vehicle_type_id":"4","last_reported":1717189659,"current_range_meters":14400,"station_id":"ce4bh2h2rcd13ifvqdh0","pricing_plan_id":"cebpf4jnsgd1na2vs0mg"},{"bike_id":"b5b0459f-04ea-4860-8eb8-5be742eafed8","system_id":"levelo_inurba_marseille","lat":43.294162,"lon":5.386292,"is_reserved":false,"is_disabled":false,"rental_uris":{"android":"levelo://app?vid=b5b0459f-04ea-4860-8eb8-5be742eafed8","ios":"levelo://app?vid=b5b0459f-04ea-4860-8eb8-5be742eafed8"},"vehicle_type_id":"4","last_reported":1717189659,"current_range_meters":0,"station_id":"ce4bh2h2rcd13ifvqdh0","pricing_plan_id":"cebpf4jnsgd1na2vs0mg"},{"bike_id":"05adc8df-b14f-4398-86e4-5c3c6a29831d","system_id":"levelo_inurba_marseille","lat":43.294162,"lon":5.386292,"is_reserved":false,"is_disabled":false,"rental_uris":{"android":"levelo://app?vid=05adc8df-b14f-4398-86e4-5c3c6a29831d","ios":"levelo://app?vid=05adc8df-b14f-4398-86e4-5c3c6a29831d"},"vehicle_type_id":"4","last_reported":1717189659,"current_range_meters":23600,"station_id":"ce4bh2h2rcd13ifvqdh0","pricing_plan_id":"cebpf4jnsgd1na2vs0mg"},{"bike_id":"04374c0f-0ac5-416d-b8e1-e4b6769156d9","system_id":"levelo_inurba_marseille","lat":43.294162,"lon":5.386292,"is_reserved":false,"is_disabled":false,"rental_uris":{"android":"levelo://app?vid=04374c0f-0ac5-416d-b8e1-e4b6769156d9","ios":"levelo://app?vid=04374c0f-0ac5-416d-b8e1-e4b6769156d9"},"vehicle_type_id":"4","last_reported":1717189659,"current_range_meters":0,"station_id":"ce4bh2h2rcd13ifvqdh0","pricing_plan_id":"cebpf4jnsgd1na2vs0mg"},{"bike_id":"6d6e0d49-193a-4a21-bed0-71ec9ac1b71b","system_id":"levelo_inurba_marseille","lat":43.294162,"lon":5.386292,"is_reserved":false,"is_disabled":false,"rental_uris":{"android":"levelo://app?vid=6d6e0d49-193a-4a21-bed0-71ec9ac1b71b","ios":"levelo://app?vid=6d6e0d49-193a-4a21-bed0-71ec9ac1b71b"},"vehicle_type_id":"4","last_reported":1717189659,"current_range_meters":25200,"station_id":"ce4bh2h2rcd13ifvqdh0","pricing_plan_id":"cebpf4jnsgd1na2vs0mg"},{"bike_id":"4db879eb-d98f-4e51-83b6-2ea7ee5c5db8","system_id":"levelo_inurba_marseille","lat":43.294162,"lon":5.386292,"is_reserved":false,"is_disabled":false,"rental_uris":{"android":"levelo://app?vid=4db879eb-d98f-4e51-83b6-2ea7ee5c5db8","ios":"levelo://app?vid=4db879eb-d98f-4e51-83b6-2ea7ee5c5db8"},"vehicle_type_id":"4","last_reported":1717189659,"current_range_meters":14000,"station_id":"ce4bh2h2rcd13ifvqdh0","pricing_plan_id":"cebpf4jnsgd1na2vs0mg"},{"bike_id":"f25e2a18-d883-4139-8e4f-c8ef9888b724","system_id":"levelo_inurba_marseille","lat":43.294191,"lon":5.386336,"is_reserved":false,"is_disabled":false,"rental_uris":{"android":"levelo://app?vid=f25e2a18-d883-4139-8e4f-c8ef9888b724","ios":"levelo://app?vid=f25e2a18-d883-4139-8e4f-c8ef9888b724"},"vehicle_type_id":"4","last_reported":1717189659,"current_range_meters":0,"station_id":"ce4bh2h2rcd13ifvqdh0","pricing_plan_id":"cebpf4jnsgd1na2vs0mg"},{"bike_id":"a871f57f-0360-4953-bd3e-2095f51ad6d4","system_id":"levelo_inurba_marseille","lat":43.303046,"lon":5.368981,"is_reserved":false,"is_disabled":false,"rental_uris":{"android":"levelo://app?vid=a871f57f-0360-4953-bd3e-2095f51ad6d4","ios":"levelo://app?vid=a871f57f-0360-4953-bd3e-2095f51ad6d4"},"vehicle_type_id":"4","last_reported":1717189659,"current_range_meters":24000,"station_id":"ce4bgqh2rcd13ifvqc5g","pricing_plan_id":"cebpf4jnsgd1na2vs0mg"},{"bike_id":"d9d697fc-1f0a-4cab-bbad-82d22939604a","system_id":"levelo_inurba_marseille","lat":43.28938,"lon":5.36642,"is_reserved":false,"is_disabled":false,"rental_uris":{"android":"levelo://app?vid=d9d697fc-1f0a-4cab-bbad-82d22939604a","ios":"levelo://app?vid=d9d697fc-1f0a-4cab-bbad-82d22939604a"},"vehicle_type_id":"4","last_reported":1717189659,"current_range_meters":15200,"station_id":"ce4bhap2rcd13ifvqek0","pricing_plan_id":"cebpf4jnsgd1na2vs0mg"},{"bike_id":"d4b25d11-5456-44d4-bbff-543f34b5f78e","system_id":"levelo_inurba_marseille","lat":43.28936,"lon":5.36634,"is_reserved":false,"is_disabled":false,"rental_uris":{"android":"levelo://app?vid=d4b25d11-5456-44d4-bbff-543f34b5f78e","ios":"levelo://app?vid=d4b25d11-5456-44d4-bbff-543f34b5f78e"},"vehicle_type_id":"4","last_reported":1717189659,"current_range_meters":28000,"station_id":"ce4bhap2rcd13ifvqek0","pricing_plan_id":"cebpf4jnsgd1na2vs0mg"},{"bike_id":"b63fcd34-6ee1-4c8a-b4e7-88db9e551966","system_id":"levelo_inurba_marseille","lat":43.28933,"lon":5.36631,"is_reserved":false,"is_disabled":false,"rental_uris":{"android":"levelo://app?vid=b63fcd34-6ee1-4c8a-b4e7-88db9e551966","ios":"levelo://app?vid=b63fcd34-6ee1-4c8a-b4e7-88db9e551966"},"vehicle_type_id":"4","last_reported":1717189659,"current_range_meters":31200,"station_id":"ce4bhap2rcd13ifvqek0","pricing_plan_id":"cebpf4jnsgd1na2vs0mg"},{"bike_id":"7291b613-9a66-4a15-bfd4-17d281bb338f","system_id":"levelo_inurba_marseille","lat":43.30416,"lon":5.3973,"is_reserved":false,"is_disabled":false,"rental_uris":{"android":"levelo://app?vid=7291b613-9a66-4a15-bfd4-17d281bb338f","ios":"levelo://app?vid=7291b613-9a66-4a15-bfd4-17d281bb338f"},"vehicle_type_id":"4","last_reported":1717189659,"current_range_meters":25600,"station_id":"","pricing_plan_id":"cebpf4jnsgd1na2vs0mg"},{"bike_id":"9a501ec7-6216-407f-9c5b-b2bff3fed6e1","system_id":"levelo_inurba_marseille","lat":43.304296,"lon":5.397513,"is_reserved":false,"is_disabled":false,"rental_uris":{"android":"levelo://app?vid=9a501ec7-6216-407f-9c5b-b2bff3fed6e1","ios":"levelo://app?vid=9a501ec7-6216-407f-9c5b-b2bff3fed6e1"},"vehicle_type_id":"4","last_reported":1717189659,"current_range_meters":27200,"station_id":"ce4bh092rcd13ifvqd20","pricing_plan_id":"cebpf4jnsgd1na2vs0mg"},{"bike_id":"d13ce340-a9cf-452d-bf2e-934ca90ab081","system_id":"levelo_inurba_marseille","lat":43.304274,"lon":5.397513,"is_reserved":false,"is_disabled":false,"rental_uris":{"android":"levelo://app?vid=d13ce340-a9cf-452d-bf2e-934ca90ab081","ios":"levelo://app?vid=d13ce340-a9cf-452d-bf2e-934ca90ab081"},"vehicle_type_id":"4","last_reported":1717189659,"current_range_meters":26000,"station_id":"ce4bh092rcd13ifvqd20","pricing_plan_id":"cebpf4jnsgd1na2vs0mg"},{"bike_id":"973c3248-607e-488a-9994-071b3e558258","system_id":"levelo_inurba_marseille","lat":43.29264,"lon":5.38448,"is_reserved":false,"is_disabled":false,"rental_uris":{"android":"levelo://app?vid=973c3248-607e-488a-9994-071b3e558258","ios":"levelo://app?vid=973c3248-607e-488a-9994-071b3e558258"},"vehicle_type_id":"4","last_reported":1717189659,"current_range_meters":31200,"station_id":"ce4bh692rcd13ifvqea0","pricing_plan_id":"cebpf4jnsgd1na2vs0mg"},{"bike_id":"d7db193a-0a96-4271-b04b-a8a52c668046","system_id":"levelo_inurba_marseille","lat":43.30416,"lon":5.39746,"is_reserved":false,"is_disabled":false,"rental_uris":{"android":"levelo://app?vid=d7db193a-0a96-4271-b04b-a8a52c668046","ios":"levelo://app?vid=d7db193a-0a96-4271-b04b-a8a52c668046"},"vehicle_type_id":"4","last_reported":1717189659,"current_range_meters":0,"station_id":"ce4bh092rcd13ifvqd20","pricing_plan_id":"cebpf4jnsgd1na2vs0mg"},{"bike_id":"e357c97b-2027-45b5-826f-fcfb879ebf3a","system_id":"levelo_inurba_marseille","lat":43.29259,"lon":5.3844,"is_reserved":false,"is_disabled":false,"rental_uris":{"android":"levelo://app?vid=e357c97b-2027-45b5-826f-fcfb879ebf3a","ios":"levelo://app?vid=e357c97b-2027-45b5-826f-fcfb879ebf3a"},"vehicle_type_id":"4","last_reported":1717189659,"current_range_meters":31600,"station_id":"ce4bh692rcd13ifvqea0","pricing_plan_id":"cebpf4jnsgd1na2vs0mg"},{"bike_id":"117c6932-11eb-4b81-a2b3-9510093c0046","system_id":"levelo_inurba_marseille","lat":43.29255,"lon":5.38439,"is_reserved":false,"is_disabled":false,"rental_uris":{"android":"levelo://app?vid=117c6932-11eb-4b81-a2b3-9510093c0046","ios":"levelo://app?vid=117c6932-11eb-4b81-a2b3-9510093c0046"},"vehicle_type_id":"4","last_reported":1717189659,"current_range_meters":12800,"station_id":"ce4bh692rcd13ifvqea0","pricing_plan_id":"cebpf4jnsgd1na2vs0mg"},{"bike_id":"0ed8f23f-fdcd-4b9a-b1d3-86de91af58a9","system_id":"levelo_inurba_marseille","lat":43.29256,"lon":5.38443,"is_reserved":false,"is_disabled":false,"rental_uris":{"android":"levelo://app?vid=0ed8f23f-fdcd-4b9a-b1d3-86de91af58a9","ios":"levelo://app?vid=0ed8f23f-fdcd-4b9a-b1d3-86de91af58a9"},"vehicle_type_id":"4","last_reported":1717189659,"current_range_meters":31200,"station_id":"ce4bh692rcd13ifvqea0","pricing_plan_id":"cebpf4jnsgd1na2vs0mg"},{"bike_id":"32b09314-a188-41b1-88d5-756caacf5a41","system_id":"levelo_inurba_marseille","lat":43.29257,"lon":5.38449,"is_reserved":false,"is_disabled":false,"rental_uris":{"android":"levelo://app?vid=32b09314-a188-41b1-88d5-756caacf5a41","ios":"levelo://app?vid=32b09314-a188-41b1-88d5-756caacf5a41"},"vehicle_type_id":"4","last_reported":1717189659,"current_range_meters":31200,"station_id":"ce4bh692rcd13ifvqea0","pricing_plan_id":"cebpf4jnsgd1na2vs0mg"},{"bike_id":"d777e76a-1669-4287-84ef-1899c568ef79","system_id":"levelo_inurba_marseille","lat":43.29254,"lon":5.38448,"is_reserved":false,"is_disabled":false,"rental_uris":{"android":"levelo://app?vid=d777e76a-1669-4287-84ef-1899c568ef79","ios":"levelo://app?vid=d777e76a-1669-4287-84ef-1899c568ef79"},