{"last_updated":1705234316,"ttl":30,"version":"2.2","data":{"bikes":[{"bike_id":"6b6d4eec-5d30-4073-8e77-2b6e68fa16f8","system_id":"levelo_inurba_marseille","lat":43.31222,"lon":5.36868,"is_reserved":false,"is_disabled":false,"rental_uris":{"android":"levelo://app?vid=6b6d4eec-5d30-4073-8e77-2b6e68fa16f8","ios":"levelo://app?vid=6b6d4eec-5d30-4073-8e77-2b6e68fa16f8"},"vehicle_type_id":"4","last_reported":1705234316,"current_range_meters":800,"station_id":"ce4bgl92rcd13ifvqbq0","pricing_plan_id":"free"},{"bike_id":"ebc68795-5c50-4a1f-b752-f552eedceb84","system_id":"levelo_inurba_marseille","lat":43.309076,"lon":5.368465,"is_reserved":false,"is_disabled":false,"rental_uris":{"android":"levelo://app?vid=ebc68795-5c50-4a1f-b752-f552eedceb84","ios":"levelo://app?vid=ebc68795-5c50-4a1f-b752-f552eedceb84"},"vehicle_type_id":"4","last_reported":1705234316,"current_range_meters":0,"station_id":"ce4bgn92rcd13ifvqbvg","pricing_plan_id":"free"},{"bike_id":"e63d5272-3556-4994-a099-fbe9a283da73","system_id":"levelo_inurba_marseille","lat":43.31503,"lon":5.37288,"is_reserved":false,"is_disabled":false,"rental_uris":{"android":"levelo://app?vid=e63d5272-3556-4994-a099-fbe9a283da73","ios":"levelo://app?vid=e63d5272-3556-4994-a099-fbe9a283da73"},"vehicle_type_id":"4","last_reported":1705234316,"current_range_meters":9200,"station_id":"ce4bgt12rcd13ifvqcd0","pricing_plan_id":"free"},{"bike_id":"c796987e-2a92-4a99-9a83-4437a8090d64","system_id":"levelo_inurba_marseille","lat":43.314811,"lon":5.373103,"is_reserved":false,"is_disabled":false,"rental_uris":{"android":"levelo://app?vid=c796987e-2a92-4a99-9a83-4437a8090d64","ios":"levelo://app?vid=c796987e-2a92-4a99-9a83-4437a8090d64"},"vehicle_type_id":"4","last_reported":1705234316,"current_range_meters":29600,"station_id":"ce4bgt12rcd13ifvqcd0","pricing_plan_id":"free"},{"bike_id":"2ca470cd-7ec0-452b-89cf-2d7095c41c9d","system_id":"levelo_inurba_marseille","lat":43.314811,"lon":5.373103,"is_reserved":false,"is_disabled":false,"rental_uris":{"android":"levelo://app?vid=2ca470cd-7ec0-452b-89cf-2d7095c41c9d","ios":"levelo://app?vid=2ca470cd-7ec0-452b-89cf-2d7095c41c9d"},"vehicle_type_id":"4","last_reported":1705234316,"current_range_meters":27600,"station_id":"ce4bgt12rcd13ifvqcd0","pricing_plan_id":"free"},{"bike_id":"2751fe63-7b8e-4a23-aa70-8680c00ee2b6","system_id":"levelo_inurba_marseille","lat":43.310084,"lon":5.373111,"is_reserved":false,"is_disabled":false,"rental_uris":{"android":"levelo://app?vid=2751fe63-7b8e-4a23-aa70-8680c00ee2b6","ios":"levelo://app?vid=2751fe63-7b8e-4a23-aa70-8680c00ee2b6"},"vehicle_type_id":"4","last_reported":1705234316,"current_range_meters":12400,"station_id":"","pricing_plan_id":"free"},{"bike_id":"9c29885d-76da-4ae6-868e-e3ca5ea8c376","system_id":"levelo_inurba_marseille","lat":43.309039,"lon":5.371797,"is_reserved":false,"is_disabled":false,"rental_uris":{"android":"levelo://app?vid=9c29885d-76da-4ae6-868e-e3ca5ea8c376","ios":"levelo://app?vid=9c29885d-76da-4ae6-868e-e3ca5ea8c376"},"vehicle_type_id":"4","last_reported":1705234316,"current_range_meters":9200,"station_id":"ce4bguh2rcd13ifvqckg","pricing_plan_id":"free"},{"bike_id":"d25b8046-b98c-437d-b26f-93d08a0b4f7c","system_id":"levelo_inurba_marseille","lat":43.30561,"lon":5.36728,"is_reserved":false,"is_disabled":false,"rental_uris":{"android":"levelo://app?vid=d25b8046-b98c-437d-b26f-93d08a0b4f7c","ios":"levelo://app?vid=d25b8046-b98c-437d-b26f-93d08a0b4f7c"},"vehicle_type_id":"4","last_reported":1705234316,"current_range_meters":15200,"station_id":"ce4bgrp2rcd13ifvqc9g","pricing_plan_id":"free"},{"bike_id":"351c6265-8424-497c-862b-030c379e999f","system_id":"levelo_inurba_marseille","lat":43.30542,"lon":5.36713,"is_reserved":false,"is_disabled":false,"rental_uris":{"android":"levelo://app?vid=351c6265-8424-497c-862b-030c379e999f","ios":"levelo://app?vid=351c6265-8424-497c-862b-030c379e999f"},"vehicle_type_id":"4","last_reported":1705234316,"current_range_meters":25200,"station_id":"ce4bgrp2rcd13ifvqc9g","pricing_plan_id":"free"},{"bike_id":"2c64b4fb-ff72-442f-964b-f82d8d1471b5","system_id":"levelo_inurba_marseille","lat":43.30541,"lon":5.36704,"is_reserved":false,"is_disabled":false,"rental_uris":{"android":"levelo://app?vid=2c64b4fb-ff72-442f-964b-f82d8d1471b5","ios":"levelo://app?vid=2c64b4fb-ff72-442f-964b-f82d8d1471b5"},"vehicle_type_id":"4","last_reported":1705234316,"current_range_meters":14400,"station_id":"ce4bgrp2rcd13ifvqc9g","pricing_plan_id":"free"},{"bike_id":"410288db-a041-43d9-ae8c-7b3792a0042c","system_id":"levelo_inurba_marseille","lat":43.305712,"lon":5.365641,"is_reserved":false,"is_disabled":false,"rental_uris":{"android":"levelo://app?vid=410288db-a041-43d9-ae8c-7b3792a0042c","ios":"levelo://app?vid=410288db-a041-43d9-ae8c-7b3792a0042c"},"vehicle_type_id":"4","last_reported":1705234316,"current_range_meters":25600,"station_id":"ce4bgs12rcd13ifvqcag","pricing_plan_id":"free"},{"bike_id":"8451faff-efd5-45a6-987b-75e337c2d770","system_id":"levelo_inurba_marseille","lat":43.30538,"lon":5.36693,"is_reserved":false,"is_disabled":false,"rental_uris":{"android":"levelo://app?vid=8451faff-efd5-45a6-987b-75e337c2d770","ios":"levelo://app?vid=8451faff-efd5-45a6-987b-75e337c2d770"},"vehicle_type_id":"4","last_reported":1705234316,"current_range_meters":11600,"station_id":"ce4bgrp2rcd13ifvqc9g","pricing_plan_id":"free"},{"bike_id":"b242d693-22c4-428d-8048-87a683e41267","system_id":"levelo_inurba_marseille","lat":43.30537,"lon":5.36714,"is_reserved":false,"is_disabled":false,"rental_uris":{"android":"levelo://app?vid=b242d693-22c4-428d-8048-87a683e41267","ios":"levelo://app?vid=b242d693-22c4-428d-8048-87a683e41267"},"vehicle_type_id":"4","last_reported":1705234316,"current_range_meters":15200,"station_id":"ce4bgrp2rcd13ifvqc9g","pricing_plan_id":"free"},{"bike_id":"ac77108f-3e8f-4076-8761-37695139c3e9","system_id":"levelo_inurba_marseille","lat":43.305714,"lon":5.365633,"is_reserved":false,"is_disabled":false,"rental_uris":{"android":"levelo://app?vid=ac77108f-3e8f-4076-8761-37695139c3e9","ios":"levelo://app?vid=ac77108f-3e8f-4076-8761-37695139c3e9"},"vehicle_type_id":"4","last_reported":1705234316,"current_range_meters":31200,"station_id":"ce4bgs12rcd13ifvqcag","pricing_plan_id":"free"},{"bike_id":"5a180f71-c981-42f9-a3c9-f35f20efdf23","system_id":"levelo_inurba_marseille","lat":43.30529,"lon":5.36723,"is_reserved":false,"is_disabled":false,"rental_uris":{"android":"levelo://app?vid=5a180f71-c981-42f9-a3c9-f35f20efdf23","ios":"levelo://app?vid=5a180f71-c981-42f9-a3c9-f35f20efdf23"},"vehicle_type_id":"4","last_reported":1705234316,"current_range_meters":400,"station_id":"ce4bgrp2rcd13ifvqc9g","pricing_plan_id":"free"},{"bike_id":"2c6e7e3d-4322-4627-8aac-882b56984ddb","system_id":"levelo_inurba_marseille","lat":43.30528,"lon":5.367077,"is_reserved":false,"is_disabled":false,"rental_uris":{"android":"levelo://app?vid=2c6e7e3d-4322-4627-8aac-882b56984ddb","ios":"levelo://app?vid=2c6e7e3d-4322-4627-8aac-882b56984ddb"},"vehicle_type_id":"4","last_reported":1705234316,"current_range_meters":4400,"station_id":"ce4bgrp2rcd13ifvqc9g","pricing_plan_id":"free"},{"bike_id":"f8f77679-30bf-40da-b3fe-13cc51c3a5f4","system_id":"levelo_inurba_marseille","lat":43.305262,"lon":5.366963,"is_reserved":false,"is_disabled":false,"rental_uris":{"android":"levelo://app?vid=f8f77679-30bf-40da-b3fe-13cc51c3a5f4","ios":"levelo://app?vid=f8f77679-30bf-40da-b3fe-13cc51c3a5f4"},"vehicle_type_id":"4","last_reported":1705234316,"current_range_meters":21600,"station_id":"ce4bgrp2rcd13ifvqc9g","pricing_plan_id":"free"},{"bike_id":"91c067c1-e690-4e94-b09a-da9eae696d9e","system_id":"levelo_inurba_marseille","lat":43.30732,"lon":5.37401,"is_reserved":false,"is_disabled":false,"rental_uris":{"android":"levelo://app?vid=91c067c1-e690-4e94-b09a-da9eae696d9e","ios":"levelo://app?vid=91c067c1-e690-4e94-b09a-da9eae696d9e"},"vehicle_type_id":"4","last_reported":1705234316,"current_range_meters":18800,"station_id":"","pricing_plan_id":"free"},{"bike_id":"e54522b9-0689-40f2-a8c0-339a49c43823","system_id":"levelo_inurba_marseille","lat":43.305989,"lon":5.37225,"is_reserved":false,"is_disabled":false,"rental_uris":{"android":"levelo://app?vid=e54522b9-0689-40f2-a8c0-339a49c43823","ios":"levelo://app?vid=e54522b9-0689-40f2-a8c0-339a49c43823"},"vehicle_type_id":"4","last_reported":1705234316,"current_range_meters":28400,"station_id":"ce4bgqh2rcd13ifvqc4g","pricing_plan_id":"free"},{"bike_id":"ea6defd9-b5a1-4acd-813d-86cb62376669","system_id":"levelo_inurba_marseille","lat":43.311131,"lon":5.377651,"is_reserved":false,"is_disabled":false,"rental_uris":{"android":"levelo://app?vid=ea6defd9-b5a1-4acd-813d-86cb62376669","ios":"levelo://app?vid=ea6defd9-b5a1-4acd-813d-86cb62376669"},"vehicle_type_id":"4","last_reported":1705234316,"current_range_meters":27200,"station_id":"ce4bgt92rcd13ifvqcg0","pricing_plan_id":"free"},{"bike_id":"2198fa88-d8e0-456a-a725-810f69d1bc06","system_id":"levelo_inurba_marseille","lat":43.311131,"lon":5.377651,"is_reserved":false,"is_disabled":false,"rental_uris":{"android":"levelo://app?vid=2198fa88-d8e0-456a-a725-810f69d1bc06","ios":"levelo://app?vid=2198fa88-d8e0-456a-a725-810f69d1bc06"},"vehicle_type_id":"4","last_reported":1705234316,"current_range_meters":23200,"station_id":"ce4bgt92rcd13ifvqcg0","pricing_plan_id":"free"},{"bike_id":"fa464f6e-d045-44e0-9590-0813f126d7ff","system_id":"levelo_inurba_marseille","lat":43.307752,"lon":5.376514,"is_reserved":false,"is_disabled":false,"rental_uris":{"android":"levelo://app?vid=fa464f6e-d045-44e0-9590-0813f126d7ff","ios":"levelo://app?vid=fa464f6e-d045-44e0-9590-0813f126d7ff"},"vehicle_type_id":"4","last_reported":1705234316,"current_range_meters":31200,"station_id":"ce4bgv92rcd13ifvqcq0","pricing_plan_id":"free"},{"bike_id":"3df1aeb2-5fc0-4a69-9efe-db4ec8402d7e","system_id":"levelo_inurba_marseille","lat":43.317075,"lon":5.377367,"is_reserved":false,"is_disabled":false,"rental_uris":{"android":"levelo://app?vid=3df1aeb2-5fc0-4a69-9efe-db4ec8402d7e","ios":"levelo://app?vid=3df1aeb2-5fc0-4a69-9efe-db4ec8402d7e"},"vehicle_type_id":"4","last_reported":1705234316,"current_range_meters":23600,"station_id":"ce4bgth2rcd13ifvqch0","pricing_plan_id":"free"},{"bike_id":"562920bb-b653-4608-ac5f-df82f597db71","system_id":"levelo_inurba_marseille","lat":43.317075,"lon":5.377367,"is_reserved":false,"is_disabled":false,"rental_uris":{"android":"levelo://app?vid=562920bb-b653-4608-ac5f-df82f597db71","ios":"levelo://app?vid=562920bb-b653-4608-ac5f-df82f597db71"},"vehicle_type_id":"4","last_reported":1705234316,"current_range_meters":14400,"station_id":"ce4bgth2rcd13ifvqch0","pricing_plan_id":"free"},{"bike_id":"0d30a055-9523-4a34-bb78-0d459d25060b","system_id":"levelo_inurba_marseille","lat":43.317075,"lon":5.377367,"is_reserved":false,"is_disabled":false,"rental_uris":{"android":"levelo://app?vid=0d30a055-9523-4a34-bb78-0d459d25060b","ios":"levelo://app?vid=0d30a055-9523-4a34-bb78-0d459d25060b"},"vehicle_type_id":"4","last_reported":1705234316,"current_range_meters":29600,"station_id":"ce4bgth2rcd13ifvqch0","pricing_plan_id":"free"},{"bike_id":"97bd7398-771c-4173-9b6b-be098144f709","system_id":"levelo_inurba_marseille","lat":43.317075,"lon":5.377367,"is_reserved":false,"is_disabled":false,"rental_uris":{"android":"levelo://app?vid=97bd7398-771c-4173-9b6b-be098144f709","ios":"levelo://app?vid=97bd7398-771c-4173-9b6b-be098144f709"},"vehicle_type_id":"4","last_reported":1705234316,"current_range_meters":31200,"station_id":"ce4bgth2rcd13ifvqch0","pricing_plan_id":"free"},{"bike_id":"91c21cf4-a5c3-4ef0-a2b2-4cc452c3c652","system_id":"levelo_inurba_marseille","lat":43.317075,"lon":5.377367,"is_reserved":false,"is_disabled":false,"rental_uris":{"android":"levelo://app?vid=91c21cf4-a5c3-4ef0-a2b2-4cc452c3c652","ios":"levelo://app?vid=91c21cf4-a5c3-4ef0-a2b2-4cc452c3c652"},"vehicle_type_id":"4","last_reported":1705234316,"current_range_meters":25200,"station_id":"ce4bgth2rcd13ifvqch0","pricing_plan_id":"free"},{"bike_id":"accd7a6b-d05a-4179-a753-d9de3c829a2a","system_id":"levelo_inurba_marseille","lat":43.317075,"lon":5.377367,"is_reserved":false,"is_disabled":false,"rental_uris":{"android":"levelo://app?vid=accd7a6b-d05a-4179-a753-d9de3c829a2a","ios":"levelo://app?vid=accd7a6b-d05a-4179-a753-d9de3c829a2a"},"vehicle_type_id":"4","last_reported":1705234316,"current_range_meters":21600,"station_id":"ce4bgth2rcd13ifvqch0","pricing_plan_id":"free"},{"bike_id":"7952ed5c-eb27-43ef-91f0-7c8377791ff0","system_id":"levelo_inurba_marseille","lat":43.31266,"lon":5.379575,"is_reserved":false,"is_disabled":false,"rental_uris":{"android":"levelo://app?vid=7952ed5c-eb27-43ef-91f0-7c8377791ff0","ios":"levelo://app?vid=7952ed5c-eb27-43ef-91f0-7c8377791ff0"},"vehicle_type_id":"4","last_reported":1705234316,"current_range_meters":15200,"station_id":"","pricing_plan_id":"free"},{"bike_id":"a7b95a53-f2a2-4c44-981d-e97c06633c16","system_id":"levelo_inurba_marseille","lat":43.303138,"lon":5.369055,"is_reserved":false,"is_disabled":false,"rental_uris":{"android":"levelo://app?vid=a7b95a53-f2a2-4c44-981d-e97c06633c16","ios":"levelo://app?vid=a7b95a53-f2a2-4c44-981d-e97c06633c16"},"vehicle_type_id":"4","last_reported":1705234316,"current_range_meters":8800,"station_id":"ce4bgqh2rcd13ifvqc5g","pricing_plan_id":"free"},{"bike_id":"7136415c-eea4-4c6f-86e0-4df1b7c86802","system_id":"levelo_inurba_marseille","lat":43.30304,"lon":5.368987,"is_reserved":false,"is_disabled":false,"rental_uris":{"android":"levelo://app?vid=7136415c-eea4-4c6f-86e0-4df1b7c86802","ios":"levelo://app?vid=7136415c-eea4-4c6f-86e0-4df1b7c86802"},"vehicle_type_id":"4","last_reported":1705234316,"current_range_meters":6000,"station_id":"ce4bgqh2rcd13ifvqc5g","pricing_plan_id":"free"},{"bike_id":"988ad4c3-8cd2-4b0c-b76a-6d0f07176153","system_id":"levelo_inurba_marseille","lat":43.301939,"lon":5.366286,"is_reserved":false,"is_disabled":false,"rental_uris":{"android":"levelo://app?vid=988ad4c3-8cd2-4b0c-b76a-6d0f07176153","ios":"levelo://app?vid=988ad4c3-8cd2-4b0c-b76a-6d0f07176153"},"vehicle_type_id":"4","last_reported":1705234316,"current_range_meters":26800,"station_id":"ce4bgrh2rcd13ifvqc8g","pricing_plan_id":"free"},{"bike_id":"9a0a6085-e796-43c8-a82c-2681304de0dc","system_id":"levelo_inurba_marseille","lat":43.301939,"lon":5.366286,"is_reserved":false,"is_disabled":false,"rental_uris":{"android":"levelo://app?vid=9a0a6085-e796-43c8-a82c-2681304de0dc","ios":"levelo://app?vid=9a0a6085-e796-43c8-a82c-2681304de0dc"},"vehicle_type_id":"4","last_reported":1705234316,"current_range_meters":22000,"station_id":"ce4bgrh2rcd13ifvqc8g","pricing_plan_id":"free"},{"bike_id":"379158fd-5750-47ea-8b93-440bff13744b","system_id":"levelo_inurba_marseille","lat":43.30798,"lon":5.38161,"is_reserved":false,"is_disabled":false,"rental_uris":{"android":"levelo://app?vid=379158fd-5750-47ea-8b93-440bff13744b","ios":"levelo://app?vid=379158fd-5750-47ea-8b93-440bff13744b"},"vehicle_type_id":"4","last_reported":1705234316,"current_range_meters":16800,"station_id":"ce4bgt12rcd13ifvqce0","pricing_plan_id":"free"},{"bike_id":"e74db136-8f07-4273-9cd2-5fe375396289","system_id":"levelo_inurba_marseille","lat":43.304606,"lon":5.379026,"is_reserved":false,"is_disabled":false,"rental_uris":{"android":"levelo://app?vid=e74db136-8f07-4273-9cd2-5fe375396289","ios":"levelo://app?vid=e74db136-8f07-4273-9cd2-5fe375396289"},"vehicle_type_id":"4","last_reported":1705234316,"current_range_meters":30800,"station_id":"ce4bgup2rcd13ifvqcn0","pricing_plan_id":"free"},{"bike_id":"1cf86c4e-2598-4ec1-9cc3-03d5eaf6ca24","system_id":"levelo_inurba_marseille","lat":43.304606,"lon":5.379026,"is_reserved":false,"is_disabled":false,"rental_uris":{"android":"levelo://app?vid=1cf86c4e-2598-4ec1-9cc3-03d5eaf6ca24","ios":"levelo://app?vid=1cf86c4e-2598-4ec1-9cc3-03d5eaf6ca24"},"vehicle_type_id":"4","last_reported":1705234316,"current_range_meters":4000,"station_id":"ce4bgup2rcd13ifvqcn0","pricing_plan_id":"free"},{"bike_id":"9b03cb66-c14c-46f3-bee9-4cc7cbc13130","system_id":"levelo_inurba_marseille","lat":43.30464,"lon":5.37903,"is_reserved":false,"is_disabled":false,"rental_uris":{"android":"levelo://app?vid=9b03cb66-c14c-46f3-bee9-4cc7cbc13130","ios":"levelo://app?vid=9b03cb66-c14c-46f3-bee9-4cc7cbc13130"},"vehicle_type_id":"4","last_reported":1705234316,"current_range_meters":31200,"station_id":"ce4bgup2rcd13ifvqcn0","pricing_plan_id":"free"},{"bike_id":"dac51d9f-2fcc-4daa-9e7e-ae793fac276d","system_id":"levelo_inurba_marseille","lat":43.304606,"lon":5.379026,"is_reserved":false,"is_disabled":false,"rental_uris":{"android":"levelo://app?vid=dac51d9f-2fcc-4daa-9e7e-ae793fac276d","ios":"levelo://app?vid=dac51d9f-2fcc-4daa-9e7e-ae793fac276d"},"vehicle_type_id":"4","last_reported":1705234316,"current_range_meters":7600,"station_id":"ce4bgup2rcd13ifvqcn0","pricing_plan_id":"free"},{"bike_id":"a722ebf7-be83-41e9-ad05-2e0421382a80","system_id":"levelo_inurba_marseille","lat":43.30461,"lon":5.379042,"is_reserved":false,"is_disabled":false,"rental_uris":{"android":"levelo://app?vid=a722ebf7-be83-41e9-ad05-2e0421382a80","ios":"levelo://app?vid=a722ebf7-be83-41e9-ad05-2e0421382a80"},"vehicle_type_id":"4","last_reported":1705234316,"current_range_meters":30000,"station_id":"ce4bgup2rcd13ifvqcn0","pricing_plan_id":"free"},{"bike_id":"aa966c46-e8e2-45e3-9073-82909a3bdfcc","system_id":"levelo_inurba_marseille","lat":43.304606,"lon":5.379026,"is_reserved":false,"is_disabled":false,"rental_uris":{"android":"levelo://app?vid=aa966c46-e8e2-45e3-9073-82909a3bdfcc","ios":"levelo://app?vid=aa966c46-e8e2-45e3-9073-82909a3bdfcc"},"vehicle_type_id":"4","last_reported":1705234316,"current_range_meters":18800,"station_id":"ce4bgup2rcd13ifvqcn0","pricing_plan_id":"free"},{"bike_id":"8a311264-37a0-4bab-92c3-bacec91b91d6","system_id":"levelo_inurba_marseille","lat":43.304606,"lon":5.379026,"is_reserved":false,"is_disabled":false,"rental_uris":{"android":"levelo://app?vid=8a311264-37a0-4bab-92c3-bacec91b91d6","ios":"levelo://app?vid=8a311264-37a0-4bab-92c3-bacec91b91d6"},"vehicle_type_id":"4","last_reported":1705234316,"current_range_meters":8400,"station_id":"ce4bgup2rcd13ifvqcn0","pricing_plan_id":"free"},{"bike_id":"0db49e50-de55-4a1c-bac0-3439f2102ec5","system_id":"levelo_inurba_marseille","lat":43.304606,"lon":5.379026,"is_reserved":false,"is_disabled":false,"rental_uris":{"android":"levelo://app?vid=0db49e50-de55-4a1c-bac0-3439f2102ec5","ios":"levelo://app?vid=0db49e50-de55-4a1c-bac0-3439f2102ec5"},"vehicle_type_id":"4","last_reported":1705234316,"current_range_meters":9200,"station_id":"ce4bgup2rcd13ifvqcn0","pricing_plan_id":"free"},{"bike_id":"390a6a11-5e14-4ba9-a6b1-055887c7ee17","system_id":"levelo_inurba_marseille","lat":43.304606,"lon":5.379026,"is_reserved":false,"is_disabled":false,"rental_uris":{"android":"levelo://app?vid=390a6a11-5e14-4ba9-a6b1-055887c7ee17","ios":"levelo://app?vid=390a6a11-5e14-4ba9-a6b1-055887c7ee17"},"vehicle_type_id":"4","last_reported":1705234316,"current_range_meters":0,"station_id":"ce4bgup2rcd13ifvqcn0","pricing_plan_id":"free"},{"bike_id":"3794cf0e-2a38-4cd3-87af-8d5e351ab54d","system_id":"levelo_inurba_marseille","lat":43.304606,"lon":5.379026,"is_reserved":false,"is_disabled":false,"rental_uris":{"android":"levelo://app?vid=3794cf0e-2a38-4cd3-87af-8d5e351ab54d","ios":"levelo://app?vid=3794cf0e-2a38-4cd3-87af-8d5e351ab54d"},"vehicle_type_id":"4","last_reported":1705234316,"current_range_meters":24400,"station_id":"ce4bgup2rcd13ifvqcn0","pricing_plan_id":"free"},{"bike_id":"b69ef8b4-5a67-441e-8571-ebc7c21bb82e","system_id":"levelo_inurba_marseille","lat":43.30446,"lon":5.379005,"is_reserved":false,"is_disabled":false,"rental_uris":{"android":"levelo://app?vid=b69ef8b4-5a67-441e-8571-ebc7c21bb82e","ios":"levelo://app?vid=b69ef8b4-5a67-441e-8571-ebc7c21bb82e"},"vehicle_type_id":"4","last_reported":1705234316,"current_range_meters":8800,"station_id":"ce4bgup2rcd13ifvqcn0","pricing_plan_id":"free"},{"bike_id":"0bbe5a65-d2d8-4186-a205-dcf06b248c1c","system_id":"levelo_inurba_marseille","lat":43.324771,"lon":5.36557,"is_reserved":false,"is_disabled":false,"rental_uris":{"android":"levelo://app?vid=0bbe5a65-d2d8-4186-a205-dcf06b248c1c","ios":"levelo://app?vid=0bbe5a65-d2d8-4186-a205-dcf06b248c1c"},"vehicle_type_id":"4","last_reported":1705234316,"current_range_meters":26800,"station_id":"ce4bhs12rcd13ifvqhvg","pricing_plan_id":"free"},{"bike_id":"f84f59aa-9755-4cff-b94f-3aaeb709a4a2","system_id":"levelo_inurba_marseille","lat":43.324771,"lon":5.36557,"is_reserved":false,"is_disabled":false,"rental_uris":{"android":"levelo://app?vid=f84f59aa-9755-4cff-b94f-3aaeb709a4a2","ios":"levelo://app?vid=f84f59aa-9755-4cff-b94f-3aaeb709a4a2"},"vehicle_type_id":"4","last_reported":1705234316,"current_range_meters":19600,"station_id":"ce4bhs12rcd13ifvqhvg","pricing_plan_id":"free"},{"bike_id":"a4aef04a-e8f8-49ad-a142-6168476496eb","system_id":"levelo_inurba_marseille","lat":43.302651,"lon":5.377125,"is_reserved":false,"is_disabled":false,"rental_uris":{"android":"levelo://app?vid=a4aef04a-e8f8-49ad-a142-6168476496eb","ios":"levelo://app?vid=a4aef04a-e8f8-49ad-a142-6168476496eb"},"vehicle_type_id":"4","last_reported":1705234316,"current_range_meters":23600,"station_id":"","pricing_plan_id":"free"},{"bike_id":"92cc4b57-270b-464d-b26a-26ee5518d10a","system_id":"levelo_inurba_marseille","lat":43.301429,"lon":5.37413,"is_reserved":false,"is_disabled":false,"rental_uris":{"android":"levelo://app?vid=92cc4b57-270b-464d-b26a-26ee5518d10a","ios":"levelo://app?vid=92cc4b57-270b-464d-b26a-26ee5518d10a"},"vehicle_type_id":"4","last_reported":1705234316,"current_range_meters":9600,"station_id":"ce4bgs92rcd13ifvqcc0","pricing_plan_id":"free"},{"bike_id":"a19f6e80-fe75-4abd-a1d3-e6316e2762ed","system_id":"levelo_inurba_marseille","lat":43.301429,"lon":5.37413,"is_reserved":false,"is_disabled":false,"rental_uris":{"android":"levelo://app?vid=a19f6e80-fe75-4abd-a1d3-e6316e2762ed","ios":"levelo://app?vid=a19f6e80-fe75-4abd-a1d3-e6316e2762ed"},"vehicle_type_id":"4","last_reported":1705234316,"current_range_meters":26000,"station_id":"ce4bgs92rcd13ifvqcc0","pricing_plan_id":"free"},{"bike_id":"41764f75-bafe-4d75-9fff-4b8ac1b89701","system_id":"levelo_inurba_marseille","lat":43.319933,"lon":5.381542,"is_reserved":false,"is_disabled":false,"rental_uris":{"android":"levelo://app?vid=41764f75-bafe-4d75-9fff-4b8ac1b89701","ios":"levelo://app?vid=41764f75-bafe-4d75-9fff-4b8ac1b89701"},"vehicle_type_id":"4","last_reported":1705234316,"current_range_meters":22000,"station_id":"ce4bhr12rcd13ifvqhpg","pricing_plan_id":"free"},{"bike_id":"f4a9450b-cf82-4fb7-9b51-4b1bc6eb09e5","system_id":"levelo_inurba_marseille","lat":43.313571,"lon":5.384829,"is_reserved":false,"is_disabled":false,"rental_uris":{"android":"levelo://app?vid=f4a9450b-cf82-4fb7-9b51-4b1bc6eb09e5","ios":"levelo://app?vid=f4a9450b-cf82-4fb7-9b51-4b1bc6eb09e5"},"vehicle_type_id":"4","last_reported":1705234316,"current_range_meters":16000,"station_id":"ce4bgt92rcd13ifvqcf0","pricing_plan_id":"free"},{"bike_id":"524ffbd3-e8b7-4305-b15d-849e1de9818b","system_id":"levelo_inurba_marseille","lat":43.313571,"lon":5.384829,"is_reserved":false,"is_disabled":false,"rental_uris":{"android":"levelo://app?vid=524ffbd3-e8b7-4305-b15d-849e1de9818b","ios":"levelo://app?vid=524ffbd3-e8b7-4305-b15d-849e1de9818b"},"vehicle_type_id":"4","last_reported":1705234316,"current_range_meters":27600,"station_id":"ce4bgt92rcd13ifvqcf0","pricing_plan_id":"free"},{"bike_id":"960a85df-d210-4c1b-a5ac-45ac565dffff","system_id":"levelo_inurba_marseille","lat":43.313571,"lon":5.384829,"is_reserved":false,"is_disabled":false,"rental_uris":{"android":"levelo://app?vid=960a85df-d210-4c1b-a5ac-45ac565dffff","ios":"levelo://app?vid=960a85df-d210-4c1b-a5ac-45ac565dffff"},"vehicle_type_id":"4","last_reported":1705234316,"current_range_meters":24400,"station_id":"ce4bgt92rcd13ifvqcf0","pricing_plan_id":"free"},{"bike_id":"48ccad1d-9e1a-4ef5-bc09-e7ad41b1fdcf","system_id":"levelo_inurba_marseille","lat":43.29971,"lon":5.37174,"is_reserved":false,"is_disabled":false,"rental_uris":{"android":"levelo://app?vid=48ccad1d-9e1a-4ef5-bc09-e7ad41b1fdcf","ios":"levelo://app?vid=48ccad1d-9e1a-4ef5-bc09-e7ad41b1fdcf"},"vehicle_type_id":"4","last_reported":1705234316,"current_range_meters":26800,"station_id":"ce4bgr92rcd13ifvqc7g","pricing_plan_id":"free"},{"bike_id":"85b0c813-b056-46ad-bf83-d9aa12fb4cb5","system_id":"levelo_inurba_marseille","lat":43.29968,"lon":5.37183,"is_reserved":false,"is_disabled":false,"rental_uris":{"android":"levelo://app?vid=85b0c813-b056-46ad-bf83-d9aa12fb4cb5","ios":"levelo://app?vid=85b0c813-b056-46ad-bf83-d9aa12fb4cb5"},"vehicle_type_id":"4","last_reported":1705234316,"current_range_meters":27600,"station_id":"ce4bgr92rcd13ifvqc7g","pricing_plan_id":"free"},{"bike_id":"46ac3942-adce-4331-aa00-6a725ada31a9","system_id":"levelo_inurba_marseille","lat":43.300327,"lon":5.374409,"is_reserved":false,"is_disabled":false,"rental_uris":{"android":"levelo://app?vid=46ac3942-adce-4331-aa00-6a725ada31a9","ios":"levelo://app?vid=46ac3942-adce-4331-aa00-6a725ada31a9"},"vehicle_type_id":"4","last_reported":1705234316,"current_range_meters":22000,"station_id":"","pricing_plan_id":"free"},{"bike_id":"7568b06e-55ca-45b4-b8ac-c39d771126dd","system_id":"levelo_inurba_marseille","lat":43.30021,"lon":5.37439,"is_reserved":false,"is_disabled":false,"rental_uris":{"android":"levelo://app?vid=7568b06e-55ca-45b4-b8ac-c39d771126dd","ios":"levelo://app?vid=7568b06e-55ca-45b4-b8ac-c39d771126dd"},"vehicle_type_id":"4","last_reported":1705234316,"current_range_meters":11600,"station_id":"","pricing_plan_id":"free"},{"bike_id":"d690a822-dabc-4c7b-b832-b65464db7e8a","system_id":"levelo_inurba_marseille","lat":43.298433,"lon":5.362774,"is_reserved":false,"is_disabled":false,"rental_uris":{"android":"levelo://app?vid=d690a822-dabc-4c7b-b832-b65464db7e8a","ios":"levelo://app?vid=d690a822-dabc-4c7b-b832-b65464db7e8a"},"vehicle_type_id":"4","last_reported":1705234316,"current_range_meters":27200,"station_id":"ce4bgpp2rcd13ifvqc3g","pricing_plan_id":"free"},{"bike_id":"e0b2731f-8ed0-4edb-8a78-c9030856498d","system_id":"levelo_inurba_marseille","lat":43.298433,"lon":5.362774,"is_reserved":false,"is_disabled":false,"rental_uris":{"android":"levelo://app?vid=e0b2731f-8ed0-4edb-8a78-c9030856498d","ios":"levelo://app?vid=e0b2731f-8ed0-4edb-8a78-c9030856498d"},"vehicle_type_id":"4","last_reported":1705234316,"current_range_meters":16800,"station_id":"ce4bgpp2rcd13ifvqc3g","pricing_plan_id":"free"},{"bike_id":"de52cd98-a2d4-4c43-84bc-6687663f3e82","system_id":"levelo_inurba_marseille","lat":43.305364,"lon":5.384119,"is_reserved":false,"is_disabled":false,"rental_uris":{"android":"levelo://app?vid=de52cd98-a2d4-4c43-84bc-6687663f3e82","ios":"levelo://app?vid=de52cd98-a2d4-4c43-84bc-6687663f3e82"},"vehicle_type_id":"4","last_reported":1705234316,"current_range_meters":24000,"station_id":"ce4bgg92rcd13ifvqb30","pricing_plan_id":"free"},{"bike_id":"40b51c86-6ad8-409d-9f97-30dc6591cba0","system_id":"levelo_inurba_marseille","lat":43.305364,"lon":5.384119,"is_reserved":false,"is_disabled":false,"rental_uris":{"android":"levelo://app?vid=40b51c86-6ad8-409d-9f97-30dc6591cba0","ios":"levelo://app?vid=40b51c86-6ad8-409d-9f97-30dc6591cba0"},"vehicle_type_id":"4","last_reported":1705234316,"current_range_meters":28000,"station_id":"ce4bgg92rcd13ifvqb30","pricing_plan_id":"free"},{"bike_id":"d68a982c-b8ad-4284-b7de-3e1e2ca13bc5","system_id":"levelo_inurba_marseille","lat":43.298433,"lon":5.362774,"is_reserved":false,"is_disabled":false,"rental_uris":{"android":"levelo://app?vid=d68a982c-b8ad-4284-b7de-3e1e2ca13bc5","ios":"levelo://app?vid=d68a982c-b8ad-4284-b7de-3e1e2ca13bc5"},"vehicle_type_id":"4","last_reported":1705234316,"current_range_meters":16000,"station_id":"ce4bgpp2rcd13ifvqc3g","pricing_plan_id":"free"},{"bike_id":"9efb76b6-988d-4cd1-b5ab-259465c8cc00","system_id":"levelo_inurba_marseille","lat":43.298433,"lon":5.362774,"is_reserved":false,"is_disabled":false,"rental_uris":{"android":"levelo://app?vid=9efb76b6-988d-4cd1-b5ab-259465c8cc00","ios":"levelo://app?vid=9efb76b6-988d-4cd1-b5ab-259465c8cc00"},"vehicle_type_id":"4","last_reported":1705234316,"current_range_meters":29200,"station_id":"ce4bgpp2rcd13ifvqc3g","pricing_plan_id":"free"},{"bike_id":"9e19db93-2173-49e0-9767-ecb5bec505b7","system_id":"levelo_inurba_marseille","lat":43.298433,"lon":5.362774,"is_reserved":false,"is_disabled":false,"rental_uris":{"android":"levelo://app?vid=9e19db93-2173-49e0-9767-ecb5bec505b7","ios":"levelo://app?vid=9e19db93-2173-49e0-9767-ecb5bec505b7"},"vehicle_type_id":"4","last_reported":1705234316,"current_range_meters":26800,"station_id":"ce4bgpp2rcd13ifvqc3g","pricing_plan_id":"free"},{"bike_id":"8952d5f0-a86a-43dc-89fb-9fceba00672b","system_id":"levelo_inurba_marseille","lat":43.299243,"lon":5.37481,"is_reserved":false,"is_disabled":false,"rental_uris":{"android":"levelo://app?vid=8952d5f0-a86a-43dc-89fb-9fceba00672b","ios":"levelo://app?vid=8952d5f0-a86a-43dc-89fb-9fceba00672b"},"vehicle_type_id":"4","last_reported":1705234316,"current_range_meters":23200,"station_id":"ce4bgjh2rcd13ifvqbg0","pricing_plan_id":"free"},{"bike_id":"0251da31-34a4-49cc-9a36-26757b42fd0d","system_id":"levelo_inurba_marseille","lat":43.299243,"lon":5.374807,"is_reserved":false,"is_disabled":false,"rental_uris":{"android":"levelo://app?vid=0251da31-34a4-49cc-9a36-26757b42fd0d","ios":"levelo://app?vid=0251da31-34a4-49cc-9a36-26757b42fd0d"},"vehicle_type_id":"4","last_reported":1705234316,"current_range_meters":28000,"station_id":"ce4bgjh2rcd13ifvqbg0","pricing_plan_id":"free"},{"bike_id":"14560415-1995-4a8e-aef9-07438db85f60","system_id":"levelo_inurba_marseille","lat":43.29791,"lon":5.37094,"is_reserved":false,"is_disabled":false,"rental_uris":{"android":"levelo://app?vid=14560415-1995-4a8e-aef9-07438db85f60","ios":"levelo://app?vid=14560415-1995-4a8e-aef9-07438db85f60"},"vehicle_type_id":"4","last_reported":1705234316,"current_range_meters":8000,"station_id":"ce4bgop2rcd13ifvqc1g","pricing_plan_id":"free"},{"bike_id":"504c2dc7-7032-4760-bf34-5c37d36f9d2c","system_id":"levelo_inurba_marseille","lat":43.297923,"lon":5.371051,"is_reserved":false,"is_disabled":false,"rental_uris":{"android":"levelo://app?vid=504c2dc7-7032-4760-bf34-5c37d36f9d2c","ios":"levelo://app?vid=504c2dc7-7032-4760-bf34-5c37d36f9d2c"},"vehicle_type_id":"4","last_reported":1705234316,"current_range_meters":31200,"station_id":"ce4bgop2rcd13ifvqc1g","pricing_plan_id":"free"},{"bike_id":"7c060427-c45f-4611-b5cf-cf017aa69797","system_id":"levelo_inurba_marseille","lat":43.297794,"lon":5.370888,"is_reserved":false,"is_disabled":false,"rental_uris":{"android":"levelo://app?vid=7c060427-c45f-4611-b5cf-cf017aa69797","ios":"levelo://app?vid=7c060427-c45f-4611-b5cf-cf017aa69797"},"vehicle_type_id":"4","last_reported":1705234316,"current_range_meters":24000,"station_id":"ce4bgop2rcd13ifvqc1g","pricing_plan_id":"free"},{"bike_id":"30ed8c61-e85c-4945-8704-e09dee0b4239","system_id":"levelo_inurba_marseille","lat":43.297794,"lon":5.370888,"is_reserved":false,"is_disabled":false,"rental_uris":{"android":"levelo://app?vid=30ed8c61-e85c-4945-8704-e09dee0b4239","ios":"levelo://app?vid=30ed8c61-e85c-4945-8704-e09dee0b4239"},"vehicle_type_id":"4","last_reported":1705234316,"current_range_meters":30400,"station_id":"ce4bgop2rcd13ifvqc1g","pricing_plan_id":"free"},{"bike_id":"e0b40d12-d3f7-45ca-8a7c-5e95af836ee9","system_id":"levelo_inurba_marseille","lat":43.297794,"lon":5.370888,"is_reserved":false,"is_disabled":false,"rental_uris":{"android":"levelo://app?vid=e0b40d12-d3f7-45ca-8a7c-5e95af836ee9","ios":"levelo://app?vid=e0b40d12-d3f7-45ca-8a7c-5e95af836ee9"},"vehicle_type_id":"4","last_reported":1705234316,"current_range_meters":14800,"station_id":"ce4bgop2rcd13ifvqc1g","pricing_plan_id":"free"},{"bike_id":"968203c0-bfeb-47e3-9245-c6e175444a1f","system_id":"levelo_inurba_marseille","lat":43.297832,"lon":5.371001,"is_reserved":false,"is_disabled":false,"rental_uris":{"android":"levelo://app?vid=968203c0-bfeb-47e3-9245-c6e175444a1f","ios":"levelo://app?vid=968203c0-bfeb-47e3-9245-c6e175444a1f"},"vehicle_type_id":"4","last_reported":1705234316,"current_range_meters":28000,"station_id":"ce4bgop2rcd13ifvqc1g","pricing_plan_id":"free"},{"bike_id":"e4af4a1c-e7e9-4ebf-8698-aa8c75a85cfa","system_id":"levelo_inurba_marseille","lat":43.297786,"lon":5.371105,"is_reserved":false,"is_disabled":false,"rental_uris":{"android":"levelo://app?vid=e4af4a1c-e7e9-4ebf-8698-aa8c75a85cfa","ios":"levelo://app?vid=e4af4a1c-e7e9-4ebf-8698-aa8c75a85cfa"},"vehicle_type_id":"4","last_reported":1705234316,"current_range_meters":26000,"station_id":"ce4bgop2rcd13ifvqc1g","pricing_plan_id":"free"},{"bike_id":"8601e953-0fde-4f75-9a24-efb2d2e6234f","system_id":"levelo_inurba_marseille","lat":43.322872,"lon":5.382756,"is_reserved":false,"is_disabled":false,"rental_uris":{"android":"levelo://app?vid=8601e953-0fde-4f75-9a24-efb2d2e6234f","ios":"levelo://app?vid=8601e953-0fde-4f75-9a24-efb2d2e6234f"},"vehicle_type_id":"4","last_reported":1705234316,"current_range_meters":29200,"station_id":"ce4bhr12rcd13ifvqhqg","pricing_plan_id":"free"},{"bike_id":"34c8b400-5074-46e3-aa02-f5d274dfaa4f","system_id":"levelo_inurba_marseille","lat":43.32286,"lon":5.38266,"is_reserved":false,"is_disabled":false,"rental_uris":{"android":"levelo://app?vid=34c8b400-5074-46e3-aa02-f5d274dfaa4f","ios":"levelo://app?vid=34c8b400-5074-46e3-aa02-f5d274dfaa4f"},"vehicle_type_id":"4","last_reported":1705234316,"current_range_meters":29200,"station_id":"ce4bhr12rcd13ifvqhqg","pricing_plan_id":"free"},{"bike_id":"3a46592c-9142-46ce-8556-a80e672a6412","system_id":"levelo_inurba_marseille","lat":43.32285,"lon":5.38269,"is_reserved":false,"is_disabled":false,"rental_uris":{"android":"levelo://app?vid=3a46592c-9142-46ce-8556-a80e672a6412","ios":"levelo://app?vid=3a46592c-9142-46ce-8556-a80e672a6412"},"vehicle_type_id":"4","last_reported":1705234316,"current_range_meters":9600,"station_id":"ce4bhr12rcd13ifvqhqg","pricing_plan_id":"free"},{"bike_id":"e4cad359-bf16-42a6-b7ad-19b9dba9592b","system_id":"levelo_inurba_marseille","lat":43.32295,"lon":5.38272,"is_reserved":false,"is_disabled":false,"rental_uris":{"android":"levelo://app?vid=e4cad359-bf16-42a6-b7ad-19b9dba9592b","ios":"levelo://app?vid=e4cad359-bf16-42a6-b7ad-19b9dba9592b"},"vehicle_type_id":"4","last_reported":1705234316,"current_range_meters":20400,"station_id":"ce4bhr12rcd13ifvqhqg","pricing_plan_id":"free"},{"bike_id":"bcb437fd-6cf8-43ec-94d7-f712e0948c37","system_id":"levelo_inurba_marseille","lat":43.322872,"lon":5.382756,"is_reserved":false,"is_disabled":false,"rental_uris":{"android":"levelo://app?vid=bcb437fd-6cf8-43ec-94d7-f712e0948c37","ios":"levelo://app?vid=bcb437fd-6cf8-43ec-94d7-f712e0948c37"},"vehicle_type_id":"4","last_reported":1705234316,"current_range_meters":17200,"station_id":"ce4bhr12rcd13ifvqhqg","pricing_plan_id":"free"},{"bike_id":"50f4fc00-cc4b-496c-bc89-2f47ec063b56","system_id":"levelo_inurba_marseille","lat":43.32821,"lon":5.36688,"is_reserved":false,"is_disabled":false,"rental_uris":{"android":"levelo://app?vid=50f4fc00-cc4b-496c-bc89-2f47ec063b56","ios":"levelo://app?vid=50f4fc00-cc4b-496c-bc89-2f47ec063b56"},"vehicle_type_id":"4","last_reported":1705234316,"current_range_meters":23200,"station_id":"ce4bhs92rcd13ifvqi0g","pricing_plan_id":"free"},{"bike_id":"f1f5c9e9-fca7-4038-b7a3-24ef01457c80","system_id":"levelo_inurba_marseille","lat":43.32821,"lon":5.36684,"is_reserved":false,"is_disabled":false,"rental_uris":{"android":"levelo://app?vid=f1f5c9e9-fca7-4038-b7a3-24ef01457c80","ios":"levelo://app?vid=f1f5c9e9-fca7-4038-b7a3-24ef01457c80"},"vehicle_type_id":"4","last_reported":1705234316,"current_range_meters":12400,"station_id":"ce4bhs92rcd13ifvqi0g","pricing_plan_id":"free"},{"bike_id":"be5c14c2-d069-4824-b2b4-323fba6ab1b5","system_id":"levelo_inurba_marseille","lat":43.32823,"lon":5.36675,"is_reserved":false,"is_disabled":false,"rental_uris":{"android":"levelo://app?vid=be5c14c2-d069-4824-b2b4-323fba6ab1b5","ios":"levelo://app?vid=be5c14c2-d069-4824-b2b4-323fba6ab1b5"},"vehicle_type_id":"4","last_reported":1705234316,"current_range_meters":18800,"station_id":"ce4bhs92rcd13ifvqi0g","pricing_plan_id":"free"},{"bike_id":"19cd95f7-dff2-4b5a-a245-aededa24213f","system_id":"levelo_inurba_marseille","lat":43.328233,"lon":5.366827,"is_reserved":false,"is_disabled":false,"rental_uris":{"android":"levelo://app?vid=19cd95f7-dff2-4b5a-a245-aededa24213f","ios":"levelo://app?vid=19cd95f7-dff2-4b5a-a245-aededa24213f"},"vehicle_type_id":"4","last_reported":1705234316,"current_range_meters":1600,"station_id":"ce4bhs92rcd13ifvqi0g","pricing_plan_id":"free"},{"bike_id":"61e4ace2-9cc0-4768-9210-480b9c49e674","system_id":"levelo_inurba_marseille","lat":43.32824,"lon":5.36691,"is_reserved":false,"is_disabled":false,"rental_uris":{"android":"levelo://app?vid=61e4ace2-9cc0-4768-9210-480b9c49e674","ios":"levelo://app?vid=61e4ace2-9cc0-4768-9210-480b9c49e674"},"vehicle_type_id":"4","last_reported":1705234316,"current_range_meters":8800,"station_id":"ce4bhs92rcd13ifvqi0g","pricing_plan_id":"free"},{"bike_id":"ea0178f3-2c6b-4af6-b062-91b0b8dde1df","system_id":"levelo_inurba_marseille","lat":43.32824,"lon":5.36689,"is_reserved":false,"is_disabled":false,"rental_uris":{"android":"levelo://app?vid=ea0178f3-2c6b-4af6-b062-91b0b8dde1df","ios":"levelo://app?vid=ea0178f3-2c6b-4af6-b062-91b0b8dde1df"},"vehicle_type_id":"4","last_reported":1705234316,"current_range_meters":20800,"station_id":"ce4bhs92rcd13ifvqi0g","pricing_plan_id":"free"},{"bike_id":"eb82efee-7e46-4cef-a643-d731882b95f4","system_id":"levelo_inurba_marseille","lat":43.328241,"lon":5.366749,"is_reserved":false,"is_disabled":false,"rental_uris":{"android":"levelo://app?vid=eb82efee-7e46-4cef-a643-d731882b95f4","ios":"levelo://app?vid=eb82efee-7e46-4cef-a643-d731882b95f4"},"vehicle_type_id":"4","last_reported":1705234316,"current_range_meters":24000,"station_id":"ce4bhs92rcd13ifvqi0g","pricing_plan_id":"free"},{"bike_id":"947a5c0b-0299-4cd2-aecd-5f351114aaf8","system_id":"levelo_inurba_marseille","lat":43.32825,"lon":5.36679,"is_reserved":false,"is_disabled":false,"rental_uris":{"android":"levelo://app?vid=947a5c0b-0299-4cd2-aecd-5f351114aaf8","ios":"levelo://app?vid=947a5c0b-0299-4cd2-aecd-5f351114aaf8"},"vehicle_type_id":"4","last_reported":1705234316,"current_range_meters":10400,"station_id":"ce4bhs92rcd13ifvqi0g","pricing_plan_id":"free"},{"bike_id":"5cbbb75a-93f9-4ed5-9b09-afac9938974f","system_id":"levelo_inurba_marseille","lat":43.32826,"lon":5.36692,"is_reserved":false,"is_disabled":false,"rental_uris":{"android":"levelo://app?vid=5cbbb75a-93f9-4ed5-9b09-afac9938974f","ios":"levelo://app?vid=5cbbb75a-93f9-4ed5-9b09-afac9938974f"},"vehicle_type_id":"4","last_reported":1705234316,"current_range_meters":18400,"station_id":"ce4bhs92rcd13ifvqi0g","pricing_plan_id":"free"},{"bike_id":"5c00e44c-9bf2-41cb-97d7-344e203d927e","system_id":"levelo_inurba_marseille","lat":43.32826,"lon":5.36696,"is_reserved":false,"is_disabled":false,"rental_uris":{"android":"levelo://app?vid=5c00e44c-9bf2-41cb-97d7-344e203d927e","ios":"levelo://app?vid=5c00e44c-9bf2-41cb-97d7-344e203d927e"},"vehicle_type_id":"4","last_reported":1705234316,"current_range_meters":27200,"station_id":"ce4bhs92rcd13ifvqi0g","pricing_plan_id":"free"},{"bike_id":"546834d2-cf77-404f-94a2-ca0cd6e77634","system_id":"levelo_inurba_marseille","lat":43.32826,"lon":5.36686,"is_reserved":false,"is_disabled":false,"rental_uris":{"android":"levelo://app?vid=546834d2-cf77-404f-94a2-ca0cd6e77634","ios":"levelo://app?vid=546834d2-cf77-404f-94a2-ca0cd6e77634"},"vehicle_type_id":"4","last_reported":1705234316,"current_range_meters":7600,"station_id":"ce4bhs92rcd13ifvqi0g","pricing_plan_id":"free"},{"bike_id":"85cedcff-9e9a-415d-8415-195178ea3cb7","system_id":"levelo_inurba_marseille","lat":43.328266,"lon":5.366822,"is_reserved":false,"is_disabled":false,"rental_uris":{"android":"levelo://app?vid=85cedcff-9e9a-415d-8415-195178ea3cb7","ios":"levelo://app?vid=85cedcff-9e9a-415d-8415-195178ea3cb7"},"vehicle_type_id":"4","last_reported":1705234316,"current_range_meters":12000,"station_id":"ce4bhs92rcd13ifvqi0g","pricing_plan_id":"free"},{"bike_id":"09621f87-561a-4138-9bcf-5568c59432a9","system_id":"levelo_inurba_marseille","lat":43.32827,"lon":5.36683,"is_reserved":false,"is_disabled":false,"rental_uris":{"android":"levelo://app?vid=09621f87-561a-4138-9bcf-5568c59432a9","ios":"levelo://app?vid=09621f87-561a-4138-9bcf-5568c59432a9"},"vehicle_type_id":"4","last_reported":1705234316,"current_range_meters":15200,"station_id":"ce4bhs92rcd13ifvqi0g","pricing_plan_id":"free"},{"bike_id":"ebd1c3ae-d840-4cf1-b3ce-5dbd8e760142","system_id":"levelo_inurba_marseille","lat":43.32827,"lon":5.36675,"is_reserved":false,"is_disabled":false,"rental_uris":{"android":"levelo://app?vid=ebd1c3ae-d840-4cf1-b3ce-5dbd8e760142","ios":"levelo://app?vid=ebd1c3ae-d840-4cf1-b3ce-5dbd8e760142"},"vehicle_type_id":"4","last_reported":1705234316,"current_range_meters":4800,"station_id":"ce4bhs92rcd13ifvqi0g","pricing_plan_id":"free"},{"bike_id":"9949c318-cd33-4e7f-93e5-9b978c57ddec","system_id":"levelo_inurba_marseille","lat":43.32828,"lon":5.36678,"is_reserved":false,"is_disabled":false,"rental_uris":{"android":"levelo://app?vid=9949c318-cd33-4e7f-93e5-9b978c57ddec","ios":"levelo://app?vid=9949c318-cd33-4e7f-93e5-9b978c57ddec"},"vehicle_type_id":"4","last_reported":1705234316,"current_range_meters":6000,"station_id":"ce4bhs92rcd13ifvqi0g","pricing_plan_id":"free"},{"bike_id":"3f1fe0f6-c408-40f5-9355-cdaa7a69ae2d","system_id":"levelo_inurba_marseille","lat":43.328285,"lon":5.366725,"is_reserved":false,"is_disabled":false,"rental_uris":{"android":"levelo://app?vid=3f1fe0f6-c408-40f5-9355-cdaa7a69ae2d","ios":"levelo://app?vid=3f1fe0f6-c408-40f5-9355-cdaa7a69ae2d"},"vehicle_type_id":"4","last_reported":1705234316,"current_range_meters":17600,"station_id":"ce4bhs92rcd13ifvqi0g","pricing_plan_id":"free"},{"bike_id":"ba999a5c-94b8-4db5-866a-75304e9f1269","system_id":"levelo_inurba_marseille","lat":43.32829,"lon":5.36692,"is_reserved":false,"is_disabled":false,"rental_uris":{"android":"levelo://app?vid=ba999a5c-94b8-4db5-866a-75304e9f1269","ios":"levelo://app?vid=ba999a5c-94b8-4db5-866a-75304e9f1269"},"vehicle_type_id":"4","last_reported":1705234316,"current_range_meters":19200,"station_id":"ce4bhs92rcd13ifvqi0g","pricing_plan_id":"free"},{"bike_id":"e38d20ff-3711-42f9-8598-8b7af98ee7b5","system_id":"levelo_inurba_marseille","lat":43.32829,"lon":5.36688,"is_reserved":false,"is_disabled":false,"rental_uris":{"android":"levelo://app?vid=e38d20ff-3711-42f9-8598-8b7af98ee7b5","ios":"levelo://app?vid=e38d20ff-3711-42f9-8598-8b7af98ee7b5"},"vehicle_type_id":"4","last_reported":1705234316,"current_range_meters":15600,"station_id":"ce4bhs92rcd13ifvqi0g","pricing_plan_id":"free"},{"bike_id":"d6e71fc0-c662-46a4-9ce2-a4da97cef68b","system_id":"levelo_inurba_marseille","lat":43.32829,"lon":5.36677,"is_reserved":false,"is_disabled":false,"rental_uris":{"android":"levelo://app?vid=d6e71fc0-c662-46a4-9ce2-a4da97cef68b","ios":"levelo://app?vid=d6e71fc0-c662-46a4-9ce2-a4da97cef68b"},"vehicle_type_id":"4","last_reported":1705234316,"current_range_meters":15200,"station_id":"ce4bhs92rcd13ifvqi0g","pricing_plan_id":"free"},{"bike_id":"fa304733-8d18-4de5-8d9b-7ed51e7b0eda","system_id":"levelo_inurba_marseille","lat":43.3283,"lon":5.36685,"is_reserved":false,"is_disabled":false,"rental_uris":{"android":"levelo://app?vid=fa304733-8d18-4de5-8d9b-7ed51e7b0eda","ios":"levelo://app?vid=fa304733-8d18-4de5-8d9b-7ed51e7b0eda"},"vehicle_type_id":"4","last_reported":1705234316,"current_range_meters":22000,"station_id":"ce4bhs92rcd13ifvqi0g","pricing_plan_id":"free"},{"bike_id":"7fe7c15b-8d92-4599-97ec-55a5b88246d4","system_id":"levelo_inurba_marseille","lat":43.32831,"lon":5.36677,"is_reserved":false,"is_disabled":false,"rental_uris":{"android":"levelo://app?vid=7fe7c15b-8d92-4599-97ec-55a5b88246d4","ios":"levelo://app?vid=7fe7c15b-8d92-4599-97ec-55a5b88246d4"},"vehicle_type_id":"4","last_reported":1705234316,"current_range_meters":17600,"station_id":"ce4bhs92rcd13ifvqi0g","pricing_plan_id":"free"},{"bike_id":"00240506-f51a-4e5e-8e4b-da47fbef48ec","system_id":"levelo_inurba_marseille","lat":43.328319,"lon":5.36685,"is_reserved":false,"is_disabled":false,"rental_uris":{"android":"levelo://app?vid=00240506-f51a-4e5e-8e4b-da47fbef48ec","ios":"levelo://app?vid=00240506-f51a-4e5e-8e4b-da47fbef48ec"},"vehicle_type_id":"4","last_reported":1705234316,"current_range_meters":12800,"station_id":"ce4bhs92rcd13ifvqi0g","pricing_plan_id":"free"},{"bike_id":"b7f19553-caf3-42e9-85f2-de3629dabc8e","system_id":"levelo_inurba_marseille","lat":43.328319,"lon":5.366826,"is_reserved":false,"is_disabled":false,"rental_uris":{"android":"levelo://app?vid=b7f19553-caf3-42e9-85f2-de3629dabc8e","ios":"levelo://app?vid=b7f19553-caf3-42e9-85f2-de3629dabc8e"},"vehicle_type_id":"4","last_reported":1705234316,"current_range_meters":14000,"station_id":"ce4bhs92rcd13ifvqi0g","pricing_plan_id":"free"},{"bike_id":"9fbabc07-7e3e-4dc7-aad6-5f93ddb8699a","system_id":"levelo_inurba_marseille","lat":43.328331,"lon":5.366797,"is_reserved":false,"is_disabled":false,"rental_uris":{"android":"levelo://app?vid=9fbabc07-7e3e-4dc7-aad6-5f93ddb8699a","ios":"levelo://app?vid=9fbabc07-7e3e-4dc7-aad6-5f93ddb8699a"},"vehicle_type_id":"4","last_reported":1705234316,"current_range_meters":20000,"station_id":"ce4bhs92rcd13ifvqi0g","pricing_plan_id":"free"},{"bike_id":"5fc9a60d-33cc-4ac7-bafa-124baa1d118d","system_id":"levelo_inurba_marseille","lat":43.32834,"lon":5.36687,"is_reserved":false,"is_disabled":false,"rental_uris":{"android":"levelo://app?vid=5fc9a60d-33cc-4ac7-bafa-124baa1d118d","ios":"levelo://app?vid=5fc9a60d-33cc-4ac7-bafa-124baa1d118d"},"vehicle_type_id":"4","last_reported":1705234316,"current_range_meters":11200,"station_id":"ce4bhs92rcd13ifvqi0g","pricing_plan_id":"free"},{"bike_id":"ead329a6-8b8c-45ec-92f6-6985dc3bb370","system_id":"levelo_inurba_marseille","lat":43.297163,"lon":5.365866,"is_reserved":false,"is_disabled":false,"rental_uris":{"android":"levelo://app?vid=ead329a6-8b8c-45ec-92f6-6985dc3bb370","ios":"levelo://app?vid=ead329a6-8b8c-45ec-92f6-6985dc3bb370"},"vehicle_type_id":"4","last_reported":1705234316,"current_range_meters":28000,"station_id":"ce4bgn12rcd13ifvqbt0","pricing_plan_id":"free"},{"bike_id":"38082c03-fac1-44d3-a79f-5142b4a113a9","system_id":"levelo_inurba_marseille","lat":43.328373,"lon":5.366902,"is_reserved":false,"is_disabled":false,"rental_uris":{"android":"levelo://app?vid=38082c03-fac1-44d3-a79f-5142b4a113a9","ios":"levelo://app?vid=38082c03-fac1-44d3-a79f-5142b4a113a9"},"vehicle_type_id":"4","last_reported":1705234316,"current_range_meters":9600,"station_id":"ce4bhs92rcd13ifvqi0g","pricing_plan_id":"free"},{"bike_id":"a1a439c3-633c-4c0f-8a0a-dbd19d9a4e2f","system_id":"levelo_inurba_marseille","lat":43.297163,"lon":5.365866,"is_reserved":false,"is_disabled":false,"rental_uris":{"android":"levelo://app?vid=a1a439c3-633c-4c0f-8a0a-dbd19d9a4e2f","ios":"levelo://app?vid=a1a439c3-633c-4c0f-8a0a-dbd19d9a4e2f"},"vehicle_type_id":"4","last_reported":1705234316,"current_range_meters":5200,"station_id":"ce4bgn12rcd13ifvqbt0","pricing_plan_id":"free"},{"bike_id":"042bd0a6-e131-4e8f-b0c0-d4004a25fbad","system_id":"levelo_inurba_marseille","lat":43.29573,"lon":5.367355,"is_reserved":false,"is_disabled":false,"rental_uris":{"android":"levelo://app?vid=042bd0a6-e131-4e8f-b0c0-d4004a25fbad","ios":"levelo://app?vid=042bd0a6-e131-4e8f-b0c0-d4004a25fbad"},"vehicle_type_id":"4","last_reported":1705234316,"current_range_meters":20800,"station_id":"ce4bgph2rcd13ifvqc2g","pricing_plan_id":"free"},{"bike_id":"4dc8ce82-a71d-44dd-80ef-7c8dd3a77d67","system_id":"levelo_inurba_marseille","lat":43.296131,"lon":5.370791,"is_reserved":false,"is_disabled":false,"rental_uris":{"android":"levelo://app?vid=4dc8ce82-a71d-44dd-80ef-7c8dd3a77d67","ios":"levelo://app?vid=4dc8ce82-a71d-44dd-80ef-7c8dd3a77d67"},"vehicle_type_id":"4","last_reported":1705234316,"current_range_meters":2800,"station_id":"ce4bgnh2rcd13ifvqc0g","pricing_plan_id":"free"},{"bike_id":"e52143f5-af3c-4b2e-a331-c85bbfa6af2d","system_id":"levelo_inurba_marseille","lat":43.29573,"lon":5.367355,"is_reserved":false,"is_disabled":false,"rental_uris":{"android":"levelo://app?vid=e52143f5-af3c-4b2e-a331-c85bbfa6af2d","ios":"levelo://app?vid=e52143f5-af3c-4b2e-a331-c85bbfa6af2d"},"vehicle_type_id":"4","last_reported":1705234316,"current_range_meters":16800,"station_id":"ce4bgph2rcd13ifvqc2g","pricing_plan_id":"free"},{"bike_id":"ee67cbc5-07fe-4930-9c5f-d7b9daded296","system_id":"levelo_inurba_marseille","lat":43.296131,"lon":5.370773,"is_reserved":false,"is_disabled":false,"rental_uris":{"android":"levelo://app?vid=ee67cbc5-07fe-4930-9c5f-d7b9daded296","ios":"levelo://app?vid=ee67cbc5-07fe-4930-9c5f-d7b9daded296"},"vehicle_type_id":"4","last_reported":1705234316,"current_range_meters":29600,"station_id":"ce4bgnh2rcd13ifvqc0g","pricing_plan_id":"free"},{"bike_id":"e8cee0ec-f081-4e9c-b2df-2d99d5dbc8f4","system_id":"levelo_inurba_marseille","lat":43.296129,"lon":5.370777,"is_reserved":false,"is_disabled":false,"rental_uris":{"android":"levelo://app?vid=e8cee0ec-f081-4e9c-b2df-2d99d5dbc8f4","ios":"levelo://app?vid=e8cee0ec-f081-4e9c-b2df-2d99d5dbc8f4"},"vehicle_type_id":"4","last_reported":1705234316,"current_range_meters":23600,"station_id":"ce4bgnh2rcd13ifvqc0g","pricing_plan_id":"free"},{"bike_id":"065ae978-4d3e-493b-813f-2097a7a8aa2e","system_id":"levelo_inurba_marseille","lat":43.2958,"lon":5.36733,"is_reserved":false,"is_disabled":false,"rental_uris":{"android":"levelo://app?vid=065ae978-4d3e-493b-813f-2097a7a8aa2e","ios":"levelo://app?vid=065ae978-4d3e-493b-813f-2097a7a8aa2e"},"vehicle_type_id":"4","last_reported":1705234316,"current_range_meters":31200,"station_id":"ce4bgph2rcd13ifvqc2g","pricing_plan_id":"free"},{"bike_id":"fa66ff86-f39e-4023-81dd-e1b069f74345","system_id":"levelo_inurba_marseille","lat":43.29577,"lon":5.36746,"is_reserved":false,"is_disabled":false,"rental_uris":{"android":"levelo://app?vid=fa66ff86-f39e-4023-81dd-e1b069f74345","ios":"levelo://app?vid=fa66ff86-f39e-4023-81dd-e1b069f74345"},"vehicle_type_id":"4","last_reported":1705234316,"current_range_meters":21200,"station_id":"ce4bgph2rcd13ifvqc2g","pricing_plan_id":"free"},{"bike_id":"3445fe7e-008d-40a4-9d56-ca295239c249","system_id":"levelo_inurba_marseille","lat":43.296935,"lon":5.376544,"is_reserved":false,"is_disabled":false,"rental_uris":{"android":"levelo://app?vid=3445fe7e-008d-40a4-9d56-ca295239c249","ios":"levelo://app?vid=3445fe7e-008d-40a4-9d56-ca295239c249"},"vehicle_type_id":"4","last_reported":1705234316,"current_range_meters":26000,"station_id":"ce4bgkh2rcd13ifvqbl0","pricing_plan_id":"free"},{"bike_id":"5c12baf0-fd34-4813-9f72-927aa3e8a4ae","system_id":"levelo_inurba_marseille","lat":43.296921,"lon":5.376579,"is_reserved":false,"is_disabled":false,"rental_uris":{"android":"levelo://app?vid=5c12baf0-fd34-4813-9f72-927aa3e8a4ae","ios":"levelo://app?vid=5c12baf0-fd34-4813-9f72-927aa3e8a4ae"},"vehicle_type_id":"4","last_reported":1705234316,"current_range_meters":8400,"station_id":"ce4bgkh2rcd13ifvqbl0","pricing_plan_id":"free"},{"bike_id":"cb4bbf2d-1efc-4895-b774-b7dd69d08521","system_id":"levelo_inurba_marseille","lat":43.299202,"lon":5.381513,"is_reserved":false,"is_disabled":false,"rental_uris":{"android":"levelo://app?vid=cb4bbf2d-1efc-4895-b774-b7dd69d08521","ios":"levelo://app?vid=cb4bbf2d-1efc-4895-b774-b7dd69d08521"},"vehicle_type_id":"4","last_reported":1705234316,"current_range_meters":0,"station_id":"","pricing_plan_id":"free"},{"bike_id":"71a46691-c972-41ac-8dd4-733778e23f44","system_id":"levelo_inurba_marseille","lat":43.297113,"lon":5.376897,"is_reserved":false,"is_disabled":false,"rental_uris":{"android":"levelo://app?vid=71a46691-c972-41ac-8dd4-733778e23f44","ios":"levelo://app?vid=71a46691-c972-41ac-8dd4-733778e23f44"},"vehicle_type_id":"4","last_reported":1705234316,"current_range_meters":0,"station_id":"ce4bgkh2rcd13ifvqbl0","pricing_plan_id":"free"},{"bike_id":"d135e729-3417-4d21-baaa-32d81031eb13","system_id":"levelo_inurba_marseille","lat":43.309589,"lon":5.390258,"is_reserved":false,"is_disabled":false,"rental_uris":{"android":"levelo://app?vid=d135e729-3417-4d21-baaa-32d81031eb13","ios":"levelo://app?vid=d135e729-3417-4d21-baaa-32d81031eb13"},"vehicle_type_id":"4","last_reported":1705234316,"current_range_meters":22000,"station_id":"ce4bgup2rcd13ifvqco0","pricing_plan_id":"free"},{"bike_id":"322b1314-3a19-4e66-8d40-6c6c97db6fe4","system_id":"levelo_inurba_marseille","lat":43.296921,"lon":5.376579,"is_reserved":false,"is_disabled":false,"rental_uris":{"android":"levelo://app?vid=322b1314-3a19-4e66-8d40-6c6c97db6fe4","ios":"levelo://app?vid=322b1314-3a19-4e66-8d40-6c6c97db6fe4"},"vehicle_type_id":"4","last_reported":1705234316,"current_range_meters":21600,"station_id":"ce4bgkh2rcd13ifvqbl0","pricing_plan_id":"free"},{"bike_id":"3a0943a8-5c4f-40d8-836d-26c4384cf1cf","system_id":"levelo_inurba_marseille","lat":43.29894,"lon":5.38139,"is_reserved":false,"is_disabled":false,"rental_uris":{"android":"levelo://app?vid=3a0943a8-5c4f-40d8-836d-26c4384cf1cf","ios":"levelo://app?vid=3a0943a8-5c4f-40d8-836d-26c4384cf1cf"},"vehicle_type_id":"4","last_reported":1705234316,"current_range_meters":12400,"station_id":"ce4bgj12rcd13ifvqbc0","pricing_plan_id":"free"},{"bike_id":"e226108c-807d-4acf-b2e6-f67de316be7e","system_id":"levelo_inurba_marseille","lat":43.299028,"lon":5.381509,"is_reserved":false,"is_disabled":false,"rental_uris":{"android":"levelo://app?vid=e226108c-807d-4acf-b2e6-f67de316be7e","ios":"levelo://app?vid=e226108c-807d-4acf-b2e6-f67de316be7e"},"vehicle_type_id":"4","last_reported":1705234316,"current_range_meters":29600,"station_id":"ce4bgj12rcd13ifvqbc0","pricing_plan_id":"free"},{"bike_id":"3e81af6b-60d0-4d72-bf72-d1eee6fa3628","system_id":"levelo_inurba_marseille","lat":43.299028,"lon":5.381509,"is_reserved":false,"is_disabled":false,"rental_uris":{"android":"levelo://app?vid=3e81af6b-60d0-4d72-bf72-d1eee6fa3628","ios":"levelo://app?vid=3e81af6b-60d0-4d72-bf72-d1eee6fa3628"},"vehicle_type_id":"4","last_reported":1705234316,"current_range_meters":30800,"station_id":"ce4bgj12rcd13ifvqbc0","pricing_plan_id":"free"},{"bike_id":"c9568f9a-ed4f-49ae-9e06-63cde661cb01","system_id":"levelo_inurba_marseille","lat":43.299028,"lon":5.381509,"is_reserved":false,"is_disabled":false,"rental_uris":{"android":"levelo://app?vid=c9568f9a-ed4f-49ae-9e06-63cde661cb01","ios":"levelo://app?vid=c9568f9a-ed4f-49ae-9e06-63cde661cb01"},"vehicle_type_id":"4","last_reported":1705234316,"current_range_meters":28000,"station_id":"ce4bgj12rcd13ifvqbc0","pricing_plan_id":"free"},{"bike_id":"7840d9c8-99f0-4094-9be4-1f3378614ca0","system_id":"levelo_inurba_marseille","lat":43.29888,"lon":5.38149,"is_reserved":false,"is_disabled":false,"rental_uris":{"android":"levelo://app?vid=7840d9c8-99f0-4094-9be4-1f3378614ca0","ios":"levelo://app?vid=7840d9c8-99f0-4094-9be4-1f3378614ca0"},"vehicle_type_id":"4","last_reported":1705234316,"current_range_meters":27600,"station_id":"ce4bgj12rcd13ifvqbc0","pricing_plan_id":"free"},{"bike_id":"23b40fd2-7366-4c01-8ee8-6ee58ebc81ac","system_id":"levelo_inurba_marseille","lat":43.317557,"lon":5.390173,"is_reserved":false,"is_disabled":false,"rental_uris":{"android":"levelo://app?vid=23b40fd2-7366-4c01-8ee8-6ee58ebc81ac","ios":"levelo://app?vid=23b40fd2-7366-4c01-8ee8-6ee58ebc81ac"},"vehicle_type_id":"4","last_reported":1705234316,"current_range_meters":31200,"station_id":"ce4bhqp2rcd13ifvqhng","pricing_plan_id":"free"},{"bike_id":"b8e0b136-0dd1-4bae-8aa2-8a62c10c3dbe","system_id":"levelo_inurba_marseille","lat":43.317557,"lon":5.390173,"is_reserved":false,"is_disabled":false,"rental_uris":{"android":"levelo://app?vid=b8e0b136-0dd1-4bae-8aa2-8a62c10c3dbe","ios":"levelo://app?vid=b8e0b136-0dd1-4bae-8aa2-8a62c10c3dbe"},"vehicle_type_id":"4","last_reported":1705234316,"current_range_meters":16000,"station_id":"ce4bhqp2rcd13ifvqhng","pricing_plan_id":"free"},{"bike_id":"bd182fdd-80ac-419e-a54d-4486fc6feb2d","system_id":"levelo_inurba_marseille","lat":43.317557,"lon":5.390173,"is_reserved":false,"is_disabled":false,"rental_uris":{"android":"levelo://app?vid=bd182fdd-80ac-419e-a54d-4486fc6feb2d","ios":"levelo://app?vid=bd182fdd-80ac-419e-a54d-4486fc6feb2d"},"vehicle_type_id":"4","last_reported":1705234316,"current_range_meters":14800,"station_id":"ce4bhqp2rcd13ifvqhng","pricing_plan_id":"free"},{"bike_id":"92f88198-9cf3-4bc6-a008-aa2a99af1ea5","system_id":"levelo_inurba_marseille","lat":43.317557,"lon":5.390173,"is_reserved":false,"is_disabled":false,"rental_uris":{"android":"levelo://app?vid=92f88198-9cf3-4bc6-a008-aa2a99af1ea5","ios":"levelo://app?vid=92f88198-9cf3-4bc6-a008-aa2a99af1ea5"},"vehicle_type_id":"4","last_reported":1705234316,"current_range_meters":2800,"station_id":"ce4bhqp2rcd13ifvqhng","pricing_plan_id":"free"},{"bike_id":"5f020c32-3e84-4065-b9ba-a4a4b563c7ae","system_id":"levelo_inurba_marseille","lat":43.317557,"lon":5.390173,"is_reserved":false,"is_disabled":false,"rental_uris":{"android":"levelo://app?vid=5f020c32-3e84-4065-b9ba-a4a4b563c7ae","ios":"levelo://app?vid=5f020c32-3e84-4065-b9ba-a4a4b563c7ae"},"vehicle_type_id":"4","last_reported":1705234316,"current_range_meters":31200,"station_id":"ce4bhqp2rcd13ifvqhng","pricing_plan_id":"free"},{"bike_id":"4ab8819a-9deb-41fb-986d-9e52b35e3264","system_id":"levelo_inurba_marseille","lat":43.304274,"lon":5.388873,"is_reserved":false,"is_disabled":false,"rental_uris":{"android":"levelo://app?vid=4ab8819a-9deb-41fb-986d-9e52b35e3264","ios":"levelo://app?vid=4ab8819a-9deb-41fb-986d-9e52b35e3264"},"vehicle_type_id":"4","last_reported":1705234316,"current_range_meters":23200,"station_id":"ce4bgk12rcd13ifvqbi0","pricing_plan_id":"free"},{"bike_id":"85939d1a-cd1e-4a33-af03-db95fb204672","system_id":"levelo_inurba_marseille","lat":43.298037,"lon":5.381066,"is_reserved":false,"is_disabled":false,"rental_uris":{"android":"levelo://app?vid=85939d1a-cd1e-4a33-af03-db95fb204672","ios":"levelo://app?vid=85939d1a-cd1e-4a33-af03-db95fb204672"},"vehicle_type_id":"4","last_reported":1705234316,"current_range_meters":31200,"station_id":"ce4bgip2rcd13ifvqbb0","pricing_plan_id":"free"},{"bike_id":"2c8bee89-f620-448c-a882-4d9a76787d48","system_id":"levelo_inurba_marseille","lat":43.298037,"lon":5.381066,"is_reserved":false,"is_disabled":false,"rental_uris":{"android":"levelo://app?vid=2c8bee89-f620-448c-a882-4d9a76787d48","ios":"levelo://app?vid=2c8bee89-f620-448c-a882-4d9a76787d48"},"vehicle_type_id":"4","last_reported":1705234316,"current_range_meters":25200,"station_id":"ce4bgip2rcd13ifvqbb0","pricing_plan_id":"free"},{"bike_id":"f8345b4b-291c-4b55-a52f-ffcc50289702","system_id":"levelo_inurba_marseille","lat":43.304274,"lon":5.388873,"is_reserved":false,"is_disabled":false,"rental_uris":{"android":"levelo://app?vid=f8345b4b-291c-4b55-a52f-ffcc50289702","ios":"levelo://app?vid=f8345b4b-291c-4b55-a52f-ffcc50289702"},"vehicle_type_id":"4","last_reported":1705234316,"current_range_meters":28000,"station_id":"ce4bgk12rcd13ifvqbi0","pricing_plan_id":"free"},{"bike_id":"896b200e-00fa-4588-8a61-45cf2c584c0c","system_id":"levelo_inurba_marseille","lat":43.295748,"lon":5.37522,"is_reserved":false,"is_disabled":false,"rental_uris":{"android":"levelo://app?vid=896b200e-00fa-4588-8a61-45cf2c584c0c","ios":"levelo://app?vid=896b200e-00fa-4588-8a61-45cf2c584c0c"},"vehicle_type_id":"4","last_reported":1705234316,"current_range_meters":30800,"station_id":"ce4bgh92rcd13ifvqb50","pricing_plan_id":"free"},{"bike_id":"1ae7c9dc-177f-4d0a-901b-ccb82ce2311b","system_id":"levelo_inurba_marseille","lat":43.295748,"lon":5.37522,"is_reserved":false,"is_disabled":false,"rental_uris":{"android":"levelo://app?vid=1ae7c9dc-177f-4d0a-901b-ccb82ce2311b","ios":"levelo://app?vid=1ae7c9dc-177f-4d0a-901b-ccb82ce2311b"},"vehicle_type_id":"4","last_reported":1705234316,"current_range_meters":15600,"station_id":"ce4bgh92rcd13ifvqb50","pricing_plan_id":"free"},{"bike_id":"aa410ad2-b205-469e-b936-a8bc094910f6","system_id":"levelo_inurba_marseille","lat":43.296263,"lon":5.377094,"is_reserved":false,"is_disabled":false,"rental_uris":{"android":"levelo://app?vid=aa410ad2-b205-469e-b936-a8bc094910f6","ios":"levelo://app?vid=aa410ad2-b205-469e-b936-a8bc094910f6"},"vehicle_type_id":"4","last_reported":1705234316,"current_range_meters":31200,"station_id":"ce4bgi92rcd13ifvqb90","pricing_plan_id":"free"},{"bike_id":"fb0e3fbb-43b5-4952-a14b-309973a0a4f2","system_id":"levelo_inurba_marseille","lat":43.296263,"lon":5.377094,"is_reserved":false,"is_disabled":false,"rental_uris":{"android":"levelo://app?vid=fb0e3fbb-43b5-4952-a14b-309973a0a4f2","ios":"levelo://app?vid=fb0e3fbb-43b5-4952-a14b-309973a0a4f2"},"vehicle_type_id":"4","last_reported":1705234316,"current_range_meters":6000,"station_id":"ce4bgi92rcd13ifvqb90","pricing_plan_id":"free"},{"bike_id":"9359dd48-4439-41f2-96b2-e010e3309be9","system_id":"levelo_inurba_marseille","lat":43.296263,"lon":5.377094,"is_reserved":false,"is_disabled":false,"rental_uris":{"android":"levelo://app?vid=9359dd48-4439-41f2-96b2-e010e3309be9","ios":"levelo://app?vid=9359dd48-4439-41f2-96b2-e010e3309be9"},"vehicle_type_id":"4","last_reported":1705234316,"current_range_meters":20400,"station_id":"ce4bgi92rcd13ifvqb90","pricing_plan_id":"free"},{"bike_id":"9a6fe198-354c-47c9-a817-692ca45d44d0","system_id":"levelo_inurba_marseille","lat":43.29557,"lon":5.37528,"is_reserved":false,"is_disabled":false,"rental_uris":{"android":"levelo://app?vid=9a6fe198-354c-47c9-a817-692ca45d44d0","ios":"levelo://app?vid=9a6fe198-354c-47c9-a817-692ca45d44d0"},"vehicle_type_id":"4","last_reported":1705234316,"current_range_meters":21200,"station_id":"ce4bgh92rcd13ifvqb50","pricing_plan_id":"free"},{"bike_id":"36a24f67-b166-410e-a2e0-f8c5562cf668","system_id":"levelo_inurba_marseille","lat":43.295748,"lon":5.37522,"is_reserved":false,"is_disabled":false,"rental_uris":{"android":"levelo://app?vid=36a24f67-b166-410e-a2e0-f8c5562cf668","ios":"levelo://app?vid=36a24f67-b166-410e-a2e0-f8c5562cf668"},"vehicle_type_id":"4","last_reported":1705234316,"current_range_meters":7600,"station_id":"ce4bgh92rcd13ifvqb50","pricing_plan_id":"free"},{"bike_id":"06a6b273-4e4d-46ae-ab37-c7d491e8b675","system_id":"levelo_inurba_marseille","lat":43.29753,"lon":5.38101,"is_reserved":false,"is_disabled":false,"rental_uris":{"android":"levelo://app?vid=06a6b273-4e4d-46ae-ab37-c7d491e8b675","ios":"levelo://app?vid=06a6b273-4e4d-46ae-ab37-c7d491e8b675"},"vehicle_type_id":"4","last_reported":1705234316,"current_range_meters":30000,"station_id":"","pricing_plan_id":"free"},{"bike_id":"00bb5aa2-5106-40de-a2d8-6cf5f8560538","system_id":"levelo_inurba_marseille","lat":43.299707,"lon":5.384859,"is_reserved":false,"is_disabled":false,"rental_uris":{"android":"levelo://app?vid=00bb5aa2-5106-40de-a2d8-6cf5f8560538","ios":"levelo://app?vid=00bb5aa2-5106-40de-a2d8-6cf5f8560538"},"vehicle_type_id":"4","last_reported":1705234316,"current_range_meters":24000,"station_id":"ce4bgj92rcd13ifvqbd0","pricing_plan_id":"free"},{"bike_id":"81b5c356-9af3-4abc-b9cb-8d8769bcb54a","system_id":"levelo_inurba_marseille","lat":43.309589,"lon":5.390258,"is_reserved":false,"is_disabled":false,"rental_uris":{"android":"levelo://app?vid=81b5c356-9af3-4abc-b9cb-8d8769bcb54a","ios":"levelo://app?vid=81b5c356-9af3-4abc-b9cb-8d8769bcb54a"},"vehicle_type_id":"4","last_reported":1705234316,"current_range_meters":0,"station_id":"ce4bgup2rcd13ifvqco0","pricing_plan_id":"free"},{"bike_id":"554c8d37-af81-4f09-bd25-24ba41e0b316","system_id":"levelo_inurba_marseille","lat":43.295279,"lon":5.375048,"is_reserved":false,"is_disabled":false,"rental_uris":{"android":"levelo://app?vid=554c8d37-af81-4f09-bd25-24ba41e0b316","ios":"levelo://app?vid=554c8d37-af81-4f09-bd25-24ba41e0b316"},"vehicle_type_id":"4","last_reported":1705234316,"current_range_meters":23200,"station_id":"ce4bgkp2rcd13ifvqbmg","pricing_plan_id":"free"},{"bike_id":"9c8841cd-d1df-44e9-bbb0-10ce21e17d72","system_id":"levelo_inurba_marseille","lat":43.29505,"lon":5.37426,"is_reserved":false,"is_disabled":false,"rental_uris":{"android":"levelo://app?vid=9c8841cd-d1df-44e9-bbb0-10ce21e17d72","ios":"levelo://app?vid=9c8841cd-d1df-44e9-bbb0-10ce21e17d72"},"vehicle_type_id":"4","last_reported":1705234316,"current_range_meters":21200,"station_id":"","pricing_plan_id":"free"},{"bike_id":"382e9d48-a041-44d6-8d57-e0ade6877e20","system_id":"levelo_inurba_marseille","lat":43.299717,"lon":5.384845,"is_reserved":false,"is_disabled":false,"rental_uris":{"android":"levelo://app?vid=382e9d48-a041-44d6-8d57-e0ade6877e20","ios":"levelo://app?vid=382e9d48-a041-44d6-8d57-e0ade6877e20"},"vehicle_type_id":"4","last_reported":1705234316,"current_range_meters":27600,"station_id":"ce4bgj92rcd13ifvqbd0","pricing_plan_id":"free"},{"bike_id":"536216c0-e3c5-4056-b98d-38501f9aa431","system_id":"levelo_inurba_marseille","lat":43.295279,"lon":5.375048,"is_reserved":false,"is_disabled":false,"rental_uris":{"android":"levelo://app?vid=536216c0-e3c5-4056-b98d-38501f9aa431","ios":"levelo://app?vid=536216c0-e3c5-4056-b98d-38501f9aa431"},"vehicle_type_id":"4","last_reported":1705234316,"current_range_meters":2800,"station_id":"ce4bgkp2rcd13ifvqbmg","pricing_plan_id":"free"},{"bike_id":"fe4031aa-1411-4281-a30a-b4c6a128b295","system_id":"levelo_inurba_marseille","lat":43.295279,"lon":5.375048,"is_reserved":false,"is_disabled":false,"rental_uris":{"android":"levelo://app?vid=fe4031aa-1411-4281-a30a-b4c6a128b295","ios":"levelo://app?vid=fe4031aa-1411-4281-a30a-b4c6a128b295"},"vehicle_type_id":"4","last_reported":1705234316,"current_range_meters":0,"station_id":"ce4bgkp2rcd13ifvqbmg","pricing_plan_id":"free"},{"bike_id":"64b34c2b-6e45-415f-8cc8-5cd282f279d4","system_id":"levelo_inurba_marseille","lat":43.299707,"lon":5.384859,"is_reserved":false,"is_disabled":false,"rental_uris":{"android":"levelo://app?vid=64b34c2b-6e45-415f-8cc8-5cd282f279d4","ios":"levelo://app?vid=64b34c2b-6e45-415f-8cc8-5cd282f279d4"},"vehicle_type_id":"4","last_reported":1705234316,"current_range_meters":12800,"station_id":"ce4bgj92rcd13ifvqbd0","pricing_plan_id":"free"},{"bike_id":"fb7847a2-b174-4725-9f6c-5538a38ea028","system_id":"levelo_inurba_marseille","lat":43.299717,"lon":5.384845,"is_reserved":false,"is_disabled":false,"rental_uris":{"android":"levelo://app?vid=fb7847a2-b174-4725-9f6c-5538a38ea028","ios":"levelo://app?vid=fb7847a2-b174-4725-9f6c-5538a38ea028"},"vehicle_type_id":"4","last_reported":1705234316,"current_range_meters":14800,"station_id":"ce4bgj92rcd13ifvqbd0","pricing_plan_id":"free"},{"bike_id":"2f552e1f-d488-4dc6-9798-e8a935d7c89d","system_id":"levelo_inurba_marseille","lat":43.295279,"lon":5.375048,"is_reserved":false,"is_disabled":false,"rental_uris":{"android":"levelo://app?vid=2f552e1f-d488-4dc6-9798-e8a935d7c89d","ios":"levelo://app?vid=2f552e1f-d488-4dc6-9798-e8a935d7c89d"},"vehicle_type_id":"4","last_reported":1705234316,"current_range_meters":22400,"station_id":"ce4bgkp2rcd13ifvqbmg","pricing_plan_id":"free"},{"bike_id":"a81ac0d4-81c8-4427-9961-eaebfed92067","system_id":"levelo_inurba_marseille","lat":43.32367,"lon":5.388836,"is_reserved":false,"is_disabled":false,"rental_uris":{"android":"levelo://app?vid=a81ac0d4-81c8-4427-9961-eaebfed92067","ios":"levelo://app?vid=a81ac0d4-81c8-4427-9961-eaebfed92067"},"vehicle_type_id":"4","last_reported":1705234316,"current_range_meters":9600,"station_id":"ce4bhqp2rcd13ifvqhog","pricing_plan_id":"free"},{"bike_id":"a6a01635-54f2-4e0f-a08d-def121eac260","system_id":"levelo_inurba_marseille","lat":43.32367,"lon":5.388836,"is_reserved":false,"is_disabled":false,"rental_uris":{"android":"levelo://app?vid=a6a01635-54f2-4e0f-a08d-def121eac260","ios":"levelo://app?vid=a6a01635-54f2-4e0f-a08d-def121eac260"},"vehicle_type_id":"4","last_reported":1705234316,"current_range_meters":27600,"station_id":"ce4bhqp2rcd13ifvqhog","pricing_plan_id":"free"},{"bike_id":"a3b192d2-ffe1-4205-bcc0-67add83d1f82","system_id":"levelo_inurba_marseille","lat":43.29602,"lon":5.381084,"is_reserved":false,"is_disabled":false,"rental_uris":{"android":"levelo://app?vid=a3b192d2-ffe1-4205-bcc0-67add83d1f82","ios":"levelo://app?vid=a3b192d2-ffe1-4205-bcc0-67add83d1f82"},"vehicle_type_id":"4","last_reported":1705234316,"current_range_meters":29600,"station_id":"ce4bgl12rcd13ifvqbo0","pricing_plan_id":"free"},{"bike_id":"796ac4fc-616c-4ba5-8265-5059f5659f8d","system_id":"levelo_inurba_marseille","lat":43.29602,"lon":5.381084,"is_reserved":false,"is_disabled":false,"rental_uris":{"android":"levelo://app?vid=796ac4fc-616c-4ba5-8265-5059f5659f8d","ios":"levelo://app?vid=796ac4fc-616c-4ba5-8265-5059f5659f8d"},"vehicle_type_id":"4","last_reported":1705234316,"current_range_meters":19600,"station_id":"ce4bgl12rcd13ifvqbo0","pricing_plan_id":"free"},{"bike_id":"fb3fcde7-d790-41ff-be6a-594dfb063ed7","system_id":"levelo_inurba_marseille","lat":43.29601,"lon":5.381084,"is_reserved":false,"is_disabled":false,"rental_uris":{"android":"levelo://app?vid=fb3fcde7-d790-41ff-be6a-594dfb063ed7","ios":"levelo://app?vid=fb3fcde7-d790-41ff-be6a-594dfb063ed7"},"vehicle_type_id":"4","last_reported":1705234316,"current_range_meters":28800,"station_id":"ce4bgl12rcd13ifvqbo0","pricing_plan_id":"free"},{"bike_id":"753c58ab-9b42-4a1d-9b1f-7c8a40e4bd02","system_id":"levelo_inurba_marseille","lat":43.29602,"lon":5.381084,"is_reserved":false,"is_disabled":false,"rental_uris":{"android":"levelo://app?vid=753c58ab-9b42-4a1d-9b1f-7c8a40e4bd02","ios":"levelo://app?vid=753c58ab-9b42-4a1d-9b1f-7c8a40e4bd02"},"vehicle_type_id":"4","last_reported":1705234316,"current_range_meters":16400,"station_id":"ce4bgl12rcd13ifvqbo0","pricing_plan_id":"free"},{"bike_id":"872c7919-fb48-4abc-a714-3b6b0f011062","system_id":"levelo_inurba_marseille","lat":43.293295,"lon":5.371625,"is_reserved":false,"is_disabled":false,"rental_uris":{"android":"levelo://app?vid=872c7919-fb48-4abc-a714-3b6b0f011062","ios":"levelo://app?vid=872c7919-fb48-4abc-a714-3b6b0f011062"},"vehicle_type_id":"4","last_reported":1705234316,"current_range_meters":23200,"station_id":"ce4bgh92rcd13ifvqb40","pricing_plan_id":"free"},{"bike_id":"9ad5d4c1-413c-4637-baa7-b7de48facf0e","system_id":"levelo_inurba_marseille","lat":43.29304,"lon":5.37172,"is_reserved":false,"is_disabled":false,"rental_uris":{"android":"levelo://app?vid=9ad5d4c1-413c-4637-baa7-b7de48facf0e","ios":"levelo://app?vid=9ad5d4c1-413c-4637-baa7-b7de48facf0e"},"vehicle_type_id":"4","last_reported":1705234316,"current_range_meters":22000,"station_id":"ce4bgh92rcd13ifvqb40","pricing_plan_id":"free"},{"bike_id":"cbcde6fb-d836-4c0a-9db4-6642f20b485b","system_id":"levelo_inurba_marseille","lat":43.29301,"lon":5.37173,"is_reserved":false,"is_disabled":false,"rental_uris":{"android":"levelo://app?vid=cbcde6fb-d836-4c0a-9db4-6642f20b485b","ios":"levelo://app?vid=cbcde6fb-d836-4c0a-9db4-6642f20b485b"},"vehicle_type_id":"4","last_reported":1705234316,"current_range_meters":22800,"station_id":"ce4bgh92rcd13ifvqb40","pricing_plan_id":"free"},{"bike_id":"d824d33f-3690-4c9f-b430-9a9fa9b96e36","system_id":"levelo_inurba_marseille","lat":43.29269,"lon":5.36852,"is_reserved":false,"is_disabled":false,"rental_uris":{"android":"levelo://app?vid=d824d33f-3690-4c9f-b430-9a9fa9b96e36","ios":"levelo://app?vid=d824d33f-3690-4c9f-b430-9a9fa9b96e36"},"vehicle_type_id":"4","last_reported":1705234316,"current_range_meters":0,"station_id":"ce4bhbp2rcd13ifvqesg","pricing_plan_id":"free"},{"bike_id":"a9d815b4-9bbf-4fdb-8730-4a1aa5c141e9","system_id":"levelo_inurba_marseille","lat":43.292749,"lon":5.368402,"is_reserved":false,"is_disabled":false,"rental_uris":{"android":"levelo://app?vid=a9d815b4-9bbf-4fdb-8730-4a1aa5c141e9","ios":"levelo://app?vid=a9d815b4-9bbf-4fdb-8730-4a1aa5c141e9"},"vehicle_type_id":"4","last_reported":1705234316,"current_range_meters":1200,"station_id":"ce4bhbp2rcd13ifvqesg","pricing_plan_id":"free"},{"bike_id":"9e22256f-4183-4719-933c-95ed8f75a70e","system_id":"levelo_inurba_marseille","lat":43.29289,"lon":5.37472,"is_reserved":false,"is_disabled":false,"rental_uris":{"android":"levelo://app?vid=9e22256f-4183-4719-933c-95ed8f75a70e","ios":"levelo://app?vid=9e22256f-4183-4719-933c-95ed8f75a70e"},"vehicle_type_id":"4","last_reported":1705234316,"current_range_meters":11200,"station_id":"ce4bgi12rcd13ifvqb70","pricing_plan_id":"free"},{"bike_id":"53639a61-ee13-4a23-99ea-46e25d2c367b","system_id":"levelo_inurba_marseille","lat":43.30085,"lon":5.390856,"is_reserved":false,"is_disabled":false,"rental_uris":{"android":"levelo://app?vid=53639a61-ee13-4a23-99ea-46e25d2c367b","ios":"levelo://app?vid=53639a61-ee13-4a23-99ea-46e25d2c367b"},"vehicle_type_id":"4","last_reported":1705234316,"current_range_meters":10400,"station_id":"ce4bh192rcd13ifvqdb0","pricing_plan_id":"free"},{"bike_id":"91508b2d-484b-42a9-b877-f71012412881","system_id":"levelo_inurba_marseille","lat":43.303002,"lon":5.392142,"is_reserved":false,"is_disabled":false,"rental_uris":{"android":"levelo://app?vid=91508b2d-484b-42a9-b877-f71012412881","ios":"levelo://app?vid=91508b2d-484b-42a9-b877-f71012412881"},"vehicle_type_id":"4","last_reported":1705234316,"current_range_meters":0,"station_id":"ce4bgkh2rcd13ifvqbk0","pricing_plan_id":"free"},{"bike_id":"4befd7d6-4afa-4792-96e9-3f6678004236","system_id":"levelo_inurba_marseille","lat":43.2936,"lon":5.37835,"is_reserved":false,"is_disabled":false,"rental_uris":{"android":"levelo://app?vid=4befd7d6-4afa-4792-96e9-3f6678004236","ios":"levelo://app?vid=4befd7d6-4afa-4792-96e9-3f6678004236"},"vehicle_type_id":"4","last_reported":1705234316,"current_range_meters":23600,"station_id":"ce4bgjh2rcd13ifvqbf0","pricing_plan_id":"free"},{"bike_id":"bbf09ecd-9ce6-43ba-b10e-b772b25ba378","system_id":"levelo_inurba_marseille","lat":43.300852,"lon":5.390859,"is_reserved":false,"is_disabled":false,"rental_uris":{"android":"levelo://app?vid=bbf09ecd-9ce6-43ba-b10e-b772b25ba378","ios":"levelo://app?vid=bbf09ecd-9ce6-43ba-b10e-b772b25ba378"},"vehicle_type_id":"4","last_reported":1705234316,"current_range_meters":22800,"station_id":"ce4bh192rcd13ifvqdb0","pricing_plan_id":"free"},{"bike_id":"fcd29bca-dc26-48f8-a445-22742364adb3","system_id":"levelo_inurba_marseille","lat":43.292311,"lon":5.360731,"is_reserved":false,"is_disabled":false,"rental_uris":{"android":"levelo://app?vid=fcd29bca-dc26-48f8-a445-22742364adb3","ios":"levelo://app?vid=fcd29bca-dc26-48f8-a445-22742364adb3"},"vehicle_type_id":"4","last_reported":1705234316,"current_range_meters":8000,"station_id":"ce4bhbh2rcd13ifvqeqg","pricing_plan_id":"free"},{"bike_id":"6a50d5e1-9c60-4c05-8e03-b013b054269f","system_id":"levelo_inurba_marseille","lat":43.292311,"lon":5.360731,"is_reserved":false,"is_disabled":false,"rental_uris":{"android":"levelo://app?vid=6a50d5e1-9c60-4c05-8e03-b013b054269f","ios":"levelo://app?vid=6a50d5e1-9c60-4c05-8e03-b013b054269f"},"vehicle_type_id":"4","last_reported":1705234316,"current_range_meters":26400,"station_id":"ce4bhbh2rcd13ifvqeqg","pricing_plan_id":"free"},{"bike_id":"1c25b087-4145-4b1e-84f6-4524d2101708","system_id":"levelo_inurba_marseille","lat":43.29278,"lon":5.37634,"is_reserved":false,"is_disabled":false,"rental_uris":{"android":"levelo://app?vid=1c25b087-4145-4b1e-84f6-4524d2101708","ios":"levelo://app?vid=1c25b087-4145-4b1e-84f6-4524d2101708"},"vehicle_type_id":"4","last_reported":1705234316,"current_range_meters":12000,"station_id":"ce4bgi12rcd13ifvqb70","pricing_plan_id":"free"},{"bike_id":"2bfeff19-bd93-4f9f-822a-7641623c2a0f","system_id":"levelo_inurba_marseille","lat":43.291675,"lon":5.371583,"is_reserved":false,"is_disabled":false,"rental_uris":{"android":"levelo://app?vid=2bfeff19-bd93-4f9f-822a-7641623c2a0f","ios":"levelo://app?vid=2bfeff19-bd93-4f9f-822a-7641623c2a0f"},"vehicle_type_id":"4","last_reported":1705234316,"current_range_meters":21600,"station_id":"ce4bha92rcd13ifvqeh0","pricing_plan_id":"free"},{"bike_id":"88cbc6ab-9434-49a1-8f3b-be03df76aa1f","system_id":"levelo_inurba_marseille","lat":43.313291,"lon":5.396838,"is_reserved":false,"is_disabled":false,"rental_uris":{"android":"levelo://app?vid=88cbc6ab-9434-49a1-8f3b-be03df76aa1f","ios":"levelo://app?vid=88cbc6ab-9434-49a1-8f3b-be03df76aa1f"},"vehicle_type_id":"4","last_reported":1705234316,"current_range_meters":22400,"station_id":"ce4bgvp2rcd13ifvqcu0","pricing_plan_id":"free"},{"bike_id":"d3d8feda-1762-4ae3-84b7-7eae388b54b2","system_id":"levelo_inurba_marseille","lat":43.313291,"lon":5.396838,"is_reserved":false,"is_disabled":false,"rental_uris":{"android":"levelo://app?vid=d3d8feda-1762-4ae3-84b7-7eae388b54b2","ios":"levelo://app?vid=d3d8feda-1762-4ae3-84b7-7eae388b54b2"},"vehicle_type_id":"4","last_reported":1705234316,"current_range_meters":31200,"station_id":"ce4bgvp2rcd13ifvqcu0","pricing_plan_id":"free"},{"bike_id":"4ea78319-9206-48bc-b62c-29f98552a891","system_id":"levelo_inurba_marseille","lat":43.313291,"lon":5.396838,"is_reserved":false,"is_disabled":false,"rental_uris":{"android":"levelo://app?vid=4ea78319-9206-48bc-b62c-29f98552a891","ios":"levelo://app?vid=4ea78319-9206-48bc-b62c-29f98552a891"},"vehicle_type_id":"4","last_reported":1705234316,"current_range_meters":30800,"station_id":"ce4bgvp2rcd13ifvqcu0","pricing_plan_id":"free"},{"bike_id":"ea7385af-3127-4f8d-82d2-b1a9b59b1eb4","system_id":"levelo_inurba_marseille","lat":43.313291,"lon":5.396838,"is_reserved":false,"is_disabled":false,"rental_uris":{"android":"levelo://app?vid=ea7385af-3127-4f8d-82d2-b1a9b59b1eb4","ios":"levelo://app?vid=ea7385af-3127-4f8d-82d2-b1a9b59b1eb4"},"vehicle_type_id":"4","last_reported":1705234316,"current_range_meters":31200,"station_id":"ce4bgvp2rcd13ifvqcu0","pricing_plan_id":"free"},{"bike_id":"fb3c827d-8819-445b-949a-0598c4625828","system_id":"levelo_inurba_marseille","lat":43.295323,"lon":5.385493,"is_reserved":false,"is_disabled":false,"rental_uris":{"android":"levelo://app?vid=fb3c827d-8819-445b-949a-0598c4625828","ios":"levelo://app?vid=fb3c827d-8819-445b-949a-0598c4625828"},"vehicle_type_id":"4","last_reported":1705234316,"current_range_meters":25200,"station_id":"ce4bgih2rcd13ifvqba0","pricing_plan_id":"free"},{"bike_id":"f726ec34-c6f5-4850-b701-e61c60a201db","system_id":"levelo_inurba_marseille","lat":43.298037,"lon":5.381066,"is_reserved":false,"is_disabled":false,"rental_uris":{"android":"levelo://app?vid=f726ec34-c6f5-4850-b701-e61c60a201db","ios":"levelo://app?vid=f726ec34-c6f5-4850-b701-e61c60a201db"},"vehicle_type_id":"4","last_reported":1705234316,"current_range_meters":23200,"station_id":"ce4bgip2rcd13ifvqbb0","pricing_plan_id":"free"},{"bike_id":"6312faf6-8fcb-457f-a74f-c5411657601f","system_id":"levelo_inurba_marseille","lat":43.302008,"lon":5.394694,"is_reserved":false,"is_disabled":false,"rental_uris":{"android":"levelo://app?vid=6312faf6-8fcb-457f-a74f-c5411657601f","ios":"levelo://app?vid=6312faf6-8fcb-457f-a74f-c5411657601f"},"vehicle_type_id":"4","last_reported":1705234316,"current_range_meters":19600,"station_id":"ce4bh0p2rcd13ifvqd70","pricing_plan_id":"free"},{"bike_id":"9cad79d8-361c-48c4-8ea6-37f686b59ffe","system_id":"levelo_inurba_marseille","lat":43.30205,"lon":5.3947,"is_reserved":false,"is_disabled":false,"rental_uris":{"android":"levelo://app?vid=9cad79d8-361c-48c4-8ea6-37f686b59ffe","ios":"levelo://app?vid=9cad79d8-361c-48c4-8ea6-37f686b59ffe"},"vehicle_type_id":"4","last_reported":1705234316,"current_range_meters":9200,"station_id":"ce4bh0p2rcd13ifvqd70","pricing_plan_id":"free"},{"bike_id":"fa33c506-1433-47c3-bca4-2a4c5372feb1","system_id":"levelo_inurba_marseille","lat":43.302008,"lon":5.394694,"is_reserved":false,"is_disabled":false,"rental_uris":{"android":"levelo://app?vid=fa33c506-1433-47c3-bca4-2a4c5372feb1","ios":"levelo://app?vid=fa33c506-1433-47c3-bca4-2a4c5372feb1"},"vehicle_type_id":"4","last_reported":1705234316,"current_range_meters":28800,"station_id":"ce4bh0p2rcd13ifvqd70","pricing_plan_id":"free"},{"bike_id":"e4e885a2-3797-4c21-b5bd-ccdbc3af4cce","system_id":"levelo_inurba_marseille","lat":43.313571,"lon":5.384829,"is_reserved":false,"is_disabled":false,"rental_uris":{"android":"levelo://app?vid=e4e885a2-3797-4c21-b5bd-ccdbc3af4cce","ios":"levelo://app?vid=e4e885a2-3797-4c21-b5bd-ccdbc3af4cce"},"vehicle_type_id":"4","last_reported":1705234316,"current_range_meters":24000,"station_id":"ce4bgt92rcd13ifvqcf0","pricing_plan_id":"free"},{"bike_id":"9c91eea7-1288-47fd-8862-ce80502c6693","system_id":"levelo_inurba_marseille","lat":43.289343,"lon":5.366398,"is_reserved":false,"is_disabled":false,"rental_uris":{"android":"levelo://app?vid=9c91eea7-1288-47fd-8862-ce80502c6693","ios":"levelo://app?vid=9c91eea7-1288-47fd-8862-ce80502c6693"},"vehicle_type_id":"4","last_reported":1705234316,"current_range_meters":0,"station_id":"ce4bhap2rcd13ifvqek0","pricing_plan_id":"free"},{"bike_id":"c96356c0-3c32-49e6-8e08-3e8fb8f5dd6e","system_id":"levelo_inurba_marseille","lat":43.289468,"lon":5.363719,"is_reserved":false,"is_disabled":false,"rental_uris":{"android":"levelo://app?vid=c96356c0-3c32-49e6-8e08-3e8fb8f5dd6e","ios":"levelo://app?vid=c96356c0-3c32-49e6-8e08-3e8fb8f5dd6e"},"vehicle_type_id":"4","last_reported":1705234316,"current_range_meters":26400,"station_id":"ce4bhc92rcd13ifvqetg","pricing_plan_id":"free"},{"bike_id":"9daa9a74-4450-4af2-b1cb-53a9fe70992a","system_id":"levelo_inurba_marseille","lat":43.289468,"lon":5.363719,"is_reserved":false,"is_disabled":false,"rental_uris":{"android":"levelo://app?vid=9daa9a74-4450-4af2-b1cb-53a9fe70992a","ios":"levelo://app?vid=9daa9a74-4450-4af2-b1cb-53a9fe70992a"},"vehicle_type_id":"4","last_reported":1705234316,"current_range_meters":25200,"station_id":"ce4bhc92rcd13ifvqetg","pricing_plan_id":"free"},{"bike_id":"16f5bb18-483b-4aa6-b6bb-7087f591979c","system_id":"levelo_inurba_marseille","lat":43.304274,"lon":5.397513,"is_reserved":false,"is_disabled":false,"rental_uris":{"android":"levelo://app?vid=16f5bb18-483b-4aa6-b6bb-7087f591979c","ios":"levelo://app?vid=16f5bb18-483b-4aa6-b6bb-7087f591979c"},"vehicle_type_id":"4","last_reported":1705234316,"current_range_meters":17200,"station_id":"ce4bh092rcd13ifvqd20","pricing_plan_id":"free"},{"bike_id":"18449496-c6f1-42d8-a57e-84af83ff0bf5","system_id":"levelo_inurba_marseille","lat":43.292642,"lon":5.384254,"is_reserved":false,"is_disabled":false,"rental_uris":{"android":"levelo://app?vid=18449496-c6f1-42d8-a57e-84af83ff0bf5","ios":"levelo://app?vid=18449496-c6f1-42d8-a57e-84af83ff0bf5"},"vehicle_type_id":"4","last_reported":1705234316,"current_range_meters":8800,"station_id":"ce4bh692rcd13ifvqea0","pricing_plan_id":"free"},{"bike_id":"f2e10c67-1299-4f13-b10e-d99b71ac4d52","system_id":"levelo_inurba_marseille","lat":43.29305,"lon":5.38538,"is_reserved":false,"is_disabled":false,"rental_uris":{"android":"levelo://app?vid=f2e10c67-1299-4f13-b10e-d99b71ac4d52","ios":"levelo://app?vid=f2e10c67-1299-4f13-b10e-d99b71ac4d52"},"vehicle_type_id":"4","last_reported":1705234316,"current_range_meters":20400,"station_id":"","pricing_plan_id":"free"},{"bike_id":"82480ff5-97b9-4b97-9013-52bfbdbd1a46","system_id":"levelo_inurba_marseille","lat":43.289567,"lon":5.359145,"is_reserved":false,"is_disabled":false,"rental_uris":{"android":"levelo://app?vid=82480ff5-97b9-4b97-9013-52bfbdbd1a46","ios":"levelo://app?vid=82480ff5-97b9-4b97-9013-52bfbdbd1a46"},"vehicle_type_id":"4","last_reported":1705234316,"current_range_meters":14000,"station_id":"","pricing_plan_id":"free"},{"bike_id":"fd8504b3-8971-4e22-8bcc-63f03e23edf6","system_id":"levelo_inurba_marseille","lat":43.292642,"lon":5.384254,"is_reserved":false,"is_disabled":false,"rental_uris":{"android":"levelo://app?vid=fd8504b3-8971-4e22-8bcc-63f03e23edf6","ios":"levelo://app?vid=fd8504b3-8971-4e22-8bcc-63f03e23edf6"},"vehicle_type_id":"4","last_reported":1705234316,"current_range_meters":11600,"station_id":"ce4bh692rcd13ifvqea0","pricing_plan_id":"free"},{"bike_id":"48ef6b22-cc2c-4ec6-9fff-8b099b54bddc","system_id":"levelo_inurba_marseille","lat":43.292644,"lon":5.384257,"is_reserved":false,"is_disabled":false,"rental_uris":{"android":"levelo://app?vid=48ef6b22-cc2c-4ec6-9fff-8b099b54bddc","ios":"levelo://app?vid=48ef6b22-cc2c-4ec6-9fff-8b099b54bddc"},"vehicle_type_id":"4","last_reported":1705234316,"current_range_meters":22000,"station_id":"ce4bh692rcd13ifvqea0","pricing_plan_id":"free"},{"bike_id":"c28bf7d9-a577-46aa-bf40-4728418d5606","system_id":"levelo_inurba_marseille","lat":43.3302,"lon":5.390335,"is_reserved":false,"is_disabled":false,"rental_uris":{"android":"levelo://app?vid=c28bf7d9-a577-46aa-bf40-4728418d5606","ios":"levelo://app?vid=c28bf7d9-a577-46aa-bf40-4728418d5606"},"vehicle_type_id":"4","last_reported":1705234316,"current_range_meters":27200,"station_id":"ce4bhr92rcd13ifvqhrg","pricing_plan_id":"free"},{"bike_id":"1c105223-9a62-41d6-9fc7-df3b9b685160","system_id":"levelo_inurba_marseille","lat":43.29775,"lon":5.39337,"is_reserved":false,"is_disabled":false,"rental_uris":{"android":"levelo://app?vid=1c105223-9a62-41d6-9fc7-df3b9b685160","ios":"levelo://app?vid=1c105223-9a62-41d6-9fc7-df3b9b685160"},"vehicle_type_id":"4","last_reported":1705234316,"current_range_meters":17200,"station_id":"chh1huq6cuj3fo74tm60","pricing_plan_id":"free"},{"bike_id":"4ff1afb2-1ced-48a7-9737-516454b16974","system_id":"levelo_inurba_marseille","lat":43.33018,"lon":5.3904,"is_reserved":false,"is_disabled":false,"rental_uris":{"android":"levelo://app?vid=4ff1afb2-1ced-48a7-9737-516454b16974","ios":"levelo://app?vid=4ff1afb2-1ced-48a7-9737-516454b16974"},"vehicle_type_id":"4","last_reported":1705234316,"current_range_meters":15200,"station_id":"ce4bhr92rcd13ifvqhrg","pricing_plan_id":"free"},{"bike_id":"68c15ded-119e-4aad-aa0b-6e9d4b7149fd","system_id":"levelo_inurba_marseille","lat":43.330442,"lon":5.389148,"is_reserved":false,"is_disabled":false,"rental_uris":{"android":"levelo://app?vid=68c15ded-119e-4aad-aa0b-6e9d4b7149fd","ios":"levelo://app?vid=68c15ded-119e-4aad-aa0b-6e9d4b7149fd"},"vehicle_type_id":"4","last_reported":1705234316,"current_range_meters":17200,"station_id":"ce4bhr92rcd13ifvqhrg","pricing_plan_id":"free"},{"bike_id":"5e21ea74-79fb-445f-a1fd-0d2b8da69ae3","system_id":"levelo_inurba_marseille","lat":43.330442,"lon":5.389148,"is_reserved":false,"is_disabled":false,"rental_uris":{"android":"levelo://app?vid=5e21ea74-79fb-445f-a1fd-0d2b8da69ae3","ios":"levelo://app?vid=5e21ea74-79fb-445f-a1fd-0d2b8da69ae3"},"vehicle_type_id":"4","last_reported":1705234316,"current_range_meters":7600,"station_id":"ce4bhr92rcd13ifvqhrg","pricing_plan_id":"free"},{"bike_id":"c3e044cb-b151-474d-ac04-adbbe6ef019d","system_id":"levelo_inurba_marseille","lat":43.33023,"lon":5.39038,"is_reserved":false,"is_disabled":false,"rental_uris":{"android":"levelo://app?vid=c3e044cb-b151-474d-ac04-adbbe6ef019d","ios":"levelo://app?vid=c3e044cb-b151-474d-ac04-adbbe6ef019d"},"vehicle_type_id":"4","last_reported":1705234316,"current_range_meters":1200,"station_id":"ce4bhr92rcd13ifvqhrg","pricing_plan_id":"free"},{"bike_id":"64e1dbd0-9da5-42ca-ac38-6ffb8073af2b","system_id":"levelo_inurba_marseille","lat":43.330442,"lon":5.389148,"is_reserved":false,"is_disabled":false,"rental_uris":{"android":"levelo://app?vid=64e1dbd0-9da5-42ca-ac38-6ffb8073af2b","ios":"levelo://app?vid=64e1dbd0-9da5-42ca-ac38-6ffb8073af2b"},"vehicle_type_id":"4","last_reported":1705234316,"current_range_meters":18800,"station_id":"ce4bhr92rcd13ifvqhrg","pricing_plan_id":"free"},{"bike_id":"09ab6abf-eb39-458e-99af-dc9032b14763","system_id":"levelo_inurba_marseille","lat":43.330257,"lon":5.390365,"is_reserved":false,"is_disabled":false,"rental_uris":{"android":"levelo://app?vid=09ab6abf-eb39-458e-99af-dc9032b14763","ios":"levelo://app?vid=09ab6abf-eb39-458e-99af-dc9032b14763"},"vehicle_type_id":"4","last_reported":1705234316,"current_range_meters":12400,"station_id":"ce4bhr92rcd13ifvqhrg","pricing_plan_id":"free"},{"bike_id":"f7ff301f-4bfe-4aba-8d36-fa2819f428ac","system_id":"levelo_inurba_marseille","lat":43.330442,"lon":5.389148,"is_reserved":false,"is_disabled":false,"rental_uris":{"android":"levelo://app?vid=f7ff301f-4bfe-4aba-8d36-fa2819f428ac","ios":"levelo://app?vid=f7ff301f-4bfe-4aba-8d36-fa2819f428ac"},"vehicle_type_id":"4","last_reported":1705234316,"current_range_meters":25200,"station_id":"ce4bhr92rcd13ifvqhrg","pricing_plan_id":"free"},{"bike_id":"9fa28e51-97cd-4aff-bc10-430a264f0acf","system_id":"levelo_inurba_marseille","lat":43.33029,"lon":5.39039,"is_reserved":false,"is_disabled":false,"rental_uris":{"android":"levelo://app?vid=9fa28e51-97cd-4aff-bc10-430a264f0acf","ios":"levelo://app?vid=9fa28e51-97cd-4aff-bc10-430a264f0acf"},"vehicle_type_id":"4","last_reported":1705234316,"current_range_meters":19200,"station_id":"ce4bhr92rcd13ifvqhrg","pricing_plan_id":"free"},{"bike_id":"0ae450f1-c2c2-4ef6-9f75-11c3670a4452","system_id":"levelo_inurba_marseille","lat":43.289743,"lon":5.378304,"is_reserved":false,"is_disabled":false,"rental_uris":{"android":"levelo://app?vid=0ae450f1-c2c2-4ef6-9f75-11c3670a4452","ios":"levelo://app?vid=0ae450f1-c2c2-4ef6-9f75-11c3670a4452"},"vehicle_type_id":"4","last_reported":1705234316,"current_range_meters":26000,"station_id":"ce4bh9p2rcd13ifvqed0","pricing_plan_id":"free"},{"bike_id":"5d6885d1-9aeb-4373-b50e-6808f0b0e72c","system_id":"levelo_inurba_marseille","lat":43.28856,"lon":5.358371,"is_reserved":false,"is_disabled":false,"rental_uris":{"android":"levelo://app?vid=5d6885d1-9aeb-4373-b50e-6808f0b0e72c","ios":"levelo://app?vid=5d6885d1-9aeb-4373-b50e-6808f0b0e72c"},"vehicle_type_id":"4","last_reported":1705234316,"current_range_meters":13600,"station_id":"ce4bhb12rcd13ifvqem0","pricing_plan_id":"free"},{"bike_id":"00dc64a1-7a57-4983-9a0f-61766ceedee9","system_id":"levelo_inurba_marseille","lat":43.295279,"lon":5.375048,"is_reserved":false,"is_disabled":false,"rental_uris":{"android":"levelo://app?vid=00dc64a1-7a57-4983-9a0f-61766ceedee9","ios":"levelo://app?vid=00dc64a1-7a57-4983-9a0f-61766ceedee9"},"vehicle_type_id":"4","last_reported":1705234316,"current_range_meters":4000,"station_id":"ce4bgkp2rcd13ifvqbmg","pricing_plan_id":"free"},{"bike_id":"509214b2-3a48-478a-bb1c-c74559713191","system_id":"levelo_inurba_marseille","lat":43.312609,"lon":5.401662,"is_reserved":false,"is_disabled":false,"rental_uris":{"android":"levelo://app?vid=509214b2-3a48-478a-bb1c-c74559713191","ios":"levelo://app?vid=509214b2-3a48-478a-bb1c-c74559713191"},"vehicle_type_id":"4","last_reported":1705234316,"current_range_meters":16400,"station_id":"ce4bh092rcd13ifvqd30","pricing_plan_id":"free"},{"bike_id":"672ce802-6141-4275-b3b2-fa5acaa5b680","system_id":"levelo_inurba_marseille","lat":43.309371,"lon":5.401449,"is_reserved":false,"is_disabled":false,"rental_uris":{"android":"levelo://app?vid=672ce802-6141-4275-b3b2-fa5acaa5b680","ios":"levelo://app?vid=672ce802-6141-4275-b3b2-fa5acaa5b680"},"vehicle_type_id":"4","last_reported":1705234316,"current_range_meters":20400,"station_id":"ce4bgvp2rcd13ifvqct0","pricing_plan_id":"free"},{"bike_id":"1157bbbe-e954-4d3a-8963-3e1928ba27bf","system_id":"levelo_inurba_marseille","lat":43.306412,"lon":5.401035,"is_reserved":false,"is_disabled":false,"rental_uris":{"android":"levelo://app?vid=1157bbbe-e954-4d3a-8963-3e1928ba27bf","ios":"levelo://app?vid=1157bbbe-e954-4d3a-8963-3e1928ba27bf"},"vehicle_type_id":"4","last_reported":1705234316,"current_range_meters":28000,"station_id":"ce4bh112rcd13ifvqda0","pricing_plan_id":"free"},{"bike_id":"63c5087d-e859-4758-8c9e-b5d2575f881f","system_id":"levelo_inurba_marseille","lat":43.306412,"lon":5.401035,"is_reserved":false,"is_disabled":false,"rental_uris":{"android":"levelo://app?vid=63c5087d-e859-4758-8c9e-b5d2575f881f","ios":"levelo://app?vid=63c5087d-e859-4758-8c9e-b5d2575f881f"},"vehicle_type_id":"4","last_reported":1705234316,"current_range_meters":12400,"station_id":"ce4bh112rcd13ifvqda0","pricing_plan_id":"free"},{"bike_id":"fa773665-e4de-4aec-b46e-086f4e27319b","system_id":"levelo_inurba_marseille","lat":43.309371,"lon":5.401449,"is_reserved":false,"is_disabled":false,"rental_uris":{"android":"levelo://app?vid=fa773665-e4de-4aec-b46e-086f4e27319b","ios":"levelo://app?vid=fa773665-e4de-4aec-b46e-086f4e27319b"},"vehicle_type_id":"4","last_reported":1705234316,"current_range_meters":12800,"station_id":"ce4bgvp2rcd13ifvqct0","pricing_plan_id":"free"},{"bike_id":"094a73e7-ad5f-49a1-af6a-3e0c60790dda","system_id":"levelo_inurba_marseille","lat":43.30148,"lon":5.39878,"is_reserved":false,"is_disabled":false,"rental_uris":{"android":"levelo://app?vid=094a73e7-ad5f-49a1-af6a-3e0c60790dda","ios":"levelo://app?vid=094a73e7-ad5f-49a1-af6a-3e0c60790dda"},"vehicle_type_id":"4","last_reported":1705234316,"current_range_meters":18800,"station_id":"ce4bh0h2rcd13ifvqd40","pricing_plan_id":"free"},{"bike_id":"a52f3f63-ff72-4e36-a43d-fbf090eb96a9","system_id":"levelo_inurba_marseille","lat":43.28727,"lon":5.36078,"is_reserved":false,"is_disabled":false,"rental_uris":{"android":"levelo://app?vid=a52f3f63-ff72-4e36-a43d-fbf090eb96a9","ios":"levelo://app?vid=a52f3f63-ff72-4e36-a43d-fbf090eb96a9"},"vehicle_type_id":"4","last_reported":1705234316,"current_range_meters":21600,"station_id":"cki0cbj6b192h4jlfktg","pricing_plan_id":"free"},{"bike_id":"60eb2395-1e26-4ee9-adc5-8b047fe7d636","system_id":"levelo_inurba_marseille","lat":43.28727,"lon":5.36078,"is_reserved":false,"is_disabled":false,"rental_uris":{"android":"levelo://app?vid=60eb2395-1e26-4ee9-adc5-8b047fe7d636","ios":"levelo://app?vid=60eb2395-1e26-4ee9-adc5-8b047fe7d636"},"vehicle_type_id":"4","last_reported":1705234316,"current_range_meters":5200,"station_id":"cki0cbj6b192h4jlfktg","pricing_plan_id":"free"},{"bike_id":"e5bbcff8-5cae-4e63-8603-76371f5d6adf","system_id":"levelo_inurba_marseille","lat":43.295196,"lon":5.39397,"is_reserved":false,"is_disabled":false,"rental_uris":{"android":"levelo://app?vid=e5bbcff8-5cae-4e63-8603-76371f5d6adf","ios":"levelo://app?vid=e5bbcff8-5cae-4e63-8603-76371f5d6adf"},"vehicle_type_id":"4","last_reported":1705234316,"current_range_meters":26800,"station_id":"ce4bh292rcd13ifvqdf0","pricing_plan_id":"free"},{"bike_id":"b3e4636b-355b-4d60-a182-f3f608d15056","system_id":"levelo_inurba_marseille","lat":43.295194,"lon":5.39397,"is_reserved":false,"is_disabled":false,"rental_uris":{"android":"levelo://app?vid=b3e4636b-355b-4d60-a182-f3f608d15056","ios":"levelo://app?vid=b3e4636b-355b-4d60-a182-f3f608d15056"},"vehicle_type_id":"4","last_reported":1705234316,"current_range_meters":20400,"station_id":"ce4bh292rcd13ifvqdf0","pricing_plan_id":"free"},{"bike_id":"2ab2c7be-d9ae-4043-9f15-0b05a76055b9","system_id":"levelo_inurba_marseille","lat":43.286593,"lon":5.363346,"is_reserved":false,"is_disabled":false,"rental_uris":{"android":"levelo://app?vid=2ab2c7be-d9ae-4043-9f15-0b05a76055b9","ios":"levelo://app?vid=2ab2c7be-d9ae-4043-9f15-0b05a76055b9"},"vehicle_type_id":"4","last_reported":1705234316,"current_range_meters":18400,"station_id":"ce4bhah2rcd13ifvqej0","pricing_plan_id":"free"},{"bike_id":"6f758d7c-57d9-4dd5-a2da-225249c8ee27","system_id":"levelo_inurba_marseille","lat":43.289307,"lon":5.38406,"is_reserved":false,"is_disabled":false,"rental_uris":{"android":"levelo://app?vid=6f758d7c-57d9-4dd5-a2da-225249c8ee27","ios":"levelo://app?vid=6f758d7c-57d9-4dd5-a2da-225249c8ee27"},"vehicle_type_id":"4","last_reported":1705234316,"current_range_meters":24000,"station_id":"ce4bh612rcd13ifvqe6g","pricing_plan_id":"free"},{"bike_id":"9974ad16-d8d4-4842-894b-f31586557c46","system_id":"levelo_inurba_marseille","lat":43.290345,"lon":5.38646,"is_reserved":false,"is_disabled":false,"rental_uris":{"android":"levelo://app?vid=9974ad16-d8d4-4842-894b-f31586557c46","ios":"levelo://app?vid=9974ad16-d8d4-4842-894b-f31586557c46"},"vehicle_type_id":"4","last_reported":1705234316,"current_range_meters":25600,"station_id":"ce4bh4p2rcd13ifvqe0g","pricing_plan_id":"free"},{"bike_id":"db283bcd-4c6e-4194-92bc-db477b4f5cbd","system_id":"levelo_inurba_marseille","lat":43.302759,"lon":5.400793,"is_reserved":false,"is_disabled":false,"rental_uris":{"android":"levelo://app?vid=db283bcd-4c6e-4194-92bc-db477b4f5cbd","ios":"levelo://app?vid=db283bcd-4c6e-4194-92bc-db477b4f5cbd"},"vehicle_type_id":"4","last_reported":1705234316,"current_range_meters":20400,"station_id":"ce4bgvh2rcd13ifvqcs0","pricing_plan_id":"free"},{"bike_id":"c65a4b49-61a2-4fd1-a447-11258761e501","system_id":"levelo_inurba_marseille","lat":43.302759,"lon":5.400793,"is_reserved":false,"is_disabled":false,"rental_uris":{"android":"levelo://app?vid=c65a4b49-61a2-4fd1-a447-11258761e501","ios":"levelo://app?vid=c65a4b49-61a2-4fd1-a447-11258761e501"},"vehicle_type_id":"4","last_reported":1705234316,"current_range_meters":16800,"station_id":"ce4bgvh2rcd13ifvqcs0","pricing_plan_id":"free"},{"bike_id":"d5ff2230-bfc7-4acf-b875-34732d500efc","system_id":"levelo_inurba_marseille","lat":43.286039,"lon":5.370681,"is_reserved":false,"is_disabled":false,"rental_uris":{"android":"levelo://app?vid=d5ff2230-bfc7-4acf-b875-34732d500efc","ios":"levelo://app?vid=d5ff2230-bfc7-4acf-b875-34732d500efc"},"vehicle_type_id":"4","last_reported":1705234316,"current_range_meters":0,"station_id":"ce4bht12rcd13ifvqi60","pricing_plan_id":"free"},{"bike_id":"dd03ae07-5882-4cce-9ecf-922eb291525b","system_id":"levelo_inurba_marseille","lat":43.287102,"lon":5.379387,"is_reserved":false,"is_disabled":false,"rental_uris":{"android":"levelo://app?vid=dd03ae07-5882-4cce-9ecf-922eb291525b","ios":"levelo://app?vid=dd03ae07-5882-4cce-9ecf-922eb291525b"},"vehicle_type_id":"4","last_reported":1705234316,"current_range_meters":23200,"station_id":"ce4bh9p2rcd13ifvqec0","pricing_plan_id":"free"},{"bike_id":"53b9c2f3-eab3-43ce-9487-c3af00533bab","system_id":"levelo_inurba_marseille","lat":43.291671,"lon":5.371575,"is_reserved":false,"is_disabled":false,"rental_uris":{"android":"levelo://app?vid=53b9c2f3-eab3-43ce-9487-c3af00533bab","ios":"levelo://app?vid=53b9c2f3-eab3-43ce-9487-c3af00533bab"},"vehicle_type_id":"4","last_reported":1705234316,"current_range_meters":4800,"station_id":"ce4bha92rcd13ifvqeh0","pricing_plan_id":"free"},{"bike_id":"b7076b39-4218-4e1e-863b-3309acb3de33","system_id":"levelo_inurba_marseille","lat":43.316828,"lon":5.404723,"is_reserved":false,"is_disabled":false,"rental_uris":{"android":"levelo://app?vid=b7076b39-4218-4e1e-863b-3309acb3de33","ios":"levelo://app?vid=b7076b39-4218-4e1e-863b-3309acb3de33"},"vehicle_type_id":"4","last_reported":1705234316,"current_range_meters":800,"station_id":"ce4bh012rcd13ifvqd00","pricing_plan_id":"free"},{"bike_id":"1d9850bb-f79b-40fe-897f-218bcb9701a1","system_id":"levelo_inurba_marseille","lat":43.316828,"lon":5.404723,"is_reserved":false,"is_disabled":false,"rental_uris":{"android":"levelo://app?vid=1d9850bb-f79b-40fe-897f-218bcb9701a1","ios":"levelo://app?vid=1d9850bb-f79b-40fe-897f-218bcb9701a1"},"vehicle_type_id":"4","last_reported":1705234316,"current_range_meters":15200,"station_id":"ce4bh012rcd13ifvqd00","pricing_plan_id":"free"},{"bike_id":"c7ecaf50-589c-4754-a771-478ddbdc68d0","system_id":"levelo_inurba_marseille","lat":43.316954,"lon":5.404731,"is_reserved":false,"is_disabled":false,"rental_uris":{"android":"levelo://app?vid=c7ecaf50-589c-4754-a771-478ddbdc68d0","ios":"levelo://app?vid=c7ecaf50-589c-4754-a771-478ddbdc68d0"},"vehicle_type_id":"4","last_reported":1705234316,"current_range_meters":23600,"station_id":"ce4bh012rcd13ifvqd00","pricing_plan_id":"free"},{"bike_id":"a571a266-abf6-4a8c-934a-89d8bcaf3641","system_id":"levelo_inurba_marseille","lat":43.28453,"lon":5.35887,"is_reserved":false,"is_disabled":false,"rental_uris":{"android":"levelo://app?vid=a571a266-abf6-4a8c-934a-89d8bcaf3641","ios":"levelo://app?vid=a571a266-abf6-4a8c-934a-89d8bcaf3641"},"vehicle_type_id":"4","last_reported":1705234316,"current_range_meters":4400,"station_id":"ce4bhah2rcd13ifvqei0","pricing_plan_id":"free"},