{"last_updated":1685470096,"ttl":30,"version":"2.2","data":{"bikes":[{"bike_id":"37a85ad5-7654-4f7c-91cb-95c4eda6da41","system_id":"levelo_inurba_marseille","lat":43.31489,"lon":5.37305,"is_reserved":false,"is_disabled":false,"rental_uris":{"android":"levelo://app?vid=37a85ad5-7654-4f7c-91cb-95c4eda6da41","ios":"levelo://app?vid=37a85ad5-7654-4f7c-91cb-95c4eda6da41"},"vehicle_type_id":"4","last_reported":1685470097,"current_range_meters":0,"station_id":"ce4bgt12rcd13ifvqcd0","pricing_plan_id":"free"},{"bike_id":"befb3097-eebc-4983-80ef-19b5365d85c1","system_id":"levelo_inurba_marseille","lat":43.314811,"lon":5.373104,"is_reserved":false,"is_disabled":false,"rental_uris":{"android":"levelo://app?vid=befb3097-eebc-4983-80ef-19b5365d85c1","ios":"levelo://app?vid=befb3097-eebc-4983-80ef-19b5365d85c1"},"vehicle_type_id":"4","last_reported":1685470097,"current_range_meters":15600,"station_id":"ce4bgt12rcd13ifvqcd0","pricing_plan_id":"free"},{"bike_id":"f69a3f8a-adab-435a-ad98-4302ca7a3c35","system_id":"levelo_inurba_marseille","lat":43.31856,"lon":5.37313,"is_reserved":false,"is_disabled":false,"rental_uris":{"android":"levelo://app?vid=f69a3f8a-adab-435a-ad98-4302ca7a3c35","ios":"levelo://app?vid=f69a3f8a-adab-435a-ad98-4302ca7a3c35"},"vehicle_type_id":"4","last_reported":1685470097,"current_range_meters":20800,"station_id":"","pricing_plan_id":"free"},{"bike_id":"ddcfe8f9-be96-44b5-93c4-7d2a848af3e9","system_id":"levelo_inurba_marseille","lat":43.30514,"lon":5.36691,"is_reserved":false,"is_disabled":false,"rental_uris":{"android":"levelo://app?vid=ddcfe8f9-be96-44b5-93c4-7d2a848af3e9","ios":"levelo://app?vid=ddcfe8f9-be96-44b5-93c4-7d2a848af3e9"},"vehicle_type_id":"4","last_reported":1685470097,"current_range_meters":2400,"station_id":"","pricing_plan_id":"free"},{"bike_id":"587e9439-084d-4127-b9e5-8dc8ce30244a","system_id":"levelo_inurba_marseille","lat":43.30514,"lon":5.36695,"is_reserved":false,"is_disabled":false,"rental_uris":{"android":"levelo://app?vid=587e9439-084d-4127-b9e5-8dc8ce30244a","ios":"levelo://app?vid=587e9439-084d-4127-b9e5-8dc8ce30244a"},"vehicle_type_id":"4","last_reported":1685470097,"current_range_meters":2400,"station_id":"","pricing_plan_id":"free"},{"bike_id":"b29132cb-51f0-410a-b48f-a6928cbe3666","system_id":"levelo_inurba_marseille","lat":43.30603,"lon":5.37227,"is_reserved":false,"is_disabled":false,"rental_uris":{"android":"levelo://app?vid=b29132cb-51f0-410a-b48f-a6928cbe3666","ios":"levelo://app?vid=b29132cb-51f0-410a-b48f-a6928cbe3666"},"vehicle_type_id":"4","last_reported":1685470097,"current_range_meters":17600,"station_id":"ce4bgqh2rcd13ifvqc4g","pricing_plan_id":"free"},{"bike_id":"03d987d4-b7af-47ab-92f5-3e6efef4e8cd","system_id":"levelo_inurba_marseille","lat":43.305989,"lon":5.37225,"is_reserved":false,"is_disabled":false,"rental_uris":{"android":"levelo://app?vid=03d987d4-b7af-47ab-92f5-3e6efef4e8cd","ios":"levelo://app?vid=03d987d4-b7af-47ab-92f5-3e6efef4e8cd"},"vehicle_type_id":"4","last_reported":1685470097,"current_range_meters":1200,"station_id":"ce4bgqh2rcd13ifvqc4g","pricing_plan_id":"free"},{"bike_id":"f88048ca-fd75-4692-b186-7aa8cdd693ad","system_id":"levelo_inurba_marseille","lat":43.305989,"lon":5.37225,"is_reserved":false,"is_disabled":false,"rental_uris":{"android":"levelo://app?vid=f88048ca-fd75-4692-b186-7aa8cdd693ad","ios":"levelo://app?vid=f88048ca-fd75-4692-b186-7aa8cdd693ad"},"vehicle_type_id":"4","last_reported":1685470097,"current_range_meters":14800,"station_id":"ce4bgqh2rcd13ifvqc4g","pricing_plan_id":"free"},{"bike_id":"1460f1c6-11f4-48ea-a64f-85c8a981ea4e","system_id":"levelo_inurba_marseille","lat":43.311125,"lon":5.377624,"is_reserved":false,"is_disabled":false,"rental_uris":{"android":"levelo://app?vid=1460f1c6-11f4-48ea-a64f-85c8a981ea4e","ios":"levelo://app?vid=1460f1c6-11f4-48ea-a64f-85c8a981ea4e"},"vehicle_type_id":"4","last_reported":1685470097,"current_range_meters":17600,"station_id":"ce4bgt92rcd13ifvqcg0","pricing_plan_id":"free"},{"bike_id":"0df700ef-95e9-4009-86fb-9e0105df5dea","system_id":"levelo_inurba_marseille","lat":43.31597,"lon":5.37876,"is_reserved":false,"is_disabled":false,"rental_uris":{"android":"levelo://app?vid=0df700ef-95e9-4009-86fb-9e0105df5dea","ios":"levelo://app?vid=0df700ef-95e9-4009-86fb-9e0105df5dea"},"vehicle_type_id":"4","last_reported":1685470097,"current_range_meters":12400,"station_id":"","pricing_plan_id":"free"},{"bike_id":"0508d2d7-0054-45e7-8b91-aaa554e231d1","system_id":"levelo_inurba_marseille","lat":43.315293,"lon":5.380349,"is_reserved":false,"is_disabled":false,"rental_uris":{"android":"levelo://app?vid=0508d2d7-0054-45e7-8b91-aaa554e231d1","ios":"levelo://app?vid=0508d2d7-0054-45e7-8b91-aaa554e231d1"},"vehicle_type_id":"4","last_reported":1685470097,"current_range_meters":16800,"station_id":"ce4bhsp2rcd13ifvqi50","pricing_plan_id":"free"},{"bike_id":"25b0f5bf-f8ab-44f3-8ba3-65c6eb7754b0","system_id":"levelo_inurba_marseille","lat":43.301939,"lon":5.366286,"is_reserved":false,"is_disabled":false,"rental_uris":{"android":"levelo://app?vid=25b0f5bf-f8ab-44f3-8ba3-65c6eb7754b0","ios":"levelo://app?vid=25b0f5bf-f8ab-44f3-8ba3-65c6eb7754b0"},"vehicle_type_id":"4","last_reported":1685470097,"current_range_meters":12800,"station_id":"ce4bgrh2rcd13ifvqc8g","pricing_plan_id":"free"},{"bike_id":"e1b7e638-db54-42d5-ae85-3e1337e37665","system_id":"levelo_inurba_marseille","lat":43.31634,"lon":5.3834,"is_reserved":false,"is_disabled":false,"rental_uris":{"android":"levelo://app?vid=e1b7e638-db54-42d5-ae85-3e1337e37665","ios":"levelo://app?vid=e1b7e638-db54-42d5-ae85-3e1337e37665"},"vehicle_type_id":"4","last_reported":1685470097,"current_range_meters":17200,"station_id":"","pricing_plan_id":"free"},{"bike_id":"c905a6bf-bfd4-4edc-87b4-53204571edf4","system_id":"levelo_inurba_marseille","lat":43.319935,"lon":5.381699,"is_reserved":false,"is_disabled":false,"rental_uris":{"android":"levelo://app?vid=c905a6bf-bfd4-4edc-87b4-53204571edf4","ios":"levelo://app?vid=c905a6bf-bfd4-4edc-87b4-53204571edf4"},"vehicle_type_id":"4","last_reported":1685470097,"current_range_meters":12400,"station_id":"ce4bhr12rcd13ifvqhpg","pricing_plan_id":"free"},{"bike_id":"a92faa89-9a68-4973-bb52-daa4c0bb129b","system_id":"levelo_inurba_marseille","lat":43.298433,"lon":5.362774,"is_reserved":false,"is_disabled":false,"rental_uris":{"android":"levelo://app?vid=a92faa89-9a68-4973-bb52-daa4c0bb129b","ios":"levelo://app?vid=a92faa89-9a68-4973-bb52-daa4c0bb129b"},"vehicle_type_id":"4","last_reported":1685470097,"current_range_meters":13200,"station_id":"ce4bgpp2rcd13ifvqc3g","pricing_plan_id":"free"},{"bike_id":"41e856ef-a893-4737-999d-212c0ae51447","system_id":"levelo_inurba_marseille","lat":43.311722,"lon":5.387247,"is_reserved":false,"is_disabled":false,"rental_uris":{"android":"levelo://app?vid=41e856ef-a893-4737-999d-212c0ae51447","ios":"levelo://app?vid=41e856ef-a893-4737-999d-212c0ae51447"},"vehicle_type_id":"4","last_reported":1685470097,"current_range_meters":6800,"station_id":"ce4bgv12rcd13ifvqcp0","pricing_plan_id":"free"},{"bike_id":"6b3b8e64-f538-4695-b13f-c4b350d0832b","system_id":"levelo_inurba_marseille","lat":43.299243,"lon":5.37481,"is_reserved":false,"is_disabled":false,"rental_uris":{"android":"levelo://app?vid=6b3b8e64-f538-4695-b13f-c4b350d0832b","ios":"levelo://app?vid=6b3b8e64-f538-4695-b13f-c4b350d0832b"},"vehicle_type_id":"4","last_reported":1685470097,"current_range_meters":16800,"station_id":"ce4bgjh2rcd13ifvqbg0","pricing_plan_id":"free"},{"bike_id":"3682d8db-1f05-4d7b-b8f4-425b5a35213d","system_id":"levelo_inurba_marseille","lat":43.311722,"lon":5.387247,"is_reserved":false,"is_disabled":false,"rental_uris":{"android":"levelo://app?vid=3682d8db-1f05-4d7b-b8f4-425b5a35213d","ios":"levelo://app?vid=3682d8db-1f05-4d7b-b8f4-425b5a35213d"},"vehicle_type_id":"4","last_reported":1685470097,"current_range_meters":10400,"station_id":"ce4bgv12rcd13ifvqcp0","pricing_plan_id":"free"},{"bike_id":"015a167b-6621-48e1-95b6-ea1229b76048","system_id":"levelo_inurba_marseille","lat":43.297794,"lon":5.370888,"is_reserved":false,"is_disabled":false,"rental_uris":{"android":"levelo://app?vid=015a167b-6621-48e1-95b6-ea1229b76048","ios":"levelo://app?vid=015a167b-6621-48e1-95b6-ea1229b76048"},"vehicle_type_id":"4","last_reported":1685470097,"current_range_meters":10800,"station_id":"ce4bgop2rcd13ifvqc1g","pricing_plan_id":"free"},{"bike_id":"e114ce9d-7360-4682-bbe9-d54d36d06c02","system_id":"levelo_inurba_marseille","lat":43.328371,"lon":5.366909,"is_reserved":false,"is_disabled":false,"rental_uris":{"android":"levelo://app?vid=e114ce9d-7360-4682-bbe9-d54d36d06c02","ios":"levelo://app?vid=e114ce9d-7360-4682-bbe9-d54d36d06c02"},"vehicle_type_id":"4","last_reported":1685470097,"current_range_meters":10800,"station_id":"ce4bhs92rcd13ifvqi0g","pricing_plan_id":"free"},{"bike_id":"eccca70c-0886-4086-94da-09d5cb3b24a3","system_id":"levelo_inurba_marseille","lat":43.32833,"lon":5.36686,"is_reserved":false,"is_disabled":false,"rental_uris":{"android":"levelo://app?vid=eccca70c-0886-4086-94da-09d5cb3b24a3","ios":"levelo://app?vid=eccca70c-0886-4086-94da-09d5cb3b24a3"},"vehicle_type_id":"4","last_reported":1685470097,"current_range_meters":14000,"station_id":"ce4bhs92rcd13ifvqi0g","pricing_plan_id":"free"},{"bike_id":"3f4386b8-8536-4119-8be8-684a101315dc","system_id":"levelo_inurba_marseille","lat":43.328371,"lon":5.366909,"is_reserved":false,"is_disabled":false,"rental_uris":{"android":"levelo://app?vid=3f4386b8-8536-4119-8be8-684a101315dc","ios":"levelo://app?vid=3f4386b8-8536-4119-8be8-684a101315dc"},"vehicle_type_id":"4","last_reported":1685470097,"current_range_meters":0,"station_id":"ce4bhs92rcd13ifvqi0g","pricing_plan_id":"free"},{"bike_id":"a5e72437-29e3-47ee-a166-8a4b7ac5771a","system_id":"levelo_inurba_marseille","lat":43.296131,"lon":5.370791,"is_reserved":false,"is_disabled":false,"rental_uris":{"android":"levelo://app?vid=a5e72437-29e3-47ee-a166-8a4b7ac5771a","ios":"levelo://app?vid=a5e72437-29e3-47ee-a166-8a4b7ac5771a"},"vehicle_type_id":"4","last_reported":1685470097,"current_range_meters":9200,"station_id":"ce4bgnh2rcd13ifvqc0g","pricing_plan_id":"free"},{"bike_id":"91b92a01-f52b-4107-9d86-ef4b96e3f47d","system_id":"levelo_inurba_marseille","lat":43.29646,"lon":5.37444,"is_reserved":false,"is_disabled":false,"rental_uris":{"android":"levelo://app?vid=91b92a01-f52b-4107-9d86-ef4b96e3f47d","ios":"levelo://app?vid=91b92a01-f52b-4107-9d86-ef4b96e3f47d"},"vehicle_type_id":"4","last_reported":1685470097,"current_range_meters":0,"station_id":"","pricing_plan_id":"free"},{"bike_id":"ca979f73-b7e3-401b-b738-07104a0914cd","system_id":"levelo_inurba_marseille","lat":43.317557,"lon":5.390173,"is_reserved":false,"is_disabled":false,"rental_uris":{"android":"levelo://app?vid=ca979f73-b7e3-401b-b738-07104a0914cd","ios":"levelo://app?vid=ca979f73-b7e3-401b-b738-07104a0914cd"},"vehicle_type_id":"4","last_reported":1685470097,"current_range_meters":7200,"station_id":"ce4bhqp2rcd13ifvqhng","pricing_plan_id":"free"},{"bike_id":"65d991d3-9575-4b8d-9aa9-0b1fc36cc98a","system_id":"levelo_inurba_marseille","lat":43.29799,"lon":5.381,"is_reserved":false,"is_disabled":false,"rental_uris":{"android":"levelo://app?vid=65d991d3-9575-4b8d-9aa9-0b1fc36cc98a","ios":"levelo://app?vid=65d991d3-9575-4b8d-9aa9-0b1fc36cc98a"},"vehicle_type_id":"4","last_reported":1685470097,"current_range_meters":28800,"station_id":"ce4bgip2rcd13ifvqbb0","pricing_plan_id":"free"},{"bike_id":"ba2c3a76-b838-43d6-91a8-8b7476044149","system_id":"levelo_inurba_marseille","lat":43.295748,"lon":5.37522,"is_reserved":false,"is_disabled":false,"rental_uris":{"android":"levelo://app?vid=ba2c3a76-b838-43d6-91a8-8b7476044149","ios":"levelo://app?vid=ba2c3a76-b838-43d6-91a8-8b7476044149"},"vehicle_type_id":"4","last_reported":1685470097,"current_range_meters":12000,"station_id":"ce4bgh92rcd13ifvqb50","pricing_plan_id":"free"},{"bike_id":"9cc52c42-65c5-4a46-813a-f2f12861a293","system_id":"levelo_inurba_marseille","lat":43.29613,"lon":5.37701,"is_reserved":false,"is_disabled":false,"rental_uris":{"android":"levelo://app?vid=9cc52c42-65c5-4a46-813a-f2f12861a293","ios":"levelo://app?vid=9cc52c42-65c5-4a46-813a-f2f12861a293"},"vehicle_type_id":"4","last_reported":1685470097,"current_range_meters":8800,"station_id":"ce4bgi92rcd13ifvqb90","pricing_plan_id":"free"},{"bike_id":"c354e946-e198-4da4-a698-d07c13695f41","system_id":"levelo_inurba_marseille","lat":43.295279,"lon":5.375048,"is_reserved":false,"is_disabled":false,"rental_uris":{"android":"levelo://app?vid=c354e946-e198-4da4-a698-d07c13695f41","ios":"levelo://app?vid=c354e946-e198-4da4-a698-d07c13695f41"},"vehicle_type_id":"4","last_reported":1685470097,"current_range_meters":8400,"station_id":"ce4bgkp2rcd13ifvqbmg","pricing_plan_id":"free"},{"bike_id":"7924785e-e299-4371-b6a3-a34c120fabd8","system_id":"levelo_inurba_marseille","lat":43.299707,"lon":5.384859,"is_reserved":false,"is_disabled":false,"rental_uris":{"android":"levelo://app?vid=7924785e-e299-4371-b6a3-a34c120fabd8","ios":"levelo://app?vid=7924785e-e299-4371-b6a3-a34c120fabd8"},"vehicle_type_id":"4","last_reported":1685470097,"current_range_meters":0,"station_id":"ce4bgj92rcd13ifvqbd0","pricing_plan_id":"free"},{"bike_id":"a3e316fe-0fb0-4146-b405-a30c1b8b276d","system_id":"levelo_inurba_marseille","lat":43.299707,"lon":5.384859,"is_reserved":false,"is_disabled":false,"rental_uris":{"android":"levelo://app?vid=a3e316fe-0fb0-4146-b405-a30c1b8b276d","ios":"levelo://app?vid=a3e316fe-0fb0-4146-b405-a30c1b8b276d"},"vehicle_type_id":"4","last_reported":1685470097,"current_range_meters":7200,"station_id":"ce4bgj92rcd13ifvqbd0","pricing_plan_id":"free"},{"bike_id":"d86a8c46-240d-427f-979b-5b78cfe3b6c1","system_id":"levelo_inurba_marseille","lat":43.32365,"lon":5.38876,"is_reserved":false,"is_disabled":false,"rental_uris":{"android":"levelo://app?vid=d86a8c46-240d-427f-979b-5b78cfe3b6c1","ios":"levelo://app?vid=d86a8c46-240d-427f-979b-5b78cfe3b6c1"},"vehicle_type_id":"4","last_reported":1685470097,"current_range_meters":20800,"station_id":"ce4bhqp2rcd13ifvqhog","pricing_plan_id":"free"},{"bike_id":"fdaa9378-2bab-4dcd-ac61-bb973ffc0375","system_id":"levelo_inurba_marseille","lat":43.32363,"lon":5.38883,"is_reserved":false,"is_disabled":false,"rental_uris":{"android":"levelo://app?vid=fdaa9378-2bab-4dcd-ac61-bb973ffc0375","ios":"levelo://app?vid=fdaa9378-2bab-4dcd-ac61-bb973ffc0375"},"vehicle_type_id":"4","last_reported":1685470097,"current_range_meters":11600,"station_id":"ce4bhqp2rcd13ifvqhog","pricing_plan_id":"free"},{"bike_id":"950f3a0b-8466-40bf-8f81-5f5cf1a96632","system_id":"levelo_inurba_marseille","lat":43.32367,"lon":5.388836,"is_reserved":false,"is_disabled":false,"rental_uris":{"android":"levelo://app?vid=950f3a0b-8466-40bf-8f81-5f5cf1a96632","ios":"levelo://app?vid=950f3a0b-8466-40bf-8f81-5f5cf1a96632"},"vehicle_type_id":"4","last_reported":1685470097,"current_range_meters":4000,"station_id":"ce4bhqp2rcd13ifvqhog","pricing_plan_id":"free"},{"bike_id":"00c9b202-b5b6-4f69-8084-db1f9466ee79","system_id":"levelo_inurba_marseille","lat":43.32367,"lon":5.388836,"is_reserved":false,"is_disabled":false,"rental_uris":{"android":"levelo://app?vid=00c9b202-b5b6-4f69-8084-db1f9466ee79","ios":"levelo://app?vid=00c9b202-b5b6-4f69-8084-db1f9466ee79"},"vehicle_type_id":"4","last_reported":1685470097,"current_range_meters":21200,"station_id":"ce4bhqp2rcd13ifvqhog","pricing_plan_id":"free"},{"bike_id":"019e8e5f-898c-403c-bff5-44d0c77958de","system_id":"levelo_inurba_marseille","lat":43.32362,"lon":5.38893,"is_reserved":false,"is_disabled":false,"rental_uris":{"android":"levelo://app?vid=019e8e5f-898c-403c-bff5-44d0c77958de","ios":"levelo://app?vid=019e8e5f-898c-403c-bff5-44d0c77958de"},"vehicle_type_id":"4","last_reported":1685470097,"current_range_meters":22800,"station_id":"ce4bhqp2rcd13ifvqhog","pricing_plan_id":"free"},{"bike_id":"6345f779-7590-4ebf-81b7-14a3c3a95e37","system_id":"levelo_inurba_marseille","lat":43.32366,"lon":5.38895,"is_reserved":false,"is_disabled":false,"rental_uris":{"android":"levelo://app?vid=6345f779-7590-4ebf-81b7-14a3c3a95e37","ios":"levelo://app?vid=6345f779-7590-4ebf-81b7-14a3c3a95e37"},"vehicle_type_id":"4","last_reported":1685470097,"current_range_meters":400,"station_id":"ce4bhqp2rcd13ifvqhog","pricing_plan_id":"free"},{"bike_id":"41e9e5cd-d2b0-4a1d-ab87-795b660e1630","system_id":"levelo_inurba_marseille","lat":43.293249,"lon":5.371578,"is_reserved":false,"is_disabled":false,"rental_uris":{"android":"levelo://app?vid=41e9e5cd-d2b0-4a1d-ab87-795b660e1630","ios":"levelo://app?vid=41e9e5cd-d2b0-4a1d-ab87-795b660e1630"},"vehicle_type_id":"4","last_reported":1685470097,"current_range_meters":1600,"station_id":"ce4bgh92rcd13ifvqb40","pricing_plan_id":"free"},{"bike_id":"6055f240-2a06-487f-8d8e-88d2e49850a8","system_id":"levelo_inurba_marseille","lat":43.300852,"lon":5.390859,"is_reserved":false,"is_disabled":false,"rental_uris":{"android":"levelo://app?vid=6055f240-2a06-487f-8d8e-88d2e49850a8","ios":"levelo://app?vid=6055f240-2a06-487f-8d8e-88d2e49850a8"},"vehicle_type_id":"4","last_reported":1685470097,"current_range_meters":12800,"station_id":"ce4bh192rcd13ifvqdb0","pricing_plan_id":"free"},{"bike_id":"dc79d0df-b3bd-4ddd-b3a4-30bc4a6a7bbc","system_id":"levelo_inurba_marseille","lat":43.2936,"lon":5.37835,"is_reserved":false,"is_disabled":false,"rental_uris":{"android":"levelo://app?vid=dc79d0df-b3bd-4ddd-b3a4-30bc4a6a7bbc","ios":"levelo://app?vid=dc79d0df-b3bd-4ddd-b3a4-30bc4a6a7bbc"},"vehicle_type_id":"4","last_reported":1685470097,"current_range_meters":800,"station_id":"ce4bgjh2rcd13ifvqbf0","pricing_plan_id":"free"},{"bike_id":"8eaedf94-2015-4c97-8b01-caca433b694a","system_id":"levelo_inurba_marseille","lat":43.2936,"lon":5.37835,"is_reserved":false,"is_disabled":false,"rental_uris":{"android":"levelo://app?vid=8eaedf94-2015-4c97-8b01-caca433b694a","ios":"levelo://app?vid=8eaedf94-2015-4c97-8b01-caca433b694a"},"vehicle_type_id":"4","last_reported":1685470097,"current_range_meters":17600,"station_id":"ce4bgjh2rcd13ifvqbf0","pricing_plan_id":"free"},{"bike_id":"8a2b6b5c-a580-4a15-9794-1c081c7ec625","system_id":"levelo_inurba_marseille","lat":43.300852,"lon":5.390859,"is_reserved":false,"is_disabled":false,"rental_uris":{"android":"levelo://app?vid=8a2b6b5c-a580-4a15-9794-1c081c7ec625","ios":"levelo://app?vid=8a2b6b5c-a580-4a15-9794-1c081c7ec625"},"vehicle_type_id":"4","last_reported":1685470097,"current_range_meters":17200,"station_id":"ce4bh192rcd13ifvqdb0","pricing_plan_id":"free"},{"bike_id":"2746dc0c-1401-4ee1-873a-e693f8f4a2c4","system_id":"levelo_inurba_marseille","lat":43.300852,"lon":5.390859,"is_reserved":false,"is_disabled":false,"rental_uris":{"android":"levelo://app?vid=2746dc0c-1401-4ee1-873a-e693f8f4a2c4","ios":"levelo://app?vid=2746dc0c-1401-4ee1-873a-e693f8f4a2c4"},"vehicle_type_id":"4","last_reported":1685470097,"current_range_meters":0,"station_id":"ce4bh192rcd13ifvqdb0","pricing_plan_id":"free"},{"bike_id":"4bb7d30b-ddb2-4b24-88c8-06e8ed5cad31","system_id":"levelo_inurba_marseille","lat":43.300852,"lon":5.390859,"is_reserved":false,"is_disabled":false,"rental_uris":{"android":"levelo://app?vid=4bb7d30b-ddb2-4b24-88c8-06e8ed5cad31","ios":"levelo://app?vid=4bb7d30b-ddb2-4b24-88c8-06e8ed5cad31"},"vehicle_type_id":"4","last_reported":1685470097,"current_range_meters":11200,"station_id":"ce4bh192rcd13ifvqdb0","pricing_plan_id":"free"},{"bike_id":"afe71dd2-7247-434d-8cfb-268b2378363f","system_id":"levelo_inurba_marseille","lat":43.30085,"lon":5.390856,"is_reserved":false,"is_disabled":false,"rental_uris":{"android":"levelo://app?vid=afe71dd2-7247-434d-8cfb-268b2378363f","ios":"levelo://app?vid=afe71dd2-7247-434d-8cfb-268b2378363f"},"vehicle_type_id":"4","last_reported":1685470097,"current_range_meters":19200,"station_id":"ce4bh192rcd13ifvqdb0","pricing_plan_id":"free"},{"bike_id":"06278583-9773-4878-953f-8ecce2d73957","system_id":"levelo_inurba_marseille","lat":43.300852,"lon":5.390859,"is_reserved":false,"is_disabled":false,"rental_uris":{"android":"levelo://app?vid=06278583-9773-4878-953f-8ecce2d73957","ios":"levelo://app?vid=06278583-9773-4878-953f-8ecce2d73957"},"vehicle_type_id":"4","last_reported":1685470097,"current_range_meters":3600,"station_id":"ce4bh192rcd13ifvqdb0","pricing_plan_id":"free"},{"bike_id":"5ff1e04f-04fd-41c1-b756-4d18d6b2858b","system_id":"levelo_inurba_marseille","lat":43.298764,"lon":5.388973,"is_reserved":false,"is_disabled":false,"rental_uris":{"android":"levelo://app?vid=5ff1e04f-04fd-41c1-b756-4d18d6b2858b","ios":"levelo://app?vid=5ff1e04f-04fd-41c1-b756-4d18d6b2858b"},"vehicle_type_id":"4","last_reported":1685470097,"current_range_meters":16800,"station_id":"ce4bh392rcd13ifvqdl0","pricing_plan_id":"free"},{"bike_id":"4284e309-c234-4b49-8e1c-aeb18f17afc7","system_id":"levelo_inurba_marseille","lat":43.298764,"lon":5.388973,"is_reserved":false,"is_disabled":false,"rental_uris":{"android":"levelo://app?vid=4284e309-c234-4b49-8e1c-aeb18f17afc7","ios":"levelo://app?vid=4284e309-c234-4b49-8e1c-aeb18f17afc7"},"vehicle_type_id":"4","last_reported":1685470097,"current_range_meters":22400,"station_id":"ce4bh392rcd13ifvqdl0","pricing_plan_id":"free"},{"bike_id":"d7a39ad4-b024-42ee-b071-56489df0d5a1","system_id":"levelo_inurba_marseille","lat":43.33223,"lon":5.37897,"is_reserved":false,"is_disabled":false,"rental_uris":{"android":"levelo://app?vid=d7a39ad4-b024-42ee-b071-56489df0d5a1","ios":"levelo://app?vid=d7a39ad4-b024-42ee-b071-56489df0d5a1"},"vehicle_type_id":"4","last_reported":1685470097,"current_range_meters":5600,"station_id":"","pricing_plan_id":"free"},{"bike_id":"70e4c1ac-0e59-491e-8b33-bd130ca4fd9b","system_id":"levelo_inurba_marseille","lat":43.29198,"lon":5.35799,"is_reserved":false,"is_disabled":false,"rental_uris":{"android":"levelo://app?vid=70e4c1ac-0e59-491e-8b33-bd130ca4fd9b","ios":"levelo://app?vid=70e4c1ac-0e59-491e-8b33-bd130ca4fd9b"},"vehicle_type_id":"4","last_reported":1685470097,"current_range_meters":0,"station_id":"ce4bhb12rcd13ifvqel0","pricing_plan_id":"free"},{"bike_id":"2b349faf-916a-4878-8295-f807e50c6764","system_id":"levelo_inurba_marseille","lat":43.313291,"lon":5.396838,"is_reserved":false,"is_disabled":false,"rental_uris":{"android":"levelo://app?vid=2b349faf-916a-4878-8295-f807e50c6764","ios":"levelo://app?vid=2b349faf-916a-4878-8295-f807e50c6764"},"vehicle_type_id":"4","last_reported":1685470097,"current_range_meters":5600,"station_id":"ce4bgvp2rcd13ifvqcu0","pricing_plan_id":"free"},{"bike_id":"7121b6c4-25e3-416e-9ab6-bddb8bd3d30e","system_id":"levelo_inurba_marseille","lat":43.309038,"lon":5.396546,"is_reserved":false,"is_disabled":false,"rental_uris":{"android":"levelo://app?vid=7121b6c4-25e3-416e-9ab6-bddb8bd3d30e","ios":"levelo://app?vid=7121b6c4-25e3-416e-9ab6-bddb8bd3d30e"},"vehicle_type_id":"4","last_reported":1685470097,"current_range_meters":1200,"station_id":"ce4bh012rcd13ifvqcv0","pricing_plan_id":"free"},{"bike_id":"51fd090a-e457-4ff7-a050-fd2ca1a95c06","system_id":"levelo_inurba_marseille","lat":43.309038,"lon":5.396546,"is_reserved":false,"is_disabled":false,"rental_uris":{"android":"levelo://app?vid=51fd090a-e457-4ff7-a050-fd2ca1a95c06","ios":"levelo://app?vid=51fd090a-e457-4ff7-a050-fd2ca1a95c06"},"vehicle_type_id":"4","last_reported":1685470097,"current_range_meters":800,"station_id":"ce4bh012rcd13ifvqcv0","pricing_plan_id":"free"},{"bike_id":"00a8f821-ec0f-42f7-a428-763c84f8a7e9","system_id":"levelo_inurba_marseille","lat":43.309038,"lon":5.396546,"is_reserved":false,"is_disabled":false,"rental_uris":{"android":"levelo://app?vid=00a8f821-ec0f-42f7-a428-763c84f8a7e9","ios":"levelo://app?vid=00a8f821-ec0f-42f7-a428-763c84f8a7e9"},"vehicle_type_id":"4","last_reported":1685470097,"current_range_meters":6400,"station_id":"ce4bh012rcd13ifvqcv0","pricing_plan_id":"free"},{"bike_id":"9f515d68-ea3d-474e-8fdb-e3d279acf0e9","system_id":"levelo_inurba_marseille","lat":43.29529,"lon":5.385581,"is_reserved":false,"is_disabled":false,"rental_uris":{"android":"levelo://app?vid=9f515d68-ea3d-474e-8fdb-e3d279acf0e9","ios":"levelo://app?vid=9f515d68-ea3d-474e-8fdb-e3d279acf0e9"},"vehicle_type_id":"4","last_reported":1685470097,"current_range_meters":19200,"station_id":"ce4bgih2rcd13ifvqba0","pricing_plan_id":"free"},{"bike_id":"f002c4a3-e113-4cac-ad4d-26730860a3c3","system_id":"levelo_inurba_marseille","lat":43.29529,"lon":5.385581,"is_reserved":false,"is_disabled":false,"rental_uris":{"android":"levelo://app?vid=f002c4a3-e113-4cac-ad4d-26730860a3c3","ios":"levelo://app?vid=f002c4a3-e113-4cac-ad4d-26730860a3c3"},"vehicle_type_id":"4","last_reported":1685470097,"current_range_meters":18000,"station_id":"ce4bgih2rcd13ifvqba0","pricing_plan_id":"free"},{"bike_id":"e24c53cf-be18-47fc-9fa6-30eb8a52b320","system_id":"levelo_inurba_marseille","lat":43.302008,"lon":5.394694,"is_reserved":false,"is_disabled":false,"rental_uris":{"android":"levelo://app?vid=e24c53cf-be18-47fc-9fa6-30eb8a52b320","ios":"levelo://app?vid=e24c53cf-be18-47fc-9fa6-30eb8a52b320"},"vehicle_type_id":"4","last_reported":1685470097,"current_range_meters":0,"station_id":"ce4bh0p2rcd13ifvqd70","pricing_plan_id":"free"},{"bike_id":"44f1c4c5-af58-4cdf-b051-0e790b2c0b42","system_id":"levelo_inurba_marseille","lat":43.302008,"lon":5.394694,"is_reserved":false,"is_disabled":false,"rental_uris":{"android":"levelo://app?vid=44f1c4c5-af58-4cdf-b051-0e790b2c0b42","ios":"levelo://app?vid=44f1c4c5-af58-4cdf-b051-0e790b2c0b42"},"vehicle_type_id":"4","last_reported":1685470097,"current_range_meters":14800,"station_id":"ce4bh0p2rcd13ifvqd70","pricing_plan_id":"free"},{"bike_id":"6069c7b5-07fc-4e47-b019-4834c04b7825","system_id":"levelo_inurba_marseille","lat":43.28954,"lon":5.36634,"is_reserved":false,"is_disabled":false,"rental_uris":{"android":"levelo://app?vid=6069c7b5-07fc-4e47-b019-4834c04b7825","ios":"levelo://app?vid=6069c7b5-07fc-4e47-b019-4834c04b7825"},"vehicle_type_id":"4","last_reported":1685470097,"current_range_meters":5600,"station_id":"","pricing_plan_id":"free"},{"bike_id":"93907ae7-b105-42c3-8fe9-1ae6a3425140","system_id":"levelo_inurba_marseille","lat":43.289184,"lon":5.366408,"is_reserved":false,"is_disabled":false,"rental_uris":{"android":"levelo://app?vid=93907ae7-b105-42c3-8fe9-1ae6a3425140","ios":"levelo://app?vid=93907ae7-b105-42c3-8fe9-1ae6a3425140"},"vehicle_type_id":"4","last_reported":1685470097,"current_range_meters":12000,"station_id":"ce4bhap2rcd13ifvqek0","pricing_plan_id":"free"},{"bike_id":"7963d440-149d-4929-b986-49da7894822b","system_id":"levelo_inurba_marseille","lat":43.289184,"lon":5.366408,"is_reserved":false,"is_disabled":false,"rental_uris":{"android":"levelo://app?vid=7963d440-149d-4929-b986-49da7894822b","ios":"levelo://app?vid=7963d440-149d-4929-b986-49da7894822b"},"vehicle_type_id":"4","last_reported":1685470097,"current_range_meters":21600,"station_id":"ce4bhap2rcd13ifvqek0","pricing_plan_id":"free"},{"bike_id":"e9797ac5-bb3c-43f4-94dd-2711c69347dc","system_id":"levelo_inurba_marseille","lat":43.289184,"lon":5.366408,"is_reserved":false,"is_disabled":false,"rental_uris":{"android":"levelo://app?vid=e9797ac5-bb3c-43f4-94dd-2711c69347dc","ios":"levelo://app?vid=e9797ac5-bb3c-43f4-94dd-2711c69347dc"},"vehicle_type_id":"4","last_reported":1685470097,"current_range_meters":24000,"station_id":"ce4bhap2rcd13ifvqek0","pricing_plan_id":"free"},{"bike_id":"712ca41a-ad08-422a-bc68-c2fe3f9999ce","system_id":"levelo_inurba_marseille","lat":43.289184,"lon":5.366408,"is_reserved":false,"is_disabled":false,"rental_uris":{"android":"levelo://app?vid=712ca41a-ad08-422a-bc68-c2fe3f9999ce","ios":"levelo://app?vid=712ca41a-ad08-422a-bc68-c2fe3f9999ce"},"vehicle_type_id":"4","last_reported":1685470097,"current_range_meters":15600,"station_id":"ce4bhap2rcd13ifvqek0","pricing_plan_id":"free"},{"bike_id":"8ecf1236-1828-49d5-a85f-65978a8adc4a","system_id":"levelo_inurba_marseille","lat":43.289184,"lon":5.366408,"is_reserved":false,"is_disabled":false,"rental_uris":{"android":"levelo://app?vid=8ecf1236-1828-49d5-a85f-65978a8adc4a","ios":"levelo://app?vid=8ecf1236-1828-49d5-a85f-65978a8adc4a"},"vehicle_type_id":"4","last_reported":1685470097,"current_range_meters":16800,"station_id":"ce4bhap2rcd13ifvqek0","pricing_plan_id":"free"},{"bike_id":"054e89ac-07cf-47f4-8fa1-f5786505b06c","system_id":"levelo_inurba_marseille","lat":43.289184,"lon":5.366408,"is_reserved":false,"is_disabled":false,"rental_uris":{"android":"levelo://app?vid=054e89ac-07cf-47f4-8fa1-f5786505b06c","ios":"levelo://app?vid=054e89ac-07cf-47f4-8fa1-f5786505b06c"},"vehicle_type_id":"4","last_reported":1685470097,"current_range_meters":20000,"station_id":"ce4bhap2rcd13ifvqek0","pricing_plan_id":"free"},{"bike_id":"2b714d83-22b1-4bb9-9cbb-c08eec5b45ca","system_id":"levelo_inurba_marseille","lat":43.289184,"lon":5.366408,"is_reserved":false,"is_disabled":false,"rental_uris":{"android":"levelo://app?vid=2b714d83-22b1-4bb9-9cbb-c08eec5b45ca","ios":"levelo://app?vid=2b714d83-22b1-4bb9-9cbb-c08eec5b45ca"},"vehicle_type_id":"4","last_reported":1685470097,"current_range_meters":25200,"station_id":"ce4bhap2rcd13ifvqek0","pricing_plan_id":"free"},{"bike_id":"8e859208-4de5-4b4a-9498-8cd05b98bc35","system_id":"levelo_inurba_marseille","lat":43.289184,"lon":5.366408,"is_reserved":false,"is_disabled":false,"rental_uris":{"android":"levelo://app?vid=8e859208-4de5-4b4a-9498-8cd05b98bc35","ios":"levelo://app?vid=8e859208-4de5-4b4a-9498-8cd05b98bc35"},"vehicle_type_id":"4","last_reported":1685470097,"current_range_meters":0,"station_id":"ce4bhap2rcd13ifvqek0","pricing_plan_id":"free"},{"bike_id":"a8605b57-daa5-4d66-be67-cfd810719f5b","system_id":"levelo_inurba_marseille","lat":43.29114,"lon":5.38054,"is_reserved":false,"is_disabled":false,"rental_uris":{"android":"levelo://app?vid=a8605b57-daa5-4d66-be67-cfd810719f5b","ios":"levelo://app?vid=a8605b57-daa5-4d66-be67-cfd810719f5b"},"vehicle_type_id":"4","last_reported":1685470097,"current_range_meters":5600,"station_id":"","pricing_plan_id":"free"},{"bike_id":"c4ea6556-79af-4f2f-9d3c-1ed4d5036054","system_id":"levelo_inurba_marseille","lat":43.292642,"lon":5.384254,"is_reserved":false,"is_disabled":false,"rental_uris":{"android":"levelo://app?vid=c4ea6556-79af-4f2f-9d3c-1ed4d5036054","ios":"levelo://app?vid=c4ea6556-79af-4f2f-9d3c-1ed4d5036054"},"vehicle_type_id":"4","last_reported":1685470097,"current_range_meters":3200,"station_id":"ce4bh692rcd13ifvqea0","pricing_plan_id":"free"},{"bike_id":"91fcba83-48fb-4ca5-ba73-763ef905a7aa","system_id":"levelo_inurba_marseille","lat":43.292642,"lon":5.384254,"is_reserved":false,"is_disabled":false,"rental_uris":{"android":"levelo://app?vid=91fcba83-48fb-4ca5-ba73-763ef905a7aa","ios":"levelo://app?vid=91fcba83-48fb-4ca5-ba73-763ef905a7aa"},"vehicle_type_id":"4","last_reported":1685470097,"current_range_meters":7600,"station_id":"ce4bh692rcd13ifvqea0","pricing_plan_id":"free"},{"bike_id":"d981be9d-db2f-4112-8580-ad5d580f4433","system_id":"levelo_inurba_marseille","lat":43.292642,"lon":5.384254,"is_reserved":false,"is_disabled":false,"rental_uris":{"android":"levelo://app?vid=d981be9d-db2f-4112-8580-ad5d580f4433","ios":"levelo://app?vid=d981be9d-db2f-4112-8580-ad5d580f4433"},"vehicle_type_id":"4","last_reported":1685470097,"current_range_meters":8400,"station_id":"ce4bh692rcd13ifvqea0","pricing_plan_id":"free"},{"bike_id":"e17b760b-3b7c-4e64-a8af-9d845037c413","system_id":"levelo_inurba_marseille","lat":43.33045,"lon":5.38917,"is_reserved":false,"is_disabled":false,"rental_uris":{"android":"levelo://app?vid=e17b760b-3b7c-4e64-a8af-9d845037c413","ios":"levelo://app?vid=e17b760b-3b7c-4e64-a8af-9d845037c413"},"vehicle_type_id":"4","last_reported":1685470097,"current_range_meters":28000,"station_id":"ce4bhr92rcd13ifvqhrg","pricing_plan_id":"free"},{"bike_id":"24944797-050c-4ee2-af98-5895be5211c0","system_id":"levelo_inurba_marseille","lat":43.290103,"lon":5.356114,"is_reserved":false,"is_disabled":false,"rental_uris":{"android":"levelo://app?vid=24944797-050c-4ee2-af98-5895be5211c0","ios":"levelo://app?vid=24944797-050c-4ee2-af98-5895be5211c0"},"vehicle_type_id":"4","last_reported":1685470097,"current_range_meters":11600,"station_id":"ce4bhb92rcd13ifvqen0","pricing_plan_id":"free"},{"bike_id":"4171ff7a-4107-402f-84b1-85c2a6cb091f","system_id":"levelo_inurba_marseille","lat":43.290104,"lon":5.356111,"is_reserved":false,"is_disabled":false,"rental_uris":{"android":"levelo://app?vid=4171ff7a-4107-402f-84b1-85c2a6cb091f","ios":"levelo://app?vid=4171ff7a-4107-402f-84b1-85c2a6cb091f"},"vehicle_type_id":"4","last_reported":1685470097,"current_range_meters":30000,"station_id":"ce4bhb92rcd13ifvqen0","pricing_plan_id":"free"},{"bike_id":"60420cf4-3b82-4648-be0e-9089e403318d","system_id":"levelo_inurba_marseille","lat":43.33046,"lon":5.38919,"is_reserved":false,"is_disabled":false,"rental_uris":{"android":"levelo://app?vid=60420cf4-3b82-4648-be0e-9089e403318d","ios":"levelo://app?vid=60420cf4-3b82-4648-be0e-9089e403318d"},"vehicle_type_id":"4","last_reported":1685470097,"current_range_meters":22000,"station_id":"ce4bhr92rcd13ifvqhrg","pricing_plan_id":"free"},{"bike_id":"214cd52b-86dc-4d7c-b8c8-656e445142b6","system_id":"levelo_inurba_marseille","lat":43.330454,"lon":5.389224,"is_reserved":false,"is_disabled":false,"rental_uris":{"android":"levelo://app?vid=214cd52b-86dc-4d7c-b8c8-656e445142b6","ios":"levelo://app?vid=214cd52b-86dc-4d7c-b8c8-656e445142b6"},"vehicle_type_id":"4","last_reported":1685470097,"current_range_meters":29200,"station_id":"","pricing_plan_id":"free"},{"bike_id":"0f131166-1ac4-462b-95af-b6eb64cf7f18","system_id":"levelo_inurba_marseille","lat":43.33044,"lon":5.38926,"is_reserved":false,"is_disabled":false,"rental_uris":{"android":"levelo://app?vid=0f131166-1ac4-462b-95af-b6eb64cf7f18","ios":"levelo://app?vid=0f131166-1ac4-462b-95af-b6eb64cf7f18"},"vehicle_type_id":"4","last_reported":1685470097,"current_range_meters":24800,"station_id":"ce4bhr92rcd13ifvqhrg","pricing_plan_id":"free"},{"bike_id":"bd68baef-4630-45e6-af1b-13f1623ff5d8","system_id":"levelo_inurba_marseille","lat":43.290104,"lon":5.356111,"is_reserved":false,"is_disabled":false,"rental_uris":{"android":"levelo://app?vid=bd68baef-4630-45e6-af1b-13f1623ff5d8","ios":"levelo://app?vid=bd68baef-4630-45e6-af1b-13f1623ff5d8"},"vehicle_type_id":"4","last_reported":1685470097,"current_range_meters":800,"station_id":"ce4bhb92rcd13ifvqen0","pricing_plan_id":"free"},{"bike_id":"69f87366-090d-4bc0-9758-0f42d6ed45ce","system_id":"levelo_inurba_marseille","lat":43.3305,"lon":5.38918,"is_reserved":false,"is_disabled":false,"rental_uris":{"android":"levelo://app?vid=69f87366-090d-4bc0-9758-0f42d6ed45ce","ios":"levelo://app?vid=69f87366-090d-4bc0-9758-0f42d6ed45ce"},"vehicle_type_id":"4","last_reported":1685470097,"current_range_meters":24800,"station_id":"ce4bhr92rcd13ifvqhrg","pricing_plan_id":"free"},{"bike_id":"ab12f796-137d-4e28-95ee-ac5af904c7f8","system_id":"levelo_inurba_marseille","lat":43.33042,"lon":5.38931,"is_reserved":false,"is_disabled":false,"rental_uris":{"android":"levelo://app?vid=ab12f796-137d-4e28-95ee-ac5af904c7f8","ios":"levelo://app?vid=ab12f796-137d-4e28-95ee-ac5af904c7f8"},"vehicle_type_id":"4","last_reported":1685470097,"current_range_meters":25600,"station_id":"ce4bhr92rcd13ifvqhrg","pricing_plan_id":"free"},{"bike_id":"fc3299c6-1d72-487d-ba07-6cfc0fb311dc","system_id":"levelo_inurba_marseille","lat":43.33044,"lon":5.38929,"is_reserved":false,"is_disabled":false,"rental_uris":{"android":"levelo://app?vid=fc3299c6-1d72-487d-ba07-6cfc0fb311dc","ios":"levelo://app?vid=fc3299c6-1d72-487d-ba07-6cfc0fb311dc"},"vehicle_type_id":"4","last_reported":1685470097,"current_range_meters":24000,"station_id":"ce4bhr92rcd13ifvqhrg","pricing_plan_id":"free"},{"bike_id":"9fda4b32-966e-4aba-96ef-41f727f15bba","system_id":"levelo_inurba_marseille","lat":43.3305,"lon":5.38921,"is_reserved":false,"is_disabled":false,"rental_uris":{"android":"levelo://app?vid=9fda4b32-966e-4aba-96ef-41f727f15bba","ios":"levelo://app?vid=9fda4b32-966e-4aba-96ef-41f727f15bba"},"vehicle_type_id":"4","last_reported":1685470097,"current_range_meters":26000,"station_id":"ce4bhr92rcd13ifvqhrg","pricing_plan_id":"free"},{"bike_id":"4f7803a6-3392-44b5-aa81-dde8a03de0fc","system_id":"levelo_inurba_marseille","lat":43.33044,"lon":5.38931,"is_reserved":false,"is_disabled":false,"rental_uris":{"android":"levelo://app?vid=4f7803a6-3392-44b5-aa81-dde8a03de0fc","ios":"levelo://app?vid=4f7803a6-3392-44b5-aa81-dde8a03de0fc"},"vehicle_type_id":"4","last_reported":1685470097,"current_range_meters":16400,"station_id":"ce4bhr92rcd13ifvqhrg","pricing_plan_id":"free"},{"bike_id":"8a189623-63fb-4c2a-846b-aa33f34b5cfd","system_id":"levelo_inurba_marseille","lat":43.33044,"lon":5.38934,"is_reserved":false,"is_disabled":false,"rental_uris":{"android":"levelo://app?vid=8a189623-63fb-4c2a-846b-aa33f34b5cfd","ios":"levelo://app?vid=8a189623-63fb-4c2a-846b-aa33f34b5cfd"},"vehicle_type_id":"4","last_reported":1685470097,"current_range_meters":26000,"station_id":"ce4bhr92rcd13ifvqhrg","pricing_plan_id":"free"},{"bike_id":"be115698-ed9e-4818-8cb1-06cf0878778d","system_id":"levelo_inurba_marseille","lat":43.291024,"lon":5.381386,"is_reserved":false,"is_disabled":false,"rental_uris":{"android":"levelo://app?vid=be115698-ed9e-4818-8cb1-06cf0878778d","ios":"levelo://app?vid=be115698-ed9e-4818-8cb1-06cf0878778d"},"vehicle_type_id":"4","last_reported":1685470097,"current_range_meters":2400,"station_id":"","pricing_plan_id":"free"},{"bike_id":"53044858-3564-4fc5-9732-2b24bb507383","system_id":"levelo_inurba_marseille","lat":43.290995,"lon":5.381361,"is_reserved":false,"is_disabled":false,"rental_uris":{"android":"levelo://app?vid=53044858-3564-4fc5-9732-2b24bb507383","ios":"levelo://app?vid=53044858-3564-4fc5-9732-2b24bb507383"},"vehicle_type_id":"4","last_reported":1685470097,"current_range_meters":10800,"station_id":"ce4bh512rcd13ifvqe2g","pricing_plan_id":"free"},{"bike_id":"20ea5043-3be7-4985-b9ee-f6ba151d715e","system_id":"levelo_inurba_marseille","lat":43.29522,"lon":5.39029,"is_reserved":false,"is_disabled":false,"rental_uris":{"android":"levelo://app?vid=20ea5043-3be7-4985-b9ee-f6ba151d715e","ios":"levelo://app?vid=20ea5043-3be7-4985-b9ee-f6ba151d715e"},"vehicle_type_id":"4","last_reported":1685470097,"current_range_meters":0,"station_id":"ce4bh3p2rcd13ifvqdp0","pricing_plan_id":"free"},{"bike_id":"87f2ae99-5420-4c44-813e-6e5355692331","system_id":"levelo_inurba_marseille","lat":43.289741,"lon":5.378306,"is_reserved":false,"is_disabled":false,"rental_uris":{"android":"levelo://app?vid=87f2ae99-5420-4c44-813e-6e5355692331","ios":"levelo://app?vid=87f2ae99-5420-4c44-813e-6e5355692331"},"vehicle_type_id":"4","last_reported":1685470097,"current_range_meters":0,"station_id":"ce4bh9p2rcd13ifvqed0","pricing_plan_id":"free"},{"bike_id":"162ca417-66a8-44f1-ac1d-5efde0c640d3","system_id":"levelo_inurba_marseille","lat":43.28856,"lon":5.358371,"is_reserved":false,"is_disabled":false,"rental_uris":{"android":"levelo://app?vid=162ca417-66a8-44f1-ac1d-5efde0c640d3","ios":"levelo://app?vid=162ca417-66a8-44f1-ac1d-5efde0c640d3"},"vehicle_type_id":"4","last_reported":1685470097,"current_range_meters":400,"station_id":"ce4bhb12rcd13ifvqem0","pricing_plan_id":"free"},{"bike_id":"141c14ea-594b-43ee-894e-8c44af1dcd73","system_id":"levelo_inurba_marseille","lat":43.33741,"lon":5.37457,"is_reserved":false,"is_disabled":false,"rental_uris":{"android":"levelo://app?vid=141c14ea-594b-43ee-894e-8c44af1dcd73","ios":"levelo://app?vid=141c14ea-594b-43ee-894e-8c44af1dcd73"},"vehicle_type_id":"4","last_reported":1685470097,"current_range_meters":28400,"station_id":"","pricing_plan_id":"free"},{"bike_id":"60365b11-ef18-42d8-96a4-e4f2839d6bb5","system_id":"levelo_inurba_marseille","lat":43.33754,"lon":5.37438,"is_reserved":false,"is_disabled":false,"rental_uris":{"android":"levelo://app?vid=60365b11-ef18-42d8-96a4-e4f2839d6bb5","ios":"levelo://app?vid=60365b11-ef18-42d8-96a4-e4f2839d6bb5"},"vehicle_type_id":"4","last_reported":1685470097,"current_range_meters":30800,"station_id":"","pricing_plan_id":"free"},{"bike_id":"556c6db1-2600-4c2b-9521-aae8453517c1","system_id":"levelo_inurba_marseille","lat":43.33758,"lon":5.37443,"is_reserved":false,"is_disabled":false,"rental_uris":{"android":"levelo://app?vid=556c6db1-2600-4c2b-9521-aae8453517c1","ios":"levelo://app?vid=556c6db1-2600-4c2b-9521-aae8453517c1"},"vehicle_type_id":"4","last_reported":1685470097,"current_range_meters":4800,"station_id":"","pricing_plan_id":"free"},{"bike_id":"6d678481-0e0b-436a-aa94-9d12fa2c91f5","system_id":"levelo_inurba_marseille","lat":43.3376,"lon":5.37434,"is_reserved":false,"is_disabled":false,"rental_uris":{"android":"levelo://app?vid=6d678481-0e0b-436a-aa94-9d12fa2c91f5","ios":"levelo://app?vid=6d678481-0e0b-436a-aa94-9d12fa2c91f5"},"vehicle_type_id":"4","last_reported":1685470097,"current_range_meters":30000,"station_id":"","pricing_plan_id":"free"},{"bike_id":"61c719db-daae-4f13-b259-d05f297b4a6f","system_id":"levelo_inurba_marseille","lat":43.33757,"lon":5.37463,"is_reserved":false,"is_disabled":false,"rental_uris":{"android":"levelo://app?vid=61c719db-daae-4f13-b259-d05f297b4a6f","ios":"levelo://app?vid=61c719db-daae-4f13-b259-d05f297b4a6f"},"vehicle_type_id":"4","last_reported":1685470097,"current_range_meters":28400,"station_id":"","pricing_plan_id":"free"},{"bike_id":"32a74368-542a-483e-88e6-94b04a2d57cd","system_id":"levelo_inurba_marseille","lat":43.301117,"lon":5.398795,"is_reserved":false,"is_disabled":false,"rental_uris":{"android":"levelo://app?vid=32a74368-542a-483e-88e6-94b04a2d57cd","ios":"levelo://app?vid=32a74368-542a-483e-88e6-94b04a2d57cd"},"vehicle_type_id":"4","last_reported":1685470097,"current_range_meters":0,"station_id":"ce4bh0h2rcd13ifvqd40","pricing_plan_id":"free"},{"bike_id":"85da48cc-c61b-4590-a556-cccea18bc6ea","system_id":"levelo_inurba_marseille","lat":43.286591,"lon":5.363346,"is_reserved":false,"is_disabled":false,"rental_uris":{"android":"levelo://app?vid=85da48cc-c61b-4590-a556-cccea18bc6ea","ios":"levelo://app?vid=85da48cc-c61b-4590-a556-cccea18bc6ea"},"vehicle_type_id":"4","last_reported":1685470097,"current_range_meters":22000,"station_id":"ce4bhah2rcd13ifvqej0","pricing_plan_id":"free"},{"bike_id":"ebe56d5c-0f13-4cda-a780-8a41e6224d11","system_id":"levelo_inurba_marseille","lat":43.30424,"lon":5.40088,"is_reserved":false,"is_disabled":false,"rental_uris":{"android":"levelo://app?vid=ebe56d5c-0f13-4cda-a780-8a41e6224d11","ios":"levelo://app?vid=ebe56d5c-0f13-4cda-a780-8a41e6224d11"},"vehicle_type_id":"4","last_reported":1685470097,"current_range_meters":9200,"station_id":"","pricing_plan_id":"free"},{"bike_id":"7fa0bcad-cc61-4547-b8a8-4df563af3d73","system_id":"levelo_inurba_marseille","lat":43.295196,"lon":5.39397,"is_reserved":false,"is_disabled":false,"rental_uris":{"android":"levelo://app?vid=7fa0bcad-cc61-4547-b8a8-4df563af3d73","ios":"levelo://app?vid=7fa0bcad-cc61-4547-b8a8-4df563af3d73"},"vehicle_type_id":"4","last_reported":1685470097,"current_range_meters":9200,"station_id":"ce4bh292rcd13ifvqdf0","pricing_plan_id":"free"},{"bike_id":"bcc233db-8142-44e6-84a7-8de3841771cc","system_id":"levelo_inurba_marseille","lat":43.295196,"lon":5.39397,"is_reserved":false,"is_disabled":false,"rental_uris":{"android":"levelo://app?vid=bcc233db-8142-44e6-84a7-8de3841771cc","ios":"levelo://app?vid=bcc233db-8142-44e6-84a7-8de3841771cc"},"vehicle_type_id":"4","last_reported":1685470097,"current_range_meters":20400,"station_id":"ce4bh292rcd13ifvqdf0","pricing_plan_id":"free"},{"bike_id":"5f0e0544-0b9c-4ad9-b553-6f0451eed033","system_id":"levelo_inurba_marseille","lat":43.29866,"lon":5.39733,"is_reserved":false,"is_disabled":false,"rental_uris":{"android":"levelo://app?vid=5f0e0544-0b9c-4ad9-b553-6f0451eed033","ios":"levelo://app?vid=5f0e0544-0b9c-4ad9-b553-6f0451eed033"},"vehicle_type_id":"4","last_reported":1685470097,"current_range_meters":24400,"station_id":"ce4bh0h2rcd13ifvqd50","pricing_plan_id":"free"},{"bike_id":"2f67238b-6d20-4bc5-9c20-f4df7e8c5938","system_id":"levelo_inurba_marseille","lat":43.298681,"lon":5.397225,"is_reserved":false,"is_disabled":false,"rental_uris":{"android":"levelo://app?vid=2f67238b-6d20-4bc5-9c20-f4df7e8c5938","ios":"levelo://app?vid=2f67238b-6d20-4bc5-9c20-f4df7e8c5938"},"vehicle_type_id":"4","last_reported":1685470097,"current_range_meters":4800,"station_id":"ce4bh0h2rcd13ifvqd50","pricing_plan_id":"free"},{"bike_id":"8291389e-d84a-469a-a165-dcedbccb87c1","system_id":"levelo_inurba_marseille","lat":43.298681,"lon":5.397225,"is_reserved":false,"is_disabled":false,"rental_uris":{"android":"levelo://app?vid=8291389e-d84a-469a-a165-dcedbccb87c1","ios":"levelo://app?vid=8291389e-d84a-469a-a165-dcedbccb87c1"},"vehicle_type_id":"4","last_reported":1685470097,"current_range_meters":23600,"station_id":"ce4bh0h2rcd13ifvqd50","pricing_plan_id":"free"},{"bike_id":"b000002f-4fae-41ce-8a63-7563759baef0","system_id":"levelo_inurba_marseille","lat":43.295196,"lon":5.39397,"is_reserved":false,"is_disabled":false,"rental_uris":{"android":"levelo://app?vid=b000002f-4fae-41ce-8a63-7563759baef0","ios":"levelo://app?vid=b000002f-4fae-41ce-8a63-7563759baef0"},"vehicle_type_id":"4","last_reported":1685470097,"current_range_meters":2000,"station_id":"ce4bh292rcd13ifvqdf0","pricing_plan_id":"free"},{"bike_id":"91374222-566e-4c09-b0ac-707ebcf8525e","system_id":"levelo_inurba_marseille","lat":43.295196,"lon":5.39397,"is_reserved":false,"is_disabled":false,"rental_uris":{"android":"levelo://app?vid=91374222-566e-4c09-b0ac-707ebcf8525e","ios":"levelo://app?vid=91374222-566e-4c09-b0ac-707ebcf8525e"},"vehicle_type_id":"4","last_reported":1685470097,"current_range_meters":24800,"station_id":"ce4bh292rcd13ifvqdf0","pricing_plan_id":"free"},{"bike_id":"feb85770-7daa-4e98-98ff-4f68657ae696","system_id":"levelo_inurba_marseille","lat":43.295194,"lon":5.39397,"is_reserved":false,"is_disabled":false,"rental_uris":{"android":"levelo://app?vid=feb85770-7daa-4e98-98ff-4f68657ae696","ios":"levelo://app?vid=feb85770-7daa-4e98-98ff-4f68657ae696"},"vehicle_type_id":"4","last_reported":1685470097,"current_range_meters":0,"station_id":"ce4bh292rcd13ifvqdf0","pricing_plan_id":"free"},{"bike_id":"962a1275-b27b-4ffd-8f7e-8ff15698030d","system_id":"levelo_inurba_marseille","lat":43.299577,"lon":5.413277,"is_reserved":false,"is_disabled":false,"rental_uris":{"android":"levelo://app?vid=962a1275-b27b-4ffd-8f7e-8ff15698030d","ios":"levelo://app?vid=962a1275-b27b-4ffd-8f7e-8ff15698030d"},"vehicle_type_id":"4","last_reported":1685470097,"current_range_meters":20400,"station_id":"ce4bhp12rcd13ifvqh9g","pricing_plan_id":"free"},{"bike_id":"63efa613-412c-48b3-935d-b038a85b3f8e","system_id":"levelo_inurba_marseille","lat":43.290336,"lon":5.386425,"is_reserved":false,"is_disabled":false,"rental_uris":{"android":"levelo://app?vid=63efa613-412c-48b3-935d-b038a85b3f8e","ios":"levelo://app?vid=63efa613-412c-48b3-935d-b038a85b3f8e"},"vehicle_type_id":"4","last_reported":1685470097,"current_range_meters":8800,"station_id":"ce4bh4p2rcd13ifvqe0g","pricing_plan_id":"free"},{"bike_id":"3cd86e42-112a-4eb9-87a3-7e2af0da337a","system_id":"levelo_inurba_marseille","lat":43.286039,"lon":5.370679,"is_reserved":false,"is_disabled":false,"rental_uris":{"android":"levelo://app?vid=3cd86e42-112a-4eb9-87a3-7e2af0da337a","ios":"levelo://app?vid=3cd86e42-112a-4eb9-87a3-7e2af0da337a"},"vehicle_type_id":"4","last_reported":1685470097,"current_range_meters":21600,"station_id":"ce4bht12rcd13ifvqi60","pricing_plan_id":"free"},{"bike_id":"8a86b497-0926-494a-8a90-b07219bf2b25","system_id":"levelo_inurba_marseille","lat":43.316517,"lon":5.404375,"is_reserved":false,"is_disabled":false,"rental_uris":{"android":"levelo://app?vid=8a86b497-0926-494a-8a90-b07219bf2b25","ios":"levelo://app?vid=8a86b497-0926-494a-8a90-b07219bf2b25"},"vehicle_type_id":"4","last_reported":1685470097,"current_range_meters":9600,"station_id":"ce4bh012rcd13ifvqd00","pricing_plan_id":"free"},{"bike_id":"c000ff83-291b-4823-995e-42d80ca036cd","system_id":"levelo_inurba_marseille","lat":43.316517,"lon":5.404375,"is_reserved":false,"is_disabled":false,"rental_uris":{"android":"levelo://app?vid=c000ff83-291b-4823-995e-42d80ca036cd","ios":"levelo://app?vid=c000ff83-291b-4823-995e-42d80ca036cd"},"vehicle_type_id":"4","last_reported":1685470097,"current_range_meters":2800,"station_id":"ce4bh012rcd13ifvqd00","pricing_plan_id":"free"},{"bike_id":"dd7a068a-f8d0-497e-adf1-6b25202db352","system_id":"levelo_inurba_marseille","lat":43.291994,"lon":5.392907,"is_reserved":false,"is_disabled":false,"rental_uris":{"android":"levelo://app?vid=dd7a068a-f8d0-497e-adf1-6b25202db352","ios":"levelo://app?vid=dd7a068a-f8d0-497e-adf1-6b25202db352"},"vehicle_type_id":"4","last_reported":1685470097,"current_range_meters":13200,"station_id":"ce4bh192rcd13ifvqdd0","pricing_plan_id":"free"},{"bike_id":"393b84fa-ac3b-4648-808f-ae622a90aa39","system_id":"levelo_inurba_marseille","lat":43.291994,"lon":5.392907,"is_reserved":false,"is_disabled":false,"rental_uris":{"android":"levelo://app?vid=393b84fa-ac3b-4648-808f-ae622a90aa39","ios":"levelo://app?vid=393b84fa-ac3b-4648-808f-ae622a90aa39"},"vehicle_type_id":"4","last_reported":1685470097,"current_range_meters":5600,"station_id":"ce4bh192rcd13ifvqdd0","pricing_plan_id":"free"},{"bike_id":"ed7cb1d1-4d82-4dd6-959b-a55d2f27850d","system_id":"levelo_inurba_marseille","lat":43.284534,"lon":5.358662,"is_reserved":false,"is_disabled":false,"rental_uris":{"android":"levelo://app?vid=ed7cb1d1-4d82-4dd6-959b-a55d2f27850d","ios":"levelo://app?vid=ed7cb1d1-4d82-4dd6-959b-a55d2f27850d"},"vehicle_type_id":"4","last_reported":1685470097,"current_range_meters":10000,"station_id":"ce4bhah2rcd13ifvqei0","pricing_plan_id":"free"},{"bike_id":"6e501417-b501-4677-88f6-36aa41b7f74a","system_id":"levelo_inurba_marseille","lat":43.284538,"lon":5.358657,"is_reserved":false,"is_disabled":false,"rental_uris":{"android":"levelo://app?vid=6e501417-b501-4677-88f6-36aa41b7f74a","ios":"levelo://app?vid=6e501417-b501-4677-88f6-36aa41b7f74a"},"vehicle_type_id":"4","last_reported":1685470097,"current_range_meters":19200,"station_id":"ce4bhah2rcd13ifvqei0","pricing_plan_id":"free"},{"bike_id":"d030916d-2074-49d9-b803-7916736793df","system_id":"levelo_inurba_marseille","lat":43.284538,"lon":5.358657,"is_reserved":false,"is_disabled":false,"rental_uris":{"android":"levelo://app?vid=d030916d-2074-49d9-b803-7916736793df","ios":"levelo://app?vid=d030916d-2074-49d9-b803-7916736793df"},"vehicle_type_id":"4","last_reported":1685470097,"current_range_meters":8400,"station_id":"ce4bhah2rcd13ifvqei0","pricing_plan_id":"free"},{"bike_id":"d36ffaaf-00ae-4b1a-bf67-efc7c782c406","system_id":"levelo_inurba_marseille","lat":43.295713,"lon":5.399639,"is_reserved":false,"is_disabled":false,"rental_uris":{"android":"levelo://app?vid=d36ffaaf-00ae-4b1a-bf67-efc7c782c406","ios":"levelo://app?vid=d36ffaaf-00ae-4b1a-bf67-efc7c782c406"},"vehicle_type_id":"4","last_reported":1685470097,"current_range_meters":0,"station_id":"ce4bh312rcd13ifvqdj0","pricing_plan_id":"free"},{"bike_id":"ab6d9395-468c-4c68-85e7-1dde4e07f55f","system_id":"levelo_inurba_marseille","lat":43.295713,"lon":5.399639,"is_reserved":false,"is_disabled":false,"rental_uris":{"android":"levelo://app?vid=ab6d9395-468c-4c68-85e7-1dde4e07f55f","ios":"levelo://app?vid=ab6d9395-468c-4c68-85e7-1dde4e07f55f"},"vehicle_type_id":"4","last_reported":1685470097,"current_range_meters":29200,"station_id":"ce4bh312rcd13ifvqdj0","pricing_plan_id":"free"},{"bike_id":"a54f7ad7-eda9-4e96-907f-31f700b2a634","system_id":"levelo_inurba_marseille","lat":43.32353,"lon":5.40614,"is_reserved":false,"is_disabled":false,"rental_uris":{"android":"levelo://app?vid=a54f7ad7-eda9-4e96-907f-31f700b2a634","ios":"levelo://app?vid=a54f7ad7-eda9-4e96-907f-31f700b2a634"},"vehicle_type_id":"4","last_reported":1685470097,"current_range_meters":6000,"station_id":"ce4bhq92rcd13ifvqhjg","pricing_plan_id":"free"},{"bike_id":"439afc74-7788-4c8d-a062-14150ad45f34","system_id":"levelo_inurba_marseille","lat":43.2848,"lon":5.38409,"is_reserved":false,"is_disabled":false,"rental_uris":{"android":"levelo://app?vid=439afc74-7788-4c8d-a062-14150ad45f34","ios":"levelo://app?vid=439afc74-7788-4c8d-a062-14150ad45f34"},"vehicle_type_id":"4","last_reported":1685470097,"current_range_meters":8800,"station_id":"ce4bh512rcd13ifvqe3g","pricing_plan_id":"free"},{"bike_id":"e4b87fcf-b22e-4fb3-97cb-c6da93de382b","system_id":"levelo_inurba_marseille","lat":43.284787,"lon":5.384116,"is_reserved":false,"is_disabled":false,"rental_uris":{"android":"levelo://app?vid=e4b87fcf-b22e-4fb3-97cb-c6da93de382b","ios":"levelo://app?vid=e4b87fcf-b22e-4fb3-97cb-c6da93de382b"},"vehicle_type_id":"4","last_reported":1685470097,"current_range_meters":8000,"station_id":"ce4bh512rcd13ifvqe3g","pricing_plan_id":"free"},{"bike_id":"583b3ea5-9fc9-4360-999e-d20c28172005","system_id":"levelo_inurba_marseille","lat":43.288497,"lon":5.393089,"is_reserved":false,"is_disabled":false,"rental_uris":{"android":"levelo://app?vid=583b3ea5-9fc9-4360-999e-d20c28172005","ios":"levelo://app?vid=583b3ea5-9fc9-4360-999e-d20c28172005"},"vehicle_type_id":"4","last_reported":1685470097,"current_range_meters":17200,"station_id":"ce4bh2p2rcd13ifvqdi0","pricing_plan_id":"free"},{"bike_id":"8a5ce28f-5eed-42d7-9df0-a7a8d9373e72","system_id":"levelo_inurba_marseille","lat":43.288497,"lon":5.393089,"is_reserved":false,"is_disabled":false,"rental_uris":{"android":"levelo://app?vid=8a5ce28f-5eed-42d7-9df0-a7a8d9373e72","ios":"levelo://app?vid=8a5ce28f-5eed-42d7-9df0-a7a8d9373e72"},"vehicle_type_id":"4","last_reported":1685470097,"current_range_meters":0,"station_id":"ce4bh2p2rcd13ifvqdi0","pricing_plan_id":"free"},{"bike_id":"2444df24-bccf-4942-b0c6-7cb6c108974d","system_id":"levelo_inurba_marseille","lat":43.284217,"lon":5.349697,"is_reserved":false,"is_disabled":false,"rental_uris":{"android":"levelo://app?vid=2444df24-bccf-4942-b0c6-7cb6c108974d","ios":"levelo://app?vid=2444df24-bccf-4942-b0c6-7cb6c108974d"},"vehicle_type_id":"4","last_reported":1685470097,"current_range_meters":16400,"station_id":"ce4bhbh2rcd13ifvqepg","pricing_plan_id":"free"},{"bike_id":"9d162b58-b79f-4d3f-abb6-61dd08db7340","system_id":"levelo_inurba_marseille","lat":43.283502,"lon":5.386471,"is_reserved":false,"is_disabled":false,"rental_uris":{"android":"levelo://app?vid=9d162b58-b79f-4d3f-abb6-61dd08db7340","ios":"levelo://app?vid=9d162b58-b79f-4d3f-abb6-61dd08db7340"},"vehicle_type_id":"4","last_reported":1685470097,"current_range_meters":21200,"station_id":"ce4bh492rcd13ifvqdvg","pricing_plan_id":"free"},{"bike_id":"ebbb177a-b96b-424e-981d-0acd78c85b43","system_id":"levelo_inurba_marseille","lat":43.283502,"lon":5.386471,"is_reserved":false,"is_disabled":false,"rental_uris":{"android":"levelo://app?vid=ebbb177a-b96b-424e-981d-0acd78c85b43","ios":"levelo://app?vid=ebbb177a-b96b-424e-981d-0acd78c85b43"},"vehicle_type_id":"4","last_reported":1685470097,"current_range_meters":16400,"station_id":"ce4bh492rcd13ifvqdvg","pricing_plan_id":"free"},{"bike_id":"aedf5a4d-276e-45e6-8eb6-733185bdb803","system_id":"levelo_inurba_marseille","lat":43.283502,"lon":5.386471,"is_reserved":false,"is_disabled":false,"rental_uris":{"android":"levelo://app?vid=aedf5a4d-276e-45e6-8eb6-733185bdb803","ios":"levelo://app?vid=aedf5a4d-276e-45e6-8eb6-733185bdb803"},"vehicle_type_id":"4","last_reported":1685470097,"current_range_meters":2800,"station_id":"ce4bh492rcd13ifvqdvg","pricing_plan_id":"free"},{"bike_id":"b8c9bf89-df7f-4386-8a71-24a816915d75","system_id":"levelo_inurba_marseille","lat":43.28039,"lon":5.369297,"is_reserved":false,"is_disabled":false,"rental_uris":{"android":"levelo://app?vid=b8c9bf89-df7f-4386-8a71-24a816915d75","ios":"levelo://app?vid=b8c9bf89-df7f-4386-8a71-24a816915d75"},"vehicle_type_id":"4","last_reported":1685470097,"current_range_meters":10800,"station_id":"ce4bha12rcd13ifvqef0","pricing_plan_id":"free"},{"bike_id":"ff4e4177-a7c4-4029-b972-f293a2752554","system_id":"levelo_inurba_marseille","lat":43.28039,"lon":5.369297,"is_reserved":false,"is_disabled":false,"rental_uris":{"android":"levelo://app?vid=ff4e4177-a7c4-4029-b972-f293a2752554","ios":"levelo://app?vid=ff4e4177-a7c4-4029-b972-f293a2752554"},"vehicle_type_id":"4","last_reported":1685470097,"current_range_meters":29200,"station_id":"ce4bha12rcd13ifvqef0","pricing_plan_id":"free"},{"bike_id":"137b8f4c-c73c-4496-94f9-c080859dd452","system_id":"levelo_inurba_marseille","lat":43.28041,"lon":5.36964,"is_reserved":false,"is_disabled":false,"rental_uris":{"android":"levelo://app?vid=137b8f4c-c73c-4496-94f9-c080859dd452","ios":"levelo://app?vid=137b8f4c-c73c-4496-94f9-c080859dd452"},"vehicle_type_id":"4","last_reported":1685470097,"current_range_meters":31200,"station_id":"ce4bha12rcd13ifvqef0","pricing_plan_id":"free"},{"bike_id":"f4e9b45a-69d0-411d-afc6-6a5420a0527b","system_id":"levelo_inurba_marseille","lat":43.281044,"lon":5.378308,"is_reserved":false,"is_disabled":false,"rental_uris":{"android":"levelo://app?vid=f4e9b45a-69d0-411d-afc6-6a5420a0527b","ios":"levelo://app?vid=f4e9b45a-69d0-411d-afc6-6a5420a0527b"},"vehicle_type_id":"4","last_reported":1685470097,"current_range_meters":13200,"station_id":"ce4bha12rcd13ifvqee0","pricing_plan_id":"free"},{"bike_id":"995f9d96-dc64-459b-8b67-a758f3d631b5","system_id":"levelo_inurba_marseille","lat":43.296263,"lon":5.40601,"is_reserved":false,"is_disabled":false,"rental_uris":{"android":"levelo://app?vid=995f9d96-dc64-459b-8b67-a758f3d631b5","ios":"levelo://app?vid=995f9d96-dc64-459b-8b67-a758f3d631b5"},"vehicle_type_id":"4","last_reported":1685470097,"current_range_meters":20000,"station_id":"ce4bh0h2rcd13ifvqd60","pricing_plan_id":"free"},{"bike_id":"174a46e1-ca4a-449d-ab88-adcc304f9fd2","system_id":"levelo_inurba_marseille","lat":43.296263,"lon":5.40601,"is_reserved":false,"is_disabled":false,"rental_uris":{"android":"levelo://app?vid=174a46e1-ca4a-449d-ab88-adcc304f9fd2","ios":"levelo://app?vid=174a46e1-ca4a-449d-ab88-adcc304f9fd2"},"vehicle_type_id":"4","last_reported":1685470097,"current_range_meters":1600,"station_id":"ce4bh0h2rcd13ifvqd60","pricing_plan_id":"free"},{"bike_id":"f94b4c92-14d8-4d0e-8ec4-1dca5a0a85f2","system_id":"levelo_inurba_marseille","lat":43.296263,"lon":5.40601,"is_reserved":false,"is_disabled":false,"rental_uris":{"android":"levelo://app?vid=f94b4c92-14d8-4d0e-8ec4-1dca5a0a85f2","ios":"levelo://app?vid=f94b4c92-14d8-4d0e-8ec4-1dca5a0a85f2"},"vehicle_type_id":"4","last_reported":1685470097,"current_range_meters":0,"station_id":"ce4bh0h2rcd13ifvqd60","pricing_plan_id":"free"},{"bike_id":"c4c56f18-ae5d-4ee3-9577-8ccf3db74848","system_id":"levelo_inurba_marseille","lat":43.296263,"lon":5.40601,"is_reserved":false,"is_disabled":false,"rental_uris":{"android":"levelo://app?vid=c4c56f18-ae5d-4ee3-9577-8ccf3db74848","ios":"levelo://app?vid=c4c56f18-ae5d-4ee3-9577-8ccf3db74848"},"vehicle_type_id":"4","last_reported":1685470097,"current_range_meters":22400,"station_id":"ce4bh0h2rcd13ifvqd60","pricing_plan_id":"free"},{"bike_id":"a6e4bd1b-b239-431a-8220-c11df1a62479","system_id":"levelo_inurba_marseille","lat":43.296263,"lon":5.40601,"is_reserved":false,"is_disabled":false,"rental_uris":{"android":"levelo://app?vid=a6e4bd1b-b239-431a-8220-c11df1a62479","ios":"levelo://app?vid=a6e4bd1b-b239-431a-8220-c11df1a62479"},"vehicle_type_id":"4","last_reported":1685470097,"current_range_meters":1200,"station_id":"ce4bh0h2rcd13ifvqd60","pricing_plan_id":"free"},{"bike_id":"e31b20f8-6f65-4c43-9677-38bc35240673","system_id":"levelo_inurba_marseille","lat":43.287154,"lon":5.399979,"is_reserved":false,"is_disabled":false,"rental_uris":{"android":"levelo://app?vid=e31b20f8-6f65-4c43-9677-38bc35240673","ios":"levelo://app?vid=e31b20f8-6f65-4c43-9677-38bc35240673"},"vehicle_type_id":"4","last_reported":1685470097,"current_range_meters":5200,"station_id":"ce4bho92rcd13ifvqh3g","pricing_plan_id":"free"},{"bike_id":"9b31df87-ae3e-47ed-a647-48e6a0df0d3a","system_id":"levelo_inurba_marseille","lat":43.287154,"lon":5.399979,"is_reserved":false,"is_disabled":false,"rental_uris":{"android":"levelo://app?vid=9b31df87-ae3e-47ed-a647-48e6a0df0d3a","ios":"levelo://app?vid=9b31df87-ae3e-47ed-a647-48e6a0df0d3a"},"vehicle_type_id":"4","last_reported":1685470097,"current_range_meters":800,"station_id":"ce4bho92rcd13ifvqh3g","pricing_plan_id":"free"},{"bike_id":"234ff75e-646e-4615-9b32-ad838e6df4f4","system_id":"levelo_inurba_marseille","lat":43.299579,"lon":5.413255,"is_reserved":false,"is_disabled":false,"rental_uris":{"android":"levelo://app?vid=234ff75e-646e-4615-9b32-ad838e6df4f4","ios":"levelo://app?vid=234ff75e-646e-4615-9b32-ad838e6df4f4"},"vehicle_type_id":"4","last_reported":1685470097,"current_range_meters":31600,"station_id":"ce4bhp12rcd13ifvqh9g","pricing_plan_id":"free"},{"bike_id":"b7212838-10e9-4664-a46a-7ae13cfc0c90","system_id":"levelo_inurba_marseille","lat":43.299579,"lon":5.413255,"is_reserved":false,"is_disabled":false,"rental_uris":{"android":"levelo://app?vid=b7212838-10e9-4664-a46a-7ae13cfc0c90","ios":"levelo://app?vid=b7212838-10e9-4664-a46a-7ae13cfc0c90"},"vehicle_type_id":"4","last_reported":1685470097,"current_range_meters":13600,"station_id":"ce4bhp12rcd13ifvqh9g","pricing_plan_id":"free"},{"bike_id":"f370cab2-4da3-4c48-8b10-e1c9e9107355","system_id":"levelo_inurba_marseille","lat":43.299577,"lon":5.413277,"is_reserved":false,"is_disabled":false,"rental_uris":{"android":"levelo://app?vid=f370cab2-4da3-4c48-8b10-e1c9e9107355","ios":"levelo://app?vid=f370cab2-4da3-4c48-8b10-e1c9e9107355"},"vehicle_type_id":"4","last_reported":1685470097,"current_range_meters":13600,"station_id":"ce4bhp12rcd13ifvqh9g","pricing_plan_id":"free"},{"bike_id":"f2117910-3de1-47f1-aadb-9b247a4da4c9","system_id":"levelo_inurba_marseille","lat":43.279742,"lon":5.38744,"is_reserved":false,"is_disabled":false,"rental_uris":{"android":"levelo://app?vid=f2117910-3de1-47f1-aadb-9b247a4da4c9","ios":"levelo://app?vid=f2117910-3de1-47f1-aadb-9b247a4da4c9"},"vehicle_type_id":"4","last_reported":1685470097,"current_range_meters":23600,"station_id":"ce4bhg12rcd13ifvqf80","pricing_plan_id":"free"},{"bike_id":"b7d5e875-6f1e-447c-90ca-01954415ef0b","system_id":"levelo_inurba_marseille","lat":43.279742,"lon":5.38744,"is_reserved":false,"is_disabled":false,"rental_uris":{"android":"levelo://app?vid=b7d5e875-6f1e-447c-90ca-01954415ef0b","ios":"levelo://app?vid=b7d5e875-6f1e-447c-90ca-01954415ef0b"},"vehicle_type_id":"4","last_reported":1685470097,"current_range_meters":0,"station_id":"ce4bhg12rcd13ifvqf80","pricing_plan_id":"free"},{"bike_id":"d155093c-06fb-4d5d-b1b9-f69415e983ee","system_id":"levelo_inurba_marseille","lat":43.292571,"lon":5.409107,"is_reserved":false,"is_disabled":false,"rental_uris":{"android":"levelo://app?vid=d155093c-06fb-4d5d-b1b9-f69415e983ee","ios":"levelo://app?vid=d155093c-06fb-4d5d-b1b9-f69415e983ee"},"vehicle_type_id":"4","last_reported":1685470097,"current_range_meters":16800,"station_id":"ce4bh192rcd13ifvqdc0","pricing_plan_id":"free"},{"bike_id":"da1391e8-b95a-4776-8e75-106d7faae819","system_id":"levelo_inurba_marseille","lat":43.292569,"lon":5.409107,"is_reserved":false,"is_disabled":false,"rental_uris":{"android":"levelo://app?vid=da1391e8-b95a-4776-8e75-106d7faae819","ios":"levelo://app?vid=da1391e8-b95a-4776-8e75-106d7faae819"},"vehicle_type_id":"4","last_reported":1685470097,"current_range_meters":7200,"station_id":"ce4bh192rcd13ifvqdc0","pricing_plan_id":"free"},{"bike_id":"0b35024b-97a8-4b82-8a04-a96730f8ff04","system_id":"levelo_inurba_marseille","lat":43.292569,"lon":5.409107,"is_reserved":false,"is_disabled":false,"rental_uris":{"android":"levelo://app?vid=0b35024b-97a8-4b82-8a04-a96730f8ff04","ios":"levelo://app?vid=0b35024b-97a8-4b82-8a04-a96730f8ff04"},"vehicle_type_id":"4","last_reported":1685470097,"current_range_meters":13600,"station_id":"ce4bh192rcd13ifvqdc0","pricing_plan_id":"free"},{"bike_id":"79105a48-8f15-4d55-ab8d-c4d02d3dfc10","system_id":"levelo_inurba_marseille","lat":43.292571,"lon":5.409107,"is_reserved":false,"is_disabled":false,"rental_uris":{"android":"levelo://app?vid=79105a48-8f15-4d55-ab8d-c4d02d3dfc10","ios":"levelo://app?vid=79105a48-8f15-4d55-ab8d-c4d02d3dfc10"},"vehicle_type_id":"4","last_reported":1685470097,"current_range_meters":2800,"station_id":"ce4bh192rcd13ifvqdc0","pricing_plan_id":"free"},{"bike_id":"0ef0ca67-dd22-49c0-a5e2-120c084df86b","system_id":"levelo_inurba_marseille","lat":43.325233,"lon":5.414318,"is_reserved":false,"is_disabled":false,"rental_uris":{"android":"levelo://app?vid=0ef0ca67-dd22-49c0-a5e2-120c084df86b","ios":"levelo://app?vid=0ef0ca67-dd22-49c0-a5e2-120c084df86b"},"vehicle_type_id":"4","last_reported":1685470097,"current_range_meters":800,"station_id":"ce4bhq12rcd13ifvqhhg","pricing_plan_id":"free"},{"bike_id":"8a950c9a-f8e2-462b-8c59-09cce4c31d4b","system_id":"levelo_inurba_marseille","lat":43.292571,"lon":5.409107,"is_reserved":false,"is_disabled":false,"rental_uris":{"android":"levelo://app?vid=8a950c9a-f8e2-462b-8c59-09cce4c31d4b","ios":"levelo://app?vid=8a950c9a-f8e2-462b-8c59-09cce4c31d4b"},"vehicle_type_id":"4","last_reported":1685470097,"current_range_meters":28800,"station_id":"ce4bh192rcd13ifvqdc0","pricing_plan_id":"free"},{"bike_id":"93762a59-462b-4b39-a14e-3a2eb67beed2","system_id":"levelo_inurba_marseille","lat":43.292571,"lon":5.409107,"is_reserved":false,"is_disabled":false,"rental_uris":{"android":"levelo://app?vid=93762a59-462b-4b39-a14e-3a2eb67beed2","ios":"levelo://app?vid=93762a59-462b-4b39-a14e-3a2eb67beed2"},"vehicle_type_id":"4","last_reported":1685470097,"current_range_meters":0,"station_id":"ce4bh192rcd13ifvqdc0","pricing_plan_id":"free"},{"bike_id":"58b0a114-2305-480e-831a-e0eac43d8edd","system_id":"levelo_inurba_marseille","lat":43.27618,"lon":5.361009,"is_reserved":false,"is_disabled":false,"rental_uris":{"android":"levelo://app?vid=58b0a114-2305-480e-831a-e0eac43d8edd","ios":"levelo://app?vid=58b0a114-2305-480e-831a-e0eac43d8edd"},"vehicle_type_id":"4","last_reported":1685470097,"current_range_meters":10800,"station_id":"ce4bgj92rcd13ifvqbe0","pricing_plan_id":"free"},{"bike_id":"cc8bb4b4-292b-4ff7-929f-708b681c49f6","system_id":"levelo_inurba_marseille","lat":43.292569,"lon":5.409107,"is_reserved":false,"is_disabled":false,"rental_uris":{"android":"levelo://app?vid=cc8bb4b4-292b-4ff7-929f-708b681c49f6","ios":"levelo://app?vid=cc8bb4b4-292b-4ff7-929f-708b681c49f6"},"vehicle_type_id":"4","last_reported":1685470097,"current_range_meters":17600,"station_id":"ce4bh192rcd13ifvqdc0","pricing_plan_id":"free"},{"bike_id":"08cd6e5b-93ea-4c18-ab97-6bdb89dfe26a","system_id":"levelo_inurba_marseille","lat":43.292569,"lon":5.409107,"is_reserved":false,"is_disabled":false,"rental_uris":{"android":"levelo://app?vid=08cd6e5b-93ea-4c18-ab97-6bdb89dfe26a","ios":"levelo://app?vid=08cd6e5b-93ea-4c18-ab97-6bdb89dfe26a"},"vehicle_type_id":"4","last_reported":1685470097,"current_range_meters":3600,"station_id":"ce4bh192rcd13ifvqdc0","pricing_plan_id":"free"},{"bike_id":"20607367-e347-4b4f-94d1-97eb93ff3678","system_id":"levelo_inurba_marseille","lat":43.292569,"lon":5.409107,"is_reserved":false,"is_disabled":false,"rental_uris":{"android":"levelo://app?vid=20607367-e347-4b4f-94d1-97eb93ff3678","ios":"levelo://app?vid=20607367-e347-4b4f-94d1-97eb93ff3678"},"vehicle_type_id":"4","last_reported":1685470097,"current_range_meters":18400,"station_id":"ce4bh192rcd13ifvqdc0","pricing_plan_id":"free"},{"bike_id":"11cea34d-9f67-41b3-9da8-2ba1bf4b6cf8","system_id":"levelo_inurba_marseille","lat":43.304,"lon":5.41841,"is_reserved":false,"is_disabled":false,"rental_uris":{"android":"levelo://app?vid=11cea34d-9f67-41b3-9da8-2ba1bf4b6cf8","ios":"levelo://app?vid=11cea34d-9f67-41b3-9da8-2ba1bf4b6cf8"},"vehicle_type_id":"4","last_reported":1685470097,"current_range_meters":14400,"station_id":"","pricing_plan_id":"free"},{"bike_id":"a4674ba4-074a-4e36-a75d-f39fa08e7fc5","system_id":"levelo_inurba_marseille","lat":43.278399,"lon":5.392139,"is_reserved":false,"is_disabled":false,"rental_uris":{"android":"levelo://app?vid=a4674ba4-074a-4e36-a75d-f39fa08e7fc5","ios":"levelo://app?vid=a4674ba4-074a-4e36-a75d-f39fa08e7fc5"},"vehicle_type_id":"4","last_reported":1685470097,"current_range_meters":4400,"station_id":"ce4bhjp2rcd13ifvqga0","pricing_plan_id":"free"},{"bike_id":"73e2f2b9-65e7-4697-9f8d-e1ce3a00e721","system_id":"levelo_inurba_marseille","lat":43.278401,"lon":5.392152,"is_reserved":false,"is_disabled":false,"rental_uris":{"android":"levelo://app?vid=73e2f2b9-65e7-4697-9f8d-e1ce3a00e721","ios":"levelo://app?vid=73e2f2b9-65e7-4697-9f8d-e1ce3a00e721"},"vehicle_type_id":"4","last_reported":1685470097,"current_range_meters":23600,"station_id":"ce4bhjp2rcd13ifvqga0","pricing_plan_id":"free"},{"bike_id":"54edf97c-4754-476f-8a8e-c1a8a5b5ee1b","system_id":"levelo_inurba_marseille","lat":43.276769,"lon":5.388787,"is_reserved":false,"is_disabled":false,"rental_uris":{"android":"levelo://app?vid=54edf97c-4754-476f-8a8e-c1a8a5b5ee1b","ios":"levelo://app?vid=54edf97c-4754-476f-8a8e-c1a8a5b5ee1b"},"vehicle_type_id":"4","last_reported":1685470097,"current_range_meters":1600,"station_id":"ce4bhi12rcd13ifvqfo0","pricing_plan_id":"free"},{"bike_id":"a60b39f8-f94b-4f52-bf55-2d4fb8a71c27","system_id":"levelo_inurba_marseille","lat":43.27669,"lon":5.38876,"is_reserved":false,"is_disabled":false,"rental_uris":{"android":"levelo://app?vid=a60b39f8-f94b-4f52-bf55-2d4fb8a71c27","ios":"levelo://app?vid=a60b39f8-f94b-4f52-bf55-2d4fb8a71c27"},"vehicle_type_id":"4","last_reported":1685470097,"current_range_meters":0,"station_id":"ce4bhi12rcd13ifvqfo0","pricing_plan_id":"free"},{"bike_id":"4aad73cd-c523-4728-9ef2-c033ec7f0f5e","system_id":"levelo_inurba_marseille","lat":43.310785,"lon":5.424305,"is_reserved":false,"is_disabled":false,"rental_uris":{"android":"levelo://app?vid=4aad73cd-c523-4728-9ef2-c033ec7f0f5e","ios":"levelo://app?vid=4aad73cd-c523-4728-9ef2-c033ec7f0f5e"},"vehicle_type_id":"4","last_reported":1685470097,"current_range_meters":8800,"station_id":"ce4bhp92rcd13ifvqhag","pricing_plan_id":"free"},{"bike_id":"91501e4e-6f30-470a-b939-654d00d60c5f","system_id":"levelo_inurba_marseille","lat":43.31095,"lon":5.42434,"is_reserved":false,"is_disabled":false,"rental_uris":{"android":"levelo://app?vid=91501e4e-6f30-470a-b939-654d00d60c5f","ios":"levelo://app?vid=91501e4e-6f30-470a-b939-654d00d60c5f"},"vehicle_type_id":"4","last_reported":1685470097,"current_range_meters":13200,"station_id":"ce4bhp92rcd13ifvqhag","pricing_plan_id":"free"},{"bike_id":"886577f9-6371-42d5-bb55-797e5b8c8645","system_id":"levelo_inurba_marseille","lat":43.30376,"lon":5.424,"is_reserved":false,"is_disabled":false,"rental_uris":{"android":"levelo://app?vid=886577f9-6371-42d5-bb55-797e5b8c8645","ios":"levelo://app?vid=886577f9-6371-42d5-bb55-797e5b8c8645"},"vehicle_type_id":"4","last_reported":1685470097,"current_range_meters":16800,"station_id":"","pricing_plan_id":"free"},{"bike_id":"c67c9c23-5505-468f-b4de-8c7dc2e6322c","system_id":"levelo_inurba_marseille","lat":43.27433,"lon":5.39409,"is_reserved":false,"is_disabled":false,"rental_uris":{"android":"levelo://app?vid=c67c9c23-5505-468f-b4de-8c7dc2e6322c","ios":"levelo://app?vid=c67c9c23-5505-468f-b4de-8c7dc2e6322c"},"vehicle_type_id":"4","last_reported":1685470097,"current_range_meters":0,"station_id":"","pricing_plan_id":"free"},{"bike_id":"68a8721d-a78c-47ba-a966-21bd876fc687","system_id":"levelo_inurba_marseille","lat":43.29558,"lon":5.42293,"is_reserved":false,"is_disabled":false,"rental_uris":{"android":"levelo://app?vid=68a8721d-a78c-47ba-a966-21bd876fc687","ios":"levelo://app?vid=68a8721d-a78c-47ba-a966-21bd876fc687"},"vehicle_type_id":"4","last_reported":1685470097,"current_range_meters":4000,"station_id":"ce4bhph2rcd13ifvqhdg","pricing_plan_id":"free"},{"bike_id":"b45d1e35-e590-47b2-b0ba-2671e5f7d569","system_id":"levelo_inurba_marseille","lat":43.278128,"lon":5.407195,"is_reserved":false,"is_disabled":false,"rental_uris":{"android":"levelo://app?vid=b45d1e35-e590-47b2-b0ba-2671e5f7d569","ios":"levelo://app?vid=b45d1e35-e590-47b2-b0ba-2671e5f7d569"},"vehicle_type_id":"4","last_reported":1685470097,"current_range_meters":25200,"station_id":"ce4bhnh2rcd13ifvqgtg","pricing_plan_id":"free"},{"bike_id":"ae0cfc4e-022d-4b4e-8e28-9715ff3a6056","system_id":"levelo_inurba_marseille","lat":43.278128,"lon":5.407195,"is_reserved":false,"is_disabled":false,"rental_uris":{"android":"levelo://app?vid=ae0cfc4e-022d-4b4e-8e28-9715ff3a6056","ios":"levelo://app?vid=ae0cfc4e-022d-4b4e-8e28-9715ff3a6056"},"vehicle_type_id":"4","last_reported":1685470097,"current_range_meters":3200,"station_id":"ce4bhnh2rcd13ifvqgtg","pricing_plan_id":"free"},{"bike_id":"d65d118c-c2fd-44b9-b4c0-75d9f4dabfe3","system_id":"levelo_inurba_marseille","lat":43.278128,"lon":5.407195,"is_reserved":false,"is_disabled":false,"rental_uris":{"android":"levelo://app?vid=d65d118c-c2fd-44b9-b4c0-75d9f4dabfe3","ios":"levelo://app?vid=d65d118c-c2fd-44b9-b4c0-75d9f4dabfe3"},"vehicle_type_id":"4","last_reported":1685470097,"current_range_meters":12400,"station_id":"ce4bhnh2rcd13ifvqgtg","pricing_plan_id":"free"},{"bike_id":"74dee672-a1fa-42a2-aff5-11cfdded85de","system_id":"levelo_inurba_marseille","lat":43.265714,"lon":5.372891,"is_reserved":false,"is_disabled":false,"rental_uris":{"android":"levelo://app?vid=74dee672-a1fa-42a2-aff5-11cfdded85de","ios":"levelo://app?vid=74dee672-a1fa-42a2-aff5-11cfdded85de"},"vehicle_type_id":"4","last_reported":1685470097,"current_range_meters":0,"station_id":"ce4bhg12rcd13ifvqf70","pricing_plan_id":"free"},{"bike_id":"97f92444-dc7f-4ac8-885e-43ac50454dc0","system_id":"levelo_inurba_marseille","lat":43.31678,"lon":5.43336,"is_reserved":false,"is_disabled":false,"rental_uris":{"android":"levelo://app?vid=97f92444-dc7f-4ac8-885e-43ac50454dc0","ios":"levelo://app?vid=97f92444-dc7f-4ac8-885e-43ac50454dc0"},"vehicle_type_id":"4","last_reported":1685470097,"current_range_meters":0,"station_id":"","pricing_plan_id":"free"},{"bike_id":"d887c7ee-cd01-4cbf-a598-4835bf7a3fca","system_id":"levelo_inurba_marseille","lat":43.27996,"lon":5.416624,"is_reserved":false,"is_disabled":false,"rental_uris":{"android":"levelo://app?vid=d887c7ee-cd01-4cbf-a598-4835bf7a3fca","ios":"levelo://app?vid=d887c7ee-cd01-4cbf-a598-4835bf7a3fca"},"vehicle_type_id":"4","last_reported":1685470097,"current_range_meters":12800,"station_id":"ce4bho12rcd13ifvqh1g","pricing_plan_id":"free"},{"bike_id":"a6314ad1-df8d-4aad-8098-d57d65df78f8","system_id":"levelo_inurba_marseille","lat":43.27996,"lon":5.416624,"is_reserved":false,"is_disabled":false,"rental_uris":{"android":"levelo://app?vid=a6314ad1-df8d-4aad-8098-d57d65df78f8","ios":"levelo://app?vid=a6314ad1-df8d-4aad-8098-d57d65df78f8"},"vehicle_type_id":"4","last_reported":1685470097,"current_range_meters":0,"station_id":"ce4bho12rcd13ifvqh1g","pricing_plan_id":"free"},{"bike_id":"cd153b7b-a2c5-4e7f-a27e-6cfaf1d52762","system_id":"levelo_inurba_marseille","lat":43.27996,"lon":5.416624,"is_reserved":false,"is_disabled":false,"rental_uris":{"android":"levelo://app?vid=cd153b7b-a2c5-4e7f-a27e-6cfaf1d52762","ios":"levelo://app?vid=cd153b7b-a2c5-4e7f-a27e-6cfaf1d52762"},"vehicle_type_id":"4","last_reported":1685470097,"current_range_meters":5200,"station_id":"ce4bho12rcd13ifvqh1g","pricing_plan_id":"free"},{"bike_id":"cc71c384-37e7-47c5-a164-f33472906a42","system_id":"levelo_inurba_marseille","lat":43.27996,"lon":5.416624,"is_reserved":false,"is_disabled":false,"rental_uris":{"android":"levelo://app?vid=cc71c384-37e7-47c5-a164-f33472906a42","ios":"levelo://app?vid=cc71c384-37e7-47c5-a164-f33472906a42"},"vehicle_type_id":"4","last_reported":1685470097,"current_range_meters":2000,"station_id":"ce4bho12rcd13ifvqh1g","pricing_plan_id":"free"},{"bike_id":"01cb54c7-313d-484a-8e7e-74b3b01b03f7","system_id":"levelo_inurba_marseille","lat":43.27996,"lon":5.416624,"is_reserved":false,"is_disabled":false,"rental_uris":{"android":"levelo://app?vid=01cb54c7-313d-484a-8e7e-74b3b01b03f7","ios":"levelo://app?vid=01cb54c7-313d-484a-8e7e-74b3b01b03f7"},"vehicle_type_id":"4","last_reported":1685470097,"current_range_meters":6400,"station_id":"ce4bho12rcd13ifvqh1g","pricing_plan_id":"free"},{"bike_id":"d4605e95-e917-4d0e-a730-2f96c941d2ac","system_id":"levelo_inurba_marseille","lat":43.267959,"lon":5.402687,"is_reserved":false,"is_disabled":false,"rental_uris":{"android":"levelo://app?vid=d4605e95-e917-4d0e-a730-2f96c941d2ac","ios":"levelo://app?vid=d4605e95-e917-4d0e-a730-2f96c941d2ac"},"vehicle_type_id":"4","last_reported":1685470097,"current_range_meters":16000,"station_id":"ce501612rcd8frsf0b60","pricing_plan_id":"free"},{"bike_id":"2fcc0c23-ac53-41eb-a2d4-d3336177ee7b","system_id":"levelo_inurba_marseille","lat":43.32308,"lon":5.43568,"is_reserved":false,"is_disabled":false,"rental_uris":{"android":"levelo://app?vid=2fcc0c23-ac53-41eb-a2d4-d3336177ee7b","ios":"levelo://app?vid=2fcc0c23-ac53-41eb-a2d4-d3336177ee7b"},"vehicle_type_id":"4","last_reported":1685470097,"current_range_meters":6000,"station_id":"","pricing_plan_id":"free"},{"bike_id":"3b5e8679-cd42-423f-ac0c-0a3b90d3ec30","system_id":"levelo_inurba_marseille","lat":43.261782,"lon":5.374515,"is_reserved":false,"is_disabled":false,"rental_uris":{"android":"levelo://app?vid=3b5e8679-cd42-423f-ac0c-0a3b90d3ec30","ios":"levelo://app?vid=3b5e8679-cd42-423f-ac0c-0a3b90d3ec30"},"vehicle_type_id":"4","last_reported":1685470097,"current_range_meters":8800,"station_id":"ce4bhgp2rcd13ifvqfc0","pricing_plan_id":"free"},{"bike_id":"ac69685f-fb31-462b-8a78-79eb1f09565d","system_id":"levelo_inurba_marseille","lat":43.261782,"lon":5.374515,"is_reserved":false,"is_disabled":false,"rental_uris":{"android":"levelo://app?vid=ac69685f-fb31-462b-8a78-79eb1f09565d","ios":"levelo://app?vid=ac69685f-fb31-462b-8a78-79eb1f09565d"},"vehicle_type_id":"4","last_reported":1685470097,"current_range_meters":6000,"station_id":"ce4bhgp2rcd13ifvqfc0","pricing_plan_id":"free"},{"bike_id":"28362961-5a4a-4d37-a05c-ac1d3f21c887","system_id":"levelo_inurba_marseille","lat":43.317104,"lon":5.436818,"is_reserved":false,"is_disabled":false,"rental_uris":{"android":"levelo://app?vid=28362961-5a4a-4d37-a05c-ac1d3f21c887","ios":"levelo://app?vid=28362961-5a4a-4d37-a05c-ac1d3f21c887"},"vehicle_type_id":"4","last_reported":1685470097,"current_range_meters":23200,"station_id":"ce4bhp92rcd13ifvqhcg","pricing_plan_id":"free"},{"bike_id":"1484fb73-ea82-4cbc-a93c-9b6c94228fc9","system_id":"levelo_inurba_marseille","lat":43.317104,"lon":5.436818,"is_reserved":false,"is_disabled":false,"rental_uris":{"android":"levelo://app?vid=1484fb73-ea82-4cbc-a93c-9b6c94228fc9","ios":"levelo://app?vid=1484fb73-ea82-4cbc-a93c-9b6c94228fc9"},"vehicle_type_id":"4","last_reported":1685470097,"current_range_meters":31600,"station_id":"ce4bhp92rcd13ifvqhcg","pricing_plan_id":"free"},{"bike_id":"1278d752-1aaf-4ae5-b68f-dc2e61a0b929","system_id":"levelo_inurba_marseille","lat":43.262012,"lon":5.379307,"is_reserved":false,"is_disabled":false,"rental_uris":{"android":"levelo://app?vid=1278d752-1aaf-4ae5-b68f-dc2e61a0b929","ios":"levelo://app?vid=1278d752-1aaf-4ae5-b68f-dc2e61a0b929"},"vehicle_type_id":"4","last_reported":1685470097,"current_range_meters":0,"station_id":"ce4bhjp2rcd13ifvqg90","pricing_plan_id":"free"},{"bike_id":"f22f7e44-aa2d-4864-9c71-c3848a626538","system_id":"levelo_inurba_marseille","lat":43.271368,"lon":5.40928,"is_reserved":false,"is_disabled":false,"rental_uris":{"android":"levelo://app?vid=f22f7e44-aa2d-4864-9c71-c3848a626538","ios":"levelo://app?vid=f22f7e44-aa2d-4864-9c71-c3848a626538"},"vehicle_type_id":"4","last_reported":1685470097,"current_range_meters":28000,"station_id":"ce4bhl12rcd13ifvqgf0","pricing_plan_id":"free"},{"bike_id":"70b32f93-9c97-45c8-a909-9998bd339929","system_id":"levelo_inurba_marseille","lat":43.27175,"lon":5.40991,"is_reserved":false,"is_disabled":false,"rental_uris":{"android":"levelo://app?vid=70b32f93-9c97-45c8-a909-9998bd339929","ios":"levelo://app?vid=70b32f93-9c97-45c8-a909-9998bd339929"},"vehicle_type_id":"4","last_reported":1685470097,"current_range_meters":29600,"station_id":"","pricing_plan_id":"free"},{"bike_id":"ae9c8137-ab4d-47d8-883d-00ed67fe81bf","system_id":"levelo_inurba_marseille","lat":43.298768,"lon":5.43643,"is_reserved":false,"is_disabled":false,"rental_uris":{"android":"levelo://app?vid=ae9c8137-ab4d-47d8-883d-00ed67fe81bf","ios":"levelo://app?vid=ae9c8137-ab4d-47d8-883d-00ed67fe81bf"},"vehicle_type_id":"4","last_reported":1685470097,"current_range_meters":0,"station_id":"ce4bhpp2rcd13ifvqhfg","pricing_plan_id":"free"},{"bike_id":"613fb5a2-e655-4f50-8093-10ab6a38d3b7","system_id":"levelo_inurba_marseille","lat":43.26027,"lon":5.37551,"is_reserved":false,"is_disabled":false,"rental_uris":{"android":"levelo://app?vid=613fb5a2-e655-4f50-8093-10ab6a38d3b7","ios":"levelo://app?vid=613fb5a2-e655-4f50-8093-10ab6a38d3b7"},"vehicle_type_id":"4","last_reported":1685470097,"current_range_meters":3600,"station_id":"ce4bhgh2rcd13ifvqfa0","pricing_plan_id":"free"},{"bike_id":"3030e2fc-a758-4858-ad5b-b845fff3cf28","system_id":"levelo_inurba_marseille","lat":43.260219,"lon":5.37546,"is_reserved":false,"is_disabled":false,"rental_uris":{"android":"levelo://app?vid=3030e2fc-a758-4858-ad5b-b845fff3cf28","ios":"levelo://app?vid=3030e2fc-a758-4858-ad5b-b845fff3cf28"},"vehicle_type_id":"4","last_reported":1685470097,"current_range_meters":1200,"station_id":"ce4bhgh2rcd13ifvqfa0","pricing_plan_id":"free"},{"bike_id":"6b404443-757b-4b8d-9a78-a03ca59013fb","system_id":"levelo_inurba_marseille","lat":43.2592,"lon":5.37283,"is_reserved":false,"is_disabled":false,"rental_uris":{"android":"levelo://app?vid=6b404443-757b-4b8d-9a78-a03ca59013fb","ios":"levelo://app?vid=6b404443-757b-4b8d-9a78-a03ca59013fb"},"vehicle_type_id":"4","last_reported":1685470097,"current_range_meters":2000,"station_id":"","pricing_plan_id":"free"},{"bike_id":"c02c6fbc-dc2f-41f4-ac00-eeed157be025","system_id":"levelo_inurba_marseille","lat":43.260909,"lon":5.397591,"is_reserved":false,"is_disabled":false,"rental_uris":{"android":"levelo://app?vid=c02c6fbc-dc2f-41f4-ac00-eeed157be025","ios":"levelo://app?vid=c02c6fbc-dc2f-41f4-ac00-eeed157be025"},"vehicle_type_id":"4","last_reported":1685470097,"current_range_meters":15600,"station_id":"ce4bhi12rcd13ifvqfq0","pricing_plan_id":"free"},{"bike_id":"94adbb32-c73e-4f28-a104-95f5bb44bd9b","system_id":"levelo_inurba_marseille","lat":43.255756,"lon":5.382303,"is_reserved":false,"is_disabled":false,"rental_uris":{"android":"levelo://app?vid=94adbb32-c73e-4f28-a104-95f5bb44bd9b","ios":"levelo://app?vid=94adbb32-c73e-4f28-a104-95f5bb44bd9b"},"vehicle_type_id":"4","last_reported":1685470097,"current_range_meters":22000,"station_id":"ce4bhih2rcd13ifvqfs0","pricing_plan_id":"free"},{"bike_id":"8f2f99f0-724c-46a2-a42d-32addbe3318c","system_id":"levelo_inurba_marseille","lat":43.255756,"lon":5.382303,"is_reserved":false,"is_disabled":false,"rental_uris":{"android":"levelo://app?vid=8f2f99f0-724c-46a2-a42d-32addbe3318c","ios":"levelo://app?vid=8f2f99f0-724c-46a2-a42d-32addbe3318c"},"vehicle_type_id":"4","last_reported":1685470097,"current_range_meters":15200,"station_id":"ce4bhih2rcd13ifvqfs0","pricing_plan_id":"free"},{"bike_id":"8bcd3a58-2fcc-47be-866c-07219827b9dc","system_id":"levelo_inurba_marseille","lat":43.255756,"lon":5.382303,"is_reserved":false,"is_disabled":false,"rental_uris":{"android":"levelo://app?vid=8bcd3a58-2fcc-47be-866c-07219827b9dc","ios":"levelo://app?vid=8bcd3a58-2fcc-47be-866c-07219827b9dc"},"vehicle_type_id":"4","last_reported":1685470097,"current_range_meters":31600,"station_id":"ce4bhih2rcd13ifvqfs0","pricing_plan_id":"free"},{"bike_id":"35acc75c-c87e-4c8c-a65a-5c6790d709b7","system_id":"levelo_inurba_marseille","lat":43.255756,"lon":5.382303,"is_reserved":false,"is_disabled":false,"rental_uris":{"android":"levelo://app?vid=35acc75c-c87e-4c8c-a65a-5c6790d709b7","ios":"levelo://app?vid=35acc75c-c87e-4c8c-a65a-5c6790d709b7"},"vehicle_type_id":"4","last_reported":1685470097,"current_range_meters":17200,"station_id":"ce4bhih2rcd13ifvqfs0","pricing_plan_id":"free"},{"bike_id":"0fea447f-93b0-482c-9d1c-e445ef77957e","system_id":"levelo_inurba_marseille","lat":43.25583,"lon":5.38217,"is_reserved":false,"is_disabled":false,"rental_uris":{"android":"levelo://app?vid=0fea447f-93b0-482c-9d1c-e445ef77957e","ios":"levelo://app?vid=0fea447f-93b0-482c-9d1c-e445ef77957e"},"vehicle_type_id":"4","last_reported":1685470097,"current_range_meters":25200,"station_id":"ce4bhih2rcd13ifvqfs0","pricing_plan_id":"free"},{"bike_id":"b8d596d4-ab74-470d-a541-c951c7743b1c","system_id":"levelo_inurba_marseille","lat":43.255756,"lon":5.382303,"is_reserved":false,"is_disabled":false,"rental_uris":{"android":"levelo://app?vid=b8d596d4-ab74-470d-a541-c951c7743b1c","ios":"levelo://app?vid=b8d596d4-ab74-470d-a541-c951c7743b1c"},"vehicle_type_id":"4","last_reported":1685470097,"current_range_meters":17600,"station_id":"ce4bhih2rcd13ifvqfs0","pricing_plan_id":"free"},{"bike_id":"4bd635f9-3758-44d5-8800-80d52c6e1bdf","system_id":"levelo_inurba_marseille","lat":43.255756,"lon":5.382303,"is_reserved":false,"is_disabled":false,"rental_uris":{"android":"levelo://app?vid=4bd635f9-3758-44d5-8800-80d52c6e1bdf","ios":"levelo://app?vid=4bd635f9-3758-44d5-8800-80d52c6e1bdf"},"vehicle_type_id":"4","last_reported":1685470097,"current_range_meters":19200,"station_id":"ce4bhih2rcd13ifvqfs0","pricing_plan_id":"free"},{"bike_id":"04a3ffc4-d3c1-4338-90f7-b28fdd4ad489","system_id":"levelo_inurba_marseille","lat":43.25582,"lon":5.38223,"is_reserved":false,"is_disabled":false,"rental_uris":{"android":"levelo://app?vid=04a3ffc4-d3c1-4338-90f7-b28fdd4ad489","ios":"levelo://app?vid=04a3ffc4-d3c1-4338-90f7-b28fdd4ad489"},"vehicle_type_id":"4","last_reported":1685470097,"current_range_meters":2400,"station_id":"ce4bhih2rcd13ifvqfs0","pricing_plan_id":"free"},{"bike_id":"309e73de-12db-4535-a973-622375dc02f3","system_id":"levelo_inurba_marseille","lat":43.255756,"lon":5.382303,"is_reserved":false,"is_disabled":false,"rental_uris":{"android":"levelo://app?vid=309e73de-12db-4535-a973-622375dc02f3","ios":"levelo://app?vid=309e73de-12db-4535-a973-622375dc02f3"},"vehicle_type_id":"4","last_reported":1685470097,"current_range_meters":13600,"station_id":"ce4bhih2rcd13ifvqfs0","pricing_plan_id":"free"},{"bike_id":"939e4bb0-70f6-4eb2-9db0-ccdbd7ad7083","system_id":"levelo_inurba_marseille","lat":43.255756,"lon":5.382303,"is_reserved":false,"is_disabled":false,"rental_uris":{"android":"levelo://app?vid=939e4bb0-70f6-4eb2-9db0-ccdbd7ad7083","ios":"levelo://app?vid=939e4bb0-70f6-4eb2-9db0-ccdbd7ad7083"},"vehicle_type_id":"4","last_reported":1685470097,"current_range_meters":27600,"station_id":"ce4bhih2rcd13ifvqfs0","pricing_plan_id":"free"},{"bike_id":"e2ee4aa9-5c76-443b-ae81-10d3c8b1bdec","system_id":"levelo_inurba_marseille","lat":43.255756,"lon":5.382303,"is_reserved":false,"is_disabled":false,"rental_uris":{"android":"levelo://app?vid=e2ee4aa9-5c76-443b-ae81-10d3c8b1bdec","ios":"levelo://app?vid=e2ee4aa9-5c76-443b-ae81-10d3c8b1bdec"},"vehicle_type_id":"4","last_reported":1685470097,"current_range_meters":31600,"station_id":"ce4bhih2rcd13ifvqfs0","pricing_plan_id":"free"},{"bike_id":"06b2d97a-29be-4af7-be34-a8d80d2cc3f5","system_id":"levelo_inurba_marseille","lat":43.25581,"lon":5.38235,"is_reserved":false,"is_disabled":false,"rental_uris":{"android":"levelo://app?vid=06b2d97a-29be-4af7-be34-a8d80d2cc3f5","ios":"levelo://app?vid=06b2d97a-29be-4af7-be34-a8d80d2cc3f5"},"vehicle_type_id":"4","last_reported":1685470097,"current_range_meters":29200,"station_id":"ce4bhih2rcd13ifvqfs0","pricing_plan_id":"free"},{"bike_id":"4a4dc7a4-29f7-4aa0-8553-612d1c2534da","system_id":"levelo_inurba_marseille","lat":43.255756,"lon":5.382303,"is_reserved":false,"is_disabled":false,"rental_uris":{"android":"levelo://app?vid=4a4dc7a4-29f7-4aa0-8553-612d1c2534da","ios":"levelo://app?vid=4a4dc7a4-29f7-4aa0-8553-612d1c2534da"},"vehicle_type_id":"4","last_reported":1685470097,"current_range_meters":21200,"station_id":"ce4bhih2rcd13ifvqfs0","pricing_plan_id":"free"},{"bike_id":"fa34be9e-9570-4ecb-9c1a-5506b70dfeab","system_id":"levelo_inurba_marseille","lat":43.255756,"lon":5.382303,"is_reserved":false,"is_disabled":false,"rental_uris":{"android":"levelo://app?vid=fa34be9e-9570-4ecb-9c1a-5506b70dfeab","ios":"levelo://app?vid=fa34be9e-9570-4ecb-9c1a-5506b70dfeab"},"vehicle_type_id":"4","last_reported":1685470097,"current_range_meters":15200,"station_id":"ce4bhih2rcd13ifvqfs0","pricing_plan_id":"free"},{"bike_id":"7cb57cc4-cf08-4b00-a31c-c1120bb4079c","system_id":"levelo_inurba_marseille","lat":43.255756,"lon":5.382303,"is_reserved":false,"is_disabled":false,"rental_uris":{"android":"levelo://app?vid=7cb57cc4-cf08-4b00-a31c-c1120bb4079c","ios":"levelo://app?vid=7cb57cc4-cf08-4b00-a31c-c1120bb4079c"},"vehicle_type_id":"4","last_reported":1685470097,"current_range_meters":26000,"station_id":"ce4bhih2rcd13ifvqfs0","pricing_plan_id":"free"},{"bike_id":"4097b9be-7b95-46e3-8bb9-fb6245c2659f","system_id":"levelo_inurba_marseille","lat":43.2558,"lon":5.38238,"is_reserved":false,"is_disabled":false,"rental_uris":{"android":"levelo://app?vid=4097b9be-7b95-46e3-8bb9-fb6245c2659f","ios":"levelo://app?vid=4097b9be-7b95-46e3-8bb9-fb6245c2659f"},"vehicle_type_id":"4","last_reported":1685470097,"current_range_meters":14000,"station_id":"ce4bhih2rcd13ifvqfs0","pricing_plan_id":"free"},{"bike_id":"cbb73234-299a-4fbc-8f5f-a9cab6f2fb4f","system_id":"levelo_inurba_marseille","lat":43.25576,"lon":5.38225,"is_reserved":false,"is_disabled":false,"rental_uris":{"android":"levelo://app?vid=cbb73234-299a-4fbc-8f5f-a9cab6f2fb4f","ios":"levelo://app?vid=cbb73234-299a-4fbc-8f5f-a9cab6f2fb4f"},"vehicle_type_id":"4","last_reported":1685470097,"current_range_meters":8400,"station_id":"ce4bhih2rcd13ifvqfs0","pricing_plan_id":"free"},{"bike_id":"645d824e-4191-40e7-8718-c877b839e43b","system_id":"levelo_inurba_marseille","lat":43.255756,"lon":5.382303,"is_reserved":false,"is_disabled":false,"rental_uris":{"android":"levelo://app?vid=645d824e-4191-40e7-8718-c877b839e43b","ios":"levelo://app?vid=645d824e-4191-40e7-8718-c877b839e43b"},"vehicle_type_id":"4","last_reported":1685470097,"current_range_meters":4800,"station_id":"ce4bhih2rcd13ifvqfs0","pricing_plan_id":"free"},{"bike_id":"59b46683-7edc-4608-8a60-1d1e6fc0ed74","system_id":"levelo_inurba_marseille","lat":43.25873,"lon":5.39893,"is_reserved":false,"is_disabled":false,"rental_uris":{"android":"levelo://app?vid=59b46683-7edc-4608-8a60-1d1e6fc0ed74","ios":"levelo://app?vid=59b46683-7edc-4608-8a60-1d1e6fc0ed74"},"vehicle_type_id":"4","last_reported":1685470097,"current_range_meters":1200,"station_id":"ce4bhl92rcd13ifvqghg","pricing_plan_id":"free"},{"bike_id":"c03baa94-c906-412c-a142-198995cd6176","system_id":"levelo_inurba_marseille","lat":43.259013,"lon":5.409301,"is_reserved":false,"is_disabled":false,"rental_uris":{"android":"levelo://app?vid=c03baa94-c906-412c-a142-198995cd6176","ios":"levelo://app?vid=c03baa94-c906-412c-a142-198995cd6176"},"vehicle_type_id":"4","last_reported":1685470097,"current_range_meters":7200,"station_id":"ce4bhm92rcd13ifvqglg","pricing_plan_id":"free"},{"bike_id":"5bcfc73e-00a9-4dcc-81da-eb153cabd9f2","system_id":"levelo_inurba_marseille","lat":43.259013,"lon":5.409301,"is_reserved":false,"is_disabled":false,"rental_uris":{"android":"levelo://app?vid=5bcfc73e-00a9-4dcc-81da-eb153cabd9f2","ios":"levelo://app?vid=5bcfc73e-00a9-4dcc-81da-eb153cabd9f2"},"vehicle_type_id":"4","last_reported":1685470097,"current_range_meters":16400,"station_id":"ce4bhm92rcd13ifvqglg","pricing_plan_id":"free"},{"bike_id":"841f1318-77c5-4f4f-9060-08da964d399f","system_id":"levelo_inurba_marseille","lat":43.25713,"lon":5.41107,"is_reserved":false,"is_disabled":false,"rental_uris":{"android":"levelo://app?vid=841f1318-77c5-4f4f-9060-08da964d399f","ios":"levelo://app?vid=841f1318-77c5-4f4f-9060-08da964d399f"},"vehicle_type_id":"4","last_reported":1685470097,"current_range_meters":12000,"station_id":"","pricing_plan_id":"free"},{"bike_id":"47abf1e8-3d32-4dfa-9ce5-c756190f6bbc","system_id":"levelo_inurba_marseille","lat":43.2501,"lon":5.38919,"is_reserved":false,"is_disabled":false,"rental_uris":{"android":"levelo://app?vid=47abf1e8-3d32-4dfa-9ce5-c756190f6bbc","ios":"levelo://app?vid=47abf1e8-3d32-4dfa-9ce5-c756190f6bbc"},"vehicle_type_id":"4","last_reported":1685470097,"current_range_meters":12000,"station_id":"ce4bhgp2rcd13ifvqfd0","pricing_plan_id":"free"},{"bike_id":"713ae44d-9fe2-49f8-b808-6f1eb9ac1c5e","system_id":"levelo_inurba_marseille","lat":43.25003,"lon":5.38932,"is_reserved":false,"is_disabled":false,"rental_uris":{"android":"levelo://app?vid=713ae44d-9fe2-49f8-b808-6f1eb9ac1c5e","ios":"levelo://app?vid=713ae44d-9fe2-49f8-b808-6f1eb9ac1c5e"},"vehicle_type_id":"4","last_reported":1685470097,"current_range_meters":22800,"station_id":"ce4bhgp2rcd13ifvqfd0","pricing_plan_id":"free"},{"bike_id":"3358c26d-5761-4bf3-b0bf-12f9964875d6","system_id":"levelo_inurba_marseille","lat":43.24998,"lon":5.38932,"is_reserved":false,"is_disabled":false,"rental_uris":{"android":"levelo://app?vid=3358c26d-5761-4bf3-b0bf-12f9964875d6","ios":"levelo://app?vid=3358c26d-5761-4bf3-b0bf-12f9964875d6"},"vehicle_type_id":"4","last_reported":1685470097,"current_range_meters":4000,"station_id":"ce4bhgp2rcd13ifvqfd0","pricing_plan_id":"free"},{"bike_id":"8bd152d1-8736-4d71-bdfd-de9c86c1d5eb","system_id":"levelo_inurba_marseille","lat":43.250023,"lon":5.38919,"is_reserved":false,"is_disabled":false,"rental_uris":{"android":"levelo://app?vid=8bd152d1-8736-4d71-bdfd-de9c86c1d5eb","ios":"levelo://app?vid=8bd152d1-8736-4d71-bdfd-de9c86c1d5eb"},"vehicle_type_id":"4","last_reported":1685470097,"current_range_meters":11600,"station_id":"ce4bhgp2rcd13ifvqfd0","pricing_plan_id":"free"},{"bike_id":"a93ca06f-3f39-4ded-8b55-d21953c63a58","system_id":"levelo_inurba_marseille","lat":43.24809,"lon":5.37459,"is_reserved":false,"is_disabled":false,"rental_uris":{"android":"levelo://app?vid=a93ca06f-3f39-4ded-8b55-d21953c63a58","ios":"levelo://app?vid=a93ca06f-3f39-4ded-8b55-d21953c63a58"},"vehicle_type_id":"4","last_reported":1685470097,"current_range_meters":6800,"station_id":"ce4bhgh2rcd13ifvqfb0","pricing_plan_id":"free"},{"bike_id":"8629e43d-1eee-497b-b85f-53829ccb6eba","system_id":"levelo_inurba_marseille","lat":43.2479,"lon":5.374457,"is_reserved":false,"is_disabled":false,"rental_uris":{"android":"levelo://app?vid=8629e43d-1eee-497b-b85f-53829ccb6eba","ios":"levelo://app?vid=8629e43d-1eee-497b-b85f-53829ccb6eba"},"vehicle_type_id":"4","last_reported":1685470097,"current_range_meters":4400,"station_id":"ce4bhgh2rcd13ifvqfb0","pricing_plan_id":"free"},{"bike_id":"5585503f-dadb-402f-b68d-1092afc5c13a","system_id":"levelo_inurba_marseille","lat":43.24806,"lon":5.37453,"is_reserved":false,"is_disabled":false,"rental_uris":{"android":"levelo://app?vid=5585503f-dadb-402f-b68d-1092afc5c13a","ios":"levelo://app?vid=5585503f-dadb-402f-b68d-1092afc5c13a"},"vehicle_type_id":"4","last_reported":1685470097,"current_range_meters":0,"station_id":"","pricing_plan_id":"free"},{"bike_id":"873cc453-1515-48f8-b208-7d3aaa3012b3","system_id":"levelo_inurba_marseille","lat":43.2479,"lon":5.374457,"is_reserved":false,"is_disabled":false,"rental_uris":{"android":"levelo://app?vid=873cc453-1515-48f8-b208-7d3aaa3012b3","ios":"levelo://app?vid=873cc453-1515-48f8-b208-7d3aaa3012b3"},"vehicle_type_id":"4","last_reported":1685470097,"current_range_meters":14400,"station_id":"ce4bhgh2rcd13ifvqfb0","pricing_plan_id":"free"},{"bike_id":"d969743b-f160-4bf3-aa89-96c68ce29f1e","system_id":"levelo_inurba_marseille","lat":43.25092,"lon":5.39507,"is_reserved":false,"is_disabled":false,"rental_uris":{"android":"levelo://app?vid=d969743b-f160-4bf3-aa89-96c68ce29f1e","ios":"levelo://app?vid=d969743b-f160-4bf3-aa89-96c68ce29f1e"},"vehicle_type_id":"4","last_reported":1685470097,"current_range_meters":0,"station_id":"ce4bhm12rcd13ifvqgkg","pricing_plan_id":"free"},{"bike_id":"062d4a3c-e3cb-4cca-b4c2-eeab26d1da78","system_id":"levelo_inurba_marseille","lat":43.250966,"lon":5.395186,"is_reserved":false,"is_disabled":false,"rental_uris":{"android":"levelo://app?vid=062d4a3c-e3cb-4cca-b4c2-eeab26d1da78","ios":"levelo://app?vid=062d4a3c-e3cb-4cca-b4c2-eeab26d1da78"},"vehicle_type_id":"4","last_reported":1685470097,"current_range_meters":31200,"station_id":"ce4bhm12rcd13ifvqgkg","pricing_plan_id":"free"},{"bike_id":"9791be12-a2b3-44eb-accd-86be14b45ea6","system_id":"levelo_inurba_marseille","lat":43.24693,"lon":5.382096,"is_reserved":false,"is_disabled":false,"rental_uris":{"android":"levelo://app?vid=9791be12-a2b3-44eb-accd-86be14b45ea6","ios":"levelo://app?vid=9791be12-a2b3-44eb-accd-86be14b45ea6"},"vehicle_type_id":"4","last_reported":1685470097,"current_range_meters":6000,"station_id":"ce4bhih2rcd13ifvqfr0","pricing_plan_id":"free"},{"bike_id":"ab55fed1-2aca-40f5-93e0-203288ab99e9","system_id":"levelo_inurba_marseille","lat":43.24693,"lon":5.382096,"is_reserved":false,"is_disabled":false,"rental_uris":{"android":"levelo://app?vid=ab55fed1-2aca-40f5-93e0-203288ab99e9","ios":"levelo://app?vid=ab55fed1-2aca-40f5-93e0-203288ab99e9"},"vehicle_type_id":"4","last_reported":1685470097,"current_range_meters":6800,"station_id":"ce4bhih2rcd13ifvqfr0","pricing_plan_id":"free"},{"bike_id":"2f940c92-95c0-4d26-b4ea-98990ba38768","system_id":"levelo_inurba_marseille","lat":43.25102,"lon":5.403214,"is_reserved":false,"is_disabled":false,"rental_uris":{"android":"levelo://app?vid=2f940c92-95c0-4d26-b4ea-98990ba38768","ios":"levelo://app?vid=2f940c92-95c0-4d26-b4ea-98990ba38768"},"vehicle_type_id":"4","last_reported":1685470097,"current_range_meters":2800,"station_id":"ce4bhlh2rcd13ifvqgig","pricing_plan_id":"free"},{"bike_id":"cb7e71b7-1eb8-484e-a62d-b7cfa6651595","system_id":"levelo_inurba_marseille","lat":43.25102,"lon":5.403214,"is_reserved":false,"is_disabled":false,"rental_uris":{"android":"levelo://app?vid=cb7e71b7-1eb8-484e-a62d-b7cfa6651595","ios":"levelo://app?vid=cb7e71b7-1eb8-484e-a62d-b7cfa6651595"},"vehicle_type_id":"4","last_reported":1685470097,"current_range_meters":1600,"station_id":"ce4bhlh2rcd13ifvqgig","pricing_plan_id":"free"},{"bike_id":"74fd4d77-586b-443a-9120-46160801a806","system_id":"levelo_inurba_marseille","lat":43.25102,"lon":5.403214,"is_reserved":false,"is_disabled":false,"rental_uris":{"android":"levelo://app?vid=74fd4d77-586b-443a-9120-46160801a806","ios":"levelo://app?vid=74fd4d77-586b-443a-9120-46160801a806"},"vehicle_type_id":"4","last_reported":1685470097,"current_range_meters":7600,"station_id":"ce4bhlh2rcd13ifvqgig","pricing_plan_id":"free"},{"bike_id":"d2833786-861c-4c27-8c16-38f5c4c1c900","system_id":"levelo_inurba_marseille","lat":43.251182,"lon":5.403544,"is_reserved":false,"is_disabled":false,"rental_uris":{"android":"levelo://app?vid=d2833786-861c-4c27-8c16-38f5c4c1c900","ios":"levelo://app?vid=d2833786-861c-4c27-8c16-38f5c4c1c900"},"vehicle_type_id":"4","last_reported":1685470097,"current_range_meters":9600,"station_id":"","pricing_plan_id":"free"},{"bike_id":"f01a11df-fb67-479c-88df-1cee7c05d4ea","system_id":"levelo_inurba_marseille","lat":43.24658,"lon":5.38895,"is_reserved":false,"is_disabled":false,"rental_uris":{"android":"levelo://app?vid=f01a11df-fb67-479c-88df-1cee7c05d4ea","ios":"levelo://app?vid=f01a11df-fb67-479c-88df-1cee7c05d4ea"},"vehicle_type_id":"4","last_reported":1685470097,"current_range_meters":24000,"station_id":"ce4bhg12rcd13ifvqf60","pricing_plan_id":"free"},{"bike_id":"5a5ce047-ca23-436f-81e8-29b7ce99e453","system_id":"levelo_inurba_marseille","lat":43.28848,"lon":5.45488,"is_reserved":false,"is_disabled":false,"rental_uris":{"android":"levelo://app?vid=5a5ce047-ca23-436f-81e8-29b7ce99e453","ios":"levelo://app?vid=5a5ce047-ca23-436f-81e8-29b7ce99e453"},"vehicle_type_id":"4","last_reported":1685470097,"current_range_meters":23200,"station_id":"","pricing_plan_id":"free"},{"bike_id":"b492037a-835b-4876-af69-929f58dbbd4e","system_id":"levelo_inurba_marseille","lat":43.243884,"lon":5.370736,"is_reserved":false,"is_disabled":false,"rental_uris":{"android":"levelo://app?vid=b492037a-835b-4876-af69-929f58dbbd4e","ios":"levelo://app?vid=b492037a-835b-4876-af69-929f58dbbd4e"},