{"last_updated":1702141550,"ttl":30,"version":"2.2","data":{"bikes":[{"bike_id":"324c7832-3d1e-4460-aceb-f6cc41ce924f","system_id":"levelo_inurba_marseille","lat":43.314811,"lon":5.373103,"is_reserved":false,"is_disabled":false,"rental_uris":{"android":"levelo://app?vid=324c7832-3d1e-4460-aceb-f6cc41ce924f","ios":"levelo://app?vid=324c7832-3d1e-4460-aceb-f6cc41ce924f"},"vehicle_type_id":"4","last_reported":1702141551,"current_range_meters":11600,"station_id":"ce4bgt12rcd13ifvqcd0","pricing_plan_id":"free"},{"bike_id":"8213fb51-6ca0-4f12-9e9a-b9f26db97a3d","system_id":"levelo_inurba_marseille","lat":43.31502,"lon":5.37317,"is_reserved":false,"is_disabled":false,"rental_uris":{"android":"levelo://app?vid=8213fb51-6ca0-4f12-9e9a-b9f26db97a3d","ios":"levelo://app?vid=8213fb51-6ca0-4f12-9e9a-b9f26db97a3d"},"vehicle_type_id":"4","last_reported":1702141551,"current_range_meters":25600,"station_id":"ce4bgt12rcd13ifvqcd0","pricing_plan_id":"free"},{"bike_id":"bdf1525a-64e2-43a4-9012-7ed4510e212d","system_id":"levelo_inurba_marseille","lat":43.309039,"lon":5.371797,"is_reserved":false,"is_disabled":false,"rental_uris":{"android":"levelo://app?vid=bdf1525a-64e2-43a4-9012-7ed4510e212d","ios":"levelo://app?vid=bdf1525a-64e2-43a4-9012-7ed4510e212d"},"vehicle_type_id":"4","last_reported":1702141551,"current_range_meters":400,"station_id":"ce4bguh2rcd13ifvqckg","pricing_plan_id":"free"},{"bike_id":"925a3638-aca7-4640-801f-654c6982ed6c","system_id":"levelo_inurba_marseille","lat":43.305368,"lon":5.367343,"is_reserved":false,"is_disabled":false,"rental_uris":{"android":"levelo://app?vid=925a3638-aca7-4640-801f-654c6982ed6c","ios":"levelo://app?vid=925a3638-aca7-4640-801f-654c6982ed6c"},"vehicle_type_id":"4","last_reported":1702141551,"current_range_meters":8400,"station_id":"ce4bgrp2rcd13ifvqc9g","pricing_plan_id":"free"},{"bike_id":"59f2cd24-ca76-44ea-9ee8-b4e533cdcf4f","system_id":"levelo_inurba_marseille","lat":43.3061,"lon":5.37215,"is_reserved":false,"is_disabled":false,"rental_uris":{"android":"levelo://app?vid=59f2cd24-ca76-44ea-9ee8-b4e533cdcf4f","ios":"levelo://app?vid=59f2cd24-ca76-44ea-9ee8-b4e533cdcf4f"},"vehicle_type_id":"4","last_reported":1702141551,"current_range_meters":17200,"station_id":"ce4bgqh2rcd13ifvqc4g","pricing_plan_id":"free"},{"bike_id":"8f8ca50b-9290-4ad5-9ab3-955dfdf6edee","system_id":"levelo_inurba_marseille","lat":43.30646,"lon":5.37305,"is_reserved":false,"is_disabled":false,"rental_uris":{"android":"levelo://app?vid=8f8ca50b-9290-4ad5-9ab3-955dfdf6edee","ios":"levelo://app?vid=8f8ca50b-9290-4ad5-9ab3-955dfdf6edee"},"vehicle_type_id":"4","last_reported":1702141551,"current_range_meters":20400,"station_id":"","pricing_plan_id":"free"},{"bike_id":"96dfe85b-e822-45cd-bf15-31824da18aa8","system_id":"levelo_inurba_marseille","lat":43.307945,"lon":5.376487,"is_reserved":false,"is_disabled":false,"rental_uris":{"android":"levelo://app?vid=96dfe85b-e822-45cd-bf15-31824da18aa8","ios":"levelo://app?vid=96dfe85b-e822-45cd-bf15-31824da18aa8"},"vehicle_type_id":"4","last_reported":1702141551,"current_range_meters":1200,"station_id":"ce4bgv92rcd13ifvqcq0","pricing_plan_id":"free"},{"bike_id":"f8903e50-437f-469c-9522-87402982f728","system_id":"levelo_inurba_marseille","lat":43.303046,"lon":5.368981,"is_reserved":false,"is_disabled":false,"rental_uris":{"android":"levelo://app?vid=f8903e50-437f-469c-9522-87402982f728","ios":"levelo://app?vid=f8903e50-437f-469c-9522-87402982f728"},"vehicle_type_id":"4","last_reported":1702141551,"current_range_meters":6400,"station_id":"ce4bgqh2rcd13ifvqc5g","pricing_plan_id":"free"},{"bike_id":"9d1303a8-5522-41b2-b659-6fa392d3cdf5","system_id":"levelo_inurba_marseille","lat":43.301939,"lon":5.366286,"is_reserved":false,"is_disabled":false,"rental_uris":{"android":"levelo://app?vid=9d1303a8-5522-41b2-b659-6fa392d3cdf5","ios":"levelo://app?vid=9d1303a8-5522-41b2-b659-6fa392d3cdf5"},"vehicle_type_id":"4","last_reported":1702141551,"current_range_meters":7200,"station_id":"ce4bgrh2rcd13ifvqc8g","pricing_plan_id":"free"},{"bike_id":"a30f03ee-72b0-43dc-a284-5c1cd60817de","system_id":"levelo_inurba_marseille","lat":43.301939,"lon":5.366286,"is_reserved":false,"is_disabled":false,"rental_uris":{"android":"levelo://app?vid=a30f03ee-72b0-43dc-a284-5c1cd60817de","ios":"levelo://app?vid=a30f03ee-72b0-43dc-a284-5c1cd60817de"},"vehicle_type_id":"4","last_reported":1702141551,"current_range_meters":14800,"station_id":"ce4bgrh2rcd13ifvqc8g","pricing_plan_id":"free"},{"bike_id":"f57112a7-80d9-4afc-b424-244b1e5ce648","system_id":"levelo_inurba_marseille","lat":43.301939,"lon":5.366286,"is_reserved":false,"is_disabled":false,"rental_uris":{"android":"levelo://app?vid=f57112a7-80d9-4afc-b424-244b1e5ce648","ios":"levelo://app?vid=f57112a7-80d9-4afc-b424-244b1e5ce648"},"vehicle_type_id":"4","last_reported":1702141551,"current_range_meters":26400,"station_id":"ce4bgrh2rcd13ifvqc8g","pricing_plan_id":"free"},{"bike_id":"7e9439c9-a4ac-4874-9072-377a0b11c8d2","system_id":"levelo_inurba_marseille","lat":43.307917,"lon":5.381473,"is_reserved":false,"is_disabled":false,"rental_uris":{"android":"levelo://app?vid=7e9439c9-a4ac-4874-9072-377a0b11c8d2","ios":"levelo://app?vid=7e9439c9-a4ac-4874-9072-377a0b11c8d2"},"vehicle_type_id":"4","last_reported":1702141551,"current_range_meters":22400,"station_id":"ce4bgt12rcd13ifvqce0","pricing_plan_id":"free"},{"bike_id":"384e5295-0c40-4fff-a2f5-a65b2dfb6e51","system_id":"levelo_inurba_marseille","lat":43.304606,"lon":5.379026,"is_reserved":false,"is_disabled":false,"rental_uris":{"android":"levelo://app?vid=384e5295-0c40-4fff-a2f5-a65b2dfb6e51","ios":"levelo://app?vid=384e5295-0c40-4fff-a2f5-a65b2dfb6e51"},"vehicle_type_id":"4","last_reported":1702141551,"current_range_meters":0,"station_id":"ce4bgup2rcd13ifvqcn0","pricing_plan_id":"free"},{"bike_id":"37cecc8b-04d7-45b5-9358-debfbabbfb43","system_id":"levelo_inurba_marseille","lat":43.304606,"lon":5.379026,"is_reserved":false,"is_disabled":false,"rental_uris":{"android":"levelo://app?vid=37cecc8b-04d7-45b5-9358-debfbabbfb43","ios":"levelo://app?vid=37cecc8b-04d7-45b5-9358-debfbabbfb43"},"vehicle_type_id":"4","last_reported":1702141551,"current_range_meters":12400,"station_id":"ce4bgup2rcd13ifvqcn0","pricing_plan_id":"free"},{"bike_id":"6b5885e9-7ed0-4be7-a7c9-4350a19cfbf8","system_id":"levelo_inurba_marseille","lat":43.304606,"lon":5.379026,"is_reserved":false,"is_disabled":false,"rental_uris":{"android":"levelo://app?vid=6b5885e9-7ed0-4be7-a7c9-4350a19cfbf8","ios":"levelo://app?vid=6b5885e9-7ed0-4be7-a7c9-4350a19cfbf8"},"vehicle_type_id":"4","last_reported":1702141551,"current_range_meters":11200,"station_id":"ce4bgup2rcd13ifvqcn0","pricing_plan_id":"free"},{"bike_id":"97cda1a9-0209-4bb1-88d8-060ad582783a","system_id":"levelo_inurba_marseille","lat":43.3014,"lon":5.37414,"is_reserved":false,"is_disabled":false,"rental_uris":{"android":"levelo://app?vid=97cda1a9-0209-4bb1-88d8-060ad582783a","ios":"levelo://app?vid=97cda1a9-0209-4bb1-88d8-060ad582783a"},"vehicle_type_id":"4","last_reported":1702141551,"current_range_meters":0,"station_id":"ce4bgs92rcd13ifvqcc0","pricing_plan_id":"free"},{"bike_id":"d8be298e-f4c0-4479-a66b-e307c680d7cc","system_id":"levelo_inurba_marseille","lat":43.31356,"lon":5.38493,"is_reserved":false,"is_disabled":false,"rental_uris":{"android":"levelo://app?vid=d8be298e-f4c0-4479-a66b-e307c680d7cc","ios":"levelo://app?vid=d8be298e-f4c0-4479-a66b-e307c680d7cc"},"vehicle_type_id":"4","last_reported":1702141551,"current_range_meters":23600,"station_id":"ce4bgt92rcd13ifvqcf0","pricing_plan_id":"free"},{"bike_id":"caf207c9-b1da-4468-9e2e-bb981faf02a1","system_id":"levelo_inurba_marseille","lat":43.299724,"lon":5.371829,"is_reserved":false,"is_disabled":false,"rental_uris":{"android":"levelo://app?vid=caf207c9-b1da-4468-9e2e-bb981faf02a1","ios":"levelo://app?vid=caf207c9-b1da-4468-9e2e-bb981faf02a1"},"vehicle_type_id":"4","last_reported":1702141551,"current_range_meters":22400,"station_id":"ce4bgr92rcd13ifvqc7g","pricing_plan_id":"free"},{"bike_id":"9e3e29ca-7d38-40cd-8d00-80201cf4795d","system_id":"levelo_inurba_marseille","lat":43.313571,"lon":5.384829,"is_reserved":false,"is_disabled":false,"rental_uris":{"android":"levelo://app?vid=9e3e29ca-7d38-40cd-8d00-80201cf4795d","ios":"levelo://app?vid=9e3e29ca-7d38-40cd-8d00-80201cf4795d"},"vehicle_type_id":"4","last_reported":1702141551,"current_range_meters":17600,"station_id":"ce4bgt92rcd13ifvqcf0","pricing_plan_id":"free"},{"bike_id":"f0ace676-01f6-4165-90f5-72899600b9a8","system_id":"levelo_inurba_marseille","lat":43.299753,"lon":5.37403,"is_reserved":false,"is_disabled":false,"rental_uris":{"android":"levelo://app?vid=f0ace676-01f6-4165-90f5-72899600b9a8","ios":"levelo://app?vid=f0ace676-01f6-4165-90f5-72899600b9a8"},"vehicle_type_id":"4","last_reported":1702141551,"current_range_meters":20000,"station_id":"","pricing_plan_id":"free"},{"bike_id":"94b9a9a4-3c50-4136-ba08-28c65611aafb","system_id":"levelo_inurba_marseille","lat":43.299243,"lon":5.37481,"is_reserved":false,"is_disabled":false,"rental_uris":{"android":"levelo://app?vid=94b9a9a4-3c50-4136-ba08-28c65611aafb","ios":"levelo://app?vid=94b9a9a4-3c50-4136-ba08-28c65611aafb"},"vehicle_type_id":"4","last_reported":1702141551,"current_range_meters":18000,"station_id":"ce4bgjh2rcd13ifvqbg0","pricing_plan_id":"free"},{"bike_id":"38f1223e-a214-4eb0-9b54-a70de861d11b","system_id":"levelo_inurba_marseille","lat":43.3229,"lon":5.38262,"is_reserved":false,"is_disabled":false,"rental_uris":{"android":"levelo://app?vid=38f1223e-a214-4eb0-9b54-a70de861d11b","ios":"levelo://app?vid=38f1223e-a214-4eb0-9b54-a70de861d11b"},"vehicle_type_id":"4","last_reported":1702141551,"current_range_meters":22000,"station_id":"ce4bhr12rcd13ifvqhqg","pricing_plan_id":"free"},{"bike_id":"6ac675f1-e0be-498c-ad2f-b742a949d4b0","system_id":"levelo_inurba_marseille","lat":43.298218,"lon":5.374416,"is_reserved":false,"is_disabled":false,"rental_uris":{"android":"levelo://app?vid=6ac675f1-e0be-498c-ad2f-b742a949d4b0","ios":"levelo://app?vid=6ac675f1-e0be-498c-ad2f-b742a949d4b0"},"vehicle_type_id":"4","last_reported":1702141551,"current_range_meters":1600,"station_id":"","pricing_plan_id":"free"},{"bike_id":"2879dfed-697c-4b81-be60-89d08c616ace","system_id":"levelo_inurba_marseille","lat":43.294162,"lon":5.386292,"is_reserved":false,"is_disabled":false,"rental_uris":{"android":"levelo://app?vid=2879dfed-697c-4b81-be60-89d08c616ace","ios":"levelo://app?vid=2879dfed-697c-4b81-be60-89d08c616ace"},"vehicle_type_id":"4","last_reported":1702141551,"current_range_meters":1600,"station_id":"ce4bh2h2rcd13ifvqdh0","pricing_plan_id":"free"},{"bike_id":"818bf58f-f459-4cef-aa12-fff6e7347c42","system_id":"levelo_inurba_marseille","lat":43.2968,"lon":5.37291,"is_reserved":false,"is_disabled":false,"rental_uris":{"android":"levelo://app?vid=818bf58f-f459-4cef-aa12-fff6e7347c42","ios":"levelo://app?vid=818bf58f-f459-4cef-aa12-fff6e7347c42"},"vehicle_type_id":"4","last_reported":1702141551,"current_range_meters":4800,"station_id":"ce4bgk12rcd13ifvqbj0","pricing_plan_id":"free"},{"bike_id":"92dc65d6-6823-4de3-93d4-056f738f090c","system_id":"levelo_inurba_marseille","lat":43.316538,"lon":5.38954,"is_reserved":false,"is_disabled":false,"rental_uris":{"android":"levelo://app?vid=92dc65d6-6823-4de3-93d4-056f738f090c","ios":"levelo://app?vid=92dc65d6-6823-4de3-93d4-056f738f090c"},"vehicle_type_id":"4","last_reported":1702141551,"current_range_meters":0,"station_id":"","pricing_plan_id":"free"},{"bike_id":"ea2d4f7c-c131-4f14-a7bc-f5c2879d4424","system_id":"levelo_inurba_marseille","lat":43.29639,"lon":5.372758,"is_reserved":false,"is_disabled":false,"rental_uris":{"android":"levelo://app?vid=ea2d4f7c-c131-4f14-a7bc-f5c2879d4424","ios":"levelo://app?vid=ea2d4f7c-c131-4f14-a7bc-f5c2879d4424"},"vehicle_type_id":"4","last_reported":1702141551,"current_range_meters":0,"station_id":"","pricing_plan_id":"free"},{"bike_id":"38ccb3dd-ca2a-451b-8d29-91a4bbc42da6","system_id":"levelo_inurba_marseille","lat":43.29573,"lon":5.367355,"is_reserved":false,"is_disabled":false,"rental_uris":{"android":"levelo://app?vid=38ccb3dd-ca2a-451b-8d29-91a4bbc42da6","ios":"levelo://app?vid=38ccb3dd-ca2a-451b-8d29-91a4bbc42da6"},"vehicle_type_id":"4","last_reported":1702141551,"current_range_meters":25200,"station_id":"ce4bgph2rcd13ifvqc2g","pricing_plan_id":"free"},{"bike_id":"4e6c0cf5-baf1-4542-b287-72d80b8e1d2c","system_id":"levelo_inurba_marseille","lat":43.29573,"lon":5.367355,"is_reserved":false,"is_disabled":false,"rental_uris":{"android":"levelo://app?vid=4e6c0cf5-baf1-4542-b287-72d80b8e1d2c","ios":"levelo://app?vid=4e6c0cf5-baf1-4542-b287-72d80b8e1d2c"},"vehicle_type_id":"4","last_reported":1702141551,"current_range_meters":400,"station_id":"ce4bgph2rcd13ifvqc2g","pricing_plan_id":"free"},{"bike_id":"b667da1c-bfe0-4860-bdb7-550547a5dffa","system_id":"levelo_inurba_marseille","lat":43.296921,"lon":5.376579,"is_reserved":false,"is_disabled":false,"rental_uris":{"android":"levelo://app?vid=b667da1c-bfe0-4860-bdb7-550547a5dffa","ios":"levelo://app?vid=b667da1c-bfe0-4860-bdb7-550547a5dffa"},"vehicle_type_id":"4","last_reported":1702141551,"current_range_meters":16800,"station_id":"ce4bgkh2rcd13ifvqbl0","pricing_plan_id":"free"},{"bike_id":"8d5d551b-9509-4159-921c-d7544f167aad","system_id":"levelo_inurba_marseille","lat":43.296921,"lon":5.376579,"is_reserved":false,"is_disabled":false,"rental_uris":{"android":"levelo://app?vid=8d5d551b-9509-4159-921c-d7544f167aad","ios":"levelo://app?vid=8d5d551b-9509-4159-921c-d7544f167aad"},"vehicle_type_id":"4","last_reported":1702141551,"current_range_meters":0,"station_id":"ce4bgkh2rcd13ifvqbl0","pricing_plan_id":"free"},{"bike_id":"81c4f88e-bb53-4e91-81ea-f5f56a1904c8","system_id":"levelo_inurba_marseille","lat":43.317557,"lon":5.390173,"is_reserved":false,"is_disabled":false,"rental_uris":{"android":"levelo://app?vid=81c4f88e-bb53-4e91-81ea-f5f56a1904c8","ios":"levelo://app?vid=81c4f88e-bb53-4e91-81ea-f5f56a1904c8"},"vehicle_type_id":"4","last_reported":1702141551,"current_range_meters":21600,"station_id":"ce4bhqp2rcd13ifvqhng","pricing_plan_id":"free"},{"bike_id":"4f1e8f2c-800a-4cd8-afc9-d16ec5e34290","system_id":"levelo_inurba_marseille","lat":43.317557,"lon":5.390173,"is_reserved":false,"is_disabled":false,"rental_uris":{"android":"levelo://app?vid=4f1e8f2c-800a-4cd8-afc9-d16ec5e34290","ios":"levelo://app?vid=4f1e8f2c-800a-4cd8-afc9-d16ec5e34290"},"vehicle_type_id":"4","last_reported":1702141551,"current_range_meters":4000,"station_id":"ce4bhqp2rcd13ifvqhng","pricing_plan_id":"free"},{"bike_id":"2652041d-6a77-4f09-882a-874fbf696a86","system_id":"levelo_inurba_marseille","lat":43.295748,"lon":5.37522,"is_reserved":false,"is_disabled":false,"rental_uris":{"android":"levelo://app?vid=2652041d-6a77-4f09-882a-874fbf696a86","ios":"levelo://app?vid=2652041d-6a77-4f09-882a-874fbf696a86"},"vehicle_type_id":"4","last_reported":1702141551,"current_range_meters":12000,"station_id":"ce4bgh92rcd13ifvqb50","pricing_plan_id":"free"},{"bike_id":"5c69f4d9-a159-474d-a7e4-e9c95bdbd90f","system_id":"levelo_inurba_marseille","lat":43.299773,"lon":5.38493,"is_reserved":false,"is_disabled":false,"rental_uris":{"android":"levelo://app?vid=5c69f4d9-a159-474d-a7e4-e9c95bdbd90f","ios":"levelo://app?vid=5c69f4d9-a159-474d-a7e4-e9c95bdbd90f"},"vehicle_type_id":"4","last_reported":1702141551,"current_range_meters":0,"station_id":"ce4bgj92rcd13ifvqbd0","pricing_plan_id":"free"},{"bike_id":"1ecbe721-eb53-4aaf-bbd0-879b6197350b","system_id":"levelo_inurba_marseille","lat":43.299724,"lon":5.384848,"is_reserved":false,"is_disabled":false,"rental_uris":{"android":"levelo://app?vid=1ecbe721-eb53-4aaf-bbd0-879b6197350b","ios":"levelo://app?vid=1ecbe721-eb53-4aaf-bbd0-879b6197350b"},"vehicle_type_id":"4","last_reported":1702141551,"current_range_meters":800,"station_id":"ce4bgj92rcd13ifvqbd0","pricing_plan_id":"free"},{"bike_id":"cc78727a-c21f-4343-8453-3430405c9f28","system_id":"levelo_inurba_marseille","lat":43.29602,"lon":5.38104,"is_reserved":false,"is_disabled":false,"rental_uris":{"android":"levelo://app?vid=cc78727a-c21f-4343-8453-3430405c9f28","ios":"levelo://app?vid=cc78727a-c21f-4343-8453-3430405c9f28"},"vehicle_type_id":"4","last_reported":1702141551,"current_range_meters":0,"station_id":"ce4bgl12rcd13ifvqbo0","pricing_plan_id":"free"},{"bike_id":"5ed66215-e812-4934-8bd8-05fa06e2778c","system_id":"levelo_inurba_marseille","lat":43.332893,"lon":5.370668,"is_reserved":false,"is_disabled":false,"rental_uris":{"android":"levelo://app?vid=5ed66215-e812-4934-8bd8-05fa06e2778c","ios":"levelo://app?vid=5ed66215-e812-4934-8bd8-05fa06e2778c"},"vehicle_type_id":"4","last_reported":1702141551,"current_range_meters":28000,"station_id":"","pricing_plan_id":"free"},{"bike_id":"5c79bc93-8f13-4c40-8a8c-8f35d3902245","system_id":"levelo_inurba_marseille","lat":43.333552,"lon":5.370438,"is_reserved":false,"is_disabled":false,"rental_uris":{"android":"levelo://app?vid=5c79bc93-8f13-4c40-8a8c-8f35d3902245","ios":"levelo://app?vid=5c79bc93-8f13-4c40-8a8c-8f35d3902245"},"vehicle_type_id":"4","last_reported":1702141551,"current_range_meters":12800,"station_id":"","pricing_plan_id":"free"},{"bike_id":"c5bf70e9-2c62-4626-8234-14efdbab86df","system_id":"levelo_inurba_marseille","lat":43.300852,"lon":5.390859,"is_reserved":false,"is_disabled":false,"rental_uris":{"android":"levelo://app?vid=c5bf70e9-2c62-4626-8234-14efdbab86df","ios":"levelo://app?vid=c5bf70e9-2c62-4626-8234-14efdbab86df"},"vehicle_type_id":"4","last_reported":1702141551,"current_range_meters":21600,"station_id":"ce4bh192rcd13ifvqdb0","pricing_plan_id":"free"},{"bike_id":"5662ad54-275e-4b71-92ab-ee1be1ea0d1f","system_id":"levelo_inurba_marseille","lat":43.30085,"lon":5.390856,"is_reserved":false,"is_disabled":false,"rental_uris":{"android":"levelo://app?vid=5662ad54-275e-4b71-92ab-ee1be1ea0d1f","ios":"levelo://app?vid=5662ad54-275e-4b71-92ab-ee1be1ea0d1f"},"vehicle_type_id":"4","last_reported":1702141551,"current_range_meters":20400,"station_id":"ce4bh192rcd13ifvqdb0","pricing_plan_id":"free"},{"bike_id":"ffe8e861-9583-46be-9da3-462d5c1037ee","system_id":"levelo_inurba_marseille","lat":43.29255,"lon":5.37622,"is_reserved":false,"is_disabled":false,"rental_uris":{"android":"levelo://app?vid=ffe8e861-9583-46be-9da3-462d5c1037ee","ios":"levelo://app?vid=ffe8e861-9583-46be-9da3-462d5c1037ee"},"vehicle_type_id":"4","last_reported":1702141551,"current_range_meters":10800,"station_id":"ce4bgi12rcd13ifvqb80","pricing_plan_id":"free"},{"bike_id":"33629a0f-077c-45b7-8bb1-997a7d232724","system_id":"levelo_inurba_marseille","lat":43.29187,"lon":5.35797,"is_reserved":false,"is_disabled":false,"rental_uris":{"android":"levelo://app?vid=33629a0f-077c-45b7-8bb1-997a7d232724","ios":"levelo://app?vid=33629a0f-077c-45b7-8bb1-997a7d232724"},"vehicle_type_id":"4","last_reported":1702141551,"current_range_meters":16000,"station_id":"ce4bhb12rcd13ifvqel0","pricing_plan_id":"free"},{"bike_id":"3bd42bdb-a174-4b97-8125-a8eddaf07be2","system_id":"levelo_inurba_marseille","lat":43.29529,"lon":5.385581,"is_reserved":false,"is_disabled":false,"rental_uris":{"android":"levelo://app?vid=3bd42bdb-a174-4b97-8125-a8eddaf07be2","ios":"levelo://app?vid=3bd42bdb-a174-4b97-8125-a8eddaf07be2"},"vehicle_type_id":"4","last_reported":1702141551,"current_range_meters":5200,"station_id":"ce4bgih2rcd13ifvqba0","pricing_plan_id":"free"},{"bike_id":"83386b97-84c5-4077-9d2f-d753f097effb","system_id":"levelo_inurba_marseille","lat":43.29529,"lon":5.385581,"is_reserved":false,"is_disabled":false,"rental_uris":{"android":"levelo://app?vid=83386b97-84c5-4077-9d2f-d753f097effb","ios":"levelo://app?vid=83386b97-84c5-4077-9d2f-d753f097effb"},"vehicle_type_id":"4","last_reported":1702141551,"current_range_meters":15200,"station_id":"ce4bgih2rcd13ifvqba0","pricing_plan_id":"free"},{"bike_id":"890f6634-dbee-487a-b364-6c9c92781c0e","system_id":"levelo_inurba_marseille","lat":43.290779,"lon":5.371482,"is_reserved":false,"is_disabled":false,"rental_uris":{"android":"levelo://app?vid=890f6634-dbee-487a-b364-6c9c92781c0e","ios":"levelo://app?vid=890f6634-dbee-487a-b364-6c9c92781c0e"},"vehicle_type_id":"4","last_reported":1702141551,"current_range_meters":23200,"station_id":"ce4bh5p2rcd13ifvqe4g","pricing_plan_id":"free"},{"bike_id":"b4dc34e6-7012-4621-a844-015062da2fce","system_id":"levelo_inurba_marseille","lat":43.290779,"lon":5.371482,"is_reserved":false,"is_disabled":false,"rental_uris":{"android":"levelo://app?vid=b4dc34e6-7012-4621-a844-015062da2fce","ios":"levelo://app?vid=b4dc34e6-7012-4621-a844-015062da2fce"},"vehicle_type_id":"4","last_reported":1702141551,"current_range_meters":2800,"station_id":"ce4bh5p2rcd13ifvqe4g","pricing_plan_id":"free"},{"bike_id":"6a9991d7-5f9a-40cc-a673-2d596e2d253f","system_id":"levelo_inurba_marseille","lat":43.289184,"lon":5.366408,"is_reserved":false,"is_disabled":false,"rental_uris":{"android":"levelo://app?vid=6a9991d7-5f9a-40cc-a673-2d596e2d253f","ios":"levelo://app?vid=6a9991d7-5f9a-40cc-a673-2d596e2d253f"},"vehicle_type_id":"4","last_reported":1702141551,"current_range_meters":22000,"station_id":"ce4bhap2rcd13ifvqek0","pricing_plan_id":"free"},{"bike_id":"9973975b-0656-41a8-a792-2fbb63306854","system_id":"levelo_inurba_marseille","lat":43.28946,"lon":5.36412,"is_reserved":false,"is_disabled":false,"rental_uris":{"android":"levelo://app?vid=9973975b-0656-41a8-a792-2fbb63306854","ios":"levelo://app?vid=9973975b-0656-41a8-a792-2fbb63306854"},"vehicle_type_id":"4","last_reported":1702141551,"current_range_meters":19200,"station_id":"ce4bhc92rcd13ifvqetg","pricing_plan_id":"free"},{"bike_id":"a02a1b20-1fb1-4951-988a-77389649024d","system_id":"levelo_inurba_marseille","lat":43.289259,"lon":5.366364,"is_reserved":false,"is_disabled":false,"rental_uris":{"android":"levelo://app?vid=a02a1b20-1fb1-4951-988a-77389649024d","ios":"levelo://app?vid=a02a1b20-1fb1-4951-988a-77389649024d"},"vehicle_type_id":"4","last_reported":1702141551,"current_range_meters":11600,"station_id":"","pricing_plan_id":"free"},{"bike_id":"e674b407-d622-43d3-8897-17aa4305d9f9","system_id":"levelo_inurba_marseille","lat":43.292642,"lon":5.384254,"is_reserved":false,"is_disabled":false,"rental_uris":{"android":"levelo://app?vid=e674b407-d622-43d3-8897-17aa4305d9f9","ios":"levelo://app?vid=e674b407-d622-43d3-8897-17aa4305d9f9"},"vehicle_type_id":"4","last_reported":1702141551,"current_range_meters":30000,"station_id":"ce4bh692rcd13ifvqea0","pricing_plan_id":"free"},{"bike_id":"eb498db8-3410-4d1d-8395-8364d5eb383f","system_id":"levelo_inurba_marseille","lat":43.33044,"lon":5.38918,"is_reserved":false,"is_disabled":false,"rental_uris":{"android":"levelo://app?vid=eb498db8-3410-4d1d-8395-8364d5eb383f","ios":"levelo://app?vid=eb498db8-3410-4d1d-8395-8364d5eb383f"},"vehicle_type_id":"4","last_reported":1702141551,"current_range_meters":22400,"station_id":"ce4bhr92rcd13ifvqhrg","pricing_plan_id":"free"},{"bike_id":"ec3f1091-16b3-4484-a682-b26e12070eb7","system_id":"levelo_inurba_marseille","lat":43.289741,"lon":5.378306,"is_reserved":false,"is_disabled":false,"rental_uris":{"android":"levelo://app?vid=ec3f1091-16b3-4484-a682-b26e12070eb7","ios":"levelo://app?vid=ec3f1091-16b3-4484-a682-b26e12070eb7"},"vehicle_type_id":"4","last_reported":1702141551,"current_range_meters":18400,"station_id":"ce4bh9p2rcd13ifvqed0","pricing_plan_id":"free"},{"bike_id":"ecb58bd0-dd8e-4b29-b4c7-38ce14734f34","system_id":"levelo_inurba_marseille","lat":43.295169,"lon":5.390426,"is_reserved":false,"is_disabled":false,"rental_uris":{"android":"levelo://app?vid=ecb58bd0-dd8e-4b29-b4c7-38ce14734f34","ios":"levelo://app?vid=ecb58bd0-dd8e-4b29-b4c7-38ce14734f34"},"vehicle_type_id":"4","last_reported":1702141551,"current_range_meters":5200,"station_id":"ce4bh3p2rcd13ifvqdp0","pricing_plan_id":"free"},{"bike_id":"f9535100-b802-47d5-b498-e19949b67c95","system_id":"levelo_inurba_marseille","lat":43.29925,"lon":5.39559,"is_reserved":false,"is_disabled":false,"rental_uris":{"android":"levelo://app?vid=f9535100-b802-47d5-b498-e19949b67c95","ios":"levelo://app?vid=f9535100-b802-47d5-b498-e19949b67c95"},"vehicle_type_id":"4","last_reported":1702141551,"current_range_meters":10400,"station_id":"chh1huq6cuj3fo74tm60","pricing_plan_id":"free"},{"bike_id":"8eb2d570-49df-4940-b081-c2591baf6964","system_id":"levelo_inurba_marseille","lat":43.28843,"lon":5.35848,"is_reserved":false,"is_disabled":false,"rental_uris":{"android":"levelo://app?vid=8eb2d570-49df-4940-b081-c2591baf6964","ios":"levelo://app?vid=8eb2d570-49df-4940-b081-c2591baf6964"},"vehicle_type_id":"4","last_reported":1702141551,"current_range_meters":0,"station_id":"ce4bhb12rcd13ifvqem0","pricing_plan_id":"free"},{"bike_id":"e1b3bed5-5f4f-4391-93d8-21da7d59d3b3","system_id":"levelo_inurba_marseille","lat":43.290094,"lon":5.381264,"is_reserved":false,"is_disabled":false,"rental_uris":{"android":"levelo://app?vid=e1b3bed5-5f4f-4391-93d8-21da7d59d3b3","ios":"levelo://app?vid=e1b3bed5-5f4f-4391-93d8-21da7d59d3b3"},"vehicle_type_id":"4","last_reported":1702141551,"current_range_meters":26800,"station_id":"ce4bh4p2rcd13ifvqe1g","pricing_plan_id":"free"},{"bike_id":"62a2626e-3df4-49ff-9c7e-dc9529258fe2","system_id":"levelo_inurba_marseille","lat":43.309371,"lon":5.401449,"is_reserved":false,"is_disabled":false,"rental_uris":{"android":"levelo://app?vid=62a2626e-3df4-49ff-9c7e-dc9529258fe2","ios":"levelo://app?vid=62a2626e-3df4-49ff-9c7e-dc9529258fe2"},"vehicle_type_id":"4","last_reported":1702141551,"current_range_meters":0,"station_id":"ce4bgvp2rcd13ifvqct0","pricing_plan_id":"free"},{"bike_id":"ee08215d-b3b1-4edc-ac10-c262022c02f5","system_id":"levelo_inurba_marseille","lat":43.312563,"lon":5.401759,"is_reserved":false,"is_disabled":false,"rental_uris":{"android":"levelo://app?vid=ee08215d-b3b1-4edc-ac10-c262022c02f5","ios":"levelo://app?vid=ee08215d-b3b1-4edc-ac10-c262022c02f5"},"vehicle_type_id":"4","last_reported":1702141551,"current_range_meters":8400,"station_id":"ce4bh092rcd13ifvqd30","pricing_plan_id":"free"},{"bike_id":"f3578c43-e476-4fe6-85af-492391b8c753","system_id":"levelo_inurba_marseille","lat":43.30642,"lon":5.401031,"is_reserved":false,"is_disabled":false,"rental_uris":{"android":"levelo://app?vid=f3578c43-e476-4fe6-85af-492391b8c753","ios":"levelo://app?vid=f3578c43-e476-4fe6-85af-492391b8c753"},"vehicle_type_id":"4","last_reported":1702141551,"current_range_meters":3200,"station_id":"ce4bh112rcd13ifvqda0","pricing_plan_id":"free"},{"bike_id":"7e494e1d-dc16-4444-9595-1ad5c4bdc894","system_id":"levelo_inurba_marseille","lat":43.286961,"lon":5.373785,"is_reserved":false,"is_disabled":false,"rental_uris":{"android":"levelo://app?vid=7e494e1d-dc16-4444-9595-1ad5c4bdc894","ios":"levelo://app?vid=7e494e1d-dc16-4444-9595-1ad5c4bdc894"},"vehicle_type_id":"4","last_reported":1702141551,"current_range_meters":25600,"station_id":"ce4bh3p2rcd13ifvqdq0","pricing_plan_id":"free"},{"bike_id":"63195b6c-e5b2-4c22-a621-15c692838232","system_id":"levelo_inurba_marseille","lat":43.286591,"lon":5.363346,"is_reserved":false,"is_disabled":false,"rental_uris":{"android":"levelo://app?vid=63195b6c-e5b2-4c22-a621-15c692838232","ios":"levelo://app?vid=63195b6c-e5b2-4c22-a621-15c692838232"},"vehicle_type_id":"4","last_reported":1702141551,"current_range_meters":22800,"station_id":"ce4bhah2rcd13ifvqej0","pricing_plan_id":"free"},{"bike_id":"20fb78b9-fd95-4704-8dec-4825c4f56898","system_id":"levelo_inurba_marseille","lat":43.302759,"lon":5.400793,"is_reserved":false,"is_disabled":false,"rental_uris":{"android":"levelo://app?vid=20fb78b9-fd95-4704-8dec-4825c4f56898","ios":"levelo://app?vid=20fb78b9-fd95-4704-8dec-4825c4f56898"},"vehicle_type_id":"4","last_reported":1702141551,"current_range_meters":15600,"station_id":"ce4bgvh2rcd13ifvqcs0","pricing_plan_id":"free"},{"bike_id":"1d889798-ff79-4986-b12b-4902bd733520","system_id":"levelo_inurba_marseille","lat":43.286039,"lon":5.370681,"is_reserved":false,"is_disabled":false,"rental_uris":{"android":"levelo://app?vid=1d889798-ff79-4986-b12b-4902bd733520","ios":"levelo://app?vid=1d889798-ff79-4986-b12b-4902bd733520"},"vehicle_type_id":"4","last_reported":1702141551,"current_range_meters":22400,"station_id":"ce4bht12rcd13ifvqi60","pricing_plan_id":"free"},{"bike_id":"834579e4-8bcc-44ad-8c3f-a68c5ceadddd","system_id":"levelo_inurba_marseille","lat":43.31641,"lon":5.40431,"is_reserved":false,"is_disabled":false,"rental_uris":{"android":"levelo://app?vid=834579e4-8bcc-44ad-8c3f-a68c5ceadddd","ios":"levelo://app?vid=834579e4-8bcc-44ad-8c3f-a68c5ceadddd"},"vehicle_type_id":"4","last_reported":1702141551,"current_range_meters":0,"station_id":"","pricing_plan_id":"free"},{"bike_id":"13a8d491-0d2d-4b79-aba0-944d2a4f313d","system_id":"levelo_inurba_marseille","lat":43.316828,"lon":5.404723,"is_reserved":false,"is_disabled":false,"rental_uris":{"android":"levelo://app?vid=13a8d491-0d2d-4b79-aba0-944d2a4f313d","ios":"levelo://app?vid=13a8d491-0d2d-4b79-aba0-944d2a4f313d"},"vehicle_type_id":"4","last_reported":1702141551,"current_range_meters":0,"station_id":"ce4bh012rcd13ifvqd00","pricing_plan_id":"free"},{"bike_id":"e673b3df-c8f6-4fc4-a14d-d8abb95324ae","system_id":"levelo_inurba_marseille","lat":43.291994,"lon":5.392907,"is_reserved":false,"is_disabled":false,"rental_uris":{"android":"levelo://app?vid=e673b3df-c8f6-4fc4-a14d-d8abb95324ae","ios":"levelo://app?vid=e673b3df-c8f6-4fc4-a14d-d8abb95324ae"},"vehicle_type_id":"4","last_reported":1702141551,"current_range_meters":16400,"station_id":"ce4bh192rcd13ifvqdd0","pricing_plan_id":"free"},{"bike_id":"7f0b8ac0-6bb7-4adc-aaf9-6d0ac94015b3","system_id":"levelo_inurba_marseille","lat":43.291994,"lon":5.392907,"is_reserved":false,"is_disabled":false,"rental_uris":{"android":"levelo://app?vid=7f0b8ac0-6bb7-4adc-aaf9-6d0ac94015b3","ios":"levelo://app?vid=7f0b8ac0-6bb7-4adc-aaf9-6d0ac94015b3"},"vehicle_type_id":"4","last_reported":1702141551,"current_range_meters":7600,"station_id":"ce4bh192rcd13ifvqdd0","pricing_plan_id":"free"},{"bike_id":"93b582b5-6fca-455b-8eec-64a2ef1549ae","system_id":"levelo_inurba_marseille","lat":43.291857,"lon":5.394187,"is_reserved":false,"is_disabled":false,"rental_uris":{"android":"levelo://app?vid=93b582b5-6fca-455b-8eec-64a2ef1549ae","ios":"levelo://app?vid=93b582b5-6fca-455b-8eec-64a2ef1549ae"},"vehicle_type_id":"4","last_reported":1702141551,"current_range_meters":0,"station_id":"","pricing_plan_id":"free"},{"bike_id":"476a38cb-a3e7-4764-b01b-230c7dfd96e3","system_id":"levelo_inurba_marseille","lat":43.283998,"lon":5.375062,"is_reserved":false,"is_disabled":false,"rental_uris":{"android":"levelo://app?vid=476a38cb-a3e7-4764-b01b-230c7dfd96e3","ios":"levelo://app?vid=476a38cb-a3e7-4764-b01b-230c7dfd96e3"},"vehicle_type_id":"4","last_reported":1702141551,"current_range_meters":18800,"station_id":"ce4bh412rcd13ifvqds0","pricing_plan_id":"free"},{"bike_id":"73ddb812-c100-41ad-bfc4-2a201876651e","system_id":"levelo_inurba_marseille","lat":43.291994,"lon":5.392907,"is_reserved":false,"is_disabled":false,"rental_uris":{"android":"levelo://app?vid=73ddb812-c100-41ad-bfc4-2a201876651e","ios":"levelo://app?vid=73ddb812-c100-41ad-bfc4-2a201876651e"},"vehicle_type_id":"4","last_reported":1702141551,"current_range_meters":14000,"station_id":"ce4bh192rcd13ifvqdd0","pricing_plan_id":"free"},{"bike_id":"a5c878a0-5d68-4dac-9879-4d2c2285550e","system_id":"levelo_inurba_marseille","lat":43.323464,"lon":5.406297,"is_reserved":false,"is_disabled":false,"rental_uris":{"android":"levelo://app?vid=a5c878a0-5d68-4dac-9879-4d2c2285550e","ios":"levelo://app?vid=a5c878a0-5d68-4dac-9879-4d2c2285550e"},"vehicle_type_id":"4","last_reported":1702141551,"current_range_meters":0,"station_id":"ce4bhq92rcd13ifvqhjg","pricing_plan_id":"free"},{"bike_id":"efe9d2cc-d0eb-4e85-b313-6bf62b4d4d4c","system_id":"levelo_inurba_marseille","lat":43.33725,"lon":5.39195,"is_reserved":false,"is_disabled":false,"rental_uris":{"android":"levelo://app?vid=efe9d2cc-d0eb-4e85-b313-6bf62b4d4d4c","ios":"levelo://app?vid=efe9d2cc-d0eb-4e85-b313-6bf62b4d4d4c"},"vehicle_type_id":"4","last_reported":1702141551,"current_range_meters":0,"station_id":"ce4bhr92rcd13ifvqhsg","pricing_plan_id":"free"},{"bike_id":"4548af0c-79b6-4d09-9b6c-80811344e31d","system_id":"levelo_inurba_marseille","lat":43.295748,"lon":5.37522,"is_reserved":false,"is_disabled":false,"rental_uris":{"android":"levelo://app?vid=4548af0c-79b6-4d09-9b6c-80811344e31d","ios":"levelo://app?vid=4548af0c-79b6-4d09-9b6c-80811344e31d"},"vehicle_type_id":"4","last_reported":1702141551,"current_range_meters":400,"station_id":"ce4bgh92rcd13ifvqb50","pricing_plan_id":"free"},{"bike_id":"d4e9f4a2-2e3c-43e3-88b0-e32041b13dbc","system_id":"levelo_inurba_marseille","lat":43.289363,"lon":5.396322,"is_reserved":false,"is_disabled":false,"rental_uris":{"android":"levelo://app?vid=d4e9f4a2-2e3c-43e3-88b0-e32041b13dbc","ios":"levelo://app?vid=d4e9f4a2-2e3c-43e3-88b0-e32041b13dbc"},"vehicle_type_id":"4","last_reported":1702141551,"current_range_meters":18800,"station_id":"ce4bh3h2rcd13ifvqdn0","pricing_plan_id":"free"},{"bike_id":"7e4dc6f9-78bb-40ed-b8ed-a621c93c191a","system_id":"levelo_inurba_marseille","lat":43.282754,"lon":5.350519,"is_reserved":false,"is_disabled":false,"rental_uris":{"android":"levelo://app?vid=7e4dc6f9-78bb-40ed-b8ed-a621c93c191a","ios":"levelo://app?vid=7e4dc6f9-78bb-40ed-b8ed-a621c93c191a"},"vehicle_type_id":"4","last_reported":1702141551,"current_range_meters":0,"station_id":"ce4bhbp2rcd13ifvqerg","pricing_plan_id":"free"},{"bike_id":"0c53f62a-0d0b-4f72-b0bb-a83412d9896f","system_id":"levelo_inurba_marseille","lat":43.283502,"lon":5.386471,"is_reserved":false,"is_disabled":false,"rental_uris":{"android":"levelo://app?vid=0c53f62a-0d0b-4f72-b0bb-a83412d9896f","ios":"levelo://app?vid=0c53f62a-0d0b-4f72-b0bb-a83412d9896f"},"vehicle_type_id":"4","last_reported":1702141551,"current_range_meters":1600,"station_id":"ce4bh492rcd13ifvqdvg","pricing_plan_id":"free"},{"bike_id":"ab10de77-1186-4682-9120-d3edaf1ec35c","system_id":"levelo_inurba_marseille","lat":43.280382,"lon":5.369291,"is_reserved":false,"is_disabled":false,"rental_uris":{"android":"levelo://app?vid=ab10de77-1186-4682-9120-d3edaf1ec35c","ios":"levelo://app?vid=ab10de77-1186-4682-9120-d3edaf1ec35c"},"vehicle_type_id":"4","last_reported":1702141551,"current_range_meters":25600,"station_id":"ce4bha12rcd13ifvqef0","pricing_plan_id":"free"},{"bike_id":"0cf5e634-92cd-4666-a755-3ed4209b2c8f","system_id":"levelo_inurba_marseille","lat":43.2803,"lon":5.36938,"is_reserved":false,"is_disabled":false,"rental_uris":{"android":"levelo://app?vid=0cf5e634-92cd-4666-a755-3ed4209b2c8f","ios":"levelo://app?vid=0cf5e634-92cd-4666-a755-3ed4209b2c8f"},"vehicle_type_id":"4","last_reported":1702141551,"current_range_meters":16000,"station_id":"ce4bha12rcd13ifvqef0","pricing_plan_id":"free"},{"bike_id":"7488e854-8941-4b1a-8d7c-3dd3716ff924","system_id":"levelo_inurba_marseille","lat":43.283502,"lon":5.386471,"is_reserved":false,"is_disabled":false,"rental_uris":{"android":"levelo://app?vid=7488e854-8941-4b1a-8d7c-3dd3716ff924","ios":"levelo://app?vid=7488e854-8941-4b1a-8d7c-3dd3716ff924"},"vehicle_type_id":"4","last_reported":1702141551,"current_range_meters":5600,"station_id":"ce4bh492rcd13ifvqdvg","pricing_plan_id":"free"},{"bike_id":"0f7880f3-75b1-4e4f-9f0c-ca5b4e38922f","system_id":"levelo_inurba_marseille","lat":43.28025,"lon":5.36937,"is_reserved":false,"is_disabled":false,"rental_uris":{"android":"levelo://app?vid=0f7880f3-75b1-4e4f-9f0c-ca5b4e38922f","ios":"levelo://app?vid=0f7880f3-75b1-4e4f-9f0c-ca5b4e38922f"},"vehicle_type_id":"4","last_reported":1702141551,"current_range_meters":14800,"station_id":"ce4bha12rcd13ifvqef0","pricing_plan_id":"free"},{"bike_id":"06c0a4fd-0adb-485f-8148-5df6b6d30a14","system_id":"levelo_inurba_marseille","lat":43.281044,"lon":5.378308,"is_reserved":false,"is_disabled":false,"rental_uris":{"android":"levelo://app?vid=06c0a4fd-0adb-485f-8148-5df6b6d30a14","ios":"levelo://app?vid=06c0a4fd-0adb-485f-8148-5df6b6d30a14"},"vehicle_type_id":"4","last_reported":1702141551,"current_range_meters":29200,"station_id":"ce4bha12rcd13ifvqee0","pricing_plan_id":"free"},{"bike_id":"83d30096-e5bd-4de3-9eb5-4c6cc1b6f221","system_id":"levelo_inurba_marseille","lat":43.281044,"lon":5.378308,"is_reserved":false,"is_disabled":false,"rental_uris":{"android":"levelo://app?vid=83d30096-e5bd-4de3-9eb5-4c6cc1b6f221","ios":"levelo://app?vid=83d30096-e5bd-4de3-9eb5-4c6cc1b6f221"},"vehicle_type_id":"4","last_reported":1702141551,"current_range_meters":25200,"station_id":"ce4bha12rcd13ifvqee0","pricing_plan_id":"free"},{"bike_id":"f74250ad-a656-476b-9338-f24f91bb9568","system_id":"levelo_inurba_marseille","lat":43.285742,"lon":5.395004,"is_reserved":false,"is_disabled":false,"rental_uris":{"android":"levelo://app?vid=f74250ad-a656-476b-9338-f24f91bb9568","ios":"levelo://app?vid=f74250ad-a656-476b-9338-f24f91bb9568"},"vehicle_type_id":"4","last_reported":1702141551,"current_range_meters":21200,"station_id":"ce4bh292rcd13ifvqdg0","pricing_plan_id":"free"},{"bike_id":"d9805acf-60fb-4731-8be0-20ec8582d432","system_id":"levelo_inurba_marseille","lat":43.325233,"lon":5.414318,"is_reserved":false,"is_disabled":false,"rental_uris":{"android":"levelo://app?vid=d9805acf-60fb-4731-8be0-20ec8582d432","ios":"levelo://app?vid=d9805acf-60fb-4731-8be0-20ec8582d432"},"vehicle_type_id":"4","last_reported":1702141551,"current_range_meters":11600,"station_id":"ce4bhq12rcd13ifvqhhg","pricing_plan_id":"free"},{"bike_id":"a148b3ad-4229-40c7-b578-15b32d72e96b","system_id":"levelo_inurba_marseille","lat":43.325243,"lon":5.414326,"is_reserved":false,"is_disabled":false,"rental_uris":{"android":"levelo://app?vid=a148b3ad-4229-40c7-b578-15b32d72e96b","ios":"levelo://app?vid=a148b3ad-4229-40c7-b578-15b32d72e96b"},"vehicle_type_id":"4","last_reported":1702141551,"current_range_meters":31200,"station_id":"ce4bhq12rcd13ifvqhhg","pricing_plan_id":"free"},{"bike_id":"6b30c9eb-43ed-4c28-adde-37be6776022a","system_id":"levelo_inurba_marseille","lat":43.275987,"lon":5.360973,"is_reserved":false,"is_disabled":false,"rental_uris":{"android":"levelo://app?vid=6b30c9eb-43ed-4c28-adde-37be6776022a","ios":"levelo://app?vid=6b30c9eb-43ed-4c28-adde-37be6776022a"},"vehicle_type_id":"4","last_reported":1702141551,"current_range_meters":31200,"station_id":"ce4bgj92rcd13ifvqbe0","pricing_plan_id":"free"},{"bike_id":"91b03653-4f02-45cf-86f9-0b2aba8cd6aa","system_id":"levelo_inurba_marseille","lat":43.280784,"lon":5.396622,"is_reserved":false,"is_disabled":false,"rental_uris":{"android":"levelo://app?vid=91b03653-4f02-45cf-86f9-0b2aba8cd6aa","ios":"levelo://app?vid=91b03653-4f02-45cf-86f9-0b2aba8cd6aa"},"vehicle_type_id":"4","last_reported":1702141551,"current_range_meters":12000,"station_id":"ce4bho12rcd13ifvqh2g","pricing_plan_id":"free"},{"bike_id":"02704652-9445-4767-a983-830254e00179","system_id":"levelo_inurba_marseille","lat":43.30356,"lon":5.41881,"is_reserved":false,"is_disabled":false,"rental_uris":{"android":"levelo://app?vid=02704652-9445-4767-a983-830254e00179","ios":"levelo://app?vid=02704652-9445-4767-a983-830254e00179"},"vehicle_type_id":"4","last_reported":1702141551,"current_range_meters":25600,"station_id":"ce4bhop2rcd13ifvqh7g","pricing_plan_id":"free"},{"bike_id":"35ee32bf-3584-4a61-8325-62ee709a3828","system_id":"levelo_inurba_marseille","lat":43.278401,"lon":5.392152,"is_reserved":false,"is_disabled":false,"rental_uris":{"android":"levelo://app?vid=35ee32bf-3584-4a61-8325-62ee709a3828","ios":"levelo://app?vid=35ee32bf-3584-4a61-8325-62ee709a3828"},"vehicle_type_id":"4","last_reported":1702141551,"current_range_meters":14400,"station_id":"ce4bhjp2rcd13ifvqga0","pricing_plan_id":"free"},{"bike_id":"6ced5e7a-6dde-480e-aa85-dc5411d3b9b4","system_id":"levelo_inurba_marseille","lat":43.278399,"lon":5.392139,"is_reserved":false,"is_disabled":false,"rental_uris":{"android":"levelo://app?vid=6ced5e7a-6dde-480e-aa85-dc5411d3b9b4","ios":"levelo://app?vid=6ced5e7a-6dde-480e-aa85-dc5411d3b9b4"},"vehicle_type_id":"4","last_reported":1702141551,"current_range_meters":30000,"station_id":"ce4bhjp2rcd13ifvqga0","pricing_plan_id":"free"},{"bike_id":"d6f84605-216b-446c-9d9e-4529d36fa504","system_id":"levelo_inurba_marseille","lat":43.276769,"lon":5.388787,"is_reserved":false,"is_disabled":false,"rental_uris":{"android":"levelo://app?vid=d6f84605-216b-446c-9d9e-4529d36fa504","ios":"levelo://app?vid=d6f84605-216b-446c-9d9e-4529d36fa504"},"vehicle_type_id":"4","last_reported":1702141551,"current_range_meters":29200,"station_id":"ce4bhi12rcd13ifvqfo0","pricing_plan_id":"free"},{"bike_id":"ac1af8d2-9cdd-4a46-b1a5-3a53c4b5ef6b","system_id":"levelo_inurba_marseille","lat":43.278772,"lon":5.395026,"is_reserved":false,"is_disabled":false,"rental_uris":{"android":"levelo://app?vid=ac1af8d2-9cdd-4a46-b1a5-3a53c4b5ef6b","ios":"levelo://app?vid=ac1af8d2-9cdd-4a46-b1a5-3a53c4b5ef6b"},"vehicle_type_id":"4","last_reported":1702141551,"current_range_meters":18000,"station_id":"","pricing_plan_id":"free"},{"bike_id":"75dd51a8-1f59-4140-8965-267df42d1499","system_id":"levelo_inurba_marseille","lat":43.27999,"lon":5.40008,"is_reserved":false,"is_disabled":false,"rental_uris":{"android":"levelo://app?vid=75dd51a8-1f59-4140-8965-267df42d1499","ios":"levelo://app?vid=75dd51a8-1f59-4140-8965-267df42d1499"},"vehicle_type_id":"4","last_reported":1702141551,"current_range_meters":23200,"station_id":"ce4bho92rcd13ifvqh4g","pricing_plan_id":"free"},{"bike_id":"fce8ef5a-0f61-4cfb-b8bb-9e1b28bf23ad","system_id":"levelo_inurba_marseille","lat":43.3172,"lon":5.42397,"is_reserved":false,"is_disabled":false,"rental_uris":{"android":"levelo://app?vid=fce8ef5a-0f61-4cfb-b8bb-9e1b28bf23ad","ios":"levelo://app?vid=fce8ef5a-0f61-4cfb-b8bb-9e1b28bf23ad"},"vehicle_type_id":"4","last_reported":1702141551,"current_range_meters":28800,"station_id":"ce4bhp92rcd13ifvqhbg","pricing_plan_id":"free"},{"bike_id":"02791883-a925-42a0-9dd3-b7193f6a574b","system_id":"levelo_inurba_marseille","lat":43.317134,"lon":5.423994,"is_reserved":false,"is_disabled":false,"rental_uris":{"android":"levelo://app?vid=02791883-a925-42a0-9dd3-b7193f6a574b","ios":"levelo://app?vid=02791883-a925-42a0-9dd3-b7193f6a574b"},"vehicle_type_id":"4","last_reported":1702141551,"current_range_meters":30000,"station_id":"ce4bhp92rcd13ifvqhbg","pricing_plan_id":"free"},{"bike_id":"88e59060-d458-48a8-8abe-8a1913097d92","system_id":"levelo_inurba_marseille","lat":43.31716,"lon":5.42402,"is_reserved":false,"is_disabled":false,"rental_uris":{"android":"levelo://app?vid=88e59060-d458-48a8-8abe-8a1913097d92","ios":"levelo://app?vid=88e59060-d458-48a8-8abe-8a1913097d92"},"vehicle_type_id":"4","last_reported":1702141551,"current_range_meters":24400,"station_id":"ce4bhp92rcd13ifvqhbg","pricing_plan_id":"free"},{"bike_id":"fc4bcc5b-5f4e-42a1-8cca-78d5c651475f","system_id":"levelo_inurba_marseille","lat":43.317121,"lon":5.423936,"is_reserved":false,"is_disabled":false,"rental_uris":{"android":"levelo://app?vid=fc4bcc5b-5f4e-42a1-8cca-78d5c651475f","ios":"levelo://app?vid=fc4bcc5b-5f4e-42a1-8cca-78d5c651475f"},"vehicle_type_id":"4","last_reported":1702141551,"current_range_meters":28400,"station_id":"ce4bhp92rcd13ifvqhbg","pricing_plan_id":"free"},{"bike_id":"80038031-3601-4c51-b66a-c6c9131d41d1","system_id":"levelo_inurba_marseille","lat":43.310785,"lon":5.424305,"is_reserved":false,"is_disabled":false,"rental_uris":{"android":"levelo://app?vid=80038031-3601-4c51-b66a-c6c9131d41d1","ios":"levelo://app?vid=80038031-3601-4c51-b66a-c6c9131d41d1"},"vehicle_type_id":"4","last_reported":1702141551,"current_range_meters":30400,"station_id":"ce4bhp92rcd13ifvqhag","pricing_plan_id":"free"},{"bike_id":"e6ff414d-6f05-44d2-b7c6-4a89a6fc64e2","system_id":"levelo_inurba_marseille","lat":43.31079,"lon":5.42429,"is_reserved":false,"is_disabled":false,"rental_uris":{"android":"levelo://app?vid=e6ff414d-6f05-44d2-b7c6-4a89a6fc64e2","ios":"levelo://app?vid=e6ff414d-6f05-44d2-b7c6-4a89a6fc64e2"},"vehicle_type_id":"4","last_reported":1702141551,"current_range_meters":4800,"station_id":"ce4bhp92rcd13ifvqhag","pricing_plan_id":"free"},{"bike_id":"e7bd1e73-4f86-473d-905c-a7b0f3d6ad8a","system_id":"levelo_inurba_marseille","lat":43.31723,"lon":5.42405,"is_reserved":false,"is_disabled":false,"rental_uris":{"android":"levelo://app?vid=e7bd1e73-4f86-473d-905c-a7b0f3d6ad8a","ios":"levelo://app?vid=e7bd1e73-4f86-473d-905c-a7b0f3d6ad8a"},"vehicle_type_id":"4","last_reported":1702141551,"current_range_meters":16400,"station_id":"ce4bhp92rcd13ifvqhbg","pricing_plan_id":"free"},{"bike_id":"48e3df08-57dc-434d-a06c-f6f751cd351f","system_id":"levelo_inurba_marseille","lat":43.310785,"lon":5.424305,"is_reserved":false,"is_disabled":false,"rental_uris":{"android":"levelo://app?vid=48e3df08-57dc-434d-a06c-f6f751cd351f","ios":"levelo://app?vid=48e3df08-57dc-434d-a06c-f6f751cd351f"},"vehicle_type_id":"4","last_reported":1702141551,"current_range_meters":19200,"station_id":"ce4bhp92rcd13ifvqhag","pricing_plan_id":"free"},{"bike_id":"63133364-316e-458e-b234-bbd4926c63fc","system_id":"levelo_inurba_marseille","lat":43.27583,"lon":5.39474,"is_reserved":false,"is_disabled":false,"rental_uris":{"android":"levelo://app?vid=63133364-316e-458e-b234-bbd4926c63fc","ios":"levelo://app?vid=63133364-316e-458e-b234-bbd4926c63fc"},"vehicle_type_id":"4","last_reported":1702141551,"current_range_meters":6800,"station_id":"","pricing_plan_id":"free"},{"bike_id":"fc6794cf-495d-453d-b822-fc2923d07b21","system_id":"levelo_inurba_marseille","lat":43.30413,"lon":5.42544,"is_reserved":false,"is_disabled":false,"rental_uris":{"android":"levelo://app?vid=fc6794cf-495d-453d-b822-fc2923d07b21","ios":"levelo://app?vid=fc6794cf-495d-453d-b822-fc2923d07b21"},"vehicle_type_id":"4","last_reported":1702141551,"current_range_meters":31200,"station_id":"ce4bhoh2rcd13ifvqh6g","pricing_plan_id":"free"},{"bike_id":"4f9e48a0-eacd-4e63-bd3c-330b19e5c041","system_id":"levelo_inurba_marseille","lat":43.295511,"lon":5.422926,"is_reserved":false,"is_disabled":false,"rental_uris":{"android":"levelo://app?vid=4f9e48a0-eacd-4e63-bd3c-330b19e5c041","ios":"levelo://app?vid=4f9e48a0-eacd-4e63-bd3c-330b19e5c041"},"vehicle_type_id":"4","last_reported":1702141551,"current_range_meters":31200,"station_id":"ce4bhph2rcd13ifvqhdg","pricing_plan_id":"free"},{"bike_id":"8f021145-48f8-459b-aef0-f8921e18b0a0","system_id":"levelo_inurba_marseille","lat":43.27214,"lon":5.3925,"is_reserved":false,"is_disabled":false,"rental_uris":{"android":"levelo://app?vid=8f021145-48f8-459b-aef0-f8921e18b0a0","ios":"levelo://app?vid=8f021145-48f8-459b-aef0-f8921e18b0a0"},"vehicle_type_id":"4","last_reported":1702141551,"current_range_meters":800,"station_id":"","pricing_plan_id":"free"},{"bike_id":"861abd14-8bd0-4b52-9cd0-5793629d376f","system_id":"levelo_inurba_marseille","lat":43.278128,"lon":5.407195,"is_reserved":false,"is_disabled":false,"rental_uris":{"android":"levelo://app?vid=861abd14-8bd0-4b52-9cd0-5793629d376f","ios":"levelo://app?vid=861abd14-8bd0-4b52-9cd0-5793629d376f"},"vehicle_type_id":"4","last_reported":1702141551,"current_range_meters":4000,"station_id":"ce4bhnh2rcd13ifvqgtg","pricing_plan_id":"free"},{"bike_id":"3dcef5a7-482c-43e7-be1e-3c7958342b99","system_id":"levelo_inurba_marseille","lat":43.269467,"lon":5.386439,"is_reserved":false,"is_disabled":false,"rental_uris":{"android":"levelo://app?vid=3dcef5a7-482c-43e7-be1e-3c7958342b99","ios":"levelo://app?vid=3dcef5a7-482c-43e7-be1e-3c7958342b99"},"vehicle_type_id":"4","last_reported":1702141551,"current_range_meters":12800,"station_id":"ce4bhh92rcd13ifvqfh0","pricing_plan_id":"free"},{"bike_id":"b92b5360-b821-4da6-ae2c-a0ccfef7873e","system_id":"levelo_inurba_marseille","lat":43.269417,"lon":5.39338,"is_reserved":false,"is_disabled":false,"rental_uris":{"android":"levelo://app?vid=b92b5360-b821-4da6-ae2c-a0ccfef7873e","ios":"levelo://app?vid=b92b5360-b821-4da6-ae2c-a0ccfef7873e"},"vehicle_type_id":"4","last_reported":1702141551,"current_range_meters":12800,"station_id":"","pricing_plan_id":"free"},{"bike_id":"19cc942f-ece9-40d3-8083-cccfba7fe5b1","system_id":"levelo_inurba_marseille","lat":43.279881,"lon":5.416579,"is_reserved":false,"is_disabled":false,"rental_uris":{"android":"levelo://app?vid=19cc942f-ece9-40d3-8083-cccfba7fe5b1","ios":"levelo://app?vid=19cc942f-ece9-40d3-8083-cccfba7fe5b1"},"vehicle_type_id":"4","last_reported":1702141551,"current_range_meters":2400,"station_id":"ce4bho12rcd13ifvqh1g","pricing_plan_id":"free"},{"bike_id":"05169477-3495-474c-9241-39489759e28b","system_id":"levelo_inurba_marseille","lat":43.279836,"lon":5.416664,"is_reserved":false,"is_disabled":false,"rental_uris":{"android":"levelo://app?vid=05169477-3495-474c-9241-39489759e28b","ios":"levelo://app?vid=05169477-3495-474c-9241-39489759e28b"},"vehicle_type_id":"4","last_reported":1702141551,"current_range_meters":26000,"station_id":"ce4bhnh2rcd13ifvqgug","pricing_plan_id":"free"},{"bike_id":"2e3ad8af-2919-4b78-9a32-522f00a93511","system_id":"levelo_inurba_marseille","lat":43.26798,"lon":5.40268,"is_reserved":false,"is_disabled":false,"rental_uris":{"android":"levelo://app?vid=2e3ad8af-2919-4b78-9a32-522f00a93511","ios":"levelo://app?vid=2e3ad8af-2919-4b78-9a32-522f00a93511"},"vehicle_type_id":"4","last_reported":1702141551,"current_range_meters":8800,"station_id":"ce501612rcd8frsf0b60","pricing_plan_id":"free"},{"bike_id":"c4a32d8b-8a0b-4189-aa9f-2983a413dfe8","system_id":"levelo_inurba_marseille","lat":43.299,"lon":5.43662,"is_reserved":false,"is_disabled":false,"rental_uris":{"android":"levelo://app?vid=c4a32d8b-8a0b-4189-aa9f-2983a413dfe8","ios":"levelo://app?vid=c4a32d8b-8a0b-4189-aa9f-2983a413dfe8"},"vehicle_type_id":"4","last_reported":1702141551,"current_range_meters":29200,"station_id":"ce4bhpp2rcd13ifvqhfg","pricing_plan_id":"free"},{"bike_id":"83e2018e-7127-4415-8bbf-2e347a9c6750","system_id":"levelo_inurba_marseille","lat":43.29894,"lon":5.43662,"is_reserved":false,"is_disabled":false,"rental_uris":{"android":"levelo://app?vid=83e2018e-7127-4415-8bbf-2e347a9c6750","ios":"levelo://app?vid=83e2018e-7127-4415-8bbf-2e347a9c6750"},"vehicle_type_id":"4","last_reported":1702141551,"current_range_meters":29200,"station_id":"ce4bhpp2rcd13ifvqhfg","pricing_plan_id":"free"},{"bike_id":"4f68f183-a711-4386-a731-e8ea8e2f115e","system_id":"levelo_inurba_marseille","lat":43.298768,"lon":5.43643,"is_reserved":false,"is_disabled":false,"rental_uris":{"android":"levelo://app?vid=4f68f183-a711-4386-a731-e8ea8e2f115e","ios":"levelo://app?vid=4f68f183-a711-4386-a731-e8ea8e2f115e"},"vehicle_type_id":"4","last_reported":1702141551,"current_range_meters":25600,"station_id":"ce4bhpp2rcd13ifvqhfg","pricing_plan_id":"free"},{"bike_id":"70c52fa1-91be-4fbd-9217-7a0c668f9310","system_id":"levelo_inurba_marseille","lat":43.29899,"lon":5.43665,"is_reserved":false,"is_disabled":false,"rental_uris":{"android":"levelo://app?vid=70c52fa1-91be-4fbd-9217-7a0c668f9310","ios":"levelo://app?vid=70c52fa1-91be-4fbd-9217-7a0c668f9310"},"vehicle_type_id":"4","last_reported":1702141551,"current_range_meters":24800,"station_id":"ce4bhpp2rcd13ifvqhfg","pricing_plan_id":"free"},{"bike_id":"ca4db8a8-5b98-4b78-bc3d-514f38028a3d","system_id":"levelo_inurba_marseille","lat":43.298768,"lon":5.43643,"is_reserved":false,"is_disabled":false,"rental_uris":{"android":"levelo://app?vid=ca4db8a8-5b98-4b78-bc3d-514f38028a3d","ios":"levelo://app?vid=ca4db8a8-5b98-4b78-bc3d-514f38028a3d"},"vehicle_type_id":"4","last_reported":1702141551,"current_range_meters":31200,"station_id":"ce4bhpp2rcd13ifvqhfg","pricing_plan_id":"free"},{"bike_id":"6b17b896-99f2-456b-929e-df3811eeb274","system_id":"levelo_inurba_marseille","lat":43.298768,"lon":5.43643,"is_reserved":false,"is_disabled":false,"rental_uris":{"android":"levelo://app?vid=6b17b896-99f2-456b-929e-df3811eeb274","ios":"levelo://app?vid=6b17b896-99f2-456b-929e-df3811eeb274"},"vehicle_type_id":"4","last_reported":1702141551,"current_range_meters":28400,"station_id":"ce4bhpp2rcd13ifvqhfg","pricing_plan_id":"free"},{"bike_id":"ae2ee4ec-e0be-4650-a25d-ad306c6973d5","system_id":"levelo_inurba_marseille","lat":43.281548,"lon":5.42643,"is_reserved":false,"is_disabled":false,"rental_uris":{"android":"levelo://app?vid=ae2ee4ec-e0be-4650-a25d-ad306c6973d5","ios":"levelo://app?vid=ae2ee4ec-e0be-4650-a25d-ad306c6973d5"},"vehicle_type_id":"4","last_reported":1702141551,"current_range_meters":6000,"station_id":"ce4bhnh2rcd13ifvqgug","pricing_plan_id":"free"},{"bike_id":"b9063a33-13b5-4cca-826c-3f51be03f8ec","system_id":"levelo_inurba_marseille","lat":43.281548,"lon":5.42643,"is_reserved":false,"is_disabled":false,"rental_uris":{"android":"levelo://app?vid=b9063a33-13b5-4cca-826c-3f51be03f8ec","ios":"levelo://app?vid=b9063a33-13b5-4cca-826c-3f51be03f8ec"},"vehicle_type_id":"4","last_reported":1702141551,"current_range_meters":20400,"station_id":"ce4bhnh2rcd13ifvqgug","pricing_plan_id":"free"},{"bike_id":"e9a23148-ea63-448e-8189-1ee0e20e4523","system_id":"levelo_inurba_marseille","lat":43.27414,"lon":5.42391,"is_reserved":false,"is_disabled":false,"rental_uris":{"android":"levelo://app?vid=e9a23148-ea63-448e-8189-1ee0e20e4523","ios":"levelo://app?vid=e9a23148-ea63-448e-8189-1ee0e20e4523"},"vehicle_type_id":"4","last_reported":1702141551,"current_range_meters":4400,"station_id":"","pricing_plan_id":"free"},{"bike_id":"d56234a0-94fc-42fd-baa0-c67d812b4079","system_id":"levelo_inurba_marseille","lat":43.25584,"lon":5.38233,"is_reserved":false,"is_disabled":false,"rental_uris":{"android":"levelo://app?vid=d56234a0-94fc-42fd-baa0-c67d812b4079","ios":"levelo://app?vid=d56234a0-94fc-42fd-baa0-c67d812b4079"},"vehicle_type_id":"4","last_reported":1702141551,"current_range_meters":0,"station_id":"ce4bhih2rcd13ifvqfs0","pricing_plan_id":"free"},{"bike_id":"f60f4589-9849-4457-b9ed-32f50bfaeaee","system_id":"levelo_inurba_marseille","lat":43.258658,"lon":5.398935,"is_reserved":false,"is_disabled":false,"rental_uris":{"android":"levelo://app?vid=f60f4589-9849-4457-b9ed-32f50bfaeaee","ios":"levelo://app?vid=f60f4589-9849-4457-b9ed-32f50bfaeaee"},"vehicle_type_id":"4","last_reported":1702141551,"current_range_meters":15200,"station_id":"ce4bhl92rcd13ifvqghg","pricing_plan_id":"free"},{"bike_id":"d846936b-869d-46b8-a2bf-60d6ee619cc8","system_id":"levelo_inurba_marseille","lat":43.2479,"lon":5.374457,"is_reserved":false,"is_disabled":false,"rental_uris":{"android":"levelo://app?vid=d846936b-869d-46b8-a2bf-60d6ee619cc8","ios":"levelo://app?vid=d846936b-869d-46b8-a2bf-60d6ee619cc8"},"vehicle_type_id":"4","last_reported":1702141551,"current_range_meters":800,"station_id":"ce4bhgh2rcd13ifvqfb0","pricing_plan_id":"free"},{"bike_id":"3b84ff55-b48c-4c65-9282-c71920fc0fcb","system_id":"levelo_inurba_marseille","lat":43.24661,"lon":5.3817,"is_reserved":false,"is_disabled":false,"rental_uris":{"android":"levelo://app?vid=3b84ff55-b48c-4c65-9282-c71920fc0fcb","ios":"levelo://app?vid=3b84ff55-b48c-4c65-9282-c71920fc0fcb"},"vehicle_type_id":"4","last_reported":1702141551,"current_range_meters":0,"station_id":"ce4bhih2rcd13ifvqfr0","pricing_plan_id":"free"},{"bike_id":"3f486104-eb8a-45e5-ad7b-3318fcd4cbf5","system_id":"levelo_inurba_marseille","lat":43.25102,"lon":5.403214,"is_reserved":false,"is_disabled":false,"rental_uris":{"android":"levelo://app?vid=3f486104-eb8a-45e5-ad7b-3318fcd4cbf5","ios":"levelo://app?vid=3f486104-eb8a-45e5-ad7b-3318fcd4cbf5"},"vehicle_type_id":"4","last_reported":1702141551,"current_range_meters":22400,"station_id":"ce4bhlh2rcd13ifvqgig","pricing_plan_id":"free"},{"bike_id":"6ac77bc3-ca80-4949-a621-6ade8ccbd6e7","system_id":"levelo_inurba_marseille","lat":43.25102,"lon":5.403214,"is_reserved":false,"is_disabled":false,"rental_uris":{"android":"levelo://app?vid=6ac77bc3-ca80-4949-a621-6ade8ccbd6e7","ios":"levelo://app?vid=6ac77bc3-ca80-4949-a621-6ade8ccbd6e7"},"vehicle_type_id":"4","last_reported":1702141551,"current_range_meters":5600,"station_id":"ce4bhlh2rcd13ifvqgig","pricing_plan_id":"free"},{"bike_id":"6ffa404c-bd43-4ef5-aa2c-7350849e4cbf","system_id":"levelo_inurba_marseille","lat":43.246467,"lon":5.388984,"is_reserved":false,"is_disabled":false,"rental_uris":{"android":"levelo://app?vid=6ffa404c-bd43-4ef5-aa2c-7350849e4cbf","ios":"levelo://app?vid=6ffa404c-bd43-4ef5-aa2c-7350849e4cbf"},"vehicle_type_id":"4","last_reported":1702141551,"current_range_meters":17200,"station_id":"ce4bhg12rcd13ifvqf60","pricing_plan_id":"free"},{"bike_id":"bd83e60a-c0a9-42d0-9228-56613594b85e","system_id":"levelo_inurba_marseille","lat":43.240623,"lon":5.377642,"is_reserved":false,"is_disabled":false,"rental_uris":{"android":"levelo://app?vid=bd83e60a-c0a9-42d0-9228-56613594b85e","ios":"levelo://app?vid=bd83e60a-c0a9-42d0-9228-56613594b85e"},"vehicle_type_id":"4","last_reported":1702141551,"current_range_meters":2800,"station_id":"ce4bhnp2rcd13ifvqgvg","pricing_plan_id":"free"},{"bike_id":"d1af6a25-b93b-4762-ad37-94527785acb4","system_id":"levelo_inurba_marseille","lat":43.241782,"lon":5.397261,"is_reserved":false,"is_disabled":false,"rental_uris":{"android":"levelo://app?vid=d1af6a25-b93b-4762-ad37-94527785acb4","ios":"levelo://app?vid=d1af6a25-b93b-4762-ad37-94527785acb4"},"vehicle_type_id":"4","last_reported":1702141551,"current_range_meters":12000,"station_id":"ce4bhn12rcd13ifvqgpg","pricing_plan_id":"free"},{"bike_id":"15592f1b-d329-4371-97e7-e3e0ba29f7db","system_id":"levelo_inurba_marseille","lat":43.241782,"lon":5.397264,"is_reserved":false,"is_disabled":false,"rental_uris":{"android":"levelo://app?vid=15592f1b-d329-4371-97e7-e3e0ba29f7db","ios":"levelo://app?vid=15592f1b-d329-4371-97e7-e3e0ba29f7db"},"vehicle_type_id":"4","last_reported":1702141551,"current_range_meters":9600,"station_id":"ce4bhn12rcd13ifvqgpg","pricing_plan_id":"free"},{"bike_id":"db837267-81e3-439e-98cb-2684c730942d","system_id":"levelo_inurba_marseille","lat":43.23201,"lon":5.35549,"is_reserved":false,"is_disabled":false,"rental_uris":{"android":"levelo://app?vid=db837267-81e3-439e-98cb-2684c730942d","ios":"levelo://app?vid=db837267-81e3-439e-98cb-2684c730942d"},"vehicle_type_id":"4","last_reported":1702141551,"current_range_meters":20000,"station_id":"ce4bhu92rcd13ifvqi70","pricing_plan_id":"free"},{"bike_id":"a8c501f0-1f0c-4126-b8d3-0e787022ce6a","system_id":"levelo_inurba_marseille","lat":43.231919,"lon":5.355532,"is_reserved":false,"is_disabled":false,"rental_uris":{"android":"levelo://app?vid=a8c501f0-1f0c-4126-b8d3-0e787022ce6a","ios":"levelo://app?vid=a8c501f0-1f0c-4126-b8d3-0e787022ce6a"},"vehicle_type_id":"4","last_reported":1702141551,"current_range_meters":25200,"station_id":"ce4bhu92rcd13ifvqi70","pricing_plan_id":"free"},{"bike_id":"529449ae-9bd0-4a42-b2ad-b913b1c62c25","system_id":"levelo_inurba_marseille","lat":43.231919,"lon":5.355532,"is_reserved":false,"is_disabled":false,"rental_uris":{"android":"levelo://app?vid=529449ae-9bd0-4a42-b2ad-b913b1c62c25","ios":"levelo://app?vid=529449ae-9bd0-4a42-b2ad-b913b1c62c25"},"vehicle_type_id":"4","last_reported":1702141551,"current_range_meters":31200,"station_id":"ce4bhu92rcd13ifvqi70","pricing_plan_id":"free"},{"bike_id":"0e4bc71e-db76-4c29-8e4d-3e734f455732","system_id":"levelo_inurba_marseille","lat":43.231793,"lon":5.400044,"is_reserved":false,"is_disabled":false,"rental_uris":{"android":"levelo://app?vid=0e4bc71e-db76-4c29-8e4d-3e734f455732","ios":"levelo://app?vid=0e4bc71e-db76-4c29-8e4d-3e734f455732"},"vehicle_type_id":"4","last_reported":1702141551,"current_range_meters":5200,"station_id":"ce4bhn12rcd13ifvqgqg","pricing_plan_id":"free"},{"bike_id":"86173674-661e-4b10-ab9d-d74cde6ac685","system_id":"levelo_inurba_marseille","lat":43.231562,"lon":5.436933,"is_reserved":false,"is_disabled":false,"rental_uris":{"android":"levelo://app?vid=86173674-661e-4b10-ab9d-d74cde6ac685","ios":"levelo://app?vid=86173674-661e-4b10-ab9d-d74cde6ac685"},"vehicle_type_id":"4","last_reported":1702141551,"current_range_meters":8400,"station_id":"ce4bhmp2rcd13ifvqgog","pricing_plan_id":"free"}]}}