{"last_updated":1727716098,"ttl":60,"version":"2.2","data":{"bikes":[{"bike_id":"ddd03992-addc-4b1c-854c-7574d5aadf12","system_id":"levelo_inurba_marseille","lat":43.31884,"lon":5.40738,"is_reserved":false,"is_disabled":false,"rental_uris":{"android":"levelo://app?vid=ddd03992-addc-4b1c-854c-7574d5aadf12","ios":"levelo://app?vid=ddd03992-addc-4b1c-854c-7574d5aadf12"},"vehicle_type_id":"4","last_reported":1727716098,"current_range_meters":27200,"station_id":"ce4bhq12rcd13ifvqhig","pricing_plan_id":"cebpf4jnsgd1na2vs0mg"},{"bike_id":"9d32dcbc-8ead-4d60-b9de-9a6f184651e1","system_id":"levelo_inurba_marseille","lat":43.27807,"lon":5.4071,"is_reserved":false,"is_disabled":false,"rental_uris":{"android":"levelo://app?vid=9d32dcbc-8ead-4d60-b9de-9a6f184651e1","ios":"levelo://app?vid=9d32dcbc-8ead-4d60-b9de-9a6f184651e1"},"vehicle_type_id":"4","last_reported":1727716098,"current_range_meters":39200,"station_id":"ce4bhnh2rcd13ifvqgtg","pricing_plan_id":"cebpf4jnsgd1na2vs0mg"},{"bike_id":"76b7c332-d9e9-4276-a0ad-51cfa8cd76bc","system_id":"levelo_inurba_marseille","lat":43.31998,"lon":5.38163,"is_reserved":false,"is_disabled":false,"rental_uris":{"android":"levelo://app?vid=76b7c332-d9e9-4276-a0ad-51cfa8cd76bc","ios":"levelo://app?vid=76b7c332-d9e9-4276-a0ad-51cfa8cd76bc"},"vehicle_type_id":"4","last_reported":1727716098,"current_range_meters":3200,"station_id":"ce4bhr12rcd13ifvqhpg","pricing_plan_id":"cebpf4jnsgd1na2vs0mg"},{"bike_id":"36268745-121c-40ad-a631-3aa798d6e7c7","system_id":"levelo_inurba_marseille","lat":43.30637,"lon":5.40083,"is_reserved":false,"is_disabled":false,"rental_uris":{"android":"levelo://app?vid=36268745-121c-40ad-a631-3aa798d6e7c7","ios":"levelo://app?vid=36268745-121c-40ad-a631-3aa798d6e7c7"},"vehicle_type_id":"4","last_reported":1727716098,"current_range_meters":22800,"station_id":"ce4bh112rcd13ifvqda0","pricing_plan_id":"cebpf4jnsgd1na2vs0mg"},{"bike_id":"326c9bac-ffe2-456a-acb6-d3ec5a775c54","system_id":"levelo_inurba_marseille","lat":43.255744,"lon":5.382497,"is_reserved":false,"is_disabled":false,"rental_uris":{"android":"levelo://app?vid=326c9bac-ffe2-456a-acb6-d3ec5a775c54","ios":"levelo://app?vid=326c9bac-ffe2-456a-acb6-d3ec5a775c54"},"vehicle_type_id":"4","last_reported":1727716098,"current_range_meters":4400,"station_id":"ce4bhih2rcd13ifvqfs0","pricing_plan_id":"cebpf4jnsgd1na2vs0mg"},{"bike_id":"5ce7b964-0106-45dc-9d28-222bcb64d497","system_id":"levelo_inurba_marseille","lat":43.29056,"lon":5.35919,"is_reserved":false,"is_disabled":false,"rental_uris":{"android":"levelo://app?vid=5ce7b964-0106-45dc-9d28-222bcb64d497","ios":"levelo://app?vid=5ce7b964-0106-45dc-9d28-222bcb64d497"},"vehicle_type_id":"4","last_reported":1727716098,"current_range_meters":22400,"station_id":"ce4bha92rcd13ifvqeg0","pricing_plan_id":"cebpf4jnsgd1na2vs0mg"},{"bike_id":"f17f79ce-44e1-4d1b-9aa2-259f70fbd142","system_id":"levelo_inurba_marseille","lat":43.31762,"lon":5.39014,"is_reserved":false,"is_disabled":false,"rental_uris":{"android":"levelo://app?vid=f17f79ce-44e1-4d1b-9aa2-259f70fbd142","ios":"levelo://app?vid=f17f79ce-44e1-4d1b-9aa2-259f70fbd142"},"vehicle_type_id":"4","last_reported":1727716098,"current_range_meters":29600,"station_id":"ce4bhqp2rcd13ifvqhng","pricing_plan_id":"cebpf4jnsgd1na2vs0mg"},{"bike_id":"43defcf7-27fa-4722-b56f-e45a1dfc2de3","system_id":"levelo_inurba_marseille","lat":43.32405,"lon":5.38354,"is_reserved":false,"is_disabled":false,"rental_uris":{"android":"levelo://app?vid=43defcf7-27fa-4722-b56f-e45a1dfc2de3","ios":"levelo://app?vid=43defcf7-27fa-4722-b56f-e45a1dfc2de3"},"vehicle_type_id":"4","last_reported":1727716098,"current_range_meters":20000,"station_id":"","pricing_plan_id":"cebpf4jnsgd1na2vs0mg"},{"bike_id":"df2b664d-5bac-465f-88e7-ae06dcb5ed98","system_id":"levelo_inurba_marseille","lat":43.24171,"lon":5.36405,"is_reserved":false,"is_disabled":false,"rental_uris":{"android":"levelo://app?vid=df2b664d-5bac-465f-88e7-ae06dcb5ed98","ios":"levelo://app?vid=df2b664d-5bac-465f-88e7-ae06dcb5ed98"},"vehicle_type_id":"4","last_reported":1727716098,"current_range_meters":19600,"station_id":"cpo36qri1sfpv3e86is0","pricing_plan_id":"cebpf4jnsgd1na2vs0mg"},{"bike_id":"6747fac6-57da-480c-94b0-0e56577161ee","system_id":"levelo_inurba_marseille","lat":43.30127,"lon":5.39853,"is_reserved":false,"is_disabled":false,"rental_uris":{"android":"levelo://app?vid=6747fac6-57da-480c-94b0-0e56577161ee","ios":"levelo://app?vid=6747fac6-57da-480c-94b0-0e56577161ee"},"vehicle_type_id":"4","last_reported":1727716098,"current_range_meters":22000,"station_id":"ce4bh0h2rcd13ifvqd40","pricing_plan_id":"cebpf4jnsgd1na2vs0mg"},{"bike_id":"27bbf5c4-f6d9-4953-81e5-4e3242159f95","system_id":"levelo_inurba_marseille","lat":43.30309,"lon":5.39212,"is_reserved":false,"is_disabled":false,"rental_uris":{"android":"levelo://app?vid=27bbf5c4-f6d9-4953-81e5-4e3242159f95","ios":"levelo://app?vid=27bbf5c4-f6d9-4953-81e5-4e3242159f95"},"vehicle_type_id":"4","last_reported":1727716098,"current_range_meters":24000,"station_id":"ce4bgkh2rcd13ifvqbk0","pricing_plan_id":"cebpf4jnsgd1na2vs0mg"},{"bike_id":"d1ad2405-3512-40e9-ad7c-fd23b3d38eb1","system_id":"levelo_inurba_marseille","lat":43.24995,"lon":5.38935,"is_reserved":false,"is_disabled":false,"rental_uris":{"android":"levelo://app?vid=d1ad2405-3512-40e9-ad7c-fd23b3d38eb1","ios":"levelo://app?vid=d1ad2405-3512-40e9-ad7c-fd23b3d38eb1"},"vehicle_type_id":"4","last_reported":1727716098,"current_range_meters":26000,"station_id":"ce4bhgp2rcd13ifvqfd0","pricing_plan_id":"cebpf4jnsgd1na2vs0mg"},{"bike_id":"9d124027-6e6c-4d98-9904-c6801b67ff0f","system_id":"levelo_inurba_marseille","lat":43.28317,"lon":5.35238,"is_reserved":false,"is_disabled":false,"rental_uris":{"android":"levelo://app?vid=9d124027-6e6c-4d98-9904-c6801b67ff0f","ios":"levelo://app?vid=9d124027-6e6c-4d98-9904-c6801b67ff0f"},"vehicle_type_id":"4","last_reported":1727716098,"current_range_meters":3200,"station_id":"ce4bhah2rcd13ifvqei0","pricing_plan_id":"cebpf4jnsgd1na2vs0mg"},{"bike_id":"8055f079-6e90-44df-9cfb-27a58383eeaa","system_id":"levelo_inurba_marseille","lat":43.30801,"lon":5.4352,"is_reserved":false,"is_disabled":false,"rental_uris":{"android":"levelo://app?vid=8055f079-6e90-44df-9cfb-27a58383eeaa","ios":"levelo://app?vid=8055f079-6e90-44df-9cfb-27a58383eeaa"},"vehicle_type_id":"4","last_reported":1727716098,"current_range_meters":24800,"station_id":"ce4bhph2rcd13ifvqheg","pricing_plan_id":"cebpf4jnsgd1na2vs0mg"},{"bike_id":"82f910ef-7a3d-4f66-a607-f28a0c7e28d8","system_id":"levelo_inurba_marseille","lat":43.31887,"lon":5.40737,"is_reserved":false,"is_disabled":false,"rental_uris":{"android":"levelo://app?vid=82f910ef-7a3d-4f66-a607-f28a0c7e28d8","ios":"levelo://app?vid=82f910ef-7a3d-4f66-a607-f28a0c7e28d8"},"vehicle_type_id":"4","last_reported":1727716098,"current_range_meters":22000,"station_id":"ce4bhq12rcd13ifvqhig","pricing_plan_id":"cebpf4jnsgd1na2vs0mg"},{"bike_id":"b8313cad-b709-41a7-8260-9723923212d8","system_id":"levelo_inurba_marseille","lat":43.27815,"lon":5.40716,"is_reserved":false,"is_disabled":false,"rental_uris":{"android":"levelo://app?vid=b8313cad-b709-41a7-8260-9723923212d8","ios":"levelo://app?vid=b8313cad-b709-41a7-8260-9723923212d8"},"vehicle_type_id":"4","last_reported":1727716098,"current_range_meters":36000,"station_id":"ce4bhnh2rcd13ifvqgtg","pricing_plan_id":"cebpf4jnsgd1na2vs0mg"},{"bike_id":"ed8631e5-d190-4e2b-93cc-fdb287dcf3ef","system_id":"levelo_inurba_marseille","lat":43.26556,"lon":5.37286,"is_reserved":false,"is_disabled":false,"rental_uris":{"android":"levelo://app?vid=ed8631e5-d190-4e2b-93cc-fdb287dcf3ef","ios":"levelo://app?vid=ed8631e5-d190-4e2b-93cc-fdb287dcf3ef"},"vehicle_type_id":"4","last_reported":1727716098,"current_range_meters":8000,"station_id":"ce4bhg12rcd13ifvqf70","pricing_plan_id":"cebpf4jnsgd1na2vs0mg"},{"bike_id":"380892d5-0c07-4382-989e-ba79e6cba25e","system_id":"levelo_inurba_marseille","lat":43.2802,"lon":5.36088,"is_reserved":false,"is_disabled":false,"rental_uris":{"android":"levelo://app?vid=380892d5-0c07-4382-989e-ba79e6cba25e","ios":"levelo://app?vid=380892d5-0c07-4382-989e-ba79e6cba25e"},"vehicle_type_id":"4","last_reported":1727716098,"current_range_meters":18000,"station_id":"","pricing_plan_id":"cebpf4jnsgd1na2vs0mg"},{"bike_id":"8cc6c2ab-8cc2-4b82-89a3-b1c92f4067c0","system_id":"levelo_inurba_marseille","lat":43.29262,"lon":5.40895,"is_reserved":false,"is_disabled":false,"rental_uris":{"android":"levelo://app?vid=8cc6c2ab-8cc2-4b82-89a3-b1c92f4067c0","ios":"levelo://app?vid=8cc6c2ab-8cc2-4b82-89a3-b1c92f4067c0"},"vehicle_type_id":"4","last_reported":1727716098,"current_range_meters":3600,"station_id":"ce4bh192rcd13ifvqdc0","pricing_plan_id":"cebpf4jnsgd1na2vs0mg"},{"bike_id":"6665580b-6ec7-454d-815d-705e880e367d","system_id":"levelo_inurba_marseille","lat":43.29225,"lon":5.36065,"is_reserved":false,"is_disabled":false,"rental_uris":{"android":"levelo://app?vid=6665580b-6ec7-454d-815d-705e880e367d","ios":"levelo://app?vid=6665580b-6ec7-454d-815d-705e880e367d"},"vehicle_type_id":"4","last_reported":1727716098,"current_range_meters":16800,"station_id":"ce4bhbh2rcd13ifvqeqg","pricing_plan_id":"cebpf4jnsgd1na2vs0mg"},{"bike_id":"cebff4c6-67fa-4ebf-8b61-43fc41c5c728","system_id":"levelo_inurba_marseille","lat":43.30093,"lon":5.3908,"is_reserved":false,"is_disabled":false,"rental_uris":{"android":"levelo://app?vid=cebff4c6-67fa-4ebf-8b61-43fc41c5c728","ios":"levelo://app?vid=cebff4c6-67fa-4ebf-8b61-43fc41c5c728"},"vehicle_type_id":"4","last_reported":1727716098,"current_range_meters":24400,"station_id":"ce4bh192rcd13ifvqdb0","pricing_plan_id":"cebpf4jnsgd1na2vs0mg"},{"bike_id":"01cf8401-446e-4c38-b759-1e6e1e9e0419","system_id":"levelo_inurba_marseille","lat":43.31885,"lon":5.40732,"is_reserved":false,"is_disabled":false,"rental_uris":{"android":"levelo://app?vid=01cf8401-446e-4c38-b759-1e6e1e9e0419","ios":"levelo://app?vid=01cf8401-446e-4c38-b759-1e6e1e9e0419"},"vehicle_type_id":"4","last_reported":1727716098,"current_range_meters":22400,"station_id":"ce4bhq12rcd13ifvqhig","pricing_plan_id":"cebpf4jnsgd1na2vs0mg"},{"bike_id":"998c72aa-fb85-4de8-be0b-0ceeb731b1f7","system_id":"levelo_inurba_marseille","lat":43.25095,"lon":5.39511,"is_reserved":false,"is_disabled":false,"rental_uris":{"android":"levelo://app?vid=998c72aa-fb85-4de8-be0b-0ceeb731b1f7","ios":"levelo://app?vid=998c72aa-fb85-4de8-be0b-0ceeb731b1f7"},"vehicle_type_id":"4","last_reported":1727716098,"current_range_meters":24400,"station_id":"ce4bhm12rcd13ifvqgkg","pricing_plan_id":"cebpf4jnsgd1na2vs0mg"},{"bike_id":"b25a55c7-65b5-46e1-b5d0-9a079be4acdc","system_id":"levelo_inurba_marseille","lat":43.24391,"lon":5.37062,"is_reserved":false,"is_disabled":false,"rental_uris":{"android":"levelo://app?vid=b25a55c7-65b5-46e1-b5d0-9a079be4acdc","ios":"levelo://app?vid=b25a55c7-65b5-46e1-b5d0-9a079be4acdc"},"vehicle_type_id":"4","last_reported":1727716098,"current_range_meters":39200,"station_id":"ce4bhhh2rcd13ifvqfk0","pricing_plan_id":"cebpf4jnsgd1na2vs0mg"},{"bike_id":"acff2f7e-bbb5-423e-9a6a-9b30331f5176","system_id":"levelo_inurba_marseille","lat":43.30439,"lon":5.36856,"is_reserved":false,"is_disabled":false,"rental_uris":{"android":"levelo://app?vid=acff2f7e-bbb5-423e-9a6a-9b30331f5176","ios":"levelo://app?vid=acff2f7e-bbb5-423e-9a6a-9b30331f5176"},"vehicle_type_id":"4","last_reported":1727716098,"current_range_meters":24800,"station_id":"","pricing_plan_id":"cebpf4jnsgd1na2vs0mg"},{"bike_id":"03178456-aec1-4fd2-b2b5-ca2fec6b20e8","system_id":"levelo_inurba_marseille","lat":43.26954,"lon":5.38633,"is_reserved":false,"is_disabled":false,"rental_uris":{"android":"levelo://app?vid=03178456-aec1-4fd2-b2b5-ca2fec6b20e8","ios":"levelo://app?vid=03178456-aec1-4fd2-b2b5-ca2fec6b20e8"},"vehicle_type_id":"4","last_reported":1727716098,"current_range_meters":9600,"station_id":"ce4bhh92rcd13ifvqfh0","pricing_plan_id":"cebpf4jnsgd1na2vs0mg"},{"bike_id":"b03aa4de-ecc1-4f16-ba2f-70576baf8e9a","system_id":"levelo_inurba_marseille","lat":43.30253,"lon":5.40063,"is_reserved":false,"is_disabled":false,"rental_uris":{"android":"levelo://app?vid=b03aa4de-ecc1-4f16-ba2f-70576baf8e9a","ios":"levelo://app?vid=b03aa4de-ecc1-4f16-ba2f-70576baf8e9a"},"vehicle_type_id":"4","last_reported":1727716098,"current_range_meters":38000,"station_id":"ce4bgvh2rcd13ifvqcs0","pricing_plan_id":"cebpf4jnsgd1na2vs0mg"},{"bike_id":"70540c4b-754e-4ce0-8829-517a6a30049b","system_id":"levelo_inurba_marseille","lat":43.320205,"lon":5.413734,"is_reserved":false,"is_disabled":false,"rental_uris":{"android":"levelo://app?vid=70540c4b-754e-4ce0-8829-517a6a30049b","ios":"levelo://app?vid=70540c4b-754e-4ce0-8829-517a6a30049b"},"vehicle_type_id":"4","last_reported":1727716098,"current_range_meters":29600,"station_id":"ce4bhq92rcd13ifvqhkg","pricing_plan_id":"cebpf4jnsgd1na2vs0mg"},{"bike_id":"43c06965-23b9-4d30-b7e8-7a5ba49ffbec","system_id":"levelo_inurba_marseille","lat":43.32326,"lon":5.38288,"is_reserved":false,"is_disabled":false,"rental_uris":{"android":"levelo://app?vid=43c06965-23b9-4d30-b7e8-7a5ba49ffbec","ios":"levelo://app?vid=43c06965-23b9-4d30-b7e8-7a5ba49ffbec"},"vehicle_type_id":"4","last_reported":1727716098,"current_range_meters":32000,"station_id":"ce4bhr12rcd13ifvqhqg","pricing_plan_id":"cebpf4jnsgd1na2vs0mg"},{"bike_id":"2393416f-7801-498b-a17c-633bcb694cf2","system_id":"levelo_inurba_marseille","lat":43.290039,"lon":5.356122,"is_reserved":false,"is_disabled":false,"rental_uris":{"android":"levelo://app?vid=2393416f-7801-498b-a17c-633bcb694cf2","ios":"levelo://app?vid=2393416f-7801-498b-a17c-633bcb694cf2"},"vehicle_type_id":"4","last_reported":1727716098,"current_range_meters":33200,"station_id":"ce4bhb92rcd13ifvqen0","pricing_plan_id":"cebpf4jnsgd1na2vs0mg"},{"bike_id":"019dd334-bb1d-43df-94ba-61c46dba7f7f","system_id":"levelo_inurba_marseille","lat":43.24817,"lon":5.37459,"is_reserved":false,"is_disabled":false,"rental_uris":{"android":"levelo://app?vid=019dd334-bb1d-43df-94ba-61c46dba7f7f","ios":"levelo://app?vid=019dd334-bb1d-43df-94ba-61c46dba7f7f"},"vehicle_type_id":"4","last_reported":1727716098,"current_range_meters":3600,"station_id":"ce4bhgh2rcd13ifvqfb0","pricing_plan_id":"cebpf4jnsgd1na2vs0mg"},{"bike_id":"faae7dcb-38a5-45a5-8a40-24edc7a07ba9","system_id":"levelo_inurba_marseille","lat":43.30807,"lon":5.43475,"is_reserved":false,"is_disabled":false,"rental_uris":{"android":"levelo://app?vid=faae7dcb-38a5-45a5-8a40-24edc7a07ba9","ios":"levelo://app?vid=faae7dcb-38a5-45a5-8a40-24edc7a07ba9"},"vehicle_type_id":"4","last_reported":1727716098,"current_range_meters":32400,"station_id":"ce4bhph2rcd13ifvqheg","pricing_plan_id":"cebpf4jnsgd1na2vs0mg"},{"bike_id":"e2219d84-85e8-4194-88a4-2b6ee27b4150","system_id":"levelo_inurba_marseille","lat":43.29797,"lon":5.3935,"is_reserved":false,"is_disabled":false,"rental_uris":{"android":"levelo://app?vid=e2219d84-85e8-4194-88a4-2b6ee27b4150","ios":"levelo://app?vid=e2219d84-85e8-4194-88a4-2b6ee27b4150"},"vehicle_type_id":"4","last_reported":1727716098,"current_range_meters":38800,"station_id":"chh1huq6cuj3fo74tm60","pricing_plan_id":"cebpf4jnsgd1na2vs0mg"},{"bike_id":"2109e9e0-cc31-424d-b977-66865dfc9b25","system_id":"levelo_inurba_marseille","lat":43.28726,"lon":5.36099,"is_reserved":false,"is_disabled":false,"rental_uris":{"android":"levelo://app?vid=2109e9e0-cc31-424d-b977-66865dfc9b25","ios":"levelo://app?vid=2109e9e0-cc31-424d-b977-66865dfc9b25"},"vehicle_type_id":"4","last_reported":1727716098,"current_range_meters":38400,"station_id":"cki0cbj6b192h4jlfktg","pricing_plan_id":"cebpf4jnsgd1na2vs0mg"},{"bike_id":"2d8423c9-04af-44f9-b064-a6756a659468","system_id":"levelo_inurba_marseille","lat":43.28626,"lon":5.38538,"is_reserved":false,"is_disabled":false,"rental_uris":{"android":"levelo://app?vid=2d8423c9-04af-44f9-b064-a6756a659468","ios":"levelo://app?vid=2d8423c9-04af-44f9-b064-a6756a659468"},"vehicle_type_id":"4","last_reported":1727716098,"current_range_meters":18800,"station_id":"ce4bh0h2rcd13ifvqd60","pricing_plan_id":"cebpf4jnsgd1na2vs0mg"},{"bike_id":"1a6e3be2-5c4a-46a0-8364-af3217685d39","system_id":"levelo_inurba_marseille","lat":43.3373,"lon":5.39181,"is_reserved":false,"is_disabled":false,"rental_uris":{"android":"levelo://app?vid=1a6e3be2-5c4a-46a0-8364-af3217685d39","ios":"levelo://app?vid=1a6e3be2-5c4a-46a0-8364-af3217685d39"},"vehicle_type_id":"4","last_reported":1727716098,"current_range_meters":10000,"station_id":"ce4bhr92rcd13ifvqhsg","pricing_plan_id":"cebpf4jnsgd1na2vs0mg"},{"bike_id":"3d96cba2-2004-4c43-8e8d-20e59b94a45f","system_id":"levelo_inurba_marseille","lat":43.2781,"lon":5.4072,"is_reserved":false,"is_disabled":false,"rental_uris":{"android":"levelo://app?vid=3d96cba2-2004-4c43-8e8d-20e59b94a45f","ios":"levelo://app?vid=3d96cba2-2004-4c43-8e8d-20e59b94a45f"},"vehicle_type_id":"4","last_reported":1727716098,"current_range_meters":3200,"station_id":"ce4bhnh2rcd13ifvqgtg","pricing_plan_id":"cebpf4jnsgd1na2vs0mg"},{"bike_id":"58303d09-2231-4d94-8ee6-9f07e0a1e318","system_id":"levelo_inurba_marseille","lat":43.29897,"lon":5.4366,"is_reserved":false,"is_disabled":false,"rental_uris":{"android":"levelo://app?vid=58303d09-2231-4d94-8ee6-9f07e0a1e318","ios":"levelo://app?vid=58303d09-2231-4d94-8ee6-9f07e0a1e318"},"vehicle_type_id":"4","last_reported":1727716098,"current_range_meters":39200,"station_id":"ce4bhpp2rcd13ifvqhfg","pricing_plan_id":"cebpf4jnsgd1na2vs0mg"},{"bike_id":"85b42935-2549-4c87-95c7-470ede3abd3d","system_id":"levelo_inurba_marseille","lat":43.29003,"lon":5.3561,"is_reserved":false,"is_disabled":false,"rental_uris":{"android":"levelo://app?vid=85b42935-2549-4c87-95c7-470ede3abd3d","ios":"levelo://app?vid=85b42935-2549-4c87-95c7-470ede3abd3d"},"vehicle_type_id":"4","last_reported":1727716098,"current_range_meters":28000,"station_id":"ce4bhb92rcd13ifvqen0","pricing_plan_id":"cebpf4jnsgd1na2vs0mg"},{"bike_id":"62110c18-ba6e-4a54-8b88-fbfbaf57e32e","system_id":"levelo_inurba_marseille","lat":43.32558,"lon":5.41419,"is_reserved":false,"is_disabled":false,"rental_uris":{"android":"levelo://app?vid=62110c18-ba6e-4a54-8b88-fbfbaf57e32e","ios":"levelo://app?vid=62110c18-ba6e-4a54-8b88-fbfbaf57e32e"},"vehicle_type_id":"4","last_reported":1727716098,"current_range_meters":38800,"station_id":"ce4bhq12rcd13ifvqhhg","pricing_plan_id":"cebpf4jnsgd1na2vs0mg"},{"bike_id":"be1a0ddf-e730-458e-8549-147a53d2b0a3","system_id":"levelo_inurba_marseille","lat":43.23189,"lon":5.39982,"is_reserved":false,"is_disabled":false,"rental_uris":{"android":"levelo://app?vid=be1a0ddf-e730-458e-8549-147a53d2b0a3","ios":"levelo://app?vid=be1a0ddf-e730-458e-8549-147a53d2b0a3"},"vehicle_type_id":"4","last_reported":1727716098,"current_range_meters":24800,"station_id":"ce4bhn12rcd13ifvqgqg","pricing_plan_id":"cebpf4jnsgd1na2vs0mg"},{"bike_id":"cfe21444-89cc-4249-8a02-aa7c4211b233","system_id":"levelo_inurba_marseille","lat":43.25577,"lon":5.38243,"is_reserved":false,"is_disabled":false,"rental_uris":{"android":"levelo://app?vid=cfe21444-89cc-4249-8a02-aa7c4211b233","ios":"levelo://app?vid=cfe21444-89cc-4249-8a02-aa7c4211b233"},"vehicle_type_id":"4","last_reported":1727716098,"current_range_meters":9200,"station_id":"ce4bhih2rcd13ifvqfs0","pricing_plan_id":"cebpf4jnsgd1na2vs0mg"},{"bike_id":"5dd81bca-1370-4aa2-b6ee-7a799fefbe08","system_id":"levelo_inurba_marseille","lat":43.28946,"lon":5.36636,"is_reserved":false,"is_disabled":false,"rental_uris":{"android":"levelo://app?vid=5dd81bca-1370-4aa2-b6ee-7a799fefbe08","ios":"levelo://app?vid=5dd81bca-1370-4aa2-b6ee-7a799fefbe08"},"vehicle_type_id":"4","last_reported":1727716098,"current_range_meters":9200,"station_id":"ce4bhap2rcd13ifvqek0","pricing_plan_id":"cebpf4jnsgd1na2vs0mg"},{"bike_id":"b8782dfb-3d3c-4390-963a-fd029beb80a0","system_id":"levelo_inurba_marseille","lat":43.31756,"lon":5.39018,"is_reserved":false,"is_disabled":false,"rental_uris":{"android":"levelo://app?vid=b8782dfb-3d3c-4390-963a-fd029beb80a0","ios":"levelo://app?vid=b8782dfb-3d3c-4390-963a-fd029beb80a0"},"vehicle_type_id":"4","last_reported":1727716098,"current_range_meters":11200,"station_id":"ce4bhqp2rcd13ifvqhng","pricing_plan_id":"cebpf4jnsgd1na2vs0mg"},{"bike_id":"0569ffd9-5d73-439a-979a-a1c88b9a1061","system_id":"levelo_inurba_marseille","lat":43.3291,"lon":5.39078,"is_reserved":false,"is_disabled":false,"rental_uris":{"android":"levelo://app?vid=0569ffd9-5d73-439a-979a-a1c88b9a1061","ios":"levelo://app?vid=0569ffd9-5d73-439a-979a-a1c88b9a1061"},"vehicle_type_id":"4","last_reported":1727716098,"current_range_meters":32000,"station_id":"","pricing_plan_id":"cebpf4jnsgd1na2vs0mg"},{"bike_id":"7ba2751f-723c-4c1b-bb15-069200a9a717","system_id":"levelo_inurba_marseille","lat":43.3018,"lon":5.36631,"is_reserved":false,"is_disabled":false,"rental_uris":{"android":"levelo://app?vid=7ba2751f-723c-4c1b-bb15-069200a9a717","ios":"levelo://app?vid=7ba2751f-723c-4c1b-bb15-069200a9a717"},"vehicle_type_id":"4","last_reported":1727716098,"current_range_meters":26000,"station_id":"ce4bgrh2rcd13ifvqc8g","pricing_plan_id":"cebpf4jnsgd1na2vs0mg"},{"bike_id":"10d6c3d3-bb08-49a9-96e0-288ec2783194","system_id":"levelo_inurba_marseille","lat":43.29322,"lon":5.41156,"is_reserved":false,"is_disabled":false,"rental_uris":{"android":"levelo://app?vid=10d6c3d3-bb08-49a9-96e0-288ec2783194","ios":"levelo://app?vid=10d6c3d3-bb08-49a9-96e0-288ec2783194"},"vehicle_type_id":"4","last_reported":1727716098,"current_range_meters":2800,"station_id":"","pricing_plan_id":"cebpf4jnsgd1na2vs0mg"},{"bike_id":"53b8b279-3e36-4185-b3b0-4688e1a414fb","system_id":"levelo_inurba_marseille","lat":43.28425,"lon":5.34989,"is_reserved":false,"is_disabled":false,"rental_uris":{"android":"levelo://app?vid=53b8b279-3e36-4185-b3b0-4688e1a414fb","ios":"levelo://app?vid=53b8b279-3e36-4185-b3b0-4688e1a414fb"},"vehicle_type_id":"4","last_reported":1727716098,"current_range_meters":35200,"station_id":"ce4bhbh2rcd13ifvqepg","pricing_plan_id":"cebpf4jnsgd1na2vs0mg"},{"bike_id":"b2724cb3-7e10-4445-95db-3746850847d3","system_id":"levelo_inurba_marseille","lat":43.33023,"lon":5.39048,"is_reserved":false,"is_disabled":false,"rental_uris":{"android":"levelo://app?vid=b2724cb3-7e10-4445-95db-3746850847d3","ios":"levelo://app?vid=b2724cb3-7e10-4445-95db-3746850847d3"},"vehicle_type_id":"4","last_reported":1727716098,"current_range_meters":10000,"station_id":"ce4bhr92rcd13ifvqhrg","pricing_plan_id":"cebpf4jnsgd1na2vs0mg"},{"bike_id":"dee5b9ff-8d68-499c-80b9-de02bbf04c83","system_id":"levelo_inurba_marseille","lat":43.29905,"lon":5.43672,"is_reserved":false,"is_disabled":false,"rental_uris":{"android":"levelo://app?vid=dee5b9ff-8d68-499c-80b9-de02bbf04c83","ios":"levelo://app?vid=dee5b9ff-8d68-499c-80b9-de02bbf04c83"},"vehicle_type_id":"4","last_reported":1727716098,"current_range_meters":31200,"station_id":"ce4bhpp2rcd13ifvqhfg","pricing_plan_id":"cebpf4jnsgd1na2vs0mg"},{"bike_id":"95ff070e-8bf8-4ca8-bf47-5aa696e1090b","system_id":"levelo_inurba_marseille","lat":43.28663,"lon":5.36347,"is_reserved":false,"is_disabled":false,"rental_uris":{"android":"levelo://app?vid=95ff070e-8bf8-4ca8-bf47-5aa696e1090b","ios":"levelo://app?vid=95ff070e-8bf8-4ca8-bf47-5aa696e1090b"},"vehicle_type_id":"4","last_reported":1727716098,"current_range_meters":6000,"station_id":"ce4bhah2rcd13ifvqej0","pricing_plan_id":"cebpf4jnsgd1na2vs0mg"},{"bike_id":"49efb360-bc57-4118-9590-273761ff8a1e","system_id":"levelo_inurba_marseille","lat":43.28464,"lon":5.35886,"is_reserved":false,"is_disabled":false,"rental_uris":{"android":"levelo://app?vid=49efb360-bc57-4118-9590-273761ff8a1e","ios":"levelo://app?vid=49efb360-bc57-4118-9590-273761ff8a1e"},"vehicle_type_id":"4","last_reported":1727716098,"current_range_meters":23200,"station_id":"ce4bhah2rcd13ifvqei0","pricing_plan_id":"cebpf4jnsgd1na2vs0mg"},{"bike_id":"9c94fb6b-67b9-4061-831a-90e7f0a850a3","system_id":"levelo_inurba_marseille","lat":43.30559,"lon":5.36711,"is_reserved":false,"is_disabled":false,"rental_uris":{"android":"levelo://app?vid=9c94fb6b-67b9-4061-831a-90e7f0a850a3","ios":"levelo://app?vid=9c94fb6b-67b9-4061-831a-90e7f0a850a3"},"vehicle_type_id":"4","last_reported":1727716098,"current_range_meters":30800,"station_id":"ce4bgrp2rcd13ifvqc9g","pricing_plan_id":"cebpf4jnsgd1na2vs0mg"},{"bike_id":"6fd6819b-7863-4901-8443-b78ffad57798","system_id":"levelo_inurba_marseille","lat":43.29899,"lon":5.43672,"is_reserved":false,"is_disabled":false,"rental_uris":{"android":"levelo://app?vid=6fd6819b-7863-4901-8443-b78ffad57798","ios":"levelo://app?vid=6fd6819b-7863-4901-8443-b78ffad57798"},"vehicle_type_id":"4","last_reported":1727716098,"current_range_meters":12800,"station_id":"ce4bhpp2rcd13ifvqhfg","pricing_plan_id":"cebpf4jnsgd1na2vs0mg"},{"bike_id":"c2c2bd58-1bb0-47d8-a3e1-ae2574da2469","system_id":"levelo_inurba_marseille","lat":43.30126,"lon":5.39882,"is_reserved":false,"is_disabled":false,"rental_uris":{"android":"levelo://app?vid=c2c2bd58-1bb0-47d8-a3e1-ae2574da2469","ios":"levelo://app?vid=c2c2bd58-1bb0-47d8-a3e1-ae2574da2469"},"vehicle_type_id":"4","last_reported":1727716098,"current_range_meters":6800,"station_id":"ce4bh0h2rcd13ifvqd40","pricing_plan_id":"cebpf4jnsgd1na2vs0mg"},{"bike_id":"d39c516f-6dfc-4a08-85f4-8a000e4c3fdd","system_id":"levelo_inurba_marseille","lat":43.30138,"lon":5.38777,"is_reserved":false,"is_disabled":false,"rental_uris":{"android":"levelo://app?vid=d39c516f-6dfc-4a08-85f4-8a000e4c3fdd","ios":"levelo://app?vid=d39c516f-6dfc-4a08-85f4-8a000e4c3fdd"},"vehicle_type_id":"4","last_reported":1727716098,"current_range_meters":38400,"station_id":"ce4bghh2rcd13ifvqb60","pricing_plan_id":"cebpf4jnsgd1na2vs0mg"},{"bike_id":"d399bb7d-a273-4a7b-bbd3-893ab223a29b","system_id":"levelo_inurba_marseille","lat":43.313636,"lon":5.384838,"is_reserved":false,"is_disabled":false,"rental_uris":{"android":"levelo://app?vid=d399bb7d-a273-4a7b-bbd3-893ab223a29b","ios":"levelo://app?vid=d399bb7d-a273-4a7b-bbd3-893ab223a29b"},"vehicle_type_id":"4","last_reported":1727716098,"current_range_meters":0,"station_id":"ce4bgt92rcd13ifvqcf0","pricing_plan_id":"cebpf4jnsgd1na2vs0mg"},{"bike_id":"808e3616-eafe-4ad1-9f47-3414e47426ed","system_id":"levelo_inurba_marseille","lat":43.28413,"lon":5.37514,"is_reserved":false,"is_disabled":false,"rental_uris":{"android":"levelo://app?vid=808e3616-eafe-4ad1-9f47-3414e47426ed","ios":"levelo://app?vid=808e3616-eafe-4ad1-9f47-3414e47426ed"},"vehicle_type_id":"4","last_reported":1727716098,"current_range_meters":28000,"station_id":"ce4bh412rcd13ifvqds0","pricing_plan_id":"cebpf4jnsgd1na2vs0mg"},{"bike_id":"b84efc8d-f133-4572-ab70-6772d8be1b27","system_id":"levelo_inurba_marseille","lat":43.29231,"lon":5.36064,"is_reserved":false,"is_disabled":false,"rental_uris":{"android":"levelo://app?vid=b84efc8d-f133-4572-ab70-6772d8be1b27","ios":"levelo://app?vid=b84efc8d-f133-4572-ab70-6772d8be1b27"},"vehicle_type_id":"4","last_reported":1727716098,"current_range_meters":23200,"station_id":"ce4bhbh2rcd13ifvqeqg","pricing_plan_id":"cebpf4jnsgd1na2vs0mg"},{"bike_id":"1ae63af3-5035-41f0-9795-bf6ebd31548b","system_id":"levelo_inurba_marseille","lat":43.30417,"lon":5.41284,"is_reserved":false,"is_disabled":false,"rental_uris":{"android":"levelo://app?vid=1ae63af3-5035-41f0-9795-bf6ebd31548b","ios":"levelo://app?vid=1ae63af3-5035-41f0-9795-bf6ebd31548b"},"vehicle_type_id":"4","last_reported":1727716098,"current_range_meters":37600,"station_id":"ce4bhop2rcd13ifvqh8g","pricing_plan_id":"cebpf4jnsgd1na2vs0mg"},{"bike_id":"48118dc9-1f3f-4a79-af56-5bbf59476fb5","system_id":"levelo_inurba_marseille","lat":43.310155,"lon":5.384303,"is_reserved":false,"is_disabled":false,"rental_uris":{"android":"levelo://app?vid=48118dc9-1f3f-4a79-af56-5bbf59476fb5","ios":"levelo://app?vid=48118dc9-1f3f-4a79-af56-5bbf59476fb5"},"vehicle_type_id":"4","last_reported":1727716098,"current_range_meters":10800,"station_id":"","pricing_plan_id":"cebpf4jnsgd1na2vs0mg"},{"bike_id":"48cb8245-a8d3-44df-8901-883e590fed18","system_id":"levelo_inurba_marseille","lat":43.29418,"lon":5.38627,"is_reserved":false,"is_disabled":false,"rental_uris":{"android":"levelo://app?vid=48cb8245-a8d3-44df-8901-883e590fed18","ios":"levelo://app?vid=48cb8245-a8d3-44df-8901-883e590fed18"},"vehicle_type_id":"4","last_reported":1727716098,"current_range_meters":8400,"station_id":"ce4bh2h2rcd13ifvqdh0","pricing_plan_id":"cebpf4jnsgd1na2vs0mg"},{"bike_id":"c401dba4-1723-41b5-8245-09382eea96a2","system_id":"levelo_inurba_marseille","lat":43.28613,"lon":5.35102,"is_reserved":false,"is_disabled":false,"rental_uris":{"android":"levelo://app?vid=c401dba4-1723-41b5-8245-09382eea96a2","ios":"levelo://app?vid=c401dba4-1723-41b5-8245-09382eea96a2"},"vehicle_type_id":"4","last_reported":1727716098,"current_range_meters":29600,"station_id":"ce4bhch2rcd13ifvqeug","pricing_plan_id":"cebpf4jnsgd1na2vs0mg"},{"bike_id":"0f91d8cb-9bb3-46f8-b261-79a4cec4c2c9","system_id":"levelo_inurba_marseille","lat":43.32002,"lon":5.38155,"is_reserved":false,"is_disabled":false,"rental_uris":{"android":"levelo://app?vid=0f91d8cb-9bb3-46f8-b261-79a4cec4c2c9","ios":"levelo://app?vid=0f91d8cb-9bb3-46f8-b261-79a4cec4c2c9"},"vehicle_type_id":"4","last_reported":1727716098,"current_range_meters":20400,"station_id":"ce4bhr12rcd13ifvqhpg","pricing_plan_id":"cebpf4jnsgd1na2vs0mg"},{"bike_id":"7977a9c9-5512-4fa7-9026-3e7c33952b44","system_id":"levelo_inurba_marseille","lat":43.26716,"lon":5.40137,"is_reserved":false,"is_disabled":false,"rental_uris":{"android":"levelo://app?vid=7977a9c9-5512-4fa7-9026-3e7c33952b44","ios":"levelo://app?vid=7977a9c9-5512-4fa7-9026-3e7c33952b44"},"vehicle_type_id":"4","last_reported":1727716098,"current_range_meters":17600,"station_id":"ce4bhm92rcd13ifvqglg","pricing_plan_id":"cebpf4jnsgd1na2vs0mg"},{"bike_id":"fd09f90b-ec79-4c5c-b466-dcfa87f2fc35","system_id":"levelo_inurba_marseille","lat":43.26952,"lon":5.38624,"is_reserved":false,"is_disabled":false,"rental_uris":{"android":"levelo://app?vid=fd09f90b-ec79-4c5c-b466-dcfa87f2fc35","ios":"levelo://app?vid=fd09f90b-ec79-4c5c-b466-dcfa87f2fc35"},"vehicle_type_id":"4","last_reported":1727716098,"current_range_meters":38000,"station_id":"ce4bhh92rcd13ifvqfh0","pricing_plan_id":"cebpf4jnsgd1na2vs0mg"},{"bike_id":"d05ea0c3-8bb2-4593-9b1a-c7e3acd0f8de","system_id":"levelo_inurba_marseille","lat":43.31758,"lon":5.3901,"is_reserved":false,"is_disabled":false,"rental_uris":{"android":"levelo://app?vid=d05ea0c3-8bb2-4593-9b1a-c7e3acd0f8de","ios":"levelo://app?vid=d05ea0c3-8bb2-4593-9b1a-c7e3acd0f8de"},"vehicle_type_id":"4","last_reported":1727716098,"current_range_meters":39200,"station_id":"ce4bhqp2rcd13ifvqhng","pricing_plan_id":"cebpf4jnsgd1na2vs0mg"},{"bike_id":"3076e43f-2881-4335-b298-a8ec0b4263f9","system_id":"levelo_inurba_marseille","lat":43.28857,"lon":5.3535,"is_reserved":false,"is_disabled":false,"rental_uris":{"android":"levelo://app?vid=3076e43f-2881-4335-b298-a8ec0b4263f9","ios":"levelo://app?vid=3076e43f-2881-4335-b298-a8ec0b4263f9"},"vehicle_type_id":"4","last_reported":1727716098,"current_range_meters":16800,"station_id":"ce4bhb92rcd13ifvqen0","pricing_plan_id":"cebpf4jnsgd1na2vs0mg"},{"bike_id":"591dca7a-4c92-45f3-b725-36a5461bc51e","system_id":"levelo_inurba_marseille","lat":43.28857,"lon":5.39331,"is_reserved":false,"is_disabled":false,"rental_uris":{"android":"levelo://app?vid=591dca7a-4c92-45f3-b725-36a5461bc51e","ios":"levelo://app?vid=591dca7a-4c92-45f3-b725-36a5461bc51e"},"vehicle_type_id":"4","last_reported":1727716098,"current_range_meters":38800,"station_id":"ce4bh2p2rcd13ifvqdi0","pricing_plan_id":"cebpf4jnsgd1na2vs0mg"},{"bike_id":"7b6aea48-b804-438d-91f6-6a6abe2022ae","system_id":"levelo_inurba_marseille","lat":43.24479,"lon":5.37256,"is_reserved":false,"is_disabled":false,"rental_uris":{"android":"levelo://app?vid=7b6aea48-b804-438d-91f6-6a6abe2022ae","ios":"levelo://app?vid=7b6aea48-b804-438d-91f6-6a6abe2022ae"},"vehicle_type_id":"4","last_reported":1727716098,"current_range_meters":14000,"station_id":"","pricing_plan_id":"cebpf4jnsgd1na2vs0mg"},{"bike_id":"426c3803-dc21-42c1-a835-316fb9edf9d7","system_id":"levelo_inurba_marseille","lat":43.295624,"lon":5.375254,"is_reserved":false,"is_disabled":false,"rental_uris":{"android":"levelo://app?vid=426c3803-dc21-42c1-a835-316fb9edf9d7","ios":"levelo://app?vid=426c3803-dc21-42c1-a835-316fb9edf9d7"},"vehicle_type_id":"4","last_reported":1727716098,"current_range_meters":24400,"station_id":"ce4bgh92rcd13ifvqb50","pricing_plan_id":"cebpf4jnsgd1na2vs0mg"},{"bike_id":"00ef30d2-cd7c-4206-9275-e0d8b8cdbf9b","system_id":"levelo_inurba_marseille","lat":43.2816,"lon":5.426483,"is_reserved":false,"is_disabled":false,"rental_uris":{"android":"levelo://app?vid=00ef30d2-cd7c-4206-9275-e0d8b8cdbf9b","ios":"levelo://app?vid=00ef30d2-cd7c-4206-9275-e0d8b8cdbf9b"},"vehicle_type_id":"4","last_reported":1727716098,"current_range_meters":17200,"station_id":"ce4bhnh2rcd13ifvqgug","pricing_plan_id":"cebpf4jnsgd1na2vs0mg"},{"bike_id":"cf33b555-cac1-43f8-89f7-e84b64897cfd","system_id":"levelo_inurba_marseille","lat":43.28376,"lon":5.37303,"is_reserved":false,"is_disabled":false,"rental_uris":{"android":"levelo://app?vid=cf33b555-cac1-43f8-89f7-e84b64897cfd","ios":"levelo://app?vid=cf33b555-cac1-43f8-89f7-e84b64897cfd"},"vehicle_type_id":"4","last_reported":1727716098,"current_range_meters":4000,"station_id":"","pricing_plan_id":"cebpf4jnsgd1na2vs0mg"},{"bike_id":"ffe2cb87-b3ac-48a3-82a6-97cd64e93280","system_id":"levelo_inurba_marseille","lat":43.29225,"lon":5.36058,"is_reserved":false,"is_disabled":false,"rental_uris":{"android":"levelo://app?vid=ffe2cb87-b3ac-48a3-82a6-97cd64e93280","ios":"levelo://app?vid=ffe2cb87-b3ac-48a3-82a6-97cd64e93280"},"vehicle_type_id":"4","last_reported":1727716098,"current_range_meters":25200,"station_id":"ce4bhbh2rcd13ifvqeqg","pricing_plan_id":"cebpf4jnsgd1na2vs0mg"},{"bike_id":"0add3253-35b1-4cd6-b14e-b2de10b4f58a","system_id":"levelo_inurba_marseille","lat":43.29001,"lon":5.38156,"is_reserved":false,"is_disabled":false,"rental_uris":{"android":"levelo://app?vid=0add3253-35b1-4cd6-b14e-b2de10b4f58a","ios":"levelo://app?vid=0add3253-35b1-4cd6-b14e-b2de10b4f58a"},"vehicle_type_id":"4","last_reported":1727716098,"current_range_meters":14400,"station_id":"ce4bh4p2rcd13ifvqe1g","pricing_plan_id":"cebpf4jnsgd1na2vs0mg"},{"bike_id":"5c71e3e5-e086-4205-900d-59f05fd86daf","system_id":"levelo_inurba_marseille","lat":43.27619,"lon":5.36105,"is_reserved":false,"is_disabled":false,"rental_uris":{"android":"levelo://app?vid=5c71e3e5-e086-4205-900d-59f05fd86daf","ios":"levelo://app?vid=5c71e3e5-e086-4205-900d-59f05fd86daf"},"vehicle_type_id":"4","last_reported":1727716098,"current_range_meters":31200,"station_id":"ce4bgj92rcd13ifvqbe0","pricing_plan_id":"cebpf4jnsgd1na2vs0mg"},{"bike_id":"f41e6ac7-d39b-432c-a205-b5e52984b1b4","system_id":"levelo_inurba_marseille","lat":43.33033,"lon":5.39388,"is_reserved":false,"is_disabled":false,"rental_uris":{"android":"levelo://app?vid=f41e6ac7-d39b-432c-a205-b5e52984b1b4","ios":"levelo://app?vid=f41e6ac7-d39b-432c-a205-b5e52984b1b4"},"vehicle_type_id":"4","last_reported":1727716098,"current_range_meters":36000,"station_id":"","pricing_plan_id":"cebpf4jnsgd1na2vs0mg"},{"bike_id":"113908d5-8511-4f0b-946f-48eee54ac385","system_id":"levelo_inurba_marseille","lat":43.28464,"lon":5.35893,"is_reserved":false,"is_disabled":false,"rental_uris":{"android":"levelo://app?vid=113908d5-8511-4f0b-946f-48eee54ac385","ios":"levelo://app?vid=113908d5-8511-4f0b-946f-48eee54ac385"},"vehicle_type_id":"4","last_reported":1727716098,"current_range_meters":34000,"station_id":"ce4bhah2rcd13ifvqei0","pricing_plan_id":"cebpf4jnsgd1na2vs0mg"},{"bike_id":"613a0450-14ea-4b3c-8602-19a99d2f4c08","system_id":"levelo_inurba_marseille","lat":43.23184,"lon":5.39984,"is_reserved":false,"is_disabled":false,"rental_uris":{"android":"levelo://app?vid=613a0450-14ea-4b3c-8602-19a99d2f4c08","ios":"levelo://app?vid=613a0450-14ea-4b3c-8602-19a99d2f4c08"},"vehicle_type_id":"4","last_reported":1727716098,"current_range_meters":7200,"station_id":"ce4bhn12rcd13ifvqgqg","pricing_plan_id":"cebpf4jnsgd1na2vs0mg"},{"bike_id":"413412d3-1449-45b4-845e-633dfda87e58","system_id":"levelo_inurba_marseille","lat":43.27811,"lon":5.40723,"is_reserved":false,"is_disabled":false,"rental_uris":{"android":"levelo://app?vid=413412d3-1449-45b4-845e-633dfda87e58","ios":"levelo://app?vid=413412d3-1449-45b4-845e-633dfda87e58"},"vehicle_type_id":"4","last_reported":1727716098,"current_range_meters":10800,"station_id":"ce4bhnh2rcd13ifvqgtg","pricing_plan_id":"cebpf4jnsgd1na2vs0mg"},{"bike_id":"c28f58fa-7d91-4235-81fc-15672d71d219","system_id":"levelo_inurba_marseille","lat":43.30144,"lon":5.38782,"is_reserved":false,"is_disabled":false,"rental_uris":{"android":"levelo://app?vid=c28f58fa-7d91-4235-81fc-15672d71d219","ios":"levelo://app?vid=c28f58fa-7d91-4235-81fc-15672d71d219"},"vehicle_type_id":"4","last_reported":1727716098,"current_range_meters":4400,"station_id":"ce4bh4p2rcd13ifvqe0g","pricing_plan_id":"cebpf4jnsgd1na2vs0mg"},{"bike_id":"3e1f2125-60fa-475a-85df-23cae78c65e2","system_id":"levelo_inurba_marseille","lat":43.29796,"lon":5.38109,"is_reserved":false,"is_disabled":false,"rental_uris":{"android":"levelo://app?vid=3e1f2125-60fa-475a-85df-23cae78c65e2","ios":"levelo://app?vid=3e1f2125-60fa-475a-85df-23cae78c65e2"},"vehicle_type_id":"4","last_reported":1727716098,"current_range_meters":3600,"station_id":"ce4bgip2rcd13ifvqbb0","pricing_plan_id":"cebpf4jnsgd1na2vs0mg"},{"bike_id":"641b3508-e14e-46fe-bf10-a79efc489df3","system_id":"levelo_inurba_marseille","lat":43.28945,"lon":5.36399,"is_reserved":false,"is_disabled":false,"rental_uris":{"android":"levelo://app?vid=641b3508-e14e-46fe-bf10-a79efc489df3","ios":"levelo://app?vid=641b3508-e14e-46fe-bf10-a79efc489df3"},"vehicle_type_id":"4","last_reported":1727716098,"current_range_meters":20400,"station_id":"ce4bhc92rcd13ifvqetg","pricing_plan_id":"cebpf4jnsgd1na2vs0mg"},{"bike_id":"134610c0-98ef-4835-8cd3-1745cfe76245","system_id":"levelo_inurba_marseille","lat":43.29557,"lon":5.42292,"is_reserved":false,"is_disabled":false,"rental_uris":{"android":"levelo://app?vid=134610c0-98ef-4835-8cd3-1745cfe76245","ios":"levelo://app?vid=134610c0-98ef-4835-8cd3-1745cfe76245"},"vehicle_type_id":"4","last_reported":1727716098,"current_range_meters":16800,"station_id":"ce4bhph2rcd13ifvqhdg","pricing_plan_id":"cebpf4jnsgd1na2vs0mg"},{"bike_id":"fe6e3ae4-3f43-403c-812f-c6330be02451","system_id":"levelo_inurba_marseille","lat":43.28616,"lon":5.35121,"is_reserved":false,"is_disabled":false,"rental_uris":{"android":"levelo://app?vid=fe6e3ae4-3f43-403c-812f-c6330be02451","ios":"levelo://app?vid=fe6e3ae4-3f43-403c-812f-c6330be02451"},"vehicle_type_id":"4","last_reported":1727716098,"current_range_meters":22400,"station_id":"ce4bhch2rcd13ifvqeug","pricing_plan_id":"cebpf4jnsgd1na2vs0mg"},{"bike_id":"0d422820-5421-4cc2-9a0c-85f32b6838c7","system_id":"levelo_inurba_marseille","lat":43.27376,"lon":5.36255,"is_reserved":false,"is_disabled":false,"rental_uris":{"android":"levelo://app?vid=0d422820-5421-4cc2-9a0c-85f32b6838c7","ios":"levelo://app?vid=0d422820-5421-4cc2-9a0c-85f32b6838c7"},"vehicle_type_id":"4","last_reported":1727716098,"current_range_meters":17200,"station_id":"ce4bhbh2rcd13ifvqeo0","pricing_plan_id":"cebpf4jnsgd1na2vs0mg"},{"bike_id":"92a377c1-c83e-4ce0-8033-a37f64060b32","system_id":"levelo_inurba_marseille","lat":43.29896,"lon":5.43668,"is_reserved":false,"is_disabled":false,"rental_uris":{"android":"levelo://app?vid=92a377c1-c83e-4ce0-8033-a37f64060b32","ios":"levelo://app?vid=92a377c1-c83e-4ce0-8033-a37f64060b32"},"vehicle_type_id":"4","last_reported":1727716098,"current_range_meters":21600,"station_id":"ce4bhpp2rcd13ifvqhfg","pricing_plan_id":"cebpf4jnsgd1na2vs0mg"},{"bike_id":"52acfaee-0c4e-4269-8191-ad4e04d13771","system_id":"levelo_inurba_marseille","lat":43.28002,"lon":5.4001,"is_reserved":false,"is_disabled":false,"rental_uris":{"android":"levelo://app?vid=52acfaee-0c4e-4269-8191-ad4e04d13771","ios":"levelo://app?vid=52acfaee-0c4e-4269-8191-ad4e04d13771"},"vehicle_type_id":"4","last_reported":1727716098,"current_range_meters":9200,"station_id":"ce4bho92rcd13ifvqh4g","pricing_plan_id":"cebpf4jnsgd1na2vs0mg"},{"bike_id":"bbab186c-d1b9-4838-a391-8d90fe0775f0","system_id":"levelo_inurba_marseille","lat":43.28411,"lon":5.37511,"is_reserved":false,"is_disabled":false,"rental_uris":{"android":"levelo://app?vid=bbab186c-d1b9-4838-a391-8d90fe0775f0","ios":"levelo://app?vid=bbab186c-d1b9-4838-a391-8d90fe0775f0"},"vehicle_type_id":"4","last_reported":1727716098,"current_range_meters":5600,"station_id":"ce4bh412rcd13ifvqds0","pricing_plan_id":"cebpf4jnsgd1na2vs0mg"},{"bike_id":"ea88f175-1253-4005-ab4b-521849ff489d","system_id":"levelo_inurba_marseille","lat":43.32363,"lon":5.38886,"is_reserved":false,"is_disabled":false,"rental_uris":{"android":"levelo://app?vid=ea88f175-1253-4005-ab4b-521849ff489d","ios":"levelo://app?vid=ea88f175-1253-4005-ab4b-521849ff489d"},"vehicle_type_id":"4","last_reported":1727716098,"current_range_meters":27600,"station_id":"ce4bhqp2rcd13ifvqhog","pricing_plan_id":"cebpf4jnsgd1na2vs0mg"},{"bike_id":"8cb3a3f4-4371-424b-8f5f-84d27395a7b8","system_id":"levelo_inurba_marseille","lat":43.31757,"lon":5.39012,"is_reserved":false,"is_disabled":false,"rental_uris":{"android":"levelo://app?vid=8cb3a3f4-4371-424b-8f5f-84d27395a7b8","ios":"levelo://app?vid=8cb3a3f4-4371-424b-8f5f-84d27395a7b8"},"vehicle_type_id":"4","last_reported":1727716098,"current_range_meters":4000,"station_id":"ce4bhqp2rcd13ifvqhng","pricing_plan_id":"cebpf4jnsgd1na2vs0mg"},{"bike_id":"450e1596-6933-4018-9f1e-fd7ede15744b","system_id":"levelo_inurba_marseille","lat":43.29517,"lon":5.39037,"is_reserved":false,"is_disabled":false,"rental_uris":{"android":"levelo://app?vid=450e1596-6933-4018-9f1e-fd7ede15744b","ios":"levelo://app?vid=450e1596-6933-4018-9f1e-fd7ede15744b"},"vehicle_type_id":"4","last_reported":1727716098,"current_range_meters":20800,"station_id":"ce4bh3p2rcd13ifvqdp0","pricing_plan_id":"cebpf4jnsgd1na2vs0mg"},{"bike_id":"fdeac712-73ea-4b70-b5c9-1a1ff7f92ae5","system_id":"levelo_inurba_marseille","lat":43.290527,"lon":5.378035,"is_reserved":false,"is_disabled":false,"rental_uris":{"android":"levelo://app?vid=fdeac712-73ea-4b70-b5c9-1a1ff7f92ae5","ios":"levelo://app?vid=fdeac712-73ea-4b70-b5c9-1a1ff7f92ae5"},"vehicle_type_id":"4","last_reported":1727716098,"current_range_meters":6800,"station_id":"ce4bhap2rcd13ifvqek0","pricing_plan_id":"cebpf4jnsgd1na2vs0mg"},{"bike_id":"c6bafd1a-921f-4ef9-bdbb-c942d1c6d517","system_id":"levelo_inurba_marseille","lat":43.29689,"lon":5.37301,"is_reserved":false,"is_disabled":false,"rental_uris":{"android":"levelo://app?vid=c6bafd1a-921f-4ef9-bdbb-c942d1c6d517","ios":"levelo://app?vid=c6bafd1a-921f-4ef9-bdbb-c942d1c6d517"},"vehicle_type_id":"4","last_reported":1727716098,"current_range_meters":20000,"station_id":"ce4bgk12rcd13ifvqbj0","pricing_plan_id":"cebpf4jnsgd1na2vs0mg"},{"bike_id":"6ba4e6d4-d3d4-4857-90d9-1ca23caca5b5","system_id":"levelo_inurba_marseille","lat":43.29691,"lon":5.37302,"is_reserved":false,"is_disabled":false,"rental_uris":{"android":"levelo://app?vid=6ba4e6d4-d3d4-4857-90d9-1ca23caca5b5","ios":"levelo://app?vid=6ba4e6d4-d3d4-4857-90d9-1ca23caca5b5"},"vehicle_type_id":"4","last_reported":1727716098,"current_range_meters":6400,"station_id":"ce4bgk12rcd13ifvqbj0","pricing_plan_id":"cebpf4jnsgd1na2vs0mg"},{"bike_id":"63c7bd91-e645-4ca6-8742-c44e9ecd5ab7","system_id":"levelo_inurba_marseille","lat":43.28616,"lon":5.35101,"is_reserved":false,"is_disabled":false,"rental_uris":{"android":"levelo://app?vid=63c7bd91-e645-4ca6-8742-c44e9ecd5ab7","ios":"levelo://app?vid=63c7bd91-e645-4ca6-8742-c44e9ecd5ab7"},"vehicle_type_id":"4","last_reported":1727716098,"current_range_meters":11200,"station_id":"ce4bhch2rcd13ifvqeug","pricing_plan_id":"cebpf4jnsgd1na2vs0mg"},{"bike_id":"a11248da-9bfc-4881-b8c4-355d7d0d0737","system_id":"levelo_inurba_marseille","lat":43.29271,"lon":5.40125,"is_reserved":false,"is_disabled":false,"rental_uris":{"android":"levelo://app?vid=a11248da-9bfc-4881-b8c4-355d7d0d0737","ios":"levelo://app?vid=a11248da-9bfc-4881-b8c4-355d7d0d0737"},"vehicle_type_id":"4","last_reported":1727716098,"current_range_meters":38000,"station_id":"ce4bh312rcd13ifvqdk0","pricing_plan_id":"cebpf4jnsgd1na2vs0mg"},{"bike_id":"eb504df2-6eb1-414c-9c40-144091bb266d","system_id":"levelo_inurba_marseille","lat":43.29619,"lon":5.3715,"is_reserved":false,"is_disabled":false,"rental_uris":{"android":"levelo://app?vid=eb504df2-6eb1-414c-9c40-144091bb266d","ios":"levelo://app?vid=eb504df2-6eb1-414c-9c40-144091bb266d"},"vehicle_type_id":"4","last_reported":1727716098,"current_range_meters":18800,"station_id":"ce4bgnh2rcd13ifvqc0g","pricing_plan_id":"cebpf4jnsgd1na2vs0mg"},{"bike_id":"8490e44e-0aff-4d7e-8a96-481d57cd3987","system_id":"levelo_inurba_marseille","lat":43.28529,"lon":5.39151,"is_reserved":false,"is_disabled":false,"rental_uris":{"android":"levelo://app?vid=8490e44e-0aff-4d7e-8a96-481d57cd3987","ios":"levelo://app?vid=8490e44e-0aff-4d7e-8a96-481d57cd3987"},"vehicle_type_id":"4","last_reported":1727716098,"current_range_meters":22800,"station_id":"ce4bh3p2rcd13ifvqdp0","pricing_plan_id":"cebpf4jnsgd1na2vs0mg"},{"bike_id":"65dcc76e-9790-4f4b-a2c2-030038a59057","system_id":"levelo_inurba_marseille","lat":43.28714,"lon":5.3737,"is_reserved":false,"is_disabled":false,"rental_uris":{"android":"levelo://app?vid=65dcc76e-9790-4f4b-a2c2-030038a59057","ios":"levelo://app?vid=65dcc76e-9790-4f4b-a2c2-030038a59057"},"vehicle_type_id":"4","last_reported":1727716098,"current_range_meters":38800,"station_id":"ce4bh3p2rcd13ifvqdq0","pricing_plan_id":"cebpf4jnsgd1na2vs0mg"},{"bike_id":"eebed9c3-e530-4fca-adf9-538f5f3f1ea5","system_id":"levelo_inurba_marseille","lat":43.29228,"lon":5.36067,"is_reserved":false,"is_disabled":false,"rental_uris":{"android":"levelo://app?vid=eebed9c3-e530-4fca-adf9-538f5f3f1ea5","ios":"levelo://app?vid=eebed9c3-e530-4fca-adf9-538f5f3f1ea5"},"vehicle_type_id":"4","last_reported":1727716098,"current_range_meters":6800,"station_id":"ce4bhbh2rcd13ifvqeqg","pricing_plan_id":"cebpf4jnsgd1na2vs0mg"},{"bike_id":"0fff8504-3f60-4f9d-ad7c-ee4b43baa40c","system_id":"levelo_inurba_marseille","lat":43.32169,"lon":5.38099,"is_reserved":false,"is_disabled":false,"rental_uris":{"android":"levelo://app?vid=0fff8504-3f60-4f9d-ad7c-ee4b43baa40c","ios":"levelo://app?vid=0fff8504-3f60-4f9d-ad7c-ee4b43baa40c"},"vehicle_type_id":"4","last_reported":1727716098,"current_range_meters":3200,"station_id":"ce4bhr12rcd13ifvqhqg","pricing_plan_id":"cebpf4jnsgd1na2vs0mg"},{"bike_id":"814ff005-d418-47aa-b7b3-fdcd1fa5a761","system_id":"levelo_inurba_marseille","lat":43.23181,"lon":5.39993,"is_reserved":false,"is_disabled":false,"rental_uris":{"android":"levelo://app?vid=814ff005-d418-47aa-b7b3-fdcd1fa5a761","ios":"levelo://app?vid=814ff005-d418-47aa-b7b3-fdcd1fa5a761"},"vehicle_type_id":"4","last_reported":1727716098,"current_range_meters":33600,"station_id":"ce4bhn12rcd13ifvqgqg","pricing_plan_id":"cebpf4jnsgd1na2vs0mg"},{"bike_id":"f54334eb-2195-4db5-889a-3481da52f9df","system_id":"levelo_inurba_marseille","lat":43.32292,"lon":5.38273,"is_reserved":false,"is_disabled":false,"rental_uris":{"android":"levelo://app?vid=f54334eb-2195-4db5-889a-3481da52f9df","ios":"levelo://app?vid=f54334eb-2195-4db5-889a-3481da52f9df"},"vehicle_type_id":"4","last_reported":1727716098,"current_range_meters":40000,"station_id":"ce4bhr12rcd13ifvqhqg","pricing_plan_id":"cebpf4jnsgd1na2vs0mg"},{"bike_id":"a29c7661-916a-4eff-aa36-c17a379d17b2","system_id":"levelo_inurba_marseille","lat":43.27563,"lon":5.38422,"is_reserved":false,"is_disabled":false,"rental_uris":{"android":"levelo://app?vid=a29c7661-916a-4eff-aa36-c17a379d17b2","ios":"levelo://app?vid=a29c7661-916a-4eff-aa36-c17a379d17b2"},"vehicle_type_id":"4","last_reported":1727716098,"current_range_meters":36800,"station_id":"ce4bhh92rcd13ifvqfi0","pricing_plan_id":"cebpf4jnsgd1na2vs0mg"},{"bike_id":"c0d874a3-bb7c-4378-af83-74e7141e63e6","system_id":"levelo_inurba_marseille","lat":43.34142,"lon":5.40901,"is_reserved":false,"is_disabled":false,"rental_uris":{"android":"levelo://app?vid=c0d874a3-bb7c-4378-af83-74e7141e63e6","ios":"levelo://app?vid=c0d874a3-bb7c-4378-af83-74e7141e63e6"},"vehicle_type_id":"4","last_reported":1727716098,"current_range_meters":6800,"station_id":"ce4bhqh2rcd13ifvqhlg","pricing_plan_id":"cebpf4jnsgd1na2vs0mg"},{"bike_id":"5dfd9658-fa7f-46fc-b68f-ea8f76487a17","system_id":"levelo_inurba_marseille","lat":43.337444,"lon":5.374475,"is_reserved":false,"is_disabled":false,"rental_uris":{"android":"levelo://app?vid=5dfd9658-fa7f-46fc-b68f-ea8f76487a17","ios":"levelo://app?vid=5dfd9658-fa7f-46fc-b68f-ea8f76487a17"},"vehicle_type_id":"4","last_reported":1727716098,"current_range_meters":20800,"station_id":"","pricing_plan_id":"cebpf4jnsgd1na2vs0mg"},{"bike_id":"7498224e-5e57-4a49-a6e8-0180aa338054","system_id":"levelo_inurba_marseille","lat":43.29602,"lon":5.40222,"is_reserved":false,"is_disabled":false,"rental_uris":{"android":"levelo://app?vid=7498224e-5e57-4a49-a6e8-0180aa338054","ios":"levelo://app?vid=7498224e-5e57-4a49-a6e8-0180aa338054"},"vehicle_type_id":"4","last_reported":1727716098,"current_range_meters":10000,"station_id":"","pricing_plan_id":"cebpf4jnsgd1na2vs0mg"},{"bike_id":"eab30390-0c07-449c-a891-cba8bee1096b","system_id":"levelo_inurba_marseille","lat":43.32308,"lon":5.38295,"is_reserved":false,"is_disabled":false,"rental_uris":{"android":"levelo://app?vid=eab30390-0c07-449c-a891-cba8bee1096b","ios":"levelo://app?vid=eab30390-0c07-449c-a891-cba8bee1096b"},"vehicle_type_id":"4","last_reported":1727716098,"current_range_meters":36000,"station_id":"ce4bhr12rcd13ifvqhqg","pricing_plan_id":"cebpf4jnsgd1na2vs0mg"},{"bike_id":"fdef7ae9-ba96-44b0-b95b-7baf90afc649","system_id":"levelo_inurba_marseille","lat":43.23951,"lon":5.36635,"is_reserved":false,"is_disabled":false,"rental_uris":{"android":"levelo://app?vid=fdef7ae9-ba96-44b0-b95b-7baf90afc649","ios":"levelo://app?vid=fdef7ae9-ba96-44b0-b95b-7baf90afc649"},"vehicle_type_id":"4","last_reported":1727716098,"current_range_meters":23200,"station_id":"ce4bhi12rcd13ifvqfp0","pricing_plan_id":"cebpf4jnsgd1na2vs0mg"},{"bike_id":"4c6eb68c-eebf-4ff1-a40e-c244280f2ca4","system_id":"levelo_inurba_marseille","lat":43.28618,"lon":5.35108,"is_reserved":false,"is_disabled":false,"rental_uris":{"android":"levelo://app?vid=4c6eb68c-eebf-4ff1-a40e-c244280f2ca4","ios":"levelo://app?vid=4c6eb68c-eebf-4ff1-a40e-c244280f2ca4"},"vehicle_type_id":"4","last_reported":1727716098,"current_range_meters":27600,"station_id":"ce4bhch2rcd13ifvqeug","pricing_plan_id":"cebpf4jnsgd1na2vs0mg"},{"bike_id":"5fcc83b8-6681-4b2d-afc3-cb692a941ff6","system_id":"levelo_inurba_marseille","lat":43.28897,"lon":5.39488,"is_reserved":false,"is_disabled":false,"rental_uris":{"android":"levelo://app?vid=5fcc83b8-6681-4b2d-afc3-cb692a941ff6","ios":"levelo://app?vid=5fcc83b8-6681-4b2d-afc3-cb692a941ff6"},"vehicle_type_id":"4","last_reported":1727716098,"current_range_meters":17600,"station_id":"ce4bho92rcd13ifvqh3g","pricing_plan_id":"cebpf4jnsgd1na2vs0mg"},{"bike_id":"d3fe515d-a3a0-4ce9-9498-9c49af255f37","system_id":"levelo_inurba_marseille","lat":43.30252,"lon":5.40049,"is_reserved":false,"is_disabled":false,"rental_uris":{"android":"levelo://app?vid=d3fe515d-a3a0-4ce9-9498-9c49af255f37","ios":"levelo://app?vid=d3fe515d-a3a0-4ce9-9498-9c49af255f37"},"vehicle_type_id":"4","last_reported":1727716098,"current_range_meters":30000,"station_id":"ce4bgvh2rcd13ifvqcs0","pricing_plan_id":"cebpf4jnsgd1na2vs0mg"},{"bike_id":"f7e1b5ca-bf6e-483b-ab79-4f2f0a376b66","system_id":"levelo_inurba_marseille","lat":43.32484,"lon":5.36558,"is_reserved":false,"is_disabled":false,"rental_uris":{"android":"levelo://app?vid=f7e1b5ca-bf6e-483b-ab79-4f2f0a376b66","ios":"levelo://app?vid=f7e1b5ca-bf6e-483b-ab79-4f2f0a376b66"},"vehicle_type_id":"4","last_reported":1727716098,"current_range_meters":3200,"station_id":"ce4bhs12rcd13ifvqhvg","pricing_plan_id":"cebpf4jnsgd1na2vs0mg"},{"bike_id":"4d980aa6-70a2-4b6f-9517-d9ed470adbb2","system_id":"levelo_inurba_marseille","lat":43.28416,"lon":5.37517,"is_reserved":false,"is_disabled":false,"rental_uris":{"android":"levelo://app?vid=4d980aa6-70a2-4b6f-9517-d9ed470adbb2","ios":"levelo://app?vid=4d980aa6-70a2-4b6f-9517-d9ed470adbb2"},"vehicle_type_id":"4","last_reported":1727716098,"current_range_meters":38800,"station_id":"ce4bh412rcd13ifvqds0","pricing_plan_id":"cebpf4jnsgd1na2vs0mg"},{"bike_id":"8647b9c7-4c34-4a46-aa3c-6b28c30d4630","system_id":"levelo_inurba_marseille","lat":43.28445,"lon":5.39207,"is_reserved":false,"is_disabled":false,"rental_uris":{"android":"levelo://app?vid=8647b9c7-4c34-4a46-aa3c-6b28c30d4630","ios":"levelo://app?vid=8647b9c7-4c34-4a46-aa3c-6b28c30d4630"},"vehicle_type_id":"4","last_reported":1727716098,"current_range_meters":13600,"station_id":"ce4bhoh2rcd13ifvqh5g","pricing_plan_id":"cebpf4jnsgd1na2vs0mg"},{"bike_id":"ce0a6298-7234-4702-b5b4-87c097f2e621","system_id":"levelo_inurba_marseille","lat":43.22931,"lon":5.35384,"is_reserved":false,"is_disabled":false,"rental_uris":{"android":"levelo://app?vid=ce0a6298-7234-4702-b5b4-87c097f2e621","ios":"levelo://app?vid=ce0a6298-7234-4702-b5b4-87c097f2e621"},"vehicle_type_id":"4","last_reported":1727716098,"current_range_meters":11200,"station_id":"cpo3532slgdg3j2ikp40","pricing_plan_id":"cebpf4jnsgd1na2vs0mg"},{"bike_id":"94a335ac-0965-4655-a8be-f55c15304f15","system_id":"levelo_inurba_marseille","lat":43.31713,"lon":5.37753,"is_reserved":false,"is_disabled":false,"rental_uris":{"android":"levelo://app?vid=94a335ac-0965-4655-a8be-f55c15304f15","ios":"levelo://app?vid=94a335ac-0965-4655-a8be-f55c15304f15"},"vehicle_type_id":"4","last_reported":1727716098,"current_range_meters":10800,"station_id":"ce4bgth2rcd13ifvqch0","pricing_plan_id":"cebpf4jnsgd1na2vs0mg"},{"bike_id":"c3f0bf9b-d3d1-4429-89d4-ffbdb6a62300","system_id":"levelo_inurba_marseille","lat":43.29001,"lon":5.35612,"is_reserved":false,"is_disabled":false,"rental_uris":{"android":"levelo://app?vid=c3f0bf9b-d3d1-4429-89d4-ffbdb6a62300","ios":"levelo://app?vid=c3f0bf9b-d3d1-4429-89d4-ffbdb6a62300"},"vehicle_type_id":"4","last_reported":1727716098,"current_range_meters":8800,"station_id":"ce4bhb92rcd13ifvqen0","pricing_plan_id":"cebpf4jnsgd1na2vs0mg"},{"bike_id":"7fae0be7-c4bb-49ce-a06d-9bee282252b1","system_id":"levelo_inurba_marseille","lat":43.2558,"lon":5.38237,"is_reserved":false,"is_disabled":false,"rental_uris":{"android":"levelo://app?vid=7fae0be7-c4bb-49ce-a06d-9bee282252b1","ios":"levelo://app?vid=7fae0be7-c4bb-49ce-a06d-9bee282252b1"},"vehicle_type_id":"4","last_reported":1727716098,"current_range_meters":39200,"station_id":"ce4bhih2rcd13ifvqfs0","pricing_plan_id":"cebpf4jnsgd1na2vs0mg"},{"bike_id":"5b74d756-8f57-4f91-aab1-4955f8fb385b","system_id":"levelo_inurba_marseille","lat":43.292293,"lon":5.361621,"is_reserved":false,"is_disabled":false,"rental_uris":{"android":"levelo://app?vid=5b74d756-8f57-4f91-aab1-4955f8fb385b","ios":"levelo://app?vid=5b74d756-8f57-4f91-aab1-4955f8fb385b"},"vehicle_type_id":"4","last_reported":1727716098,"current_range_meters":8000,"station_id":"ce4bhbh2rcd13ifvqeqg","pricing_plan_id":"cebpf4jnsgd1na2vs0mg"},{"bike_id":"6d1ca517-0890-4523-8e10-661f5044f8bb","system_id":"levelo_inurba_marseille","lat":43.24802,"lon":5.37452,"is_reserved":false,"is_disabled":false,"rental_uris":{"android":"levelo://app?vid=6d1ca517-0890-4523-8e10-661f5044f8bb","ios":"levelo://app?vid=6d1ca517-0890-4523-8e10-661f5044f8bb"},"vehicle_type_id":"4","last_reported":1727716098,"current_range_meters":9200,"station_id":"ce4bhgh2rcd13ifvqfb0","pricing_plan_id":"cebpf4jnsgd1na2vs0mg"},{"bike_id":"f1ec6049-0ee2-4a74-80b5-75b352be4d3a","system_id":"levelo_inurba_marseille","lat":43.25002,"lon":5.38926,"is_reserved":false,"is_disabled":false,"rental_uris":{"android":"levelo://app?vid=f1ec6049-0ee2-4a74-80b5-75b352be4d3a","ios":"levelo://app?vid=f1ec6049-0ee2-4a74-80b5-75b352be4d3a"},"vehicle_type_id":"4","last_reported":1727716098,"current_range_meters":30800,"station_id":"ce4bhgp2rcd13ifvqfd0","pricing_plan_id":"cebpf4jnsgd1na2vs0mg"},{"bike_id":"1faa11e0-9c2f-451b-b4d4-46a466604688","system_id":"levelo_inurba_marseille","lat":43.28081,"lon":5.39663,"is_reserved":false,"is_disabled":false,"rental_uris":{"android":"levelo://app?vid=1faa11e0-9c2f-451b-b4d4-46a466604688","ios":"levelo://app?vid=1faa11e0-9c2f-451b-b4d4-46a466604688"},"vehicle_type_id":"4","last_reported":1727716098,"current_range_meters":9200,"station_id":"ce4bho12rcd13ifvqh2g","pricing_plan_id":"cebpf4jnsgd1na2vs0mg"},{"bike_id":"dd0d07aa-ce67-4042-939a-4adf53e51ce0","system_id":"levelo_inurba_marseille","lat":43.29002,"lon":5.35614,"is_reserved":false,"is_disabled":false,"rental_uris":{"android":"levelo://app?vid=dd0d07aa-ce67-4042-939a-4adf53e51ce0","ios":"levelo://app?vid=dd0d07aa-ce67-4042-939a-4adf53e51ce0"},"vehicle_type_id":"4","last_reported":1727716098,"current_range_meters":4800,"station_id":"ce4bhb92rcd13ifvqen0","pricing_plan_id":"cebpf4jnsgd1na2vs0mg"},{"bike_id":"42c053ea-91a3-4822-b6a3-faa8a852c955","system_id":"levelo_inurba_marseille","lat":43.29081,"lon":5.37169,"is_reserved":false,"is_disabled":false,"rental_uris":{"android":"levelo://app?vid=42c053ea-91a3-4822-b6a3-faa8a852c955","ios":"levelo://app?vid=42c053ea-91a3-4822-b6a3-faa8a852c955"},"vehicle_type_id":"4","last_reported":1727716098,"current_range_meters":39200,"station_id":"ce4bh5p2rcd13ifvqe4g","pricing_plan_id":"cebpf4jnsgd1na2vs0mg"},{"bike_id":"64d96b78-fd08-49b3-8c86-064e10657112","system_id":"levelo_inurba_marseille","lat":43.30807,"lon":5.43518,"is_reserved":false,"is_disabled":false,"rental_uris":{"android":"levelo://app?vid=64d96b78-fd08-49b3-8c86-064e10657112","ios":"levelo://app?vid=64d96b78-fd08-49b3-8c86-064e10657112"},"vehicle_type_id":"4","last_reported":1727716098,"current_range_meters":6000,"station_id":"ce4bhph2rcd13ifvqheg","pricing_plan_id":"cebpf4jnsgd1na2vs0mg"},{"bike_id":"f6a17653-60fe-4905-8fcc-171ea7153dd8","system_id":"levelo_inurba_marseille","lat":43.337444,"lon":5.374475,"is_reserved":false,"is_disabled":false,"rental_uris":{"android":"levelo://app?vid=f6a17653-60fe-4905-8fcc-171ea7153dd8","ios":"levelo://app?vid=f6a17653-60fe-4905-8fcc-171ea7153dd8"},"vehicle_type_id":"4","last_reported":1727716098,"current_range_meters":35200,"station_id":"","pricing_plan_id":"cebpf4jnsgd1na2vs0mg"},{"bike_id":"79e3b807-678c-4e9f-bcb7-05c9cb3c6740","system_id":"levelo_inurba_marseille","lat":43.32266,"lon":5.38284,"is_reserved":false,"is_disabled":false,"rental_uris":{"android":"levelo://app?vid=79e3b807-678c-4e9f-bcb7-05c9cb3c6740","ios":"levelo://app?vid=79e3b807-678c-4e9f-bcb7-05c9cb3c6740"},"vehicle_type_id":"4","last_reported":1727716098,"current_range_meters":6000,"station_id":"ce4bhr12rcd13ifvqhqg","pricing_plan_id":"cebpf4jnsgd1na2vs0mg"},{"bike_id":"37ee78ef-1fa9-40e4-bc02-684f7ec5cde5","system_id":"levelo_inurba_marseille","lat":43.29566,"lon":5.42299,"is_reserved":false,"is_disabled":false,"rental_uris":{"android":"levelo://app?vid=37ee78ef-1fa9-40e4-bc02-684f7ec5cde5","ios":"levelo://app?vid=37ee78ef-1fa9-40e4-bc02-684f7ec5cde5"},"vehicle_type_id":"4","last_reported":1727716098,"current_range_meters":22800,"station_id":"ce4bhph2rcd13ifvqhdg","pricing_plan_id":"cebpf4jnsgd1na2vs0mg"},{"bike_id":"28e23b31-a1de-43a5-aa85-c15becbae179","system_id":"levelo_inurba_marseille","lat":43.32292,"lon":5.38274,"is_reserved":false,"is_disabled":false,"rental_uris":{"android":"levelo://app?vid=28e23b31-a1de-43a5-aa85-c15becbae179","ios":"levelo://app?vid=28e23b31-a1de-43a5-aa85-c15becbae179"},"vehicle_type_id":"4","last_reported":1727716098,"current_range_meters":25600,"station_id":"ce4bhr12rcd13ifvqhqg","pricing_plan_id":"cebpf4jnsgd1na2vs0mg"},{"bike_id":"aabb8170-0444-49d1-9d45-4a822cd98d80","system_id":"levelo_inurba_marseille","lat":43.28615,"lon":5.35106,"is_reserved":false,"is_disabled":false,"rental_uris":{"android":"levelo://app?vid=aabb8170-0444-49d1-9d45-4a822cd98d80","ios":"levelo://app?vid=aabb8170-0444-49d1-9d45-4a822cd98d80"},"vehicle_type_id":"4","last_reported":1727716098,"current_range_meters":37600,"station_id":"ce4bhch2rcd13ifvqeug","pricing_plan_id":"cebpf4jnsgd1na2vs0mg"},{"bike_id":"d69a4f63-e38d-4bf2-825a-49eb1ac77e5b","system_id":"levelo_inurba_marseille","lat":43.2928,"lon":5.40119,"is_reserved":false,"is_disabled":false,"rental_uris":{"android":"levelo://app?vid=d69a4f63-e38d-4bf2-825a-49eb1ac77e5b","ios":"levelo://app?vid=d69a4f63-e38d-4bf2-825a-49eb1ac77e5b"},"vehicle_type_id":"4","last_reported":1727716098,"current_range_meters":30000,"station_id":"","pricing_plan_id":"cebpf4jnsgd1na2vs0mg"},{"bike_id":"3835e276-a347-4d68-916b-b153ffcf8e48","system_id":"levelo_inurba_marseille","lat":43.31757,"lon":5.39021,"is_reserved":false,"is_disabled":false,"rental_uris":{"android":"levelo://app?vid=3835e276-a347-4d68-916b-b153ffcf8e48","ios":"levelo://app?vid=3835e276-a347-4d68-916b-b153ffcf8e48"},"vehicle_type_id":"4","last_reported":1727716098,"current_range_meters":16800,"station_id":"ce4bhqp2rcd13ifvqhng","pricing_plan_id":"cebpf4jnsgd1na2vs0mg"},{"bike_id":"72acd660-e3cc-468f-950d-edc66c5e5fe6","system_id":"levelo_inurba_marseille","lat":43.30293,"lon":5.36885,"is_reserved":false,"is_disabled":false,"rental_uris":{"android":"levelo://app?vid=72acd660-e3cc-468f-950d-edc66c5e5fe6","ios":"levelo://app?vid=72acd660-e3cc-468f-950d-edc66c5e5fe6"},"vehicle_type_id":"4","last_reported":1727716098,"current_range_meters":12800,"station_id":"ce4bgqh2rcd13ifvqc5g","pricing_plan_id":"cebpf4jnsgd1na2vs0mg"},{"bike_id":"3f54d858-b90e-4631-8b26-cad747cb9c07","system_id":"levelo_inurba_marseille","lat":43.29013,"lon":5.35619,"is_reserved":false,"is_disabled":false,"rental_uris":{"android":"levelo://app?vid=3f54d858-b90e-4631-8b26-cad747cb9c07","ios":"levelo://app?vid=3f54d858-b90e-4631-8b26-cad747cb9c07"},"vehicle_type_id":"4","last_reported":1727716098,"current_range_meters":16400,"station_id":"ce4bhb92rcd13ifvqen0","pricing_plan_id":"cebpf4jnsgd1na2vs0mg"},{"bike_id":"629d7874-0c24-4115-897a-eaff9b7b0832","system_id":"levelo_inurba_marseille","lat":43.246708,"lon":5.381714,"is_reserved":false,"is_disabled":false,"rental_uris":{"android":"levelo://app?vid=629d7874-0c24-4115-897a-eaff9b7b0832","ios":"levelo://app?vid=629d7874-0c24-4115-897a-eaff9b7b0832"},"vehicle_type_id":"4","last_reported":1727716098,"current_range_meters":33600,"station_id":"ce4bhih2rcd13ifvqfr0","pricing_plan_id":"cebpf4jnsgd1na2vs0mg"},{"bike_id":"0b006749-f8ff-4766-970b-b44610fc8abb","system_id":"levelo_inurba_marseille","lat":43.29792,"lon":5.39351,"is_reserved":false,"is_disabled":false,"rental_uris":{"android":"levelo://app?vid=0b006749-f8ff-4766-970b-b44610fc8abb","ios":"levelo://app?vid=0b006749-f8ff-4766-970b-b44610fc8abb"},"vehicle_type_id":"4","last_reported":1727716098,"current_range_meters":38800,"station_id":"chh1huq6cuj3fo74tm60","pricing_plan_id":"cebpf4jnsgd1na2vs0mg"},{"bike_id":"7e9f0e62-f3a1-4e36-8080-768496cac4f3","system_id":"levelo_inurba_marseille","lat":43.23183,"lon":5.39987,"is_reserved":false,"is_disabled":false,"rental_uris":{"android":"levelo://app?vid=7e9f0e62-f3a1-4e36-8080-768496cac4f3","ios":"levelo://app?vid=7e9f0e62-f3a1-4e36-8080-768496cac4f3"},"vehicle_type_id":"4","last_reported":1727716098,"current_range_meters":25600,"station_id":"ce4bhn12rcd13ifvqgqg","pricing_plan_id":"cebpf4jnsgd1na2vs0mg"},{"bike_id":"40d4ac73-415f-48be-b06a-ece2db9ca0bf","system_id":"levelo_inurba_marseille","lat":43.29535,"lon":5.38592,"is_reserved":false,"is_disabled":false,"rental_uris":{"android":"levelo://app?vid=40d4ac73-415f-48be-b06a-ece2db9ca0bf","ios":"levelo://app?vid=40d4ac73-415f-48be-b06a-ece2db9ca0bf"},"vehicle_type_id":"4","last_reported":1727716098,"current_range_meters":22800,"station_id":"ce4bgih2rcd13ifvqba0","pricing_plan_id":"cebpf4jnsgd1na2vs0mg"},{"bike_id":"9cfa0e05-98f3-4da3-874b-da50d031cf86","system_id":"levelo_inurba_marseille","lat":43.28595,"lon":5.350914,"is_reserved":false,"is_disabled":false,"rental_uris":{"android":"levelo://app?vid=9cfa0e05-98f3-4da3-874b-da50d031cf86","ios":"levelo://app?vid=9cfa0e05-98f3-4da3-874b-da50d031cf86"},"vehicle_type_id":"4","last_reported":1727716098,"current_range_meters":24400,"station_id":"ce4bhch2rcd13ifvqeug","pricing_plan_id":"cebpf4jnsgd1na2vs0mg"},{"bike_id":"bbb23734-6aed-4ea8-8851-f38712ae567b","system_id":"levelo_inurba_marseille","lat":43.32418,"lon":5.38965,"is_reserved":false,"is_disabled":false,"rental_uris":{"android":"levelo://app?vid=bbb23734-6aed-4ea8-8851-f38712ae567b","ios":"levelo://app?vid=bbb23734-6aed-4ea8-8851-f38712ae567b"},"vehicle_type_id":"4","last_reported":1727716098,"current_range_meters":24800,"station_id":"","pricing_plan_id":"cebpf4jnsgd1na2vs0mg"},{"bike_id":"6dae28c5-2fdd-49f7-91ba-85d274c3f720","system_id":"levelo_inurba_marseille","lat":43.29226,"lon":5.36068,"is_reserved":false,"is_disabled":false,"rental_uris":{"android":"levelo://app?vid=6dae28c5-2fdd-49f7-91ba-85d274c3f720","ios":"levelo://app?vid=6dae28c5-2fdd-49f7-91ba-85d274c3f720"},"vehicle_type_id":"4","last_reported":1727716098,"current_range_meters":8800,"station_id":"ce4bhbh2rcd13ifvqeqg","pricing_plan_id":"cebpf4jnsgd1na2vs0mg"},{"bike_id":"bc002069-df6c-401b-a2d2-5dd847f7e96d","system_id":"levelo_inurba_marseille","lat":43.29272,"lon":5.38438,"is_reserved":false,"is_disabled":false,"rental_uris":{"android":"levelo://app?vid=bc002069-df6c-401b-a2d2-5dd847f7e96d","ios":"levelo://app?vid=bc002069-df6c-401b-a2d2-5dd847f7e96d"},"vehicle_type_id":"4","last_reported":1727716098,"current_range_meters":17200,"station_id":"ce4bh692rcd13ifvqea0","pricing_plan_id":"cebpf4jnsgd1na2vs0mg"},{"bike_id":"5e4bd3b0-d4ff-4532-b67a-304241dfdca3","system_id":"levelo_inurba_marseille","lat":43.29005,"lon":5.35614,"is_reserved":false,"is_disabled":false,"rental_uris":{"android":"levelo://app?vid=5e4bd3b0-d4ff-4532-b67a-304241dfdca3","ios":"levelo://app?vid=5e4bd3b0-d4ff-4532-b67a-304241dfdca3"},"vehicle_type_id":"4","last_reported":1727716098,"current_range_meters":38800,"station_id":"ce4bhb92rcd13ifvqen0","pricing_plan_id":"cebpf4jnsgd1na2vs0mg"},{"bike_id":"788c5a1f-60dd-43b9-bb47-d14a99ff49ae","system_id":"levelo_inurba_marseille","lat":43.29418,"lon":5.38623,"is_reserved":false,"is_disabled":false,"rental_uris":{"android":"levelo://app?vid=788c5a1f-60dd-43b9-bb47-d14a99ff49ae","ios":"levelo://app?vid=788c5a1f-60dd-43b9-bb47-d14a99ff49ae"},"vehicle_type_id":"4","last_reported":1727716098,"current_range_meters":25200,"station_id":"ce4bh2h2rcd13ifvqdh0","pricing_plan_id":"cebpf4jnsgd1na2vs0mg"},{"bike_id":"26f9ab25-50bf-4698-9695-2ff2fbd07232","system_id":"levelo_inurba_marseille","lat":43.31718,"lon":5.42397,"is_reserved":false,"is_disabled":false,"rental_uris":{"android":"levelo://app?vid=26f9ab25-50bf-4698-9695-2ff2fbd07232","ios":"levelo://app?vid=26f9ab25-50bf-4698-9695-2ff2fbd07232"},"vehicle_type_id":"4","last_reported":1727716098,"current_range_meters":6000,"station_id":"ce4bhp92rcd13ifvqhbg","pricing_plan_id":"cebpf4jnsgd1na2vs0mg"},{"bike_id":"c64da153-a562-4f86-9f35-286156edb213","system_id":"levelo_inurba_marseille","lat":43.32371,"lon":5.38865,"is_reserved":false,"is_disabled":false,"rental_uris":{"android":"levelo://app?vid=c64da153-a562-4f86-9f35-286156edb213","ios":"levelo://app?vid=c64da153-a562-4f86-9f35-286156edb213"},"vehicle_type_id":"4","last_reported":1727716098,"current_range_meters":16000,"station_id":"ce4bhqp2rcd13ifvqhog","pricing_plan_id":"cebpf4jnsgd1na2vs0mg"},{"bike_id":"0b4fe84f-a5da-4b91-909c-e3129348e719","system_id":"levelo_inurba_marseille","lat":43.28442,"lon":5.39208,"is_reserved":false,"is_disabled":false,"rental_uris":{"android":"levelo://app?vid=0b4fe84f-a5da-4b91-909c-e3129348e719","ios":"levelo://app?vid=0b4fe84f-a5da-4b91-909c-e3129348e719"},"vehicle_type_id":"4","last_reported":1727716098,"current_range_meters":31200,"station_id":"ce4bhoh2rcd13ifvqh5g","pricing_plan_id":"cebpf4jnsgd1na2vs0mg"},{"bike_id":"aca94ef0-3a6a-4753-8a66-749a64ff86a3","system_id":"levelo_inurba_marseille","lat":43.3153,"lon":5.38028,"is_reserved":false,"is_disabled":false,"rental_uris":{"android":"levelo://app?vid=aca94ef0-3a6a-4753-8a66-749a64ff86a3","ios":"levelo://app?vid=aca94ef0-3a6a-4753-8a66-749a64ff86a3"},"vehicle_type_id":"4","last_reported":1727716098,"current_range_meters":9200,"station_id":"ce4bhsp2rcd13ifvqi50","pricing_plan_id":"cebpf4jnsgd1na2vs0mg"},{"bike_id":"08ae673a-994f-42ca-be9b-401c162e6133","system_id":"levelo_inurba_marseille","lat":43.28619,"lon":5.35095,"is_reserved":false,"is_disabled":false,"rental_uris":{"android":"levelo://app?vid=08ae673a-994f-42ca-be9b-401c162e6133","ios":"levelo://app?vid=08ae673a-994f-42ca-be9b-401c162e6133"},"vehicle_type_id":"4","last_reported":1727716098,"current_range_meters":8800,"station_id":"ce4bhch2rcd13ifvqeug","pricing_plan_id":"cebpf4jnsgd1na2vs0mg"},{"bike_id":"0b897fcf-6db0-4c9e-ac24-f3f5ee3320ce","system_id":"levelo_inurba_marseille","lat":43.23969,"lon":5.36631,"is_reserved":false,"is_disabled":false,"rental_uris":{"android":"levelo://app?vid=0b897fcf-6db0-4c9e-ac24-f3f5ee3320ce","ios":"levelo://app?vid=0b897fcf-6db0-4c9e-ac24-f3f5ee3320ce"},"vehicle_type_id":"4","last_reported":1727716098,"current_range_meters":16400,"station_id":"ce4bhi12rcd13ifvqfp0","pricing_plan_id":"cebpf4jnsgd1na2vs0mg"},{"bike_id":"6c58f61c-d7d0-471a-af4c-033e5e2c9121","system_id":"levelo_inurba_marseille","lat":43.29413,"lon":5.38628,"is_reserved":false,"is_disabled":false,"rental_uris":{"android":"levelo://app?vid=6c58f61c-d7d0-471a-af4c-033e5e2c9121","ios":"levelo://app?vid=6c58f61c-d7d0-471a-af4c-033e5e2c9121"},"vehicle_type_id":"4","last_reported":1727716098,"current_range_meters":39200,"station_id":"ce4bh2h2rcd13ifvqdh0","pricing_plan_id":"cebpf4jnsgd1na2vs0mg"},{"bike_id":"a3fb2098-a3d1-439d-95b9-6e4364eb59ec","system_id":"levelo_inurba_marseille","lat":43.24493,"lon":5.37837,"is_reserved":false,"is_disabled":false,"rental_uris":{"android":"levelo://app?vid=a3fb2098-a3d1-439d-95b9-6e4364eb59ec","ios":"levelo://app?vid=a3fb2098-a3d1-439d-95b9-6e4364eb59ec"},"vehicle_type_id":"4","last_reported":1727716098,"current_range_meters":15200,"station_id":"","pricing_plan_id":"cebpf4jnsgd1na2vs0mg"},{"bike_id":"fb56f2d7-c41e-494b-82be-04121b026e2c","system_id":"levelo_inurba_marseille","lat":43.2694,"lon":5.40257,"is_reserved":false,"is_disabled":false,"rental_uris":{"android":"levelo://app?vid=fb56f2d7-c41e-494b-82be-04121b026e2c","ios":"levelo://app?vid=fb56f2d7-c41e-494b-82be-04121b026e2c"},"vehicle_type_id":"4","last_reported":1727716098,"current_range_meters":38000,"station_id":"cjm6bp8fraef2m0cb0m0","pricing_plan_id":"cebpf4jnsgd1na2vs0mg"},{"bike_id":"3ab1a6f0-41f3-4928-8811-69d62c27ea54","system_id":"levelo_inurba_marseille","lat":43.29039,"lon":5.35925,"is_reserved":false,"is_disabled":false,"rental_uris":{"android":"levelo://app?vid=3ab1a6f0-41f3-4928-8811-69d62c27ea54","ios":"levelo://app?vid=3ab1a6f0-41f3-4928-8811-69d62c27ea54"},"vehicle_type_id":"4","last_reported":1727716098,"current_range_meters":30800,"station_id":"ce4bha92rcd13ifvqeg0","pricing_plan_id":"cebpf4jnsgd1na2vs0mg"},{"bike_id":"c4a9b464-4926-4b7c-b8ad-3831bdfb6cc5","system_id":"levelo_inurba_marseille","lat":43.32289,"lon":5.38272,"is_reserved":false,"is_disabled":false,"rental_uris":{"android":"levelo://app?vid=c4a9b464-4926-4b7c-b8ad-3831bdfb6cc5","ios":"levelo://app?vid=c4a9b464-4926-4b7c-b8ad-3831bdfb6cc5"},"vehicle_type_id":"4","last_reported":1727716098,"current_range_meters":22000,"station_id":"ce4bhr12rcd13ifvqhqg","pricing_plan_id":"cebpf4jnsgd1na2vs0mg"},{"bike_id":"3f82c9dd-09b4-4366-a263-9e4cd67d7ca0","system_id":"levelo_inurba_marseille","lat":43.29227,"lon":5.36064,"is_reserved":false,"is_disabled":false,"rental_uris":{"android":"levelo://app?vid=3f82c9dd-09b4-4366-a263-9e4cd67d7ca0","ios":"levelo://app?vid=3f82c9dd-09b4-4366-a263-9e4cd67d7ca0"},"vehicle_type_id":"4","last_reported":1727716098,"current_range_meters":38400,"station_id":"ce4bhbh2rcd13ifvqeqg","pricing_plan_id":"cebpf4jnsgd1na2vs0mg"},{"bike_id":"31c269bf-b28e-42e1-b278-5123539ba868","system_id":"levelo_inurba_marseille","lat":43.29793,"lon":5.40404,"is_reserved":false,"is_disabled":false,"rental_uris":{"android":"levelo://app?vid=31c269bf-b28e-42e1-b278-5123539ba868","ios":"levelo://app?vid=31c269bf-b28e-42e1-b278-5123539ba868"},"vehicle_type_id":"4","last_reported":1727716098,"current_range_meters":6400,"station_id":"ce4bh112rcd13ifvqd90","pricing_plan_id":"cebpf4jnsgd1na2vs0mg"},{"bike_id":"d6b8d43c-2c9b-4207-a13b-9aca5d35203a","system_id":"levelo_inurba_marseille","lat":43.32292,"lon":5.38267,"is_reserved":false,"is_disabled":false,"rental_uris":{"android":"levelo://app?vid=d6b8d43c-2c9b-4207-a13b-9aca5d35203a","ios":"levelo://app?vid=d6b8d43c-2c9b-4207-a13b-9aca5d35203a"},"vehicle_type_id":"4","last_reported":1727716098,"current_range_meters":27200,"station_id":"ce4bhr12rcd13ifvqhqg","pricing_plan_id":"cebpf4jnsgd1na2vs0mg"},{"bike_id":"23ae8e0b-85b9-4e45-9948-a0f5b8116df8","system_id":"levelo_inurba_marseille","lat":43.32368,"lon":5.38883,"is_reserved":false,"is_disabled":false,"rental_uris":{"android":"levelo://app?vid=23ae8e0b-85b9-4e45-9948-a0f5b8116df8","ios":"levelo://app?vid=23ae8e0b-85b9-4e45-9948-a0f5b8116df8"},"vehicle_type_id":"4","last_reported":1727716098,"current_range_meters":31200,"station_id":"ce4bhqp2rcd13ifvqhog","pricing_plan_id":"cebpf4jnsgd1na2vs0mg"},{"bike_id":"22ae09b8-0c36-423d-9890-1c63f73addde","system_id":"levelo_inurba_marseille","lat":43.28618,"lon":5.351,"is_reserved":false,"is_disabled":false,"rental_uris":{"android":"levelo://app?vid=22ae09b8-0c36-423d-9890-1c63f73addde","ios":"levelo://app?vid=22ae09b8-0c36-423d-9890-1c63f73addde"},"vehicle_type_id":"4","last_reported":1727716098,"current_range_meters":38800,"station_id":"ce4bhch2rcd13ifvqeug","pricing_plan_id":"cebpf4jnsgd1na2vs0mg"},{"bike_id":"5db25cea-6b18-4c2a-8942-58b5236b1081","system_id":"levelo_inurba_marseille","lat":43.2952,"lon":5.390308,"is_reserved":false,"is_disabled":false,"rental_uris":{"android":"levelo://app?vid=5db25cea-6b18-4c2a-8942-58b5236b1081","ios":"levelo://app?vid=5db25cea-6b18-4c2a-8942-58b5236b1081"},"vehicle_type_id":"4","last_reported":1727716098,"current_range_meters":19600,"station_id":"ce4bh3p2rcd13ifvqdp0","pricing_plan_id":"cebpf4jnsgd1na2vs0mg"},{"bike_id":"7961b8c1-7b28-4346-835b-27167053072e","system_id":"levelo_inurba_marseille","lat":43.28615,"lon":5.35105,"is_reserved":false,"is_disabled":false,"rental_uris":{"android":"levelo://app?vid=7961b8c1-7b28-4346-835b-27167053072e","ios":"levelo://app?vid=7961b8c1-7b28-4346-835b-27167053072e"},"vehicle_type_id":"4","last_reported":1727716098,"current_range_meters":35200,"station_id":"ce4bhch2rcd13ifvqeug","pricing_plan_id":"cebpf4jnsgd1na2vs0mg"},{"bike_id":"ac3c6b88-0238-493b-a765-8c86b816297d","system_id":"levelo_inurba_marseille","lat":43.25497,"lon":5.37655,"is_reserved":false,"is_disabled":false,"rental_uris":{"android":"levelo://app?vid=ac3c6b88-0238-493b-a765-8c86b816297d","ios":"levelo://app?vid=ac3c6b88-0238-493b-a765-8c86b816297d"},"vehicle_type_id":"4","last_reported":1727716098,"current_range_meters":30000,"station_id":"ce4bhh12rcd13ifvqff0","pricing_plan_id":"cebpf4jnsgd1na2vs0mg"},{"bike_id":"8672db8f-56de-4036-b849-065c54b07ad9","system_id":"levelo_inurba_marseille","lat":43.32658,"lon":5.40993,"is_reserved":false,"is_disabled":false,"rental_uris":{"android":"levelo://app?vid=8672db8f-56de-4036-b849-065c54b07ad9","ios":"levelo://app?vid=8672db8f-56de-4036-b849-065c54b07ad9"},"vehicle_type_id":"4","last_reported":1727716098,"current_range_meters":3600,"station_id":"ce4bhpp2rcd13ifvqhgg","pricing_plan_id":"cebpf4jnsgd1na2vs0mg"},{"bike_id":"94c43ad6-69d9-4506-8dd3-7fbad0f3d4b4","system_id":"levelo_inurba_marseille","lat":43.30464,"lon":5.37898,"is_reserved":false,"is_disabled":false,"rental_uris":{"android":"levelo://app?vid=94c43ad6-69d9-4506-8dd3-7fbad0f3d4b4","ios":"levelo://app?vid=94c43ad6-69d9-4506-8dd3-7fbad0f3d4b4"},"vehicle_type_id":"4","last_reported":1727716098,"current_range_meters":19600,"station_id":"ce4bgup2rcd13ifvqcn0","pricing_plan_id":"cebpf4jnsgd1na2vs0mg"},{"bike_id":"145041c7-adbf-40f3-9343-a07a350baa17","system_id":"levelo_inurba_marseille","lat":43.3088,"lon":5.37313,"is_reserved":false,"is_disabled":false,"rental_uris":{"android":"levelo://app?vid=145041c7-adbf-40f3-9343-a07a350baa17","ios":"levelo://app?vid=145041c7-adbf-40f3-9343-a07a350baa17"},"vehicle_type_id":"4","last_reported":1727716098,"current_range_meters":38800,"station_id":"ce4bguh2rcd13ifvqckg","pricing_plan_id":"cebpf4jnsgd1na2vs0mg"},{"bike_id":"e0ec798c-1a2e-4db9-a8f7-cd88ce7c2e7b","system_id":"levelo_inurba_marseille","lat":43.30356,"lon":5.4188,"is_reserved":false,"is_disabled":false,"rental_uris":{"android":"levelo://app?vid=e0ec798c-1a2e-4db9-a8f7-cd88ce7c2e7b","ios":"levelo://app?vid=e0ec798c-1a2e-4db9-a8f7-cd88ce7c2e7b"},"vehicle_type_id":"4","last_reported":1727716098,"current_range_meters":38400,"station_id":"ce4bhop2rcd13ifvqh7g","pricing_plan_id":"cebpf4jnsgd1na2vs0mg"},{"bike_id":"8ad3f409-6073-4917-9d27-a898264dd169","system_id":"levelo_inurba_marseille","lat":43.305176,"lon":5.37309,"is_reserved":false,"is_disabled":false,"rental_uris":{"android":"levelo://app?vid=8ad3f409-6073-4917-9d27-a898264dd169","ios":"levelo://app?vid=8ad3f409-6073-4917-9d27-a898264dd169"},"vehicle_type_id":"4","last_reported":1727716098,"current_range_meters":38000,"station_id":"ce4bgqh2rcd13ifvqc4g","pricing_plan_id":"cebpf4jnsgd1na2vs0mg"},{"bike_id":"4ac795be-d3e9-4ef0-ac76-e070ac98b2db","system_id":"levelo_inurba_marseille","lat":43.30146,"lon":5.38085,"is_reserved":false,"is_disabled":false,"rental_uris":{"android":"levelo://app?vid=4ac795be-d3e9-4ef0-ac76-e070ac98b2db","ios":"levelo://app?vid=4ac795be-d3e9-4ef0-ac76-e070ac98b2db"},"vehicle_type_id":"4","last_reported":1727716098,"current_range_meters":38800,"station_id":"ce4bgjp2rcd13ifvqbh0","pricing_plan_id":"cebpf4jnsgd1na2vs0mg"},{"bike_id":"b8d7f790-4682-4ada-819b-b5a08467ab0e","system_id":"levelo_inurba_marseille","lat":43.30921,"lon":5.40144,"is_reserved":false,"is_disabled":false,"rental_uris":{"android":"levelo://app?vid=b8d7f790-4682-4ada-819b-b5a08467ab0e","ios":"levelo://app?vid=b8d7f790-4682-4ada-819b-b5a08467ab0e"},"vehicle_type_id":"4","last_reported":1727716098,"current_range_meters":32400,"station_id":"ce4bgvp2rcd13ifvqct0","pricing_plan_id":"cebpf4jnsgd1na2vs0mg"},{"bike_id":"2ec9372a-6590-484f-bbb0-ee2fa9c092da","system_id":"levelo_inurba_marseille","lat":43.29229,"lon":5.36069,"is_reserved":false,"is_disabled":false,"rental_uris":{"android":"levelo://app?vid=2ec9372a-6590-484f-bbb0-ee2fa9c092da","ios":"levelo://app?vid=2ec9372a-6590-484f-bbb0-ee2fa9c092da"},"vehicle_type_id":"4","last_reported":1727716098,"current_range_meters":4000,"station_id":"ce4bhbh2rcd13ifvqeqg","pricing_plan_id":"cebpf4jnsgd1na2vs0mg"},{"bike_id":"464d97a4-9185-44d1-a6ac-86b73bd26941","system_id":"levelo_inurba_marseille","lat":43.30319,"lon":5.36904,"is_reserved":false,"is_disabled":false,"rental_uris":{"android":"levelo://app?vid=464d97a4-9185-44d1-a6ac-86b73bd26941","ios":"levelo://app?vid=464d97a4-9185-44d1-a6ac-86b73bd26941"},"vehicle_type_id":"4","last_reported":1727716098,"current_range_meters":38800,"station_id":"ce4bgqh2rcd13ifvqc5g","pricing_plan_id":"cebpf4jnsgd1na2vs0mg"},{"bike_id":"b105b28a-1529-4ab2-9200-ebcf055455c1","system_id":"levelo_inurba_marseille","lat":43.27198,"lon":5.39171,"is_reserved":false,"is_disabled":false,"rental_uris":{"android":"levelo://app?vid=b105b28a-1529-4ab2-9200-ebcf055455c1","ios":"levelo://app?vid=b105b28a-1529-4ab2-9200-ebcf055455c1"},"vehicle_type_id":"4","last_reported":1727716098,"current_range_meters":38000,"station_id":"ce4bhhp2rcd13ifvqfm0","pricing_plan_id":"cebpf4jnsgd1na2vs0mg"},{"bike_id":"0cc4ee8c-4c5e-41dd-ba57-9e837ff02815","system_id":"levelo_inurba_marseille","lat":43.2902,"lon":5.38646,"is_reserved":false,"is_disabled":false,"rental_uris":{"android":"levelo://app?vid=0cc4ee8c-4c5e-41dd-ba57-9e837ff02815","ios":"levelo://app?vid=0cc4ee8c-4c5e-41dd-ba57-9e837ff02815"},"vehicle_type_id":"4","last_reported":1727716098,"current_range_meters":18000,"station_id":"ce4bh4p2rcd13ifvqe0g","pricing_plan_id":"cebpf4jnsgd1na2vs0mg"},{"bike_id":"c0d345d4-6ed1-40aa-8499-3dda86278801","system_id":"levelo_inurba_marseille","lat":43.28707,"lon":5.37954,"is_reserved":false,"is_disabled":false,"rental_uris":{"android":"levelo://app?vid=c0d345d4-6ed1-40aa-8499-3dda86278801","ios":"levelo://app?vid=c0d345d4-6ed1-40aa-8499-3dda86278801"},"vehicle_type_id":"4","last_reported":1727716098,"current_range_meters":24400,"station_id":"ce4bh9p2rcd13ifvqec0","pricing_plan_id":"cebpf4jnsgd1na2vs0mg"},{"bike_id":"6a1f8818-8290-43b8-ad0a-adb854b97c7d","system_id":"levelo_inurba_marseille","lat":43.30089,"lon":5.39087,"is_reserved":false,"is_disabled":false,"rental_uris":{"android":"levelo://app?vid=6a1f8818-8290-43b8-ad0a-adb854b97c7d","ios":"levelo://app?vid=6a1f8818-8290-43b8-ad0a-adb854b97c7d"},"vehicle_type_id":"4","last_reported":1727716098,"current_range_meters":13600,"station_id":"ce4bh192rcd13ifvqdb0","pricing_plan_id":"cebpf4jnsgd1na2vs0mg"},{"bike_id":"c999d287-fb6a-49ce-bf87-9473a2d5b293","system_id":"levelo_inurba_marseille","lat":43.32293,"lon":5.38273,"is_reserved":false,"is_disabled":false,"rental_uris":{"android":"levelo://app?vid=c999d287-fb6a-49ce-bf87-9473a2d5b293","ios":"levelo://app?vid=c999d287-fb6a-49ce-bf87-9473a2d5b293"},"vehicle_type_id":"4","last_reported":1727716098,"current_range_meters":24400,"station_id":"ce4bhr12rcd13ifvqhqg","pricing_plan_id":"cebpf4jnsgd1na2vs0mg"},{"bike_id":"0bdbf776-1303-44d0-b2c0-1b9dc680f93b","system_id":"levelo_inurba_marseille","lat":43.29172,"lon":5.37163,"is_reserved":false,"is_disabled":false,"rental_uris":{"android":"levelo://app?vid=0bdbf776-1303-44d0-b2c0-1b9dc680f93b","ios":"levelo://app?vid=0bdbf776-1303-44d0-b2c0-1b9dc680f93b"},"vehicle_type_id":"4","last_reported":1727716098,"current_range_meters":4000,"station_id":"ce4bha92rcd13ifvqeh0","pricing_plan_id":"cebpf4jnsgd1na2vs0mg"},{"bike_id":"95c6e593-c9a3-414e-882c-540e965197c1","system_id":"levelo_inurba_marseille","lat":43.281708,"lon":5.426495,"is_reserved":false,"is_disabled":false,"rental_uris":{"android":"levelo://app?vid=95c6e593-c9a3-414e-882c-540e965197c1","ios":"levelo://app?vid=95c6e593-c9a3-414e-882c-540e965197c1"},"vehicle_type_id":"4","last_reported":1727716098,"current_range_meters":18000,"station_id":"ce4bhnh2rcd13ifvqgug","pricing_plan_id":"cebpf4jnsgd1na2vs0mg"},{"bike_id":"ce5dca85-c054-4d36-9b55-2526ed552f9c","system_id":"levelo_inurba_marseille","lat":43.30144,"lon":5.38077,"is_reserved":false,"is_disabled":false,"rental_uris":{"android":"levelo://app?vid=ce5dca85-c054-4d36-9b55-2526ed552f9c","ios":"levelo://app?vid=ce5dca85-c054-4d36-9b55-2526ed552f9c"},"vehicle_type_id":"4","last_reported":1727716098,"current_range_meters":35600,"station_id":"ce4bgjp2rcd13ifvqbh0","pricing_plan_id":"cebpf4jnsgd1na2vs0mg"},{"bike_id":"629027a8-2385-4196-85fa-beec97fc46ae","system_id":"levelo_inurba_marseille","lat":43.28461,"lon":5.3589,"is_reserved":false,"is_disabled":false,"rental_uris":{"android":"levelo://app?vid=629027a8-2385-4196-85fa-beec97fc46ae","ios":"levelo://app?vid=629027a8-2385-4196-85fa-beec97fc46ae"},"vehicle_type_id":"4","last_reported":1727716098,"current_range_meters":12800,"station_id":"ce4bhah2rcd13ifvqei0","pricing_plan_id":"cebpf4jnsgd1na2vs0mg"},{"bike_id":"28a2a2f2-139e-498b-b75a-bc6ad99b7741","system_id":"levelo_inurba_marseille","lat":43.2737,"lon":5.36259,"is_reserved":false,"is_disabled":false,"rental_uris":{"android":"levelo://app?vid=28a2a2f2-139e-498b-b75a-bc6ad99b7741","ios":"levelo://app?vid=28a2a2f2-139e-498b-b75a-bc6ad99b7741"},"vehicle_type_id":"4","last_reported":1727716098,"current_range_meters":3200,"station_id":"ce4bhbh2rcd13ifvqeo0","pricing_plan_id":"cebpf4jnsgd1na2vs0mg"},{"bike_id":"62af13f0-48fd-4007-a589-49cb6a2f7bac","system_id":"levelo_inurba_marseille","lat":43.29685,"lon":5.36678,"is_reserved":false,"is_disabled":false,"rental_uris":{"android":"levelo://app?vid=62af13f0-48fd-4007-a589-49cb6a2f7bac","ios":"levelo://app?vid=62af13f0-48fd-4007-a589-49cb6a2f7bac"},"vehicle_type_id":"4","last_reported":1727716098,"current_range_meters":6400,"station_id":"","pricing_plan_id":"cebpf4jnsgd1na2vs0mg"},{"bike_id":"b13074e3-d6bc-4133-ac04-15626838cd67","system_id":"levelo_inurba_marseille","lat":43.27948,"lon":5.41052,"is_reserved":false,"is_disabled":false,"rental_uris":{"android":"levelo://app?vid=b13074e3-d6bc-4133-ac04-15626838cd67","ios":"levelo://app?vid=b13074e3-d6bc-4133-ac04-15626838cd67"},"vehicle_type_id":"4","last_reported":1727716098,"current_range_meters":27200,"station_id":"ce4bhnp2rcd13ifvqh0g","pricing_plan_id":"cebpf4jnsgd1na2vs0mg"},{"bike_id":"de5aa60c-72a1-48e3-a670-8a4342e36bc5","system_id":"levelo_inurba_marseille","lat":43.23963,"lon":5.36632,"is_reserved":false,"is_disabled":false,"rental_uris":{"android":"levelo://app?vid=de5aa60c-72a1-48e3-a670-8a4342e36bc5","ios":"levelo://app?vid=de5aa60c-72a1-48e3-a670-8a4342e36bc5"},"vehicle_type_id":"4","last_reported":1727716098,"current_range_meters":32800,"station_id":"ce4bhi12rcd13ifvqfp0","pricing_plan_id":"cebpf4jnsgd1na2vs0mg"},{"bike_id":"a5786550-17e9-4744-a5ca-fba416a7473c","system_id":"levelo_inurba_marseille","lat":43.27371,"lon":5.36257,"is_reserved":false,"is_disabled":false,"rental_uris":{"android":"levelo://app?vid=a5786550-17e9-4744-a5ca-fba416a7473c","ios":"levelo://app?vid=a5786550-17e9-4744-a5ca-fba416a7473c"},"vehicle_type_id":"4","last_reported":1727716098,"current_range_meters":32800,"station_id":"ce4bhbh2rcd13ifvqeo0","pricing_plan_id":"cebpf4jnsgd1na2vs0mg"},{"bike_id":"62368e7c-9371-4f86-b9ff-a4e88e7bdfe4","system_id":"levelo_inurba_marseille","lat":43.28656,"lon":5.39933,"is_reserved":false,"is_disabled":false,"rental_uris":{"android":"levelo://app?vid=62368e7c-9371-4f86-b9ff-a4e88e7bdfe4","ios":"levelo://app?vid=62368e7c-9371-4f86-b9ff-a4e88e7bdfe4"},"vehicle_type_id":"4","last_reported":1727716098,"current_range_meters":19200,"station_id":"","pricing_plan_id":"cebpf4jnsgd1na2vs0mg"},{"bike_id":"787459f3-ddbc-4f1d-a280-e6ee4d2f9d43","system_id":"levelo_inurba_marseille","lat":43.29261,"lon":5.3843,"is_reserved":false,"is_disabled":false,"rental_uris":{"android":"levelo://app?vid=787459f3-ddbc-4f1d-a280-e6ee4d2f9d43","ios":"levelo://app?vid=787459f3-ddbc-4f1d-a280-e6ee4d2f9d43"},"vehicle_type_id":"4","last_reported":1727716098,"current_range_meters":8400,"station_id":"ce4bh692rcd13ifvqea0","pricing_plan_id":"cebpf4jnsgd1na2vs0mg"},{"bike_id":"6b73b18d-a30f-4fd2-a93b-1c39e027e117","system_id":"levelo_inurba_marseille","lat":43.24177,"lon":5.39734,"is_reserved":false,"is_disabled":false,"rental_uris":{"android":"levelo://app?vid=6b73b18d-a30f-4fd2-a93b-1c39e027e117","ios":"levelo://app?vid=6b73b18d-a30f-4fd2-a93b-1c39e027e117"},"vehicle_type_id":"4","last_reported":1727716098,"current_range_meters":3600,"station_id":"ce4bhn12rcd13ifvqgpg","pricing_plan_id":"cebpf4jnsgd1na2vs0mg"},{"bike_id":"85c6593f-8ae5-40d9-b5cd-469f443e9e5c","system_id":"levelo_inurba_marseille","lat":43.2962,"lon":5.37151,"is_reserved":false,"is_disabled":false,"rental_uris":{"android":"levelo://app?vid=85c6593f-8ae5-40d9-b5cd-469f443e9e5c","ios":"levelo://app?vid=85c6593f-8ae5-40d9-b5cd-469f443e9e5c"},"vehicle_type_id":"4","last_reported":1727716098,"current_range_meters":10800,"station_id":"ce4bgnh2rcd13ifvqc0g","pricing_plan_id":"cebpf4jnsgd1na2vs0mg"},{"bike_id":"f7ac0fde-bf2b-4451-92f8-7765fcc7646a","system_id":"levelo_inurba_marseille","lat":43.28615,"lon":5.351,"is_reserved":false,"is_disabled":false,"rental_uris":{"android":"levelo://app?vid=f7ac0fde-bf2b-4451-92f8-7765fcc7646a","ios":"levelo://app?vid=f7ac0fde-bf2b-4451-92f8-7765fcc7646a"},"vehicle_type_id":"4","last_reported":1727716098,"current_range_meters":32400,"station_id":"ce4bhch2rcd13ifvqeug","pricing_plan_id":"cebpf4jnsgd1na2vs0mg"},{"bike_id":"4f7fc52b-bc83-4f42-9189-bd332e94e556","system_id":"levelo_inurba_marseille","lat":43.31375,"lon":5.37427,"is_reserved":false,"is_disabled":false,"rental_uris":{"android":"levelo://app?vid=4f7fc52b-bc83-4f42-9189-bd332e94e556","ios":"levelo://app?vid=4f7fc52b-bc83-4f42-9189-bd332e94e556"},"vehicle_type_id":"4","last_reported":1727716098,"current_range_meters":36800,"station_id":"ce4bgvp2rcd13ifvqcu0","pricing_plan_id":"cebpf4jnsgd1na2vs0mg"},{"bike_id":"8ab735b2-5e1b-4adb-a943-b3e7ff0fc3c5","system_id":"levelo_inurba_marseille","lat":43.27211,"lon":5.39185,"is_reserved":false,"is_disabled":false,"rental_uris":{"android":"levelo://app?vid=8ab735b2-5e1b-4adb-a943-b3e7ff0fc3c5","ios":"levelo://app?vid=8ab735b2-5e1b-4adb-a943-b3e7ff0fc3c5"},"vehicle_type_id":"4","last_reported":1727716098,"current_range_meters":4000,"station_id":"ce4bhhp2rcd13ifvqfm0","pricing_plan_id":"cebpf4jnsgd1na2vs0mg"},{"bike_id":"4e1d7e36-68ce-44ca-b0e9-1e92bf5d4631","system_id":"levelo_inurba_marseille","lat":43.31111,"lon":5.38347,"is_reserved":false,"is_disabled":false,"rental_uris":{"android":"levelo://app?vid=4e1d7e36-68ce-44ca-b0e9-1e92bf5d4631","ios":"levelo://app?vid=4e1d7e36-68ce-44ca-b0e9-1e92bf5d4631"},"vehicle_type_id":"4","last_reported":1727716098,"current_range_meters":6800,"station_id":"ce4bgv92rcd13ifvqcr0","pricing_plan_id":"cebpf4jnsgd1na2vs0mg"},{"bike_id":"8a4f063f-76e5-43f3-9864-cf62a74b8f50","system_id":"levelo_inurba_marseille","lat":43.32659,"lon":5.40995,"is_reserved":false,"is_disabled":false,"rental_uris":{"android":"levelo://app?vid=8a4f063f-76e5-43f3-9864-cf62a74b8f50","ios":"levelo://app?vid=8a4f063f-76e5-43f3-9864-cf62a74b8f50"},"vehicle_type_id":"4","last_reported":1727716098,"current_range_meters":26000,"station_id":"ce4bhpp2rcd13ifvqhgg","pricing_plan_id":"cebpf4jnsgd1na2vs0mg"},{"bike_id":"4311cb59-1b04-466b-8c69-7c87a02217b5","system_id":"levelo_inurba_marseille","lat":43.23968,"lon":5.36633,"is_reserved":false,"is_disabled":false,"rental_uris":{"android":"levelo://app?vid=4311cb59-1b04-466b-8c69-7c87a02217b5","ios":"levelo://app?vid=4311cb59-1b04-466b-8c69-7c87a02217b5"},"vehicle_type_id":"4","last_reported":1727716098,"current_range_meters":25200,"station_id":"ce4bhi12rcd13ifvqfp0","pricing_plan_id":"cebpf4jnsgd1na2vs0mg"},{"bike_id":"cf804898-9eb3-46eb-aaa0-14e3dafccf8d","system_id":"levelo_inurba_marseille","lat":43.32478,"lon":5.36785,"is_reserved":false,"is_disabled":false,"rental_uris":{"android":"levelo://app?vid=cf804898-9eb3-46eb-aaa0-14e3dafccf8d","ios":"levelo://app?vid=cf804898-9eb3-46eb-aaa0-14e3dafccf8d"},"vehicle_type_id":"4","last_reported":1727716098,"current_range_meters":21600,"station_id":"","pricing_plan_id":"cebpf4jnsgd1na2vs0mg"},{"bike_id":"f64e0391-1c55-4137-b61a-81833535303e","system_id":"levelo_inurba_marseille","lat":43.25006,"lon":5.38916,"is_reserved":false,"is_disabled":false,"rental_uris":{"android":"levelo://app?vid=f64e0391-1c55-4137-b61a-81833535303e","ios":"levelo://app?vid=f64e0391-1c55-4137-b61a-81833535303e"},"vehicle_type_id":"4","last_reported":1727716098,"current_range_meters":31200,"station_id":"ce4bhgp2rcd13ifvqfd0","pricing_plan_id":"cebpf4jnsgd1na2vs0mg"},{"bike_id":"c83a2c36-27d0-41a2-a950-64a244013651","system_id":"levelo_inurba_marseille","lat":43.24806,"lon":5.37466,"is_reserved":false,"is_disabled":false,"rental_uris":{"android":"levelo://app?vid=c83a2c36-27d0-41a2-a950-64a244013651","ios":"levelo://app?vid=c83a2c36-27d0-41a2-a950-64a244013651"},"vehicle_type_id":"4","last_reported":1727716098,"current_range_meters":6000,"station_id":"ce4bhgh2rcd13ifvqfb0","pricing_plan_id":"cebpf4jnsgd1na2vs0mg"},{"bike_id":"e11b7fd8-e3e0-446a-8c91-554d2b2e55dc","system_id":"levelo_inurba_marseille","lat":43.26689,"lon":5.38259,"is_reserved":false,"is_disabled":false,"rental_uris":{"android":"levelo://app?vid=e11b7fd8-e3e0-446a-8c91-554d2b2e55dc","ios":"levelo://app?vid=e11b7fd8-e3e0-446a-8c91-554d2b2e55dc"},"vehicle_type_id":"4","last_reported":1727716098,"current_range_meters":26000,"station_id":"ce4bhg92rcd13ifvqf90","pricing_plan_id":"cebpf4jnsgd1na2vs0mg"},{"bike_id":"6c636533-4ca1-4582-8e80-7d519067a192","system_id":"levelo_inurba_marseille","lat":43.33721,"lon":5.39185,"is_reserved":false,"is_disabled":false,"rental_uris":{"android":"levelo://app?vid=6c636533-4ca1-4582-8e80-7d519067a192","ios":"levelo://app?vid=6c636533-4ca1-4582-8e80-7d519067a192"},"vehicle_type_id":"4","last_reported":1727716098,"current_range_meters":39200,"station_id":"ce4bhr92rcd13ifvqhsg","pricing_plan_id":"cebpf4jnsgd1na2vs0mg"},{"bike_id":"b30e5bc5-3df5-4ac1-a6ad-714824a3c316","system_id":"levelo_inurba_marseille","lat":43.2558,"lon":5.38238,"is_reserved":false,"is_disabled":false,"rental_uris":{"android":"levelo://app?vid=b30e5bc5-3df5-4ac1-a6ad-714824a3c316","ios":"levelo://app?vid=b30e5bc5-3df5-4ac1-a6ad-714824a3c316"},"vehicle_type_id":"4","last_reported":1727716098,"current_range_meters":16400,"station_id":"ce4bhih2rcd13ifvqfs0","pricing_plan_id":"cebpf4jnsgd1na2vs0mg"},{"bike_id":"2f1d8a7c-85fc-443c-9314-985a20904cbe","system_id":"levelo_inurba_marseille","lat":43.32335,"lon":5.40616,"is_reserved":false,"is_disabled":false,"rental_uris":{"android":"levelo://app?vid=2f1d8a7c-85fc-443c-9314-985a20904cbe","ios":"levelo://app?vid=2f1d8a7c-85fc-443c-9314-985a20904cbe"},"vehicle_type_id":"4","last_reported":1727716098,"current_range_meters":4800,"station_id":"ce4bhq92rcd13ifvqhjg","pricing_plan_id":"cebpf4jnsgd1na2vs0mg"},{"bike_id":"0c221e3b-c3a2-4c5d-a570-1b764ff038f3","system_id":"levelo_inurba_marseille","lat":43.23192,"lon":5.35554,"is_reserved":false,"is_disabled":false,"rental_uris":{"android":"levelo://app?vid=0c221e3b-c3a2-4c5d-a570-1b764ff038f3","ios":"levelo://app?vid=0c221e3b-c3a2-4c5d-a570-1b764ff038f3"},"vehicle_type_id":"4","last_reported":1727716098,"current_range_meters":7200,"station_id":"ce4bhu92rcd13ifvqi70","pricing_plan_id":"cebpf4jnsgd1na2vs0mg"},{"bike_id":"339e52a2-02e5-4209-a52f-d09eda2d8c61","system_id":"levelo_inurba_marseille","lat":43.3211,"lon":5.36763,"is_reserved":false,"is_disabled":false,"rental_uris":{"android":"levelo://app?vid=339e52a2-02e5-4209-a52f-d09eda2d8c61","ios":"levelo://app?vid=339e52a2-02e5-4209-a52f-d09eda2d8c61"},"vehicle_type_id":"4","last_reported":1727716098,"current_range_meters":6800,"station_id":"ce4bhrh2rcd13ifvqhug","pricing_plan_id":"cebpf4jnsgd1na2vs0mg"},{"bike_id":"6be1eb4e-36f5-48e3-b095-e240758df9cb","system_id":"levelo_inurba_marseille","lat":43.24386,"lon":5.37058,"is_reserved":false,"is_disabled":false,"rental_uris":{"android":"levelo://app?vid=6be1eb4e-36f5-48e3-b095-e240758df9cb","ios":"levelo://app?vid=6be1eb4e-36f5-48e3-b095-e240758df9cb"},"vehicle_type_id":"4","last_reported":1727716098,"current_range_meters":24800,"station_id":"ce4bhhh2rcd13ifvqfk0","pricing_plan_id":"cebpf4jnsgd1na2vs0mg"},{"bike_id":"ca3603f4-1b94-45e2-9faa-30b7df7639d0","system_id":"levelo_inurba_marseille","lat":43.32538,"lon":5.41429,"is_reserved":false,"is_disabled":false,"rental_uris":{"android":"levelo://app?vid=ca3603f4-1b94-45e2-9faa-30b7df7639d0","ios":"levelo://app?vid=ca3603f4-1b94-45e2-9faa-30b7df7639d0"},"vehicle_type_id":"4","last_reported":1727716098,"current_range_meters":26000,"station_id":"ce4bhq12rcd13ifvqhhg","pricing_plan_id":"cebpf4jnsgd1na2vs0mg"},{"bike_id":"a0d81b38-14b5-4512-8fdb-5e5c601348e2","system_id":"levelo_inurba_marseille","lat":43.30536,"lon":5.3672,"is_reserved":false,"is_disabled":false,"rental_uris":{"android":"levelo://app?vid=a0d81b38-14b5-4512-8fdb-5e5c601348e2","ios":"levelo://app?vid=a0d81b38-14b5-4512-8fdb-5e5c601348e2"},"vehicle_type_id":"4","last_reported":1727716098,"current_range_meters":23200,"station_id":"ce4bgrp2rcd13ifvqc9g","pricing_plan_id":"cebpf4jnsgd1na2vs0mg"},{"bike_id":"be909a07-d989-4a16-a1ae-25d3cd73bfd8","system_id":"levelo_inurba_marseille","lat":43.2466,"lon":5.38164,"is_reserved":false,"is_disabled":false,"rental_uris":{"android":"levelo://app?vid=be909a07-d989-4a16-a1ae-25d3cd73bfd8","ios":"levelo://app?vid=be909a07-d989-4a16-a1ae-25d3cd73bfd8"},"vehicle_type_id":"4","last_reported":1727716098,"current_range_meters":12000,"station_id":"ce4bhih2rcd13ifvqfr0","pricing_plan_id":"cebpf4jnsgd1na2vs0mg"},{"bike_id":"981e4b53-f945-40ef-a603-9661e3e3bc70","system_id":"levelo_inurba_marseille","lat":43.31719,"lon":5.42407,"is_reserved":false,"is_disabled":false,"rental_uris":{"android":"levelo://app?vid=981e4b53-f945-40ef-a603-9661e3e3bc70","ios":"levelo://app?vid=981e4b53-f945-40ef-a603-9661e3e3bc70"},"vehicle_type_id":"4","last_reported":1727716098,"current_range_meters":8000,"station_id":"ce4bhp92rcd13ifvqhbg","pricing_plan_id":"cebpf4jnsgd1na2vs0mg"},{"bike_id":"d9d6d75d-e881-476a-98f0-31dd7ce8c7d9","system_id":"levelo_inurba_marseille","lat":43.28421,"lon":5.35002,"is_reserved":false,"is_disabled":false,"rental_uris":{"android":"levelo://app?vid=d9d6d75d-e881-476a-98f0-31dd7ce8c7d9","ios":"levelo://app?vid=d9d6d75d-e881-476a-98f0-31dd7ce8c7d9"},"vehicle_type_id":"4","last_reported":1727716098,"current_range_meters":38800,"station_id":"ce4bhbh2rcd13ifvqepg","pricing_plan_id":"cebpf4jnsgd1na2vs0mg"},{"bike_id":"753a0bfe-2fe1-4a33-a3a3-96a3edf2bece","system_id":"levelo_inurba_marseille","lat":43.287,"lon":5.3739,"is_reserved":false,"is_disabled":false,"rental_uris":{"android":"levelo://app?vid=753a0bfe-2fe1-4a33-a3a3-96a3edf2bece","ios":"levelo://app?vid=753a0bfe-2fe1-4a33-a3a3-96a3edf2bece"},"vehicle_type_id":"4","last_reported":1727716098,"current_range_meters":38800,"station_id":"ce4bh3p2rcd13ifvqdq0","pricing_plan_id":"cebpf4jnsgd1na2vs0mg"},{"bike_id":"313e573e-ee0b-4d0f-84f3-ab4df05905d9","system_id":"levelo_inurba_marseille","lat":43.31451,"lon":5.37374,"is_reserved":false,"is_disabled":false,"rental_uris":{"android":"levelo://app?vid=313e573e-ee0b-4d0f-84f3-ab4df05905d9","ios":"levelo://app?vid=313e573e-ee0b-4d0f-84f3-ab4df05905d9"},"vehicle_type_id":"4","last_reported":1727716098,"current_range_meters":36000,"station_id":"ce4bgt12rcd13ifvqcd0","pricing_plan_id":"cebpf4jnsgd1na2vs0mg"},{"bike_id":"07029500-175e-446c-8110-3d06f67adc67","system_id":"levelo_inurba_marseille","lat":43.2957,"lon":5.39979,"is_reserved":false,"is_disabled":false,"rental_uris":{"android":"levelo://app?vid=07029500-175e-446c-8110-3d06f67adc67","ios":"levelo://app?vid=07029500-175e-446c-8110-3d06f67adc67"},"vehicle_type_id":"4","last_reported":1727716098,"current_range_meters":26800,"station_id":"ce4bh312rcd13ifvqdj0","pricing_plan_id":"cebpf4jnsgd1na2vs0mg"},{"bike_id":"29c5f0d9-9ec8-4a04-a956-4ee74c7bbdf6","system_id":"levelo_inurba_marseille","lat":43.313533,"lon":5.384917,"is_reserved":false,"is_disabled":false,"rental_uris":{"android":"levelo://app?vid=29c5f0d9-9ec8-4a04-a956-4ee74c7bbdf6","ios":"levelo://app?vid=29c5f0d9-9ec8-4a04-a956-4ee74c7bbdf6"},"vehicle_type_id":"4","last_reported":1727716098,"current_range_meters":38800,"station_id":"ce4bgt92rcd13ifvqcf0","pricing_plan_id":"cebpf4jnsgd1na2vs0mg"},{"bike_id":"d0b015ea-9d2c-452e-8810-c2553360dcb3","system_id":"levelo_inurba_marseille","lat":43.33024,"lon":5.3904,"is_reserved":false,"is_disabled":false,"rental_uris":{"android":"levelo://app?vid=d0b015ea-9d2c-452e-8810-c2553360dcb3","ios":"levelo://app?vid=d0b015ea-9d2c-452e-8810-c2553360dcb3"},"vehicle_type_id":"4","last_reported":1727716098,"current_range_meters":7200,"station_id":"ce4bhr92rcd13ifvqhrg","pricing_plan_id":"cebpf4jnsgd1na2vs0mg"},{"bike_id":"0f630fc7-a9a9-4c4e-8852-cac3327f3293","system_id":"levelo_inurba_marseille","lat":43.25721,"lon":5.41114,"is_reserved":false,"is_disabled":false,"rental_uris":{"android":"levelo://app?vid=0f630fc7-a9a9-4c4e-8852-cac3327f3293","ios":"levelo://app?vid=0f630fc7-a9a9-4c4e-8852-cac3327f3293"},"vehicle_type_id":"4","last_reported":1727716098,"current_range_meters":8800,"station_id":"ce4bhkp2rcd13ifvqgd0","pricing_plan_id":"cebpf4jnsgd1na2vs0mg"},