{"last_updated":1744625501,"ttl":60,"version":"2.2","data":{"bikes":[{"bike_id":"b30c0f6d-de6e-41ba-bb6f-e797cf12398b","system_id":"levelo_inurba_marseille","lat":43.3372,"lon":5.39183,"is_reserved":false,"is_disabled":false,"rental_uris":{"android":"levelo://app?vid=b30c0f6d-de6e-41ba-bb6f-e797cf12398b","ios":"levelo://app?vid=b30c0f6d-de6e-41ba-bb6f-e797cf12398b"},"vehicle_type_id":"4","last_reported":1744625502,"current_range_meters":2800,"station_id":"ce4bhr92rcd13ifvqhsg","pricing_plan_id":"cebpf4jnsgd1na2vs0mg"},{"bike_id":"ef291804-1477-432e-b153-82ea15725418","system_id":"levelo_inurba_marseille","lat":43.33742,"lon":5.37454,"is_reserved":false,"is_disabled":false,"rental_uris":{"android":"levelo://app?vid=ef291804-1477-432e-b153-82ea15725418","ios":"levelo://app?vid=ef291804-1477-432e-b153-82ea15725418"},"vehicle_type_id":"4","last_reported":1744625502,"current_range_meters":2800,"station_id":"","pricing_plan_id":"cebpf4jnsgd1na2vs0mg"},{"bike_id":"1130922e-9ccc-463b-9207-aadecd794edb","system_id":"levelo_inurba_marseille","lat":43.31991,"lon":5.38176,"is_reserved":false,"is_disabled":true,"rental_uris":{"android":"levelo://app?vid=1130922e-9ccc-463b-9207-aadecd794edb","ios":"levelo://app?vid=1130922e-9ccc-463b-9207-aadecd794edb"},"vehicle_type_id":"4","last_reported":1744625502,"current_range_meters":3200,"station_id":"ce4bhr12rcd13ifvqhpg","pricing_plan_id":"cebpf4jnsgd1na2vs0mg"},{"bike_id":"926f99e4-f762-4e30-aaef-6e05e9c762b2","system_id":"levelo_inurba_marseille","lat":43.30542,"lon":5.36557,"is_reserved":false,"is_disabled":false,"rental_uris":{"android":"levelo://app?vid=926f99e4-f762-4e30-aaef-6e05e9c762b2","ios":"levelo://app?vid=926f99e4-f762-4e30-aaef-6e05e9c762b2"},"vehicle_type_id":"4","last_reported":1744625502,"current_range_meters":800,"station_id":"ce4bgs12rcd13ifvqcag","pricing_plan_id":"cebpf4jnsgd1na2vs0mg"},{"bike_id":"51015699-3c69-4bcc-90c0-ad1b51454d9d","system_id":"levelo_inurba_marseille","lat":43.30119,"lon":5.39876,"is_reserved":false,"is_disabled":false,"rental_uris":{"android":"levelo://app?vid=51015699-3c69-4bcc-90c0-ad1b51454d9d","ios":"levelo://app?vid=51015699-3c69-4bcc-90c0-ad1b51454d9d"},"vehicle_type_id":"4","last_reported":1744625502,"current_range_meters":3200,"station_id":"ce4bh0h2rcd13ifvqd40","pricing_plan_id":"cebpf4jnsgd1na2vs0mg"},{"bike_id":"2fc95e6a-2708-462b-b6bb-8734eb69a062","system_id":"levelo_inurba_marseille","lat":43.3236,"lon":5.36764,"is_reserved":false,"is_disabled":false,"rental_uris":{"android":"levelo://app?vid=2fc95e6a-2708-462b-b6bb-8734eb69a062","ios":"levelo://app?vid=2fc95e6a-2708-462b-b6bb-8734eb69a062"},"vehicle_type_id":"4","last_reported":1744625502,"current_range_meters":3600,"station_id":"ce4bhsh2rcd13ifvqi2g","pricing_plan_id":"cebpf4jnsgd1na2vs0mg"},{"bike_id":"4a0973b0-92a0-41e8-9b0d-a99e944bafe0","system_id":"levelo_inurba_marseille","lat":43.34491,"lon":5.41257,"is_reserved":false,"is_disabled":false,"rental_uris":{"android":"levelo://app?vid=4a0973b0-92a0-41e8-9b0d-a99e944bafe0","ios":"levelo://app?vid=4a0973b0-92a0-41e8-9b0d-a99e944bafe0"},"vehicle_type_id":"4","last_reported":1744625502,"current_range_meters":3600,"station_id":"","pricing_plan_id":"cebpf4jnsgd1na2vs0mg"},{"bike_id":"5b77a833-8185-45c2-9fe3-07eb40df54ca","system_id":"levelo_inurba_marseille","lat":43.33995,"lon":5.38057,"is_reserved":false,"is_disabled":false,"rental_uris":{"android":"levelo://app?vid=5b77a833-8185-45c2-9fe3-07eb40df54ca","ios":"levelo://app?vid=5b77a833-8185-45c2-9fe3-07eb40df54ca"},"vehicle_type_id":"4","last_reported":1744625502,"current_range_meters":3600,"station_id":"","pricing_plan_id":"cebpf4jnsgd1na2vs0mg"},{"bike_id":"493cde9e-7859-4c26-a2e6-f744ee5d8553","system_id":"levelo_inurba_marseille","lat":43.31653,"lon":5.36334,"is_reserved":false,"is_disabled":false,"rental_uris":{"android":"levelo://app?vid=493cde9e-7859-4c26-a2e6-f744ee5d8553","ios":"levelo://app?vid=493cde9e-7859-4c26-a2e6-f744ee5d8553"},"vehicle_type_id":"4","last_reported":1744625502,"current_range_meters":4000,"station_id":"","pricing_plan_id":"cebpf4jnsgd1na2vs0mg"},{"bike_id":"7fd526a2-3b8e-4c71-a5b3-c70d3dfd5d85","system_id":"levelo_inurba_marseille","lat":43.3108,"lon":5.4243,"is_reserved":false,"is_disabled":false,"rental_uris":{"android":"levelo://app?vid=7fd526a2-3b8e-4c71-a5b3-c70d3dfd5d85","ios":"levelo://app?vid=7fd526a2-3b8e-4c71-a5b3-c70d3dfd5d85"},"vehicle_type_id":"4","last_reported":1744625502,"current_range_meters":4400,"station_id":"ce4bhp92rcd13ifvqhag","pricing_plan_id":"cebpf4jnsgd1na2vs0mg"},{"bike_id":"acd575b5-64e2-46d0-9647-d1a5da5ae732","system_id":"levelo_inurba_marseille","lat":43.2315,"lon":5.43722,"is_reserved":false,"is_disabled":false,"rental_uris":{"android":"levelo://app?vid=acd575b5-64e2-46d0-9647-d1a5da5ae732","ios":"levelo://app?vid=acd575b5-64e2-46d0-9647-d1a5da5ae732"},"vehicle_type_id":"4","last_reported":1744625502,"current_range_meters":4400,"station_id":"ce4bhmp2rcd13ifvqgog","pricing_plan_id":"cebpf4jnsgd1na2vs0mg"},{"bike_id":"2f5bc015-0a98-4a0d-a50f-f7181e1d6abe","system_id":"levelo_inurba_marseille","lat":43.23426,"lon":5.41253,"is_reserved":false,"is_disabled":false,"rental_uris":{"android":"levelo://app?vid=2f5bc015-0a98-4a0d-a50f-f7181e1d6abe","ios":"levelo://app?vid=2f5bc015-0a98-4a0d-a50f-f7181e1d6abe"},"vehicle_type_id":"4","last_reported":1744625502,"current_range_meters":5600,"station_id":"","pricing_plan_id":"cebpf4jnsgd1na2vs0mg"},{"bike_id":"4f38e127-be9f-468e-8871-e9cd4f365dca","system_id":"levelo_inurba_marseille","lat":43.24685,"lon":5.41166,"is_reserved":false,"is_disabled":false,"rental_uris":{"android":"levelo://app?vid=4f38e127-be9f-468e-8871-e9cd4f365dca","ios":"levelo://app?vid=4f38e127-be9f-468e-8871-e9cd4f365dca"},"vehicle_type_id":"4","last_reported":1744625502,"current_range_meters":6000,"station_id":"","pricing_plan_id":"cebpf4jnsgd1na2vs0mg"},{"bike_id":"dab7f9b6-bca9-473a-ae7b-5cf9dcdb45f2","system_id":"levelo_inurba_marseille","lat":43.24789,"lon":5.37476,"is_reserved":false,"is_disabled":false,"rental_uris":{"android":"levelo://app?vid=dab7f9b6-bca9-473a-ae7b-5cf9dcdb45f2","ios":"levelo://app?vid=dab7f9b6-bca9-473a-ae7b-5cf9dcdb45f2"},"vehicle_type_id":"4","last_reported":1744625502,"current_range_meters":6000,"station_id":"ce4bhgh2rcd13ifvqfb0","pricing_plan_id":"cebpf4jnsgd1na2vs0mg"},{"bike_id":"3d16c2e3-7c12-4342-883a-029e0fc16b05","system_id":"levelo_inurba_marseille","lat":43.31033,"lon":5.37094,"is_reserved":false,"is_disabled":false,"rental_uris":{"android":"levelo://app?vid=3d16c2e3-7c12-4342-883a-029e0fc16b05","ios":"levelo://app?vid=3d16c2e3-7c12-4342-883a-029e0fc16b05"},"vehicle_type_id":"4","last_reported":1744625502,"current_range_meters":6000,"station_id":"","pricing_plan_id":"cebpf4jnsgd1na2vs0mg"},{"bike_id":"b8bf1849-5451-4d6f-91bb-aafe3914a660","system_id":"levelo_inurba_marseille","lat":43.296292,"lon":5.377153,"is_reserved":false,"is_disabled":false,"rental_uris":{"android":"levelo://app?vid=b8bf1849-5451-4d6f-91bb-aafe3914a660","ios":"levelo://app?vid=b8bf1849-5451-4d6f-91bb-aafe3914a660"},"vehicle_type_id":"4","last_reported":1744625502,"current_range_meters":6400,"station_id":"ce4bgi92rcd13ifvqb90","pricing_plan_id":"cebpf4jnsgd1na2vs0mg"},{"bike_id":"6044f223-e7ff-4c0d-b551-fcfd30b2da0c","system_id":"levelo_inurba_marseille","lat":43.298575,"lon":5.396707,"is_reserved":false,"is_disabled":false,"rental_uris":{"android":"levelo://app?vid=6044f223-e7ff-4c0d-b551-fcfd30b2da0c","ios":"levelo://app?vid=6044f223-e7ff-4c0d-b551-fcfd30b2da0c"},"vehicle_type_id":"4","last_reported":1744625502,"current_range_meters":6400,"station_id":"ce4bh0h2rcd13ifvqd50","pricing_plan_id":"cebpf4jnsgd1na2vs0mg"},{"bike_id":"cf675099-ac1b-4818-b622-5e6e28428c4a","system_id":"levelo_inurba_marseille","lat":43.22945,"lon":5.3539,"is_reserved":false,"is_disabled":false,"rental_uris":{"android":"levelo://app?vid=cf675099-ac1b-4818-b622-5e6e28428c4a","ios":"levelo://app?vid=cf675099-ac1b-4818-b622-5e6e28428c4a"},"vehicle_type_id":"4","last_reported":1744625502,"current_range_meters":6400,"station_id":"cpo3532slgdg3j2ikp40","pricing_plan_id":"cebpf4jnsgd1na2vs0mg"},{"bike_id":"e654e523-849c-4f04-8e39-f201a550baf0","system_id":"levelo_inurba_marseille","lat":43.29554,"lon":5.42272,"is_reserved":false,"is_disabled":false,"rental_uris":{"android":"levelo://app?vid=e654e523-849c-4f04-8e39-f201a550baf0","ios":"levelo://app?vid=e654e523-849c-4f04-8e39-f201a550baf0"},"vehicle_type_id":"4","last_reported":1744625502,"current_range_meters":6400,"station_id":"ce4bhph2rcd13ifvqhdg","pricing_plan_id":"cebpf4jnsgd1na2vs0mg"},{"bike_id":"76450c2c-888f-4d08-a5c0-d825237615aa","system_id":"levelo_inurba_marseille","lat":43.27238,"lon":5.42289,"is_reserved":false,"is_disabled":false,"rental_uris":{"android":"levelo://app?vid=76450c2c-888f-4d08-a5c0-d825237615aa","ios":"levelo://app?vid=76450c2c-888f-4d08-a5c0-d825237615aa"},"vehicle_type_id":"4","last_reported":1744625502,"current_range_meters":6800,"station_id":"","pricing_plan_id":"cebpf4jnsgd1na2vs0mg"},{"bike_id":"91fffdcd-2fa7-4f34-b242-95e7e93ac05b","system_id":"levelo_inurba_marseille","lat":43.26333,"lon":5.39738,"is_reserved":false,"is_disabled":true,"rental_uris":{"android":"levelo://app?vid=91fffdcd-2fa7-4f34-b242-95e7e93ac05b","ios":"levelo://app?vid=91fffdcd-2fa7-4f34-b242-95e7e93ac05b"},"vehicle_type_id":"4","last_reported":1744625502,"current_range_meters":6800,"station_id":"","pricing_plan_id":"cebpf4jnsgd1na2vs0mg"},{"bike_id":"d7be55f3-a0c4-46fd-bb8f-d91ac2cc4a98","system_id":"levelo_inurba_marseille","lat":43.22931,"lon":5.35368,"is_reserved":false,"is_disabled":true,"rental_uris":{"android":"levelo://app?vid=d7be55f3-a0c4-46fd-bb8f-d91ac2cc4a98","ios":"levelo://app?vid=d7be55f3-a0c4-46fd-bb8f-d91ac2cc4a98"},"vehicle_type_id":"4","last_reported":1744625502,"current_range_meters":6800,"station_id":"cpo3532slgdg3j2ikp40","pricing_plan_id":"cebpf4jnsgd1na2vs0mg"},{"bike_id":"c127d1a8-0150-4856-a57b-18fd29314b2c","system_id":"levelo_inurba_marseille","lat":43.32493,"lon":5.36563,"is_reserved":false,"is_disabled":false,"rental_uris":{"android":"levelo://app?vid=c127d1a8-0150-4856-a57b-18fd29314b2c","ios":"levelo://app?vid=c127d1a8-0150-4856-a57b-18fd29314b2c"},"vehicle_type_id":"4","last_reported":1744625502,"current_range_meters":6800,"station_id":"ce4bhs12rcd13ifvqhvg","pricing_plan_id":"cebpf4jnsgd1na2vs0mg"},{"bike_id":"f33616a2-7119-4767-b911-b01a1cc5f492","system_id":"levelo_inurba_marseille","lat":43.2842,"lon":5.34983,"is_reserved":false,"is_disabled":false,"rental_uris":{"android":"levelo://app?vid=f33616a2-7119-4767-b911-b01a1cc5f492","ios":"levelo://app?vid=f33616a2-7119-4767-b911-b01a1cc5f492"},"vehicle_type_id":"4","last_reported":1744625502,"current_range_meters":7200,"station_id":"ce4bhbh2rcd13ifvqepg","pricing_plan_id":"cebpf4jnsgd1na2vs0mg"},{"bike_id":"22fbba64-62a4-4f59-8cfa-9726208bce9a","system_id":"levelo_inurba_marseille","lat":43.2314,"lon":5.43724,"is_reserved":false,"is_disabled":false,"rental_uris":{"android":"levelo://app?vid=22fbba64-62a4-4f59-8cfa-9726208bce9a","ios":"levelo://app?vid=22fbba64-62a4-4f59-8cfa-9726208bce9a"},"vehicle_type_id":"4","last_reported":1744625502,"current_range_meters":7200,"station_id":"ce4bhmp2rcd13ifvqgog","pricing_plan_id":"cebpf4jnsgd1na2vs0mg"},{"bike_id":"45386881-9817-4823-8512-ef38ab390023","system_id":"levelo_inurba_marseille","lat":43.28459,"lon":5.35891,"is_reserved":false,"is_disabled":false,"rental_uris":{"android":"levelo://app?vid=45386881-9817-4823-8512-ef38ab390023","ios":"levelo://app?vid=45386881-9817-4823-8512-ef38ab390023"},"vehicle_type_id":"4","last_reported":1744625502,"current_range_meters":7200,"station_id":"ce4bhah2rcd13ifvqei0","pricing_plan_id":"cebpf4jnsgd1na2vs0mg"},{"bike_id":"90e27172-4aa8-4563-842f-41e4e7bbc425","system_id":"levelo_inurba_marseille","lat":43.32486,"lon":5.3656,"is_reserved":false,"is_disabled":false,"rental_uris":{"android":"levelo://app?vid=90e27172-4aa8-4563-842f-41e4e7bbc425","ios":"levelo://app?vid=90e27172-4aa8-4563-842f-41e4e7bbc425"},"vehicle_type_id":"4","last_reported":1744625502,"current_range_meters":7200,"station_id":"ce4bhs12rcd13ifvqhvg","pricing_plan_id":"cebpf4jnsgd1na2vs0mg"},{"bike_id":"4d49d7bf-c387-4802-8134-39419f66ab07","system_id":"levelo_inurba_marseille","lat":43.25098,"lon":5.39503,"is_reserved":false,"is_disabled":false,"rental_uris":{"android":"levelo://app?vid=4d49d7bf-c387-4802-8134-39419f66ab07","ios":"levelo://app?vid=4d49d7bf-c387-4802-8134-39419f66ab07"},"vehicle_type_id":"4","last_reported":1744625502,"current_range_meters":7200,"station_id":"ce4bhm12rcd13ifvqgkg","pricing_plan_id":"cebpf4jnsgd1na2vs0mg"},{"bike_id":"5dacb930-8ee7-45bc-b43c-e2e4d6f1cc99","system_id":"levelo_inurba_marseille","lat":43.25114,"lon":5.40319,"is_reserved":false,"is_disabled":false,"rental_uris":{"android":"levelo://app?vid=5dacb930-8ee7-45bc-b43c-e2e4d6f1cc99","ios":"levelo://app?vid=5dacb930-8ee7-45bc-b43c-e2e4d6f1cc99"},"vehicle_type_id":"4","last_reported":1744625502,"current_range_meters":7200,"station_id":"ce4bhlh2rcd13ifvqgig","pricing_plan_id":"cebpf4jnsgd1na2vs0mg"},{"bike_id":"b55dd5e7-54b2-4035-b945-7b626dd7afc7","system_id":"levelo_inurba_marseille","lat":43.27557,"lon":5.40913,"is_reserved":false,"is_disabled":false,"rental_uris":{"android":"levelo://app?vid=b55dd5e7-54b2-4035-b945-7b626dd7afc7","ios":"levelo://app?vid=b55dd5e7-54b2-4035-b945-7b626dd7afc7"},"vehicle_type_id":"4","last_reported":1744625502,"current_range_meters":8000,"station_id":"","pricing_plan_id":"cebpf4jnsgd1na2vs0mg"},{"bike_id":"8fa1822e-3b07-4b95-aa9e-47c5187cdff9","system_id":"levelo_inurba_marseille","lat":43.27317,"lon":5.39085,"is_reserved":false,"is_disabled":false,"rental_uris":{"android":"levelo://app?vid=8fa1822e-3b07-4b95-aa9e-47c5187cdff9","ios":"levelo://app?vid=8fa1822e-3b07-4b95-aa9e-47c5187cdff9"},"vehicle_type_id":"4","last_reported":1744625502,"current_range_meters":7200,"station_id":"ce4bhgp2rcd13ifvqfe0","pricing_plan_id":"cebpf4jnsgd1na2vs0mg"},{"bike_id":"8a036b8a-405d-48d5-9d88-11a2356a8ddc","system_id":"levelo_inurba_marseille","lat":43.26569,"lon":5.38999,"is_reserved":false,"is_disabled":false,"rental_uris":{"android":"levelo://app?vid=8a036b8a-405d-48d5-9d88-11a2356a8ddc","ios":"levelo://app?vid=8a036b8a-405d-48d5-9d88-11a2356a8ddc"},"vehicle_type_id":"4","last_reported":1744625502,"current_range_meters":8000,"station_id":"ce4bhe12rcd13ifvqf30","pricing_plan_id":"cebpf4jnsgd1na2vs0mg"},{"bike_id":"facd0aa7-db31-4bda-a8cb-691028ad1ca2","system_id":"levelo_inurba_marseille","lat":43.27907,"lon":5.38006,"is_reserved":false,"is_disabled":false,"rental_uris":{"android":"levelo://app?vid=facd0aa7-db31-4bda-a8cb-691028ad1ca2","ios":"levelo://app?vid=facd0aa7-db31-4bda-a8cb-691028ad1ca2"},"vehicle_type_id":"4","last_reported":1744625502,"current_range_meters":7200,"station_id":"ce4bhf92rcd13ifvqf50","pricing_plan_id":"cebpf4jnsgd1na2vs0mg"},{"bike_id":"8d77eca9-482b-49f8-a493-6136dd158a1e","system_id":"levelo_inurba_marseille","lat":43.31703,"lon":5.43683,"is_reserved":false,"is_disabled":false,"rental_uris":{"android":"levelo://app?vid=8d77eca9-482b-49f8-a493-6136dd158a1e","ios":"levelo://app?vid=8d77eca9-482b-49f8-a493-6136dd158a1e"},"vehicle_type_id":"4","last_reported":1744625502,"current_range_meters":8000,"station_id":"ce4bhp92rcd13ifvqhcg","pricing_plan_id":"cebpf4jnsgd1na2vs0mg"},{"bike_id":"efd328ca-f8bf-4550-bd94-c2fd75978f3c","system_id":"levelo_inurba_marseille","lat":43.33059,"lon":5.38083,"is_reserved":false,"is_disabled":false,"rental_uris":{"android":"levelo://app?vid=efd328ca-f8bf-4550-bd94-c2fd75978f3c","ios":"levelo://app?vid=efd328ca-f8bf-4550-bd94-c2fd75978f3c"},"vehicle_type_id":"4","last_reported":1744625502,"current_range_meters":8000,"station_id":"","pricing_plan_id":"cebpf4jnsgd1na2vs0mg"},{"bike_id":"6485cab3-400e-4d26-8bc9-03d5a1620016","system_id":"levelo_inurba_marseille","lat":43.29618,"lon":5.37157,"is_reserved":false,"is_disabled":false,"rental_uris":{"android":"levelo://app?vid=6485cab3-400e-4d26-8bc9-03d5a1620016","ios":"levelo://app?vid=6485cab3-400e-4d26-8bc9-03d5a1620016"},"vehicle_type_id":"4","last_reported":1744625502,"current_range_meters":8400,"station_id":"ce4bgnh2rcd13ifvqc0g","pricing_plan_id":"cebpf4jnsgd1na2vs0mg"},{"bike_id":"1dd60090-4574-48db-99d3-df2b6da6e552","system_id":"levelo_inurba_marseille","lat":43.27811,"lon":5.40717,"is_reserved":false,"is_disabled":false,"rental_uris":{"android":"levelo://app?vid=1dd60090-4574-48db-99d3-df2b6da6e552","ios":"levelo://app?vid=1dd60090-4574-48db-99d3-df2b6da6e552"},"vehicle_type_id":"4","last_reported":1744625502,"current_range_meters":8400,"station_id":"ce4bhnh2rcd13ifvqgtg","pricing_plan_id":"cebpf4jnsgd1na2vs0mg"},{"bike_id":"982bb1bc-457f-43d7-ae21-85035c856353","system_id":"levelo_inurba_marseille","lat":43.22498,"lon":5.34763,"is_reserved":false,"is_disabled":true,"rental_uris":{"android":"levelo://app?vid=982bb1bc-457f-43d7-ae21-85035c856353","ios":"levelo://app?vid=982bb1bc-457f-43d7-ae21-85035c856353"},"vehicle_type_id":"4","last_reported":1744625502,"current_range_meters":8400,"station_id":"st_cvj5dfep6f1abm77gieg","pricing_plan_id":"cebpf4jnsgd1na2vs0mg"},{"bike_id":"06f8afd1-555c-4aa4-acb6-6f16e8bc5e17","system_id":"levelo_inurba_marseille","lat":43.23963,"lon":5.3663,"is_reserved":false,"is_disabled":false,"rental_uris":{"android":"levelo://app?vid=06f8afd1-555c-4aa4-acb6-6f16e8bc5e17","ios":"levelo://app?vid=06f8afd1-555c-4aa4-acb6-6f16e8bc5e17"},"vehicle_type_id":"4","last_reported":1744625502,"current_range_meters":8400,"station_id":"ce4bhi12rcd13ifvqfp0","pricing_plan_id":"cebpf4jnsgd1na2vs0mg"},{"bike_id":"189bc3aa-c23a-4e02-a51e-2e6020d77594","system_id":"levelo_inurba_marseille","lat":43.23134,"lon":5.43712,"is_reserved":false,"is_disabled":false,"rental_uris":{"android":"levelo://app?vid=189bc3aa-c23a-4e02-a51e-2e6020d77594","ios":"levelo://app?vid=189bc3aa-c23a-4e02-a51e-2e6020d77594"},"vehicle_type_id":"4","last_reported":1744625502,"current_range_meters":8400,"station_id":"ce4bhmp2rcd13ifvqgog","pricing_plan_id":"cebpf4jnsgd1na2vs0mg"},{"bike_id":"bdfab5c9-553f-43d4-8c69-cf9e472ad58c","system_id":"levelo_inurba_marseille","lat":43.30608,"lon":5.3723,"is_reserved":false,"is_disabled":false,"rental_uris":{"android":"levelo://app?vid=bdfab5c9-553f-43d4-8c69-cf9e472ad58c","ios":"levelo://app?vid=bdfab5c9-553f-43d4-8c69-cf9e472ad58c"},"vehicle_type_id":"4","last_reported":1744625502,"current_range_meters":7200,"station_id":"ce4bgqh2rcd13ifvqc4g","pricing_plan_id":"cebpf4jnsgd1na2vs0mg"},{"bike_id":"84534c75-afab-43e1-bed1-cacf782229e5","system_id":"levelo_inurba_marseille","lat":43.26584,"lon":5.39776,"is_reserved":false,"is_disabled":false,"rental_uris":{"android":"levelo://app?vid=84534c75-afab-43e1-bed1-cacf782229e5","ios":"levelo://app?vid=84534c75-afab-43e1-bed1-cacf782229e5"},"vehicle_type_id":"4","last_reported":1744625502,"current_range_meters":8800,"station_id":"","pricing_plan_id":"cebpf4jnsgd1na2vs0mg"},{"bike_id":"5a506935-09d5-4e17-bd97-60046956231d","system_id":"levelo_inurba_marseille","lat":43.29898,"lon":5.43672,"is_reserved":false,"is_disabled":false,"rental_uris":{"android":"levelo://app?vid=5a506935-09d5-4e17-bd97-60046956231d","ios":"levelo://app?vid=5a506935-09d5-4e17-bd97-60046956231d"},"vehicle_type_id":"4","last_reported":1744625502,"current_range_meters":8800,"station_id":"ce4bhpp2rcd13ifvqhfg","pricing_plan_id":"cebpf4jnsgd1na2vs0mg"},{"bike_id":"f4c6fd18-b2ed-404d-9b02-9921cb6c1386","system_id":"levelo_inurba_marseille","lat":43.27072,"lon":5.42281,"is_reserved":false,"is_disabled":false,"rental_uris":{"android":"levelo://app?vid=f4c6fd18-b2ed-404d-9b02-9921cb6c1386","ios":"levelo://app?vid=f4c6fd18-b2ed-404d-9b02-9921cb6c1386"},"vehicle_type_id":"4","last_reported":1744625502,"current_range_meters":8800,"station_id":"ce4bhk92rcd13ifvqgb0","pricing_plan_id":"cebpf4jnsgd1na2vs0mg"},{"bike_id":"1de97d97-376a-494b-9971-4d91067f87de","system_id":"levelo_inurba_marseille","lat":43.26931,"lon":5.38923,"is_reserved":false,"is_disabled":false,"rental_uris":{"android":"levelo://app?vid=1de97d97-376a-494b-9971-4d91067f87de","ios":"levelo://app?vid=1de97d97-376a-494b-9971-4d91067f87de"},"vehicle_type_id":"4","last_reported":1744625502,"current_range_meters":12800,"station_id":"ce4bhhh2rcd13ifvqfl0","pricing_plan_id":"cebpf4jnsgd1na2vs0mg"},{"bike_id":"78932edd-c17e-46d9-b9cd-d373d3f4446f","system_id":"levelo_inurba_marseille","lat":43.29969,"lon":5.3849,"is_reserved":false,"is_disabled":false,"rental_uris":{"android":"levelo://app?vid=78932edd-c17e-46d9-b9cd-d373d3f4446f","ios":"levelo://app?vid=78932edd-c17e-46d9-b9cd-d373d3f4446f"},"vehicle_type_id":"4","last_reported":1744625502,"current_range_meters":8800,"station_id":"ce4bgj92rcd13ifvqbd0","pricing_plan_id":"cebpf4jnsgd1na2vs0mg"},{"bike_id":"278e5359-a4da-4aff-a8f8-3268cc7c7e0f","system_id":"levelo_inurba_marseille","lat":43.30553,"lon":5.3672,"is_reserved":false,"is_disabled":false,"rental_uris":{"android":"levelo://app?vid=278e5359-a4da-4aff-a8f8-3268cc7c7e0f","ios":"levelo://app?vid=278e5359-a4da-4aff-a8f8-3268cc7c7e0f"},"vehicle_type_id":"4","last_reported":1744625502,"current_range_meters":11200,"station_id":"ce4bgrp2rcd13ifvqc9g","pricing_plan_id":"cebpf4jnsgd1na2vs0mg"},{"bike_id":"3b9eb7b2-f459-4ece-88d8-9370f04a1afc","system_id":"levelo_inurba_marseille","lat":43.25018,"lon":5.38946,"is_reserved":false,"is_disabled":false,"rental_uris":{"android":"levelo://app?vid=3b9eb7b2-f459-4ece-88d8-9370f04a1afc","ios":"levelo://app?vid=3b9eb7b2-f459-4ece-88d8-9370f04a1afc"},"vehicle_type_id":"4","last_reported":1744625502,"current_range_meters":9200,"station_id":"ce4bhgp2rcd13ifvqfd0","pricing_plan_id":"cebpf4jnsgd1na2vs0mg"},{"bike_id":"8dad6003-637c-464f-bcd0-a8c1537aea14","system_id":"levelo_inurba_marseille","lat":43.30545,"lon":5.365554,"is_reserved":false,"is_disabled":false,"rental_uris":{"android":"levelo://app?vid=8dad6003-637c-464f-bcd0-a8c1537aea14","ios":"levelo://app?vid=8dad6003-637c-464f-bcd0-a8c1537aea14"},"vehicle_type_id":"4","last_reported":1744625502,"current_range_meters":9200,"station_id":"ce4bgs12rcd13ifvqcag","pricing_plan_id":"cebpf4jnsgd1na2vs0mg"},{"bike_id":"72ebdd68-4727-45bd-ae87-df9c54928155","system_id":"levelo_inurba_marseille","lat":43.3255,"lon":5.4106,"is_reserved":false,"is_disabled":false,"rental_uris":{"android":"levelo://app?vid=72ebdd68-4727-45bd-ae87-df9c54928155","ios":"levelo://app?vid=72ebdd68-4727-45bd-ae87-df9c54928155"},"vehicle_type_id":"4","last_reported":1744625502,"current_range_meters":9600,"station_id":"","pricing_plan_id":"cebpf4jnsgd1na2vs0mg"},{"bike_id":"6a003e47-a1cc-4c38-b762-6e37af426d05","system_id":"levelo_inurba_marseille","lat":43.32366,"lon":5.36759,"is_reserved":false,"is_disabled":false,"rental_uris":{"android":"levelo://app?vid=6a003e47-a1cc-4c38-b762-6e37af426d05","ios":"levelo://app?vid=6a003e47-a1cc-4c38-b762-6e37af426d05"},"vehicle_type_id":"4","last_reported":1744625502,"current_range_meters":9600,"station_id":"ce4bhsh2rcd13ifvqi2g","pricing_plan_id":"cebpf4jnsgd1na2vs0mg"},{"bike_id":"6707f46e-ada6-4537-9c75-362f9a324015","system_id":"levelo_inurba_marseille","lat":43.28469,"lon":5.38411,"is_reserved":false,"is_disabled":false,"rental_uris":{"android":"levelo://app?vid=6707f46e-ada6-4537-9c75-362f9a324015","ios":"levelo://app?vid=6707f46e-ada6-4537-9c75-362f9a324015"},"vehicle_type_id":"4","last_reported":1744625502,"current_range_meters":9600,"station_id":"ce4bh512rcd13ifvqe3g","pricing_plan_id":"cebpf4jnsgd1na2vs0mg"},{"bike_id":"7adddab7-923b-4462-b2a1-9f66441fc24d","system_id":"levelo_inurba_marseille","lat":43.30474,"lon":5.37918,"is_reserved":false,"is_disabled":false,"rental_uris":{"android":"levelo://app?vid=7adddab7-923b-4462-b2a1-9f66441fc24d","ios":"levelo://app?vid=7adddab7-923b-4462-b2a1-9f66441fc24d"},"vehicle_type_id":"4","last_reported":1744625502,"current_range_meters":10000,"station_id":"ce4bgup2rcd13ifvqcn0","pricing_plan_id":"cebpf4jnsgd1na2vs0mg"},{"bike_id":"52467ef2-bb23-4d5a-aebd-2782338dc161","system_id":"levelo_inurba_marseille","lat":43.21195,"lon":5.35072,"is_reserved":false,"is_disabled":false,"rental_uris":{"android":"levelo://app?vid=52467ef2-bb23-4d5a-aebd-2782338dc161","ios":"levelo://app?vid=52467ef2-bb23-4d5a-aebd-2782338dc161"},"vehicle_type_id":"4","last_reported":1744625502,"current_range_meters":10000,"station_id":"st_cvj6sg6p6f1abm77japg","pricing_plan_id":"cebpf4jnsgd1na2vs0mg"},{"bike_id":"5cacdac6-936a-44c6-9e06-3d5924e24ab3","system_id":"levelo_inurba_marseille","lat":43.28429,"lon":5.34989,"is_reserved":false,"is_disabled":false,"rental_uris":{"android":"levelo://app?vid=5cacdac6-936a-44c6-9e06-3d5924e24ab3","ios":"levelo://app?vid=5cacdac6-936a-44c6-9e06-3d5924e24ab3"},"vehicle_type_id":"4","last_reported":1744625502,"current_range_meters":10800,"station_id":"ce4bhbh2rcd13ifvqepg","pricing_plan_id":"cebpf4jnsgd1na2vs0mg"},{"bike_id":"0d8bdb10-2148-468c-be8d-fbb7185ec7c9","system_id":"levelo_inurba_marseille","lat":43.23147,"lon":5.43719,"is_reserved":false,"is_disabled":false,"rental_uris":{"android":"levelo://app?vid=0d8bdb10-2148-468c-be8d-fbb7185ec7c9","ios":"levelo://app?vid=0d8bdb10-2148-468c-be8d-fbb7185ec7c9"},"vehicle_type_id":"4","last_reported":1744625502,"current_range_meters":10800,"station_id":"ce4bhmp2rcd13ifvqgog","pricing_plan_id":"cebpf4jnsgd1na2vs0mg"},{"bike_id":"525d972b-6aa7-4562-af1d-4484491521b7","system_id":"levelo_inurba_marseille","lat":43.2957,"lon":5.37511,"is_reserved":false,"is_disabled":true,"rental_uris":{"android":"levelo://app?vid=525d972b-6aa7-4562-af1d-4484491521b7","ios":"levelo://app?vid=525d972b-6aa7-4562-af1d-4484491521b7"},"vehicle_type_id":"4","last_reported":1744625502,"current_range_meters":10800,"station_id":"ce4bgh92rcd13ifvqb50","pricing_plan_id":"cebpf4jnsgd1na2vs0mg"},{"bike_id":"343cc64c-4a39-45e1-84bf-d73c3feac488","system_id":"levelo_inurba_marseille","lat":43.31488,"lon":5.37297,"is_reserved":false,"is_disabled":false,"rental_uris":{"android":"levelo://app?vid=343cc64c-4a39-45e1-84bf-d73c3feac488","ios":"levelo://app?vid=343cc64c-4a39-45e1-84bf-d73c3feac488"},"vehicle_type_id":"4","last_reported":1744625502,"current_range_meters":10800,"station_id":"ce4bgt12rcd13ifvqcd0","pricing_plan_id":"cebpf4jnsgd1na2vs0mg"},{"bike_id":"e931a8f5-1078-4a04-a56d-8cfff48676c5","system_id":"levelo_inurba_marseille","lat":43.26944,"lon":5.40279,"is_reserved":false,"is_disabled":true,"rental_uris":{"android":"levelo://app?vid=e931a8f5-1078-4a04-a56d-8cfff48676c5","ios":"levelo://app?vid=e931a8f5-1078-4a04-a56d-8cfff48676c5"},"vehicle_type_id":"4","last_reported":1744625502,"current_range_meters":11200,"station_id":"cjm6bp8fraef2m0cb0m0","pricing_plan_id":"cebpf4jnsgd1na2vs0mg"},{"bike_id":"ebea6418-13ee-4172-83e1-2976fe1ed587","system_id":"levelo_inurba_marseille","lat":43.28269,"lon":5.35065,"is_reserved":false,"is_disabled":false,"rental_uris":{"android":"levelo://app?vid=ebea6418-13ee-4172-83e1-2976fe1ed587","ios":"levelo://app?vid=ebea6418-13ee-4172-83e1-2976fe1ed587"},"vehicle_type_id":"4","last_reported":1744625502,"current_range_meters":7200,"station_id":"ce4bhbp2rcd13ifvqerg","pricing_plan_id":"cebpf4jnsgd1na2vs0mg"},{"bike_id":"ea4daacc-d1ef-47e2-9d0a-690fb7f50e2d","system_id":"levelo_inurba_marseille","lat":43.30082,"lon":5.39087,"is_reserved":false,"is_disabled":false,"rental_uris":{"android":"levelo://app?vid=ea4daacc-d1ef-47e2-9d0a-690fb7f50e2d","ios":"levelo://app?vid=ea4daacc-d1ef-47e2-9d0a-690fb7f50e2d"},"vehicle_type_id":"4","last_reported":1744625502,"current_range_meters":11600,"station_id":"ce4bh192rcd13ifvqdb0","pricing_plan_id":"cebpf4jnsgd1na2vs0mg"},{"bike_id":"49dc020a-a67a-4114-a19a-c92712ea3525","system_id":"levelo_inurba_marseille","lat":43.27941,"lon":5.41045,"is_reserved":false,"is_disabled":false,"rental_uris":{"android":"levelo://app?vid=49dc020a-a67a-4114-a19a-c92712ea3525","ios":"levelo://app?vid=49dc020a-a67a-4114-a19a-c92712ea3525"},"vehicle_type_id":"4","last_reported":1744625502,"current_range_meters":11600,"station_id":"ce4bgl12rcd13ifvqbo0","pricing_plan_id":"cebpf4jnsgd1na2vs0mg"},{"bike_id":"5c1ead2a-3c46-4b74-a97b-66a1fdf95aaf","system_id":"levelo_inurba_marseille","lat":43.29516,"lon":5.3751,"is_reserved":false,"is_disabled":false,"rental_uris":{"android":"levelo://app?vid=5c1ead2a-3c46-4b74-a97b-66a1fdf95aaf","ios":"levelo://app?vid=5c1ead2a-3c46-4b74-a97b-66a1fdf95aaf"},"vehicle_type_id":"4","last_reported":1744625502,"current_range_meters":12000,"station_id":"ce4bgkp2rcd13ifvqbmg","pricing_plan_id":"cebpf4jnsgd1na2vs0mg"},{"bike_id":"8645c423-1e29-4e06-95ef-5e30c848bfa3","system_id":"levelo_inurba_marseille","lat":43.258607,"lon":5.39893,"is_reserved":false,"is_disabled":false,"rental_uris":{"android":"levelo://app?vid=8645c423-1e29-4e06-95ef-5e30c848bfa3","ios":"levelo://app?vid=8645c423-1e29-4e06-95ef-5e30c848bfa3"},"vehicle_type_id":"4","last_reported":1744625502,"current_range_meters":12400,"station_id":"","pricing_plan_id":"cebpf4jnsgd1na2vs0mg"},{"bike_id":"2263131a-ceaf-472f-b821-6c2aebaa55cb","system_id":"levelo_inurba_marseille","lat":43.29527,"lon":5.39036,"is_reserved":false,"is_disabled":false,"rental_uris":{"android":"levelo://app?vid=2263131a-ceaf-472f-b821-6c2aebaa55cb","ios":"levelo://app?vid=2263131a-ceaf-472f-b821-6c2aebaa55cb"},"vehicle_type_id":"4","last_reported":1744625502,"current_range_meters":12400,"station_id":"ce4bh3p2rcd13ifvqdp0","pricing_plan_id":"cebpf4jnsgd1na2vs0mg"},{"bike_id":"407b49ad-80ce-4c27-957c-a8582dd85f9e","system_id":"levelo_inurba_marseille","lat":43.28612,"lon":5.35108,"is_reserved":false,"is_disabled":false,"rental_uris":{"android":"levelo://app?vid=407b49ad-80ce-4c27-957c-a8582dd85f9e","ios":"levelo://app?vid=407b49ad-80ce-4c27-957c-a8582dd85f9e"},"vehicle_type_id":"4","last_reported":1744625502,"current_range_meters":12800,"station_id":"ce4bhch2rcd13ifvqeug","pricing_plan_id":"cebpf4jnsgd1na2vs0mg"},{"bike_id":"b1da3534-6173-4355-a585-74dd784927c4","system_id":"levelo_inurba_marseille","lat":43.30477,"lon":5.37923,"is_reserved":false,"is_disabled":false,"rental_uris":{"android":"levelo://app?vid=b1da3534-6173-4355-a585-74dd784927c4","ios":"levelo://app?vid=b1da3534-6173-4355-a585-74dd784927c4"},"vehicle_type_id":"4","last_reported":1744625502,"current_range_meters":12800,"station_id":"ce4bgup2rcd13ifvqcn0","pricing_plan_id":"cebpf4jnsgd1na2vs0mg"},{"bike_id":"d3479346-b013-4198-aec4-d4597135f0de","system_id":"levelo_inurba_marseille","lat":43.28465,"lon":5.35887,"is_reserved":false,"is_disabled":false,"rental_uris":{"android":"levelo://app?vid=d3479346-b013-4198-aec4-d4597135f0de","ios":"levelo://app?vid=d3479346-b013-4198-aec4-d4597135f0de"},"vehicle_type_id":"4","last_reported":1744625502,"current_range_meters":12800,"station_id":"ce4bhah2rcd13ifvqei0","pricing_plan_id":"cebpf4jnsgd1na2vs0mg"},{"bike_id":"a86ae036-c0e8-4aab-8121-44eaaed00861","system_id":"levelo_inurba_marseille","lat":43.28495,"lon":5.38423,"is_reserved":false,"is_disabled":false,"rental_uris":{"android":"levelo://app?vid=a86ae036-c0e8-4aab-8121-44eaaed00861","ios":"levelo://app?vid=a86ae036-c0e8-4aab-8121-44eaaed00861"},"vehicle_type_id":"4","last_reported":1744625502,"current_range_meters":13600,"station_id":"ce4bh512rcd13ifvqe3g","pricing_plan_id":"cebpf4jnsgd1na2vs0mg"},{"bike_id":"d2f6a288-7d44-4be4-b798-932022d90e9d","system_id":"levelo_inurba_marseille","lat":43.30284,"lon":5.37704,"is_reserved":false,"is_disabled":false,"rental_uris":{"android":"levelo://app?vid=d2f6a288-7d44-4be4-b798-932022d90e9d","ios":"levelo://app?vid=d2f6a288-7d44-4be4-b798-932022d90e9d"},"vehicle_type_id":"4","last_reported":1744625502,"current_range_meters":14000,"station_id":"ce4bguh2rcd13ifvqcj0","pricing_plan_id":"cebpf4jnsgd1na2vs0mg"},{"bike_id":"34bdf589-744f-4fe4-af1b-91b4155cb538","system_id":"levelo_inurba_marseille","lat":43.30137,"lon":5.37415,"is_reserved":false,"is_disabled":false,"rental_uris":{"android":"levelo://app?vid=34bdf589-744f-4fe4-af1b-91b4155cb538","ios":"levelo://app?vid=34bdf589-744f-4fe4-af1b-91b4155cb538"},"vehicle_type_id":"4","last_reported":1744625502,"current_range_meters":14000,"station_id":"ce4bgs92rcd13ifvqcc0","pricing_plan_id":"cebpf4jnsgd1na2vs0mg"},{"bike_id":"10aca034-1e00-40fe-b124-adc554df6a01","system_id":"levelo_inurba_marseille","lat":43.29839,"lon":5.36268,"is_reserved":false,"is_disabled":false,"rental_uris":{"android":"levelo://app?vid=10aca034-1e00-40fe-b124-adc554df6a01","ios":"levelo://app?vid=10aca034-1e00-40fe-b124-adc554df6a01"},"vehicle_type_id":"4","last_reported":1744625502,"current_range_meters":14000,"station_id":"ce4bgpp2rcd13ifvqc3g","pricing_plan_id":"cebpf4jnsgd1na2vs0mg"},{"bike_id":"5418d109-d00b-4f33-abb8-1ad5dbc1c1ea","system_id":"levelo_inurba_marseille","lat":43.23157,"lon":5.43722,"is_reserved":false,"is_disabled":false,"rental_uris":{"android":"levelo://app?vid=5418d109-d00b-4f33-abb8-1ad5dbc1c1ea","ios":"levelo://app?vid=5418d109-d00b-4f33-abb8-1ad5dbc1c1ea"},"vehicle_type_id":"4","last_reported":1744625502,"current_range_meters":14400,"station_id":"ce4bhmp2rcd13ifvqgog","pricing_plan_id":"cebpf4jnsgd1na2vs0mg"},{"bike_id":"fb13c941-1858-46a4-86ad-2a5e302996c3","system_id":"levelo_inurba_marseille","lat":43.25868,"lon":5.39923,"is_reserved":false,"is_disabled":true,"rental_uris":{"android":"levelo://app?vid=fb13c941-1858-46a4-86ad-2a5e302996c3","ios":"levelo://app?vid=fb13c941-1858-46a4-86ad-2a5e302996c3"},"vehicle_type_id":"4","last_reported":1744625502,"current_range_meters":14400,"station_id":"ce4bhl92rcd13ifvqghg","pricing_plan_id":"cebpf4jnsgd1na2vs0mg"},{"bike_id":"9032fd9f-8258-4b06-828f-3216c8110290","system_id":"levelo_inurba_marseille","lat":43.30986,"lon":5.41726,"is_reserved":false,"is_disabled":true,"rental_uris":{"android":"levelo://app?vid=9032fd9f-8258-4b06-828f-3216c8110290","ios":"levelo://app?vid=9032fd9f-8258-4b06-828f-3216c8110290"},"vehicle_type_id":"4","last_reported":1744625502,"current_range_meters":14400,"station_id":"","pricing_plan_id":"cebpf4jnsgd1na2vs0mg"},{"bike_id":"5badbb30-e7bf-4735-8929-7b4b101f03b1","system_id":"levelo_inurba_marseille","lat":43.24178,"lon":5.36403,"is_reserved":false,"is_disabled":false,"rental_uris":{"android":"levelo://app?vid=5badbb30-e7bf-4735-8929-7b4b101f03b1","ios":"levelo://app?vid=5badbb30-e7bf-4735-8929-7b4b101f03b1"},"vehicle_type_id":"4","last_reported":1744625502,"current_range_meters":14800,"station_id":"cpo36qri1sfpv3e86is0","pricing_plan_id":"cebpf4jnsgd1na2vs0mg"},{"bike_id":"216a8464-4ea5-4b56-8cd6-224becea39c4","system_id":"levelo_inurba_marseille","lat":43.27813,"lon":5.40707,"is_reserved":false,"is_disabled":false,"rental_uris":{"android":"levelo://app?vid=216a8464-4ea5-4b56-8cd6-224becea39c4","ios":"levelo://app?vid=216a8464-4ea5-4b56-8cd6-224becea39c4"},"vehicle_type_id":"4","last_reported":1744625502,"current_range_meters":14800,"station_id":"ce4bhnh2rcd13ifvqgtg","pricing_plan_id":"cebpf4jnsgd1na2vs0mg"},{"bike_id":"ca1496b1-2df0-48a3-b07c-fc956ec83ed9","system_id":"levelo_inurba_marseille","lat":43.29198,"lon":5.3581,"is_reserved":false,"is_disabled":false,"rental_uris":{"android":"levelo://app?vid=ca1496b1-2df0-48a3-b07c-fc956ec83ed9","ios":"levelo://app?vid=ca1496b1-2df0-48a3-b07c-fc956ec83ed9"},"vehicle_type_id":"4","last_reported":1744625502,"current_range_meters":15200,"station_id":"ce4bhb12rcd13ifvqel0","pricing_plan_id":"cebpf4jnsgd1na2vs0mg"},{"bike_id":"27a55245-8dd2-4f1a-af63-95a9d7b71690","system_id":"levelo_inurba_marseille","lat":43.31072,"lon":5.37867,"is_reserved":false,"is_disabled":true,"rental_uris":{"android":"levelo://app?vid=27a55245-8dd2-4f1a-af63-95a9d7b71690","ios":"levelo://app?vid=27a55245-8dd2-4f1a-af63-95a9d7b71690"},"vehicle_type_id":"4","last_reported":1744625502,"current_range_meters":15200,"station_id":"","pricing_plan_id":"cebpf4jnsgd1na2vs0mg"},{"bike_id":"4c625349-4247-4aea-87b1-81a82200cfdd","system_id":"levelo_inurba_marseille","lat":43.28604,"lon":5.35105,"is_reserved":false,"is_disabled":false,"rental_uris":{"android":"levelo://app?vid=4c625349-4247-4aea-87b1-81a82200cfdd","ios":"levelo://app?vid=4c625349-4247-4aea-87b1-81a82200cfdd"},"vehicle_type_id":"4","last_reported":1744625502,"current_range_meters":15200,"station_id":"ce4bhch2rcd13ifvqeug","pricing_plan_id":"cebpf4jnsgd1na2vs0mg"},{"bike_id":"f1aea9a8-6969-4cd8-aa54-6727f2b2d95e","system_id":"levelo_inurba_marseille","lat":43.26687,"lon":5.38272,"is_reserved":false,"is_disabled":false,"rental_uris":{"android":"levelo://app?vid=f1aea9a8-6969-4cd8-aa54-6727f2b2d95e","ios":"levelo://app?vid=f1aea9a8-6969-4cd8-aa54-6727f2b2d95e"},"vehicle_type_id":"4","last_reported":1744625502,"current_range_meters":16000,"station_id":"ce4bhg92rcd13ifvqf90","pricing_plan_id":"cebpf4jnsgd1na2vs0mg"},{"bike_id":"9943d934-278b-4495-a05f-a4f88d736bd5","system_id":"levelo_inurba_marseille","lat":43.30478,"lon":5.379,"is_reserved":false,"is_disabled":false,"rental_uris":{"android":"levelo://app?vid=9943d934-278b-4495-a05f-a4f88d736bd5","ios":"levelo://app?vid=9943d934-278b-4495-a05f-a4f88d736bd5"},"vehicle_type_id":"4","last_reported":1744625502,"current_range_meters":16000,"station_id":"ce4bgup2rcd13ifvqcn0","pricing_plan_id":"cebpf4jnsgd1na2vs0mg"},{"bike_id":"8a0c61d9-252e-40e8-bc74-5b46b12e7db5","system_id":"levelo_inurba_marseille","lat":43.289313,"lon":5.384029,"is_reserved":false,"is_disabled":false,"rental_uris":{"android":"levelo://app?vid=8a0c61d9-252e-40e8-bc74-5b46b12e7db5","ios":"levelo://app?vid=8a0c61d9-252e-40e8-bc74-5b46b12e7db5"},"vehicle_type_id":"4","last_reported":1744625502,"current_range_meters":16000,"station_id":"ce4bh612rcd13ifvqe6g","pricing_plan_id":"cebpf4jnsgd1na2vs0mg"},{"bike_id":"1205ff5c-7ee5-4472-a007-199ceacf55e4","system_id":"levelo_inurba_marseille","lat":43.29919,"lon":5.37487,"is_reserved":false,"is_disabled":false,"rental_uris":{"android":"levelo://app?vid=1205ff5c-7ee5-4472-a007-199ceacf55e4","ios":"levelo://app?vid=1205ff5c-7ee5-4472-a007-199ceacf55e4"},"vehicle_type_id":"4","last_reported":1744625502,"current_range_meters":15200,"station_id":"ce4bgjh2rcd13ifvqbg0","pricing_plan_id":"cebpf4jnsgd1na2vs0mg"},{"bike_id":"45f2fd06-e393-470b-b399-4e9b1478c078","system_id":"levelo_inurba_marseille","lat":43.28676,"lon":5.38669,"is_reserved":false,"is_disabled":false,"rental_uris":{"android":"levelo://app?vid=45f2fd06-e393-470b-b399-4e9b1478c078","ios":"levelo://app?vid=45f2fd06-e393-470b-b399-4e9b1478c078"},"vehicle_type_id":"4","last_reported":1744625502,"current_range_meters":16000,"station_id":"ce4bh492rcd13ifvqdug","pricing_plan_id":"cebpf4jnsgd1na2vs0mg"},{"bike_id":"61377ee4-fd99-4c2f-b5ad-a5ac167d945b","system_id":"levelo_inurba_marseille","lat":43.2317,"lon":5.43689,"is_reserved":false,"is_disabled":false,"rental_uris":{"android":"levelo://app?vid=61377ee4-fd99-4c2f-b5ad-a5ac167d945b","ios":"levelo://app?vid=61377ee4-fd99-4c2f-b5ad-a5ac167d945b"},"vehicle_type_id":"4","last_reported":1744625502,"current_range_meters":16000,"station_id":"ce4bhmp2rcd13ifvqgog","pricing_plan_id":"cebpf4jnsgd1na2vs0mg"},{"bike_id":"c3bdd509-19cb-414e-bd26-cf394e35408d","system_id":"levelo_inurba_marseille","lat":43.29895,"lon":5.43666,"is_reserved":false,"is_disabled":false,"rental_uris":{"android":"levelo://app?vid=c3bdd509-19cb-414e-bd26-cf394e35408d","ios":"levelo://app?vid=c3bdd509-19cb-414e-bd26-cf394e35408d"},"vehicle_type_id":"4","last_reported":1744625502,"current_range_meters":16400,"station_id":"ce4bhpp2rcd13ifvqhfg","pricing_plan_id":"cebpf4jnsgd1na2vs0mg"},{"bike_id":"d5a25843-a862-432c-b9b2-e2627b892a44","system_id":"levelo_inurba_marseille","lat":43.31374,"lon":5.36714,"is_reserved":false,"is_disabled":false,"rental_uris":{"android":"levelo://app?vid=d5a25843-a862-432c-b9b2-e2627b892a44","ios":"levelo://app?vid=d5a25843-a862-432c-b9b2-e2627b892a44"},"vehicle_type_id":"4","last_reported":1744625502,"current_range_meters":16400,"station_id":"ce4bgr92rcd13ifvqc6g","pricing_plan_id":"cebpf4jnsgd1na2vs0mg"},{"bike_id":"31ad0aaf-c76b-4424-b2d1-5e6ff16af216","system_id":"levelo_inurba_marseille","lat":43.30952,"lon":5.39027,"is_reserved":false,"is_disabled":true,"rental_uris":{"android":"levelo://app?vid=31ad0aaf-c76b-4424-b2d1-5e6ff16af216","ios":"levelo://app?vid=31ad0aaf-c76b-4424-b2d1-5e6ff16af216"},"vehicle_type_id":"4","last_reported":1744625502,"current_range_meters":16400,"station_id":"ce4bgup2rcd13ifvqco0","pricing_plan_id":"cebpf4jnsgd1na2vs0mg"},{"bike_id":"40db818b-5b9e-46bf-8274-264778958c39","system_id":"levelo_inurba_marseille","lat":43.23148,"lon":5.43699,"is_reserved":false,"is_disabled":false,"rental_uris":{"android":"levelo://app?vid=40db818b-5b9e-46bf-8274-264778958c39","ios":"levelo://app?vid=40db818b-5b9e-46bf-8274-264778958c39"},"vehicle_type_id":"4","last_reported":1744625502,"current_range_meters":16400,"station_id":"ce4bhmp2rcd13ifvqgog","pricing_plan_id":"cebpf4jnsgd1na2vs0mg"},{"bike_id":"4bde7ac1-16a4-4691-a3fc-be036661e2eb","system_id":"levelo_inurba_marseille","lat":43.24166,"lon":5.36396,"is_reserved":false,"is_disabled":false,"rental_uris":{"android":"levelo://app?vid=4bde7ac1-16a4-4691-a3fc-be036661e2eb","ios":"levelo://app?vid=4bde7ac1-16a4-4691-a3fc-be036661e2eb"},"vehicle_type_id":"4","last_reported":1744625502,"current_range_meters":16800,"station_id":"cpo36qri1sfpv3e86is0","pricing_plan_id":"cebpf4jnsgd1na2vs0mg"},{"bike_id":"a818834f-725d-4dbb-9bab-d3518b1b13c4","system_id":"levelo_inurba_marseille","lat":43.3236,"lon":5.36777,"is_reserved":false,"is_disabled":false,"rental_uris":{"android":"levelo://app?vid=a818834f-725d-4dbb-9bab-d3518b1b13c4","ios":"levelo://app?vid=a818834f-725d-4dbb-9bab-d3518b1b13c4"},"vehicle_type_id":"4","last_reported":1744625502,"current_range_meters":16800,"station_id":"ce4bhsh2rcd13ifvqi2g","pricing_plan_id":"cebpf4jnsgd1na2vs0mg"},{"bike_id":"7068e823-0ef7-4bec-9d46-9774d9ea3ba0","system_id":"levelo_inurba_marseille","lat":43.31488,"lon":5.37303,"is_reserved":false,"is_disabled":false,"rental_uris":{"android":"levelo://app?vid=7068e823-0ef7-4bec-9d46-9774d9ea3ba0","ios":"levelo://app?vid=7068e823-0ef7-4bec-9d46-9774d9ea3ba0"},"vehicle_type_id":"4","last_reported":1744625502,"current_range_meters":16800,"station_id":"ce4bgt12rcd13ifvqcd0","pricing_plan_id":"cebpf4jnsgd1na2vs0mg"},{"bike_id":"43edb878-2357-4283-a8e9-17a5617c0323","system_id":"levelo_inurba_marseille","lat":43.289332,"lon":5.38402,"is_reserved":false,"is_disabled":false,"rental_uris":{"android":"levelo://app?vid=43edb878-2357-4283-a8e9-17a5617c0323","ios":"levelo://app?vid=43edb878-2357-4283-a8e9-17a5617c0323"},"vehicle_type_id":"4","last_reported":1744625502,"current_range_meters":16800,"station_id":"ce4bh612rcd13ifvqe6g","pricing_plan_id":"cebpf4jnsgd1na2vs0mg"},{"bike_id":"9481a4d4-998c-4242-822b-0b8fa3017440","system_id":"levelo_inurba_marseille","lat":43.28861,"lon":5.39316,"is_reserved":false,"is_disabled":true,"rental_uris":{"android":"levelo://app?vid=9481a4d4-998c-4242-822b-0b8fa3017440","ios":"levelo://app?vid=9481a4d4-998c-4242-822b-0b8fa3017440"},"vehicle_type_id":"4","last_reported":1744625502,"current_range_meters":16800,"station_id":"ce4bh2p2rcd13ifvqdi0","pricing_plan_id":"cebpf4jnsgd1na2vs0mg"},{"bike_id":"08e69920-6699-44a2-bf5e-065531bec167","system_id":"levelo_inurba_marseille","lat":43.2927,"lon":5.40128,"is_reserved":false,"is_disabled":true,"rental_uris":{"android":"levelo://app?vid=08e69920-6699-44a2-bf5e-065531bec167","ios":"levelo://app?vid=08e69920-6699-44a2-bf5e-065531bec167"},"vehicle_type_id":"4","last_reported":1744625502,"current_range_meters":16800,"station_id":"ce4bh312rcd13ifvqdk0","pricing_plan_id":"cebpf4jnsgd1na2vs0mg"},{"bike_id":"56135a82-d19f-45ea-a72c-58b1131d0fcb","system_id":"levelo_inurba_marseille","lat":43.28085,"lon":5.396652,"is_reserved":false,"is_disabled":true,"rental_uris":{"android":"levelo://app?vid=56135a82-d19f-45ea-a72c-58b1131d0fcb","ios":"levelo://app?vid=56135a82-d19f-45ea-a72c-58b1131d0fcb"},"vehicle_type_id":"4","last_reported":1744625502,"current_range_meters":16800,"station_id":"ce4bho12rcd13ifvqh2g","pricing_plan_id":"cebpf4jnsgd1na2vs0mg"},{"bike_id":"301f53d6-0a8d-48c7-b250-860880def1f4","system_id":"levelo_inurba_marseille","lat":43.31037,"lon":5.37096,"is_reserved":false,"is_disabled":false,"rental_uris":{"android":"levelo://app?vid=301f53d6-0a8d-48c7-b250-860880def1f4","ios":"levelo://app?vid=301f53d6-0a8d-48c7-b250-860880def1f4"},"vehicle_type_id":"4","last_reported":1744625502,"current_range_meters":17200,"station_id":"","pricing_plan_id":"cebpf4jnsgd1na2vs0mg"},{"bike_id":"4c7e3872-2a7d-46f3-b581-3ef46671ef50","system_id":"levelo_inurba_marseille","lat":43.26809,"lon":5.40259,"is_reserved":false,"is_disabled":false,"rental_uris":{"android":"levelo://app?vid=4c7e3872-2a7d-46f3-b581-3ef46671ef50","ios":"levelo://app?vid=4c7e3872-2a7d-46f3-b581-3ef46671ef50"},"vehicle_type_id":"4","last_reported":1744625502,"current_range_meters":17200,"station_id":"ce501612rcd8frsf0b60","pricing_plan_id":"cebpf4jnsgd1na2vs0mg"},{"bike_id":"7c2a4588-bcf7-4c8d-b580-ff8de5ba6372","system_id":"levelo_inurba_marseille","lat":43.28705,"lon":5.39965,"is_reserved":false,"is_disabled":true,"rental_uris":{"android":"levelo://app?vid=7c2a4588-bcf7-4c8d-b580-ff8de5ba6372","ios":"levelo://app?vid=7c2a4588-bcf7-4c8d-b580-ff8de5ba6372"},"vehicle_type_id":"4","last_reported":1744625502,"current_range_meters":17200,"station_id":"ce4bho92rcd13ifvqh3g","pricing_plan_id":"cebpf4jnsgd1na2vs0mg"},{"bike_id":"72a1fa9a-ccb2-4fce-b7f1-0581d7ace167","system_id":"levelo_inurba_marseille","lat":43.29621,"lon":5.37718,"is_reserved":false,"is_disabled":false,"rental_uris":{"android":"levelo://app?vid=72a1fa9a-ccb2-4fce-b7f1-0581d7ace167","ios":"levelo://app?vid=72a1fa9a-ccb2-4fce-b7f1-0581d7ace167"},"vehicle_type_id":"4","last_reported":1744625502,"current_range_meters":17200,"station_id":"ce4bgi92rcd13ifvqb90","pricing_plan_id":"cebpf4jnsgd1na2vs0mg"},{"bike_id":"91cd5f61-fcd7-440a-9c95-b35a968d1ead","system_id":"levelo_inurba_marseille","lat":43.25782,"lon":5.41065,"is_reserved":false,"is_disabled":false,"rental_uris":{"android":"levelo://app?vid=91cd5f61-fcd7-440a-9c95-b35a968d1ead","ios":"levelo://app?vid=91cd5f61-fcd7-440a-9c95-b35a968d1ead"},"vehicle_type_id":"4","last_reported":1744625502,"current_range_meters":17200,"station_id":"","pricing_plan_id":"cebpf4jnsgd1na2vs0mg"},{"bike_id":"cae5cb7a-b5a0-4962-b670-708b44fc2a06","system_id":"levelo_inurba_marseille","lat":43.30554,"lon":5.36535,"is_reserved":false,"is_disabled":false,"rental_uris":{"android":"levelo://app?vid=cae5cb7a-b5a0-4962-b670-708b44fc2a06","ios":"levelo://app?vid=cae5cb7a-b5a0-4962-b670-708b44fc2a06"},"vehicle_type_id":"4","last_reported":1744625502,"current_range_meters":17200,"station_id":"ce4bgs12rcd13ifvqcag","pricing_plan_id":"cebpf4jnsgd1na2vs0mg"},{"bike_id":"82f5cf43-9f59-4ba5-9847-1b7ef8d186fb","system_id":"levelo_inurba_marseille","lat":43.2679,"lon":5.39419,"is_reserved":false,"is_disabled":false,"rental_uris":{"android":"levelo://app?vid=82f5cf43-9f59-4ba5-9847-1b7ef8d186fb","ios":"levelo://app?vid=82f5cf43-9f59-4ba5-9847-1b7ef8d186fb"},"vehicle_type_id":"4","last_reported":1744625502,"current_range_meters":17600,"station_id":"ce4bhh12rcd13ifvqfg0","pricing_plan_id":"cebpf4jnsgd1na2vs0mg"},{"bike_id":"ec55715f-50ef-4b62-b932-d89df8729be7","system_id":"levelo_inurba_marseille","lat":43.31591,"lon":5.38867,"is_reserved":false,"is_disabled":false,"rental_uris":{"android":"levelo://app?vid=ec55715f-50ef-4b62-b932-d89df8729be7","ios":"levelo://app?vid=ec55715f-50ef-4b62-b932-d89df8729be7"},"vehicle_type_id":"4","last_reported":1744625502,"current_range_meters":17600,"station_id":"","pricing_plan_id":"cebpf4jnsgd1na2vs0mg"},{"bike_id":"98f1ad2d-9ddc-42d6-82bf-b6c56a8de94a","system_id":"levelo_inurba_marseille","lat":43.29597,"lon":5.37718,"is_reserved":false,"is_disabled":true,"rental_uris":{"android":"levelo://app?vid=98f1ad2d-9ddc-42d6-82bf-b6c56a8de94a","ios":"levelo://app?vid=98f1ad2d-9ddc-42d6-82bf-b6c56a8de94a"},"vehicle_type_id":"4","last_reported":1744625502,"current_range_meters":17600,"station_id":"ce4bgi92rcd13ifvqb90","pricing_plan_id":"cebpf4jnsgd1na2vs0mg"},{"bike_id":"85732ddb-8399-49d6-a41e-e00dbdf23169","system_id":"levelo_inurba_marseille","lat":43.32482,"lon":5.3655,"is_reserved":false,"is_disabled":false,"rental_uris":{"android":"levelo://app?vid=85732ddb-8399-49d6-a41e-e00dbdf23169","ios":"levelo://app?vid=85732ddb-8399-49d6-a41e-e00dbdf23169"},"vehicle_type_id":"4","last_reported":1744625502,"current_range_meters":17600,"station_id":"ce4bhs12rcd13ifvqhvg","pricing_plan_id":"cebpf4jnsgd1na2vs0mg"},{"bike_id":"86507adb-43c1-4a89-acc7-c74cd80a099f","system_id":"levelo_inurba_marseille","lat":43.23124,"lon":5.36659,"is_reserved":false,"is_disabled":false,"rental_uris":{"android":"levelo://app?vid=86507adb-43c1-4a89-acc7-c74cd80a099f","ios":"levelo://app?vid=86507adb-43c1-4a89-acc7-c74cd80a099f"},"vehicle_type_id":"4","last_reported":1744625502,"current_range_meters":17600,"station_id":"","pricing_plan_id":"cebpf4jnsgd1na2vs0mg"},{"bike_id":"e1cdcd88-4a6b-4a95-887f-82f9936440ef","system_id":"levelo_inurba_marseille","lat":43.32551,"lon":5.41453,"is_reserved":false,"is_disabled":false,"rental_uris":{"android":"levelo://app?vid=e1cdcd88-4a6b-4a95-887f-82f9936440ef","ios":"levelo://app?vid=e1cdcd88-4a6b-4a95-887f-82f9936440ef"},"vehicle_type_id":"4","last_reported":1744625502,"current_range_meters":18000,"station_id":"ce4bhq12rcd13ifvqhhg","pricing_plan_id":"cebpf4jnsgd1na2vs0mg"},{"bike_id":"9ccaf1e8-d14c-4218-be36-430bac425c11","system_id":"levelo_inurba_marseille","lat":43.30602,"lon":5.39361,"is_reserved":false,"is_disabled":true,"rental_uris":{"android":"levelo://app?vid=9ccaf1e8-d14c-4218-be36-430bac425c11","ios":"levelo://app?vid=9ccaf1e8-d14c-4218-be36-430bac425c11"},"vehicle_type_id":"4","last_reported":1744625502,"current_range_meters":18000,"station_id":"ce4bh0p2rcd13ifvqd80","pricing_plan_id":"cebpf4jnsgd1na2vs0mg"},{"bike_id":"1d01be78-c40e-4baa-90dd-b4c39cf9e58c","system_id":"levelo_inurba_marseille","lat":43.31353,"lon":5.36728,"is_reserved":false,"is_disabled":false,"rental_uris":{"android":"levelo://app?vid=1d01be78-c40e-4baa-90dd-b4c39cf9e58c","ios":"levelo://app?vid=1d01be78-c40e-4baa-90dd-b4c39cf9e58c"},"vehicle_type_id":"4","last_reported":1744625502,"current_range_meters":18000,"station_id":"ce4bgr92rcd13ifvqc6g","pricing_plan_id":"cebpf4jnsgd1na2vs0mg"},{"bike_id":"382a1a40-cce5-4bcf-8677-ad51fb5a2457","system_id":"levelo_inurba_marseille","lat":43.28858,"lon":5.39335,"is_reserved":false,"is_disabled":true,"rental_uris":{"android":"levelo://app?vid=382a1a40-cce5-4bcf-8677-ad51fb5a2457","ios":"levelo://app?vid=382a1a40-cce5-4bcf-8677-ad51fb5a2457"},"vehicle_type_id":"4","last_reported":1744625502,"current_range_meters":18000,"station_id":"ce4bh2p2rcd13ifvqdi0","pricing_plan_id":"cebpf4jnsgd1na2vs0mg"},{"bike_id":"d071f3fc-b4c2-41a3-8922-180306498d8c","system_id":"levelo_inurba_marseille","lat":43.296005,"lon":5.381005,"is_reserved":false,"is_disabled":false,"rental_uris":{"android":"levelo://app?vid=d071f3fc-b4c2-41a3-8922-180306498d8c","ios":"levelo://app?vid=d071f3fc-b4c2-41a3-8922-180306498d8c"},"vehicle_type_id":"4","last_reported":1744625502,"current_range_meters":18800,"station_id":"ce4bhgp2rcd13ifvqfe0","pricing_plan_id":"cebpf4jnsgd1na2vs0mg"},{"bike_id":"177c0557-58ff-4f4f-9a4b-4b8689a6410b","system_id":"levelo_inurba_marseille","lat":43.28708,"lon":5.39976,"is_reserved":false,"is_disabled":true,"rental_uris":{"android":"levelo://app?vid=177c0557-58ff-4f4f-9a4b-4b8689a6410b","ios":"levelo://app?vid=177c0557-58ff-4f4f-9a4b-4b8689a6410b"},"vehicle_type_id":"4","last_reported":1744625502,"current_range_meters":18800,"station_id":"ce4bho92rcd13ifvqh3g","pricing_plan_id":"cebpf4jnsgd1na2vs0mg"},{"bike_id":"5bd4080e-cdba-49c5-a829-9c3dae7d98e5","system_id":"levelo_inurba_marseille","lat":43.21747,"lon":5.34613,"is_reserved":false,"is_disabled":false,"rental_uris":{"android":"levelo://app?vid=5bd4080e-cdba-49c5-a829-9c3dae7d98e5","ios":"levelo://app?vid=5bd4080e-cdba-49c5-a829-9c3dae7d98e5"},"vehicle_type_id":"4","last_reported":1744625502,"current_range_meters":18800,"station_id":"st_cvj6r9ubvosntc0bgbag","pricing_plan_id":"cebpf4jnsgd1na2vs0mg"},{"bike_id":"1db2c28a-e0ef-4f48-818f-eb01d86707b7","system_id":"levelo_inurba_marseille","lat":43.29251,"lon":5.40899,"is_reserved":false,"is_disabled":true,"rental_uris":{"android":"levelo://app?vid=1db2c28a-e0ef-4f48-818f-eb01d86707b7","ios":"levelo://app?vid=1db2c28a-e0ef-4f48-818f-eb01d86707b7"},"vehicle_type_id":"4","last_reported":1744625502,"current_range_meters":18800,"station_id":"ce4bh192rcd13ifvqdc0","pricing_plan_id":"cebpf4jnsgd1na2vs0mg"},{"bike_id":"d2d37f01-fa46-4fbc-a721-7789f4003663","system_id":"levelo_inurba_marseille","lat":43.24974,"lon":5.38961,"is_reserved":false,"is_disabled":false,"rental_uris":{"android":"levelo://app?vid=d2d37f01-fa46-4fbc-a721-7789f4003663","ios":"levelo://app?vid=d2d37f01-fa46-4fbc-a721-7789f4003663"},"vehicle_type_id":"4","last_reported":1744625502,"current_range_meters":18800,"station_id":"","pricing_plan_id":"cebpf4jnsgd1na2vs0mg"},{"bike_id":"d3ef79fd-6570-4243-bf7a-f37d60285df3","system_id":"levelo_inurba_marseille","lat":43.24168,"lon":5.36393,"is_reserved":false,"is_disabled":false,"rental_uris":{"android":"levelo://app?vid=d3ef79fd-6570-4243-bf7a-f37d60285df3","ios":"levelo://app?vid=d3ef79fd-6570-4243-bf7a-f37d60285df3"},"vehicle_type_id":"4","last_reported":1744625502,"current_range_meters":18800,"station_id":"cpo36qri1sfpv3e86is0","pricing_plan_id":"cebpf4jnsgd1na2vs0mg"},{"bike_id":"673db6d5-564b-4a8f-9b04-864f8fcca5f5","system_id":"levelo_inurba_marseille","lat":43.30321,"lon":5.40439,"is_reserved":false,"is_disabled":true,"rental_uris":{"android":"levelo://app?vid=673db6d5-564b-4a8f-9b04-864f8fcca5f5","ios":"levelo://app?vid=673db6d5-564b-4a8f-9b04-864f8fcca5f5"},"vehicle_type_id":"4","last_reported":1744625502,"current_range_meters":19200,"station_id":"ce4bh012rcd13ifvqd10","pricing_plan_id":"cebpf4jnsgd1na2vs0mg"},{"bike_id":"f6c8f6a9-e39a-4139-94fa-41f49afbecc9","system_id":"levelo_inurba_marseille","lat":43.30568,"lon":5.36513,"is_reserved":false,"is_disabled":false,"rental_uris":{"android":"levelo://app?vid=f6c8f6a9-e39a-4139-94fa-41f49afbecc9","ios":"levelo://app?vid=f6c8f6a9-e39a-4139-94fa-41f49afbecc9"},"vehicle_type_id":"4","last_reported":1744625502,"current_range_meters":19200,"station_id":"ce4bgs12rcd13ifvqcag","pricing_plan_id":"cebpf4jnsgd1na2vs0mg"},{"bike_id":"504ebeda-7a78-4e61-92b4-5aec980ab708","system_id":"levelo_inurba_marseille","lat":43.26572,"lon":5.39032,"is_reserved":false,"is_disabled":false,"rental_uris":{"android":"levelo://app?vid=504ebeda-7a78-4e61-92b4-5aec980ab708","ios":"levelo://app?vid=504ebeda-7a78-4e61-92b4-5aec980ab708"},"vehicle_type_id":"4","last_reported":1744625502,"current_range_meters":19200,"station_id":"ce4bhe12rcd13ifvqf30","pricing_plan_id":"cebpf4jnsgd1na2vs0mg"},{"bike_id":"bcf727b5-05aa-475e-82e1-6dccf2fc85bd","system_id":"levelo_inurba_marseille","lat":43.30466,"lon":5.3792,"is_reserved":false,"is_disabled":false,"rental_uris":{"android":"levelo://app?vid=bcf727b5-05aa-475e-82e1-6dccf2fc85bd","ios":"levelo://app?vid=bcf727b5-05aa-475e-82e1-6dccf2fc85bd"},"vehicle_type_id":"4","last_reported":1744625502,"current_range_meters":19200,"station_id":"ce4bgup2rcd13ifvqcn0","pricing_plan_id":"cebpf4jnsgd1na2vs0mg"},{"bike_id":"af757c1b-a0cd-42a7-b400-8982e931e188","system_id":"levelo_inurba_marseille","lat":43.30325,"lon":5.36893,"is_reserved":false,"is_disabled":false,"rental_uris":{"android":"levelo://app?vid=af757c1b-a0cd-42a7-b400-8982e931e188","ios":"levelo://app?vid=af757c1b-a0cd-42a7-b400-8982e931e188"},"vehicle_type_id":"4","last_reported":1744625502,"current_range_meters":19200,"station_id":"ce4bgqh2rcd13ifvqc5g","pricing_plan_id":"cebpf4jnsgd1na2vs0mg"},{"bike_id":"205a676e-388e-4b5d-b5d4-92bca6b76c07","system_id":"levelo_inurba_marseille","lat":43.31155,"lon":5.38016,"is_reserved":false,"is_disabled":true,"rental_uris":{"android":"levelo://app?vid=205a676e-388e-4b5d-b5d4-92bca6b76c07","ios":"levelo://app?vid=205a676e-388e-4b5d-b5d4-92bca6b76c07"},"vehicle_type_id":"4","last_reported":1744625502,"current_range_meters":19200,"station_id":"","pricing_plan_id":"cebpf4jnsgd1na2vs0mg"},{"bike_id":"8219ad35-60a5-47e6-a4b6-d3c1e9726111","system_id":"levelo_inurba_marseille","lat":43.26798,"lon":5.40269,"is_reserved":false,"is_disabled":false,"rental_uris":{"android":"levelo://app?vid=8219ad35-60a5-47e6-a4b6-d3c1e9726111","ios":"levelo://app?vid=8219ad35-60a5-47e6-a4b6-d3c1e9726111"},"vehicle_type_id":"4","last_reported":1744625502,"current_range_meters":19600,"station_id":"ce501612rcd8frsf0b60","pricing_plan_id":"cebpf4jnsgd1na2vs0mg"},{"bike_id":"1c60beeb-dd04-4a98-9bf2-8393d9fc0a86","system_id":"levelo_inurba_marseille","lat":43.25001,"lon":5.38946,"is_reserved":false,"is_disabled":false,"rental_uris":{"android":"levelo://app?vid=1c60beeb-dd04-4a98-9bf2-8393d9fc0a86","ios":"levelo://app?vid=1c60beeb-dd04-4a98-9bf2-8393d9fc0a86"},"vehicle_type_id":"4","last_reported":1744625502,"current_range_meters":19600,"station_id":"ce4bhgp2rcd13ifvqfd0","pricing_plan_id":"cebpf4jnsgd1na2vs0mg"},{"bike_id":"b3ea20ce-5604-45b6-ace7-cad39f4f56d5","system_id":"levelo_inurba_marseille","lat":43.29685,"lon":5.36361,"is_reserved":false,"is_disabled":false,"rental_uris":{"android":"levelo://app?vid=b3ea20ce-5604-45b6-ace7-cad39f4f56d5","ios":"levelo://app?vid=b3ea20ce-5604-45b6-ace7-cad39f4f56d5"},"vehicle_type_id":"4","last_reported":1744625502,"current_range_meters":19600,"station_id":"","pricing_plan_id":"cebpf4jnsgd1na2vs0mg"},{"bike_id":"fbacecab-fdbc-437f-ad37-ef07ea1c1eac","system_id":"levelo_inurba_marseille","lat":43.30538,"lon":5.36546,"is_reserved":false,"is_disabled":false,"rental_uris":{"android":"levelo://app?vid=fbacecab-fdbc-437f-ad37-ef07ea1c1eac","ios":"levelo://app?vid=fbacecab-fdbc-437f-ad37-ef07ea1c1eac"},"vehicle_type_id":"4","last_reported":1744625502,"current_range_meters":19600,"station_id":"ce4bgs12rcd13ifvqcag","pricing_plan_id":"cebpf4jnsgd1na2vs0mg"},{"bike_id":"904c3578-3889-4a76-88dd-bc7231385302","system_id":"levelo_inurba_marseille","lat":43.27938,"lon":5.41043,"is_reserved":false,"is_disabled":false,"rental_uris":{"android":"levelo://app?vid=904c3578-3889-4a76-88dd-bc7231385302","ios":"levelo://app?vid=904c3578-3889-4a76-88dd-bc7231385302"},"vehicle_type_id":"4","last_reported":1744625502,"current_range_meters":19600,"station_id":"ce4bhnp2rcd13ifvqh0g","pricing_plan_id":"cebpf4jnsgd1na2vs0mg"},{"bike_id":"8ba8da06-09b4-4e35-9af5-e823a105a352","system_id":"levelo_inurba_marseille","lat":43.230723,"lon":5.354943,"is_reserved":false,"is_disabled":false,"rental_uris":{"android":"levelo://app?vid=8ba8da06-09b4-4e35-9af5-e823a105a352","ios":"levelo://app?vid=8ba8da06-09b4-4e35-9af5-e823a105a352"},"vehicle_type_id":"4","last_reported":1744625502,"current_range_meters":19600,"station_id":"cpo3342slgdg3j2ifvpg","pricing_plan_id":"cebpf4jnsgd1na2vs0mg"},{"bike_id":"469cac9e-0c72-4c46-a796-98a152ab1135","system_id":"levelo_inurba_marseille","lat":43.23537,"lon":5.41354,"is_reserved":false,"is_disabled":false,"rental_uris":{"android":"levelo://app?vid=469cac9e-0c72-4c46-a796-98a152ab1135","ios":"levelo://app?vid=469cac9e-0c72-4c46-a796-98a152ab1135"},"vehicle_type_id":"4","last_reported":1744625502,"current_range_meters":19600,"station_id":"","pricing_plan_id":"cebpf4jnsgd1na2vs0mg"},{"bike_id":"d3a0e309-41d2-4981-b517-0536179b4cff","system_id":"levelo_inurba_marseille","lat":43.33608,"lon":5.41024,"is_reserved":false,"is_disabled":false,"rental_uris":{"android":"levelo://app?vid=d3a0e309-41d2-4981-b517-0536179b4cff","ios":"levelo://app?vid=d3a0e309-41d2-4981-b517-0536179b4cff"},"vehicle_type_id":"4","last_reported":1744625502,"current_range_meters":19600,"station_id":"ce4bhqh2rcd13ifvqhmg","pricing_plan_id":"cebpf4jnsgd1na2vs0mg"},{"bike_id":"5c8a6bd5-f2b6-4a26-8d63-fabcf5ebf737","system_id":"levelo_inurba_marseille","lat":43.28032,"lon":5.36947,"is_reserved":false,"is_disabled":false,"rental_uris":{"android":"levelo://app?vid=5c8a6bd5-f2b6-4a26-8d63-fabcf5ebf737","ios":"levelo://app?vid=5c8a6bd5-f2b6-4a26-8d63-fabcf5ebf737"},"vehicle_type_id":"4","last_reported":1744625502,"current_range_meters":20000,"station_id":"ce4bha12rcd13ifvqef0","pricing_plan_id":"cebpf4jnsgd1na2vs0mg"},{"bike_id":"91439105-63e4-492b-be95-1e600362b7a6","system_id":"levelo_inurba_marseille","lat":43.24072,"lon":5.37764,"is_reserved":false,"is_disabled":false,"rental_uris":{"android":"levelo://app?vid=91439105-63e4-492b-be95-1e600362b7a6","ios":"levelo://app?vid=91439105-63e4-492b-be95-1e600362b7a6"},"vehicle_type_id":"4","last_reported":1744625502,"current_range_meters":19600,"station_id":"ce4bhnp2rcd13ifvqgvg","pricing_plan_id":"cebpf4jnsgd1na2vs0mg"},{"bike_id":"9b94f51e-0d8f-4ce7-a0b0-ec612c7e08de","system_id":"levelo_inurba_marseille","lat":43.2315,"lon":5.43714,"is_reserved":false,"is_disabled":false,"rental_uris":{"android":"levelo://app?vid=9b94f51e-0d8f-4ce7-a0b0-ec612c7e08de","ios":"levelo://app?vid=9b94f51e-0d8f-4ce7-a0b0-ec612c7e08de"},"vehicle_type_id":"4","last_reported":1744625502,"current_range_meters":20000,"station_id":"ce4bhmp2rcd13ifvqgog","pricing_plan_id":"cebpf4jnsgd1na2vs0mg"},{"bike_id":"69330968-31be-4072-8333-3419318ec490","system_id":"levelo_inurba_marseille","lat":43.29272,"lon":5.37599,"is_reserved":false,"is_disabled":false,"rental_uris":{"android":"levelo://app?vid=69330968-31be-4072-8333-3419318ec490","ios":"levelo://app?vid=69330968-31be-4072-8333-3419318ec490"},"vehicle_type_id":"4","last_reported":1744625502,"current_range_meters":20000,"station_id":"ce4bgi12rcd13ifvqb80","pricing_plan_id":"cebpf4jnsgd1na2vs0mg"},{"bike_id":"40e32cee-9c94-4ec8-8cc1-dfc745c5629a","system_id":"levelo_inurba_marseille","lat":43.24174,"lon":5.36401,"is_reserved":false,"is_disabled":false,"rental_uris":{"android":"levelo://app?vid=40e32cee-9c94-4ec8-8cc1-dfc745c5629a","ios":"levelo://app?vid=40e32cee-9c94-4ec8-8cc1-dfc745c5629a"},"vehicle_type_id":"4","last_reported":1744625502,"current_range_meters":20000,"station_id":"cpo36qri1sfpv3e86is0","pricing_plan_id":"cebpf4jnsgd1na2vs0mg"},{"bike_id":"fe3bbc1f-7f75-4eef-b028-c7730d1645d3","system_id":"levelo_inurba_marseille","lat":43.26244,"lon":5.40463,"is_reserved":false,"is_disabled":false,"rental_uris":{"android":"levelo://app?vid=fe3bbc1f-7f75-4eef-b028-c7730d1645d3","ios":"levelo://app?vid=fe3bbc1f-7f75-4eef-b028-c7730d1645d3"},"vehicle_type_id":"4","last_reported":1744625502,"current_range_meters":20000,"station_id":"ce4bhmh2rcd13ifvqgmg","pricing_plan_id":"cebpf4jnsgd1na2vs0mg"},{"bike_id":"5d34159c-a8dc-4edc-9a25-2b66ca7df509","system_id":"levelo_inurba_marseille","lat":43.30487,"lon":5.3792,"is_reserved":false,"is_disabled":false,"rental_uris":{"android":"levelo://app?vid=5d34159c-a8dc-4edc-9a25-2b66ca7df509","ios":"levelo://app?vid=5d34159c-a8dc-4edc-9a25-2b66ca7df509"},"vehicle_type_id":"4","last_reported":1744625502,"current_range_meters":20400,"station_id":"ce4bgup2rcd13ifvqcn0","pricing_plan_id":"cebpf4jnsgd1na2vs0mg"},{"bike_id":"8ba444c2-d8e1-42ae-9dd8-6b48744e7629","system_id":"levelo_inurba_marseille","lat":43.30908,"lon":5.36691,"is_reserved":false,"is_disabled":true,"rental_uris":{"android":"levelo://app?vid=8ba444c2-d8e1-42ae-9dd8-6b48744e7629","ios":"levelo://app?vid=8ba444c2-d8e1-42ae-9dd8-6b48744e7629"},"vehicle_type_id":"4","last_reported":1744625502,"current_range_meters":20400,"station_id":"","pricing_plan_id":"cebpf4jnsgd1na2vs0mg"},{"bike_id":"97ca08b6-d018-4b6e-813f-b979d88b9baa","system_id":"levelo_inurba_marseille","lat":43.23153,"lon":5.43717,"is_reserved":false,"is_disabled":false,"rental_uris":{"android":"levelo://app?vid=97ca08b6-d018-4b6e-813f-b979d88b9baa","ios":"levelo://app?vid=97ca08b6-d018-4b6e-813f-b979d88b9baa"},"vehicle_type_id":"4","last_reported":1744625502,"current_range_meters":20400,"station_id":"ce4bhmp2rcd13ifvqgog","pricing_plan_id":"cebpf4jnsgd1na2vs0mg"},{"bike_id":"1981afc4-10ff-4535-b254-3b1b8b7fa094","system_id":"levelo_inurba_marseille","lat":43.2293,"lon":5.35375,"is_reserved":false,"is_disabled":false,"rental_uris":{"android":"levelo://app?vid=1981afc4-10ff-4535-b254-3b1b8b7fa094","ios":"levelo://app?vid=1981afc4-10ff-4535-b254-3b1b8b7fa094"},"vehicle_type_id":"4","last_reported":1744625502,"current_range_meters":20400,"station_id":"cpo3532slgdg3j2ikp40","pricing_plan_id":"cebpf4jnsgd1na2vs0mg"},{"bike_id":"e699cb84-72cc-499d-a4b3-9822d7456264","system_id":"levelo_inurba_marseille","lat":43.32498,"lon":5.36562,"is_reserved":false,"is_disabled":false,"rental_uris":{"android":"levelo://app?vid=e699cb84-72cc-499d-a4b3-9822d7456264","ios":"levelo://app?vid=e699cb84-72cc-499d-a4b3-9822d7456264"},"vehicle_type_id":"4","last_reported":1744625502,"current_range_meters":20800,"station_id":"ce4bhs12rcd13ifvqhvg","pricing_plan_id":"cebpf4jnsgd1na2vs0mg"},{"bike_id":"6c01cf9e-6f43-46cc-aa71-2434fbc25be6","system_id":"levelo_inurba_marseille","lat":43.24807,"lon":5.37454,"is_reserved":false,"is_disabled":false,"rental_uris":{"android":"levelo://app?vid=6c01cf9e-6f43-46cc-aa71-2434fbc25be6","ios":"levelo://app?vid=6c01cf9e-6f43-46cc-aa71-2434fbc25be6"},"vehicle_type_id":"4","last_reported":1744625502,"current_range_meters":20800,"station_id":"ce4bhgh2rcd13ifvqfb0","pricing_plan_id":"cebpf4jnsgd1na2vs0mg"},{"bike_id":"33f29b75-f4e6-4e71-a299-29a3904a9b72","system_id":"levelo_inurba_marseille","lat":43.34142,"lon":5.40905,"is_reserved":false,"is_disabled":false,"rental_uris":{"android":"levelo://app?vid=33f29b75-f4e6-4e71-a299-29a3904a9b72","ios":"levelo://app?vid=33f29b75-f4e6-4e71-a299-29a3904a9b72"},"vehicle_type_id":"4","last_reported":1744625502,"current_range_meters":20800,"station_id":"ce4bhqh2rcd13ifvqhlg","pricing_plan_id":"cebpf4jnsgd1na2vs0mg"},{"bike_id":"51ad6576-a17e-4985-9b0e-7326e25e13b7","system_id":"levelo_inurba_marseille","lat":43.249024,"lon":5.389407,"is_reserved":false,"is_disabled":false,"rental_uris":{"android":"levelo://app?vid=51ad6576-a17e-4985-9b0e-7326e25e13b7","ios":"levelo://app?vid=51ad6576-a17e-4985-9b0e-7326e25e13b7"},"vehicle_type_id":"4","last_reported":1744625502,"current_range_meters":20400,"station_id":"ce4bhi12rcd13ifvqfp0","pricing_plan_id":"cebpf4jnsgd1na2vs0mg"},{"bike_id":"5cf6443d-70ca-4ec8-b6e1-d64c9c6fb393","system_id":"levelo_inurba_marseille","lat":43.273743,"lon":5.362647,"is_reserved":false,"is_disabled":false,"rental_uris":{"android":"levelo://app?vid=5cf6443d-70ca-4ec8-b6e1-d64c9c6fb393","ios":"levelo://app?vid=5cf6443d-70ca-4ec8-b6e1-d64c9c6fb393"},"vehicle_type_id":"4","last_reported":1744625502,"current_range_meters":20800,"station_id":"ce4bhbh2rcd13ifvqeo0","pricing_plan_id":"cebpf4jnsgd1na2vs0mg"},{"bike_id":"d5aab525-0d13-4f95-aef3-a646b878b4b8","system_id":"levelo_inurba_marseille","lat":43.2958,"lon":5.36738,"is_reserved":false,"is_disabled":false,"rental_uris":{"android":"levelo://app?vid=d5aab525-0d13-4f95-aef3-a646b878b4b8","ios":"levelo://app?vid=d5aab525-0d13-4f95-aef3-a646b878b4b8"},"vehicle_type_id":"4","last_reported":1744625502,"current_range_meters":20800,"station_id":"ce4bgph2rcd13ifvqc2g","pricing_plan_id":"cebpf4jnsgd1na2vs0mg"},{"bike_id":"99d84225-2d1a-4e22-ba99-3697e6997ca4","system_id":"levelo_inurba_marseille","lat":43.26573,"lon":5.39003,"is_reserved":false,"is_disabled":false,"rental_uris":{"android":"levelo://app?vid=99d84225-2d1a-4e22-ba99-3697e6997ca4","ios":"levelo://app?vid=99d84225-2d1a-4e22-ba99-3697e6997ca4"},"vehicle_type_id":"4","last_reported":1744625502,"current_range_meters":20800,"station_id":"ce4bhe12rcd13ifvqf30","pricing_plan_id":"cebpf4jnsgd1na2vs0mg"},{"bike_id":"1c76c282-a42d-4ffc-a795-9bf0367d08f6","system_id":"levelo_inurba_marseille","lat":43.28725,"lon":5.37947,"is_reserved":false,"is_disabled":false,"rental_uris":{"android":"levelo://app?vid=1c76c282-a42d-4ffc-a795-9bf0367d08f6","ios":"levelo://app?vid=1c76c282-a42d-4ffc-a795-9bf0367d08f6"},"vehicle_type_id":"4","last_reported":1744625502,"current_range_meters":21600,"station_id":"ce4bh9p2rcd13ifvqec0","pricing_plan_id":"cebpf4jnsgd1na2vs0mg"},{"bike_id":"533e9005-f862-45be-8a27-cbe947d944e6","system_id":"levelo_inurba_marseille","lat":43.30282,"lon":5.37701,"is_reserved":false,"is_disabled":false,"rental_uris":{"android":"levelo://app?vid=533e9005-f862-45be-8a27-cbe947d944e6","ios":"levelo://app?vid=533e9005-f862-45be-8a27-cbe947d944e6"},"vehicle_type_id":"4","last_reported":1744625502,"current_range_meters":21600,"station_id":"ce4bguh2rcd13ifvqcj0","pricing_plan_id":"cebpf4jnsgd1na2vs0mg"},{"bike_id":"567a54ba-753f-4023-8208-33ba9c05bde6","system_id":"levelo_inurba_marseille","lat":43.31354,"lon":5.36709,"is_reserved":false,"is_disabled":false,"rental_uris":{"android":"levelo://app?vid=567a54ba-753f-4023-8208-33ba9c05bde6","ios":"levelo://app?vid=567a54ba-753f-4023-8208-33ba9c05bde6"},"vehicle_type_id":"4","last_reported":1744625502,"current_range_meters":21600,"station_id":"ce4bgr92rcd13ifvqc6g","pricing_plan_id":"cebpf4jnsgd1na2vs0mg"},{"bike_id":"7246280f-177e-4bd8-85c8-c1b4e5b2f5dc","system_id":"levelo_inurba_marseille","lat":43.30555,"lon":5.36555,"is_reserved":false,"is_disabled":false,"rental_uris":{"android":"levelo://app?vid=7246280f-177e-4bd8-85c8-c1b4e5b2f5dc","ios":"levelo://app?vid=7246280f-177e-4bd8-85c8-c1b4e5b2f5dc"},"vehicle_type_id":"4","last_reported":1744625502,"current_range_meters":21600,"station_id":"ce4bgs12rcd13ifvqcag","pricing_plan_id":"cebpf4jnsgd1na2vs0mg"},{"bike_id":"e2b5c1c3-8a61-4de4-a851-cf768b759e51","system_id":"levelo_inurba_marseille","lat":43.24169,"lon":5.39735,"is_reserved":false,"is_disabled":false,"rental_uris":{"android":"levelo://app?vid=e2b5c1c3-8a61-4de4-a851-cf768b759e51","ios":"levelo://app?vid=e2b5c1c3-8a61-4de4-a851-cf768b759e51"},"vehicle_type_id":"4","last_reported":1744625502,"current_range_meters":21600,"station_id":"ce4bhn12rcd13ifvqgpg","pricing_plan_id":"cebpf4jnsgd1na2vs0mg"},{"bike_id":"0dbb8451-6fbf-4474-9639-bd687b68c8c2","system_id":"levelo_inurba_marseille","lat":43.33149,"lon":5.36665,"is_reserved":false,"is_disabled":false,"rental_uris":{"android":"levelo://app?vid=0dbb8451-6fbf-4474-9639-bd687b68c8c2","ios":"levelo://app?vid=0dbb8451-6fbf-4474-9639-bd687b68c8c2"},"vehicle_type_id":"4","last_reported":1744625502,"current_range_meters":21600,"station_id":"","pricing_plan_id":"cebpf4jnsgd1na2vs0mg"},{"bike_id":"f6375cd8-5ddf-4b3f-b398-501a93558e36","system_id":"levelo_inurba_marseille","lat":43.24164,"lon":5.364,"is_reserved":false,"is_disabled":false,"rental_uris":{"android":"levelo://app?vid=f6375cd8-5ddf-4b3f-b398-501a93558e36","ios":"levelo://app?vid=f6375cd8-5ddf-4b3f-b398-501a93558e36"},"vehicle_type_id":"4","last_reported":1744625502,"current_range_meters":21600,"station_id":"cpo36qri1sfpv3e86is0","pricing_plan_id":"cebpf4jnsgd1na2vs0mg"},{"bike_id":"e2a9a0d0-8ac9-4889-9366-6e6b752cabc0","system_id":"levelo_inurba_marseille","lat":43.25581,"lon":5.38233,"is_reserved":false,"is_disabled":false,"rental_uris":{"android":"levelo://app?vid=e2a9a0d0-8ac9-4889-9366-6e6b752cabc0","ios":"levelo://app?vid=e2a9a0d0-8ac9-4889-9366-6e6b752cabc0"},"vehicle_type_id":"4","last_reported":1744625502,"current_range_meters":22000,"station_id":"ce4bhih2rcd13ifvqfs0","pricing_plan_id":"cebpf4jnsgd1na2vs0mg"},{"bike_id":"edfa0300-baf2-43b0-92a7-1d9da11227a9","system_id":"levelo_inurba_marseille","lat":43.23967,"lon":5.36624,"is_reserved":false,"is_disabled":false,"rental_uris":{"android":"levelo://app?vid=edfa0300-baf2-43b0-92a7-1d9da11227a9","ios":"levelo://app?vid=edfa0300-baf2-43b0-92a7-1d9da11227a9"},"vehicle_type_id":"4","last_reported":1744625502,"current_range_meters":22000,"station_id":"ce4bhi12rcd13ifvqfp0","pricing_plan_id":"cebpf4jnsgd1na2vs0mg"},{"bike_id":"1b0b09e1-75a5-4188-88fa-4aa823699379","system_id":"levelo_inurba_marseille","lat":43.30803,"lon":5.38152,"is_reserved":false,"is_disabled":false,"rental_uris":{"android":"levelo://app?vid=1b0b09e1-75a5-4188-88fa-4aa823699379","ios":"levelo://app?vid=1b0b09e1-75a5-4188-88fa-4aa823699379"},"vehicle_type_id":"4","last_reported":1744625502,"current_range_meters":22000,"station_id":"ce4bgt12rcd13ifvqce0","pricing_plan_id":"cebpf4jnsgd1na2vs0mg"},{"bike_id":"4eea1a25-7fc0-44a5-8c42-dbf036c5c514","system_id":"levelo_inurba_marseille","lat":43.30093,"lon":5.39086,"is_reserved":false,"is_disabled":false,"rental_uris":{"android":"levelo://app?vid=4eea1a25-7fc0-44a5-8c42-dbf036c5c514","ios":"levelo://app?vid=4eea1a25-7fc0-44a5-8c42-dbf036c5c514"},"vehicle_type_id":"4","last_reported":1744625502,"current_range_meters":22000,"station_id":"ce4bh192rcd13ifvqdb0","pricing_plan_id":"cebpf4jnsgd1na2vs0mg"},{"bike_id":"b2a266d6-9840-40c2-9142-d6c595eae970","system_id":"levelo_inurba_marseille","lat":43.255005,"lon":5.376564,"is_reserved":false,"is_disabled":false,"rental_uris":{"android":"levelo://app?vid=b2a266d6-9840-40c2-9142-d6c595eae970","ios":"levelo://app?vid=b2a266d6-9840-40c2-9142-d6c595eae970"},"vehicle_type_id":"4","last_reported":1744625502,"current_range_meters":22000,"station_id":"ce4bhh12rcd13ifvqff0","pricing_plan_id":"cebpf4jnsgd1na2vs0mg"},{"bike_id":"331f698b-f45d-49f7-a554-25afd324f159","system_id":"levelo_inurba_marseille","lat":43.29275,"lon":5.3847,"is_reserved":false,"is_disabled":false,"rental_uris":{"android":"levelo://app?vid=331f698b-f45d-49f7-a554-25afd324f159","ios":"levelo://app?vid=331f698b-f45d-49f7-a554-25afd324f159"},"vehicle_type_id":"4","last_reported":1744625502,"current_range_meters":22000,"station_id":"ce4bh692rcd13ifvqea0","pricing_plan_id":"cebpf4jnsgd1na2vs0mg"},{"bike_id":"61788b27-74ee-400b-92ea-fa87486fb4d1","system_id":"levelo_inurba_marseille","lat":43.32997,"lon":5.43841,"is_reserved":false,"is_disabled":false,"rental_uris":{"android":"levelo://app?vid=61788b27-74ee-400b-92ea-fa87486fb4d1","ios":"levelo://app?vid=61788b27-74ee-400b-92ea-fa87486fb4d1"},"vehicle_type_id":"4","last_reported":1744625502,"current_range_meters":22400,"station_id":"","pricing_plan_id":"cebpf4jnsgd1na2vs0mg"},{"bike_id":"ba13a1f0-bd3b-46bd-a4ab-c1cd2a917a90","system_id":"levelo_inurba_marseille","lat":43.25109,"lon":5.40315,"is_reserved":false,"is_disabled":false,"rental_uris":{"android":"levelo://app?vid=ba13a1f0-bd3b-46bd-a4ab-c1cd2a917a90","ios":"levelo://app?vid=ba13a1f0-bd3b-46bd-a4ab-c1cd2a917a90"},"vehicle_type_id":"4","last_reported":1744625502,"current_range_meters":22400,"station_id":"ce4bhlh2rcd13ifvqgig","pricing_plan_id":"cebpf4jnsgd1na2vs0mg"},{"bike_id":"2e9c380d-25d9-4007-8c2e-aec053c668e8","system_id":"levelo_inurba_marseille","lat":43.30537,"lon":5.36692,"is_reserved":false,"is_disabled":false,"rental_uris":{"android":"levelo://app?vid=2e9c380d-25d9-4007-8c2e-aec053c668e8","ios":"levelo://app?vid=2e9c380d-25d9-4007-8c2e-aec053c668e8"},"vehicle_type_id":"4","last_reported":1744625502,"current_range_meters":22400,"station_id":"ce4bgrp2rcd13ifvqc9g","pricing_plan_id":"cebpf4jnsgd1na2vs0mg"},{"bike_id":"09e27f96-55e6-42b2-b6b0-c7d769d0be7b","system_id":"levelo_inurba_marseille","lat":43.3361,"lon":5.4103,"is_reserved":false,"is_disabled":true,"rental_uris":{"android":"levelo://app?vid=09e27f96-55e6-42b2-b6b0-c7d769d0be7b","ios":"levelo://app?vid=09e27f96-55e6-42b2-b6b0-c7d769d0be7b"},"vehicle_type_id":"4","last_reported":1744625502,"current_range_meters":22400,"station_id":"ce4bhqh2rcd13ifvqhmg","pricing_plan_id":"cebpf4jnsgd1na2vs0mg"},{"bike_id":"2824982d-200e-44a1-a4f5-e56c9e409c44","system_id":"levelo_inurba_marseille","lat":43.3361,"lon":5.41011,"is_reserved":false,"is_disabled":false,"rental_uris":{"android":"levelo://app?vid=2824982d-200e-44a1-a4f5-e56c9e409c44","ios":"levelo://app?vid=2824982d-200e-44a1-a4f5-e56c9e409c44"},"vehicle_type_id":"4","last_reported":1744625502,"current_range_meters":22400,"station_id":"ce4bhqh2rcd13ifvqhmg","pricing_plan_id":"cebpf4jnsgd1na2vs0mg"},{"bike_id":"51a2eba3-e24d-40ec-a45e-b0e820953fd3","system_id":"levelo_inurba_marseille","lat":43.31334,"lon":5.36721,"is_reserved":false,"is_disabled":false,"rental_uris":{"android":"levelo://app?vid=51a2eba3-e24d-40ec-a45e-b0e820953fd3","ios":"levelo://app?vid=51a2eba3-e24d-40ec-a45e-b0e820953fd3"},"vehicle_type_id":"4","last_reported":1744625502,"current_range_meters":22400,"station_id":"ce4bgr92rcd13ifvqc6g","pricing_plan_id":"cebpf4jnsgd1na2vs0mg"},{"bike_id":"9504a23f-fc70-4d3f-8c43-d3abc49fba6f","system_id":"levelo_inurba_marseille","lat":43.25939,"lon":5.40905,"is_reserved":false,"is_disabled":false,"rental_uris":{"android":"levelo://app?vid=9504a23f-fc70-4d3f-8c43-d3abc49fba6f","ios":"levelo://app?vid=9504a23f-fc70-4d3f-8c43-d3abc49fba6f"},"vehicle_type_id":"4","last_reported":1744625502,"current_range_meters":22400,"station_id":"","pricing_plan_id":"cebpf4jnsgd1na2vs0mg"},{"bike_id":"deb416d8-f4b1-431e-904b-7013df4def54","system_id":"levelo_inurba_marseille","lat":43.24545,"lon":5.39528,"is_reserved":false,"is_disabled":false,"rental_uris":{"android":"levelo://app?vid=deb416d8-f4b1-431e-904b-7013df4def54","ios":"levelo://app?vid=deb416d8-f4b1-431e-904b-7013df4def54"},"vehicle_type_id":"4","last_reported":1744625502,"current_range_meters":22400,"station_id":"ce4bhlp2rcd13ifvqgjg","pricing_plan_id":"cebpf4jnsgd1na2vs0mg"},{"bike_id":"4a515b1c-306e-45bb-b72f-fc4fa7080446","system_id":"levelo_inurba_marseille","lat":43.301942,"lon":5.366125,"is_reserved":false,"is_disabled":false,"rental_uris":{"android":"levelo://app?vid=4a515b1c-306e-45bb-b72f-fc4fa7080446","ios":"levelo://app?vid=4a515b1c-306e-45bb-b72f-fc4fa7080446"},"vehicle_type_id":"4","last_reported":1744625502,"current_range_meters":22400,"station_id":"ce4bgup2rcd13ifvqcn0","pricing_plan_id":"cebpf4jnsgd1na2vs0mg"},{"bike_id":"97eaab4d-1dff-49ff-86e5-23bd769ff75d","system_id":"levelo_inurba_marseille","lat":43.34158,"lon":5.40894,"is_reserved":false,"is_disabled":false,"rental_uris":{"android":"levelo://app?vid=97eaab4d-1dff-49ff-86e5-23bd769ff75d","ios":"levelo://app?vid=97eaab4d-1dff-49ff-86e5-23bd769ff75d"},"vehicle_type_id":"4","last_reported":1744625502,"current_range_meters":22400,"station_id":"ce4bhqh2rcd13ifvqhlg","pricing_plan_id":"cebpf4jnsgd1na2vs0mg"},{"bike_id":"05664e36-336b-404a-b8de-2ca42d4238f0","system_id":"levelo_inurba_marseille","lat":43.25009,"lon":5.38187,"is_reserved":false,"is_disabled":false,"rental_uris":{"android":"levelo://app?vid=05664e36-336b-404a-b8de-2ca42d4238f0","ios":"levelo://app?vid=05664e36-336b-404a-b8de-2ca42d4238f0"},"vehicle_type_id":"4","last_reported":1744625502,"current_range_meters":22400,"station_id":"","pricing_plan_id":"cebpf4jnsgd1na2vs0mg"},{"bike_id":"84dc9436-0564-49a3-8e61-5f2df826318c","system_id":"levelo_inurba_marseille","lat":43.27993,"lon":5.40007,"is_reserved":false,"is_disabled":false,"rental_uris":{"android":"levelo://app?vid=84dc9436-0564-49a3-8e61-5f2df826318c","ios":"levelo://app?vid=84dc9436-0564-49a3-8e61-5f2df826318c"},"vehicle_type_id":"4","last_reported":1744625502,"current_range_meters":22800,"station_id":"ce4bho92rcd13ifvqh4g","pricing_plan_id":"cebpf4jnsgd1na2vs0mg"},{"bike_id":"b035f8ab-1633-42ac-9aa2-e0f018b270f8","system_id":"levelo_inurba_marseille","lat":43.26024,"lon":5.37553,"is_reserved":false,"is_disabled":false,"rental_uris":{"android":"levelo://app?vid=b035f8ab-1633-42ac-9aa2-e0f018b270f8","ios":"levelo://app?vid=b035f8ab-1633-42ac-9aa2-e0f018b270f8"},"vehicle_type_id":"4","last_reported":1744625502,"current_range_meters":22800,"station_id":"ce4bhgh2rcd13ifvqfa0","pricing_plan_id":"cebpf4jnsgd1na2vs0mg"},{"bike_id":"69f01ed6-8e97-4025-98e6-c84afcda9391","system_id":"levelo_inurba_marseille","lat":43.29369,"lon":5.37864,"is_reserved":false,"is_disabled":false,"rental_uris":{"android":"levelo://app?vid=69f01ed6-8e97-4025-98e6-c84afcda9391","ios":"levelo://app?vid=69f01ed6-8e97-4025-98e6-c84afcda9391"},"vehicle_type_id":"4","last_reported":1744625502,"current_range_meters":24800,"station_id":"ce4bgjh2rcd13ifvqbf0","pricing_plan_id":"cebpf4jnsgd1na2vs0mg"},{"bike_id":"50c8976b-9d7c-45e9-8e9c-df0cd131b702","system_id":"levelo_inurba_marseille","lat":43.277475,"lon":5.38352,"is_reserved":false,"is_disabled":false,"rental_uris":{"android":"levelo://app?vid=50c8976b-9d7c-45e9-8e9c-df0cd131b702","ios":"levelo://app?vid=50c8976b-9d7c-45e9-8e9c-df0cd131b702"},"vehicle_type_id":"4","last_reported":1744625502,"current_range_meters":21600,"station_id":"ce4bhh92rcd13ifvqfi0","pricing_plan_id":"cebpf4jnsgd1na2vs0mg"},{"bike_id":"1ac6cae9-5a5f-4765-b8d5-20772275ca89","system_id":"levelo_inurba_marseille","lat":43.23344,"lon":5.36127,"is_reserved":false,"is_disabled":false,"rental_uris":{"android":"levelo://app?vid=1ac6cae9-5a5f-4765-b8d5-20772275ca89","ios":"levelo://app?vid=1ac6cae9-5a5f-4765-b8d5-20772275ca89"},"vehicle_type_id":"4","last_reported":1744625502,"current_range_meters":22800,"station_id":"","pricing_plan_id":"cebpf4jnsgd1na2vs0mg"},{"bike_id":"f5937a56-2053-48c6-a25a-972606402463","system_id":"levelo_inurba_marseille","lat":43.27058,"lon":5.42269,"is_reserved":false,"is_disabled":false,"rental_uris":{"android":"levelo://app?vid=f5937a56-2053-48c6-a25a-972606402463","ios":"levelo://app?vid=f5937a56-2053-48c6-a25a-972606402463"},"vehicle_type_id":"4","last_reported":1744625502,"current_range_meters":22800,"station_id":"ce4bhk92rcd13ifvqgb0","pricing_plan_id":"cebpf4jnsgd1na2vs0mg"},{"bike_id":"284c9a9a-9d58-44b4-bd96-2f6485f5020c","system_id":"levelo_inurba_marseille","lat":43.28138,"lon":5.42634,"is_reserved":false,"is_disabled":false,"rental_uris":{"android":"levelo://app?vid=284c9a9a-9d58-44b4-bd96-2f6485f5020c","ios":"levelo://app?vid=284c9a9a-9d58-44b4-bd96-2f6485f5020c"},"vehicle_type_id":"4","last_reported":1744625502,"current_range_meters":23200,"station_id":"ce4bhnh2rcd13ifvqgug","pricing_plan_id":"cebpf4jnsgd1na2vs0mg"},{"bike_id":"db24447a-c47f-493c-a77b-a32c94cb650f","system_id":"levelo_inurba_marseille","lat":43.246354,"lon":5.387616,"is_reserved":false,"is_disabled":true,"rental_uris":{"android":"levelo://app?vid=db24447a-c47f-493c-a77b-a32c94cb650f","ios":"levelo://app?vid=db24447a-c47f-493c-a77b-a32c94cb650f"},"vehicle_type_id":"4","last_reported":1744625502,"current_range_meters":23200,"station_id":"","pricing_plan_id":"cebpf4jnsgd1na2vs0mg"},{"bike_id":"fde702e5-33ce-407d-b0e8-43aa1c22d2e2","system_id":"levelo_inurba_marseille","lat":43.30467,"lon":5.37905,"is_reserved":false,"is_disabled":false,"rental_uris":{"android":"levelo://app?vid=fde702e5-33ce-407d-b0e8-43aa1c22d2e2","ios":"levelo://app?vid=fde702e5-33ce-407d-b0e8-43aa1c22d2e2"},"vehicle_type_id":"4","last_reported":1744625502,"current_range_meters":23200,"station_id":"ce4bgup2rcd13ifvqcn0","pricing_plan_id":"cebpf4jnsgd1na2vs0mg"},{"bike_id":"e190b69d-bffe-41bb-b19d-d016459a4501","system_id":"levelo_inurba_marseille","lat":43.30917,"lon":5.3684,"is_reserved":false,"is_disabled":false,"rental_uris":{"android":"levelo://app?vid=e190b69d-bffe-41bb-b19d-d016459a4501","ios":"levelo://app?vid=e190b69d-bffe-41bb-b19d-d016459a4501"},"vehicle_type_id":"4","last_reported":1744625502,"current_range_meters":23200,"station_id":"ce4bgn92rcd13ifvqbvg","pricing_plan_id":"cebpf4jnsgd1na2vs0mg"},{"bike_id":"29d95d95-9e17-4f7a-b230-abb382bf24ac","system_id":"levelo_inurba_marseille","lat":43.32482,"lon":5.36553,"is_reserved":false,"is_disabled":false,"rental_uris":{"android":"levelo://app?vid=29d95d95-9e17-4f7a-b230-abb382bf24ac","ios":"levelo://app?vid=29d95d95-9e17-4f7a-b230-abb382bf24ac"},"vehicle_type_id":"4","last_reported":1744625502,"current_range_meters":23200,"station_id":"ce4bhs12rcd13ifvqhvg","pricing_plan_id":"cebpf4jnsgd1na2vs0mg"},{"bike_id":"880f2c0d-7e3f-4f30-a82d-dcdabf3bf26e","system_id":"levelo_inurba_marseille","lat":43.30151,"lon":5.38088,"is_reserved":false,"is_disabled":false,"rental_uris":{"android":"levelo://app?vid=880f2c0d-7e3f-4f30-a82d-dcdabf3bf26e","ios":"levelo://app?vid=880f2c0d-7e3f-4f30-a82d-dcdabf3bf26e"},"vehicle_type_id":"4","last_reported":1744625502,"current_range_meters":23200,"station_id":"ce4bgjp2rcd13ifvqbh0","pricing_plan_id":"cebpf4jnsgd1na2vs0mg"},{"bike_id":"5295b5c4-01d1-47ba-9f4b-a16046db5026","system_id":"levelo_inurba_marseille","lat":43.29266,"lon":5.37612,"is_reserved":false,"is_disabled":false,"rental_uris":{"android":"levelo://app?vid=5295b5c4-01d1-47ba-9f4b-a16046db5026","ios":"levelo://app?vid=5295b5c4-01d1-47ba-9f4b-a16046db5026"},"vehicle_type_id":"4","last_reported":1744625502,"current_range_meters":23200,"station_id":"ce4bgi12rcd13ifvqb80","pricing_plan_id":"cebpf4jnsgd1na2vs0mg"},{"bike_id":"aa6f698c-8245-4138-b7f9-241e3ff3b4b8","system_id":"levelo_inurba_marseille","lat":43.29263,"lon":5.38439,"is_reserved":false,"is_disabled":false,"rental_uris":{"android":"levelo://app?vid=aa6f698c-8245-4138-b7f9-241e3ff3b4b8","ios":"levelo://app?vid=aa6f698c-8245-4138-b7f9-241e3ff3b4b8"},"vehicle_type_id":"4","last_reported":1744625502,"current_range_meters":23200,"station_id":"ce4bh692rcd13ifvqea0","pricing_plan_id":"cebpf4jnsgd1na2vs0mg"},{"bike_id":"7ccfa739-cccd-4afd-abed-279586de3494","system_id":"levelo_inurba_marseille","lat":43.2315,"lon":5.4372,"is_reserved":false,"is_disabled":false,"rental_uris":{"android":"levelo://app?vid=7ccfa739-cccd-4afd-abed-279586de3494","ios":"levelo://app?vid=7ccfa739-cccd-4afd-abed-279586de3494"},"vehicle_type_id":"4","last_reported":1744625502,"current_range_meters":23200,"station_id":"ce4bhmp2rcd13ifvqgog","pricing_plan_id":"cebpf4jnsgd1na2vs0mg"},{"bike_id":"a5b8d3f7-0dc4-48c0-a1d5-356a7a167312","system_id":"levelo_inurba_marseille","lat":43.273168,"lon":5.390793,"is_reserved":false,"is_disabled":false,"rental_uris":{"android":"levelo://app?vid=a5b8d3f7-0dc4-48c0-a1d5-356a7a167312","ios":"levelo://app?vid=a5b8d3f7-0dc4-48c0-a1d5-356a7a167312"},"vehicle_type_id":"4","last_reported":1744625502,"current_range_meters":24000,"station_id":"ce4bhgp2rcd13ifvqfe0","pricing_plan_id":"cebpf4jnsgd1na2vs0mg"},{"bike_id":"364cbd51-81b9-4a17-b155-573214ab3605","system_id":"levelo_inurba_marseille","lat":43.30556,"lon":5.36557,"is_reserved":false,"is_disabled":false,"rental_uris":{"android":"levelo://app?vid=364cbd51-81b9-4a17-b155-573214ab3605","ios":"levelo://app?vid=364cbd51-81b9-4a17-b155-573214ab3605"},"vehicle_type_id":"4","last_reported":1744625502,"current_range_meters":24000,"station_id":"ce4bgs12rcd13ifvqcag","pricing_plan_id":"cebpf4jnsgd1na2vs0mg"},{"bike_id":"24acbce7-260f-46c8-9ba2-af24377b2147","system_id":"levelo_inurba_marseille","lat":43.21755,"lon":5.34602,"is_reserved":false,"is_disabled":false,"rental_uris":{"android":"levelo://app?vid=24acbce7-260f-46c8-9ba2-af24377b2147","ios":"levelo://app?vid=24acbce7-260f-46c8-9ba2-af24377b2147"},"vehicle_type_id":"4","last_reported":1744625502,"current_range_meters":24000,"station_id":"","pricing_plan_id":"cebpf4jnsgd1na2vs0mg"},{"bike_id":"80581a5c-f0ad-4895-a131-36c495c1c1df","system_id":"levelo_inurba_marseille","lat":43.30539,"lon":5.3653,"is_reserved":false,"is_disabled":false,"rental_uris":{"android":"levelo://app?vid=80581a5c-f0ad-4895-a131-36c495c1c1df","ios":"levelo://app?vid=80581a5c-f0ad-4895-a131-36c495c1c1df"},"vehicle_type_id":"4","last_reported":1744625502,"current_range_meters":24000,"station_id":"ce4bgs12rcd13ifvqcag","pricing_plan_id":"cebpf4jnsgd1na2vs0mg"},{"bike_id":"9b7a3886-084d-4f24-ba58-4abee47b26c4","system_id":"levelo_inurba_marseille","lat":43.30325,"lon":5.40433,"is_reserved":false,"is_disabled":false,"rental_uris":{"android":"levelo://app?vid=9b7a3886-084d-4f24-ba58-4abee47b26c4","ios":"levelo://app?vid=9b7a3886-084d-4f24-ba58-4abee47b26c4"},"vehicle_type_id":"4","last_reported":1744625502,"current_range_meters":23200,"station_id":"ce4bh012rcd13ifvqd10","pricing_plan_id":"cebpf4jnsgd1na2vs0mg"},{"bike_id":"42d1de0b-8ab3-460a-9c4e-a1adbfa578cc","system_id":"levelo_inurba_marseille","lat":43.28032,"lon":5.36942,"is_reserved":false,"is_disabled":false,"rental_uris":{"android":"levelo://app?vid=42d1de0b-8ab3-460a-9c4e-a1adbfa578cc","ios":"levelo://app?vid=42d1de0b-8ab3-460a-9c4e-a1adbfa578cc"},"vehicle_type_id":"4","last_reported":1744625502,"current_range_meters":24000,"station_id":"ce4bha12rcd13ifvqef0","pricing_plan_id":"cebpf4jnsgd1na2vs0mg"},{"bike_id":"ee33e4a3-9ed1-445d-9974-26da2f858986","system_id":"levelo_inurba_marseille","lat":43.32367,"lon":5.38887,"is_reserved":false,"is_disabled":false,"rental_uris":{"android":"levelo://app?vid=ee33e4a3-9ed1-445d-9974-26da2f858986","ios":"levelo://app?vid=ee33e4a3-9ed1-445d-9974-26da2f858986"},"vehicle_type_id":"4","last_reported":1744625502,"current_range_meters":24000,"station_id":"ce4bhqp2rcd13ifvqhog","pricing_plan_id":"cebpf4jnsgd1na2vs0mg"},{"bike_id":"53a462b0-547a-48fd-ac2c-1548e9eb4a64","system_id":"levelo_inurba_marseille","lat":43.2957,"lon":5.3997,"is_reserved":false,"is_disabled":false,"rental_uris":{"android":"levelo://app?vid=53a462b0-547a-48fd-ac2c-1548e9eb4a64","ios":"levelo://app?vid=53a462b0-547a-48fd-ac2c-1548e9eb4a64"},"vehicle_type_id":"4","last_reported":1744625502,"current_range_meters":24000,"station_id":"ce4bh312rcd13ifvqdj0","pricing_plan_id":"cebpf4jnsgd1na2vs0mg"},{"bike_id":"e61eb72d-2152-4e42-a8db-1ea20dfcb944","system_id":"levelo_inurba_marseille","lat":43.25088,"lon":5.39523,"is_reserved":false,"is_disabled":true,"rental_uris":{"android":"levelo://app?vid=e61eb72d-2152-4e42-a8db-1ea20dfcb944","ios":"levelo://app?vid=e61eb72d-2152-4e42-a8db-1ea20dfcb944"},"vehicle_type_id":"4","last_reported":1744625502,"current_range_meters":24000,"station_id":"ce4bhm12rcd13ifvqgkg","pricing_plan_id":"cebpf4jnsgd1na2vs0mg"},{"bike_id":"7184a8f5-8b38-4050-b949-b83e362d5f74","system_id":"levelo_inurba_marseille","lat":43.32486,"lon":5.36582,"is_reserved":false,"is_disabled":false,"rental_uris":{"android":"levelo://app?vid=7184a8f5-8b38-4050-b949-b83e362d5f74","ios":"levelo://app?vid=7184a8f5-8b38-4050-b949-b83e362d5f74"},"vehicle_type_id":"4","last_reported":1744625502,"current_range_meters":24000,"station_id":"ce4bhs12rcd13ifvqhvg","pricing_plan_id":"cebpf4jnsgd1na2vs0mg"},{"bike_id":"6c75889f-6e4e-48d8-ac70-e6641c4907b4","system_id":"levelo_inurba_marseille","lat":43.2962,"lon":5.37722,"is_reserved":false,"is_disabled":false,"rental_uris":{"android":"levelo://app?vid=6c75889f-6e4e-48d8-ac70-e6641c4907b4","ios":"levelo://app?vid=6c75889f-6e4e-48d8-ac70-e6641c4907b4"},"vehicle_type_id":"4","last_reported":1744625502,"current_range_meters":23200,"station_id":"ce4bgi92rcd13ifvqb90","pricing_plan_id":"cebpf4jnsgd1na2vs0mg"},{"bike_id":"442e33f1-e8cc-40bf-b9e9-cfb6fe6234aa","system_id":"levelo_inurba_marseille","lat":43.28426,"lon":5.3498,"is_reserved":false,"is_disabled":false,"rental_uris":{"android":"levelo://app?vid=442e33f1-e8cc-40bf-b9e9-cfb6fe6234aa","ios":"levelo://app?vid=442e33f1-e8cc-40bf-b9e9-cfb6fe6234aa"},"vehicle_type_id":"4","last_reported":1744625502,"current_range_meters":24400,"station_id":"ce4bhbh2rcd13ifvqepg","pricing_plan_id":"cebpf4jnsgd1na2vs0mg"},{"bike_id":"c8577a26-7e73-46df-8e82-914727f13f86","system_id":"levelo_inurba_marseille","lat":43.30147,"lon":5.38112,"is_reserved":false,"is_disabled":true,"rental_uris":{"android":"levelo://app?vid=c8577a26-7e73-46df-8e82-914727f13f86","ios":"levelo://app?vid=c8577a26-7e73-46df-8e82-914727f13f86"},"vehicle_type_id":"4","last_reported":1744625502,"current_range_meters":24400,"station_id":"ce4bgjp2rcd13ifvqbh0","pricing_plan_id":"cebpf4jnsgd1na2vs0mg"},{"bike_id":"ff3cc019-99c3-492c-8ecb-48ce179d14ed","system_id":"levelo_inurba_marseille","lat":43.2862,"lon":5.35107,"is_reserved":false,"is_disabled":false,"rental_uris":{"android":"levelo://app?vid=ff3cc019-99c3-492c-8ecb-48ce179d14ed","ios":"levelo://app?vid=ff3cc019-99c3-492c-8ecb-48ce179d14ed"},"vehicle_type_id":"4","last_reported":1744625502,"current_range_meters":24400,"station_id":"ce4bhch2rcd13ifvqeug","pricing_plan_id":"cebpf4jnsgd1na2vs0mg"},{"bike_id":"be9b8e17-9c7d-48d9-a494-5edeba119fb1","system_id":"levelo_inurba_marseille","lat":43.28849,"lon":5.35847,"is_reserved":false,"is_disabled":false,"rental_uris":{"android":"levelo://app?vid=be9b8e17-9c7d-48d9-a494-5edeba119fb1","ios":"levelo://app?vid=be9b8e17-9c7d-48d9-a494-5edeba119fb1"},"vehicle_type_id":"4","last_reported":1744625502,"current_range_meters":24400,"station_id":"ce4bhb12rcd13ifvqem0","pricing_plan_id":"cebpf4jnsgd1na2vs0mg"},{"bike_id":"a7998a74-641c-4044-83f8-abdf696a2c5f","system_id":"levelo_inurba_marseille","lat":43.317151,"lon":5.423941,"is_reserved":false,"is_disabled":false,"rental_uris":{"android":"levelo://app?vid=a7998a74-641c-4044-83f8-abdf696a2c5f","ios":"levelo://app?vid=a7998a74-641c-4044-83f8-abdf696a2c5f"},"vehicle_type_id":"4","last_reported":1744625502,"current_range_meters":24400,"station_id":"ce4bhp92rcd13ifvqhbg","pricing_plan_id":"cebpf4jnsgd1na2vs0mg"},{"bike_id":"6b7dd6f3-4543-409f-97cc-4db68642f84e","system_id":"levelo_inurba_marseille","lat":43.261944,"lon":5.374462,"is_reserved":false,"is_disabled":false,"rental_uris":{"android":"levelo://app?vid=6b7dd6f3-4543-409f-97cc-4db68642f84e","ios":"levelo://app?vid=6b7dd6f3-4543-409f-97cc-4db68642f84e"},"vehicle_type_id":"4","last_reported":1744625502,"current_range_meters":24400,"station_id":"ce4bhgp2rcd13ifvqfc0","pricing_plan_id":"cebpf4jnsgd1na2vs0mg"},{"bike_id":"85513bf9-e1af-42e1-a53e-8e01d6a5c373","system_id":"levelo_inurba_marseille","lat":43.29518,"lon":5.3749,"is_reserved":false,"is_disabled":true,"rental_uris":{"android":"levelo://app?vid=85513bf9-e1af-42e1-a53e-8e01d6a5c373","ios":"levelo://app?vid=85513bf9-e1af-42e1-a53e-8e01d6a5c373"},"vehicle_type_id":"4","last_reported":1744625502,"current_range_meters":24800,"station_id":"ce4bgkp2rcd13ifvqbmg","pricing_plan_id":"cebpf4jnsgd1na2vs0mg"},{"bike_id":"a5d09ca5-70e9-4223-b625-2cc15fc86b6a","system_id":"levelo_inurba_marseille","lat":43.24165,"lon":5.36396,"is_reserved":false,"is_disabled":false,"rental_uris":{"android":"levelo://app?vid=a5d09ca5-70e9-4223-b625-2cc15fc86b6a","ios":"levelo://app?vid=a5d09ca5-70e9-4223-b625-2cc15fc86b6a"},"vehicle_type_id":"4","last_reported":1744625502,"current_range_meters":24800,"station_id":"cpo36qri1sfpv3e86is0","pricing_plan_id":"cebpf4jnsgd1na2vs0mg"},{"bike_id":"5c344fe9-44ac-443a-bb27-3812e2d6e26d","system_id":"levelo_inurba_marseille","lat":43.29612,"lon":5.37144,"is_reserved":false,"is_disabled":true,"rental_uris":{"android":"levelo://app?vid=5c344fe9-44ac-443a-bb27-3812e2d6e26d","ios":"levelo://app?vid=5c344fe9-44ac-443a-bb27-3812e2d6e26d"},"vehicle_type_id":"4","last_reported":1744625502,"current_range_meters":24800,"station_id":"ce4bgnh2rcd13ifvqc0g","pricing_plan_id":"cebpf4jnsgd1na2vs0mg"},{"bike_id":"31cb4bc9-6ae6-495e-af9b-ff12e30afb51","system_id":"levelo_inurba_marseille","lat":43.30152,"lon":5.38095,"is_reserved":false,"is_disabled":false,"rental_uris":{"android":"levelo://app?vid=31cb4bc9-6ae6-495e-af9b-ff12e30afb51","ios":"levelo://app?vid=31cb4bc9-6ae6-495e-af9b-ff12e30afb51"},"vehicle_type_id":"4","last_reported":1744625502,"current_range_meters":24800,"station_id":"ce4bgjp2rcd13ifvqbh0","pricing_plan_id":"cebpf4jnsgd1na2vs0mg"},{"bike_id":"2d9c1d08-96a8-449f-be36-f228abafdef2","system_id":"levelo_inurba_marseille","lat":43.30042,"lon":5.37418,"is_reserved":false,"is_disabled":false,"rental_uris":{"android":"levelo://app?vid=2d9c1d08-96a8-449f-be36-f228abafdef2","ios":"levelo://app?vid=2d9c1d08-96a8-449f-be36-f228abafdef2"},"vehicle_type_id":"4","last_reported":1744625502,"current_range_meters":24800,"station_id":"","pricing_plan_id":"cebpf4jnsgd1na2vs0mg"},{"bike_id":"061fc822-69fa-4f85-a34f-3ded1cf644d7","system_id":"levelo_inurba_marseille","lat":43.30152,"lon":5.38088,"is_reserved":false,"is_disabled":false,"rental_uris":{"android":"levelo://app?vid=061fc822-69fa-4f85-a34f-3ded1cf644d7","ios":"levelo://app?vid=061fc822-69fa-4f85-a34f-3ded1cf644d7"},"vehicle_type_id":"4","last_reported":1744625502,"current_range_meters":24800,"station_id":"ce4bgjp2rcd13ifvqbh0","pricing_plan_id":"cebpf4jnsgd1na2vs0mg"},{"bike_id":"55d58f02-77ba-47c0-a686-e47d008b1e12","system_id":"levelo_inurba_marseille","lat":43.3112,"lon":5.37783,"is_reserved":false,"is_disabled":false,"rental_uris":{"android":"levelo://app?vid=55d58f02-77ba-47c0-a686-e47d008b1e12","ios":"levelo://app?vid=55d58f02-77ba-47c0-a686-e47d008b1e12"},"vehicle_type_id":"4","last_reported":1744625502,"current_range_meters":27200,"station_id":"ce4bgt92rcd13ifvqcg0","pricing_plan_id":"cebpf4jnsgd1na2vs0mg"},{"bike_id":"2249cd81-203f-41e3-af9e-590150ba18a9","system_id":"levelo_inurba_marseille","lat":43.24171,"lon":5.36392,"is_reserved":false,"is_disabled":false,"rental_uris":{"android":"levelo://app?vid=2249cd81-203f-41e3-af9e-590150ba18a9","ios":"levelo://app?vid=2249cd81-203f-41e3-af9e-590150ba18a9"},"vehicle_type_id":"4","last_reported":1744625502,"current_range_meters":24800,"station_id":"cpo36qri1sfpv3e86is0","pricing_plan_id":"cebpf4jnsgd1na2vs0mg"},{"bike_id":"e0b69076-1e16-441f-a4c8-2fb5b0a22cb0","system_id":"levelo_inurba_marseille","lat":43.279726,"lon":5.38741,"is_reserved":false,"is_disabled":false,"rental_uris":{"android":"levelo://app?vid=e0b69076-1e16-441f-a4c8-2fb5b0a22cb0","ios":"levelo://app?vid=e0b69076-1e16-441f-a4c8-2fb5b0a22cb0"},"vehicle_type_id":"4","last_reported":1744625502,"current_range_meters":24800,"station_id":"ce4bhg12rcd13ifvqf80","pricing_plan_id":"cebpf4jnsgd1na2vs0mg"},{"bike_id":"1fef55d7-abb5-4758-9f38-1594080a814f","system_id":"levelo_inurba_marseille","lat":43.26553,"lon":5.39001,"is_reserved":false,"is_disabled":false,"rental_uris":{"android":"levelo://app?vid=1fef55d7-abb5-4758-9f38-1594080a814f","ios":"levelo://app?vid=1fef55d7-abb5-4758-9f38-1594080a814f"},"vehicle_type_id":"4","last_reported":1744625502,"current_range_meters":24800,"station_id":"ce4bhe12rcd13ifvqf30","pricing_plan_id":"cebpf4jnsgd1na2vs0mg"},{"bike_id":"140745b8-2cec-4c54-b851-72159c2e7c53","system_id":"levelo_inurba_marseille","lat":43.295311,"lon":5.390457,"is_reserved":false,"is_disabled":false,"rental_uris":{"android":"levelo://app?vid=140745b8-2cec-4c54-b851-72159c2e7c53","ios":"levelo://app?vid=140745b8-2cec-4c54-b851-72159c2e7c53"},"vehicle_type_id":"4","last_reported":1744625502,"current_range_meters":25200,"station_id":"ce4bh3p2rcd13ifvqdp0","pricing_plan_id":"cebpf4jnsgd1na2vs0mg"},{"bike_id":"c938bdb0-e19f-43cd-b7eb-a3046c3091f2","system_id":"levelo_inurba_marseille","lat":43.23067,"lon":5.35488,"is_reserved":false,"is_disabled":false,"rental_uris":{"android":"levelo://app?vid=c938bdb0-e19f-43cd-b7eb-a3046c3091f2","ios":"levelo://app?vid=c938bdb0-e19f-43cd-b7eb-a3046c3091f2"},"vehicle_type_id":"4","last_reported":1744625502,"current_range_meters":25200,"station_id":"cpo3342slgdg3j2ifvpg","pricing_plan_id":"cebpf4jnsgd1na2vs0mg"},{"bike_id":"c9c95947-e03b-417c-b411-da2c0b0b28ab","system_id":"levelo_inurba_marseille","lat":43.32357,"lon":5.36753,"is_reserved":false,"is_disabled":false,"rental_uris":{"android":"levelo://app?vid=c9c95947-e03b-417c-b411-da2c0b0b28ab","ios":"levelo://app?vid=c9c95947-e03b-417c-b411-da2c0b0b28ab"},"vehicle_type_id":"4","last_reported":1744625502,"current_range_meters":25200,"station_id":"ce4bhsh2rcd13ifvqi2g","pricing_plan_id":"cebpf4jnsgd1na2vs0mg"},{"bike_id":"9b9deb1c-4647-4569-976c-5f02d289958a","system_id":"levelo_inurba_marseille","lat":43.29558,"lon":5.42285,"is_reserved":false,"is_disabled":false,"rental_uris":{"android":"levelo://app?vid=9b9deb1c-4647-4569-976c-5f02d289958a","ios":"levelo://app?vid=9b9deb1c-4647-4569-976c-5f02d289958a"},"vehicle_type_id":"4","last_reported":1744625502,"current_range_meters":25200,"station_id":"ce4bhph2rcd13ifvqhdg","pricing_plan_id":"cebpf4jnsgd1na2vs0mg"},{"bike_id":"c453d219-c5c6-4233-a518-04b7b22b8759","system_id":"levelo_inurba_marseille","lat":43.27815,"lon":5.40708,"is_reserved":false,"is_disabled":false,"rental_uris":{"android":"levelo://app?vid=c453d219-c5c6-4233-a518-04b7b22b8759","ios":"levelo://app?vid=c453d219-c5c6-4233-a518-04b7b22b8759"},"vehicle_type_id":"4","last_reported":1744625502,"current_range_meters":24800,"station_id":"ce4bhnh2rcd13ifvqgtg","pricing_plan_id":"cebpf4jnsgd1na2vs0mg"},