{"last_updated":1701385655,"ttl":30,"version":"2.2","data":{"bikes":[{"bike_id":"f7c86f2e-3d0c-4539-be9d-3162ed85a55c","system_id":"levelo_inurba_marseille","lat":43.313391,"lon":5.36706,"is_reserved":false,"is_disabled":false,"rental_uris":{"android":"levelo://app?vid=f7c86f2e-3d0c-4539-be9d-3162ed85a55c","ios":"levelo://app?vid=f7c86f2e-3d0c-4539-be9d-3162ed85a55c"},"vehicle_type_id":"4","last_reported":1701385655,"current_range_meters":3600,"station_id":"ce4bgr92rcd13ifvqc6g","pricing_plan_id":"free"},{"bike_id":"85ebfaaa-3017-45f3-906e-a6c2319c069c","system_id":"levelo_inurba_marseille","lat":43.308738,"lon":5.368569,"is_reserved":false,"is_disabled":false,"rental_uris":{"android":"levelo://app?vid=85ebfaaa-3017-45f3-906e-a6c2319c069c","ios":"levelo://app?vid=85ebfaaa-3017-45f3-906e-a6c2319c069c"},"vehicle_type_id":"4","last_reported":1701385655,"current_range_meters":13200,"station_id":"ce4bgn92rcd13ifvqbvg","pricing_plan_id":"free"},{"bike_id":"8a75126e-bf21-4819-9fd1-3b31a50562f8","system_id":"levelo_inurba_marseille","lat":43.314811,"lon":5.373103,"is_reserved":false,"is_disabled":false,"rental_uris":{"android":"levelo://app?vid=8a75126e-bf21-4819-9fd1-3b31a50562f8","ios":"levelo://app?vid=8a75126e-bf21-4819-9fd1-3b31a50562f8"},"vehicle_type_id":"4","last_reported":1701385655,"current_range_meters":12800,"station_id":"ce4bgt12rcd13ifvqcd0","pricing_plan_id":"free"},{"bike_id":"1ed59890-b3a3-4d37-aa25-eff1f2654c44","system_id":"levelo_inurba_marseille","lat":43.309039,"lon":5.371797,"is_reserved":false,"is_disabled":false,"rental_uris":{"android":"levelo://app?vid=1ed59890-b3a3-4d37-aa25-eff1f2654c44","ios":"levelo://app?vid=1ed59890-b3a3-4d37-aa25-eff1f2654c44"},"vehicle_type_id":"4","last_reported":1701385655,"current_range_meters":13600,"station_id":"ce4bguh2rcd13ifvqckg","pricing_plan_id":"free"},{"bike_id":"2893e31b-5001-4bef-9b7c-3297f37de010","system_id":"levelo_inurba_marseille","lat":43.309039,"lon":5.371797,"is_reserved":false,"is_disabled":false,"rental_uris":{"android":"levelo://app?vid=2893e31b-5001-4bef-9b7c-3297f37de010","ios":"levelo://app?vid=2893e31b-5001-4bef-9b7c-3297f37de010"},"vehicle_type_id":"4","last_reported":1701385655,"current_range_meters":27200,"station_id":"ce4bguh2rcd13ifvqckg","pricing_plan_id":"free"},{"bike_id":"9f4c7259-1d6e-4cc3-bb58-55523d5ec361","system_id":"levelo_inurba_marseille","lat":43.305337,"lon":5.367037,"is_reserved":false,"is_disabled":false,"rental_uris":{"android":"levelo://app?vid=9f4c7259-1d6e-4cc3-bb58-55523d5ec361","ios":"levelo://app?vid=9f4c7259-1d6e-4cc3-bb58-55523d5ec361"},"vehicle_type_id":"4","last_reported":1701385655,"current_range_meters":0,"station_id":"ce4bgrp2rcd13ifvqc9g","pricing_plan_id":"free"},{"bike_id":"3fc54c7f-1d40-42b0-b8c6-dba7b49e3345","system_id":"levelo_inurba_marseille","lat":43.305989,"lon":5.37225,"is_reserved":false,"is_disabled":false,"rental_uris":{"android":"levelo://app?vid=3fc54c7f-1d40-42b0-b8c6-dba7b49e3345","ios":"levelo://app?vid=3fc54c7f-1d40-42b0-b8c6-dba7b49e3345"},"vehicle_type_id":"4","last_reported":1701385655,"current_range_meters":30400,"station_id":"ce4bgqh2rcd13ifvqc4g","pricing_plan_id":"free"},{"bike_id":"1fa5b1d9-3d1d-45af-b062-e03bfddf52f4","system_id":"levelo_inurba_marseille","lat":43.311125,"lon":5.377624,"is_reserved":false,"is_disabled":false,"rental_uris":{"android":"levelo://app?vid=1fa5b1d9-3d1d-45af-b062-e03bfddf52f4","ios":"levelo://app?vid=1fa5b1d9-3d1d-45af-b062-e03bfddf52f4"},"vehicle_type_id":"4","last_reported":1701385655,"current_range_meters":18800,"station_id":"ce4bgt92rcd13ifvqcg0","pricing_plan_id":"free"},{"bike_id":"727d231a-d425-4d8f-ad3f-99b5a47572e8","system_id":"levelo_inurba_marseille","lat":43.30439,"lon":5.36753,"is_reserved":false,"is_disabled":false,"rental_uris":{"android":"levelo://app?vid=727d231a-d425-4d8f-ad3f-99b5a47572e8","ios":"levelo://app?vid=727d231a-d425-4d8f-ad3f-99b5a47572e8"},"vehicle_type_id":"4","last_reported":1701385655,"current_range_meters":30400,"station_id":"","pricing_plan_id":"free"},{"bike_id":"28b67163-d496-4d2f-a83c-ef6bda2c636e","system_id":"levelo_inurba_marseille","lat":43.308216,"lon":5.376652,"is_reserved":false,"is_disabled":false,"rental_uris":{"android":"levelo://app?vid=28b67163-d496-4d2f-a83c-ef6bda2c636e","ios":"levelo://app?vid=28b67163-d496-4d2f-a83c-ef6bda2c636e"},"vehicle_type_id":"4","last_reported":1701385655,"current_range_meters":4000,"station_id":"ce4bgv92rcd13ifvqcq0","pricing_plan_id":"free"},{"bike_id":"f427a2c3-6e4a-446b-ae2f-9be8aa7f4122","system_id":"levelo_inurba_marseille","lat":43.31719,"lon":5.376813,"is_reserved":false,"is_disabled":false,"rental_uris":{"android":"levelo://app?vid=f427a2c3-6e4a-446b-ae2f-9be8aa7f4122","ios":"levelo://app?vid=f427a2c3-6e4a-446b-ae2f-9be8aa7f4122"},"vehicle_type_id":"4","last_reported":1701385655,"current_range_meters":4000,"station_id":"ce4bgth2rcd13ifvqch0","pricing_plan_id":"free"},{"bike_id":"9e5cd5bb-9665-43e5-a324-ea1a7ec8b6f8","system_id":"levelo_inurba_marseille","lat":43.307945,"lon":5.376487,"is_reserved":false,"is_disabled":false,"rental_uris":{"android":"levelo://app?vid=9e5cd5bb-9665-43e5-a324-ea1a7ec8b6f8","ios":"levelo://app?vid=9e5cd5bb-9665-43e5-a324-ea1a7ec8b6f8"},"vehicle_type_id":"4","last_reported":1701385655,"current_range_meters":27600,"station_id":"ce4bgv92rcd13ifvqcq0","pricing_plan_id":"free"},{"bike_id":"b8e8a619-6d45-492f-944a-c0ccf1e63775","system_id":"levelo_inurba_marseille","lat":43.307945,"lon":5.376487,"is_reserved":false,"is_disabled":false,"rental_uris":{"android":"levelo://app?vid=b8e8a619-6d45-492f-944a-c0ccf1e63775","ios":"levelo://app?vid=b8e8a619-6d45-492f-944a-c0ccf1e63775"},"vehicle_type_id":"4","last_reported":1701385655,"current_range_meters":14400,"station_id":"ce4bgv92rcd13ifvqcq0","pricing_plan_id":"free"},{"bike_id":"1472dd3c-318e-4705-9847-d319e44e24ac","system_id":"levelo_inurba_marseille","lat":43.307945,"lon":5.376487,"is_reserved":false,"is_disabled":false,"rental_uris":{"android":"levelo://app?vid=1472dd3c-318e-4705-9847-d319e44e24ac","ios":"levelo://app?vid=1472dd3c-318e-4705-9847-d319e44e24ac"},"vehicle_type_id":"4","last_reported":1701385655,"current_range_meters":16400,"station_id":"ce4bgv92rcd13ifvqcq0","pricing_plan_id":"free"},{"bike_id":"e913f328-1e31-4c22-bd87-f809ea246de4","system_id":"levelo_inurba_marseille","lat":43.317168,"lon":5.376883,"is_reserved":false,"is_disabled":false,"rental_uris":{"android":"levelo://app?vid=e913f328-1e31-4c22-bd87-f809ea246de4","ios":"levelo://app?vid=e913f328-1e31-4c22-bd87-f809ea246de4"},"vehicle_type_id":"4","last_reported":1701385655,"current_range_meters":6400,"station_id":"ce4bgth2rcd13ifvqch0","pricing_plan_id":"free"},{"bike_id":"155a1aee-8de8-4edd-b78a-c49d2dc02bc0","system_id":"levelo_inurba_marseille","lat":43.307945,"lon":5.376487,"is_reserved":false,"is_disabled":false,"rental_uris":{"android":"levelo://app?vid=155a1aee-8de8-4edd-b78a-c49d2dc02bc0","ios":"levelo://app?vid=155a1aee-8de8-4edd-b78a-c49d2dc02bc0"},"vehicle_type_id":"4","last_reported":1701385655,"current_range_meters":21600,"station_id":"ce4bgv92rcd13ifvqcq0","pricing_plan_id":"free"},{"bike_id":"bef3c888-e26e-4daf-a279-528d05d9f20b","system_id":"levelo_inurba_marseille","lat":43.30143,"lon":5.37413,"is_reserved":false,"is_disabled":false,"rental_uris":{"android":"levelo://app?vid=bef3c888-e26e-4daf-a279-528d05d9f20b","ios":"levelo://app?vid=bef3c888-e26e-4daf-a279-528d05d9f20b"},"vehicle_type_id":"4","last_reported":1701385655,"current_range_meters":20400,"station_id":"ce4bgs92rcd13ifvqcc0","pricing_plan_id":"free"},{"bike_id":"7f6e6577-884c-4960-8414-2c2ec7eff0c9","system_id":"levelo_inurba_marseille","lat":43.315293,"lon":5.380349,"is_reserved":false,"is_disabled":false,"rental_uris":{"android":"levelo://app?vid=7f6e6577-884c-4960-8414-2c2ec7eff0c9","ios":"levelo://app?vid=7f6e6577-884c-4960-8414-2c2ec7eff0c9"},"vehicle_type_id":"4","last_reported":1701385655,"current_range_meters":16800,"station_id":"ce4bhsp2rcd13ifvqi50","pricing_plan_id":"free"},{"bike_id":"a353da53-2844-47b1-b7b8-563a86bb4f14","system_id":"levelo_inurba_marseille","lat":43.31541,"lon":5.38031,"is_reserved":false,"is_disabled":false,"rental_uris":{"android":"levelo://app?vid=a353da53-2844-47b1-b7b8-563a86bb4f14","ios":"levelo://app?vid=a353da53-2844-47b1-b7b8-563a86bb4f14"},"vehicle_type_id":"4","last_reported":1701385655,"current_range_meters":23200,"station_id":"ce4bhsp2rcd13ifvqi50","pricing_plan_id":"free"},{"bike_id":"8cf932ac-f95c-4edc-ae94-bd29835350d1","system_id":"levelo_inurba_marseille","lat":43.308012,"lon":5.381511,"is_reserved":false,"is_disabled":false,"rental_uris":{"android":"levelo://app?vid=8cf932ac-f95c-4edc-ae94-bd29835350d1","ios":"levelo://app?vid=8cf932ac-f95c-4edc-ae94-bd29835350d1"},"vehicle_type_id":"4","last_reported":1701385655,"current_range_meters":10400,"station_id":"ce4bgt12rcd13ifvqce0","pricing_plan_id":"free"},{"bike_id":"7808a19b-de5f-4ce3-9516-e3378669e6fb","system_id":"levelo_inurba_marseille","lat":43.308012,"lon":5.381511,"is_reserved":false,"is_disabled":false,"rental_uris":{"android":"levelo://app?vid=7808a19b-de5f-4ce3-9516-e3378669e6fb","ios":"levelo://app?vid=7808a19b-de5f-4ce3-9516-e3378669e6fb"},"vehicle_type_id":"4","last_reported":1701385655,"current_range_meters":22000,"station_id":"ce4bgt12rcd13ifvqce0","pricing_plan_id":"free"},{"bike_id":"4b22f555-5749-4ff1-ac1e-de51e8e9924f","system_id":"levelo_inurba_marseille","lat":43.3081,"lon":5.38164,"is_reserved":false,"is_disabled":false,"rental_uris":{"android":"levelo://app?vid=4b22f555-5749-4ff1-ac1e-de51e8e9924f","ios":"levelo://app?vid=4b22f555-5749-4ff1-ac1e-de51e8e9924f"},"vehicle_type_id":"4","last_reported":1701385655,"current_range_meters":2000,"station_id":"ce4bgt12rcd13ifvqce0","pricing_plan_id":"free"},{"bike_id":"25786a37-cf25-44ce-a7d1-1424905994ad","system_id":"levelo_inurba_marseille","lat":43.308012,"lon":5.381511,"is_reserved":false,"is_disabled":false,"rental_uris":{"android":"levelo://app?vid=25786a37-cf25-44ce-a7d1-1424905994ad","ios":"levelo://app?vid=25786a37-cf25-44ce-a7d1-1424905994ad"},"vehicle_type_id":"4","last_reported":1701385655,"current_range_meters":6800,"station_id":"ce4bgt12rcd13ifvqce0","pricing_plan_id":"free"},{"bike_id":"617624f7-67fb-443e-a8b0-9b9817b017d4","system_id":"levelo_inurba_marseille","lat":43.302784,"lon":5.377158,"is_reserved":false,"is_disabled":false,"rental_uris":{"android":"levelo://app?vid=617624f7-67fb-443e-a8b0-9b9817b017d4","ios":"levelo://app?vid=617624f7-67fb-443e-a8b0-9b9817b017d4"},"vehicle_type_id":"4","last_reported":1701385655,"current_range_meters":20800,"station_id":"ce4bguh2rcd13ifvqcj0","pricing_plan_id":"free"},{"bike_id":"1d9ba3e1-b4c6-49fc-96e6-cdf850b4804f","system_id":"levelo_inurba_marseille","lat":43.302784,"lon":5.377158,"is_reserved":false,"is_disabled":false,"rental_uris":{"android":"levelo://app?vid=1d9ba3e1-b4c6-49fc-96e6-cdf850b4804f","ios":"levelo://app?vid=1d9ba3e1-b4c6-49fc-96e6-cdf850b4804f"},"vehicle_type_id":"4","last_reported":1701385655,"current_range_meters":28400,"station_id":"ce4bguh2rcd13ifvqcj0","pricing_plan_id":"free"},{"bike_id":"9a8c326a-2956-42d0-9bce-9c1da7b272ea","system_id":"levelo_inurba_marseille","lat":43.319935,"lon":5.381699,"is_reserved":false,"is_disabled":false,"rental_uris":{"android":"levelo://app?vid=9a8c326a-2956-42d0-9bce-9c1da7b272ea","ios":"levelo://app?vid=9a8c326a-2956-42d0-9bce-9c1da7b272ea"},"vehicle_type_id":"4","last_reported":1701385655,"current_range_meters":21200,"station_id":"ce4bhr12rcd13ifvqhpg","pricing_plan_id":"free"},{"bike_id":"a7ca3d4c-28e3-48b3-bafa-5cc2ba79900d","system_id":"levelo_inurba_marseille","lat":43.32001,"lon":5.38144,"is_reserved":false,"is_disabled":false,"rental_uris":{"android":"levelo://app?vid=a7ca3d4c-28e3-48b3-bafa-5cc2ba79900d","ios":"levelo://app?vid=a7ca3d4c-28e3-48b3-bafa-5cc2ba79900d"},"vehicle_type_id":"4","last_reported":1701385655,"current_range_meters":16400,"station_id":"ce4bhr12rcd13ifvqhpg","pricing_plan_id":"free"},{"bike_id":"3c307197-3ac8-4287-b052-043de935fdd4","system_id":"levelo_inurba_marseille","lat":43.319935,"lon":5.381699,"is_reserved":false,"is_disabled":false,"rental_uris":{"android":"levelo://app?vid=3c307197-3ac8-4287-b052-043de935fdd4","ios":"levelo://app?vid=3c307197-3ac8-4287-b052-043de935fdd4"},"vehicle_type_id":"4","last_reported":1701385655,"current_range_meters":7600,"station_id":"ce4bhr12rcd13ifvqhpg","pricing_plan_id":"free"},{"bike_id":"2275aca5-3158-4c2c-8022-ca5d2714bc86","system_id":"levelo_inurba_marseille","lat":43.319997,"lon":5.381594,"is_reserved":false,"is_disabled":false,"rental_uris":{"android":"levelo://app?vid=2275aca5-3158-4c2c-8022-ca5d2714bc86","ios":"levelo://app?vid=2275aca5-3158-4c2c-8022-ca5d2714bc86"},"vehicle_type_id":"4","last_reported":1701385655,"current_range_meters":21200,"station_id":"ce4bhr12rcd13ifvqhpg","pricing_plan_id":"free"},{"bike_id":"d544024a-046c-483b-80a6-992b57c51146","system_id":"levelo_inurba_marseille","lat":43.313571,"lon":5.384829,"is_reserved":false,"is_disabled":false,"rental_uris":{"android":"levelo://app?vid=d544024a-046c-483b-80a6-992b57c51146","ios":"levelo://app?vid=d544024a-046c-483b-80a6-992b57c51146"},"vehicle_type_id":"4","last_reported":1701385655,"current_range_meters":23200,"station_id":"ce4bgt92rcd13ifvqcf0","pricing_plan_id":"free"},{"bike_id":"f9685f73-dc9d-4367-8765-ae9818630f3d","system_id":"levelo_inurba_marseille","lat":43.313571,"lon":5.384829,"is_reserved":false,"is_disabled":false,"rental_uris":{"android":"levelo://app?vid=f9685f73-dc9d-4367-8765-ae9818630f3d","ios":"levelo://app?vid=f9685f73-dc9d-4367-8765-ae9818630f3d"},"vehicle_type_id":"4","last_reported":1701385655,"current_range_meters":11200,"station_id":"ce4bgt92rcd13ifvqcf0","pricing_plan_id":"free"},{"bike_id":"72dcacfb-91e1-4c51-81ed-e191326091e3","system_id":"levelo_inurba_marseille","lat":43.313571,"lon":5.384829,"is_reserved":false,"is_disabled":false,"rental_uris":{"android":"levelo://app?vid=72dcacfb-91e1-4c51-81ed-e191326091e3","ios":"levelo://app?vid=72dcacfb-91e1-4c51-81ed-e191326091e3"},"vehicle_type_id":"4","last_reported":1701385655,"current_range_meters":13600,"station_id":"ce4bgt92rcd13ifvqcf0","pricing_plan_id":"free"},{"bike_id":"1fa09fb2-993e-4ec9-8335-22ee40d8996e","system_id":"levelo_inurba_marseille","lat":43.311722,"lon":5.387247,"is_reserved":false,"is_disabled":false,"rental_uris":{"android":"levelo://app?vid=1fa09fb2-993e-4ec9-8335-22ee40d8996e","ios":"levelo://app?vid=1fa09fb2-993e-4ec9-8335-22ee40d8996e"},"vehicle_type_id":"4","last_reported":1701385655,"current_range_meters":22000,"station_id":"ce4bgv12rcd13ifvqcp0","pricing_plan_id":"free"},{"bike_id":"ebc2a295-0113-4610-81e3-841d50ead70b","system_id":"levelo_inurba_marseille","lat":43.29919,"lon":5.374607,"is_reserved":false,"is_disabled":false,"rental_uris":{"android":"levelo://app?vid=ebc2a295-0113-4610-81e3-841d50ead70b","ios":"levelo://app?vid=ebc2a295-0113-4610-81e3-841d50ead70b"},"vehicle_type_id":"4","last_reported":1701385655,"current_range_meters":27600,"station_id":"ce4bgjh2rcd13ifvqbg0","pricing_plan_id":"free"},{"bike_id":"2a5124c6-6d8c-456e-9a72-4daa95a20d78","system_id":"levelo_inurba_marseille","lat":43.311722,"lon":5.387247,"is_reserved":false,"is_disabled":false,"rental_uris":{"android":"levelo://app?vid=2a5124c6-6d8c-456e-9a72-4daa95a20d78","ios":"levelo://app?vid=2a5124c6-6d8c-456e-9a72-4daa95a20d78"},"vehicle_type_id":"4","last_reported":1701385655,"current_range_meters":31200,"station_id":"ce4bgv12rcd13ifvqcp0","pricing_plan_id":"free"},{"bike_id":"16999fd4-5626-449b-9ef8-9c72b1db697f","system_id":"levelo_inurba_marseille","lat":43.311722,"lon":5.387247,"is_reserved":false,"is_disabled":false,"rental_uris":{"android":"levelo://app?vid=16999fd4-5626-449b-9ef8-9c72b1db697f","ios":"levelo://app?vid=16999fd4-5626-449b-9ef8-9c72b1db697f"},"vehicle_type_id":"4","last_reported":1701385655,"current_range_meters":17200,"station_id":"ce4bgv12rcd13ifvqcp0","pricing_plan_id":"free"},{"bike_id":"d887cc04-b56b-4c57-8fb3-156a6fc33f1a","system_id":"levelo_inurba_marseille","lat":43.311722,"lon":5.387247,"is_reserved":false,"is_disabled":false,"rental_uris":{"android":"levelo://app?vid=d887cc04-b56b-4c57-8fb3-156a6fc33f1a","ios":"levelo://app?vid=d887cc04-b56b-4c57-8fb3-156a6fc33f1a"},"vehicle_type_id":"4","last_reported":1701385655,"current_range_meters":8400,"station_id":"ce4bgv12rcd13ifvqcp0","pricing_plan_id":"free"},{"bike_id":"aebb5f1f-3a1e-4323-a4f0-ae83e0b78d14","system_id":"levelo_inurba_marseille","lat":43.327603,"lon":5.36705,"is_reserved":false,"is_disabled":false,"rental_uris":{"android":"levelo://app?vid=aebb5f1f-3a1e-4323-a4f0-ae83e0b78d14","ios":"levelo://app?vid=aebb5f1f-3a1e-4323-a4f0-ae83e0b78d14"},"vehicle_type_id":"4","last_reported":1701385655,"current_range_meters":22800,"station_id":"","pricing_plan_id":"free"},{"bike_id":"a857c4c0-ebec-45a9-b9f5-ea7765299a80","system_id":"levelo_inurba_marseille","lat":43.322872,"lon":5.382756,"is_reserved":false,"is_disabled":false,"rental_uris":{"android":"levelo://app?vid=a857c4c0-ebec-45a9-b9f5-ea7765299a80","ios":"levelo://app?vid=a857c4c0-ebec-45a9-b9f5-ea7765299a80"},"vehicle_type_id":"4","last_reported":1701385655,"current_range_meters":2800,"station_id":"ce4bhr12rcd13ifvqhqg","pricing_plan_id":"free"},{"bike_id":"11fbc002-5b4d-4629-a038-bbbaf88697c2","system_id":"levelo_inurba_marseille","lat":43.322872,"lon":5.382756,"is_reserved":false,"is_disabled":false,"rental_uris":{"android":"levelo://app?vid=11fbc002-5b4d-4629-a038-bbbaf88697c2","ios":"levelo://app?vid=11fbc002-5b4d-4629-a038-bbbaf88697c2"},"vehicle_type_id":"4","last_reported":1701385655,"current_range_meters":31200,"station_id":"ce4bhr12rcd13ifvqhqg","pricing_plan_id":"free"},{"bike_id":"2484d89c-f06b-463b-bfb4-4415361ed078","system_id":"levelo_inurba_marseille","lat":43.32828,"lon":5.36691,"is_reserved":false,"is_disabled":false,"rental_uris":{"android":"levelo://app?vid=2484d89c-f06b-463b-bfb4-4415361ed078","ios":"levelo://app?vid=2484d89c-f06b-463b-bfb4-4415361ed078"},"vehicle_type_id":"4","last_reported":1701385655,"current_range_meters":22400,"station_id":"ce4bhs92rcd13ifvqi0g","pricing_plan_id":"free"},{"bike_id":"dd0ce71a-7b5a-4ce1-951e-9194a025d6c5","system_id":"levelo_inurba_marseille","lat":43.297163,"lon":5.365866,"is_reserved":false,"is_disabled":false,"rental_uris":{"android":"levelo://app?vid=dd0ce71a-7b5a-4ce1-951e-9194a025d6c5","ios":"levelo://app?vid=dd0ce71a-7b5a-4ce1-951e-9194a025d6c5"},"vehicle_type_id":"4","last_reported":1701385655,"current_range_meters":11600,"station_id":"ce4bgn12rcd13ifvqbt0","pricing_plan_id":"free"},{"bike_id":"5983625d-69f5-485f-a399-daec2999c965","system_id":"levelo_inurba_marseille","lat":43.321648,"lon":5.38557,"is_reserved":false,"is_disabled":false,"rental_uris":{"android":"levelo://app?vid=5983625d-69f5-485f-a399-daec2999c965","ios":"levelo://app?vid=5983625d-69f5-485f-a399-daec2999c965"},"vehicle_type_id":"4","last_reported":1701385655,"current_range_meters":7600,"station_id":"","pricing_plan_id":"free"},{"bike_id":"d068864e-3768-4cb7-8f2c-e01febcf4d60","system_id":"levelo_inurba_marseille","lat":43.296235,"lon":5.365159,"is_reserved":false,"is_disabled":false,"rental_uris":{"android":"levelo://app?vid=d068864e-3768-4cb7-8f2c-e01febcf4d60","ios":"levelo://app?vid=d068864e-3768-4cb7-8f2c-e01febcf4d60"},"vehicle_type_id":"4","last_reported":1701385655,"current_range_meters":11200,"station_id":"","pricing_plan_id":"free"},{"bike_id":"5d0951e6-1219-48d8-a0eb-8be9281f7239","system_id":"levelo_inurba_marseille","lat":43.29573,"lon":5.367355,"is_reserved":false,"is_disabled":false,"rental_uris":{"android":"levelo://app?vid=5d0951e6-1219-48d8-a0eb-8be9281f7239","ios":"levelo://app?vid=5d0951e6-1219-48d8-a0eb-8be9281f7239"},"vehicle_type_id":"4","last_reported":1701385655,"current_range_meters":30000,"station_id":"ce4bgph2rcd13ifvqc2g","pricing_plan_id":"free"},{"bike_id":"72121378-a5a7-41f3-928f-9e15c2350373","system_id":"levelo_inurba_marseille","lat":43.317557,"lon":5.390173,"is_reserved":false,"is_disabled":false,"rental_uris":{"android":"levelo://app?vid=72121378-a5a7-41f3-928f-9e15c2350373","ios":"levelo://app?vid=72121378-a5a7-41f3-928f-9e15c2350373"},"vehicle_type_id":"4","last_reported":1701385655,"current_range_meters":17200,"station_id":"ce4bhqp2rcd13ifvqhng","pricing_plan_id":"free"},{"bike_id":"d6baca62-a47e-4ec8-8cca-39fe58703d6e","system_id":"levelo_inurba_marseille","lat":43.309589,"lon":5.390258,"is_reserved":false,"is_disabled":false,"rental_uris":{"android":"levelo://app?vid=d6baca62-a47e-4ec8-8cca-39fe58703d6e","ios":"levelo://app?vid=d6baca62-a47e-4ec8-8cca-39fe58703d6e"},"vehicle_type_id":"4","last_reported":1701385655,"current_range_meters":26800,"station_id":"ce4bgup2rcd13ifvqco0","pricing_plan_id":"free"},{"bike_id":"d2fdc27e-ec4b-4e9b-a5f1-7a7c785e4856","system_id":"levelo_inurba_marseille","lat":43.31753,"lon":5.39018,"is_reserved":false,"is_disabled":false,"rental_uris":{"android":"levelo://app?vid=d2fdc27e-ec4b-4e9b-a5f1-7a7c785e4856","ios":"levelo://app?vid=d2fdc27e-ec4b-4e9b-a5f1-7a7c785e4856"},"vehicle_type_id":"4","last_reported":1701385655,"current_range_meters":0,"station_id":"ce4bhqp2rcd13ifvqhng","pricing_plan_id":"free"},{"bike_id":"1aa10014-ecc5-4038-b4f3-2022c2aad2da","system_id":"levelo_inurba_marseille","lat":43.30443,"lon":5.38892,"is_reserved":false,"is_disabled":false,"rental_uris":{"android":"levelo://app?vid=1aa10014-ecc5-4038-b4f3-2022c2aad2da","ios":"levelo://app?vid=1aa10014-ecc5-4038-b4f3-2022c2aad2da"},"vehicle_type_id":"4","last_reported":1701385655,"current_range_meters":0,"station_id":"ce4bgk12rcd13ifvqbi0","pricing_plan_id":"free"},{"bike_id":"6318908f-dd73-4780-a54a-6847584a0296","system_id":"levelo_inurba_marseille","lat":43.29899,"lon":5.38298,"is_reserved":false,"is_disabled":false,"rental_uris":{"android":"levelo://app?vid=6318908f-dd73-4780-a54a-6847584a0296","ios":"levelo://app?vid=6318908f-dd73-4780-a54a-6847584a0296"},"vehicle_type_id":"4","last_reported":1701385655,"current_range_meters":12000,"station_id":"","pricing_plan_id":"free"},{"bike_id":"ae567ca3-12ac-4660-9b40-4929e51163d0","system_id":"levelo_inurba_marseille","lat":43.304274,"lon":5.388873,"is_reserved":false,"is_disabled":false,"rental_uris":{"android":"levelo://app?vid=ae567ca3-12ac-4660-9b40-4929e51163d0","ios":"levelo://app?vid=ae567ca3-12ac-4660-9b40-4929e51163d0"},"vehicle_type_id":"4","last_reported":1701385655,"current_range_meters":11600,"station_id":"ce4bgk12rcd13ifvqbi0","pricing_plan_id":"free"},{"bike_id":"fde74797-4a9d-4796-a65a-5bbd1f713f8d","system_id":"levelo_inurba_marseille","lat":43.304278,"lon":5.388868,"is_reserved":false,"is_disabled":false,"rental_uris":{"android":"levelo://app?vid=fde74797-4a9d-4796-a65a-5bbd1f713f8d","ios":"levelo://app?vid=fde74797-4a9d-4796-a65a-5bbd1f713f8d"},"vehicle_type_id":"4","last_reported":1701385655,"current_range_meters":12000,"station_id":"ce4bgk12rcd13ifvqbi0","pricing_plan_id":"free"},{"bike_id":"36f4bd27-66d6-4dfe-985f-72ba5fa3ce65","system_id":"levelo_inurba_marseille","lat":43.299717,"lon":5.384845,"is_reserved":false,"is_disabled":false,"rental_uris":{"android":"levelo://app?vid=36f4bd27-66d6-4dfe-985f-72ba5fa3ce65","ios":"levelo://app?vid=36f4bd27-66d6-4dfe-985f-72ba5fa3ce65"},"vehicle_type_id":"4","last_reported":1701385655,"current_range_meters":19600,"station_id":"ce4bgj92rcd13ifvqbd0","pricing_plan_id":"free"},{"bike_id":"eaa0e7e7-2390-47fa-909b-7b240952cbef","system_id":"levelo_inurba_marseille","lat":43.319381,"lon":5.392069,"is_reserved":false,"is_disabled":false,"rental_uris":{"android":"levelo://app?vid=eaa0e7e7-2390-47fa-909b-7b240952cbef","ios":"levelo://app?vid=eaa0e7e7-2390-47fa-909b-7b240952cbef"},"vehicle_type_id":"4","last_reported":1701385655,"current_range_meters":20400,"station_id":"","pricing_plan_id":"free"},{"bike_id":"a132e446-6042-48b4-99b0-f8e6594023b6","system_id":"levelo_inurba_marseille","lat":43.291671,"lon":5.371575,"is_reserved":false,"is_disabled":false,"rental_uris":{"android":"levelo://app?vid=a132e446-6042-48b4-99b0-f8e6594023b6","ios":"levelo://app?vid=a132e446-6042-48b4-99b0-f8e6594023b6"},"vehicle_type_id":"4","last_reported":1701385655,"current_range_meters":25200,"station_id":"ce4bha92rcd13ifvqeh0","pricing_plan_id":"free"},{"bike_id":"04757872-d364-409b-9b73-f7b75f2e936f","system_id":"levelo_inurba_marseille","lat":43.305994,"lon":5.393687,"is_reserved":false,"is_disabled":false,"rental_uris":{"android":"levelo://app?vid=04757872-d364-409b-9b73-f7b75f2e936f","ios":"levelo://app?vid=04757872-d364-409b-9b73-f7b75f2e936f"},"vehicle_type_id":"4","last_reported":1701385655,"current_range_meters":27200,"station_id":"ce4bh0p2rcd13ifvqd80","pricing_plan_id":"free"},{"bike_id":"7a520f2a-ab5a-4754-931d-b6f0052699da","system_id":"levelo_inurba_marseille","lat":43.305994,"lon":5.393687,"is_reserved":false,"is_disabled":false,"rental_uris":{"android":"levelo://app?vid=7a520f2a-ab5a-4754-931d-b6f0052699da","ios":"levelo://app?vid=7a520f2a-ab5a-4754-931d-b6f0052699da"},"vehicle_type_id":"4","last_reported":1701385655,"current_range_meters":19200,"station_id":"ce4bh0p2rcd13ifvqd80","pricing_plan_id":"free"},{"bike_id":"9758b242-b0cb-4889-a6dc-0f3264766c12","system_id":"levelo_inurba_marseille","lat":43.303002,"lon":5.392142,"is_reserved":false,"is_disabled":false,"rental_uris":{"android":"levelo://app?vid=9758b242-b0cb-4889-a6dc-0f3264766c12","ios":"levelo://app?vid=9758b242-b0cb-4889-a6dc-0f3264766c12"},"vehicle_type_id":"4","last_reported":1701385655,"current_range_meters":6400,"station_id":"ce4bgkh2rcd13ifvqbk0","pricing_plan_id":"free"},{"bike_id":"fd15de87-6740-4b1e-9603-a6d6a3a3355d","system_id":"levelo_inurba_marseille","lat":43.292047,"lon":5.35821,"is_reserved":false,"is_disabled":false,"rental_uris":{"android":"levelo://app?vid=fd15de87-6740-4b1e-9603-a6d6a3a3355d","ios":"levelo://app?vid=fd15de87-6740-4b1e-9603-a6d6a3a3355d"},"vehicle_type_id":"4","last_reported":1701385655,"current_range_meters":26000,"station_id":"ce4bhb12rcd13ifvqel0","pricing_plan_id":"free"},{"bike_id":"b0e4a12f-5454-4763-8901-0f49046fd84b","system_id":"levelo_inurba_marseille","lat":43.309038,"lon":5.396546,"is_reserved":false,"is_disabled":false,"rental_uris":{"android":"levelo://app?vid=b0e4a12f-5454-4763-8901-0f49046fd84b","ios":"levelo://app?vid=b0e4a12f-5454-4763-8901-0f49046fd84b"},"vehicle_type_id":"4","last_reported":1701385655,"current_range_meters":26400,"station_id":"ce4bh012rcd13ifvqcv0","pricing_plan_id":"free"},{"bike_id":"0116258c-2efa-449c-ac91-639c596b2bdb","system_id":"levelo_inurba_marseille","lat":43.309047,"lon":5.396551,"is_reserved":false,"is_disabled":false,"rental_uris":{"android":"levelo://app?vid=0116258c-2efa-449c-ac91-639c596b2bdb","ios":"levelo://app?vid=0116258c-2efa-449c-ac91-639c596b2bdb"},"vehicle_type_id":"4","last_reported":1701385655,"current_range_meters":3600,"station_id":"ce4bh012rcd13ifvqcv0","pricing_plan_id":"free"},{"bike_id":"6ce841e3-18c9-4cb5-8aa0-416805308a49","system_id":"levelo_inurba_marseille","lat":43.31323,"lon":5.39685,"is_reserved":false,"is_disabled":false,"rental_uris":{"android":"levelo://app?vid=6ce841e3-18c9-4cb5-8aa0-416805308a49","ios":"levelo://app?vid=6ce841e3-18c9-4cb5-8aa0-416805308a49"},"vehicle_type_id":"4","last_reported":1701385655,"current_range_meters":800,"station_id":"ce4bgvp2rcd13ifvqcu0","pricing_plan_id":"free"},{"bike_id":"29d7007a-c0f4-492a-98f2-ae8def1b524f","system_id":"levelo_inurba_marseille","lat":43.309047,"lon":5.396551,"is_reserved":false,"is_disabled":false,"rental_uris":{"android":"levelo://app?vid=29d7007a-c0f4-492a-98f2-ae8def1b524f","ios":"levelo://app?vid=29d7007a-c0f4-492a-98f2-ae8def1b524f"},"vehicle_type_id":"4","last_reported":1701385655,"current_range_meters":12000,"station_id":"ce4bh012rcd13ifvqcv0","pricing_plan_id":"free"},{"bike_id":"003e3848-9a2d-4a03-b685-53c7efbce624","system_id":"levelo_inurba_marseille","lat":43.313316,"lon":5.396923,"is_reserved":false,"is_disabled":false,"rental_uris":{"android":"levelo://app?vid=003e3848-9a2d-4a03-b685-53c7efbce624","ios":"levelo://app?vid=003e3848-9a2d-4a03-b685-53c7efbce624"},"vehicle_type_id":"4","last_reported":1701385655,"current_range_meters":29600,"station_id":"ce4bgvp2rcd13ifvqcu0","pricing_plan_id":"free"},{"bike_id":"849bd07f-b33f-4961-ac84-d84ea6c847e7","system_id":"levelo_inurba_marseille","lat":43.31325,"lon":5.39693,"is_reserved":false,"is_disabled":false,"rental_uris":{"android":"levelo://app?vid=849bd07f-b33f-4961-ac84-d84ea6c847e7","ios":"levelo://app?vid=849bd07f-b33f-4961-ac84-d84ea6c847e7"},"vehicle_type_id":"4","last_reported":1701385655,"current_range_meters":23600,"station_id":"ce4bgvp2rcd13ifvqcu0","pricing_plan_id":"free"},{"bike_id":"21d8b618-ada3-4754-92f8-c91f26f200bb","system_id":"levelo_inurba_marseille","lat":43.309047,"lon":5.396551,"is_reserved":false,"is_disabled":false,"rental_uris":{"android":"levelo://app?vid=21d8b618-ada3-4754-92f8-c91f26f200bb","ios":"levelo://app?vid=21d8b618-ada3-4754-92f8-c91f26f200bb"},"vehicle_type_id":"4","last_reported":1701385655,"current_range_meters":25200,"station_id":"ce4bh012rcd13ifvqcv0","pricing_plan_id":"free"},{"bike_id":"e4640747-17b8-4b10-9bf0-8dbc490e496f","system_id":"levelo_inurba_marseille","lat":43.313291,"lon":5.396838,"is_reserved":false,"is_disabled":false,"rental_uris":{"android":"levelo://app?vid=e4640747-17b8-4b10-9bf0-8dbc490e496f","ios":"levelo://app?vid=e4640747-17b8-4b10-9bf0-8dbc490e496f"},"vehicle_type_id":"4","last_reported":1701385655,"current_range_meters":8400,"station_id":"ce4bgvp2rcd13ifvqcu0","pricing_plan_id":"free"},{"bike_id":"faf04e54-eb77-4f46-962f-a4a6a73efa06","system_id":"levelo_inurba_marseille","lat":43.309047,"lon":5.396551,"is_reserved":false,"is_disabled":false,"rental_uris":{"android":"levelo://app?vid=faf04e54-eb77-4f46-962f-a4a6a73efa06","ios":"levelo://app?vid=faf04e54-eb77-4f46-962f-a4a6a73efa06"},"vehicle_type_id":"4","last_reported":1701385655,"current_range_meters":21600,"station_id":"ce4bh012rcd13ifvqcv0","pricing_plan_id":"free"},{"bike_id":"6f56b45c-5766-4cd7-925f-9e47831600d6","system_id":"levelo_inurba_marseille","lat":43.289184,"lon":5.366408,"is_reserved":false,"is_disabled":false,"rental_uris":{"android":"levelo://app?vid=6f56b45c-5766-4cd7-925f-9e47831600d6","ios":"levelo://app?vid=6f56b45c-5766-4cd7-925f-9e47831600d6"},"vehicle_type_id":"4","last_reported":1701385655,"current_range_meters":16800,"station_id":"ce4bhap2rcd13ifvqek0","pricing_plan_id":"free"},{"bike_id":"c4aece58-61e4-460f-8c8b-51a0a0e55519","system_id":"levelo_inurba_marseille","lat":43.289184,"lon":5.366408,"is_reserved":false,"is_disabled":false,"rental_uris":{"android":"levelo://app?vid=c4aece58-61e4-460f-8c8b-51a0a0e55519","ios":"levelo://app?vid=c4aece58-61e4-460f-8c8b-51a0a0e55519"},"vehicle_type_id":"4","last_reported":1701385655,"current_range_meters":19200,"station_id":"ce4bhap2rcd13ifvqek0","pricing_plan_id":"free"},{"bike_id":"83a722ba-3fc9-47b0-8969-a64692c46309","system_id":"levelo_inurba_marseille","lat":43.309038,"lon":5.396546,"is_reserved":false,"is_disabled":false,"rental_uris":{"android":"levelo://app?vid=83a722ba-3fc9-47b0-8969-a64692c46309","ios":"levelo://app?vid=83a722ba-3fc9-47b0-8969-a64692c46309"},"vehicle_type_id":"4","last_reported":1701385655,"current_range_meters":25600,"station_id":"ce4bh012rcd13ifvqcv0","pricing_plan_id":"free"},{"bike_id":"433c11ae-8306-4bbf-850d-086e9b9b8b2e","system_id":"levelo_inurba_marseille","lat":43.2909,"lon":5.381212,"is_reserved":false,"is_disabled":false,"rental_uris":{"android":"levelo://app?vid=433c11ae-8306-4bbf-850d-086e9b9b8b2e","ios":"levelo://app?vid=433c11ae-8306-4bbf-850d-086e9b9b8b2e"},"vehicle_type_id":"4","last_reported":1701385655,"current_range_meters":17600,"station_id":"ce4bh512rcd13ifvqe2g","pricing_plan_id":"free"},{"bike_id":"b0001738-67fc-4cc6-94ca-b466884dcb20","system_id":"levelo_inurba_marseille","lat":43.28884,"lon":5.36095,"is_reserved":false,"is_disabled":false,"rental_uris":{"android":"levelo://app?vid=b0001738-67fc-4cc6-94ca-b466884dcb20","ios":"levelo://app?vid=b0001738-67fc-4cc6-94ca-b466884dcb20"},"vehicle_type_id":"4","last_reported":1701385655,"current_range_meters":20400,"station_id":"","pricing_plan_id":"free"},{"bike_id":"016f19a2-bb6e-4303-897e-cc7027690b41","system_id":"levelo_inurba_marseille","lat":43.29795,"lon":5.39347,"is_reserved":false,"is_disabled":false,"rental_uris":{"android":"levelo://app?vid=016f19a2-bb6e-4303-897e-cc7027690b41","ios":"levelo://app?vid=016f19a2-bb6e-4303-897e-cc7027690b41"},"vehicle_type_id":"4","last_reported":1701385655,"current_range_meters":25200,"station_id":"chh1huq6cuj3fo74tm60","pricing_plan_id":"free"},{"bike_id":"c5afdc7f-d1cb-4a5f-a90a-bc17324228fc","system_id":"levelo_inurba_marseille","lat":43.297815,"lon":5.393548,"is_reserved":false,"is_disabled":false,"rental_uris":{"android":"levelo://app?vid=c5afdc7f-d1cb-4a5f-a90a-bc17324228fc","ios":"levelo://app?vid=c5afdc7f-d1cb-4a5f-a90a-bc17324228fc"},"vehicle_type_id":"4","last_reported":1701385655,"current_range_meters":12000,"station_id":"chh1huq6cuj3fo74tm60","pricing_plan_id":"free"},{"bike_id":"80bd0e4e-b279-4607-b654-2715a0c96352","system_id":"levelo_inurba_marseille","lat":43.295169,"lon":5.390426,"is_reserved":false,"is_disabled":false,"rental_uris":{"android":"levelo://app?vid=80bd0e4e-b279-4607-b654-2715a0c96352","ios":"levelo://app?vid=80bd0e4e-b279-4607-b654-2715a0c96352"},"vehicle_type_id":"4","last_reported":1701385655,"current_range_meters":12800,"station_id":"ce4bh3p2rcd13ifvqdp0","pricing_plan_id":"free"},{"bike_id":"08c92996-1334-49ff-a9bf-b4a10f64fd17","system_id":"levelo_inurba_marseille","lat":43.31261,"lon":5.40161,"is_reserved":false,"is_disabled":false,"rental_uris":{"android":"levelo://app?vid=08c92996-1334-49ff-a9bf-b4a10f64fd17","ios":"levelo://app?vid=08c92996-1334-49ff-a9bf-b4a10f64fd17"},"vehicle_type_id":"4","last_reported":1701385655,"current_range_meters":18800,"station_id":"ce4bh092rcd13ifvqd30","pricing_plan_id":"free"},{"bike_id":"f7ffccd8-897a-4795-9180-df8806730fc3","system_id":"levelo_inurba_marseille","lat":43.30927,"lon":5.40134,"is_reserved":false,"is_disabled":false,"rental_uris":{"android":"levelo://app?vid=f7ffccd8-897a-4795-9180-df8806730fc3","ios":"levelo://app?vid=f7ffccd8-897a-4795-9180-df8806730fc3"},"vehicle_type_id":"4","last_reported":1701385655,"current_range_meters":6400,"station_id":"ce4bgvp2rcd13ifvqct0","pricing_plan_id":"free"},{"bike_id":"76817642-31b8-4ce3-9290-e1f6661af761","system_id":"levelo_inurba_marseille","lat":43.30938,"lon":5.40137,"is_reserved":false,"is_disabled":false,"rental_uris":{"android":"levelo://app?vid=76817642-31b8-4ce3-9290-e1f6661af761","ios":"levelo://app?vid=76817642-31b8-4ce3-9290-e1f6661af761"},"vehicle_type_id":"4","last_reported":1701385655,"current_range_meters":8400,"station_id":"ce4bgvp2rcd13ifvqct0","pricing_plan_id":"free"},{"bike_id":"7535eaed-f428-4465-83a1-90fbb47ae0ae","system_id":"levelo_inurba_marseille","lat":43.309328,"lon":5.401363,"is_reserved":false,"is_disabled":false,"rental_uris":{"android":"levelo://app?vid=7535eaed-f428-4465-83a1-90fbb47ae0ae","ios":"levelo://app?vid=7535eaed-f428-4465-83a1-90fbb47ae0ae"},"vehicle_type_id":"4","last_reported":1701385655,"current_range_meters":11600,"station_id":"ce4bgvp2rcd13ifvqct0","pricing_plan_id":"free"},{"bike_id":"a2c112a6-58e1-4e8b-8be8-80d2c9d8d3d7","system_id":"levelo_inurba_marseille","lat":43.31265,"lon":5.401699,"is_reserved":false,"is_disabled":false,"rental_uris":{"android":"levelo://app?vid=a2c112a6-58e1-4e8b-8be8-80d2c9d8d3d7","ios":"levelo://app?vid=a2c112a6-58e1-4e8b-8be8-80d2c9d8d3d7"},"vehicle_type_id":"4","last_reported":1701385655,"current_range_meters":16800,"station_id":"","pricing_plan_id":"free"},{"bike_id":"4a8cc3bd-2771-4300-879c-a3018715ac91","system_id":"levelo_inurba_marseille","lat":43.309371,"lon":5.401449,"is_reserved":false,"is_disabled":false,"rental_uris":{"android":"levelo://app?vid=4a8cc3bd-2771-4300-879c-a3018715ac91","ios":"levelo://app?vid=4a8cc3bd-2771-4300-879c-a3018715ac91"},"vehicle_type_id":"4","last_reported":1701385655,"current_range_meters":1200,"station_id":"ce4bgvp2rcd13ifvqct0","pricing_plan_id":"free"},{"bike_id":"de117050-8bd5-4e62-8beb-ea605b189848","system_id":"levelo_inurba_marseille","lat":43.30642,"lon":5.401031,"is_reserved":false,"is_disabled":false,"rental_uris":{"android":"levelo://app?vid=de117050-8bd5-4e62-8beb-ea605b189848","ios":"levelo://app?vid=de117050-8bd5-4e62-8beb-ea605b189848"},"vehicle_type_id":"4","last_reported":1701385655,"current_range_meters":23200,"station_id":"ce4bh112rcd13ifvqda0","pricing_plan_id":"free"},{"bike_id":"3fe36d34-8a73-40c2-891d-1bf91bca5ec1","system_id":"levelo_inurba_marseille","lat":43.309371,"lon":5.401449,"is_reserved":false,"is_disabled":false,"rental_uris":{"android":"levelo://app?vid=3fe36d34-8a73-40c2-891d-1bf91bca5ec1","ios":"levelo://app?vid=3fe36d34-8a73-40c2-891d-1bf91bca5ec1"},"vehicle_type_id":"4","last_reported":1701385655,"current_range_meters":800,"station_id":"ce4bgvp2rcd13ifvqct0","pricing_plan_id":"free"},{"bike_id":"88de979b-1386-4e7b-86ac-24ff8c9bf9f4","system_id":"levelo_inurba_marseille","lat":43.3065,"lon":5.400816,"is_reserved":false,"is_disabled":false,"rental_uris":{"android":"levelo://app?vid=88de979b-1386-4e7b-86ac-24ff8c9bf9f4","ios":"levelo://app?vid=88de979b-1386-4e7b-86ac-24ff8c9bf9f4"},"vehicle_type_id":"4","last_reported":1701385655,"current_range_meters":26000,"station_id":"ce4bh112rcd13ifvqda0","pricing_plan_id":"free"},{"bike_id":"fb938f3b-a0ef-4d82-9042-83727c5a5d0d","system_id":"levelo_inurba_marseille","lat":43.30642,"lon":5.401031,"is_reserved":false,"is_disabled":false,"rental_uris":{"android":"levelo://app?vid=fb938f3b-a0ef-4d82-9042-83727c5a5d0d","ios":"levelo://app?vid=fb938f3b-a0ef-4d82-9042-83727c5a5d0d"},"vehicle_type_id":"4","last_reported":1701385655,"current_range_meters":26800,"station_id":"ce4bh112rcd13ifvqda0","pricing_plan_id":"free"},{"bike_id":"401debdc-028b-49f0-96ac-7f14f29d7ae3","system_id":"levelo_inurba_marseille","lat":43.306412,"lon":5.401035,"is_reserved":false,"is_disabled":false,"rental_uris":{"android":"levelo://app?vid=401debdc-028b-49f0-96ac-7f14f29d7ae3","ios":"levelo://app?vid=401debdc-028b-49f0-96ac-7f14f29d7ae3"},"vehicle_type_id":"4","last_reported":1701385655,"current_range_meters":29600,"station_id":"ce4bh112rcd13ifvqda0","pricing_plan_id":"free"},{"bike_id":"3af0a763-2b15-44c4-bcdd-7620452874c8","system_id":"levelo_inurba_marseille","lat":43.30642,"lon":5.401031,"is_reserved":false,"is_disabled":false,"rental_uris":{"android":"levelo://app?vid=3af0a763-2b15-44c4-bcdd-7620452874c8","ios":"levelo://app?vid=3af0a763-2b15-44c4-bcdd-7620452874c8"},"vehicle_type_id":"4","last_reported":1701385655,"current_range_meters":24000,"station_id":"ce4bh112rcd13ifvqda0","pricing_plan_id":"free"},{"bike_id":"fd3d1981-b606-41f6-8603-56a8571b0bd5","system_id":"levelo_inurba_marseille","lat":43.30642,"lon":5.401031,"is_reserved":false,"is_disabled":false,"rental_uris":{"android":"levelo://app?vid=fd3d1981-b606-41f6-8603-56a8571b0bd5","ios":"levelo://app?vid=fd3d1981-b606-41f6-8603-56a8571b0bd5"},"vehicle_type_id":"4","last_reported":1701385655,"current_range_meters":13200,"station_id":"ce4bh112rcd13ifvqda0","pricing_plan_id":"free"},{"bike_id":"b930dc4e-3488-4b4b-b52b-1874865c3274","system_id":"levelo_inurba_marseille","lat":43.305208,"lon":5.400594,"is_reserved":false,"is_disabled":false,"rental_uris":{"android":"levelo://app?vid=b930dc4e-3488-4b4b-b52b-1874865c3274","ios":"levelo://app?vid=b930dc4e-3488-4b4b-b52b-1874865c3274"},"vehicle_type_id":"4","last_reported":1701385655,"current_range_meters":25200,"station_id":"","pricing_plan_id":"free"},{"bike_id":"47580ea9-4ec1-4e84-9992-2fae682ef36b","system_id":"levelo_inurba_marseille","lat":43.301117,"lon":5.398795,"is_reserved":false,"is_disabled":false,"rental_uris":{"android":"levelo://app?vid=47580ea9-4ec1-4e84-9992-2fae682ef36b","ios":"levelo://app?vid=47580ea9-4ec1-4e84-9992-2fae682ef36b"},"vehicle_type_id":"4","last_reported":1701385655,"current_range_meters":26000,"station_id":"ce4bh0h2rcd13ifvqd40","pricing_plan_id":"free"},{"bike_id":"f0b62317-80a8-4e72-a32b-c493ad8bd6c3","system_id":"levelo_inurba_marseille","lat":43.28727,"lon":5.36078,"is_reserved":false,"is_disabled":false,"rental_uris":{"android":"levelo://app?vid=f0b62317-80a8-4e72-a32b-c493ad8bd6c3","ios":"levelo://app?vid=f0b62317-80a8-4e72-a32b-c493ad8bd6c3"},"vehicle_type_id":"4","last_reported":1701385655,"current_range_meters":28800,"station_id":"cki0cbj6b192h4jlfktg","pricing_plan_id":"free"},{"bike_id":"246292a8-49c4-4e1d-913d-f78fdc8f52ea","system_id":"levelo_inurba_marseille","lat":43.2873,"lon":5.36073,"is_reserved":false,"is_disabled":false,"rental_uris":{"android":"levelo://app?vid=246292a8-49c4-4e1d-913d-f78fdc8f52ea","ios":"levelo://app?vid=246292a8-49c4-4e1d-913d-f78fdc8f52ea"},"vehicle_type_id":"4","last_reported":1701385655,"current_range_meters":26000,"station_id":"cki0cbj6b192h4jlfktg","pricing_plan_id":"free"},{"bike_id":"893909e0-073b-4941-8588-c74be12a8858","system_id":"levelo_inurba_marseille","lat":43.28727,"lon":5.36094,"is_reserved":false,"is_disabled":false,"rental_uris":{"android":"levelo://app?vid=893909e0-073b-4941-8588-c74be12a8858","ios":"levelo://app?vid=893909e0-073b-4941-8588-c74be12a8858"},"vehicle_type_id":"4","last_reported":1701385655,"current_range_meters":13600,"station_id":"cki0cbj6b192h4jlfktg","pricing_plan_id":"free"},{"bike_id":"f950ad11-18dd-44f1-b288-cb9023e1b65f","system_id":"levelo_inurba_marseille","lat":43.28725,"lon":5.36078,"is_reserved":false,"is_disabled":false,"rental_uris":{"android":"levelo://app?vid=f950ad11-18dd-44f1-b288-cb9023e1b65f","ios":"levelo://app?vid=f950ad11-18dd-44f1-b288-cb9023e1b65f"},"vehicle_type_id":"4","last_reported":1701385655,"current_range_meters":26000,"station_id":"cki0cbj6b192h4jlfktg","pricing_plan_id":"free"},{"bike_id":"7cec73a3-273f-4b34-a160-9f7190a42704","system_id":"levelo_inurba_marseille","lat":43.28727,"lon":5.36078,"is_reserved":false,"is_disabled":false,"rental_uris":{"android":"levelo://app?vid=7cec73a3-273f-4b34-a160-9f7190a42704","ios":"levelo://app?vid=7cec73a3-273f-4b34-a160-9f7190a42704"},"vehicle_type_id":"4","last_reported":1701385655,"current_range_meters":25600,"station_id":"cki0cbj6b192h4jlfktg","pricing_plan_id":"free"},{"bike_id":"2210b1ba-7d52-4736-986b-ce4e0f32607c","system_id":"levelo_inurba_marseille","lat":43.28721,"lon":5.36076,"is_reserved":false,"is_disabled":false,"rental_uris":{"android":"levelo://app?vid=2210b1ba-7d52-4736-986b-ce4e0f32607c","ios":"levelo://app?vid=2210b1ba-7d52-4736-986b-ce4e0f32607c"},"vehicle_type_id":"4","last_reported":1701385655,"current_range_meters":18800,"station_id":"cki0cbj6b192h4jlfktg","pricing_plan_id":"free"},{"bike_id":"0fa16f52-71bf-4e79-8bbd-0e8fc01aded9","system_id":"levelo_inurba_marseille","lat":43.286591,"lon":5.363346,"is_reserved":false,"is_disabled":false,"rental_uris":{"android":"levelo://app?vid=0fa16f52-71bf-4e79-8bbd-0e8fc01aded9","ios":"levelo://app?vid=0fa16f52-71bf-4e79-8bbd-0e8fc01aded9"},"vehicle_type_id":"4","last_reported":1701385655,"current_range_meters":27600,"station_id":"ce4bhah2rcd13ifvqej0","pricing_plan_id":"free"},{"bike_id":"eb521b2a-172c-4a0c-a37b-6816e1c5e5b2","system_id":"levelo_inurba_marseille","lat":43.286591,"lon":5.363346,"is_reserved":false,"is_disabled":false,"rental_uris":{"android":"levelo://app?vid=eb521b2a-172c-4a0c-a37b-6816e1c5e5b2","ios":"levelo://app?vid=eb521b2a-172c-4a0c-a37b-6816e1c5e5b2"},"vehicle_type_id":"4","last_reported":1701385655,"current_range_meters":20800,"station_id":"ce4bhah2rcd13ifvqej0","pricing_plan_id":"free"},{"bike_id":"bdb81330-23ad-4b52-864a-6a12c4a5a52b","system_id":"levelo_inurba_marseille","lat":43.286593,"lon":5.363346,"is_reserved":false,"is_disabled":false,"rental_uris":{"android":"levelo://app?vid=bdb81330-23ad-4b52-864a-6a12c4a5a52b","ios":"levelo://app?vid=bdb81330-23ad-4b52-864a-6a12c4a5a52b"},"vehicle_type_id":"4","last_reported":1701385655,"current_range_meters":29600,"station_id":"ce4bhah2rcd13ifvqej0","pricing_plan_id":"free"},{"bike_id":"0fadd555-920b-4d63-be4f-83750afd505c","system_id":"levelo_inurba_marseille","lat":43.286591,"lon":5.363346,"is_reserved":false,"is_disabled":false,"rental_uris":{"android":"levelo://app?vid=0fadd555-920b-4d63-be4f-83750afd505c","ios":"levelo://app?vid=0fadd555-920b-4d63-be4f-83750afd505c"},"vehicle_type_id":"4","last_reported":1701385655,"current_range_meters":17200,"station_id":"ce4bhah2rcd13ifvqej0","pricing_plan_id":"free"},{"bike_id":"f5fdd69c-8ce5-4fa1-a48b-c0b8b1223ef0","system_id":"levelo_inurba_marseille","lat":43.286591,"lon":5.363346,"is_reserved":false,"is_disabled":false,"rental_uris":{"android":"levelo://app?vid=f5fdd69c-8ce5-4fa1-a48b-c0b8b1223ef0","ios":"levelo://app?vid=f5fdd69c-8ce5-4fa1-a48b-c0b8b1223ef0"},"vehicle_type_id":"4","last_reported":1701385655,"current_range_meters":5600,"station_id":"ce4bhah2rcd13ifvqej0","pricing_plan_id":"free"},{"bike_id":"7d36f61a-0e92-48a2-a7a6-abb8051d3691","system_id":"levelo_inurba_marseille","lat":43.298681,"lon":5.397225,"is_reserved":false,"is_disabled":false,"rental_uris":{"android":"levelo://app?vid=7d36f61a-0e92-48a2-a7a6-abb8051d3691","ios":"levelo://app?vid=7d36f61a-0e92-48a2-a7a6-abb8051d3691"},"vehicle_type_id":"4","last_reported":1701385655,"current_range_meters":9600,"station_id":"ce4bh0h2rcd13ifvqd50","pricing_plan_id":"free"},{"bike_id":"2ab88e44-eb99-4e65-b98d-270d0f59333f","system_id":"levelo_inurba_marseille","lat":43.286591,"lon":5.363346,"is_reserved":false,"is_disabled":false,"rental_uris":{"android":"levelo://app?vid=2ab88e44-eb99-4e65-b98d-270d0f59333f","ios":"levelo://app?vid=2ab88e44-eb99-4e65-b98d-270d0f59333f"},"vehicle_type_id":"4","last_reported":1701385655,"current_range_meters":31600,"station_id":"ce4bhah2rcd13ifvqej0","pricing_plan_id":"free"},{"bike_id":"59478bbb-454c-47ef-b624-0be37854a9e4","system_id":"levelo_inurba_marseille","lat":43.307623,"lon":5.402774,"is_reserved":false,"is_disabled":false,"rental_uris":{"android":"levelo://app?vid=59478bbb-454c-47ef-b624-0be37854a9e4","ios":"levelo://app?vid=59478bbb-454c-47ef-b624-0be37854a9e4"},"vehicle_type_id":"4","last_reported":1701385655,"current_range_meters":20000,"station_id":"ce4bgvp2rcd13ifvqct0","pricing_plan_id":"free"},{"bike_id":"b6ae4796-a5e8-4bb8-a5ca-8d021f990ea8","system_id":"levelo_inurba_marseille","lat":43.289307,"lon":5.38406,"is_reserved":false,"is_disabled":false,"rental_uris":{"android":"levelo://app?vid=b6ae4796-a5e8-4bb8-a5ca-8d021f990ea8","ios":"levelo://app?vid=b6ae4796-a5e8-4bb8-a5ca-8d021f990ea8"},"vehicle_type_id":"4","last_reported":1701385655,"current_range_meters":10400,"station_id":"ce4bh612rcd13ifvqe6g","pricing_plan_id":"free"},{"bike_id":"5431d1d9-2e32-4c85-8e68-14b596657694","system_id":"levelo_inurba_marseille","lat":43.302759,"lon":5.400793,"is_reserved":false,"is_disabled":false,"rental_uris":{"android":"levelo://app?vid=5431d1d9-2e32-4c85-8e68-14b596657694","ios":"levelo://app?vid=5431d1d9-2e32-4c85-8e68-14b596657694"},"vehicle_type_id":"4","last_reported":1701385655,"current_range_meters":1200,"station_id":"ce4bgvh2rcd13ifvqcs0","pricing_plan_id":"free"},{"bike_id":"fc4e565b-2ea5-4295-b7e3-c3d170f3b704","system_id":"levelo_inurba_marseille","lat":43.286039,"lon":5.370681,"is_reserved":false,"is_disabled":false,"rental_uris":{"android":"levelo://app?vid=fc4e565b-2ea5-4295-b7e3-c3d170f3b704","ios":"levelo://app?vid=fc4e565b-2ea5-4295-b7e3-c3d170f3b704"},"vehicle_type_id":"4","last_reported":1701385655,"current_range_meters":4400,"station_id":"ce4bht12rcd13ifvqi60","pricing_plan_id":"free"},{"bike_id":"748a4b12-b668-4fae-bf1a-b7df0017758a","system_id":"levelo_inurba_marseille","lat":43.286039,"lon":5.370681,"is_reserved":false,"is_disabled":false,"rental_uris":{"android":"levelo://app?vid=748a4b12-b668-4fae-bf1a-b7df0017758a","ios":"levelo://app?vid=748a4b12-b668-4fae-bf1a-b7df0017758a"},"vehicle_type_id":"4","last_reported":1701385655,"current_range_meters":2400,"station_id":"ce4bht12rcd13ifvqi60","pricing_plan_id":"free"},{"bike_id":"51e80092-f709-463a-96a2-8b25587b914d","system_id":"levelo_inurba_marseille","lat":43.286039,"lon":5.370681,"is_reserved":false,"is_disabled":false,"rental_uris":{"android":"levelo://app?vid=51e80092-f709-463a-96a2-8b25587b914d","ios":"levelo://app?vid=51e80092-f709-463a-96a2-8b25587b914d"},"vehicle_type_id":"4","last_reported":1701385655,"current_range_meters":8400,"station_id":"ce4bht12rcd13ifvqi60","pricing_plan_id":"free"},{"bike_id":"7c586522-cbd0-4b30-87c4-d1b00e2d5421","system_id":"levelo_inurba_marseille","lat":43.316517,"lon":5.404375,"is_reserved":false,"is_disabled":false,"rental_uris":{"android":"levelo://app?vid=7c586522-cbd0-4b30-87c4-d1b00e2d5421","ios":"levelo://app?vid=7c586522-cbd0-4b30-87c4-d1b00e2d5421"},"vehicle_type_id":"4","last_reported":1701385655,"current_range_meters":12000,"station_id":"ce4bh012rcd13ifvqd00","pricing_plan_id":"free"},{"bike_id":"22d6b5b1-c3e8-45da-a1aa-df10181c2b41","system_id":"levelo_inurba_marseille","lat":43.291994,"lon":5.392907,"is_reserved":false,"is_disabled":false,"rental_uris":{"android":"levelo://app?vid=22d6b5b1-c3e8-45da-a1aa-df10181c2b41","ios":"levelo://app?vid=22d6b5b1-c3e8-45da-a1aa-df10181c2b41"},"vehicle_type_id":"4","last_reported":1701385655,"current_range_meters":1200,"station_id":"ce4bh192rcd13ifvqdd0","pricing_plan_id":"free"},{"bike_id":"0ce5cc18-ca78-4f15-b4da-c652334bfc5a","system_id":"levelo_inurba_marseille","lat":43.291994,"lon":5.392907,"is_reserved":false,"is_disabled":false,"rental_uris":{"android":"levelo://app?vid=0ce5cc18-ca78-4f15-b4da-c652334bfc5a","ios":"levelo://app?vid=0ce5cc18-ca78-4f15-b4da-c652334bfc5a"},"vehicle_type_id":"4","last_reported":1701385655,"current_range_meters":22800,"station_id":"ce4bh192rcd13ifvqdd0","pricing_plan_id":"free"},{"bike_id":"a3c8e6db-311f-44e5-ada6-33c3c19c390b","system_id":"levelo_inurba_marseille","lat":43.287633,"lon":5.38585,"is_reserved":false,"is_disabled":false,"rental_uris":{"android":"levelo://app?vid=a3c8e6db-311f-44e5-ada6-33c3c19c390b","ios":"levelo://app?vid=a3c8e6db-311f-44e5-ada6-33c3c19c390b"},"vehicle_type_id":"4","last_reported":1701385655,"current_range_meters":2000,"station_id":"","pricing_plan_id":"free"},{"bike_id":"d2793e46-d8de-4714-aae7-4386fc0c8a4f","system_id":"levelo_inurba_marseille","lat":43.284538,"lon":5.358657,"is_reserved":false,"is_disabled":false,"rental_uris":{"android":"levelo://app?vid=d2793e46-d8de-4714-aae7-4386fc0c8a4f","ios":"levelo://app?vid=d2793e46-d8de-4714-aae7-4386fc0c8a4f"},"vehicle_type_id":"4","last_reported":1701385655,"current_range_meters":11600,"station_id":"ce4bhah2rcd13ifvqei0","pricing_plan_id":"free"},{"bike_id":"fb9a3ba1-bd19-4ec5-9708-e57a8fcabc47","system_id":"levelo_inurba_marseille","lat":43.284538,"lon":5.358657,"is_reserved":false,"is_disabled":false,"rental_uris":{"android":"levelo://app?vid=fb9a3ba1-bd19-4ec5-9708-e57a8fcabc47","ios":"levelo://app?vid=fb9a3ba1-bd19-4ec5-9708-e57a8fcabc47"},"vehicle_type_id":"4","last_reported":1701385655,"current_range_meters":3200,"station_id":"ce4bhah2rcd13ifvqei0","pricing_plan_id":"free"},{"bike_id":"f0af66be-b54e-441d-bca6-9912ae6f8e4c","system_id":"levelo_inurba_marseille","lat":43.284538,"lon":5.358657,"is_reserved":false,"is_disabled":false,"rental_uris":{"android":"levelo://app?vid=f0af66be-b54e-441d-bca6-9912ae6f8e4c","ios":"levelo://app?vid=f0af66be-b54e-441d-bca6-9912ae6f8e4c"},"vehicle_type_id":"4","last_reported":1701385655,"current_range_meters":3200,"station_id":"ce4bhah2rcd13ifvqei0","pricing_plan_id":"free"},{"bike_id":"d27c3822-c0f8-4b95-a49f-2375387b9290","system_id":"levelo_inurba_marseille","lat":43.284641,"lon":5.358955,"is_reserved":false,"is_disabled":false,"rental_uris":{"android":"levelo://app?vid=d27c3822-c0f8-4b95-a49f-2375387b9290","ios":"levelo://app?vid=d27c3822-c0f8-4b95-a49f-2375387b9290"},"vehicle_type_id":"4","last_reported":1701385655,"current_range_meters":17600,"station_id":"ce4bhah2rcd13ifvqei0","pricing_plan_id":"free"},{"bike_id":"d8afdaf7-a980-4e89-9d7e-e47dccdeb5f1","system_id":"levelo_inurba_marseille","lat":43.284538,"lon":5.358657,"is_reserved":false,"is_disabled":false,"rental_uris":{"android":"levelo://app?vid=d8afdaf7-a980-4e89-9d7e-e47dccdeb5f1","ios":"levelo://app?vid=d8afdaf7-a980-4e89-9d7e-e47dccdeb5f1"},"vehicle_type_id":"4","last_reported":1701385655,"current_range_meters":2800,"station_id":"ce4bhah2rcd13ifvqei0","pricing_plan_id":"free"},{"bike_id":"ebf17176-9fba-4e7e-90b9-791b0da4501a","system_id":"levelo_inurba_marseille","lat":43.284534,"lon":5.358662,"is_reserved":false,"is_disabled":false,"rental_uris":{"android":"levelo://app?vid=ebf17176-9fba-4e7e-90b9-791b0da4501a","ios":"levelo://app?vid=ebf17176-9fba-4e7e-90b9-791b0da4501a"},"vehicle_type_id":"4","last_reported":1701385655,"current_range_meters":25600,"station_id":"ce4bhah2rcd13ifvqei0","pricing_plan_id":"free"},{"bike_id":"1e40973e-7b62-4dfc-a381-abfdb2060879","system_id":"levelo_inurba_marseille","lat":43.284538,"lon":5.358657,"is_reserved":false,"is_disabled":false,"rental_uris":{"android":"levelo://app?vid=1e40973e-7b62-4dfc-a381-abfdb2060879","ios":"levelo://app?vid=1e40973e-7b62-4dfc-a381-abfdb2060879"},"vehicle_type_id":"4","last_reported":1701385655,"current_range_meters":24400,"station_id":"ce4bhah2rcd13ifvqei0","pricing_plan_id":"free"},{"bike_id":"ccd68f04-c551-416a-8054-36c21720a053","system_id":"levelo_inurba_marseille","lat":43.284538,"lon":5.358657,"is_reserved":false,"is_disabled":false,"rental_uris":{"android":"levelo://app?vid=ccd68f04-c551-416a-8054-36c21720a053","ios":"levelo://app?vid=ccd68f04-c551-416a-8054-36c21720a053"},"vehicle_type_id":"4","last_reported":1701385655,"current_range_meters":10800,"station_id":"ce4bhah2rcd13ifvqei0","pricing_plan_id":"free"},{"bike_id":"21169003-7cd8-4dcc-90d2-c0b535fa7f98","system_id":"levelo_inurba_marseille","lat":43.284538,"lon":5.358657,"is_reserved":false,"is_disabled":false,"rental_uris":{"android":"levelo://app?vid=21169003-7cd8-4dcc-90d2-c0b535fa7f98","ios":"levelo://app?vid=21169003-7cd8-4dcc-90d2-c0b535fa7f98"},"vehicle_type_id":"4","last_reported":1701385655,"current_range_meters":18400,"station_id":"ce4bhah2rcd13ifvqei0","pricing_plan_id":"free"},{"bike_id":"17f9a08f-f653-4795-ab7f-1ff49e1b30ff","system_id":"levelo_inurba_marseille","lat":43.284538,"lon":5.358657,"is_reserved":false,"is_disabled":false,"rental_uris":{"android":"levelo://app?vid=17f9a08f-f653-4795-ab7f-1ff49e1b30ff","ios":"levelo://app?vid=17f9a08f-f653-4795-ab7f-1ff49e1b30ff"},"vehicle_type_id":"4","last_reported":1701385655,"current_range_meters":10800,"station_id":"ce4bhah2rcd13ifvqei0","pricing_plan_id":"free"},{"bike_id":"7e86716c-7d1c-41fc-b4d1-bedcc84d4e3f","system_id":"levelo_inurba_marseille","lat":43.284538,"lon":5.358657,"is_reserved":false,"is_disabled":false,"rental_uris":{"android":"levelo://app?vid=7e86716c-7d1c-41fc-b4d1-bedcc84d4e3f","ios":"levelo://app?vid=7e86716c-7d1c-41fc-b4d1-bedcc84d4e3f"},"vehicle_type_id":"4","last_reported":1701385655,"current_range_meters":24800,"station_id":"ce4bhah2rcd13ifvqei0","pricing_plan_id":"free"},{"bike_id":"49a2a951-ec22-459c-9519-ed6d13778d04","system_id":"levelo_inurba_marseille","lat":43.283998,"lon":5.375062,"is_reserved":false,"is_disabled":false,"rental_uris":{"android":"levelo://app?vid=49a2a951-ec22-459c-9519-ed6d13778d04","ios":"levelo://app?vid=49a2a951-ec22-459c-9519-ed6d13778d04"},"vehicle_type_id":"4","last_reported":1701385655,"current_range_meters":18800,"station_id":"ce4bh412rcd13ifvqds0","pricing_plan_id":"free"},{"bike_id":"29a8104e-33b7-4b38-b7ea-58c4eefefe41","system_id":"levelo_inurba_marseille","lat":43.283998,"lon":5.375062,"is_reserved":false,"is_disabled":false,"rental_uris":{"android":"levelo://app?vid=29a8104e-33b7-4b38-b7ea-58c4eefefe41","ios":"levelo://app?vid=29a8104e-33b7-4b38-b7ea-58c4eefefe41"},"vehicle_type_id":"4","last_reported":1701385655,"current_range_meters":15200,"station_id":"ce4bh412rcd13ifvqds0","pricing_plan_id":"free"},{"bike_id":"efd7f6bd-4083-4735-8bc3-3d42223a8058","system_id":"levelo_inurba_marseille","lat":43.283998,"lon":5.375062,"is_reserved":false,"is_disabled":false,"rental_uris":{"android":"levelo://app?vid=efd7f6bd-4083-4735-8bc3-3d42223a8058","ios":"levelo://app?vid=efd7f6bd-4083-4735-8bc3-3d42223a8058"},"vehicle_type_id":"4","last_reported":1701385655,"current_range_meters":27200,"station_id":"ce4bh412rcd13ifvqds0","pricing_plan_id":"free"},{"bike_id":"5f845716-6aa6-481b-8785-41ea0911a1c2","system_id":"levelo_inurba_marseille","lat":43.2957,"lon":5.39962,"is_reserved":false,"is_disabled":false,"rental_uris":{"android":"levelo://app?vid=5f845716-6aa6-481b-8785-41ea0911a1c2","ios":"levelo://app?vid=5f845716-6aa6-481b-8785-41ea0911a1c2"},"vehicle_type_id":"4","last_reported":1701385655,"current_range_meters":0,"station_id":"ce4bh312rcd13ifvqdj0","pricing_plan_id":"free"},{"bike_id":"f73b73ae-a049-4eee-8f2b-23d638dec4fb","system_id":"levelo_inurba_marseille","lat":43.283998,"lon":5.375062,"is_reserved":false,"is_disabled":false,"rental_uris":{"android":"levelo://app?vid=f73b73ae-a049-4eee-8f2b-23d638dec4fb","ios":"levelo://app?vid=f73b73ae-a049-4eee-8f2b-23d638dec4fb"},"vehicle_type_id":"4","last_reported":1701385655,"current_range_meters":18800,"station_id":"ce4bh412rcd13ifvqds0","pricing_plan_id":"free"},{"bike_id":"f9d4ec91-e3e8-4990-8594-b4e4e610432a","system_id":"levelo_inurba_marseille","lat":43.283998,"lon":5.375062,"is_reserved":false,"is_disabled":false,"rental_uris":{"android":"levelo://app?vid=f9d4ec91-e3e8-4990-8594-b4e4e610432a","ios":"levelo://app?vid=f9d4ec91-e3e8-4990-8594-b4e4e610432a"},"vehicle_type_id":"4","last_reported":1701385655,"current_range_meters":6400,"station_id":"ce4bh412rcd13ifvqds0","pricing_plan_id":"free"},{"bike_id":"37db4461-331c-4357-9f33-30987873c8e5","system_id":"levelo_inurba_marseille","lat":43.283998,"lon":5.375062,"is_reserved":false,"is_disabled":false,"rental_uris":{"android":"levelo://app?vid=37db4461-331c-4357-9f33-30987873c8e5","ios":"levelo://app?vid=37db4461-331c-4357-9f33-30987873c8e5"},"vehicle_type_id":"4","last_reported":1701385655,"current_range_meters":2000,"station_id":"ce4bh412rcd13ifvqds0","pricing_plan_id":"free"},{"bike_id":"69628e16-e6a0-4616-ba60-fba43ecff9e8","system_id":"levelo_inurba_marseille","lat":43.283998,"lon":5.375062,"is_reserved":false,"is_disabled":false,"rental_uris":{"android":"levelo://app?vid=69628e16-e6a0-4616-ba60-fba43ecff9e8","ios":"levelo://app?vid=69628e16-e6a0-4616-ba60-fba43ecff9e8"},"vehicle_type_id":"4","last_reported":1701385655,"current_range_meters":9200,"station_id":"ce4bh412rcd13ifvqds0","pricing_plan_id":"free"},{"bike_id":"cc5018f9-3af6-4c13-b57b-31c9959b415a","system_id":"levelo_inurba_marseille","lat":43.283998,"lon":5.375062,"is_reserved":false,"is_disabled":false,"rental_uris":{"android":"levelo://app?vid=cc5018f9-3af6-4c13-b57b-31c9959b415a","ios":"levelo://app?vid=cc5018f9-3af6-4c13-b57b-31c9959b415a"},"vehicle_type_id":"4","last_reported":1701385655,"current_range_meters":27200,"station_id":"ce4bh412rcd13ifvqds0","pricing_plan_id":"free"},{"bike_id":"26eed3ba-2ea6-4772-bacb-841028c0d40e","system_id":"levelo_inurba_marseille","lat":43.28656,"lon":5.38661,"is_reserved":false,"is_disabled":false,"rental_uris":{"android":"levelo://app?vid=26eed3ba-2ea6-4772-bacb-841028c0d40e","ios":"levelo://app?vid=26eed3ba-2ea6-4772-bacb-841028c0d40e"},"vehicle_type_id":"4","last_reported":1701385655,"current_range_meters":0,"station_id":"ce4bh492rcd13ifvqdug","pricing_plan_id":"free"},{"bike_id":"d147e0d7-0e39-41c3-9168-806b6269bef3","system_id":"levelo_inurba_marseille","lat":43.319179,"lon":5.407725,"is_reserved":false,"is_disabled":false,"rental_uris":{"android":"levelo://app?vid=d147e0d7-0e39-41c3-9168-806b6269bef3","ios":"levelo://app?vid=d147e0d7-0e39-41c3-9168-806b6269bef3"},"vehicle_type_id":"4","last_reported":1701385655,"current_range_meters":30000,"station_id":"ce4bhq12rcd13ifvqhig","pricing_plan_id":"free"},{"bike_id":"662fa6f8-2032-43e0-bf37-8abb696cda1d","system_id":"levelo_inurba_marseille","lat":43.33717,"lon":5.391857,"is_reserved":false,"is_disabled":false,"rental_uris":{"android":"levelo://app?vid=662fa6f8-2032-43e0-bf37-8abb696cda1d","ios":"levelo://app?vid=662fa6f8-2032-43e0-bf37-8abb696cda1d"},"vehicle_type_id":"4","last_reported":1701385655,"current_range_meters":27600,"station_id":"ce4bhr92rcd13ifvqhsg","pricing_plan_id":"free"},{"bike_id":"430fab3b-85ff-459e-b705-171d153ad923","system_id":"levelo_inurba_marseille","lat":43.323464,"lon":5.406297,"is_reserved":false,"is_disabled":false,"rental_uris":{"android":"levelo://app?vid=430fab3b-85ff-459e-b705-171d153ad923","ios":"levelo://app?vid=430fab3b-85ff-459e-b705-171d153ad923"},"vehicle_type_id":"4","last_reported":1701385655,"current_range_meters":27200,"station_id":"ce4bhq92rcd13ifvqhjg","pricing_plan_id":"free"},{"bike_id":"1933af5d-0268-487e-a8d4-ed432e3f7528","system_id":"levelo_inurba_marseille","lat":43.297946,"lon":5.404063,"is_reserved":false,"is_disabled":false,"rental_uris":{"android":"levelo://app?vid=1933af5d-0268-487e-a8d4-ed432e3f7528","ios":"levelo://app?vid=1933af5d-0268-487e-a8d4-ed432e3f7528"},"vehicle_type_id":"4","last_reported":1701385655,"current_range_meters":25600,"station_id":"ce4bh112rcd13ifvqd90","pricing_plan_id":"free"},{"bike_id":"609955dd-a606-4b85-b626-bc1ee5fe9013","system_id":"levelo_inurba_marseille","lat":43.283494,"lon":5.380945,"is_reserved":false,"is_disabled":false,"rental_uris":{"android":"levelo://app?vid=609955dd-a606-4b85-b626-bc1ee5fe9013","ios":"levelo://app?vid=609955dd-a606-4b85-b626-bc1ee5fe9013"},"vehicle_type_id":"4","last_reported":1701385655,"current_range_meters":7600,"station_id":"ce4bh412rcd13ifvqdr0","pricing_plan_id":"free"},{"bike_id":"07d2a45c-f0de-461f-9f26-caa6327b95f5","system_id":"levelo_inurba_marseille","lat":43.288501,"lon":5.393087,"is_reserved":false,"is_disabled":false,"rental_uris":{"android":"levelo://app?vid=07d2a45c-f0de-461f-9f26-caa6327b95f5","ios":"levelo://app?vid=07d2a45c-f0de-461f-9f26-caa6327b95f5"},"vehicle_type_id":"4","last_reported":1701385655,"current_range_meters":15600,"station_id":"ce4bh2p2rcd13ifvqdi0","pricing_plan_id":"free"},{"bike_id":"5307908e-6366-4e2a-8790-2d5c51f9d948","system_id":"levelo_inurba_marseille","lat":43.283494,"lon":5.380945,"is_reserved":false,"is_disabled":false,"rental_uris":{"android":"levelo://app?vid=5307908e-6366-4e2a-8790-2d5c51f9d948","ios":"levelo://app?vid=5307908e-6366-4e2a-8790-2d5c51f9d948"},"vehicle_type_id":"4","last_reported":1701385655,"current_range_meters":13200,"station_id":"ce4bh412rcd13ifvqdr0","pricing_plan_id":"free"},{"bike_id":"7a60c351-4595-43ed-904d-96a720c3fea5","system_id":"levelo_inurba_marseille","lat":43.292724,"lon":5.401131,"is_reserved":false,"is_disabled":false,"rental_uris":{"android":"levelo://app?vid=7a60c351-4595-43ed-904d-96a720c3fea5","ios":"levelo://app?vid=7a60c351-4595-43ed-904d-96a720c3fea5"},"vehicle_type_id":"4","last_reported":1701385655,"current_range_meters":2400,"station_id":"ce4bh312rcd13ifvqdk0","pricing_plan_id":"free"},{"bike_id":"bc22f075-3ef4-4711-bde2-194fc26a7647","system_id":"levelo_inurba_marseille","lat":43.282754,"lon":5.350519,"is_reserved":false,"is_disabled":false,"rental_uris":{"android":"levelo://app?vid=bc22f075-3ef4-4711-bde2-194fc26a7647","ios":"levelo://app?vid=bc22f075-3ef4-4711-bde2-194fc26a7647"},"vehicle_type_id":"4","last_reported":1701385655,"current_range_meters":28800,"station_id":"ce4bhbp2rcd13ifvqerg","pricing_plan_id":"free"},{"bike_id":"9115c47e-fcd7-447b-b65d-26581a8274ca","system_id":"levelo_inurba_marseille","lat":43.283502,"lon":5.386471,"is_reserved":false,"is_disabled":false,"rental_uris":{"android":"levelo://app?vid=9115c47e-fcd7-447b-b65d-26581a8274ca","ios":"levelo://app?vid=9115c47e-fcd7-447b-b65d-26581a8274ca"},"vehicle_type_id":"4","last_reported":1701385655,"current_range_meters":6400,"station_id":"ce4bh492rcd13ifvqdvg","pricing_plan_id":"free"},{"bike_id":"97b2aa8f-6261-44d4-bce3-cd3d07431379","system_id":"levelo_inurba_marseille","lat":43.28039,"lon":5.369297,"is_reserved":false,"is_disabled":false,"rental_uris":{"android":"levelo://app?vid=97b2aa8f-6261-44d4-bce3-cd3d07431379","ios":"levelo://app?vid=97b2aa8f-6261-44d4-bce3-cd3d07431379"},"vehicle_type_id":"4","last_reported":1701385655,"current_range_meters":30000,"station_id":"ce4bha12rcd13ifvqef0","pricing_plan_id":"free"},{"bike_id":"89e5298e-032b-44d7-b81e-fdede9d3fb7b","system_id":"levelo_inurba_marseille","lat":43.29041,"lon":5.399634,"is_reserved":false,"is_disabled":false,"rental_uris":{"android":"levelo://app?vid=89e5298e-032b-44d7-b81e-fdede9d3fb7b","ios":"levelo://app?vid=89e5298e-032b-44d7-b81e-fdede9d3fb7b"},"vehicle_type_id":"4","last_reported":1701385655,"current_range_meters":0,"station_id":"ce4bh392rcd13ifvqdm0","pricing_plan_id":"free"},{"bike_id":"1432456e-c89c-4438-beef-0777f470e97b","system_id":"levelo_inurba_marseille","lat":43.296263,"lon":5.40601,"is_reserved":false,"is_disabled":false,"rental_uris":{"android":"levelo://app?vid=1432456e-c89c-4438-beef-0777f470e97b","ios":"levelo://app?vid=1432456e-c89c-4438-beef-0777f470e97b"},"vehicle_type_id":"4","last_reported":1701385655,"current_range_meters":16000,"station_id":"ce4bh0h2rcd13ifvqd60","pricing_plan_id":"free"},{"bike_id":"effd1b29-6f7b-4043-9590-b2759724da0c","system_id":"levelo_inurba_marseille","lat":43.296263,"lon":5.40601,"is_reserved":false,"is_disabled":false,"rental_uris":{"android":"levelo://app?vid=effd1b29-6f7b-4043-9590-b2759724da0c","ios":"levelo://app?vid=effd1b29-6f7b-4043-9590-b2759724da0c"},"vehicle_type_id":"4","last_reported":1701385655,"current_range_meters":1200,"station_id":"ce4bh0h2rcd13ifvqd60","pricing_plan_id":"free"},{"bike_id":"fdf76a37-9f90-4a96-ae15-fc6d4cbdb42b","system_id":"levelo_inurba_marseille","lat":43.296263,"lon":5.40601,"is_reserved":false,"is_disabled":false,"rental_uris":{"android":"levelo://app?vid=fdf76a37-9f90-4a96-ae15-fc6d4cbdb42b","ios":"levelo://app?vid=fdf76a37-9f90-4a96-ae15-fc6d4cbdb42b"},"vehicle_type_id":"4","last_reported":1701385655,"current_range_meters":7200,"station_id":"ce4bh0h2rcd13ifvqd60","pricing_plan_id":"free"},{"bike_id":"1b0d16db-5d23-4439-b46a-227cd257fe91","system_id":"levelo_inurba_marseille","lat":43.284462,"lon":5.392121,"is_reserved":false,"is_disabled":false,"rental_uris":{"android":"levelo://app?vid=1b0d16db-5d23-4439-b46a-227cd257fe91","ios":"levelo://app?vid=1b0d16db-5d23-4439-b46a-227cd257fe91"},"vehicle_type_id":"4","last_reported":1701385655,"current_range_meters":4000,"station_id":"ce4bhoh2rcd13ifvqh5g","pricing_plan_id":"free"},{"bike_id":"863b1e4f-b16b-412a-99d2-7e90a85f7634","system_id":"levelo_inurba_marseille","lat":43.28573,"lon":5.394992,"is_reserved":false,"is_disabled":false,"rental_uris":{"android":"levelo://app?vid=863b1e4f-b16b-412a-99d2-7e90a85f7634","ios":"levelo://app?vid=863b1e4f-b16b-412a-99d2-7e90a85f7634"},"vehicle_type_id":"4","last_reported":1701385655,"current_range_meters":23600,"station_id":"ce4bh292rcd13ifvqdg0","pricing_plan_id":"free"},{"bike_id":"a4838a3b-0be1-46ff-9c53-dd9e0e8376aa","system_id":"levelo_inurba_marseille","lat":43.28573,"lon":5.394992,"is_reserved":false,"is_disabled":false,"rental_uris":{"android":"levelo://app?vid=a4838a3b-0be1-46ff-9c53-dd9e0e8376aa","ios":"levelo://app?vid=a4838a3b-0be1-46ff-9c53-dd9e0e8376aa"},"vehicle_type_id":"4","last_reported":1701385655,"current_range_meters":31600,"station_id":"ce4bh292rcd13ifvqdg0","pricing_plan_id":"free"},{"bike_id":"80be8bf4-1ec0-4d2d-84e5-f72668476bb7","system_id":"levelo_inurba_marseille","lat":43.285742,"lon":5.395004,"is_reserved":false,"is_disabled":false,"rental_uris":{"android":"levelo://app?vid=80be8bf4-1ec0-4d2d-84e5-f72668476bb7","ios":"levelo://app?vid=80be8bf4-1ec0-4d2d-84e5-f72668476bb7"},"vehicle_type_id":"4","last_reported":1701385655,"current_range_meters":25200,"station_id":"ce4bh292rcd13ifvqdg0","pricing_plan_id":"free"},{"bike_id":"368ff019-c7e9-4f5c-98c5-cec0a0355d41","system_id":"levelo_inurba_marseille","lat":43.326605,"lon":5.409903,"is_reserved":false,"is_disabled":false,"rental_uris":{"android":"levelo://app?vid=368ff019-c7e9-4f5c-98c5-cec0a0355d41","ios":"levelo://app?vid=368ff019-c7e9-4f5c-98c5-cec0a0355d41"},"vehicle_type_id":"4","last_reported":1701385655,"current_range_meters":23600,"station_id":"ce4bhpp2rcd13ifvqhgg","pricing_plan_id":"free"},{"bike_id":"6b7ef417-6657-4c19-98d8-e150659d83c2","system_id":"levelo_inurba_marseille","lat":43.304188,"lon":5.412904,"is_reserved":false,"is_disabled":false,"rental_uris":{"android":"levelo://app?vid=6b7ef417-6657-4c19-98d8-e150659d83c2","ios":"levelo://app?vid=6b7ef417-6657-4c19-98d8-e150659d83c2"},"vehicle_type_id":"4","last_reported":1701385655,"current_range_meters":28400,"station_id":"ce4bhop2rcd13ifvqh8g","pricing_plan_id":"free"},{"bike_id":"f51bbb39-26fa-493a-8217-3371e051ae9a","system_id":"levelo_inurba_marseille","lat":43.287154,"lon":5.399979,"is_reserved":false,"is_disabled":false,"rental_uris":{"android":"levelo://app?vid=f51bbb39-26fa-493a-8217-3371e051ae9a","ios":"levelo://app?vid=f51bbb39-26fa-493a-8217-3371e051ae9a"},"vehicle_type_id":"4","last_reported":1701385655,"current_range_meters":12800,"station_id":"ce4bho92rcd13ifvqh3g","pricing_plan_id":"free"},{"bike_id":"c62bb6ad-e276-4e6c-8e16-37f90dedf01a","system_id":"levelo_inurba_marseille","lat":43.279742,"lon":5.38744,"is_reserved":false,"is_disabled":false,"rental_uris":{"android":"levelo://app?vid=c62bb6ad-e276-4e6c-8e16-37f90dedf01a","ios":"levelo://app?vid=c62bb6ad-e276-4e6c-8e16-37f90dedf01a"},"vehicle_type_id":"4","last_reported":1701385655,"current_range_meters":28800,"station_id":"ce4bhg12rcd13ifvqf80","pricing_plan_id":"free"},{"bike_id":"c4da5249-08e6-4018-a9a4-8bb9dc595e34","system_id":"levelo_inurba_marseille","lat":43.29259,"lon":5.40902,"is_reserved":false,"is_disabled":false,"rental_uris":{"android":"levelo://app?vid=c4da5249-08e6-4018-a9a4-8bb9dc595e34","ios":"levelo://app?vid=c4da5249-08e6-4018-a9a4-8bb9dc595e34"},"vehicle_type_id":"4","last_reported":1701385655,"current_range_meters":20400,"station_id":"ce4bh192rcd13ifvqdc0","pricing_plan_id":"free"},{"bike_id":"76290dae-f1e9-4270-b5e3-e1e5d6e9bf29","system_id":"levelo_inurba_marseille","lat":43.27618,"lon":5.361009,"is_reserved":false,"is_disabled":false,"rental_uris":{"android":"levelo://app?vid=76290dae-f1e9-4270-b5e3-e1e5d6e9bf29","ios":"levelo://app?vid=76290dae-f1e9-4270-b5e3-e1e5d6e9bf29"},"vehicle_type_id":"4","last_reported":1701385655,"current_range_meters":5600,"station_id":"ce4bgj92rcd13ifvqbe0","pricing_plan_id":"free"},{"bike_id":"1775d204-0b18-4b2d-944b-2626ade3e634","system_id":"levelo_inurba_marseille","lat":43.303837,"lon":5.418724,"is_reserved":false,"is_disabled":false,"rental_uris":{"android":"levelo://app?vid=1775d204-0b18-4b2d-944b-2626ade3e634","ios":"levelo://app?vid=1775d204-0b18-4b2d-944b-2626ade3e634"},"vehicle_type_id":"4","last_reported":1701385655,"current_range_meters":13600,"station_id":"ce4bhop2rcd13ifvqh7g","pricing_plan_id":"free"},{"bike_id":"9057f908-2dd8-453f-8b7d-5e9dc0f31144","system_id":"levelo_inurba_marseille","lat":43.303837,"lon":5.418724,"is_reserved":false,"is_disabled":false,"rental_uris":{"android":"levelo://app?vid=9057f908-2dd8-453f-8b7d-5e9dc0f31144","ios":"levelo://app?vid=9057f908-2dd8-453f-8b7d-5e9dc0f31144"},"vehicle_type_id":"4","last_reported":1701385655,"current_range_meters":2000,"station_id":"ce4bhop2rcd13ifvqh7g","pricing_plan_id":"free"},{"bike_id":"d6cd08ef-c934-44a0-a330-510b886d15f8","system_id":"levelo_inurba_marseille","lat":43.310785,"lon":5.424305,"is_reserved":false,"is_disabled":false,"rental_uris":{"android":"levelo://app?vid=d6cd08ef-c934-44a0-a330-510b886d15f8","ios":"levelo://app?vid=d6cd08ef-c934-44a0-a330-510b886d15f8"},"vehicle_type_id":"4","last_reported":1701385655,"current_range_meters":31200,"station_id":"ce4bhp92rcd13ifvqhag","pricing_plan_id":"free"},{"bike_id":"ec437b53-12f7-4895-a5fb-94c6845381b6","system_id":"levelo_inurba_marseille","lat":43.340804,"lon":5.410219,"is_reserved":false,"is_disabled":false,"rental_uris":{"android":"levelo://app?vid=ec437b53-12f7-4895-a5fb-94c6845381b6","ios":"levelo://app?vid=ec437b53-12f7-4895-a5fb-94c6845381b6"},"vehicle_type_id":"4","last_reported":1701385655,"current_range_meters":7200,"station_id":"ce4bhqh2rcd13ifvqhlg","pricing_plan_id":"free"},{"bike_id":"f6d38aff-a5fe-4ea8-b323-a05c3a6bb4a7","system_id":"levelo_inurba_marseille","lat":43.295511,"lon":5.422926,"is_reserved":false,"is_disabled":false,"rental_uris":{"android":"levelo://app?vid=f6d38aff-a5fe-4ea8-b323-a05c3a6bb4a7","ios":"levelo://app?vid=f6d38aff-a5fe-4ea8-b323-a05c3a6bb4a7"},"vehicle_type_id":"4","last_reported":1701385655,"current_range_meters":30400,"station_id":"ce4bhph2rcd13ifvqhdg","pricing_plan_id":"free"},{"bike_id":"83072c97-a457-4ae8-aa0f-35abec59fd0c","system_id":"levelo_inurba_marseille","lat":43.269467,"lon":5.386439,"is_reserved":false,"is_disabled":false,"rental_uris":{"android":"levelo://app?vid=83072c97-a457-4ae8-aa0f-35abec59fd0c","ios":"levelo://app?vid=83072c97-a457-4ae8-aa0f-35abec59fd0c"},"vehicle_type_id":"4","last_reported":1701385655,"current_range_meters":0,"station_id":"ce4bhh92rcd13ifvqfh0","pricing_plan_id":"free"},{"bike_id":"e93e10c2-0439-4572-86c1-7b8b1441a79a","system_id":"levelo_inurba_marseille","lat":43.27954,"lon":5.41045,"is_reserved":false,"is_disabled":false,"rental_uris":{"android":"levelo://app?vid=e93e10c2-0439-4572-86c1-7b8b1441a79a","ios":"levelo://app?vid=e93e10c2-0439-4572-86c1-7b8b1441a79a"},"vehicle_type_id":"4","last_reported":1701385655,"current_range_meters":19600,"station_id":"ce4bhnp2rcd13ifvqh0g","pricing_plan_id":"free"},{"bike_id":"328d21c0-a0b1-4982-9d62-2cd26c6ce009","system_id":"levelo_inurba_marseille","lat":43.2656,"lon":5.37291,"is_reserved":false,"is_disabled":false,"rental_uris":{"android":"levelo://app?vid=328d21c0-a0b1-4982-9d62-2cd26c6ce009","ios":"levelo://app?vid=328d21c0-a0b1-4982-9d62-2cd26c6ce009"},"vehicle_type_id":"4","last_reported":1701385655,"current_range_meters":0,"station_id":"ce4bhg12rcd13ifvqf70","pricing_plan_id":"free"},{"bike_id":"c2b27acb-0e0a-48d2-8438-13e657c0153d","system_id":"levelo_inurba_marseille","lat":43.275445,"lon":5.409102,"is_reserved":false,"is_disabled":false,"rental_uris":{"android":"levelo://app?vid=c2b27acb-0e0a-48d2-8438-13e657c0153d","ios":"levelo://app?vid=c2b27acb-0e0a-48d2-8438-13e657c0153d"},"vehicle_type_id":"4","last_reported":1701385655,"current_range_meters":0,"station_id":"","pricing_plan_id":"free"},{"bike_id":"aa01e258-1091-43d5-8b89-fd25fa8df4dc","system_id":"levelo_inurba_marseille","lat":43.27541,"lon":5.40913,"is_reserved":false,"is_disabled":false,"rental_uris":{"android":"levelo://app?vid=aa01e258-1091-43d5-8b89-fd25fa8df4dc","ios":"levelo://app?vid=aa01e258-1091-43d5-8b89-fd25fa8df4dc"},"vehicle_type_id":"4","last_reported":1701385655,"current_range_meters":0,"station_id":"","pricing_plan_id":"free"},{"bike_id":"14f8f730-2410-4ff3-b8e9-463bf298232a","system_id":"levelo_inurba_marseille","lat":43.27998,"lon":5.41658,"is_reserved":false,"is_disabled":false,"rental_uris":{"android":"levelo://app?vid=14f8f730-2410-4ff3-b8e9-463bf298232a","ios":"levelo://app?vid=14f8f730-2410-4ff3-b8e9-463bf298232a"},"vehicle_type_id":"4","last_reported":1701385655,"current_range_meters":7200,"station_id":"ce4bho12rcd13ifvqh1g","pricing_plan_id":"free"},{"bike_id":"2a595ed3-532e-459c-93d4-255be74e8c44","system_id":"levelo_inurba_marseille","lat":43.27996,"lon":5.416624,"is_reserved":false,"is_disabled":false,"rental_uris":{"android":"levelo://app?vid=2a595ed3-532e-459c-93d4-255be74e8c44","ios":"levelo://app?vid=2a595ed3-532e-459c-93d4-255be74e8c44"},"vehicle_type_id":"4","last_reported":1701385655,"current_range_meters":14000,"station_id":"ce4bho12rcd13ifvqh1g","pricing_plan_id":"free"},{"bike_id":"22ee340c-bd9a-40e4-b269-c11f5d5d2216","system_id":"levelo_inurba_marseille","lat":43.27996,"lon":5.416624,"is_reserved":false,"is_disabled":false,"rental_uris":{"android":"levelo://app?vid=22ee340c-bd9a-40e4-b269-c11f5d5d2216","ios":"levelo://app?vid=22ee340c-bd9a-40e4-b269-c11f5d5d2216"},"vehicle_type_id":"4","last_reported":1701385655,"current_range_meters":29200,"station_id":"ce4bho12rcd13ifvqh1g","pricing_plan_id":"free"},{"bike_id":"3a9e3de9-989d-49ef-baaf-f60698970372","system_id":"levelo_inurba_marseille","lat":43.279957,"lon":5.416653,"is_reserved":false,"is_disabled":false,"rental_uris":{"android":"levelo://app?vid=3a9e3de9-989d-49ef-baaf-f60698970372","ios":"levelo://app?vid=3a9e3de9-989d-49ef-baaf-f60698970372"},"vehicle_type_id":"4","last_reported":1701385655,"current_range_meters":18000,"station_id":"ce4bho12rcd13ifvqh1g","pricing_plan_id":"free"},{"bike_id":"160e183f-6a07-4a6e-936b-a51ca96c16bf","system_id":"levelo_inurba_marseille","lat":43.279912,"lon":5.41661,"is_reserved":false,"is_disabled":false,"rental_uris":{"android":"levelo://app?vid=160e183f-6a07-4a6e-936b-a51ca96c16bf","ios":"levelo://app?vid=160e183f-6a07-4a6e-936b-a51ca96c16bf"},"vehicle_type_id":"4","last_reported":1701385655,"current_range_meters":8800,"station_id":"ce4bho12rcd13ifvqh1g","pricing_plan_id":"free"},{"bike_id":"cf0c3df9-4e41-4907-b5be-38fa5b6d9c92","system_id":"levelo_inurba_marseille","lat":43.27996,"lon":5.416624,"is_reserved":false,"is_disabled":false,"rental_uris":{"android":"levelo://app?vid=cf0c3df9-4e41-4907-b5be-38fa5b6d9c92","ios":"levelo://app?vid=cf0c3df9-4e41-4907-b5be-38fa5b6d9c92"},"vehicle_type_id":"4","last_reported":1701385655,"current_range_meters":21200,"station_id":"ce4bho12rcd13ifvqh1g","pricing_plan_id":"free"},{"bike_id":"15f9d067-797e-4c09-86bb-e3859d8b3fd3","system_id":"levelo_inurba_marseille","lat":43.27996,"lon":5.416624,"is_reserved":false,"is_disabled":false,"rental_uris":{"android":"levelo://app?vid=15f9d067-797e-4c09-86bb-e3859d8b3fd3","ios":"levelo://app?vid=15f9d067-797e-4c09-86bb-e3859d8b3fd3"},"vehicle_type_id":"4","last_reported":1701385655,"current_range_meters":25200,"station_id":"ce4bho12rcd13ifvqh1g","pricing_plan_id":"free"},{"bike_id":"577a75b4-3dc3-4fd2-8d74-fdb209bce3cf","system_id":"levelo_inurba_marseille","lat":43.279775,"lon":5.416478,"is_reserved":false,"is_disabled":false,"rental_uris":{"android":"levelo://app?vid=577a75b4-3dc3-4fd2-8d74-fdb209bce3cf","ios":"levelo://app?vid=577a75b4-3dc3-4fd2-8d74-fdb209bce3cf"},"vehicle_type_id":"4","last_reported":1701385655,"current_range_meters":18800,"station_id":"ce4bho12rcd13ifvqh1g","pricing_plan_id":"free"},{"bike_id":"11d579cd-d95c-4f27-b1d9-b6ec1b617449","system_id":"levelo_inurba_marseille","lat":43.279909,"lon":5.416648,"is_reserved":false,"is_disabled":false,"rental_uris":{"android":"levelo://app?vid=11d579cd-d95c-4f27-b1d9-b6ec1b617449","ios":"levelo://app?vid=11d579cd-d95c-4f27-b1d9-b6ec1b617449"},"vehicle_type_id":"4","last_reported":1701385655,"current_range_meters":21200,"station_id":"ce4bho12rcd13ifvqh1g","pricing_plan_id":"free"},{"bike_id":"c7f81e7f-054f-4e2f-82ee-e605f4015608","system_id":"levelo_inurba_marseille","lat":43.27996,"lon":5.416624,"is_reserved":false,"is_disabled":false,"rental_uris":{"android":"levelo://app?vid=c7f81e7f-054f-4e2f-82ee-e605f4015608","ios":"levelo://app?vid=c7f81e7f-054f-4e2f-82ee-e605f4015608"},"vehicle_type_id":"4","last_reported":1701385655,"current_range_meters":16800,"station_id":"ce4bho12rcd13ifvqh1g","pricing_plan_id":"free"},{"bike_id":"9aa6a01b-7a87-4263-87de-1b8d44f3a155","system_id":"levelo_inurba_marseille","lat":43.279775,"lon":5.41657,"is_reserved":false,"is_disabled":false,"rental_uris":{"android":"levelo://app?vid=9aa6a01b-7a87-4263-87de-1b8d44f3a155","ios":"levelo://app?vid=9aa6a01b-7a87-4263-87de-1b8d44f3a155"},"vehicle_type_id":"4","last_reported":1701385655,"current_range_meters":23200,"station_id":"ce4bho12rcd13ifvqh1g","pricing_plan_id":"free"},{"bike_id":"8e8d349d-09ef-483a-8322-0fd5fbd7b38e","system_id":"levelo_inurba_marseille","lat":43.308051,"lon":5.43527,"is_reserved":false,"is_disabled":false,"rental_uris":{"android":"levelo://app?vid=8e8d349d-09ef-483a-8322-0fd5fbd7b38e","ios":"levelo://app?vid=8e8d349d-09ef-483a-8322-0fd5fbd7b38e"},"vehicle_type_id":"4","last_reported":1701385655,"current_range_meters":30000,"station_id":"ce4bhph2rcd13ifvqheg","pricing_plan_id":"free"},{"bike_id":"7ab63241-0bea-4919-80fc-6d8eef69395f","system_id":"levelo_inurba_marseille","lat":43.308051,"lon":5.43527,"is_reserved":false,"is_disabled":false,"rental_uris":{"android":"levelo://app?vid=7ab63241-0bea-4919-80fc-6d8eef69395f","ios":"levelo://app?vid=7ab63241-0bea-4919-80fc-6d8eef69395f"},"vehicle_type_id":"4","last_reported":1701385655,"current_range_meters":31200,"station_id":"ce4bhph2rcd13ifvqheg","pricing_plan_id":"free"},{"bike_id":"6d50931a-5553-495d-be31-bbcf7bdad9de","system_id":"levelo_inurba_marseille","lat":43.317104,"lon":5.436818,"is_reserved":false,"is_disabled":false,"rental_uris":{"android":"levelo://app?vid=6d50931a-5553-495d-be31-bbcf7bdad9de","ios":"levelo://app?vid=6d50931a-5553-495d-be31-bbcf7bdad9de"},"vehicle_type_id":"4","last_reported":1701385655,"current_range_meters":31600,"station_id":"ce4bhp92rcd13ifvqhcg","pricing_plan_id":"free"},{"bike_id":"44d51874-045e-4906-a2f9-909193d67e63","system_id":"levelo_inurba_marseille","lat":43.317104,"lon":5.436818,"is_reserved":false,"is_disabled":false,"rental_uris":{"android":"levelo://app?vid=44d51874-045e-4906-a2f9-909193d67e63","ios":"levelo://app?vid=44d51874-045e-4906-a2f9-909193d67e63"},"vehicle_type_id":"4","last_reported":1701385655,"current_range_meters":28000,"station_id":"ce4bhp92rcd13ifvqhcg","pricing_plan_id":"free"},{"bike_id":"7fe6820a-06e6-42d8-9e38-8e0428267591","system_id":"levelo_inurba_marseille","lat":43.317104,"lon":5.436818,"is_reserved":false,"is_disabled":false,"rental_uris":{"android":"levelo://app?vid=7fe6820a-06e6-42d8-9e38-8e0428267591","ios":"levelo://app?vid=7fe6820a-06e6-42d8-9e38-8e0428267591"},"vehicle_type_id":"4","last_reported":1701385655,"current_range_meters":28800,"station_id":"ce4bhp92rcd13ifvqhcg","pricing_plan_id":"free"},{"bike_id":"10c539a4-a499-4586-9718-9fd3d3f6ea17","system_id":"levelo_inurba_marseille","lat":43.262012,"lon":5.379307,"is_reserved":false,"is_disabled":false,"rental_uris":{"android":"levelo://app?vid=10c539a4-a499-4586-9718-9fd3d3f6ea17","ios":"levelo://app?vid=10c539a4-a499-4586-9718-9fd3d3f6ea17"},"vehicle_type_id":"4","last_reported":1701385655,"current_range_meters":29200,"station_id":"ce4bhjp2rcd13ifvqg90","pricing_plan_id":"free"},{"bike_id":"8ca0c6ca-a7ce-4aa5-b688-877a71635599","system_id":"levelo_inurba_marseille","lat":43.26804,"lon":5.40267,"is_reserved":false,"is_disabled":false,"rental_uris":{"android":"levelo://app?vid=8ca0c6ca-a7ce-4aa5-b688-877a71635599","ios":"levelo://app?vid=8ca0c6ca-a7ce-4aa5-b688-877a71635599"},"vehicle_type_id":"4","last_reported":1701385655,"current_range_meters":0,"station_id":"ce501612rcd8frsf0b60","pricing_plan_id":"free"},{"bike_id":"4e3d13ae-3f43-4865-af20-3ed4394d391d","system_id":"levelo_inurba_marseille","lat":43.298768,"lon":5.43643,"is_reserved":false,"is_disabled":false,"rental_uris":{"android":"levelo://app?vid=4e3d13ae-3f43-4865-af20-3ed4394d391d","ios":"levelo://app?vid=4e3d13ae-3f43-4865-af20-3ed4394d391d"},"vehicle_type_id":"4","last_reported":1701385655,"current_range_meters":30800,"station_id":"ce4bhpp2rcd13ifvqhfg","pricing_plan_id":"free"},{"bike_id":"47bea9d8-b138-432f-9ef0-65c63add9fea","system_id":"levelo_inurba_marseille","lat":43.298768,"lon":5.43643,"is_reserved":false,"is_disabled":false,"rental_uris":{"android":"levelo://app?vid=47bea9d8-b138-432f-9ef0-65c63add9fea","ios":"levelo://app?vid=47bea9d8-b138-432f-9ef0-65c63add9fea"},"vehicle_type_id":"4","last_reported":1701385655,"current_range_meters":22000,"station_id":"ce4bhpp2rcd13ifvqhfg","pricing_plan_id":"free"},{"bike_id":"dbf57abf-b714-4688-8443-1b95bb0ea3d8","system_id":"levelo_inurba_marseille","lat":43.281548,"lon":5.42643,"is_reserved":false,"is_disabled":false,"rental_uris":{"android":"levelo://app?vid=dbf57abf-b714-4688-8443-1b95bb0ea3d8","ios":"levelo://app?vid=dbf57abf-b714-4688-8443-1b95bb0ea3d8"},"vehicle_type_id":"4","last_reported":1701385655,"current_range_meters":2400,"station_id":"ce4bhnh2rcd13ifvqgug","pricing_plan_id":"free"},{"bike_id":"08ee9831-e27a-4de6-b434-68bc147048ef","system_id":"levelo_inurba_marseille","lat":43.281548,"lon":5.42643,"is_reserved":false,"is_disabled":false,"rental_uris":{"android":"levelo://app?vid=08ee9831-e27a-4de6-b434-68bc147048ef","ios":"levelo://app?vid=08ee9831-e27a-4de6-b434-68bc147048ef"},"vehicle_type_id":"4","last_reported":1701385655,"current_range_meters":23600,"station_id":"ce4bhnh2rcd13ifvqgug","pricing_plan_id":"free"},{"bike_id":"3e4fb47e-33e8-4ee2-bfc1-1bd948cfa529","system_id":"levelo_inurba_marseille","lat":43.281548,"lon":5.42643,"is_reserved":false,"is_disabled":false,"rental_uris":{"android":"levelo://app?vid=3e4fb47e-33e8-4ee2-bfc1-1bd948cfa529","ios":"levelo://app?vid=3e4fb47e-33e8-4ee2-bfc1-1bd948cfa529"},"vehicle_type_id":"4","last_reported":1701385655,"current_range_meters":31600,"station_id":"ce4bhnh2rcd13ifvqgug","pricing_plan_id":"free"},{"bike_id":"3f2b1989-5b73-4cd5-aa40-2053eed33222","system_id":"levelo_inurba_marseille","lat":43.281548,"lon":5.42643,"is_reserved":false,"is_disabled":false,"rental_uris":{"android":"levelo://app?vid=3f2b1989-5b73-4cd5-aa40-2053eed33222","ios":"levelo://app?vid=3f2b1989-5b73-4cd5-aa40-2053eed33222"},"vehicle_type_id":"4","last_reported":1701385655,"current_range_meters":9200,"station_id":"ce4bhnh2rcd13ifvqgug","pricing_plan_id":"free"},{"bike_id":"3532a786-7312-4db1-88be-2e5e8a274941","system_id":"levelo_inurba_marseille","lat":43.281548,"lon":5.42643,"is_reserved":false,"is_disabled":false,"rental_uris":{"android":"levelo://app?vid=3532a786-7312-4db1-88be-2e5e8a274941","ios":"levelo://app?vid=3532a786-7312-4db1-88be-2e5e8a274941"},"vehicle_type_id":"4","last_reported":1701385655,"current_range_meters":21600,"station_id":"ce4bhnh2rcd13ifvqgug","pricing_plan_id":"free"},{"bike_id":"6802cc87-2400-474e-af55-196975da3aba","system_id":"levelo_inurba_marseille","lat":43.2607,"lon":5.393983,"is_reserved":false,"is_disabled":false,"rental_uris":{"android":"levelo://app?vid=6802cc87-2400-474e-af55-196975da3aba","ios":"levelo://app?vid=6802cc87-2400-474e-af55-196975da3aba"},"vehicle_type_id":"4","last_reported":1701385655,"current_range_meters":26400,"station_id":"ce4bhh92rcd13ifvqfj0","pricing_plan_id":"free"},{"bike_id":"c3be5e57-b7df-4b6f-84f6-e0b7439e5774","system_id":"levelo_inurba_marseille","lat":43.27497,"lon":5.42437,"is_reserved":false,"is_disabled":false,"rental_uris":{"android":"levelo://app?vid=c3be5e57-b7df-4b6f-84f6-e0b7439e5774","ios":"levelo://app?vid=c3be5e57-b7df-4b6f-84f6-e0b7439e5774"},"vehicle_type_id":"4","last_reported":1701385655,"current_range_meters":29600,"station_id":"ce4bhn92rcd13ifvqgrg","pricing_plan_id":"free"},{"bike_id":"2439b834-5f68-4270-bc56-f53ff23adca1","system_id":"levelo_inurba_marseille","lat":43.27493,"lon":5.42437,"is_reserved":false,"is_disabled":false,"rental_uris":{"android":"levelo://app?vid=2439b834-5f68-4270-bc56-f53ff23adca1","ios":"levelo://app?vid=2439b834-5f68-4270-bc56-f53ff23adca1"},"vehicle_type_id":"4","last_reported":1701385655,"current_range_meters":19600,"station_id":"ce4bhn92rcd13ifvqgrg","pricing_plan_id":"free"},{"bike_id":"d3f8d903-7534-4152-986e-1631c052ca83","system_id":"levelo_inurba_marseille","lat":43.254947,"lon":5.376454,"is_reserved":false,"is_disabled":false,"rental_uris":{"android":"levelo://app?vid=d3f8d903-7534-4152-986e-1631c052ca83","ios":"levelo://app?vid=d3f8d903-7534-4152-986e-1631c052ca83"},"vehicle_type_id":"4","last_reported":1701385655,"current_range_meters":3200,"station_id":"ce4bhh12rcd13ifvqff0","pricing_plan_id":"free"},{"bike_id":"f8dc2911-8d05-4d2e-a014-1e8cbe0ea255","system_id":"levelo_inurba_marseille","lat":43.254947,"lon":5.376454,"is_reserved":false,"is_disabled":false,"rental_uris":{"android":"levelo://app?vid=f8dc2911-8d05-4d2e-a014-1e8cbe0ea255","ios":"levelo://app?vid=f8dc2911-8d05-4d2e-a014-1e8cbe0ea255"},"vehicle_type_id":"4","last_reported":1701385655,"current_range_meters":22400,"station_id":"ce4bhh12rcd13ifvqff0","pricing_plan_id":"free"},{"bike_id":"fac0e422-c37f-421d-8e1b-a25ffb37ce17","system_id":"levelo_inurba_marseille","lat":43.270721,"lon":5.422764,"is_reserved":false,"is_disabled":false,"rental_uris":{"android":"levelo://app?vid=fac0e422-c37f-421d-8e1b-a25ffb37ce17","ios":"levelo://app?vid=fac0e422-c37f-421d-8e1b-a25ffb37ce17"},"vehicle_type_id":"4","last_reported":1701385655,"current_range_meters":29200,"station_id":"ce4bhk92rcd13ifvqgb0","pricing_plan_id":"free"},{"bike_id":"c31d6f97-d623-4262-9b94-0580c155f5d1","system_id":"levelo_inurba_marseille","lat":43.27074,"lon":5.4228,"is_reserved":false,"is_disabled":false,"rental_uris":{"android":"levelo://app?vid=c31d6f97-d623-4262-9b94-0580c155f5d1","ios":"levelo://app?vid=c31d6f97-d623-4262-9b94-0580c155f5d1"},"vehicle_type_id":"4","last_reported":1701385655,"current_range_meters":10000,"station_id":"ce4bhk92rcd13ifvqgb0","pricing_plan_id":"free"},{"bike_id":"2c794cda-e1ba-4030-acff-649085b058d6","system_id":"levelo_inurba_marseille","lat":43.270721,"lon":5.422764,"is_reserved":false,"is_disabled":false,"rental_uris":{"android":"levelo://app?vid=2c794cda-e1ba-4030-acff-649085b058d6","ios":"levelo://app?vid=2c794cda-e1ba-4030-acff-649085b058d6"},"vehicle_type_id":"4","last_reported":1701385655,"current_range_meters":21600,"station_id":"ce4bhk92rcd13ifvqgb0","pricing_plan_id":"free"},{"bike_id":"39a41fc6-fb12-4304-b9bd-c12fd73ba948","system_id":"levelo_inurba_marseille","lat":43.270721,"lon":5.422764,"is_reserved":false,"is_disabled":false,"rental_uris":{"android":"levelo://app?vid=39a41fc6-fb12-4304-b9bd-c12fd73ba948","ios":"levelo://app?vid=39a41fc6-fb12-4304-b9bd-c12fd73ba948"},"vehicle_type_id":"4","last_reported":1701385655,"current_range_meters":31200,"station_id":"ce4bhk92rcd13ifvqgb0","pricing_plan_id":"free"},{"bike_id":"778d91d1-a56b-4d1c-9e21-0c246272ecde","system_id":"levelo_inurba_marseille","lat":43.270721,"lon":5.422764,"is_reserved":false,"is_disabled":false,"rental_uris":{"android":"levelo://app?vid=778d91d1-a56b-4d1c-9e21-0c246272ecde","ios":"levelo://app?vid=778d91d1-a56b-4d1c-9e21-0c246272ecde"},"vehicle_type_id":"4","last_reported":1701385655,"current_range_meters":19200,"station_id":"ce4bhk92rcd13ifvqgb0","pricing_plan_id":"free"},{"bike_id":"d28c2101-138c-4829-a4d2-de1aa91912ed","system_id":"levelo_inurba_marseille","lat":43.270721,"lon":5.422764,"is_reserved":false,"is_disabled":false,"rental_uris":{"android":"levelo://app?vid=d28c2101-138c-4829-a4d2-de1aa91912ed","ios":"levelo://app?vid=d28c2101-138c-4829-a4d2-de1aa91912ed"},"vehicle_type_id":"4","last_reported":1701385655,"current_range_meters":12400,"station_id":"ce4bhk92rcd13ifvqgb0","pricing_plan_id":"free"},{"bike_id":"7a0d4ed8-8c68-4d2a-8f52-5a1026e3a55c","system_id":"levelo_inurba_marseille","lat":43.257079,"lon":5.411051,"is_reserved":false,"is_disabled":false,"rental_uris":{"android":"levelo://app?vid=7a0d4ed8-8c68-4d2a-8f52-5a1026e3a55c","ios":"levelo://app?vid=7a0d4ed8-8c68-4d2a-8f52-5a1026e3a55c"},"vehicle_type_id":"4","last_reported":1701385655,"current_range_meters":19200,"station_id":"ce4bhkp2rcd13ifvqgd0","pricing_plan_id":"free"},{"bike_id":"2803d510-c937-4d3e-8827-ebf9df44d558","system_id":"levelo_inurba_marseille","lat":43.257079,"lon":5.411051,"is_reserved":false,"is_disabled":false,"rental_uris":{"android":"levelo://app?vid=2803d510-c937-4d3e-8827-ebf9df44d558","ios":"levelo://app?vid=2803d510-c937-4d3e-8827-ebf9df44d558"},"vehicle_type_id":"4","last_reported":1701385655,"current_range_meters":30400,"station_id":"ce4bhkp2rcd13ifvqgd0","pricing_plan_id":"free"},{"bike_id":"f345f034-33dc-4dad-aa5b-253e1b17ca25","system_id":"levelo_inurba_marseille","lat":43.250009,"lon":5.389195,"is_reserved":false,"is_disabled":false,"rental_uris":{"android":"levelo://app?vid=f345f034-33dc-4dad-aa5b-253e1b17ca25","ios":"levelo://app?vid=f345f034-33dc-4dad-aa5b-253e1b17ca25"},"vehicle_type_id":"4","last_reported":1701385655,"current_range_meters":30400,"station_id":"ce4bhgp2rcd13ifvqfd0","pricing_plan_id":"free"},{"bike_id":"c623af1c-6e67-43af-a253-e9ce06d48351","system_id":"levelo_inurba_marseille","lat":43.250009,"lon":5.389195,"is_reserved":false,"is_disabled":false,"rental_uris":{"android":"levelo://app?vid=c623af1c-6e67-43af-a253-e9ce06d48351","ios":"levelo://app?vid=c623af1c-6e67-43af-a253-e9ce06d48351"},"vehicle_type_id":"4","last_reported":1701385655,"current_range_meters":28800,"station_id":"ce4bhgp2rcd13ifvqfd0","pricing_plan_id":"free"},{"bike_id":"ce92fad5-db92-45e2-9fd5-07b92c8faaa1","system_id":"levelo_inurba_marseille","lat":43.250009,"lon":5.389195,"is_reserved":false,"is_disabled":false,"rental_uris":{"android":"levelo://app?vid=ce92fad5-db92-45e2-9fd5-07b92c8faaa1","ios":"levelo://app?vid=ce92fad5-db92-45e2-9fd5-07b92c8faaa1"},"vehicle_type_id":"4","last_reported":1701385655,"current_range_meters":30000,"station_id":"ce4bhgp2rcd13ifvqfd0","pricing_plan_id":"free"},{"bike_id":"612fb0a3-b5b7-4efa-868e-ea52d61d5408","system_id":"levelo_inurba_marseille","lat":43.24808,"lon":5.37454,"is_reserved":false,"is_disabled":false,"rental_uris":{"android":"levelo://app?vid=612fb0a3-b5b7-4efa-868e-ea52d61d5408","ios":"levelo://app?vid=612fb0a3-b5b7-4efa-868e-ea52d61d5408"},"vehicle_type_id":"4","last_reported":1701385655,"current_range_meters":20800,"station_id":"ce4bhgh2rcd13ifvqfb0","pricing_plan_id":"free"},{"bike_id":"389a24c9-42a2-4385-aee6-bc2c0ca73082","system_id":"levelo_inurba_marseille","lat":43.2479,"lon":5.374457,"is_reserved":false,"is_disabled":false,"rental_uris":{"android":"levelo://app?vid=389a24c9-42a2-4385-aee6-bc2c0ca73082","ios":"levelo://app?vid=389a24c9-42a2-4385-aee6-bc2c0ca73082"},"vehicle_type_id":"4","last_reported":1701385655,"current_range_meters":14000,"station_id":"ce4bhgh2rcd13ifvqfb0","pricing_plan_id":"free"},{"bike_id":"a9da35ff-0406-49b8-9fdd-79df124c9328","system_id":"levelo_inurba_marseille","lat":43.2479,"lon":5.374457,"is_reserved":false,"is_disabled":false,"rental_uris":{"android":"levelo://app?vid=a9da35ff-0406-49b8-9fdd-79df124c9328","ios":"levelo://app?vid=a9da35ff-0406-49b8-9fdd-79df124c9328"},"vehicle_type_id":"4","last_reported":1701385655,"current_range_meters":10400,"station_id":"ce4bhgh2rcd13ifvqfb0","pricing_plan_id":"free"},{"bike_id":"3df300e6-5df1-4893-813b-d13f082ca465","system_id":"levelo_inurba_marseille","lat":43.2479,"lon":5.374457,"is_reserved":false,"is_disabled":false,"rental_uris":{"android":"levelo://app?vid=3df300e6-5df1-4893-813b-d13f082ca465","ios":"levelo://app?vid=3df300e6-5df1-4893-813b-d13f082ca465"},"vehicle_type_id":"4","last_reported":1701385655,"current_range_meters":31200,"station_id":"ce4bhgh2rcd13ifvqfb0","pricing_plan_id":"free"},{"bike_id":"e579f380-e6f0-430a-9715-3331fd3030fe","system_id":"levelo_inurba_marseille","lat":43.2479,"lon":5.374457,"is_reserved":false,"is_disabled":false,"rental_uris":{"android":"levelo://app?vid=e579f380-e6f0-430a-9715-3331fd3030fe","ios":"levelo://app?vid=e579f380-e6f0-430a-9715-3331fd3030fe"},"vehicle_type_id":"4","last_reported":1701385655,"current_range_meters":32000,"station_id":"ce4bhgh2rcd13ifvqfb0","pricing_plan_id":"free"},{"bike_id":"f2abae92-b6bb-45dd-84b8-608055c3af1f","system_id":"levelo_inurba_marseille","lat":43.250966,"lon":5.395186,"is_reserved":false,"is_disabled":false,"rental_uris":{"android":"levelo://app?vid=f2abae92-b6bb-45dd-84b8-608055c3af1f","ios":"levelo://app?vid=f2abae92-b6bb-45dd-84b8-608055c3af1f"},"vehicle_type_id":"4","last_reported":1701385655,"current_range_meters":0,"station_id":"ce4bhm12rcd13ifvqgkg","pricing_plan_id":"free"},{"bike_id":"6d3cd5c5-ee34-4c4b-abe0-b26aef80187d","system_id":"levelo_inurba_marseille","lat":43.250966,"lon":5.395186,"is_reserved":false,"is_disabled":false,"rental_uris":{"android":"levelo://app?vid=6d3cd5c5-ee34-4c4b-abe0-b26aef80187d","ios":"levelo://app?vid=6d3cd5c5-ee34-4c4b-abe0-b26aef80187d"},"vehicle_type_id":"4","last_reported":1701385655,"current_range_meters":19200,"station_id":"ce4bhm12rcd13ifvqgkg","pricing_plan_id":"free"},{"bike_id":"60f88e46-114c-4d3b-b131-727ccd001a36","system_id":"levelo_inurba_marseille","lat":43.250966,"lon":5.395186,"is_reserved":false,"is_disabled":false,"rental_uris":{"android":"levelo://app?vid=60f88e46-114c-4d3b-b131-727ccd001a36","ios":"levelo://app?vid=60f88e46-114c-4d3b-b131-727ccd001a36"},"vehicle_type_id":"4","last_reported":1701385655,"current_range_meters":16000,"station_id":"ce4bhm12rcd13ifvqgkg","pricing_plan_id":"free"},{"bike_id":"db6dd1e0-85ec-46e8-8d65-044233dc4acf","system_id":"levelo_inurba_marseille","lat":43.281174,"lon":5.445933,"is_reserved":false,"is_disabled":false,"rental_uris":{"android":"levelo://app?vid=db6dd1e0-85ec-46e8-8d65-044233dc4acf","ios":"levelo://app?vid=db6dd1e0-85ec-46e8-8d65-044233dc4acf"},"vehicle_type_id":"4","last_reported":1701385655,"current_range_meters":12000,"station_id":"","pricing_plan_id":"free"},{"bike_id":"c2a210d2-c2e5-441f-a1fb-c94c9bcd5684","system_id":"levelo_inurba_marseille","lat":43.24693,"lon":5.382096,"is_reserved":false,"is_disabled":false,"rental_uris":{"android":"levelo://app?vid=c2a210d2-c2e5-441f-a1fb-c94c9bcd5684","ios":"levelo://app?vid=c2a210d2-c2e5-441f-a1fb-c94c9bcd5684"},"vehicle_type_id":"4","last_reported":1701385655,"current_range_meters":24800,"station_id":"ce4bhih2rcd13ifvqfr0","pricing_plan_id":"free"},{"bike_id":"5a843d46-e3a2-48e0-9de2-5fbbf1bcf0f4","system_id":"levelo_inurba_marseille","lat":43.24667,"lon":5.38153,"is_reserved":false,"is_disabled":false,"rental_uris":{"android":"levelo://app?vid=5a843d46-e3a2-48e0-9de2-5fbbf1bcf0f4","ios":"levelo://app?vid=5a843d46-e3a2-48e0-9de2-5fbbf1bcf0f4"},"vehicle_type_id":"4","last_reported":1701385655,"current_range_meters":0,"station_id":"ce4bhih2rcd13ifvqfr0","pricing_plan_id":"free"},{"bike_id":"d751e4ae-608d-48da-8a14-c2e0d4fc296a","system_id":"levelo_inurba_marseille","lat":43.24693,"lon":5.382096,"is_reserved":false,"is_disabled":false,"rental_uris":{"android":"levelo://app?vid=d751e4ae-608d-48da-8a14-c2e0d4fc296a","ios":"levelo://app?vid=d751e4ae-608d-48da-8a14-c2e0d4fc296a"},"vehicle_type_id":"4","last_reported":1701385655,"current_range_meters":24800,"station_id":"ce4bhih2rcd13ifvqfr0","pricing_plan_id":"free"},{"bike_id":"5cac2d7c-9b6e-4a64-8026-2c0b91defe32","system_id":"levelo_inurba_marseille","lat":43.25114,"lon":5.4032,"is_reserved":false,"is_disabled":false,"rental_uris":{"android":"levelo://app?vid=5cac2d7c-9b6e-4a64-8026-2c0b91defe32","ios":"levelo://app?vid=5cac2d7c-9b6e-4a64-8026-2c0b91defe32"},"vehicle_type_id":"4","last_reported":1701385655,"current_range_meters":11200,"station_id":"ce4bhlh2rcd13ifvqgig","pricing_plan_id":"free"},{"bike_id":"321bed3d-5896-4273-b466-9e7940ea5703","system_id":"levelo_inurba_marseille","lat":43.25111,"lon":5.40321,"is_reserved":false,"is_disabled":false,"rental_uris":{"android":"levelo://app?vid=321bed3d-5896-4273-b466-9e7940ea5703","ios":"levelo://app?vid=321bed3d-5896-4273-b466-9e7940ea5703"},"vehicle_type_id":"4","last_reported":1701385655,"current_range_meters":1200,"station_id":"ce4bhlh2rcd13ifvqgig","pricing_plan_id":"free"},{"bike_id":"f74c6e16-fc22-4227-8986-b81cca2fcb75","system_id":"levelo_inurba_marseille","lat":43.25108,"lon":5.40314,"is_reserved":false,"is_disabled":false,"rental_uris":{"android":"levelo://app?vid=f74c6e16-fc22-4227-8986-b81cca2fcb75","ios":"levelo://app?vid=f74c6e16-fc22-4227-8986-b81cca2fcb75"},"vehicle_type_id":"4","last_reported":1701385655,"current_range_meters":26000,"station_id":"ce4bhlh2rcd13ifvqgig","pricing_plan_id":"free"},{"bike_id":"7326163a-fe15-44c2-b3c0-88c5eaf4a9e6","system_id":"levelo_inurba_marseille","lat":43.25109,"lon":5.40321,"is_reserved":false,"is_disabled":false,"rental_uris":{"android":"levelo://app?vid=7326163a-fe15-44c2-b3c0-88c5eaf4a9e6","ios":"levelo://app?vid=7326163a-fe15-44c2-b3c0-88c5eaf4a9e6"},