{"last_updated":1727856722,"ttl":60,"version":"2.2","data":{"bikes":[{"bike_id":"484edfb5-9f03-4dae-a24e-4b5baa8721ea","system_id":"levelo_inurba_marseille","lat":43.30473,"lon":5.37896,"is_reserved":false,"is_disabled":false,"rental_uris":{"android":"levelo://app?vid=484edfb5-9f03-4dae-a24e-4b5baa8721ea","ios":"levelo://app?vid=484edfb5-9f03-4dae-a24e-4b5baa8721ea"},"vehicle_type_id":"4","last_reported":1727856723,"current_range_meters":39200,"station_id":"ce4bgup2rcd13ifvqcn0","pricing_plan_id":"cebpf4jnsgd1na2vs0mg"},{"bike_id":"fbc4b367-7bbb-43b3-ba51-7142eb83236b","system_id":"levelo_inurba_marseille","lat":43.31444,"lon":5.37381,"is_reserved":false,"is_disabled":false,"rental_uris":{"android":"levelo://app?vid=fbc4b367-7bbb-43b3-ba51-7142eb83236b","ios":"levelo://app?vid=fbc4b367-7bbb-43b3-ba51-7142eb83236b"},"vehicle_type_id":"4","last_reported":1727856723,"current_range_meters":24400,"station_id":"","pricing_plan_id":"cebpf4jnsgd1na2vs0mg"},{"bike_id":"2a77af16-761d-4173-a9ec-bae6fd7f636a","system_id":"levelo_inurba_marseille","lat":43.295114,"lon":5.379996,"is_reserved":false,"is_disabled":false,"rental_uris":{"android":"levelo://app?vid=2a77af16-761d-4173-a9ec-bae6fd7f636a","ios":"levelo://app?vid=2a77af16-761d-4173-a9ec-bae6fd7f636a"},"vehicle_type_id":"4","last_reported":1727856723,"current_range_meters":25200,"station_id":"ce4bgrp2rcd13ifvqc9g","pricing_plan_id":"cebpf4jnsgd1na2vs0mg"},{"bike_id":"1b11b0b9-10c1-40e1-b726-e9f2c3b668f3","system_id":"levelo_inurba_marseille","lat":43.29879,"lon":5.36527,"is_reserved":false,"is_disabled":false,"rental_uris":{"android":"levelo://app?vid=1b11b0b9-10c1-40e1-b726-e9f2c3b668f3","ios":"levelo://app?vid=1b11b0b9-10c1-40e1-b726-e9f2c3b668f3"},"vehicle_type_id":"4","last_reported":1727856723,"current_range_meters":12400,"station_id":"ce4bgm92rcd13ifvqbr0","pricing_plan_id":"cebpf4jnsgd1na2vs0mg"},{"bike_id":"590a8d58-4170-45bf-9ac5-837bd3ff5b81","system_id":"levelo_inurba_marseille","lat":43.2706,"lon":5.42272,"is_reserved":false,"is_disabled":false,"rental_uris":{"android":"levelo://app?vid=590a8d58-4170-45bf-9ac5-837bd3ff5b81","ios":"levelo://app?vid=590a8d58-4170-45bf-9ac5-837bd3ff5b81"},"vehicle_type_id":"4","last_reported":1727856723,"current_range_meters":24400,"station_id":"ce4bhk92rcd13ifvqgb0","pricing_plan_id":"cebpf4jnsgd1na2vs0mg"},{"bike_id":"44cefc2e-25d9-4040-b45f-14956c78c679","system_id":"levelo_inurba_marseille","lat":43.27049,"lon":5.42216,"is_reserved":false,"is_disabled":false,"rental_uris":{"android":"levelo://app?vid=44cefc2e-25d9-4040-b45f-14956c78c679","ios":"levelo://app?vid=44cefc2e-25d9-4040-b45f-14956c78c679"},"vehicle_type_id":"4","last_reported":1727856723,"current_range_meters":38000,"station_id":"ce4bhk92rcd13ifvqgb0","pricing_plan_id":"cebpf4jnsgd1na2vs0mg"},{"bike_id":"4f60feaa-1808-4e7f-9340-f6a0254476e2","system_id":"levelo_inurba_marseille","lat":43.23963,"lon":5.36632,"is_reserved":false,"is_disabled":false,"rental_uris":{"android":"levelo://app?vid=4f60feaa-1808-4e7f-9340-f6a0254476e2","ios":"levelo://app?vid=4f60feaa-1808-4e7f-9340-f6a0254476e2"},"vehicle_type_id":"4","last_reported":1727856723,"current_range_meters":2800,"station_id":"ce4bhi12rcd13ifvqfp0","pricing_plan_id":"cebpf4jnsgd1na2vs0mg"},{"bike_id":"98bbd9c1-8307-405d-9250-6682408d96e2","system_id":"levelo_inurba_marseille","lat":43.33744,"lon":5.37491,"is_reserved":false,"is_disabled":false,"rental_uris":{"android":"levelo://app?vid=98bbd9c1-8307-405d-9250-6682408d96e2","ios":"levelo://app?vid=98bbd9c1-8307-405d-9250-6682408d96e2"},"vehicle_type_id":"4","last_reported":1727856723,"current_range_meters":38800,"station_id":"","pricing_plan_id":"cebpf4jnsgd1na2vs0mg"},{"bike_id":"1b2f7b78-2f45-40a8-8e07-05665c8c578e","system_id":"levelo_inurba_marseille","lat":43.29304,"lon":5.37457,"is_reserved":false,"is_disabled":false,"rental_uris":{"android":"levelo://app?vid=1b2f7b78-2f45-40a8-8e07-05665c8c578e","ios":"levelo://app?vid=1b2f7b78-2f45-40a8-8e07-05665c8c578e"},"vehicle_type_id":"4","last_reported":1727856723,"current_range_meters":37600,"station_id":"ce4bgi12rcd13ifvqb70","pricing_plan_id":"cebpf4jnsgd1na2vs0mg"},{"bike_id":"a5c30298-3339-4ef2-8c52-b66d772d2ed8","system_id":"levelo_inurba_marseille","lat":43.30463,"lon":5.37917,"is_reserved":false,"is_disabled":false,"rental_uris":{"android":"levelo://app?vid=a5c30298-3339-4ef2-8c52-b66d772d2ed8","ios":"levelo://app?vid=a5c30298-3339-4ef2-8c52-b66d772d2ed8"},"vehicle_type_id":"4","last_reported":1727856723,"current_range_meters":28400,"station_id":"ce4bgup2rcd13ifvqcn0","pricing_plan_id":"cebpf4jnsgd1na2vs0mg"},{"bike_id":"36c16717-a39d-4982-b908-c0d63ba1e343","system_id":"levelo_inurba_marseille","lat":43.3016,"lon":5.38069,"is_reserved":false,"is_disabled":false,"rental_uris":{"android":"levelo://app?vid=36c16717-a39d-4982-b908-c0d63ba1e343","ios":"levelo://app?vid=36c16717-a39d-4982-b908-c0d63ba1e343"},"vehicle_type_id":"4","last_reported":1727856723,"current_range_meters":11200,"station_id":"ce4bgjp2rcd13ifvqbh0","pricing_plan_id":"cebpf4jnsgd1na2vs0mg"},{"bike_id":"fa980e56-1e85-4ffb-824e-5670ae91f4c6","system_id":"levelo_inurba_marseille","lat":43.28149,"lon":5.42665,"is_reserved":false,"is_disabled":false,"rental_uris":{"android":"levelo://app?vid=fa980e56-1e85-4ffb-824e-5670ae91f4c6","ios":"levelo://app?vid=fa980e56-1e85-4ffb-824e-5670ae91f4c6"},"vehicle_type_id":"4","last_reported":1727856723,"current_range_meters":38800,"station_id":"ce4bhnh2rcd13ifvqgug","pricing_plan_id":"cebpf4jnsgd1na2vs0mg"},{"bike_id":"49538ee1-018d-4b81-97d6-02c09fe11c99","system_id":"levelo_inurba_marseille","lat":43.23155,"lon":5.43707,"is_reserved":false,"is_disabled":false,"rental_uris":{"android":"levelo://app?vid=49538ee1-018d-4b81-97d6-02c09fe11c99","ios":"levelo://app?vid=49538ee1-018d-4b81-97d6-02c09fe11c99"},"vehicle_type_id":"4","last_reported":1727856723,"current_range_meters":18800,"station_id":"ce4bhmp2rcd13ifvqgog","pricing_plan_id":"cebpf4jnsgd1na2vs0mg"},{"bike_id":"a4df2eb7-690f-4b11-9951-67b9790f07be","system_id":"levelo_inurba_marseille","lat":43.24083,"lon":5.37748,"is_reserved":false,"is_disabled":false,"rental_uris":{"android":"levelo://app?vid=a4df2eb7-690f-4b11-9951-67b9790f07be","ios":"levelo://app?vid=a4df2eb7-690f-4b11-9951-67b9790f07be"},"vehicle_type_id":"4","last_reported":1727856723,"current_range_meters":36400,"station_id":"ce4bhnp2rcd13ifvqgvg","pricing_plan_id":"cebpf4jnsgd1na2vs0mg"},{"bike_id":"3e3f227d-df2f-4dbf-9989-ad723c682cbc","system_id":"levelo_inurba_marseille","lat":43.3045,"lon":5.37891,"is_reserved":false,"is_disabled":false,"rental_uris":{"android":"levelo://app?vid=3e3f227d-df2f-4dbf-9989-ad723c682cbc","ios":"levelo://app?vid=3e3f227d-df2f-4dbf-9989-ad723c682cbc"},"vehicle_type_id":"4","last_reported":1727856723,"current_range_meters":38000,"station_id":"ce4bgup2rcd13ifvqcn0","pricing_plan_id":"cebpf4jnsgd1na2vs0mg"},{"bike_id":"58f3fb3a-fe36-4c95-8108-a0895ed09833","system_id":"levelo_inurba_marseille","lat":43.26683,"lon":5.38272,"is_reserved":false,"is_disabled":false,"rental_uris":{"android":"levelo://app?vid=58f3fb3a-fe36-4c95-8108-a0895ed09833","ios":"levelo://app?vid=58f3fb3a-fe36-4c95-8108-a0895ed09833"},"vehicle_type_id":"4","last_reported":1727856723,"current_range_meters":38800,"station_id":"ce4bhg92rcd13ifvqf90","pricing_plan_id":"cebpf4jnsgd1na2vs0mg"},{"bike_id":"f2536b45-917d-4a72-9370-1fba1b3bcd3c","system_id":"levelo_inurba_marseille","lat":43.27173,"lon":5.40995,"is_reserved":false,"is_disabled":false,"rental_uris":{"android":"levelo://app?vid=f2536b45-917d-4a72-9370-1fba1b3bcd3c","ios":"levelo://app?vid=f2536b45-917d-4a72-9370-1fba1b3bcd3c"},"vehicle_type_id":"4","last_reported":1727856723,"current_range_meters":37600,"station_id":"ce4bhl12rcd13ifvqgf0","pricing_plan_id":"cebpf4jnsgd1na2vs0mg"},{"bike_id":"c701f68e-839c-445b-a74c-9bde6b602394","system_id":"levelo_inurba_marseille","lat":43.33728,"lon":5.39185,"is_reserved":false,"is_disabled":false,"rental_uris":{"android":"levelo://app?vid=c701f68e-839c-445b-a74c-9bde6b602394","ios":"levelo://app?vid=c701f68e-839c-445b-a74c-9bde6b602394"},"vehicle_type_id":"4","last_reported":1727856723,"current_range_meters":19600,"station_id":"ce4bhr92rcd13ifvqhsg","pricing_plan_id":"cebpf4jnsgd1na2vs0mg"},{"bike_id":"a4224d16-b792-43d4-bccc-ee1385fa6dad","system_id":"levelo_inurba_marseille","lat":43.32532,"lon":5.41443,"is_reserved":false,"is_disabled":false,"rental_uris":{"android":"levelo://app?vid=a4224d16-b792-43d4-bccc-ee1385fa6dad","ios":"levelo://app?vid=a4224d16-b792-43d4-bccc-ee1385fa6dad"},"vehicle_type_id":"4","last_reported":1727856723,"current_range_meters":38800,"station_id":"ce4bhq12rcd13ifvqhhg","pricing_plan_id":"cebpf4jnsgd1na2vs0mg"},{"bike_id":"de27b63c-2288-48d0-bf61-e27cd6043c1e","system_id":"levelo_inurba_marseille","lat":43.30309,"lon":5.369,"is_reserved":false,"is_disabled":false,"rental_uris":{"android":"levelo://app?vid=de27b63c-2288-48d0-bf61-e27cd6043c1e","ios":"levelo://app?vid=de27b63c-2288-48d0-bf61-e27cd6043c1e"},"vehicle_type_id":"4","last_reported":1727856723,"current_range_meters":21600,"station_id":"ce4bgqh2rcd13ifvqc5g","pricing_plan_id":"cebpf4jnsgd1na2vs0mg"},{"bike_id":"202e0f5d-a2cc-4f86-93f0-5e300189a421","system_id":"levelo_inurba_marseille","lat":43.31226,"lon":5.36853,"is_reserved":false,"is_disabled":false,"rental_uris":{"android":"levelo://app?vid=202e0f5d-a2cc-4f86-93f0-5e300189a421","ios":"levelo://app?vid=202e0f5d-a2cc-4f86-93f0-5e300189a421"},"vehicle_type_id":"4","last_reported":1727856723,"current_range_meters":11600,"station_id":"ce4bgl92rcd13ifvqbq0","pricing_plan_id":"cebpf4jnsgd1na2vs0mg"},{"bike_id":"554d7a73-3b40-4dac-9894-f5eadfdc26ff","system_id":"levelo_inurba_marseille","lat":43.28152,"lon":5.42638,"is_reserved":false,"is_disabled":false,"rental_uris":{"android":"levelo://app?vid=554d7a73-3b40-4dac-9894-f5eadfdc26ff","ios":"levelo://app?vid=554d7a73-3b40-4dac-9894-f5eadfdc26ff"},"vehicle_type_id":"4","last_reported":1727856723,"current_range_meters":38800,"station_id":"ce4bhnh2rcd13ifvqgug","pricing_plan_id":"cebpf4jnsgd1na2vs0mg"},{"bike_id":"5c20e32a-e7b8-4f0c-859f-df9defd23ccb","system_id":"levelo_inurba_marseille","lat":43.30564,"lon":5.36538,"is_reserved":false,"is_disabled":false,"rental_uris":{"android":"levelo://app?vid=5c20e32a-e7b8-4f0c-859f-df9defd23ccb","ios":"levelo://app?vid=5c20e32a-e7b8-4f0c-859f-df9defd23ccb"},"vehicle_type_id":"4","last_reported":1727856723,"current_range_meters":20400,"station_id":"ce4bgs12rcd13ifvqcag","pricing_plan_id":"cebpf4jnsgd1na2vs0mg"},{"bike_id":"7e76f61d-1104-460b-895f-03b2abf7da39","system_id":"levelo_inurba_marseille","lat":43.24074,"lon":5.37763,"is_reserved":false,"is_disabled":false,"rental_uris":{"android":"levelo://app?vid=7e76f61d-1104-460b-895f-03b2abf7da39","ios":"levelo://app?vid=7e76f61d-1104-460b-895f-03b2abf7da39"},"vehicle_type_id":"4","last_reported":1727856723,"current_range_meters":12000,"station_id":"ce4bhnp2rcd13ifvqgvg","pricing_plan_id":"cebpf4jnsgd1na2vs0mg"},{"bike_id":"eb1273c6-dccf-4cb7-8b98-9d74066bfb54","system_id":"levelo_inurba_marseille","lat":43.30312,"lon":5.36906,"is_reserved":false,"is_disabled":false,"rental_uris":{"android":"levelo://app?vid=eb1273c6-dccf-4cb7-8b98-9d74066bfb54","ios":"levelo://app?vid=eb1273c6-dccf-4cb7-8b98-9d74066bfb54"},"vehicle_type_id":"4","last_reported":1727856723,"current_range_meters":31200,"station_id":"ce4bgqh2rcd13ifvqc5g","pricing_plan_id":"cebpf4jnsgd1na2vs0mg"},{"bike_id":"cc640da1-a3dd-4e35-b4a7-a69a4681666a","system_id":"levelo_inurba_marseille","lat":43.27072,"lon":5.42281,"is_reserved":false,"is_disabled":false,"rental_uris":{"android":"levelo://app?vid=cc640da1-a3dd-4e35-b4a7-a69a4681666a","ios":"levelo://app?vid=cc640da1-a3dd-4e35-b4a7-a69a4681666a"},"vehicle_type_id":"4","last_reported":1727856723,"current_range_meters":18000,"station_id":"ce4bhk92rcd13ifvqgb0","pricing_plan_id":"cebpf4jnsgd1na2vs0mg"},{"bike_id":"14067b9b-2439-476c-b83f-0c6bdf4dddab","system_id":"levelo_inurba_marseille","lat":43.29096,"lon":5.38131,"is_reserved":false,"is_disabled":false,"rental_uris":{"android":"levelo://app?vid=14067b9b-2439-476c-b83f-0c6bdf4dddab","ios":"levelo://app?vid=14067b9b-2439-476c-b83f-0c6bdf4dddab"},"vehicle_type_id":"4","last_reported":1727856723,"current_range_meters":8000,"station_id":"ce4bh512rcd13ifvqe2g","pricing_plan_id":"cebpf4jnsgd1na2vs0mg"},{"bike_id":"01465938-e627-44d1-90df-29bc1bcc31d0","system_id":"levelo_inurba_marseille","lat":43.30551,"lon":5.36719,"is_reserved":false,"is_disabled":false,"rental_uris":{"android":"levelo://app?vid=01465938-e627-44d1-90df-29bc1bcc31d0","ios":"levelo://app?vid=01465938-e627-44d1-90df-29bc1bcc31d0"},"vehicle_type_id":"4","last_reported":1727856723,"current_range_meters":20800,"station_id":"ce4bgrp2rcd13ifvqc9g","pricing_plan_id":"cebpf4jnsgd1na2vs0mg"},{"bike_id":"ec1c3e2c-022c-4156-88fa-de4eba1043d2","system_id":"levelo_inurba_marseille","lat":43.25008,"lon":5.38915,"is_reserved":false,"is_disabled":false,"rental_uris":{"android":"levelo://app?vid=ec1c3e2c-022c-4156-88fa-de4eba1043d2","ios":"levelo://app?vid=ec1c3e2c-022c-4156-88fa-de4eba1043d2"},"vehicle_type_id":"4","last_reported":1727856723,"current_range_meters":34800,"station_id":"ce4bhgp2rcd13ifvqfd0","pricing_plan_id":"cebpf4jnsgd1na2vs0mg"},{"bike_id":"f841c39b-1e65-43d7-a280-34502f66bb6e","system_id":"levelo_inurba_marseille","lat":43.24081,"lon":5.37739,"is_reserved":false,"is_disabled":false,"rental_uris":{"android":"levelo://app?vid=f841c39b-1e65-43d7-a280-34502f66bb6e","ios":"levelo://app?vid=f841c39b-1e65-43d7-a280-34502f66bb6e"},"vehicle_type_id":"4","last_reported":1727856723,"current_range_meters":36800,"station_id":"","pricing_plan_id":"cebpf4jnsgd1na2vs0mg"},{"bike_id":"186d1d7d-1293-4df2-9a3c-509d9f14d3c3","system_id":"levelo_inurba_marseille","lat":43.25932,"lon":5.40917,"is_reserved":false,"is_disabled":false,"rental_uris":{"android":"levelo://app?vid=186d1d7d-1293-4df2-9a3c-509d9f14d3c3","ios":"levelo://app?vid=186d1d7d-1293-4df2-9a3c-509d9f14d3c3"},"vehicle_type_id":"4","last_reported":1727856723,"current_range_meters":29600,"station_id":"ce4bhm92rcd13ifvqglg","pricing_plan_id":"cebpf4jnsgd1na2vs0mg"},{"bike_id":"124863e4-db68-43d5-b9aa-40c8641a8244","system_id":"levelo_inurba_marseille","lat":43.30307,"lon":5.36894,"is_reserved":false,"is_disabled":false,"rental_uris":{"android":"levelo://app?vid=124863e4-db68-43d5-b9aa-40c8641a8244","ios":"levelo://app?vid=124863e4-db68-43d5-b9aa-40c8641a8244"},"vehicle_type_id":"4","last_reported":1727856723,"current_range_meters":38800,"station_id":"ce4bgqh2rcd13ifvqc5g","pricing_plan_id":"cebpf4jnsgd1na2vs0mg"},{"bike_id":"fec2ef64-dae0-45ad-8eac-e92d7e96595a","system_id":"levelo_inurba_marseille","lat":43.33612,"lon":5.41033,"is_reserved":false,"is_disabled":false,"rental_uris":{"android":"levelo://app?vid=fec2ef64-dae0-45ad-8eac-e92d7e96595a","ios":"levelo://app?vid=fec2ef64-dae0-45ad-8eac-e92d7e96595a"},"vehicle_type_id":"4","last_reported":1727856723,"current_range_meters":32400,"station_id":"ce4bhqh2rcd13ifvqhmg","pricing_plan_id":"cebpf4jnsgd1na2vs0mg"},{"bike_id":"21bd0eaa-d1a8-4886-9288-7871e0263a69","system_id":"levelo_inurba_marseille","lat":43.30547,"lon":5.36529,"is_reserved":false,"is_disabled":false,"rental_uris":{"android":"levelo://app?vid=21bd0eaa-d1a8-4886-9288-7871e0263a69","ios":"levelo://app?vid=21bd0eaa-d1a8-4886-9288-7871e0263a69"},"vehicle_type_id":"4","last_reported":1727856723,"current_range_meters":6800,"station_id":"ce4bgs12rcd13ifvqcag","pricing_plan_id":"cebpf4jnsgd1na2vs0mg"},{"bike_id":"d5bf9db1-7dca-49c1-8306-b4004223ad4f","system_id":"levelo_inurba_marseille","lat":43.30526,"lon":5.3654,"is_reserved":false,"is_disabled":false,"rental_uris":{"android":"levelo://app?vid=d5bf9db1-7dca-49c1-8306-b4004223ad4f","ios":"levelo://app?vid=d5bf9db1-7dca-49c1-8306-b4004223ad4f"},"vehicle_type_id":"4","last_reported":1727856723,"current_range_meters":38800,"station_id":"ce4bgs12rcd13ifvqcag","pricing_plan_id":"cebpf4jnsgd1na2vs0mg"},{"bike_id":"b2685c21-5732-473d-85e2-a73a55e3b5b5","system_id":"levelo_inurba_marseille","lat":43.24387,"lon":5.37055,"is_reserved":false,"is_disabled":false,"rental_uris":{"android":"levelo://app?vid=b2685c21-5732-473d-85e2-a73a55e3b5b5","ios":"levelo://app?vid=b2685c21-5732-473d-85e2-a73a55e3b5b5"},"vehicle_type_id":"4","last_reported":1727856723,"current_range_meters":13600,"station_id":"ce4bhhh2rcd13ifvqfk0","pricing_plan_id":"cebpf4jnsgd1na2vs0mg"},{"bike_id":"a45734cb-8e1b-4b8f-9782-f43c45d014f9","system_id":"levelo_inurba_marseille","lat":43.25099,"lon":5.4032,"is_reserved":false,"is_disabled":false,"rental_uris":{"android":"levelo://app?vid=a45734cb-8e1b-4b8f-9782-f43c45d014f9","ios":"levelo://app?vid=a45734cb-8e1b-4b8f-9782-f43c45d014f9"},"vehicle_type_id":"4","last_reported":1727856723,"current_range_meters":30000,"station_id":"ce4bhlh2rcd13ifvqgig","pricing_plan_id":"cebpf4jnsgd1na2vs0mg"},{"bike_id":"e0a19cb1-9334-4e0f-b726-1b893e6f519f","system_id":"levelo_inurba_marseille","lat":43.30543,"lon":5.36703,"is_reserved":false,"is_disabled":false,"rental_uris":{"android":"levelo://app?vid=e0a19cb1-9334-4e0f-b726-1b893e6f519f","ios":"levelo://app?vid=e0a19cb1-9334-4e0f-b726-1b893e6f519f"},"vehicle_type_id":"4","last_reported":1727856723,"current_range_meters":2800,"station_id":"ce4bgrp2rcd13ifvqc9g","pricing_plan_id":"cebpf4jnsgd1na2vs0mg"},{"bike_id":"1c073e88-e7f2-4ad5-88db-665f67ed8b1e","system_id":"levelo_inurba_marseille","lat":43.28485,"lon":5.38536,"is_reserved":false,"is_disabled":false,"rental_uris":{"android":"levelo://app?vid=1c073e88-e7f2-4ad5-88db-665f67ed8b1e","ios":"levelo://app?vid=1c073e88-e7f2-4ad5-88db-665f67ed8b1e"},"vehicle_type_id":"4","last_reported":1727856723,"current_range_meters":8800,"station_id":"ce4bh8p2rcd13ifvqeb0","pricing_plan_id":"cebpf4jnsgd1na2vs0mg"},{"bike_id":"5a3275de-f7b9-4784-b6d5-96ce4bfbb7e2","system_id":"levelo_inurba_marseille","lat":43.30601,"lon":5.3936,"is_reserved":false,"is_disabled":false,"rental_uris":{"android":"levelo://app?vid=5a3275de-f7b9-4784-b6d5-96ce4bfbb7e2","ios":"levelo://app?vid=5a3275de-f7b9-4784-b6d5-96ce4bfbb7e2"},"vehicle_type_id":"4","last_reported":1727856723,"current_range_meters":27200,"station_id":"ce4bh0p2rcd13ifvqd80","pricing_plan_id":"cebpf4jnsgd1na2vs0mg"},{"bike_id":"b57251a2-9b9b-4e4d-8da9-f6d0847323e7","system_id":"levelo_inurba_marseille","lat":43.28099,"lon":5.37829,"is_reserved":false,"is_disabled":false,"rental_uris":{"android":"levelo://app?vid=b57251a2-9b9b-4e4d-8da9-f6d0847323e7","ios":"levelo://app?vid=b57251a2-9b9b-4e4d-8da9-f6d0847323e7"},"vehicle_type_id":"4","last_reported":1727856723,"current_range_meters":20000,"station_id":"ce4bha12rcd13ifvqee0","pricing_plan_id":"cebpf4jnsgd1na2vs0mg"},{"bike_id":"23c4ac16-7c5b-4b8e-8637-491c7e97010d","system_id":"levelo_inurba_marseille","lat":43.33752,"lon":5.3746,"is_reserved":false,"is_disabled":false,"rental_uris":{"android":"levelo://app?vid=23c4ac16-7c5b-4b8e-8637-491c7e97010d","ios":"levelo://app?vid=23c4ac16-7c5b-4b8e-8637-491c7e97010d"},"vehicle_type_id":"4","last_reported":1727856723,"current_range_meters":38800,"station_id":"","pricing_plan_id":"cebpf4jnsgd1na2vs0mg"},{"bike_id":"e6ebcd7f-c71d-4818-b88e-a020940fd3e2","system_id":"levelo_inurba_marseille","lat":43.29371,"lon":5.37859,"is_reserved":false,"is_disabled":false,"rental_uris":{"android":"levelo://app?vid=e6ebcd7f-c71d-4818-b88e-a020940fd3e2","ios":"levelo://app?vid=e6ebcd7f-c71d-4818-b88e-a020940fd3e2"},"vehicle_type_id":"4","last_reported":1727856723,"current_range_meters":28000,"station_id":"ce4bgjh2rcd13ifvqbf0","pricing_plan_id":"cebpf4jnsgd1na2vs0mg"},{"bike_id":"b4a000ef-7b2c-4da6-b086-27961ab33ff3","system_id":"levelo_inurba_marseille","lat":43.309249,"lon":5.390791,"is_reserved":false,"is_disabled":false,"rental_uris":{"android":"levelo://app?vid=b4a000ef-7b2c-4da6-b086-27961ab33ff3","ios":"levelo://app?vid=b4a000ef-7b2c-4da6-b086-27961ab33ff3"},"vehicle_type_id":"4","last_reported":1727856723,"current_range_meters":35600,"station_id":"ce4bgup2rcd13ifvqco0","pricing_plan_id":"cebpf4jnsgd1na2vs0mg"},{"bike_id":"c1b8eb63-098e-4fe2-9b2b-128e3a73a3cf","system_id":"levelo_inurba_marseille","lat":43.30431,"lon":5.38893,"is_reserved":false,"is_disabled":false,"rental_uris":{"android":"levelo://app?vid=c1b8eb63-098e-4fe2-9b2b-128e3a73a3cf","ios":"levelo://app?vid=c1b8eb63-098e-4fe2-9b2b-128e3a73a3cf"},"vehicle_type_id":"4","last_reported":1727856723,"current_range_meters":3200,"station_id":"ce4bgk12rcd13ifvqbi0","pricing_plan_id":"cebpf4jnsgd1na2vs0mg"},{"bike_id":"e0cdc911-25e1-481c-884f-387d1c07e000","system_id":"levelo_inurba_marseille","lat":43.29304,"lon":5.37465,"is_reserved":false,"is_disabled":false,"rental_uris":{"android":"levelo://app?vid=e0cdc911-25e1-481c-884f-387d1c07e000","ios":"levelo://app?vid=e0cdc911-25e1-481c-884f-387d1c07e000"},"vehicle_type_id":"4","last_reported":1727856723,"current_range_meters":14400,"station_id":"ce4bgi12rcd13ifvqb70","pricing_plan_id":"cebpf4jnsgd1na2vs0mg"},{"bike_id":"11d8e8c4-ba71-4ab4-9cac-530b1f4f9a0b","system_id":"levelo_inurba_marseille","lat":43.30151,"lon":5.38077,"is_reserved":false,"is_disabled":false,"rental_uris":{"android":"levelo://app?vid=11d8e8c4-ba71-4ab4-9cac-530b1f4f9a0b","ios":"levelo://app?vid=11d8e8c4-ba71-4ab4-9cac-530b1f4f9a0b"},"vehicle_type_id":"4","last_reported":1727856723,"current_range_meters":8000,"station_id":"ce4bgjp2rcd13ifvqbh0","pricing_plan_id":"cebpf4jnsgd1na2vs0mg"},{"bike_id":"4af40065-c5ec-4f7d-88bb-124a1c77e44a","system_id":"levelo_inurba_marseille","lat":43.31353,"lon":5.36713,"is_reserved":false,"is_disabled":false,"rental_uris":{"android":"levelo://app?vid=4af40065-c5ec-4f7d-88bb-124a1c77e44a","ios":"levelo://app?vid=4af40065-c5ec-4f7d-88bb-124a1c77e44a"},"vehicle_type_id":"4","last_reported":1727856723,"current_range_meters":36800,"station_id":"ce4bgr92rcd13ifvqc6g","pricing_plan_id":"cebpf4jnsgd1na2vs0mg"},{"bike_id":"008fac8d-dc33-42a6-b679-8f894aa45eeb","system_id":"levelo_inurba_marseille","lat":43.25943,"lon":5.40895,"is_reserved":false,"is_disabled":false,"rental_uris":{"android":"levelo://app?vid=008fac8d-dc33-42a6-b679-8f894aa45eeb","ios":"levelo://app?vid=008fac8d-dc33-42a6-b679-8f894aa45eeb"},"vehicle_type_id":"4","last_reported":1727856723,"current_range_meters":30800,"station_id":"ce4bhm92rcd13ifvqglg","pricing_plan_id":"cebpf4jnsgd1na2vs0mg"},{"bike_id":"c9b08be9-3876-4ad7-8fe9-a9e96fcb76a9","system_id":"levelo_inurba_marseille","lat":43.27203,"lon":5.3919,"is_reserved":false,"is_disabled":false,"rental_uris":{"android":"levelo://app?vid=c9b08be9-3876-4ad7-8fe9-a9e96fcb76a9","ios":"levelo://app?vid=c9b08be9-3876-4ad7-8fe9-a9e96fcb76a9"},"vehicle_type_id":"4","last_reported":1727856723,"current_range_meters":28000,"station_id":"ce4bhhp2rcd13ifvqfm0","pricing_plan_id":"cebpf4jnsgd1na2vs0mg"},{"bike_id":"90085ec2-3304-4141-b2fc-6bbce3f2e437","system_id":"levelo_inurba_marseille","lat":43.24665,"lon":5.38148,"is_reserved":false,"is_disabled":false,"rental_uris":{"android":"levelo://app?vid=90085ec2-3304-4141-b2fc-6bbce3f2e437","ios":"levelo://app?vid=90085ec2-3304-4141-b2fc-6bbce3f2e437"},"vehicle_type_id":"4","last_reported":1727856723,"current_range_meters":25200,"station_id":"ce4bhih2rcd13ifvqfr0","pricing_plan_id":"cebpf4jnsgd1na2vs0mg"},{"bike_id":"7421063a-800a-48c3-92f9-01b2315d5e97","system_id":"levelo_inurba_marseille","lat":43.30469,"lon":5.37893,"is_reserved":false,"is_disabled":false,"rental_uris":{"android":"levelo://app?vid=7421063a-800a-48c3-92f9-01b2315d5e97","ios":"levelo://app?vid=7421063a-800a-48c3-92f9-01b2315d5e97"},"vehicle_type_id":"4","last_reported":1727856723,"current_range_meters":38800,"station_id":"ce4bgup2rcd13ifvqcn0","pricing_plan_id":"cebpf4jnsgd1na2vs0mg"},{"bike_id":"2392ac77-55f7-4c80-af73-e5c5c755b68a","system_id":"levelo_inurba_marseille","lat":43.26548,"lon":5.37293,"is_reserved":false,"is_disabled":false,"rental_uris":{"android":"levelo://app?vid=2392ac77-55f7-4c80-af73-e5c5c755b68a","ios":"levelo://app?vid=2392ac77-55f7-4c80-af73-e5c5c755b68a"},"vehicle_type_id":"4","last_reported":1727856723,"current_range_meters":28000,"station_id":"ce4bhg12rcd13ifvqf70","pricing_plan_id":"cebpf4jnsgd1na2vs0mg"},{"bike_id":"5a51b7ea-6af8-49b6-9064-a3b6de5cb9b4","system_id":"levelo_inurba_marseille","lat":43.30154,"lon":5.38085,"is_reserved":false,"is_disabled":false,"rental_uris":{"android":"levelo://app?vid=5a51b7ea-6af8-49b6-9064-a3b6de5cb9b4","ios":"levelo://app?vid=5a51b7ea-6af8-49b6-9064-a3b6de5cb9b4"},"vehicle_type_id":"4","last_reported":1727856723,"current_range_meters":38800,"station_id":"ce4bgjp2rcd13ifvqbh0","pricing_plan_id":"cebpf4jnsgd1na2vs0mg"},{"bike_id":"9cd128bb-3a64-4bb5-8c11-3fd33409958b","system_id":"levelo_inurba_marseille","lat":43.23151,"lon":5.43709,"is_reserved":false,"is_disabled":false,"rental_uris":{"android":"levelo://app?vid=9cd128bb-3a64-4bb5-8c11-3fd33409958b","ios":"levelo://app?vid=9cd128bb-3a64-4bb5-8c11-3fd33409958b"},"vehicle_type_id":"4","last_reported":1727856723,"current_range_meters":24000,"station_id":"ce4bhmp2rcd13ifvqgog","pricing_plan_id":"cebpf4jnsgd1na2vs0mg"},{"bike_id":"a1ac91c2-e22c-4ece-bfe2-4d5e13ad6026","system_id":"levelo_inurba_marseille","lat":43.3408,"lon":5.42006,"is_reserved":false,"is_disabled":false,"rental_uris":{"android":"levelo://app?vid=a1ac91c2-e22c-4ece-bfe2-4d5e13ad6026","ios":"levelo://app?vid=a1ac91c2-e22c-4ece-bfe2-4d5e13ad6026"},"vehicle_type_id":"4","last_reported":1727856723,"current_range_meters":4400,"station_id":"","pricing_plan_id":"cebpf4jnsgd1na2vs0mg"},{"bike_id":"a2b2e7ec-9291-4e2e-99f8-400018f4dc70","system_id":"levelo_inurba_marseille","lat":43.30536,"lon":5.3671,"is_reserved":false,"is_disabled":false,"rental_uris":{"android":"levelo://app?vid=a2b2e7ec-9291-4e2e-99f8-400018f4dc70","ios":"levelo://app?vid=a2b2e7ec-9291-4e2e-99f8-400018f4dc70"},"vehicle_type_id":"4","last_reported":1727856723,"current_range_meters":39200,"station_id":"ce4bgrp2rcd13ifvqc9g","pricing_plan_id":"cebpf4jnsgd1na2vs0mg"},{"bike_id":"fc3e073d-7265-4b97-93fb-6072808fabc5","system_id":"levelo_inurba_marseille","lat":43.29035,"lon":5.37577,"is_reserved":false,"is_disabled":false,"rental_uris":{"android":"levelo://app?vid=fc3e073d-7265-4b97-93fb-6072808fabc5","ios":"levelo://app?vid=fc3e073d-7265-4b97-93fb-6072808fabc5"},"vehicle_type_id":"4","last_reported":1727856723,"current_range_meters":38400,"station_id":"ce4bh692rcd13ifvqe90","pricing_plan_id":"cebpf4jnsgd1na2vs0mg"},{"bike_id":"de5d2de2-9457-4839-b5e2-8f6f5ebb032c","system_id":"levelo_inurba_marseille","lat":43.30145,"lon":5.38091,"is_reserved":false,"is_disabled":false,"rental_uris":{"android":"levelo://app?vid=de5d2de2-9457-4839-b5e2-8f6f5ebb032c","ios":"levelo://app?vid=de5d2de2-9457-4839-b5e2-8f6f5ebb032c"},"vehicle_type_id":"4","last_reported":1727856723,"current_range_meters":17600,"station_id":"ce4bgjp2rcd13ifvqbh0","pricing_plan_id":"cebpf4jnsgd1na2vs0mg"},{"bike_id":"63f98ca1-f16d-4d88-a48d-74ef46e2e311","system_id":"levelo_inurba_marseille","lat":43.24078,"lon":5.37757,"is_reserved":false,"is_disabled":false,"rental_uris":{"android":"levelo://app?vid=63f98ca1-f16d-4d88-a48d-74ef46e2e311","ios":"levelo://app?vid=63f98ca1-f16d-4d88-a48d-74ef46e2e311"},"vehicle_type_id":"4","last_reported":1727856723,"current_range_meters":28800,"station_id":"","pricing_plan_id":"cebpf4jnsgd1na2vs0mg"},{"bike_id":"5a306a5b-8554-44de-b608-031623eef1ae","system_id":"levelo_inurba_marseille","lat":43.30555,"lon":5.36537,"is_reserved":false,"is_disabled":false,"rental_uris":{"android":"levelo://app?vid=5a306a5b-8554-44de-b608-031623eef1ae","ios":"levelo://app?vid=5a306a5b-8554-44de-b608-031623eef1ae"},"vehicle_type_id":"4","last_reported":1727856723,"current_range_meters":9200,"station_id":"ce4bgs12rcd13ifvqcag","pricing_plan_id":"cebpf4jnsgd1na2vs0mg"},{"bike_id":"d65e5f64-4386-4e6f-8cfa-bae49fa3ef42","system_id":"levelo_inurba_marseille","lat":43.30475,"lon":5.379,"is_reserved":false,"is_disabled":false,"rental_uris":{"android":"levelo://app?vid=d65e5f64-4386-4e6f-8cfa-bae49fa3ef42","ios":"levelo://app?vid=d65e5f64-4386-4e6f-8cfa-bae49fa3ef42"},"vehicle_type_id":"4","last_reported":1727856723,"current_range_meters":38000,"station_id":"ce4bgup2rcd13ifvqcn0","pricing_plan_id":"cebpf4jnsgd1na2vs0mg"},{"bike_id":"cabafb91-95dc-4d5c-baa9-5aea6e08d11c","system_id":"levelo_inurba_marseille","lat":43.33607,"lon":5.41037,"is_reserved":false,"is_disabled":false,"rental_uris":{"android":"levelo://app?vid=cabafb91-95dc-4d5c-baa9-5aea6e08d11c","ios":"levelo://app?vid=cabafb91-95dc-4d5c-baa9-5aea6e08d11c"},"vehicle_type_id":"4","last_reported":1727856723,"current_range_meters":27200,"station_id":"ce4bhqh2rcd13ifvqhmg","pricing_plan_id":"cebpf4jnsgd1na2vs0mg"},{"bike_id":"609844d3-402e-4c83-8b7f-d2093120cb67","system_id":"levelo_inurba_marseille","lat":43.32534,"lon":5.41443,"is_reserved":false,"is_disabled":false,"rental_uris":{"android":"levelo://app?vid=609844d3-402e-4c83-8b7f-d2093120cb67","ios":"levelo://app?vid=609844d3-402e-4c83-8b7f-d2093120cb67"},"vehicle_type_id":"4","last_reported":1727856723,"current_range_meters":36400,"station_id":"ce4bhq12rcd13ifvqhhg","pricing_plan_id":"cebpf4jnsgd1na2vs0mg"},{"bike_id":"de7884da-a3a8-4ce0-aba4-998827e572b7","system_id":"levelo_inurba_marseille","lat":43.23151,"lon":5.43718,"is_reserved":false,"is_disabled":false,"rental_uris":{"android":"levelo://app?vid=de7884da-a3a8-4ce0-aba4-998827e572b7","ios":"levelo://app?vid=de7884da-a3a8-4ce0-aba4-998827e572b7"},"vehicle_type_id":"4","last_reported":1727856723,"current_range_meters":27200,"station_id":"ce4bhmp2rcd13ifvqgog","pricing_plan_id":"cebpf4jnsgd1na2vs0mg"},{"bike_id":"649b0ebd-72c1-4ccb-bdb5-0127394604e7","system_id":"levelo_inurba_marseille","lat":43.33614,"lon":5.41021,"is_reserved":false,"is_disabled":false,"rental_uris":{"android":"levelo://app?vid=649b0ebd-72c1-4ccb-bdb5-0127394604e7","ios":"levelo://app?vid=649b0ebd-72c1-4ccb-bdb5-0127394604e7"},"vehicle_type_id":"4","last_reported":1727856723,"current_range_meters":38000,"station_id":"ce4bhqh2rcd13ifvqhmg","pricing_plan_id":"cebpf4jnsgd1na2vs0mg"},{"bike_id":"f184f6d6-a8c1-4d3e-9dc1-05e0e2d83651","system_id":"levelo_inurba_marseille","lat":43.30147,"lon":5.37419,"is_reserved":false,"is_disabled":false,"rental_uris":{"android":"levelo://app?vid=f184f6d6-a8c1-4d3e-9dc1-05e0e2d83651","ios":"levelo://app?vid=f184f6d6-a8c1-4d3e-9dc1-05e0e2d83651"},"vehicle_type_id":"4","last_reported":1727856723,"current_range_meters":18800,"station_id":"ce4bgs92rcd13ifvqcc0","pricing_plan_id":"cebpf4jnsgd1na2vs0mg"},{"bike_id":"0bbfc604-ec1b-4c0a-906b-9f78c39a5be0","system_id":"levelo_inurba_marseille","lat":43.29581,"lon":5.3751,"is_reserved":false,"is_disabled":false,"rental_uris":{"android":"levelo://app?vid=0bbfc604-ec1b-4c0a-906b-9f78c39a5be0","ios":"levelo://app?vid=0bbfc604-ec1b-4c0a-906b-9f78c39a5be0"},"vehicle_type_id":"4","last_reported":1727856723,"current_range_meters":6800,"station_id":"ce4bgh92rcd13ifvqb50","pricing_plan_id":"cebpf4jnsgd1na2vs0mg"},{"bike_id":"6f4ff004-1c4b-4433-90a9-f2762c8406e5","system_id":"levelo_inurba_marseille","lat":43.281503,"lon":5.378644,"is_reserved":false,"is_disabled":false,"rental_uris":{"android":"levelo://app?vid=6f4ff004-1c4b-4433-90a9-f2762c8406e5","ios":"levelo://app?vid=6f4ff004-1c4b-4433-90a9-f2762c8406e5"},"vehicle_type_id":"4","last_reported":1727856723,"current_range_meters":36800,"station_id":"ce4bha12rcd13ifvqee0","pricing_plan_id":"cebpf4jnsgd1na2vs0mg"},{"bike_id":"9e6f82c5-7edd-4d61-8fe9-86f829a7226e","system_id":"levelo_inurba_marseille","lat":43.2315,"lon":5.43722,"is_reserved":false,"is_disabled":false,"rental_uris":{"android":"levelo://app?vid=9e6f82c5-7edd-4d61-8fe9-86f829a7226e","ios":"levelo://app?vid=9e6f82c5-7edd-4d61-8fe9-86f829a7226e"},"vehicle_type_id":"4","last_reported":1727856723,"current_range_meters":12000,"station_id":"ce4bhmp2rcd13ifvqgog","pricing_plan_id":"cebpf4jnsgd1na2vs0mg"},{"bike_id":"461fe619-c53a-40f0-bfc1-9e1cc3aa8c03","system_id":"levelo_inurba_marseille","lat":43.24078,"lon":5.37757,"is_reserved":false,"is_disabled":false,"rental_uris":{"android":"levelo://app?vid=461fe619-c53a-40f0-bfc1-9e1cc3aa8c03","ios":"levelo://app?vid=461fe619-c53a-40f0-bfc1-9e1cc3aa8c03"},"vehicle_type_id":"4","last_reported":1727856723,"current_range_meters":30400,"station_id":"ce4bhnp2rcd13ifvqgvg","pricing_plan_id":"cebpf4jnsgd1na2vs0mg"},{"bike_id":"edee628a-b07b-4534-9032-c88460d8330e","system_id":"levelo_inurba_marseille","lat":43.29035,"lon":5.37559,"is_reserved":false,"is_disabled":false,"rental_uris":{"android":"levelo://app?vid=edee628a-b07b-4534-9032-c88460d8330e","ios":"levelo://app?vid=edee628a-b07b-4534-9032-c88460d8330e"},"vehicle_type_id":"4","last_reported":1727856723,"current_range_meters":4000,"station_id":"ce4bh692rcd13ifvqe90","pricing_plan_id":"cebpf4jnsgd1na2vs0mg"},{"bike_id":"5a0d3d90-449e-478b-94b1-488eb695ddbe","system_id":"levelo_inurba_marseille","lat":43.29839,"lon":5.36265,"is_reserved":false,"is_disabled":false,"rental_uris":{"android":"levelo://app?vid=5a0d3d90-449e-478b-94b1-488eb695ddbe","ios":"levelo://app?vid=5a0d3d90-449e-478b-94b1-488eb695ddbe"},"vehicle_type_id":"4","last_reported":1727856723,"current_range_meters":37600,"station_id":"ce4bgpp2rcd13ifvqc3g","pricing_plan_id":"cebpf4jnsgd1na2vs0mg"},{"bike_id":"54edffe6-5495-491b-9f2e-e7373852c7d2","system_id":"levelo_inurba_marseille","lat":43.30541,"lon":5.36703,"is_reserved":false,"is_disabled":false,"rental_uris":{"android":"levelo://app?vid=54edffe6-5495-491b-9f2e-e7373852c7d2","ios":"levelo://app?vid=54edffe6-5495-491b-9f2e-e7373852c7d2"},"vehicle_type_id":"4","last_reported":1727856723,"current_range_meters":36400,"station_id":"ce4bgrp2rcd13ifvqc9g","pricing_plan_id":"cebpf4jnsgd1na2vs0mg"},{"bike_id":"aab0b9dc-709c-4cb5-865b-fa69ab6744c3","system_id":"levelo_inurba_marseille","lat":43.24808,"lon":5.37456,"is_reserved":false,"is_disabled":false,"rental_uris":{"android":"levelo://app?vid=aab0b9dc-709c-4cb5-865b-fa69ab6744c3","ios":"levelo://app?vid=aab0b9dc-709c-4cb5-865b-fa69ab6744c3"},"vehicle_type_id":"4","last_reported":1727856723,"current_range_meters":16400,"station_id":"ce4bhgh2rcd13ifvqfb0","pricing_plan_id":"cebpf4jnsgd1na2vs0mg"},{"bike_id":"ea8c2452-bf71-49b6-abc4-1e010f66de00","system_id":"levelo_inurba_marseille","lat":43.27493,"lon":5.42456,"is_reserved":false,"is_disabled":false,"rental_uris":{"android":"levelo://app?vid=ea8c2452-bf71-49b6-abc4-1e010f66de00","ios":"levelo://app?vid=ea8c2452-bf71-49b6-abc4-1e010f66de00"},"vehicle_type_id":"4","last_reported":1727856723,"current_range_meters":29600,"station_id":"ce4bhn92rcd13ifvqgrg","pricing_plan_id":"cebpf4jnsgd1na2vs0mg"},{"bike_id":"a2b8cd9d-feb4-4bfc-9051-419ee5152320","system_id":"levelo_inurba_marseille","lat":43.2315,"lon":5.43711,"is_reserved":false,"is_disabled":false,"rental_uris":{"android":"levelo://app?vid=a2b8cd9d-feb4-4bfc-9051-419ee5152320","ios":"levelo://app?vid=a2b8cd9d-feb4-4bfc-9051-419ee5152320"},"vehicle_type_id":"4","last_reported":1727856723,"current_range_meters":28800,"station_id":"ce4bhmp2rcd13ifvqgog","pricing_plan_id":"cebpf4jnsgd1na2vs0mg"},{"bike_id":"76391673-cd5d-49f4-8b45-1b76892547a9","system_id":"levelo_inurba_marseille","lat":43.24081,"lon":5.37742,"is_reserved":false,"is_disabled":false,"rental_uris":{"android":"levelo://app?vid=76391673-cd5d-49f4-8b45-1b76892547a9","ios":"levelo://app?vid=76391673-cd5d-49f4-8b45-1b76892547a9"},"vehicle_type_id":"4","last_reported":1727856723,"current_range_meters":38000,"station_id":"","pricing_plan_id":"cebpf4jnsgd1na2vs0mg"},{"bike_id":"8820dce1-16b5-4934-96cb-9938a9a746d3","system_id":"levelo_inurba_marseille","lat":43.23152,"lon":5.43713,"is_reserved":false,"is_disabled":false,"rental_uris":{"android":"levelo://app?vid=8820dce1-16b5-4934-96cb-9938a9a746d3","ios":"levelo://app?vid=8820dce1-16b5-4934-96cb-9938a9a746d3"},"vehicle_type_id":"4","last_reported":1727856723,"current_range_meters":17600,"station_id":"ce4bhmp2rcd13ifvqgog","pricing_plan_id":"cebpf4jnsgd1na2vs0mg"},{"bike_id":"77de8af6-9691-4bf3-9aa7-e850cf5ce0ac","system_id":"levelo_inurba_marseille","lat":43.30467,"lon":5.37901,"is_reserved":false,"is_disabled":false,"rental_uris":{"android":"levelo://app?vid=77de8af6-9691-4bf3-9aa7-e850cf5ce0ac","ios":"levelo://app?vid=77de8af6-9691-4bf3-9aa7-e850cf5ce0ac"},"vehicle_type_id":"4","last_reported":1727856723,"current_range_meters":36800,"station_id":"ce4bgup2rcd13ifvqcn0","pricing_plan_id":"cebpf4jnsgd1na2vs0mg"},{"bike_id":"32c3119e-3371-4f43-8913-1c30e0d13667","system_id":"levelo_inurba_marseille","lat":43.23058,"lon":5.35487,"is_reserved":false,"is_disabled":false,"rental_uris":{"android":"levelo://app?vid=32c3119e-3371-4f43-8913-1c30e0d13667","ios":"levelo://app?vid=32c3119e-3371-4f43-8913-1c30e0d13667"},"vehicle_type_id":"4","last_reported":1727856723,"current_range_meters":38800,"station_id":"cpo3342slgdg3j2ifvpg","pricing_plan_id":"cebpf4jnsgd1na2vs0mg"},{"bike_id":"db254dac-45f5-4132-9ca6-b0673a65c2b8","system_id":"levelo_inurba_marseille","lat":43.264917,"lon":5.39544,"is_reserved":false,"is_disabled":false,"rental_uris":{"android":"levelo://app?vid=db254dac-45f5-4132-9ca6-b0673a65c2b8","ios":"levelo://app?vid=db254dac-45f5-4132-9ca6-b0673a65c2b8"},"vehicle_type_id":"4","last_reported":1727856723,"current_range_meters":36400,"station_id":"ce4bhi12rcd13ifvqfq0","pricing_plan_id":"cebpf4jnsgd1na2vs0mg"},{"bike_id":"39c7dc54-6d62-4b84-92eb-f8a41a50040c","system_id":"levelo_inurba_marseille","lat":43.23155,"lon":5.43707,"is_reserved":false,"is_disabled":false,"rental_uris":{"android":"levelo://app?vid=39c7dc54-6d62-4b84-92eb-f8a41a50040c","ios":"levelo://app?vid=39c7dc54-6d62-4b84-92eb-f8a41a50040c"},"vehicle_type_id":"4","last_reported":1727856723,"current_range_meters":26800,"station_id":"ce4bhmp2rcd13ifvqgog","pricing_plan_id":"cebpf4jnsgd1na2vs0mg"},{"bike_id":"4195c750-3f4c-430b-9a56-c37a806604c7","system_id":"levelo_inurba_marseille","lat":43.33604,"lon":5.41029,"is_reserved":false,"is_disabled":false,"rental_uris":{"android":"levelo://app?vid=4195c750-3f4c-430b-9a56-c37a806604c7","ios":"levelo://app?vid=4195c750-3f4c-430b-9a56-c37a806604c7"},"vehicle_type_id":"4","last_reported":1727856723,"current_range_meters":8800,"station_id":"ce4bhqh2rcd13ifvqhmg","pricing_plan_id":"cebpf4jnsgd1na2vs0mg"},{"bike_id":"123ff6ed-4385-4a10-999b-eb298bcab43c","system_id":"levelo_inurba_marseille","lat":43.33022,"lon":5.39039,"is_reserved":false,"is_disabled":false,"rental_uris":{"android":"levelo://app?vid=123ff6ed-4385-4a10-999b-eb298bcab43c","ios":"levelo://app?vid=123ff6ed-4385-4a10-999b-eb298bcab43c"},"vehicle_type_id":"4","last_reported":1727856723,"current_range_meters":21600,"station_id":"ce4bhr92rcd13ifvqhrg","pricing_plan_id":"cebpf4jnsgd1na2vs0mg"},{"bike_id":"d74fb2ef-f814-4ca8-94df-c647e77cc523","system_id":"levelo_inurba_marseille","lat":43.28151,"lon":5.42647,"is_reserved":false,"is_disabled":false,"rental_uris":{"android":"levelo://app?vid=d74fb2ef-f814-4ca8-94df-c647e77cc523","ios":"levelo://app?vid=d74fb2ef-f814-4ca8-94df-c647e77cc523"},"vehicle_type_id":"4","last_reported":1727856723,"current_range_meters":38000,"station_id":"ce4bhnh2rcd13ifvqgug","pricing_plan_id":"cebpf4jnsgd1na2vs0mg"},{"bike_id":"4d604001-b487-40b2-8bf6-bc3f1a343bff","system_id":"levelo_inurba_marseille","lat":43.24071,"lon":5.37766,"is_reserved":false,"is_disabled":false,"rental_uris":{"android":"levelo://app?vid=4d604001-b487-40b2-8bf6-bc3f1a343bff","ios":"levelo://app?vid=4d604001-b487-40b2-8bf6-bc3f1a343bff"},"vehicle_type_id":"4","last_reported":1727856723,"current_range_meters":19600,"station_id":"ce4bhnp2rcd13ifvqgvg","pricing_plan_id":"cebpf4jnsgd1na2vs0mg"},{"bike_id":"095907dd-5778-44cf-ac16-34fae447cd07","system_id":"levelo_inurba_marseille","lat":43.30469,"lon":5.37899,"is_reserved":false,"is_disabled":false,"rental_uris":{"android":"levelo://app?vid=095907dd-5778-44cf-ac16-34fae447cd07","ios":"levelo://app?vid=095907dd-5778-44cf-ac16-34fae447cd07"},"vehicle_type_id":"4","last_reported":1727856723,"current_range_meters":20800,"station_id":"ce4bgup2rcd13ifvqcn0","pricing_plan_id":"cebpf4jnsgd1na2vs0mg"},{"bike_id":"81c8f3eb-4f47-48de-b362-cac094d7e803","system_id":"levelo_inurba_marseille","lat":43.25934,"lon":5.4091,"is_reserved":false,"is_disabled":false,"rental_uris":{"android":"levelo://app?vid=81c8f3eb-4f47-48de-b362-cac094d7e803","ios":"levelo://app?vid=81c8f3eb-4f47-48de-b362-cac094d7e803"},"vehicle_type_id":"4","last_reported":1727856723,"current_range_meters":8000,"station_id":"ce4bhm92rcd13ifvqglg","pricing_plan_id":"cebpf4jnsgd1na2vs0mg"},{"bike_id":"a8c4c051-987a-40cc-82b5-8f1c4ddd87c1","system_id":"levelo_inurba_marseille","lat":43.28269,"lon":5.35073,"is_reserved":false,"is_disabled":false,"rental_uris":{"android":"levelo://app?vid=a8c4c051-987a-40cc-82b5-8f1c4ddd87c1","ios":"levelo://app?vid=a8c4c051-987a-40cc-82b5-8f1c4ddd87c1"},"vehicle_type_id":"4","last_reported":1727856723,"current_range_meters":3600,"station_id":"ce4bhbp2rcd13ifvqerg","pricing_plan_id":"cebpf4jnsgd1na2vs0mg"},{"bike_id":"613dc259-624b-4dec-b5ed-363ab49a6820","system_id":"levelo_inurba_marseille","lat":43.27488,"lon":5.42456,"is_reserved":false,"is_disabled":false,"rental_uris":{"android":"levelo://app?vid=613dc259-624b-4dec-b5ed-363ab49a6820","ios":"levelo://app?vid=613dc259-624b-4dec-b5ed-363ab49a6820"},"vehicle_type_id":"4","last_reported":1727856723,"current_range_meters":30000,"station_id":"ce4bhn92rcd13ifvqgrg","pricing_plan_id":"cebpf4jnsgd1na2vs0mg"},{"bike_id":"ecfb7345-8500-4199-9629-5050ebd3f45b","system_id":"levelo_inurba_marseille","lat":43.25939,"lon":5.40904,"is_reserved":false,"is_disabled":false,"rental_uris":{"android":"levelo://app?vid=ecfb7345-8500-4199-9629-5050ebd3f45b","ios":"levelo://app?vid=ecfb7345-8500-4199-9629-5050ebd3f45b"},"vehicle_type_id":"4","last_reported":1727856723,"current_range_meters":22800,"station_id":"ce4bhm92rcd13ifvqglg","pricing_plan_id":"cebpf4jnsgd1na2vs0mg"},{"bike_id":"070e769f-47d6-4acc-8ccb-6be635793b53","system_id":"levelo_inurba_marseille","lat":43.23053,"lon":5.35495,"is_reserved":false,"is_disabled":false,"rental_uris":{"android":"levelo://app?vid=070e769f-47d6-4acc-8ccb-6be635793b53","ios":"levelo://app?vid=070e769f-47d6-4acc-8ccb-6be635793b53"},"vehicle_type_id":"4","last_reported":1727856723,"current_range_meters":17200,"station_id":"cpo3342slgdg3j2ifvpg","pricing_plan_id":"cebpf4jnsgd1na2vs0mg"},{"bike_id":"3de6e063-d170-445d-99e6-b76ac33be872","system_id":"levelo_inurba_marseille","lat":43.23157,"lon":5.43697,"is_reserved":false,"is_disabled":false,"rental_uris":{"android":"levelo://app?vid=3de6e063-d170-445d-99e6-b76ac33be872","ios":"levelo://app?vid=3de6e063-d170-445d-99e6-b76ac33be872"},"vehicle_type_id":"4","last_reported":1727856723,"current_range_meters":18000,"station_id":"ce4bhmp2rcd13ifvqgog","pricing_plan_id":"cebpf4jnsgd1na2vs0mg"},{"bike_id":"27589de4-1513-46ec-a06c-087c18103a98","system_id":"levelo_inurba_marseille","lat":43.3189,"lon":5.40726,"is_reserved":false,"is_disabled":false,"rental_uris":{"android":"levelo://app?vid=27589de4-1513-46ec-a06c-087c18103a98","ios":"levelo://app?vid=27589de4-1513-46ec-a06c-087c18103a98"},"vehicle_type_id":"4","last_reported":1727856723,"current_range_meters":16800,"station_id":"ce4bhq12rcd13ifvqhig","pricing_plan_id":"cebpf4jnsgd1na2vs0mg"},{"bike_id":"c637a392-b21a-40f5-b39b-c0e72e72329e","system_id":"levelo_inurba_marseille","lat":43.27498,"lon":5.4245,"is_reserved":false,"is_disabled":false,"rental_uris":{"android":"levelo://app?vid=c637a392-b21a-40f5-b39b-c0e72e72329e","ios":"levelo://app?vid=c637a392-b21a-40f5-b39b-c0e72e72329e"},"vehicle_type_id":"4","last_reported":1727856723,"current_range_meters":19200,"station_id":"ce4bhn92rcd13ifvqgrg","pricing_plan_id":"cebpf4jnsgd1na2vs0mg"},{"bike_id":"30403b77-709d-4cf2-9f51-d7b09295889a","system_id":"levelo_inurba_marseille","lat":43.33611,"lon":5.41023,"is_reserved":false,"is_disabled":false,"rental_uris":{"android":"levelo://app?vid=30403b77-709d-4cf2-9f51-d7b09295889a","ios":"levelo://app?vid=30403b77-709d-4cf2-9f51-d7b09295889a"},"vehicle_type_id":"4","last_reported":1727856723,"current_range_meters":37600,"station_id":"ce4bhqh2rcd13ifvqhmg","pricing_plan_id":"cebpf4jnsgd1na2vs0mg"},{"bike_id":"87d7ad47-719d-4714-bb01-837221fe8954","system_id":"levelo_inurba_marseille","lat":43.30941,"lon":5.39035,"is_reserved":false,"is_disabled":false,"rental_uris":{"android":"levelo://app?vid=87d7ad47-719d-4714-bb01-837221fe8954","ios":"levelo://app?vid=87d7ad47-719d-4714-bb01-837221fe8954"},"vehicle_type_id":"4","last_reported":1727856723,"current_range_meters":28400,"station_id":"ce4bgup2rcd13ifvqco0","pricing_plan_id":"cebpf4jnsgd1na2vs0mg"},{"bike_id":"630bf99b-8da5-4fa5-9381-4552175c26f1","system_id":"levelo_inurba_marseille","lat":43.3091,"lon":5.36851,"is_reserved":false,"is_disabled":false,"rental_uris":{"android":"levelo://app?vid=630bf99b-8da5-4fa5-9381-4552175c26f1","ios":"levelo://app?vid=630bf99b-8da5-4fa5-9381-4552175c26f1"},"vehicle_type_id":"4","last_reported":1727856723,"current_range_meters":27600,"station_id":"ce4bgn92rcd13ifvqbvg","pricing_plan_id":"cebpf4jnsgd1na2vs0mg"},{"bike_id":"f8f518e3-bd48-40f5-801a-4ead88758ee2","system_id":"levelo_inurba_marseille","lat":43.32113,"lon":5.36772,"is_reserved":false,"is_disabled":false,"rental_uris":{"android":"levelo://app?vid=f8f518e3-bd48-40f5-801a-4ead88758ee2","ios":"levelo://app?vid=f8f518e3-bd48-40f5-801a-4ead88758ee2"},"vehicle_type_id":"4","last_reported":1727856723,"current_range_meters":10000,"station_id":"ce4bhrh2rcd13ifvqhug","pricing_plan_id":"cebpf4jnsgd1na2vs0mg"},{"bike_id":"b5ae82c3-110d-4c77-9781-3ad95c6afaa7","system_id":"levelo_inurba_marseille","lat":43.34147,"lon":5.40903,"is_reserved":false,"is_disabled":false,"rental_uris":{"android":"levelo://app?vid=b5ae82c3-110d-4c77-9781-3ad95c6afaa7","ios":"levelo://app?vid=b5ae82c3-110d-4c77-9781-3ad95c6afaa7"},"vehicle_type_id":"4","last_reported":1727856723,"current_range_meters":32400,"station_id":"ce4bhqh2rcd13ifvqhlg","pricing_plan_id":"cebpf4jnsgd1na2vs0mg"},{"bike_id":"cdb7cf2e-2e87-4673-920d-e49ad8e2f5e8","system_id":"levelo_inurba_marseille","lat":43.31347,"lon":5.36713,"is_reserved":false,"is_disabled":false,"rental_uris":{"android":"levelo://app?vid=cdb7cf2e-2e87-4673-920d-e49ad8e2f5e8","ios":"levelo://app?vid=cdb7cf2e-2e87-4673-920d-e49ad8e2f5e8"},"vehicle_type_id":"4","last_reported":1727856723,"current_range_meters":24800,"station_id":"ce4bgr92rcd13ifvqc6g","pricing_plan_id":"cebpf4jnsgd1na2vs0mg"},{"bike_id":"b8d0f0fe-9829-4e25-b3fc-9da75c2774f3","system_id":"levelo_inurba_marseille","lat":43.25935,"lon":5.40913,"is_reserved":false,"is_disabled":false,"rental_uris":{"android":"levelo://app?vid=b8d0f0fe-9829-4e25-b3fc-9da75c2774f3","ios":"levelo://app?vid=b8d0f0fe-9829-4e25-b3fc-9da75c2774f3"},"vehicle_type_id":"4","last_reported":1727856723,"current_range_meters":17200,"station_id":"ce4bhm92rcd13ifvqglg","pricing_plan_id":"cebpf4jnsgd1na2vs0mg"},{"bike_id":"d3cfa0bf-44b3-4878-8560-b25a05a1d43c","system_id":"levelo_inurba_marseille","lat":43.27487,"lon":5.42459,"is_reserved":false,"is_disabled":false,"rental_uris":{"android":"levelo://app?vid=d3cfa0bf-44b3-4878-8560-b25a05a1d43c","ios":"levelo://app?vid=d3cfa0bf-44b3-4878-8560-b25a05a1d43c"},"vehicle_type_id":"4","last_reported":1727856723,"current_range_meters":24000,"station_id":"ce4bhn92rcd13ifvqgrg","pricing_plan_id":"cebpf4jnsgd1na2vs0mg"},{"bike_id":"bcdf02d9-4b44-41b4-a517-beaaff7f018a","system_id":"levelo_inurba_marseille","lat":43.2987,"lon":5.39723,"is_reserved":false,"is_disabled":false,"rental_uris":{"android":"levelo://app?vid=bcdf02d9-4b44-41b4-a517-beaaff7f018a","ios":"levelo://app?vid=bcdf02d9-4b44-41b4-a517-beaaff7f018a"},"vehicle_type_id":"4","last_reported":1727856723,"current_range_meters":30800,"station_id":"ce4bh0h2rcd13ifvqd50","pricing_plan_id":"cebpf4jnsgd1na2vs0mg"},{"bike_id":"4eec74f6-24f1-46da-9209-a7a5daa2142d","system_id":"levelo_inurba_marseille","lat":43.28942,"lon":5.36636,"is_reserved":false,"is_disabled":false,"rental_uris":{"android":"levelo://app?vid=4eec74f6-24f1-46da-9209-a7a5daa2142d","ios":"levelo://app?vid=4eec74f6-24f1-46da-9209-a7a5daa2142d"},"vehicle_type_id":"4","last_reported":1727856723,"current_range_meters":17600,"station_id":"ce4bhap2rcd13ifvqek0","pricing_plan_id":"cebpf4jnsgd1na2vs0mg"},{"bike_id":"c79512c0-5855-4853-a139-4583c6a4ff0a","system_id":"levelo_inurba_marseille","lat":43.25011,"lon":5.38922,"is_reserved":false,"is_disabled":false,"rental_uris":{"android":"levelo://app?vid=c79512c0-5855-4853-a139-4583c6a4ff0a","ios":"levelo://app?vid=c79512c0-5855-4853-a139-4583c6a4ff0a"},"vehicle_type_id":"4","last_reported":1727856723,"current_range_meters":36400,"station_id":"ce4bhgp2rcd13ifvqfd0","pricing_plan_id":"cebpf4jnsgd1na2vs0mg"},{"bike_id":"480c0361-ae68-49da-a8bb-b26f4d368c0c","system_id":"levelo_inurba_marseille","lat":43.30475,"lon":5.37904,"is_reserved":false,"is_disabled":false,"rental_uris":{"android":"levelo://app?vid=480c0361-ae68-49da-a8bb-b26f4d368c0c","ios":"levelo://app?vid=480c0361-ae68-49da-a8bb-b26f4d368c0c"},"vehicle_type_id":"4","last_reported":1727856723,"current_range_meters":30000,"station_id":"ce4bgup2rcd13ifvqcn0","pricing_plan_id":"cebpf4jnsgd1na2vs0mg"},{"bike_id":"f73c0357-2191-480e-a049-d52ffb607063","system_id":"levelo_inurba_marseille","lat":43.3361,"lon":5.4103,"is_reserved":false,"is_disabled":false,"rental_uris":{"android":"levelo://app?vid=f73c0357-2191-480e-a049-d52ffb607063","ios":"levelo://app?vid=f73c0357-2191-480e-a049-d52ffb607063"},"vehicle_type_id":"4","last_reported":1727856723,"current_range_meters":35200,"station_id":"ce4bhqh2rcd13ifvqhmg","pricing_plan_id":"cebpf4jnsgd1na2vs0mg"},{"bike_id":"2a30aa98-c892-430c-a248-03f3748e92d2","system_id":"levelo_inurba_marseille","lat":43.25103,"lon":5.39509,"is_reserved":false,"is_disabled":false,"rental_uris":{"android":"levelo://app?vid=2a30aa98-c892-430c-a248-03f3748e92d2","ios":"levelo://app?vid=2a30aa98-c892-430c-a248-03f3748e92d2"},"vehicle_type_id":"4","last_reported":1727856723,"current_range_meters":4800,"station_id":"ce4bhm12rcd13ifvqgkg","pricing_plan_id":"cebpf4jnsgd1na2vs0mg"},{"bike_id":"78863aa1-ed71-4955-9c54-509cc7bf9e19","system_id":"levelo_inurba_marseille","lat":43.30752,"lon":5.38025,"is_reserved":false,"is_disabled":false,"rental_uris":{"android":"levelo://app?vid=78863aa1-ed71-4955-9c54-509cc7bf9e19","ios":"levelo://app?vid=78863aa1-ed71-4955-9c54-509cc7bf9e19"},"vehicle_type_id":"4","last_reported":1727856723,"current_range_meters":20000,"station_id":"","pricing_plan_id":"cebpf4jnsgd1na2vs0mg"},{"bike_id":"8e25999e-50c9-4906-a67a-216477dad2d9","system_id":"levelo_inurba_marseille","lat":43.30544,"lon":5.36705,"is_reserved":false,"is_disabled":false,"rental_uris":{"android":"levelo://app?vid=8e25999e-50c9-4906-a67a-216477dad2d9","ios":"levelo://app?vid=8e25999e-50c9-4906-a67a-216477dad2d9"},"vehicle_type_id":"4","last_reported":1727856723,"current_range_meters":36000,"station_id":"ce4bgrp2rcd13ifvqc9g","pricing_plan_id":"cebpf4jnsgd1na2vs0mg"},{"bike_id":"d1774312-75bc-436e-88ec-22588f98b90c","system_id":"levelo_inurba_marseille","lat":43.32475,"lon":5.36556,"is_reserved":false,"is_disabled":false,"rental_uris":{"android":"levelo://app?vid=d1774312-75bc-436e-88ec-22588f98b90c","ios":"levelo://app?vid=d1774312-75bc-436e-88ec-22588f98b90c"},"vehicle_type_id":"4","last_reported":1727856723,"current_range_meters":14400,"station_id":"ce4bhs12rcd13ifvqhvg","pricing_plan_id":"cebpf4jnsgd1na2vs0mg"},{"bike_id":"ad54fada-9be0-4e8c-9a77-47b6398a46f8","system_id":"levelo_inurba_marseille","lat":43.2998,"lon":5.37189,"is_reserved":false,"is_disabled":false,"rental_uris":{"android":"levelo://app?vid=ad54fada-9be0-4e8c-9a77-47b6398a46f8","ios":"levelo://app?vid=ad54fada-9be0-4e8c-9a77-47b6398a46f8"},"vehicle_type_id":"4","last_reported":1727856723,"current_range_meters":37600,"station_id":"ce4bgr92rcd13ifvqc7g","pricing_plan_id":"cebpf4jnsgd1na2vs0mg"},{"bike_id":"1d9d4190-1d4b-4999-8cdd-8e44f04bc896","system_id":"levelo_inurba_marseille","lat":43.24073,"lon":5.37765,"is_reserved":false,"is_disabled":false,"rental_uris":{"android":"levelo://app?vid=1d9d4190-1d4b-4999-8cdd-8e44f04bc896","ios":"levelo://app?vid=1d9d4190-1d4b-4999-8cdd-8e44f04bc896"},"vehicle_type_id":"4","last_reported":1727856723,"current_range_meters":38000,"station_id":"ce4bhnp2rcd13ifvqgvg","pricing_plan_id":"cebpf4jnsgd1na2vs0mg"},{"bike_id":"a8a0fab1-1859-4c40-9cc9-2ff3bc701849","system_id":"levelo_inurba_marseille","lat":43.286103,"lon":5.390513,"is_reserved":false,"is_disabled":false,"rental_uris":{"android":"levelo://app?vid=a8a0fab1-1859-4c40-9cc9-2ff3bc701849","ios":"levelo://app?vid=a8a0fab1-1859-4c40-9cc9-2ff3bc701849"},"vehicle_type_id":"4","last_reported":1727856723,"current_range_meters":4000,"station_id":"ce4bh0h2rcd13ifvqd50","pricing_plan_id":"cebpf4jnsgd1na2vs0mg"},{"bike_id":"9e0f8531-ac87-4939-876c-6806e8dfeda9","system_id":"levelo_inurba_marseille","lat":43.23153,"lon":5.43716,"is_reserved":false,"is_disabled":false,"rental_uris":{"android":"levelo://app?vid=9e0f8531-ac87-4939-876c-6806e8dfeda9","ios":"levelo://app?vid=9e0f8531-ac87-4939-876c-6806e8dfeda9"},"vehicle_type_id":"4","last_reported":1727856723,"current_range_meters":8400,"station_id":"ce4bhmp2rcd13ifvqgog","pricing_plan_id":"cebpf4jnsgd1na2vs0mg"},{"bike_id":"53c6fe7a-c5f0-4c29-bdb6-08c6c7db5c71","system_id":"levelo_inurba_marseille","lat":43.32107,"lon":5.36767,"is_reserved":false,"is_disabled":false,"rental_uris":{"android":"levelo://app?vid=53c6fe7a-c5f0-4c29-bdb6-08c6c7db5c71","ios":"levelo://app?vid=53c6fe7a-c5f0-4c29-bdb6-08c6c7db5c71"},"vehicle_type_id":"4","last_reported":1727856723,"current_range_meters":18000,"station_id":"ce4bhrh2rcd13ifvqhug","pricing_plan_id":"cebpf4jnsgd1na2vs0mg"},{"bike_id":"e5b4acad-a526-4677-b608-6110c1720df0","system_id":"levelo_inurba_marseille","lat":43.31351,"lon":5.36715,"is_reserved":false,"is_disabled":false,"rental_uris":{"android":"levelo://app?vid=e5b4acad-a526-4677-b608-6110c1720df0","ios":"levelo://app?vid=e5b4acad-a526-4677-b608-6110c1720df0"},"vehicle_type_id":"4","last_reported":1727856723,"current_range_meters":4800,"station_id":"ce4bgr92rcd13ifvqc6g","pricing_plan_id":"cebpf4jnsgd1na2vs0mg"},{"bike_id":"9f51284f-7263-407e-a937-b1874b001f18","system_id":"levelo_inurba_marseille","lat":43.23151,"lon":5.4371,"is_reserved":false,"is_disabled":false,"rental_uris":{"android":"levelo://app?vid=9f51284f-7263-407e-a937-b1874b001f18","ios":"levelo://app?vid=9f51284f-7263-407e-a937-b1874b001f18"},"vehicle_type_id":"4","last_reported":1727856723,"current_range_meters":38800,"station_id":"ce4bhmp2rcd13ifvqgog","pricing_plan_id":"cebpf4jnsgd1na2vs0mg"},{"bike_id":"2fb6b27c-bd2a-40f2-b0cf-75306d8d7e32","system_id":"levelo_inurba_marseille","lat":43.24168,"lon":5.36402,"is_reserved":false,"is_disabled":false,"rental_uris":{"android":"levelo://app?vid=2fb6b27c-bd2a-40f2-b0cf-75306d8d7e32","ios":"levelo://app?vid=2fb6b27c-bd2a-40f2-b0cf-75306d8d7e32"},"vehicle_type_id":"4","last_reported":1727856723,"current_range_meters":38800,"station_id":"cpo36qri1sfpv3e86is0","pricing_plan_id":"cebpf4jnsgd1na2vs0mg"},{"bike_id":"b652f429-09b8-4697-9c1b-3b9adc3c55d8","system_id":"levelo_inurba_marseille","lat":43.26871,"lon":5.39135,"is_reserved":false,"is_disabled":false,"rental_uris":{"android":"levelo://app?vid=b652f429-09b8-4697-9c1b-3b9adc3c55d8","ios":"levelo://app?vid=b652f429-09b8-4697-9c1b-3b9adc3c55d8"},"vehicle_type_id":"4","last_reported":1727856723,"current_range_meters":2800,"station_id":"","pricing_plan_id":"cebpf4jnsgd1na2vs0mg"},{"bike_id":"100e9fa1-1be7-47dd-9c3c-99b4b27ecd9e","system_id":"levelo_inurba_marseille","lat":43.29838,"lon":5.36269,"is_reserved":false,"is_disabled":false,"rental_uris":{"android":"levelo://app?vid=100e9fa1-1be7-47dd-9c3c-99b4b27ecd9e","ios":"levelo://app?vid=100e9fa1-1be7-47dd-9c3c-99b4b27ecd9e"},"vehicle_type_id":"4","last_reported":1727856723,"current_range_meters":35200,"station_id":"ce4bgpp2rcd13ifvqc3g","pricing_plan_id":"cebpf4jnsgd1na2vs0mg"},{"bike_id":"804e3d71-db47-4264-9445-f1dd957f20d8","system_id":"levelo_inurba_marseille","lat":43.30309,"lon":5.36895,"is_reserved":false,"is_disabled":false,"rental_uris":{"android":"levelo://app?vid=804e3d71-db47-4264-9445-f1dd957f20d8","ios":"levelo://app?vid=804e3d71-db47-4264-9445-f1dd957f20d8"},"vehicle_type_id":"4","last_reported":1727856723,"current_range_meters":38800,"station_id":"ce4bgqh2rcd13ifvqc5g","pricing_plan_id":"cebpf4jnsgd1na2vs0mg"},{"bike_id":"8192b593-9aca-468c-b907-030a74254c59","system_id":"levelo_inurba_marseille","lat":43.302108,"lon":5.394635,"is_reserved":false,"is_disabled":false,"rental_uris":{"android":"levelo://app?vid=8192b593-9aca-468c-b907-030a74254c59","ios":"levelo://app?vid=8192b593-9aca-468c-b907-030a74254c59"},"vehicle_type_id":"4","last_reported":1727856723,"current_range_meters":5600,"station_id":"ce4bh0p2rcd13ifvqd70","pricing_plan_id":"cebpf4jnsgd1na2vs0mg"},{"bike_id":"6ff8afc0-5e97-4644-a9d2-c6e986f5ca02","system_id":"levelo_inurba_marseille","lat":43.31078,"lon":5.38353,"is_reserved":false,"is_disabled":false,"rental_uris":{"android":"levelo://app?vid=6ff8afc0-5e97-4644-a9d2-c6e986f5ca02","ios":"levelo://app?vid=6ff8afc0-5e97-4644-a9d2-c6e986f5ca02"},"vehicle_type_id":"4","last_reported":1727856723,"current_range_meters":28400,"station_id":"ce4bgv92rcd13ifvqcr0","pricing_plan_id":"cebpf4jnsgd1na2vs0mg"},{"bike_id":"3d13c773-e9a4-44f9-8bcb-fa7924ac7501","system_id":"levelo_inurba_marseille","lat":43.2315,"lon":5.43714,"is_reserved":false,"is_disabled":false,"rental_uris":{"android":"levelo://app?vid=3d13c773-e9a4-44f9-8bcb-fa7924ac7501","ios":"levelo://app?vid=3d13c773-e9a4-44f9-8bcb-fa7924ac7501"},"vehicle_type_id":"4","last_reported":1727856723,"current_range_meters":23200,"station_id":"ce4bhmp2rcd13ifvqgog","pricing_plan_id":"cebpf4jnsgd1na2vs0mg"},{"bike_id":"e85c3c96-1b33-4674-a39e-44d46c9d9538","system_id":"levelo_inurba_marseille","lat":43.24085,"lon":5.37749,"is_reserved":false,"is_disabled":false,"rental_uris":{"android":"levelo://app?vid=e85c3c96-1b33-4674-a39e-44d46c9d9538","ios":"levelo://app?vid=e85c3c96-1b33-4674-a39e-44d46c9d9538"},"vehicle_type_id":"4","last_reported":1727856723,"current_range_meters":24000,"station_id":"ce4bhnp2rcd13ifvqgvg","pricing_plan_id":"cebpf4jnsgd1na2vs0mg"},{"bike_id":"5b789e69-9988-4818-9eca-bf357cf1fde0","system_id":"levelo_inurba_marseille","lat":43.30543,"lon":5.36537,"is_reserved":false,"is_disabled":false,"rental_uris":{"android":"levelo://app?vid=5b789e69-9988-4818-9eca-bf357cf1fde0","ios":"levelo://app?vid=5b789e69-9988-4818-9eca-bf357cf1fde0"},"vehicle_type_id":"4","last_reported":1727856723,"current_range_meters":28800,"station_id":"ce4bgs12rcd13ifvqcag","pricing_plan_id":"cebpf4jnsgd1na2vs0mg"},{"bike_id":"4f2db1d7-0354-4715-b08e-7421c6196cab","system_id":"levelo_inurba_marseille","lat":43.30472,"lon":5.37904,"is_reserved":false,"is_disabled":false,"rental_uris":{"android":"levelo://app?vid=4f2db1d7-0354-4715-b08e-7421c6196cab","ios":"levelo://app?vid=4f2db1d7-0354-4715-b08e-7421c6196cab"},"vehicle_type_id":"4","last_reported":1727856723,"current_range_meters":29600,"station_id":"ce4bgup2rcd13ifvqcn0","pricing_plan_id":"cebpf4jnsgd1na2vs0mg"},{"bike_id":"ee30eb65-e2b5-42f0-9767-04264112c239","system_id":"levelo_inurba_marseille","lat":43.30548,"lon":5.36533,"is_reserved":false,"is_disabled":false,"rental_uris":{"android":"levelo://app?vid=ee30eb65-e2b5-42f0-9767-04264112c239","ios":"levelo://app?vid=ee30eb65-e2b5-42f0-9767-04264112c239"},"vehicle_type_id":"4","last_reported":1727856723,"current_range_meters":16000,"station_id":"ce4bgs12rcd13ifvqcag","pricing_plan_id":"cebpf4jnsgd1na2vs0mg"},{"bike_id":"b993e505-e084-4b1a-9429-c10fe07c1a52","system_id":"levelo_inurba_marseille","lat":43.32536,"lon":5.41434,"is_reserved":false,"is_disabled":false,"rental_uris":{"android":"levelo://app?vid=b993e505-e084-4b1a-9429-c10fe07c1a52","ios":"levelo://app?vid=b993e505-e084-4b1a-9429-c10fe07c1a52"},"vehicle_type_id":"4","last_reported":1727856723,"current_range_meters":8400,"station_id":"ce4bhq12rcd13ifvqhhg","pricing_plan_id":"cebpf4jnsgd1na2vs0mg"},{"bike_id":"76cbff31-11cb-412b-aee6-b19f45ad0bec","system_id":"levelo_inurba_marseille","lat":43.30474,"lon":5.37902,"is_reserved":false,"is_disabled":false,"rental_uris":{"android":"levelo://app?vid=76cbff31-11cb-412b-aee6-b19f45ad0bec","ios":"levelo://app?vid=76cbff31-11cb-412b-aee6-b19f45ad0bec"},"vehicle_type_id":"4","last_reported":1727856723,"current_range_meters":38400,"station_id":"ce4bgup2rcd13ifvqcn0","pricing_plan_id":"cebpf4jnsgd1na2vs0mg"},{"bike_id":"0d0c09c7-e409-4059-95eb-e2007a7f7fa5","system_id":"levelo_inurba_marseille","lat":43.33614,"lon":5.41027,"is_reserved":false,"is_disabled":false,"rental_uris":{"android":"levelo://app?vid=0d0c09c7-e409-4059-95eb-e2007a7f7fa5","ios":"levelo://app?vid=0d0c09c7-e409-4059-95eb-e2007a7f7fa5"},"vehicle_type_id":"4","last_reported":1727856723,"current_range_meters":10000,"station_id":"ce4bhqh2rcd13ifvqhmg","pricing_plan_id":"cebpf4jnsgd1na2vs0mg"},{"bike_id":"d57d63f8-a766-42de-a53d-3a746b641922","system_id":"levelo_inurba_marseille","lat":43.30279,"lon":5.37693,"is_reserved":false,"is_disabled":false,"rental_uris":{"android":"levelo://app?vid=d57d63f8-a766-42de-a53d-3a746b641922","ios":"levelo://app?vid=d57d63f8-a766-42de-a53d-3a746b641922"},"vehicle_type_id":"4","last_reported":1727856723,"current_range_meters":38800,"station_id":"ce4bguh2rcd13ifvqcj0","pricing_plan_id":"cebpf4jnsgd1na2vs0mg"},{"bike_id":"6ad75e43-11c6-4e65-afdb-d66c47b2c894","system_id":"levelo_inurba_marseille","lat":43.24069,"lon":5.37779,"is_reserved":false,"is_disabled":false,"rental_uris":{"android":"levelo://app?vid=6ad75e43-11c6-4e65-afdb-d66c47b2c894","ios":"levelo://app?vid=6ad75e43-11c6-4e65-afdb-d66c47b2c894"},"vehicle_type_id":"4","last_reported":1727856723,"current_range_meters":18800,"station_id":"ce4bhnp2rcd13ifvqgvg","pricing_plan_id":"cebpf4jnsgd1na2vs0mg"},{"bike_id":"8ef791d5-996c-4dd0-994d-02779893be47","system_id":"levelo_inurba_marseille","lat":43.28263,"lon":5.35065,"is_reserved":false,"is_disabled":false,"rental_uris":{"android":"levelo://app?vid=8ef791d5-996c-4dd0-994d-02779893be47","ios":"levelo://app?vid=8ef791d5-996c-4dd0-994d-02779893be47"},"vehicle_type_id":"4","last_reported":1727856723,"current_range_meters":33600,"station_id":"ce4bhbp2rcd13ifvqerg","pricing_plan_id":"cebpf4jnsgd1na2vs0mg"},{"bike_id":"61cd5d6b-99e5-42ac-891b-b219300a20a8","system_id":"levelo_inurba_marseille","lat":43.26565,"lon":5.39009,"is_reserved":false,"is_disabled":false,"rental_uris":{"android":"levelo://app?vid=61cd5d6b-99e5-42ac-891b-b219300a20a8","ios":"levelo://app?vid=61cd5d6b-99e5-42ac-891b-b219300a20a8"},"vehicle_type_id":"4","last_reported":1727856723,"current_range_meters":37600,"station_id":"ce4bhe12rcd13ifvqf30","pricing_plan_id":"cebpf4jnsgd1na2vs0mg"},{"bike_id":"3355cbba-3f17-4f4d-9cae-ee2aa1ddff19","system_id":"levelo_inurba_marseille","lat":43.30135,"lon":5.37418,"is_reserved":false,"is_disabled":false,"rental_uris":{"android":"levelo://app?vid=3355cbba-3f17-4f4d-9cae-ee2aa1ddff19","ios":"levelo://app?vid=3355cbba-3f17-4f4d-9cae-ee2aa1ddff19"},"vehicle_type_id":"4","last_reported":1727856723,"current_range_meters":17600,"station_id":"ce4bgs92rcd13ifvqcc0","pricing_plan_id":"cebpf4jnsgd1na2vs0mg"},{"bike_id":"e87b5406-bfc3-450b-90be-ea33674025e0","system_id":"levelo_inurba_marseille","lat":43.31354,"lon":5.36725,"is_reserved":false,"is_disabled":false,"rental_uris":{"android":"levelo://app?vid=e87b5406-bfc3-450b-90be-ea33674025e0","ios":"levelo://app?vid=e87b5406-bfc3-450b-90be-ea33674025e0"},"vehicle_type_id":"4","last_reported":1727856723,"current_range_meters":20400,"station_id":"ce4bgr92rcd13ifvqc6g","pricing_plan_id":"cebpf4jnsgd1na2vs0mg"},{"bike_id":"dc0269b0-e8b1-42a0-aa7e-d6ae8eb50eb5","system_id":"levelo_inurba_marseille","lat":43.2407,"lon":5.37754,"is_reserved":false,"is_disabled":false,"rental_uris":{"android":"levelo://app?vid=dc0269b0-e8b1-42a0-aa7e-d6ae8eb50eb5","ios":"levelo://app?vid=dc0269b0-e8b1-42a0-aa7e-d6ae8eb50eb5"},"vehicle_type_id":"4","last_reported":1727856723,"current_range_meters":35200,"station_id":"ce4bhnp2rcd13ifvqgvg","pricing_plan_id":"cebpf4jnsgd1na2vs0mg"},{"bike_id":"f791259a-df2c-414e-92e0-4d64d343370b","system_id":"levelo_inurba_marseille","lat":43.30906,"lon":5.36859,"is_reserved":false,"is_disabled":false,"rental_uris":{"android":"levelo://app?vid=f791259a-df2c-414e-92e0-4d64d343370b","ios":"levelo://app?vid=f791259a-df2c-414e-92e0-4d64d343370b"},"vehicle_type_id":"4","last_reported":1727856723,"current_range_meters":38000,"station_id":"ce4bgn92rcd13ifvqbvg","pricing_plan_id":"cebpf4jnsgd1na2vs0mg"},{"bike_id":"07e74189-38c6-44f2-97b6-b5141fd8d166","system_id":"levelo_inurba_marseille","lat":43.26683,"lon":5.38269,"is_reserved":false,"is_disabled":false,"rental_uris":{"android":"levelo://app?vid=07e74189-38c6-44f2-97b6-b5141fd8d166","ios":"levelo://app?vid=07e74189-38c6-44f2-97b6-b5141fd8d166"},"vehicle_type_id":"4","last_reported":1727856723,"current_range_meters":38800,"station_id":"ce4bhg92rcd13ifvqf90","pricing_plan_id":"cebpf4jnsgd1na2vs0mg"},{"bike_id":"6ae20033-92da-495d-9743-905496a75472","system_id":"levelo_inurba_marseille","lat":43.33611,"lon":5.41022,"is_reserved":false,"is_disabled":false,"rental_uris":{"android":"levelo://app?vid=6ae20033-92da-495d-9743-905496a75472","ios":"levelo://app?vid=6ae20033-92da-495d-9743-905496a75472"},"vehicle_type_id":"4","last_reported":1727856723,"current_range_meters":38800,"station_id":"ce4bhqh2rcd13ifvqhmg","pricing_plan_id":"cebpf4jnsgd1na2vs0mg"},{"bike_id":"32f94b16-f43f-4ab0-9cc4-441c595e0a56","system_id":"levelo_inurba_marseille","lat":43.28155,"lon":5.42639,"is_reserved":false,"is_disabled":false,"rental_uris":{"android":"levelo://app?vid=32f94b16-f43f-4ab0-9cc4-441c595e0a56","ios":"levelo://app?vid=32f94b16-f43f-4ab0-9cc4-441c595e0a56"},"vehicle_type_id":"4","last_reported":1727856723,"current_range_meters":36400,"station_id":"ce4bhnh2rcd13ifvqgug","pricing_plan_id":"cebpf4jnsgd1na2vs0mg"},{"bike_id":"78654682-55d3-4726-9b93-44e606f958fe","system_id":"levelo_inurba_marseille","lat":43.24996,"lon":5.38931,"is_reserved":false,"is_disabled":false,"rental_uris":{"android":"levelo://app?vid=78654682-55d3-4726-9b93-44e606f958fe","ios":"levelo://app?vid=78654682-55d3-4726-9b93-44e606f958fe"},"vehicle_type_id":"4","last_reported":1727856723,"current_range_meters":30400,"station_id":"ce4bhgp2rcd13ifvqfd0","pricing_plan_id":"cebpf4jnsgd1na2vs0mg"},{"bike_id":"11055545-4247-41a3-9906-21261e0748c4","system_id":"levelo_inurba_marseille","lat":43.3253,"lon":5.4145,"is_reserved":false,"is_disabled":false,"rental_uris":{"android":"levelo://app?vid=11055545-4247-41a3-9906-21261e0748c4","ios":"levelo://app?vid=11055545-4247-41a3-9906-21261e0748c4"},"vehicle_type_id":"4","last_reported":1727856723,"current_range_meters":11200,"station_id":"ce4bhq12rcd13ifvqhhg","pricing_plan_id":"cebpf4jnsgd1na2vs0mg"},{"bike_id":"4585a52b-704e-4d73-8d39-1c11231f55bb","system_id":"levelo_inurba_marseille","lat":43.29966,"lon":5.37196,"is_reserved":false,"is_disabled":false,"rental_uris":{"android":"levelo://app?vid=4585a52b-704e-4d73-8d39-1c11231f55bb","ios":"levelo://app?vid=4585a52b-704e-4d73-8d39-1c11231f55bb"},"vehicle_type_id":"4","last_reported":1727856723,"current_range_meters":38800,"station_id":"ce4bgr92rcd13ifvqc7g","pricing_plan_id":"cebpf4jnsgd1na2vs0mg"},{"bike_id":"4bd2bdb0-2428-4b26-b66c-938192bf3d68","system_id":"levelo_inurba_marseille","lat":43.33757,"lon":5.37417,"is_reserved":false,"is_disabled":false,"rental_uris":{"android":"levelo://app?vid=4bd2bdb0-2428-4b26-b66c-938192bf3d68","ios":"levelo://app?vid=4bd2bdb0-2428-4b26-b66c-938192bf3d68"},"vehicle_type_id":"4","last_reported":1727856723,"current_range_meters":34000,"station_id":"","pricing_plan_id":"cebpf4jnsgd1na2vs0mg"},{"bike_id":"5018f960-dc4e-426f-a85a-0f663ea79b3a","system_id":"levelo_inurba_marseille","lat":43.30138,"lon":5.37419,"is_reserved":false,"is_disabled":false,"rental_uris":{"android":"levelo://app?vid=5018f960-dc4e-426f-a85a-0f663ea79b3a","ios":"levelo://app?vid=5018f960-dc4e-426f-a85a-0f663ea79b3a"},"vehicle_type_id":"4","last_reported":1727856723,"current_range_meters":3200,"station_id":"ce4bgs92rcd13ifvqcc0","pricing_plan_id":"cebpf4jnsgd1na2vs0mg"},{"bike_id":"d8701904-e9a7-4593-9b1d-3fc051e13ff8","system_id":"levelo_inurba_marseille","lat":43.26564,"lon":5.39003,"is_reserved":false,"is_disabled":false,"rental_uris":{"android":"levelo://app?vid=d8701904-e9a7-4593-9b1d-3fc051e13ff8","ios":"levelo://app?vid=d8701904-e9a7-4593-9b1d-3fc051e13ff8"},"vehicle_type_id":"4","last_reported":1727856723,"current_range_meters":28400,"station_id":"ce4bhe12rcd13ifvqf30","pricing_plan_id":"cebpf4jnsgd1na2vs0mg"},{"bike_id":"7c0a7e9a-274d-4edb-a5f4-3ab54445f147","system_id":"levelo_inurba_marseille","lat":43.26489,"lon":5.39546,"is_reserved":false,"is_disabled":false,"rental_uris":{"android":"levelo://app?vid=7c0a7e9a-274d-4edb-a5f4-3ab54445f147","ios":"levelo://app?vid=7c0a7e9a-274d-4edb-a5f4-3ab54445f147"},"vehicle_type_id":"4","last_reported":1727856723,"current_range_meters":38400,"station_id":"ce4bhi12rcd13ifvqfq0","pricing_plan_id":"cebpf4jnsgd1na2vs0mg"},{"bike_id":"c6aefcac-9b59-4be9-ba9c-464572888e5a","system_id":"levelo_inurba_marseille","lat":43.30543,"lon":5.36706,"is_reserved":false,"is_disabled":false,"rental_uris":{"android":"levelo://app?vid=c6aefcac-9b59-4be9-ba9c-464572888e5a","ios":"levelo://app?vid=c6aefcac-9b59-4be9-ba9c-464572888e5a"},"vehicle_type_id":"4","last_reported":1727856723,"current_range_meters":39200,"station_id":"ce4bgrp2rcd13ifvqc9g","pricing_plan_id":"cebpf4jnsgd1na2vs0mg"},{"bike_id":"e327d4c5-e7de-478d-89b6-da24369c6f53","system_id":"levelo_inurba_marseille","lat":43.29843,"lon":5.36275,"is_reserved":false,"is_disabled":false,"rental_uris":{"android":"levelo://app?vid=e327d4c5-e7de-478d-89b6-da24369c6f53","ios":"levelo://app?vid=e327d4c5-e7de-478d-89b6-da24369c6f53"},"vehicle_type_id":"4","last_reported":1727856723,"current_range_meters":38000,"station_id":"ce4bgpp2rcd13ifvqc3g","pricing_plan_id":"cebpf4jnsgd1na2vs0mg"},{"bike_id":"3b5112e4-eaa4-4152-b81d-413ce076a608","system_id":"levelo_inurba_marseille","lat":43.32538,"lon":5.41433,"is_reserved":false,"is_disabled":false,"rental_uris":{"android":"levelo://app?vid=3b5112e4-eaa4-4152-b81d-413ce076a608","ios":"levelo://app?vid=3b5112e4-eaa4-4152-b81d-413ce076a608"},"vehicle_type_id":"4","last_reported":1727856723,"current_range_meters":6400,"station_id":"ce4bhq12rcd13ifvqhhg","pricing_plan_id":"cebpf4jnsgd1na2vs0mg"},{"bike_id":"ceab8afc-2178-4f23-802f-645fa15cfce5","system_id":"levelo_inurba_marseille","lat":43.24388,"lon":5.37061,"is_reserved":false,"is_disabled":false,"rental_uris":{"android":"levelo://app?vid=ceab8afc-2178-4f23-802f-645fa15cfce5","ios":"levelo://app?vid=ceab8afc-2178-4f23-802f-645fa15cfce5"},"vehicle_type_id":"4","last_reported":1727856723,"current_range_meters":16400,"station_id":"ce4bhhh2rcd13ifvqfk0","pricing_plan_id":"cebpf4jnsgd1na2vs0mg"},{"bike_id":"9d9a11db-f90b-4c71-90cb-e21501637d1b","system_id":"levelo_inurba_marseille","lat":43.29518,"lon":5.39039,"is_reserved":false,"is_disabled":false,"rental_uris":{"android":"levelo://app?vid=9d9a11db-f90b-4c71-90cb-e21501637d1b","ios":"levelo://app?vid=9d9a11db-f90b-4c71-90cb-e21501637d1b"},"vehicle_type_id":"4","last_reported":1727856723,"current_range_meters":26800,"station_id":"ce4bh3p2rcd13ifvqdp0","pricing_plan_id":"cebpf4jnsgd1na2vs0mg"},{"bike_id":"4c2ae094-bf26-4caf-a395-61fbe48cf2bb","system_id":"levelo_inurba_marseille","lat":43.27486,"lon":5.42464,"is_reserved":false,"is_disabled":false,"rental_uris":{"android":"levelo://app?vid=4c2ae094-bf26-4caf-a395-61fbe48cf2bb","ios":"levelo://app?vid=4c2ae094-bf26-4caf-a395-61fbe48cf2bb"},"vehicle_type_id":"4","last_reported":1727856723,"current_range_meters":36800,"station_id":"ce4bhn92rcd13ifvqgrg","pricing_plan_id":"cebpf4jnsgd1na2vs0mg"},{"bike_id":"bb380ea1-5968-42d6-81af-715d4a465a27","system_id":"levelo_inurba_marseille","lat":43.31365,"lon":5.385,"is_reserved":false,"is_disabled":false,"rental_uris":{"android":"levelo://app?vid=bb380ea1-5968-42d6-81af-715d4a465a27","ios":"levelo://app?vid=bb380ea1-5968-42d6-81af-715d4a465a27"},"vehicle_type_id":"4","last_reported":1727856723,"current_range_meters":11200,"station_id":"ce4bgt92rcd13ifvqcf0","pricing_plan_id":"cebpf4jnsgd1na2vs0mg"},{"bike_id":"45a161ca-aeb4-4036-9aea-f9499cf0e190","system_id":"levelo_inurba_marseille","lat":43.254983,"lon":5.376487,"is_reserved":false,"is_disabled":false,"rental_uris":{"android":"levelo://app?vid=45a161ca-aeb4-4036-9aea-f9499cf0e190","ios":"levelo://app?vid=45a161ca-aeb4-4036-9aea-f9499cf0e190"},"vehicle_type_id":"4","last_reported":1727856723,"current_range_meters":28000,"station_id":"ce4bhh12rcd13ifvqff0","pricing_plan_id":"cebpf4jnsgd1na2vs0mg"},{"bike_id":"0351257e-74b9-436d-b879-4f7477bdd615","system_id":"levelo_inurba_marseille","lat":43.230643,"lon":5.354913,"is_reserved":false,"is_disabled":false,"rental_uris":{"android":"levelo://app?vid=0351257e-74b9-436d-b879-4f7477bdd615","ios":"levelo://app?vid=0351257e-74b9-436d-b879-4f7477bdd615"},"vehicle_type_id":"4","last_reported":1727856723,"current_range_meters":28400,"station_id":"cpo3342slgdg3j2ifvpg","pricing_plan_id":"cebpf4jnsgd1na2vs0mg"},{"bike_id":"33ab3f51-3776-44b2-9d39-42527035593d","system_id":"levelo_inurba_marseille","lat":43.24076,"lon":5.3776,"is_reserved":false,"is_disabled":false,"rental_uris":{"android":"levelo://app?vid=33ab3f51-3776-44b2-9d39-42527035593d","ios":"levelo://app?vid=33ab3f51-3776-44b2-9d39-42527035593d"},"vehicle_type_id":"4","last_reported":1727856723,"current_range_meters":27200,"station_id":"ce4bhnp2rcd13ifvqgvg","pricing_plan_id":"cebpf4jnsgd1na2vs0mg"},{"bike_id":"66c1cfb0-2b20-433a-94b2-c02013f6c4e9","system_id":"levelo_inurba_marseille","lat":43.30561,"lon":5.36533,"is_reserved":false,"is_disabled":false,"rental_uris":{"android":"levelo://app?vid=66c1cfb0-2b20-433a-94b2-c02013f6c4e9","ios":"levelo://app?vid=66c1cfb0-2b20-433a-94b2-c02013f6c4e9"},"vehicle_type_id":"4","last_reported":1727856723,"current_range_meters":4000,"station_id":"ce4bgs12rcd13ifvqcag","pricing_plan_id":"cebpf4jnsgd1na2vs0mg"},{"bike_id":"9da4a5f4-1a97-4224-a5a8-18de5740c318","system_id":"levelo_inurba_marseille","lat":43.30547,"lon":5.36525,"is_reserved":false,"is_disabled":false,"rental_uris":{"android":"levelo://app?vid=9da4a5f4-1a97-4224-a5a8-18de5740c318","ios":"levelo://app?vid=9da4a5f4-1a97-4224-a5a8-18de5740c318"},"vehicle_type_id":"4","last_reported":1727856723,"current_range_meters":29600,"station_id":"ce4bgs12rcd13ifvqcag","pricing_plan_id":"cebpf4jnsgd1na2vs0mg"},{"bike_id":"4bc069e9-27cb-4e2c-9e2e-007bc95d2cfc","system_id":"levelo_inurba_marseille","lat":43.2922,"lon":5.36059,"is_reserved":false,"is_disabled":false,"rental_uris":{"android":"levelo://app?vid=4bc069e9-27cb-4e2c-9e2e-007bc95d2cfc","ios":"levelo://app?vid=4bc069e9-27cb-4e2c-9e2e-007bc95d2cfc"},"vehicle_type_id":"4","last_reported":1727856723,"current_range_meters":38400,"station_id":"ce4bhbh2rcd13ifvqeqg","pricing_plan_id":"cebpf4jnsgd1na2vs0mg"},{"bike_id":"5232706d-f6ed-49c5-82b0-3d08f9db9c69","system_id":"levelo_inurba_marseille","lat":43.29838,"lon":5.36256,"is_reserved":false,"is_disabled":false,"rental_uris":{"android":"levelo://app?vid=5232706d-f6ed-49c5-82b0-3d08f9db9c69","ios":"levelo://app?vid=5232706d-f6ed-49c5-82b0-3d08f9db9c69"},"vehicle_type_id":"4","last_reported":1727856723,"current_range_meters":27600,"station_id":"ce4bgpp2rcd13ifvqc3g","pricing_plan_id":"cebpf4jnsgd1na2vs0mg"},{"bike_id":"dbc44908-d446-4545-8bfd-392387f63cc0","system_id":"levelo_inurba_marseille","lat":43.24072,"lon":5.37762,"is_reserved":false,"is_disabled":false,"rental_uris":{"android":"levelo://app?vid=dbc44908-d446-4545-8bfd-392387f63cc0","ios":"levelo://app?vid=dbc44908-d446-4545-8bfd-392387f63cc0"},"vehicle_type_id":"4","last_reported":1727856723,"current_range_meters":24800,"station_id":"ce4bhnp2rcd13ifvqgvg","pricing_plan_id":"cebpf4jnsgd1na2vs0mg"},{"bike_id":"bd0db477-1706-451e-a7f6-635369a0f04a","system_id":"levelo_inurba_marseille","lat":43.24077,"lon":5.37759,"is_reserved":false,"is_disabled":false,"rental_uris":{"android":"levelo://app?vid=bd0db477-1706-451e-a7f6-635369a0f04a","ios":"levelo://app?vid=bd0db477-1706-451e-a7f6-635369a0f04a"},"vehicle_type_id":"4","last_reported":1727856723,"current_range_meters":14000,"station_id":"ce4bhnp2rcd13ifvqgvg","pricing_plan_id":"cebpf4jnsgd1na2vs0mg"},{"bike_id":"55f0415e-88ba-43ce-9d07-bd1f908ae506","system_id":"levelo_inurba_marseille","lat":43.30145,"lon":5.38074,"is_reserved":false,"is_disabled":false,"rental_uris":{"android":"levelo://app?vid=55f0415e-88ba-43ce-9d07-bd1f908ae506","ios":"levelo://app?vid=55f0415e-88ba-43ce-9d07-bd1f908ae506"},"vehicle_type_id":"4","last_reported":1727856723,"current_range_meters":6000,"station_id":"ce4bgjp2rcd13ifvqbh0","pricing_plan_id":"cebpf4jnsgd1na2vs0mg"},{"bike_id":"6ca3c324-edcd-4f8d-a4f2-e318473acbb0","system_id":"levelo_inurba_marseille","lat":43.3047,"lon":5.37901,"is_reserved":false,"is_disabled":false,"rental_uris":{"android":"levelo://app?vid=6ca3c324-edcd-4f8d-a4f2-e318473acbb0","ios":"levelo://app?vid=6ca3c324-edcd-4f8d-a4f2-e318473acbb0"},"vehicle_type_id":"4","last_reported":1727856723,"current_range_meters":38800,"station_id":"ce4bgup2rcd13ifvqcn0","pricing_plan_id":"cebpf4jnsgd1na2vs0mg"},{"bike_id":"0525355d-4320-47a5-8dcd-2ebc85c2a1e1","system_id":"levelo_inurba_marseille","lat":43.31339,"lon":5.36728,"is_reserved":false,"is_disabled":false,"rental_uris":{"android":"levelo://app?vid=0525355d-4320-47a5-8dcd-2ebc85c2a1e1","ios":"levelo://app?vid=0525355d-4320-47a5-8dcd-2ebc85c2a1e1"},"vehicle_type_id":"4","last_reported":1727856723,"current_range_meters":24800,"station_id":"ce4bgr92rcd13ifvqc6g","pricing_plan_id":"cebpf4jnsgd1na2vs0mg"},{"bike_id":"4e69c702-3645-432d-b0a6-65ed6bec937f","system_id":"levelo_inurba_marseille","lat":43.31222,"lon":5.36864,"is_reserved":false,"is_disabled":false,"rental_uris":{"android":"levelo://app?vid=4e69c702-3645-432d-b0a6-65ed6bec937f","ios":"levelo://app?vid=4e69c702-3645-432d-b0a6-65ed6bec937f"},"vehicle_type_id":"4","last_reported":1727856723,"current_range_meters":32800,"station_id":"ce4bgl92rcd13ifvqbq0","pricing_plan_id":"cebpf4jnsgd1na2vs0mg"},{"bike_id":"54e018a7-7fbc-4580-b942-5a53fc542609","system_id":"levelo_inurba_marseille","lat":43.241811,"lon":5.397311,"is_reserved":false,"is_disabled":false,"rental_uris":{"android":"levelo://app?vid=54e018a7-7fbc-4580-b942-5a53fc542609","ios":"levelo://app?vid=54e018a7-7fbc-4580-b942-5a53fc542609"},"vehicle_type_id":"4","last_reported":1727856723,"current_range_meters":11600,"station_id":"ce4bhn12rcd13ifvqgpg","pricing_plan_id":"cebpf4jnsgd1na2vs0mg"},{"bike_id":"772088a0-7828-4f69-ba5d-0f6cdb83dec2","system_id":"levelo_inurba_marseille","lat":43.337444,"lon":5.374475,"is_reserved":false,"is_disabled":false,"rental_uris":{"android":"levelo://app?vid=772088a0-7828-4f69-ba5d-0f6cdb83dec2","ios":"levelo://app?vid=772088a0-7828-4f69-ba5d-0f6cdb83dec2"},"vehicle_type_id":"4","last_reported":1727856723,"current_range_meters":6800,"station_id":"","pricing_plan_id":"cebpf4jnsgd1na2vs0mg"},{"bike_id":"0dad6516-32e3-46dc-9057-c5549d49ac6a","system_id":"levelo_inurba_marseille","lat":43.28266,"lon":5.35061,"is_reserved":false,"is_disabled":false,"rental_uris":{"android":"levelo://app?vid=0dad6516-32e3-46dc-9057-c5549d49ac6a","ios":"levelo://app?vid=0dad6516-32e3-46dc-9057-c5549d49ac6a"},"vehicle_type_id":"4","last_reported":1727856723,"current_range_meters":29600,"station_id":"ce4bhbp2rcd13ifvqerg","pricing_plan_id":"cebpf4jnsgd1na2vs0mg"},{"bike_id":"7a7e4978-023c-4125-ae1e-54a889e3191f","system_id":"levelo_inurba_marseille","lat":43.30562,"lon":5.36544,"is_reserved":false,"is_disabled":false,"rental_uris":{"android":"levelo://app?vid=7a7e4978-023c-4125-ae1e-54a889e3191f","ios":"levelo://app?vid=7a7e4978-023c-4125-ae1e-54a889e3191f"},"vehicle_type_id":"4","last_reported":1727856723,"current_range_meters":24000,"station_id":"ce4bgs12rcd13ifvqcag","pricing_plan_id":"cebpf4jnsgd1na2vs0mg"},{"bike_id":"cd385f71-7ba5-497a-9c21-e01e06c76d4e","system_id":"levelo_inurba_marseille","lat":43.32033,"lon":5.41556,"is_reserved":false,"is_disabled":false,"rental_uris":{"android":"levelo://app?vid=cd385f71-7ba5-497a-9c21-e01e06c76d4e","ios":"levelo://app?vid=cd385f71-7ba5-497a-9c21-e01e06c76d4e"},"vehicle_type_id":"4","last_reported":1727856723,"current_range_meters":10000,"station_id":"ce4bhq92rcd13ifvqhkg","pricing_plan_id":"cebpf4jnsgd1na2vs0mg"},{"bike_id":"4b1d2441-b9a5-4aff-adfb-da193343efe2","system_id":"levelo_inurba_marseille","lat":43.3091,"lon":5.36856,"is_reserved":false,"is_disabled":false,"rental_uris":{"android":"levelo://app?vid=4b1d2441-b9a5-4aff-adfb-da193343efe2","ios":"levelo://app?vid=4b1d2441-b9a5-4aff-adfb-da193343efe2"},"vehicle_type_id":"4","last_reported":1727856723,"current_range_meters":28400,"station_id":"ce4bgn92rcd13ifvqbvg","pricing_plan_id":"cebpf4jnsgd1na2vs0mg"},{"bike_id":"177513a6-4015-4f91-9e0d-a8eeaee3df8e","system_id":"levelo_inurba_marseille","lat":43.320312,"lon":5.415504,"is_reserved":false,"is_disabled":false,"rental_uris":{"android":"levelo://app?vid=177513a6-4015-4f91-9e0d-a8eeaee3df8e","ios":"levelo://app?vid=177513a6-4015-4f91-9e0d-a8eeaee3df8e"},"vehicle_type_id":"4","last_reported":1727856723,"current_range_meters":34800,"station_id":"ce4bhq92rcd13ifvqhkg","pricing_plan_id":"cebpf4jnsgd1na2vs0mg"},{"bike_id":"a10111c3-8847-4b6c-9a48-ee4805539751","system_id":"levelo_inurba_marseille","lat":43.29773,"lon":5.37097,"is_reserved":false,"is_disabled":false,"rental_uris":{"android":"levelo://app?vid=a10111c3-8847-4b6c-9a48-ee4805539751","ios":"levelo://app?vid=a10111c3-8847-4b6c-9a48-ee4805539751"},"vehicle_type_id":"4","last_reported":1727856723,"current_range_meters":25600,"station_id":"ce4bgop2rcd13ifvqc1g","pricing_plan_id":"cebpf4jnsgd1na2vs0mg"},{"bike_id":"f2eafe04-603e-4fb0-8676-42d468e4f953","system_id":"levelo_inurba_marseille","lat":43.33757,"lon":5.37453,"is_reserved":false,"is_disabled":false,"rental_uris":{"android":"levelo://app?vid=f2eafe04-603e-4fb0-8676-42d468e4f953","ios":"levelo://app?vid=f2eafe04-603e-4fb0-8676-42d468e4f953"},"vehicle_type_id":"4","last_reported":1727856723,"current_range_meters":38800,"station_id":"","pricing_plan_id":"cebpf4jnsgd1na2vs0mg"},{"bike_id":"e354e395-0ac5-40ec-9397-6d99866c7f31","system_id":"levelo_inurba_marseille","lat":43.3376,"lon":5.37468,"is_reserved":false,"is_disabled":false,"rental_uris":{"android":"levelo://app?vid=e354e395-0ac5-40ec-9397-6d99866c7f31","ios":"levelo://app?vid=e354e395-0ac5-40ec-9397-6d99866c7f31"},"vehicle_type_id":"4","last_reported":1727856723,"current_range_meters":23200,"station_id":"","pricing_plan_id":"cebpf4jnsgd1na2vs0mg"},{"bike_id":"82629651-f3f6-4e9b-971d-0a40fe1449ba","system_id":"levelo_inurba_marseille","lat":43.28152,"lon":5.42647,"is_reserved":false,"is_disabled":false,"rental_uris":{"android":"levelo://app?vid=82629651-f3f6-4e9b-971d-0a40fe1449ba","ios":"levelo://app?vid=82629651-f3f6-4e9b-971d-0a40fe1449ba"},"vehicle_type_id":"4","last_reported":1727856723,"current_range_meters":38400,"station_id":"ce4bhnh2rcd13ifvqgug","pricing_plan_id":"cebpf4jnsgd1na2vs0mg"},{"bike_id":"f74b94bd-4df2-44d7-a73b-0c0ff17290b9","system_id":"levelo_inurba_marseille","lat":43.34143,"lon":5.40897,"is_reserved":false,"is_disabled":false,"rental_uris":{"android":"levelo://app?vid=f74b94bd-4df2-44d7-a73b-0c0ff17290b9","ios":"levelo://app?vid=f74b94bd-4df2-44d7-a73b-0c0ff17290b9"},"vehicle_type_id":"4","last_reported":1727856723,"current_range_meters":11600,"station_id":"ce4bhqh2rcd13ifvqhlg","pricing_plan_id":"cebpf4jnsgd1na2vs0mg"},{"bike_id":"28378b31-7d41-44a5-ae65-b499de808787","system_id":"levelo_inurba_marseille","lat":43.24074,"lon":5.37762,"is_reserved":false,"is_disabled":false,"rental_uris":{"android":"levelo://app?vid=28378b31-7d41-44a5-ae65-b499de808787","ios":"levelo://app?vid=28378b31-7d41-44a5-ae65-b499de808787"},"vehicle_type_id":"4","last_reported":1727856723,"current_range_meters":35600,"station_id":"ce4bhnp2rcd13ifvqgvg","pricing_plan_id":"cebpf4jnsgd1na2vs0mg"},{"bike_id":"add781af-0cf3-46ce-863c-7095763a58e7","system_id":"levelo_inurba_marseille","lat":43.28617,"lon":5.35108,"is_reserved":false,"is_disabled":false,"rental_uris":{"android":"levelo://app?vid=add781af-0cf3-46ce-863c-7095763a58e7","ios":"levelo://app?vid=add781af-0cf3-46ce-863c-7095763a58e7"},"vehicle_type_id":"4","last_reported":1727856723,"current_range_meters":22800,"station_id":"ce4bhch2rcd13ifvqeug","pricing_plan_id":"cebpf4jnsgd1na2vs0mg"},{"bike_id":"ae8fe54b-0758-4598-a3a6-368c8971129e","system_id":"levelo_inurba_marseille","lat":43.30555,"lon":5.36558,"is_reserved":false,"is_disabled":false,"rental_uris":{"android":"levelo://app?vid=ae8fe54b-0758-4598-a3a6-368c8971129e","ios":"levelo://app?vid=ae8fe54b-0758-4598-a3a6-368c8971129e"},"vehicle_type_id":"4","last_reported":1727856723,"current_range_meters":28800,"station_id":"ce4bgs12rcd13ifvqcag","pricing_plan_id":"cebpf4jnsgd1na2vs0mg"},{"bike_id":"6eba1abc-2435-44ab-ba81-b10227bea0da","system_id":"levelo_inurba_marseille","lat":43.24078,"lon":5.37755,"is_reserved":false,"is_disabled":false,"rental_uris":{"android":"levelo://app?vid=6eba1abc-2435-44ab-ba81-b10227bea0da","ios":"levelo://app?vid=6eba1abc-2435-44ab-ba81-b10227bea0da"},"vehicle_type_id":"4","last_reported":1727856723,"current_range_meters":16000,"station_id":"ce4bhnp2rcd13ifvqgvg","pricing_plan_id":"cebpf4jnsgd1na2vs0mg"},{"bike_id":"cec15b1f-3dd5-4b35-876e-5e2f0bee5d3b","system_id":"levelo_inurba_marseille","lat":43.30272,"lon":5.37695,"is_reserved":false,"is_disabled":false,"rental_uris":{"android":"levelo://app?vid=cec15b1f-3dd5-4b35-876e-5e2f0bee5d3b","ios":"levelo://app?vid=cec15b1f-3dd5-4b35-876e-5e2f0bee5d3b"},"vehicle_type_id":"4","last_reported":1727856723,"current_range_meters":24000,"station_id":"ce4bguh2rcd13ifvqcj0","pricing_plan_id":"cebpf4jnsgd1na2vs0mg"},{"bike_id":"d0f3ba74-2db6-4276-a970-d6d9e934005a","system_id":"levelo_inurba_marseille","lat":43.3371,"lon":5.39173,"is_reserved":false,"is_disabled":false,"rental_uris":{"android":"levelo://app?vid=d0f3ba74-2db6-4276-a970-d6d9e934005a","ios":"levelo://app?vid=d0f3ba74-2db6-4276-a970-d6d9e934005a"},"vehicle_type_id":"4","last_reported":1727856723,"current_range_meters":38800,"station_id":"ce4bhr92rcd13ifvqhsg","pricing_plan_id":"cebpf4jnsgd1na2vs0mg"},{"bike_id":"890f96ea-eda5-427c-858e-9a917a74f5c2","system_id":"levelo_inurba_marseille","lat":43.26064,"lon":5.39391,"is_reserved":false,"is_disabled":false,"rental_uris":{"android":"levelo://app?vid=890f96ea-eda5-427c-858e-9a917a74f5c2","ios":"levelo://app?vid=890f96ea-eda5-427c-858e-9a917a74f5c2"},"vehicle_type_id":"4","last_reported":1727856723,"current_range_meters":8000,"station_id":"ce4bhh92rcd13ifvqfj0","pricing_plan_id":"cebpf4jnsgd1na2vs0mg"},{"bike_id":"a2ba7602-9b90-45c6-8d5a-66c0710e2f94","system_id":"levelo_inurba_marseille","lat":43.33607,"lon":5.41025,"is_reserved":false,"is_disabled":false,"rental_uris":{"android":"levelo://app?vid=a2ba7602-9b90-45c6-8d5a-66c0710e2f94","ios":"levelo://app?vid=a2ba7602-9b90-45c6-8d5a-66c0710e2f94"},"vehicle_type_id":"4","last_reported":1727856723,"current_range_meters":24400,"station_id":"ce4bhqh2rcd13ifvqhmg","pricing_plan_id":"cebpf4jnsgd1na2vs0mg"},{"bike_id":"0ff27e27-d297-4868-830a-583b86c93763","system_id":"levelo_inurba_marseille","lat":43.30282,"lon":5.37695,"is_reserved":false,"is_disabled":false,"rental_uris":{"android":"levelo://app?vid=0ff27e27-d297-4868-830a-583b86c93763","ios":"levelo://app?vid=0ff27e27-d297-4868-830a-583b86c93763"},"vehicle_type_id":"4","last_reported":1727856723,"current_range_meters":38800,"station_id":"ce4bguh2rcd13ifvqcj0","pricing_plan_id":"cebpf4jnsgd1na2vs0mg"},{"bike_id":"4c89d107-9cae-47c1-b266-4e03639ac9e3","system_id":"levelo_inurba_marseille","lat":43.25825,"lon":5.39438,"is_reserved":false,"is_disabled":false,"rental_uris":{"android":"levelo://app?vid=4c89d107-9cae-47c1-b266-4e03639ac9e3","ios":"levelo://app?vid=4c89d107-9cae-47c1-b266-4e03639ac9e3"},"vehicle_type_id":"4","last_reported":1727856723,"current_range_meters":14400,"station_id":"ce4bhip2rcd13ifvqft0","pricing_plan_id":"cebpf4jnsgd1na2vs0mg"},{"bike_id":"f7f1f8df-12fc-4e27-9e2e-261635c28839","system_id":"levelo_inurba_marseille","lat":43.3136,"lon":5.36722,"is_reserved":false,"is_disabled":false,"rental_uris":{"android":"levelo://app?vid=f7f1f8df-12fc-4e27-9e2e-261635c28839","ios":"levelo://app?vid=f7f1f8df-12fc-4e27-9e2e-261635c28839"},"vehicle_type_id":"4","last_reported":1727856723,"current_range_meters":28000,"station_id":"ce4bgr92rcd13ifvqc6g","pricing_plan_id":"cebpf4jnsgd1na2vs0mg"},{"bike_id":"e81cef68-ecc8-4fe9-a400-7c4a2a76b1ec","system_id":"levelo_inurba_marseille","lat":43.27206,"lon":5.39181,"is_reserved":false,"is_disabled":false,"rental_uris":{"android":"levelo://app?vid=e81cef68-ecc8-4fe9-a400-7c4a2a76b1ec","ios":"levelo://app?vid=e81cef68-ecc8-4fe9-a400-7c4a2a76b1ec"},"vehicle_type_id":"4","last_reported":1727856723,"current_range_meters":39200,"station_id":"ce4bhhp2rcd13ifvqfm0","pricing_plan_id":"cebpf4jnsgd1na2vs0mg"},{"bike_id":"3eb79290-9372-4679-b6ca-b6733b82cfe9","system_id":"levelo_inurba_marseille","lat":43.31222,"lon":5.36852,"is_reserved":false,"is_disabled":false,"rental_uris":{"android":"levelo://app?vid=3eb79290-9372-4679-b6ca-b6733b82cfe9","ios":"levelo://app?vid=3eb79290-9372-4679-b6ca-b6733b82cfe9"},"vehicle_type_id":"4","last_reported":1727856723,"current_range_meters":38800,"station_id":"ce4bgl92rcd13ifvqbq0","pricing_plan_id":"cebpf4jnsgd1na2vs0mg"},{"bike_id":"78f543d4-4f9f-4b4c-860d-cf018ade7f2d","system_id":"levelo_inurba_marseille","lat":43.26777,"lon":5.39416,"is_reserved":false,"is_disabled":false,"rental_uris":{"android":"levelo://app?vid=78f543d4-4f9f-4b4c-860d-cf018ade7f2d","ios":"levelo://app?vid=78f543d4-4f9f-4b4c-860d-cf018ade7f2d"},"vehicle_type_id":"4","last_reported":1727856723,"current_range_meters":2800,"station_id":"ce4bhh12rcd13ifvqfg0","pricing_plan_id":"cebpf4jnsgd1na2vs0mg"},{"bike_id":"26910d4e-dfca-45c5-9dfb-228d098ca3b4","system_id":"levelo_inurba_marseille","lat":43.31357,"lon":5.36712,"is_reserved":false,"is_disabled":false,"rental_uris":{"android":"levelo://app?vid=26910d4e-dfca-45c5-9dfb-228d098ca3b4","ios":"levelo://app?vid=26910d4e-dfca-45c5-9dfb-228d098ca3b4"},"vehicle_type_id":"4","last_reported":1727856723,"current_range_meters":30800,"station_id":"ce4bgr92rcd13ifvqc6g","pricing_plan_id":"cebpf4jnsgd1na2vs0mg"},{"bike_id":"ad958f04-7f0b-4f7e-a49e-8892da171767","system_id":"levelo_inurba_marseille","lat":43.25586,"lon":5.38228,"is_reserved":false,"is_disabled":false,"rental_uris":{"android":"levelo://app?vid=ad958f04-7f0b-4f7e-a49e-8892da171767","ios":"levelo://app?vid=ad958f04-7f0b-4f7e-a49e-8892da171767"},"vehicle_type_id":"4","last_reported":1727856723,"current_range_meters":37600,"station_id":"ce4bhih2rcd13ifvqfs0","pricing_plan_id":"cebpf4jnsgd1na2vs0mg"},{"bike_id":"d4d93ace-430d-4f0d-be51-5194434b7330","system_id":"levelo_inurba_marseille","lat":43.2408,"lon":5.37745,"is_reserved":false,"is_disabled":false,"rental_uris":{"android":"levelo://app?vid=d4d93ace-430d-4f0d-be51-5194434b7330","ios":"levelo://app?vid=d4d93ace-430d-4f0d-be51-5194434b7330"},"vehicle_type_id":"4","last_reported":1727856723,"current_range_meters":36000,"station_id":"ce4bhnp2rcd13ifvqgvg","pricing_plan_id":"cebpf4jnsgd1na2vs0mg"},{"bike_id":"c546708d-ab03-4bef-84fb-2920175ec1cf","system_id":"levelo_inurba_marseille","lat":43.29965,"lon":5.37194,"is_reserved":false,"is_disabled":false,"rental_uris":{"android":"levelo://app?vid=c546708d-ab03-4bef-84fb-2920175ec1cf","ios":"levelo://app?vid=c546708d-ab03-4bef-84fb-2920175ec1cf"},"vehicle_type_id":"4","last_reported":1727856723,"current_range_meters":30400,"station_id":"ce4bgr92rcd13ifvqc7g","pricing_plan_id":"cebpf4jnsgd1na2vs0mg"},{"bike_id":"c654116a-ff28-4bbd-b206-05e82b5d220c","system_id":"levelo_inurba_marseille","lat":43.29714,"lon":5.37699,"is_reserved":false,"is_disabled":false,"rental_uris":{"android":"levelo://app?vid=c654116a-ff28-4bbd-b206-05e82b5d220c","ios":"levelo://app?vid=c654116a-ff28-4bbd-b206-05e82b5d220c"},"vehicle_type_id":"4","last_reported":1727856723,"current_range_meters":17600,"station_id":"ce4bgkh2rcd13ifvqbl0","pricing_plan_id":"cebpf4jnsgd1na2vs0mg"},{"bike_id":"6bc87502-6a3b-47e0-893f-d2d751cfe6ff","system_id":"levelo_inurba_marseille","lat":43.27495,"lon":5.42471,"is_reserved":false,"is_disabled":false,"rental_uris":{"android":"levelo://app?vid=6bc87502-6a3b-47e0-893f-d2d751cfe6ff","ios":"levelo://app?vid=6bc87502-6a3b-47e0-893f-d2d751cfe6ff"},"vehicle_type_id":"4","last_reported":1727856723,"current_range_meters":11600,"station_id":"ce4bhn92rcd13ifvqgrg","pricing_plan_id":"cebpf4jnsgd1na2vs0mg"},{"bike_id":"0a0cbae5-c99e-4be0-9d10-cb80492b8d0e","system_id":"levelo_inurba_marseille","lat":43.31226,"lon":5.36878,"is_reserved":false,"is_disabled":false,"rental_uris":{"android":"levelo://app?vid=0a0cbae5-c99e-4be0-9d10-cb80492b8d0e","ios":"levelo://app?vid=0a0cbae5-c99e-4be0-9d10-cb80492b8d0e"},"vehicle_type_id":"4","last_reported":1727856723,"current_range_meters":6000,"station_id":"ce4bgl92rcd13ifvqbq0","pricing_plan_id":"cebpf4jnsgd1na2vs0mg"},{"bike_id":"e98c0252-3a00-4967-810f-e4e03a982ab6","system_id":"levelo_inurba_marseille","lat":43.30301,"lon":5.36883,"is_reserved":false,"is_disabled":false,"rental_uris":{"android":"levelo://app?vid=e98c0252-3a00-4967-810f-e4e03a982ab6","ios":"levelo://app?vid=e98c0252-3a00-4967-810f-e4e03a982ab6"},"vehicle_type_id":"4","last_reported":1727856723,"current_range_meters":38800,"station_id":"ce4bgqh2rcd13ifvqc5g","pricing_plan_id":"cebpf4jnsgd1na2vs0mg"},{"bike_id":"86b9ce2f-9e5d-468e-b738-0d4d63494e0e","system_id":"levelo_inurba_marseille","lat":43.30463,"lon":5.37898,"is_reserved":false,"is_disabled":false,"rental_uris":{"android":"levelo://app?vid=86b9ce2f-9e5d-468e-b738-0d4d63494e0e","ios":"levelo://app?vid=86b9ce2f-9e5d-468e-b738-0d4d63494e0e"},"vehicle_type_id":"4","last_reported":1727856723,"current_range_meters":25600,"station_id":"ce4bgup2rcd13ifvqcn0","pricing_plan_id":"cebpf4jnsgd1na2vs0mg"},{"bike_id":"5084d4e8-22d7-4248-aec8-4997331ff1e0","system_id":"levelo_inurba_marseille","lat":43.22924,"lon":5.35375,"is_reserved":false,"is_disabled":false,"rental_uris":{"android":"levelo://app?vid=5084d4e8-22d7-4248-aec8-4997331ff1e0","ios":"levelo://app?vid=5084d4e8-22d7-4248-aec8-4997331ff1e0"},"vehicle_type_id":"4","last_reported":1727856723,"current_range_meters":39200,"station_id":"cpo3532slgdg3j2ikp40","pricing_plan_id":"cebpf4jnsgd1na2vs0mg"},{"bike_id":"4b00bf19-3ccd-42aa-a58e-5be624727ea2","system_id":"levelo_inurba_marseille","lat":43.24172,"lon":5.39734,"is_reserved":false,"is_disabled":false,"rental_uris":{"android":"levelo://app?vid=4b00bf19-3ccd-42aa-a58e-5be624727ea2","ios":"levelo://app?vid=4b00bf19-3ccd-42aa-a58e-5be624727ea2"},"vehicle_type_id":"4","last_reported":1727856723,"current_range_meters":33200,"station_id":"ce4bhn12rcd13ifvqgpg","pricing_plan_id":"cebpf4jnsgd1na2vs0mg"},{"bike_id":"962d3aff-43fc-4a7f-8b69-d05d330f2252","system_id":"levelo_inurba_marseille","lat":43.30541,"lon":5.36708,"is_reserved":false,"is_disabled":false,"rental_uris":{"android":"levelo://app?vid=962d3aff-43fc-4a7f-8b69-d05d330f2252","ios":"levelo://app?vid=962d3aff-43fc-4a7f-8b69-d05d330f2252"},"vehicle_type_id":"4","last_reported":1727856723,"current_range_meters":13600,"station_id":"ce4bgrp2rcd13ifvqc9g","pricing_plan_id":"cebpf4jnsgd1na2vs0mg"},{"bike_id":"469d532c-dbf9-45ee-a0c7-1f6487a4aed7","system_id":"levelo_inurba_marseille","lat":43.29263,"lon":5.38422,"is_reserved":false,"is_disabled":false,"rental_uris":{"android":"levelo://app?vid=469d532c-dbf9-45ee-a0c7-1f6487a4aed7","ios":"levelo://app?vid=469d532c-dbf9-45ee-a0c7-1f6487a4aed7"},"vehicle_type_id":"4","last_reported":1727856723,"current_range_meters":38400,"station_id":"ce4bh692rcd13ifvqea0","pricing_plan_id":"cebpf4jnsgd1na2vs0mg"},{"bike_id":"68fbe977-0cd5-4564-8f23-a8c2e9bcb77d","system_id":"levelo_inurba_marseille","lat":43.30316,"lon":5.36904,"is_reserved":false,"is_disabled":false,"rental_uris":{"android":"levelo://app?vid=68fbe977-0cd5-4564-8f23-a8c2e9bcb77d","ios":"levelo://app?vid=68fbe977-0cd5-4564-8f23-a8c2e9bcb77d"},"vehicle_type_id":"4","last_reported":1727856723,"current_range_meters":36000,"station_id":"ce4bgqh2rcd13ifvqc5g","pricing_plan_id":"cebpf4jnsgd1na2vs0mg"},{"bike_id":"1ff25818-eb7e-422d-89f7-555e33383208","system_id":"levelo_inurba_marseille","lat":43.3014,"lon":5.37419,"is_reserved":false,"is_disabled":false,"rental_uris":{"android":"levelo://app?vid=1ff25818-eb7e-422d-89f7-555e33383208","ios":"levelo://app?vid=1ff25818-eb7e-422d-89f7-555e33383208"},"vehicle_type_id":"4","last_reported":1727856723,"current_range_meters":37600,"station_id":"ce4bgs92rcd13ifvqcc0","pricing_plan_id":"cebpf4jnsgd1na2vs0mg"},{"bike_id":"f7d09901-c089-4d3d-917e-e2b79c155b54","system_id":"levelo_inurba_marseille","lat":43.31364,"lon":5.38491,"is_reserved":false,"is_disabled":false,"rental_uris":{"android":"levelo://app?vid=f7d09901-c089-4d3d-917e-e2b79c155b54","ios":"levelo://app?vid=f7d09901-c089-4d3d-917e-e2b79c155b54"},"vehicle_type_id":"4","last_reported":1727856723,"current_range_meters":24400,"station_id":"ce4bgt92rcd13ifvqcf0","pricing_plan_id":"cebpf4jnsgd1na2vs0mg"},{"bike_id":"9f7961ea-681b-442d-b456-bc5f72af8b58","system_id":"levelo_inurba_marseille","lat":43.33611,"lon":5.41023,"is_reserved":false,"is_disabled":false,"rental_uris":{"android":"levelo://app?vid=9f7961ea-681b-442d-b456-bc5f72af8b58","ios":"levelo://app?vid=9f7961ea-681b-442d-b456-bc5f72af8b58"},"vehicle_type_id":"4","last_reported":1727856723,"current_range_meters":34000,"station_id":"ce4bhqh2rcd13ifvqhmg","pricing_plan_id":"cebpf4jnsgd1na2vs0mg"},{"bike_id":"2a967336-3328-4e48-a435-bf7a1d464584","system_id":"levelo_inurba_marseille","lat":43.30915,"lon":5.36843,"is_reserved":false,"is_disabled":false,"rental_uris":{"android":"levelo://app?vid=2a967336-3328-4e48-a435-bf7a1d464584","ios":"levelo://app?vid=2a967336-3328-4e48-a435-bf7a1d464584"},"vehicle_type_id":"4","last_reported":1727856723,"current_range_meters":15200,"station_id":"ce4bgn92rcd13ifvqbvg","pricing_plan_id":"cebpf4jnsgd1na2vs0mg"},{"bike_id":"849785e9-3354-451b-a4b8-9dfecd3e3883","system_id":"levelo_inurba_marseille","lat":43.2668,"lon":5.38275,"is_reserved":false,"is_disabled":false,"rental_uris":{"android":"levelo://app?vid=849785e9-3354-451b-a4b8-9dfecd3e3883","ios":"levelo://app?vid=849785e9-3354-451b-a4b8-9dfecd3e3883"},"vehicle_type_id":"4","last_reported":1727856723,"current_range_meters":38800,"station_id":"ce4bhg92rcd13ifvqf90","pricing_plan_id":"cebpf4jnsgd1na2vs0mg"},{"bike_id":"9a01dcf8-5ed8-4767-a4ab-43252d05c561","system_id":"levelo_inurba_marseille","lat":43.25929,"lon":5.40898,"is_reserved":false,"is_disabled":false,"rental_uris":{"android":"levelo://app?vid=9a01dcf8-5ed8-4767-a4ab-43252d05c561","ios":"levelo://app?vid=9a01dcf8-5ed8-4767-a4ab-43252d05c561"},"vehicle_type_id":"4","last_reported":1727856723,"current_range_meters":34800,"station_id":"ce4bhm92rcd13ifvqglg","pricing_plan_id":"cebpf4jnsgd1na2vs0mg"},{"bike_id":"2d04eabc-20d5-4171-9fd4-aec415b35a7b","system_id":"levelo_inurba_marseille","lat":43.30542,"lon":5.3671,"is_reserved":false,"is_disabled":false,"rental_uris":{"android":"levelo://app?vid=2d04eabc-20d5-4171-9fd4-aec415b35a7b","ios":"levelo://app?vid=2d04eabc-20d5-4171-9fd4-aec415b35a7b"},"vehicle_type_id":"4","last_reported":1727856723,"current_range_meters":37600,"station_id":"ce4bgrp2rcd13ifvqc9g","pricing_plan_id":"cebpf4jnsgd1na2vs0mg"},