{"last_updated":1730995879,"ttl":60,"version":"2.2","data":{"bikes":[{"bike_id":"e8bcca23-42a0-4423-8a65-a75ab12e9cb1","system_id":"levelo_inurba_marseille","lat":43.29602,"lon":5.36751,"is_reserved":false,"is_disabled":false,"rental_uris":{"android":"levelo://app?vid=e8bcca23-42a0-4423-8a65-a75ab12e9cb1","ios":"levelo://app?vid=e8bcca23-42a0-4423-8a65-a75ab12e9cb1"},"vehicle_type_id":"4","last_reported":1730995879,"current_range_meters":34800,"station_id":"ce4bgph2rcd13ifvqc2g","pricing_plan_id":"cebpf4jnsgd1na2vs0mg"},{"bike_id":"4ab8cba0-ba1a-4004-abf6-1a419f6c4a71","system_id":"levelo_inurba_marseille","lat":43.32658,"lon":5.41002,"is_reserved":false,"is_disabled":false,"rental_uris":{"android":"levelo://app?vid=4ab8cba0-ba1a-4004-abf6-1a419f6c4a71","ios":"levelo://app?vid=4ab8cba0-ba1a-4004-abf6-1a419f6c4a71"},"vehicle_type_id":"4","last_reported":1730995879,"current_range_meters":38800,"station_id":"ce4bhpp2rcd13ifvqhgg","pricing_plan_id":"cebpf4jnsgd1na2vs0mg"},{"bike_id":"50e99082-7d21-4908-a76c-85dc17e9cce1","system_id":"levelo_inurba_marseille","lat":43.29417,"lon":5.38608,"is_reserved":false,"is_disabled":false,"rental_uris":{"android":"levelo://app?vid=50e99082-7d21-4908-a76c-85dc17e9cce1","ios":"levelo://app?vid=50e99082-7d21-4908-a76c-85dc17e9cce1"},"vehicle_type_id":"4","last_reported":1730995879,"current_range_meters":38800,"station_id":"ce4bh2h2rcd13ifvqdh0","pricing_plan_id":"cebpf4jnsgd1na2vs0mg"},{"bike_id":"1ae848d8-67a0-488b-8367-38ae172279f6","system_id":"levelo_inurba_marseille","lat":43.31178,"lon":5.38736,"is_reserved":false,"is_disabled":false,"rental_uris":{"android":"levelo://app?vid=1ae848d8-67a0-488b-8367-38ae172279f6","ios":"levelo://app?vid=1ae848d8-67a0-488b-8367-38ae172279f6"},"vehicle_type_id":"4","last_reported":1730995879,"current_range_meters":35600,"station_id":"ce4bgv12rcd13ifvqcp0","pricing_plan_id":"cebpf4jnsgd1na2vs0mg"},{"bike_id":"40dd4257-d6e7-454b-ba60-8d003c5e1cfc","system_id":"levelo_inurba_marseille","lat":43.30888,"lon":5.39658,"is_reserved":false,"is_disabled":false,"rental_uris":{"android":"levelo://app?vid=40dd4257-d6e7-454b-ba60-8d003c5e1cfc","ios":"levelo://app?vid=40dd4257-d6e7-454b-ba60-8d003c5e1cfc"},"vehicle_type_id":"4","last_reported":1730995879,"current_range_meters":22400,"station_id":"ce4bh012rcd13ifvqcv0","pricing_plan_id":"cebpf4jnsgd1na2vs0mg"},{"bike_id":"1df4d711-4ca5-4e4f-8f9c-e7732e3d0984","system_id":"levelo_inurba_marseille","lat":43.29783,"lon":5.37119,"is_reserved":false,"is_disabled":false,"rental_uris":{"android":"levelo://app?vid=1df4d711-4ca5-4e4f-8f9c-e7732e3d0984","ios":"levelo://app?vid=1df4d711-4ca5-4e4f-8f9c-e7732e3d0984"},"vehicle_type_id":"4","last_reported":1730995879,"current_range_meters":28400,"station_id":"ce4bgop2rcd13ifvqc1g","pricing_plan_id":"cebpf4jnsgd1na2vs0mg"},{"bike_id":"b2116663-67b9-426e-a75d-ed0e97e6dcbc","system_id":"levelo_inurba_marseille","lat":43.29626,"lon":5.37174,"is_reserved":false,"is_disabled":false,"rental_uris":{"android":"levelo://app?vid=b2116663-67b9-426e-a75d-ed0e97e6dcbc","ios":"levelo://app?vid=b2116663-67b9-426e-a75d-ed0e97e6dcbc"},"vehicle_type_id":"4","last_reported":1730995879,"current_range_meters":38800,"station_id":"ce4bgnh2rcd13ifvqc0g","pricing_plan_id":"cebpf4jnsgd1na2vs0mg"},{"bike_id":"1d643b23-b850-4727-956b-15bc1ab14972","system_id":"levelo_inurba_marseille","lat":43.31759,"lon":5.39022,"is_reserved":false,"is_disabled":false,"rental_uris":{"android":"levelo://app?vid=1d643b23-b850-4727-956b-15bc1ab14972","ios":"levelo://app?vid=1d643b23-b850-4727-956b-15bc1ab14972"},"vehicle_type_id":"4","last_reported":1730995879,"current_range_meters":20000,"station_id":"ce4bhqp2rcd13ifvqhng","pricing_plan_id":"cebpf4jnsgd1na2vs0mg"},{"bike_id":"a96985a1-dde2-4b71-8ed9-7a1eaf3979d0","system_id":"levelo_inurba_marseille","lat":43.30645,"lon":5.40087,"is_reserved":false,"is_disabled":false,"rental_uris":{"android":"levelo://app?vid=a96985a1-dde2-4b71-8ed9-7a1eaf3979d0","ios":"levelo://app?vid=a96985a1-dde2-4b71-8ed9-7a1eaf3979d0"},"vehicle_type_id":"4","last_reported":1730995879,"current_range_meters":4000,"station_id":"ce4bh112rcd13ifvqda0","pricing_plan_id":"cebpf4jnsgd1na2vs0mg"},{"bike_id":"6441f0a6-ca90-4a7b-aa82-358330e3e383","system_id":"levelo_inurba_marseille","lat":43.26804,"lon":5.4028,"is_reserved":false,"is_disabled":false,"rental_uris":{"android":"levelo://app?vid=6441f0a6-ca90-4a7b-aa82-358330e3e383","ios":"levelo://app?vid=6441f0a6-ca90-4a7b-aa82-358330e3e383"},"vehicle_type_id":"4","last_reported":1730995879,"current_range_meters":4400,"station_id":"ce501612rcd8frsf0b60","pricing_plan_id":"cebpf4jnsgd1na2vs0mg"},{"bike_id":"e01ec499-3281-44fd-92a1-078ff288a572","system_id":"levelo_inurba_marseille","lat":43.26196,"lon":5.37453,"is_reserved":false,"is_disabled":false,"rental_uris":{"android":"levelo://app?vid=e01ec499-3281-44fd-92a1-078ff288a572","ios":"levelo://app?vid=e01ec499-3281-44fd-92a1-078ff288a572"},"vehicle_type_id":"4","last_reported":1730995879,"current_range_meters":23200,"station_id":"ce4bhgp2rcd13ifvqfc0","pricing_plan_id":"cebpf4jnsgd1na2vs0mg"},{"bike_id":"9bf93cee-9ed1-421e-a295-64aec9decdf8","system_id":"levelo_inurba_marseille","lat":43.30128,"lon":5.39869,"is_reserved":false,"is_disabled":false,"rental_uris":{"android":"levelo://app?vid=9bf93cee-9ed1-421e-a295-64aec9decdf8","ios":"levelo://app?vid=9bf93cee-9ed1-421e-a295-64aec9decdf8"},"vehicle_type_id":"4","last_reported":1730995879,"current_range_meters":28400,"station_id":"ce4bh0h2rcd13ifvqd40","pricing_plan_id":"cebpf4jnsgd1na2vs0mg"},{"bike_id":"efd7ed38-f60d-4f3a-b781-d30434b3b06e","system_id":"levelo_inurba_marseille","lat":43.26505,"lon":5.39508,"is_reserved":false,"is_disabled":false,"rental_uris":{"android":"levelo://app?vid=efd7ed38-f60d-4f3a-b781-d30434b3b06e","ios":"levelo://app?vid=efd7ed38-f60d-4f3a-b781-d30434b3b06e"},"vehicle_type_id":"4","last_reported":1730995879,"current_range_meters":26000,"station_id":"ce4bhi12rcd13ifvqfq0","pricing_plan_id":"cebpf4jnsgd1na2vs0mg"},{"bike_id":"4adda0c7-417b-490d-9b7a-9a6c24a67624","system_id":"levelo_inurba_marseille","lat":43.31318,"lon":5.39727,"is_reserved":false,"is_disabled":false,"rental_uris":{"android":"levelo://app?vid=4adda0c7-417b-490d-9b7a-9a6c24a67624","ios":"levelo://app?vid=4adda0c7-417b-490d-9b7a-9a6c24a67624"},"vehicle_type_id":"4","last_reported":1730995879,"current_range_meters":6400,"station_id":"ce4bgvp2rcd13ifvqcu0","pricing_plan_id":"cebpf4jnsgd1na2vs0mg"},{"bike_id":"bcf5dad1-721a-4f4e-82b2-15a9cc44926f","system_id":"levelo_inurba_marseille","lat":43.33776,"lon":5.37438,"is_reserved":false,"is_disabled":false,"rental_uris":{"android":"levelo://app?vid=bcf5dad1-721a-4f4e-82b2-15a9cc44926f","ios":"levelo://app?vid=bcf5dad1-721a-4f4e-82b2-15a9cc44926f"},"vehicle_type_id":"4","last_reported":1730995879,"current_range_meters":35200,"station_id":"","pricing_plan_id":"cebpf4jnsgd1na2vs0mg"},{"bike_id":"c09c6390-21e4-4164-9b4f-3a9d29e9eb77","system_id":"levelo_inurba_marseille","lat":43.25088,"lon":5.39533,"is_reserved":false,"is_disabled":false,"rental_uris":{"android":"levelo://app?vid=c09c6390-21e4-4164-9b4f-3a9d29e9eb77","ios":"levelo://app?vid=c09c6390-21e4-4164-9b4f-3a9d29e9eb77"},"vehicle_type_id":"4","last_reported":1730995879,"current_range_meters":9600,"station_id":"ce4bhm12rcd13ifvqgkg","pricing_plan_id":"cebpf4jnsgd1na2vs0mg"},{"bike_id":"217dd2da-6961-4ebe-9066-d0a7de2fd099","system_id":"levelo_inurba_marseille","lat":43.29417,"lon":5.38632,"is_reserved":false,"is_disabled":false,"rental_uris":{"android":"levelo://app?vid=217dd2da-6961-4ebe-9066-d0a7de2fd099","ios":"levelo://app?vid=217dd2da-6961-4ebe-9066-d0a7de2fd099"},"vehicle_type_id":"4","last_reported":1730995879,"current_range_meters":5600,"station_id":"ce4bh2h2rcd13ifvqdh0","pricing_plan_id":"cebpf4jnsgd1na2vs0mg"},{"bike_id":"da8bcc45-cf74-49fc-a22f-443dd751586d","system_id":"levelo_inurba_marseille","lat":43.30085,"lon":5.39096,"is_reserved":false,"is_disabled":false,"rental_uris":{"android":"levelo://app?vid=da8bcc45-cf74-49fc-a22f-443dd751586d","ios":"levelo://app?vid=da8bcc45-cf74-49fc-a22f-443dd751586d"},"vehicle_type_id":"4","last_reported":1730995879,"current_range_meters":39200,"station_id":"ce4bh192rcd13ifvqdb0","pricing_plan_id":"cebpf4jnsgd1na2vs0mg"},{"bike_id":"e3d21c93-3774-4d37-9b50-554ee5d0b4f1","system_id":"levelo_inurba_marseille","lat":43.29195,"lon":5.35819,"is_reserved":false,"is_disabled":false,"rental_uris":{"android":"levelo://app?vid=e3d21c93-3774-4d37-9b50-554ee5d0b4f1","ios":"levelo://app?vid=e3d21c93-3774-4d37-9b50-554ee5d0b4f1"},"vehicle_type_id":"4","last_reported":1730995879,"current_range_meters":30800,"station_id":"ce4bhb12rcd13ifvqel0","pricing_plan_id":"cebpf4jnsgd1na2vs0mg"},{"bike_id":"548c1920-0cb3-48c9-ab1f-ffccd4d03a77","system_id":"levelo_inurba_marseille","lat":43.27907,"lon":5.38018,"is_reserved":false,"is_disabled":false,"rental_uris":{"android":"levelo://app?vid=548c1920-0cb3-48c9-ab1f-ffccd4d03a77","ios":"levelo://app?vid=548c1920-0cb3-48c9-ab1f-ffccd4d03a77"},"vehicle_type_id":"4","last_reported":1730995879,"current_range_meters":39200,"station_id":"ce4bhf92rcd13ifvqf50","pricing_plan_id":"cebpf4jnsgd1na2vs0mg"},{"bike_id":"3c4b4d0c-08be-4d5b-b221-51c8e972b054","system_id":"levelo_inurba_marseille","lat":43.30533,"lon":5.36561,"is_reserved":false,"is_disabled":false,"rental_uris":{"android":"levelo://app?vid=3c4b4d0c-08be-4d5b-b221-51c8e972b054","ios":"levelo://app?vid=3c4b4d0c-08be-4d5b-b221-51c8e972b054"},"vehicle_type_id":"4","last_reported":1730995879,"current_range_meters":34000,"station_id":"ce4bgs12rcd13ifvqcag","pricing_plan_id":"cebpf4jnsgd1na2vs0mg"},{"bike_id":"a33d5825-2589-4310-8ba0-794af1000f23","system_id":"levelo_inurba_marseille","lat":43.31122,"lon":5.37769,"is_reserved":false,"is_disabled":false,"rental_uris":{"android":"levelo://app?vid=a33d5825-2589-4310-8ba0-794af1000f23","ios":"levelo://app?vid=a33d5825-2589-4310-8ba0-794af1000f23"},"vehicle_type_id":"4","last_reported":1730995879,"current_range_meters":6800,"station_id":"ce4bgt92rcd13ifvqcg0","pricing_plan_id":"cebpf4jnsgd1na2vs0mg"},{"bike_id":"0c929d59-4ee8-48b0-91fd-56a5cae97e31","system_id":"levelo_inurba_marseille","lat":43.29575,"lon":5.39991,"is_reserved":false,"is_disabled":false,"rental_uris":{"android":"levelo://app?vid=0c929d59-4ee8-48b0-91fd-56a5cae97e31","ios":"levelo://app?vid=0c929d59-4ee8-48b0-91fd-56a5cae97e31"},"vehicle_type_id":"4","last_reported":1730995879,"current_range_meters":9600,"station_id":"ce4bh312rcd13ifvqdj0","pricing_plan_id":"cebpf4jnsgd1na2vs0mg"},{"bike_id":"8a401a8a-30f9-4643-ad63-74116d1b600f","system_id":"levelo_inurba_marseille","lat":43.32482,"lon":5.36575,"is_reserved":false,"is_disabled":false,"rental_uris":{"android":"levelo://app?vid=8a401a8a-30f9-4643-ad63-74116d1b600f","ios":"levelo://app?vid=8a401a8a-30f9-4643-ad63-74116d1b600f"},"vehicle_type_id":"4","last_reported":1730995879,"current_range_meters":36000,"station_id":"ce4bhs12rcd13ifvqhvg","pricing_plan_id":"cebpf4jnsgd1na2vs0mg"},{"bike_id":"9c68575f-38af-4a90-9769-262e13521a63","system_id":"levelo_inurba_marseille","lat":43.26195,"lon":5.37455,"is_reserved":false,"is_disabled":false,"rental_uris":{"android":"levelo://app?vid=9c68575f-38af-4a90-9769-262e13521a63","ios":"levelo://app?vid=9c68575f-38af-4a90-9769-262e13521a63"},"vehicle_type_id":"4","last_reported":1730995879,"current_range_meters":19600,"station_id":"ce4bhgp2rcd13ifvqfc0","pricing_plan_id":"cebpf4jnsgd1na2vs0mg"},{"bike_id":"60bb8ba5-396a-42c6-a39d-ec6237392067","system_id":"levelo_inurba_marseille","lat":43.22928,"lon":5.35377,"is_reserved":false,"is_disabled":false,"rental_uris":{"android":"levelo://app?vid=60bb8ba5-396a-42c6-a39d-ec6237392067","ios":"levelo://app?vid=60bb8ba5-396a-42c6-a39d-ec6237392067"},"vehicle_type_id":"4","last_reported":1730995879,"current_range_meters":35600,"station_id":"cpo3532slgdg3j2ikp40","pricing_plan_id":"cebpf4jnsgd1na2vs0mg"},{"bike_id":"f5d4c6ea-877f-4565-b083-45be9ec21b21","system_id":"levelo_inurba_marseille","lat":43.32482,"lon":5.36582,"is_reserved":false,"is_disabled":false,"rental_uris":{"android":"levelo://app?vid=f5d4c6ea-877f-4565-b083-45be9ec21b21","ios":"levelo://app?vid=f5d4c6ea-877f-4565-b083-45be9ec21b21"},"vehicle_type_id":"4","last_reported":1730995879,"current_range_meters":11200,"station_id":"ce4bhs12rcd13ifvqhvg","pricing_plan_id":"cebpf4jnsgd1na2vs0mg"},{"bike_id":"ff3d86de-5c8f-44df-8c76-d883f8fa9ba1","system_id":"levelo_inurba_marseille","lat":43.23185,"lon":5.39998,"is_reserved":false,"is_disabled":false,"rental_uris":{"android":"levelo://app?vid=ff3d86de-5c8f-44df-8c76-d883f8fa9ba1","ios":"levelo://app?vid=ff3d86de-5c8f-44df-8c76-d883f8fa9ba1"},"vehicle_type_id":"4","last_reported":1730995879,"current_range_meters":21600,"station_id":"ce4bhn12rcd13ifvqgqg","pricing_plan_id":"cebpf4jnsgd1na2vs0mg"},{"bike_id":"3232343b-b00a-47b1-9de8-95cc6580cbfa","system_id":"levelo_inurba_marseille","lat":43.2293,"lon":5.35376,"is_reserved":false,"is_disabled":false,"rental_uris":{"android":"levelo://app?vid=3232343b-b00a-47b1-9de8-95cc6580cbfa","ios":"levelo://app?vid=3232343b-b00a-47b1-9de8-95cc6580cbfa"},"vehicle_type_id":"4","last_reported":1730995879,"current_range_meters":30400,"station_id":"cpo3532slgdg3j2ikp40","pricing_plan_id":"cebpf4jnsgd1na2vs0mg"},{"bike_id":"4b2b77d1-c666-4a50-90cc-ad5b6996ed13","system_id":"levelo_inurba_marseille","lat":43.29443,"lon":5.39768,"is_reserved":false,"is_disabled":false,"rental_uris":{"android":"levelo://app?vid=4b2b77d1-c666-4a50-90cc-ad5b6996ed13","ios":"levelo://app?vid=4b2b77d1-c666-4a50-90cc-ad5b6996ed13"},"vehicle_type_id":"4","last_reported":1730995879,"current_range_meters":20000,"station_id":"ce4bh3h2rcd13ifvqdo0","pricing_plan_id":"cebpf4jnsgd1na2vs0mg"},{"bike_id":"5ac2563e-43d4-4a8e-92c9-eba22b9679c6","system_id":"levelo_inurba_marseille","lat":43.300812,"lon":5.384369,"is_reserved":false,"is_disabled":false,"rental_uris":{"android":"levelo://app?vid=5ac2563e-43d4-4a8e-92c9-eba22b9679c6","ios":"levelo://app?vid=5ac2563e-43d4-4a8e-92c9-eba22b9679c6"},"vehicle_type_id":"4","last_reported":1730995879,"current_range_meters":11200,"station_id":"ce4bh0h2rcd13ifvqd40","pricing_plan_id":"cebpf4jnsgd1na2vs0mg"},{"bike_id":"ab285c39-c198-42c5-a675-7ef9c1a26e6a","system_id":"levelo_inurba_marseille","lat":43.27812,"lon":5.40722,"is_reserved":false,"is_disabled":false,"rental_uris":{"android":"levelo://app?vid=ab285c39-c198-42c5-a675-7ef9c1a26e6a","ios":"levelo://app?vid=ab285c39-c198-42c5-a675-7ef9c1a26e6a"},"vehicle_type_id":"4","last_reported":1730995879,"current_range_meters":32400,"station_id":"ce4bhnh2rcd13ifvqgtg","pricing_plan_id":"cebpf4jnsgd1na2vs0mg"},{"bike_id":"d46fc949-017c-4337-a007-b5f9f19a0bfa","system_id":"levelo_inurba_marseille","lat":43.337444,"lon":5.374475,"is_reserved":false,"is_disabled":false,"rental_uris":{"android":"levelo://app?vid=d46fc949-017c-4337-a007-b5f9f19a0bfa","ios":"levelo://app?vid=d46fc949-017c-4337-a007-b5f9f19a0bfa"},"vehicle_type_id":"4","last_reported":1730995879,"current_range_meters":34000,"station_id":"","pricing_plan_id":"cebpf4jnsgd1na2vs0mg"},{"bike_id":"73d6c4ec-9969-4d29-ba66-0286fc6a7a39","system_id":"levelo_inurba_marseille","lat":43.31776,"lon":5.40945,"is_reserved":false,"is_disabled":false,"rental_uris":{"android":"levelo://app?vid=73d6c4ec-9969-4d29-ba66-0286fc6a7a39","ios":"levelo://app?vid=73d6c4ec-9969-4d29-ba66-0286fc6a7a39"},"vehicle_type_id":"4","last_reported":1730995879,"current_range_meters":14800,"station_id":"ce4bhpp2rcd13ifvqhgg","pricing_plan_id":"cebpf4jnsgd1na2vs0mg"},{"bike_id":"71570d9a-417a-42e4-b3f7-0bb5081c5e34","system_id":"levelo_inurba_marseille","lat":43.30315,"lon":5.36914,"is_reserved":false,"is_disabled":false,"rental_uris":{"android":"levelo://app?vid=71570d9a-417a-42e4-b3f7-0bb5081c5e34","ios":"levelo://app?vid=71570d9a-417a-42e4-b3f7-0bb5081c5e34"},"vehicle_type_id":"4","last_reported":1730995879,"current_range_meters":17600,"station_id":"ce4bgqh2rcd13ifvqc5g","pricing_plan_id":"cebpf4jnsgd1na2vs0mg"},{"bike_id":"8703f5ba-925d-47e2-b8db-dff21b44ae2e","system_id":"levelo_inurba_marseille","lat":43.24667,"lon":5.38176,"is_reserved":false,"is_disabled":false,"rental_uris":{"android":"levelo://app?vid=8703f5ba-925d-47e2-b8db-dff21b44ae2e","ios":"levelo://app?vid=8703f5ba-925d-47e2-b8db-dff21b44ae2e"},"vehicle_type_id":"4","last_reported":1730995879,"current_range_meters":12000,"station_id":"ce4bhih2rcd13ifvqfr0","pricing_plan_id":"cebpf4jnsgd1na2vs0mg"},{"bike_id":"8aba51c2-fc40-4785-abfb-9a6292164eea","system_id":"levelo_inurba_marseille","lat":43.27994,"lon":5.40031,"is_reserved":false,"is_disabled":false,"rental_uris":{"android":"levelo://app?vid=8aba51c2-fc40-4785-abfb-9a6292164eea","ios":"levelo://app?vid=8aba51c2-fc40-4785-abfb-9a6292164eea"},"vehicle_type_id":"4","last_reported":1730995879,"current_range_meters":11200,"station_id":"ce4bho92rcd13ifvqh4g","pricing_plan_id":"cebpf4jnsgd1na2vs0mg"},{"bike_id":"1cadd88a-02e0-477f-8e03-6d84c8239b77","system_id":"levelo_inurba_marseille","lat":43.305878,"lon":5.393582,"is_reserved":false,"is_disabled":false,"rental_uris":{"android":"levelo://app?vid=1cadd88a-02e0-477f-8e03-6d84c8239b77","ios":"levelo://app?vid=1cadd88a-02e0-477f-8e03-6d84c8239b77"},"vehicle_type_id":"4","last_reported":1730995879,"current_range_meters":36400,"station_id":"ce4bh0p2rcd13ifvqd80","pricing_plan_id":"cebpf4jnsgd1na2vs0mg"},{"bike_id":"39f37dc8-eaa2-49ca-afb5-7b9b0031b7ef","system_id":"levelo_inurba_marseille","lat":43.27063,"lon":5.40261,"is_reserved":false,"is_disabled":false,"rental_uris":{"android":"levelo://app?vid=39f37dc8-eaa2-49ca-afb5-7b9b0031b7ef","ios":"levelo://app?vid=39f37dc8-eaa2-49ca-afb5-7b9b0031b7ef"},"vehicle_type_id":"4","last_reported":1730995879,"current_range_meters":14400,"station_id":"ce4bhk92rcd13ifvqgc0","pricing_plan_id":"cebpf4jnsgd1na2vs0mg"},{"bike_id":"7148e5a3-e345-4df8-9602-6c428d6f2779","system_id":"levelo_inurba_marseille","lat":43.2667,"lon":5.40289,"is_reserved":false,"is_disabled":false,"rental_uris":{"android":"levelo://app?vid=7148e5a3-e345-4df8-9602-6c428d6f2779","ios":"levelo://app?vid=7148e5a3-e345-4df8-9602-6c428d6f2779"},"vehicle_type_id":"4","last_reported":1730995879,"current_range_meters":15200,"station_id":"","pricing_plan_id":"cebpf4jnsgd1na2vs0mg"},{"bike_id":"a91e6d4f-9cc8-4a83-8af8-f50c4b5e1892","system_id":"levelo_inurba_marseille","lat":43.27815,"lon":5.40722,"is_reserved":false,"is_disabled":false,"rental_uris":{"android":"levelo://app?vid=a91e6d4f-9cc8-4a83-8af8-f50c4b5e1892","ios":"levelo://app?vid=a91e6d4f-9cc8-4a83-8af8-f50c4b5e1892"},"vehicle_type_id":"4","last_reported":1730995879,"current_range_meters":11600,"station_id":"ce4bhnh2rcd13ifvqgtg","pricing_plan_id":"cebpf4jnsgd1na2vs0mg"},{"bike_id":"85ba8625-2e97-4eca-9639-d7d7620cf173","system_id":"levelo_inurba_marseille","lat":43.272131,"lon":5.391779,"is_reserved":false,"is_disabled":false,"rental_uris":{"android":"levelo://app?vid=85ba8625-2e97-4eca-9639-d7d7620cf173","ios":"levelo://app?vid=85ba8625-2e97-4eca-9639-d7d7620cf173"},"vehicle_type_id":"4","last_reported":1730995879,"current_range_meters":38000,"station_id":"ce4bhn12rcd13ifvqgpg","pricing_plan_id":"cebpf4jnsgd1na2vs0mg"},{"bike_id":"5489d14d-b34e-414e-be12-59cc6146dcbf","system_id":"levelo_inurba_marseille","lat":43.27427,"lon":5.39419,"is_reserved":false,"is_disabled":false,"rental_uris":{"android":"levelo://app?vid=5489d14d-b34e-414e-be12-59cc6146dcbf","ios":"levelo://app?vid=5489d14d-b34e-414e-be12-59cc6146dcbf"},"vehicle_type_id":"4","last_reported":1730995879,"current_range_meters":6800,"station_id":"ce4bhdp2rcd13ifvqf20","pricing_plan_id":"cebpf4jnsgd1na2vs0mg"},{"bike_id":"ebe24ed0-22ef-4108-8346-d144ddd06aac","system_id":"levelo_inurba_marseille","lat":43.33723,"lon":5.39198,"is_reserved":false,"is_disabled":false,"rental_uris":{"android":"levelo://app?vid=ebe24ed0-22ef-4108-8346-d144ddd06aac","ios":"levelo://app?vid=ebe24ed0-22ef-4108-8346-d144ddd06aac"},"vehicle_type_id":"4","last_reported":1730995879,"current_range_meters":38400,"station_id":"ce4bhr92rcd13ifvqhsg","pricing_plan_id":"cebpf4jnsgd1na2vs0mg"},{"bike_id":"42758877-c4e6-4f54-b67e-2527e84c4894","system_id":"levelo_inurba_marseille","lat":43.23184,"lon":5.39984,"is_reserved":false,"is_disabled":false,"rental_uris":{"android":"levelo://app?vid=42758877-c4e6-4f54-b67e-2527e84c4894","ios":"levelo://app?vid=42758877-c4e6-4f54-b67e-2527e84c4894"},"vehicle_type_id":"4","last_reported":1730995879,"current_range_meters":21600,"station_id":"ce4bhn12rcd13ifvqgqg","pricing_plan_id":"cebpf4jnsgd1na2vs0mg"},{"bike_id":"5205fbf7-8d59-4be8-bf69-1e6422de7447","system_id":"levelo_inurba_marseille","lat":43.30917,"lon":5.36852,"is_reserved":false,"is_disabled":false,"rental_uris":{"android":"levelo://app?vid=5205fbf7-8d59-4be8-bf69-1e6422de7447","ios":"levelo://app?vid=5205fbf7-8d59-4be8-bf69-1e6422de7447"},"vehicle_type_id":"4","last_reported":1730995879,"current_range_meters":6800,"station_id":"ce4bgn92rcd13ifvqbvg","pricing_plan_id":"cebpf4jnsgd1na2vs0mg"},{"bike_id":"cb0ff2cc-ff1a-49a6-b8fb-f55be74a223d","system_id":"levelo_inurba_marseille","lat":43.30554,"lon":5.36542,"is_reserved":false,"is_disabled":false,"rental_uris":{"android":"levelo://app?vid=cb0ff2cc-ff1a-49a6-b8fb-f55be74a223d","ios":"levelo://app?vid=cb0ff2cc-ff1a-49a6-b8fb-f55be74a223d"},"vehicle_type_id":"4","last_reported":1730995879,"current_range_meters":31200,"station_id":"ce4bgs12rcd13ifvqcag","pricing_plan_id":"cebpf4jnsgd1na2vs0mg"},{"bike_id":"1f0ab64f-df72-4fc0-9a7e-8045c193401c","system_id":"levelo_inurba_marseille","lat":43.28939,"lon":5.38387,"is_reserved":false,"is_disabled":false,"rental_uris":{"android":"levelo://app?vid=1f0ab64f-df72-4fc0-9a7e-8045c193401c","ios":"levelo://app?vid=1f0ab64f-df72-4fc0-9a7e-8045c193401c"},"vehicle_type_id":"4","last_reported":1730995879,"current_range_meters":30000,"station_id":"ce4bh612rcd13ifvqe6g","pricing_plan_id":"cebpf4jnsgd1na2vs0mg"},{"bike_id":"b1c33bde-6b17-4bc2-a8bb-0a21f49eb9bf","system_id":"levelo_inurba_marseille","lat":43.31993,"lon":5.38172,"is_reserved":false,"is_disabled":false,"rental_uris":{"android":"levelo://app?vid=b1c33bde-6b17-4bc2-a8bb-0a21f49eb9bf","ios":"levelo://app?vid=b1c33bde-6b17-4bc2-a8bb-0a21f49eb9bf"},"vehicle_type_id":"4","last_reported":1730995879,"current_range_meters":10800,"station_id":"ce4bhr12rcd13ifvqhpg","pricing_plan_id":"cebpf4jnsgd1na2vs0mg"},{"bike_id":"da65691a-13d9-41fd-8904-22ba049eb64f","system_id":"levelo_inurba_marseille","lat":43.24552,"lon":5.3952,"is_reserved":false,"is_disabled":false,"rental_uris":{"android":"levelo://app?vid=da65691a-13d9-41fd-8904-22ba049eb64f","ios":"levelo://app?vid=da65691a-13d9-41fd-8904-22ba049eb64f"},"vehicle_type_id":"4","last_reported":1730995879,"current_range_meters":26000,"station_id":"ce4bhlp2rcd13ifvqgjg","pricing_plan_id":"cebpf4jnsgd1na2vs0mg"},{"bike_id":"a3e78cb1-a22e-4205-9dc9-c7dbe196332f","system_id":"levelo_inurba_marseille","lat":43.30353,"lon":5.41895,"is_reserved":false,"is_disabled":false,"rental_uris":{"android":"levelo://app?vid=a3e78cb1-a22e-4205-9dc9-c7dbe196332f","ios":"levelo://app?vid=a3e78cb1-a22e-4205-9dc9-c7dbe196332f"},"vehicle_type_id":"4","last_reported":1730995879,"current_range_meters":24400,"station_id":"ce4bhop2rcd13ifvqh7g","pricing_plan_id":"cebpf4jnsgd1na2vs0mg"},{"bike_id":"207ed067-29d8-4a8f-b9f3-0849ce579f81","system_id":"levelo_inurba_marseille","lat":43.33025,"lon":5.39046,"is_reserved":false,"is_disabled":false,"rental_uris":{"android":"levelo://app?vid=207ed067-29d8-4a8f-b9f3-0849ce579f81","ios":"levelo://app?vid=207ed067-29d8-4a8f-b9f3-0849ce579f81"},"vehicle_type_id":"4","last_reported":1730995879,"current_range_meters":31200,"station_id":"ce4bhr92rcd13ifvqhrg","pricing_plan_id":"cebpf4jnsgd1na2vs0mg"},{"bike_id":"91664c01-db8c-4167-9a28-397b019b0879","system_id":"levelo_inurba_marseille","lat":43.25499,"lon":5.37653,"is_reserved":false,"is_disabled":false,"rental_uris":{"android":"levelo://app?vid=91664c01-db8c-4167-9a28-397b019b0879","ios":"levelo://app?vid=91664c01-db8c-4167-9a28-397b019b0879"},"vehicle_type_id":"4","last_reported":1730995879,"current_range_meters":32400,"station_id":"ce4bhh12rcd13ifvqff0","pricing_plan_id":"cebpf4jnsgd1na2vs0mg"},{"bike_id":"c54d8938-bd66-4746-8397-6468d0e45158","system_id":"levelo_inurba_marseille","lat":43.30803,"lon":5.43525,"is_reserved":false,"is_disabled":false,"rental_uris":{"android":"levelo://app?vid=c54d8938-bd66-4746-8397-6468d0e45158","ios":"levelo://app?vid=c54d8938-bd66-4746-8397-6468d0e45158"},"vehicle_type_id":"4","last_reported":1730995879,"current_range_meters":21600,"station_id":"ce4bhph2rcd13ifvqheg","pricing_plan_id":"cebpf4jnsgd1na2vs0mg"},{"bike_id":"95ac8b55-d461-4c79-bf07-3deece0b5544","system_id":"levelo_inurba_marseille","lat":43.337444,"lon":5.374475,"is_reserved":false,"is_disabled":false,"rental_uris":{"android":"levelo://app?vid=95ac8b55-d461-4c79-bf07-3deece0b5544","ios":"levelo://app?vid=95ac8b55-d461-4c79-bf07-3deece0b5544"},"vehicle_type_id":"4","last_reported":1730995879,"current_range_meters":36400,"station_id":"","pricing_plan_id":"cebpf4jnsgd1na2vs0mg"},{"bike_id":"10491ddb-0a86-4530-b0c8-279342e353b2","system_id":"levelo_inurba_marseille","lat":43.28622,"lon":5.35109,"is_reserved":false,"is_disabled":false,"rental_uris":{"android":"levelo://app?vid=10491ddb-0a86-4530-b0c8-279342e353b2","ios":"levelo://app?vid=10491ddb-0a86-4530-b0c8-279342e353b2"},"vehicle_type_id":"4","last_reported":1730995879,"current_range_meters":29600,"station_id":"ce4bhch2rcd13ifvqeug","pricing_plan_id":"cebpf4jnsgd1na2vs0mg"},{"bike_id":"2e20f2a1-b564-48ea-877a-8fba77b4c953","system_id":"levelo_inurba_marseille","lat":43.22926,"lon":5.35376,"is_reserved":false,"is_disabled":false,"rental_uris":{"android":"levelo://app?vid=2e20f2a1-b564-48ea-877a-8fba77b4c953","ios":"levelo://app?vid=2e20f2a1-b564-48ea-877a-8fba77b4c953"},"vehicle_type_id":"4","last_reported":1730995879,"current_range_meters":36400,"station_id":"cpo3532slgdg3j2ikp40","pricing_plan_id":"cebpf4jnsgd1na2vs0mg"},{"bike_id":"3f432a88-40ec-4a97-a6af-82e13a471fdb","system_id":"levelo_inurba_marseille","lat":43.30551,"lon":5.36549,"is_reserved":false,"is_disabled":false,"rental_uris":{"android":"levelo://app?vid=3f432a88-40ec-4a97-a6af-82e13a471fdb","ios":"levelo://app?vid=3f432a88-40ec-4a97-a6af-82e13a471fdb"},"vehicle_type_id":"4","last_reported":1730995879,"current_range_meters":38800,"station_id":"ce4bgs12rcd13ifvqcag","pricing_plan_id":"cebpf4jnsgd1na2vs0mg"},{"bike_id":"e96a0000-4c65-4389-84e3-72bb9e3f1a77","system_id":"levelo_inurba_marseille","lat":43.24183,"lon":5.39738,"is_reserved":false,"is_disabled":false,"rental_uris":{"android":"levelo://app?vid=e96a0000-4c65-4389-84e3-72bb9e3f1a77","ios":"levelo://app?vid=e96a0000-4c65-4389-84e3-72bb9e3f1a77"},"vehicle_type_id":"4","last_reported":1730995879,"current_range_meters":8400,"station_id":"ce4bhn12rcd13ifvqgpg","pricing_plan_id":"cebpf4jnsgd1na2vs0mg"},{"bike_id":"a33de4ee-a3bf-4089-85aa-47e730f8c2c0","system_id":"levelo_inurba_marseille","lat":43.28272,"lon":5.35067,"is_reserved":false,"is_disabled":false,"rental_uris":{"android":"levelo://app?vid=a33de4ee-a3bf-4089-85aa-47e730f8c2c0","ios":"levelo://app?vid=a33de4ee-a3bf-4089-85aa-47e730f8c2c0"},"vehicle_type_id":"4","last_reported":1730995879,"current_range_meters":16400,"station_id":"ce4bhbp2rcd13ifvqerg","pricing_plan_id":"cebpf4jnsgd1na2vs0mg"},{"bike_id":"c537b9b8-89b4-46f3-99c6-c81aa15b887a","system_id":"levelo_inurba_marseille","lat":43.24665,"lon":5.38174,"is_reserved":false,"is_disabled":false,"rental_uris":{"android":"levelo://app?vid=c537b9b8-89b4-46f3-99c6-c81aa15b887a","ios":"levelo://app?vid=c537b9b8-89b4-46f3-99c6-c81aa15b887a"},"vehicle_type_id":"4","last_reported":1730995879,"current_range_meters":38800,"station_id":"ce4bhih2rcd13ifvqfr0","pricing_plan_id":"cebpf4jnsgd1na2vs0mg"},{"bike_id":"816b1ee9-26f5-40f8-8022-fd373baa399b","system_id":"levelo_inurba_marseille","lat":43.24087,"lon":5.37753,"is_reserved":false,"is_disabled":false,"rental_uris":{"android":"levelo://app?vid=816b1ee9-26f5-40f8-8022-fd373baa399b","ios":"levelo://app?vid=816b1ee9-26f5-40f8-8022-fd373baa399b"},"vehicle_type_id":"4","last_reported":1730995879,"current_range_meters":18000,"station_id":"ce4bhh12rcd13ifvqff0","pricing_plan_id":"cebpf4jnsgd1na2vs0mg"},{"bike_id":"84c10ecf-fd70-42a4-91a9-a3bf7b0dfb61","system_id":"levelo_inurba_marseille","lat":43.29787,"lon":5.38131,"is_reserved":false,"is_disabled":false,"rental_uris":{"android":"levelo://app?vid=84c10ecf-fd70-42a4-91a9-a3bf7b0dfb61","ios":"levelo://app?vid=84c10ecf-fd70-42a4-91a9-a3bf7b0dfb61"},"vehicle_type_id":"4","last_reported":1730995879,"current_range_meters":12000,"station_id":"ce4bgip2rcd13ifvqbb0","pricing_plan_id":"cebpf4jnsgd1na2vs0mg"},{"bike_id":"2dc86f12-fa26-49ea-a915-83215bd8674f","system_id":"levelo_inurba_marseille","lat":43.30593,"lon":5.37213,"is_reserved":false,"is_disabled":false,"rental_uris":{"android":"levelo://app?vid=2dc86f12-fa26-49ea-a915-83215bd8674f","ios":"levelo://app?vid=2dc86f12-fa26-49ea-a915-83215bd8674f"},"vehicle_type_id":"4","last_reported":1730995879,"current_range_meters":26800,"station_id":"ce4bgqh2rcd13ifvqc4g","pricing_plan_id":"cebpf4jnsgd1na2vs0mg"},{"bike_id":"620097c6-db9b-4367-9277-9374ed11e7a1","system_id":"levelo_inurba_marseille","lat":43.31728,"lon":5.42409,"is_reserved":false,"is_disabled":false,"rental_uris":{"android":"levelo://app?vid=620097c6-db9b-4367-9277-9374ed11e7a1","ios":"levelo://app?vid=620097c6-db9b-4367-9277-9374ed11e7a1"},"vehicle_type_id":"4","last_reported":1730995879,"current_range_meters":38000,"station_id":"ce4bhp92rcd13ifvqhbg","pricing_plan_id":"cebpf4jnsgd1na2vs0mg"},{"bike_id":"c88784d6-3b04-4946-81ad-834b964f7729","system_id":"levelo_inurba_marseille","lat":43.27356,"lon":5.393142,"is_reserved":false,"is_disabled":false,"rental_uris":{"android":"levelo://app?vid=c88784d6-3b04-4946-81ad-834b964f7729","ios":"levelo://app?vid=c88784d6-3b04-4946-81ad-834b964f7729"},"vehicle_type_id":"4","last_reported":1730995879,"current_range_meters":22000,"station_id":"ce4bhdp2rcd13ifvqf20","pricing_plan_id":"cebpf4jnsgd1na2vs0mg"},{"bike_id":"11d7fe84-417b-45b1-b8a0-da84beb23605","system_id":"levelo_inurba_marseille","lat":43.30423,"lon":5.41282,"is_reserved":false,"is_disabled":false,"rental_uris":{"android":"levelo://app?vid=11d7fe84-417b-45b1-b8a0-da84beb23605","ios":"levelo://app?vid=11d7fe84-417b-45b1-b8a0-da84beb23605"},"vehicle_type_id":"4","last_reported":1730995879,"current_range_meters":24000,"station_id":"ce4bhop2rcd13ifvqh8g","pricing_plan_id":"cebpf4jnsgd1na2vs0mg"},{"bike_id":"746f8df5-cd38-4c92-9c55-a49257706bc6","system_id":"levelo_inurba_marseille","lat":43.31334,"lon":5.39704,"is_reserved":false,"is_disabled":false,"rental_uris":{"android":"levelo://app?vid=746f8df5-cd38-4c92-9c55-a49257706bc6","ios":"levelo://app?vid=746f8df5-cd38-4c92-9c55-a49257706bc6"},"vehicle_type_id":"4","last_reported":1730995879,"current_range_meters":40000,"station_id":"ce4bgvp2rcd13ifvqcu0","pricing_plan_id":"cebpf4jnsgd1na2vs0mg"},{"bike_id":"5d6a33ab-6a3d-4ed4-9678-7eda23ac0eb3","system_id":"levelo_inurba_marseille","lat":43.30597,"lon":5.39364,"is_reserved":false,"is_disabled":false,"rental_uris":{"android":"levelo://app?vid=5d6a33ab-6a3d-4ed4-9678-7eda23ac0eb3","ios":"levelo://app?vid=5d6a33ab-6a3d-4ed4-9678-7eda23ac0eb3"},"vehicle_type_id":"4","last_reported":1730995879,"current_range_meters":38800,"station_id":"ce4bh0p2rcd13ifvqd80","pricing_plan_id":"cebpf4jnsgd1na2vs0mg"},{"bike_id":"0a57082a-8d97-4f17-adaa-aaef95718db0","system_id":"levelo_inurba_marseille","lat":43.27999,"lon":5.40028,"is_reserved":false,"is_disabled":false,"rental_uris":{"android":"levelo://app?vid=0a57082a-8d97-4f17-adaa-aaef95718db0","ios":"levelo://app?vid=0a57082a-8d97-4f17-adaa-aaef95718db0"},"vehicle_type_id":"4","last_reported":1730995879,"current_range_meters":11600,"station_id":"ce4bho92rcd13ifvqh4g","pricing_plan_id":"cebpf4jnsgd1na2vs0mg"},{"bike_id":"80d5c89e-745d-46d6-9ab9-4f5ea40b6def","system_id":"levelo_inurba_marseille","lat":43.27175,"lon":5.40993,"is_reserved":false,"is_disabled":false,"rental_uris":{"android":"levelo://app?vid=80d5c89e-745d-46d6-9ab9-4f5ea40b6def","ios":"levelo://app?vid=80d5c89e-745d-46d6-9ab9-4f5ea40b6def"},"vehicle_type_id":"4","last_reported":1730995879,"current_range_meters":15200,"station_id":"ce4bhl12rcd13ifvqgf0","pricing_plan_id":"cebpf4jnsgd1na2vs0mg"},{"bike_id":"56724e01-9843-478f-9957-90072d770c6c","system_id":"levelo_inurba_marseille","lat":43.23192,"lon":5.35559,"is_reserved":false,"is_disabled":false,"rental_uris":{"android":"levelo://app?vid=56724e01-9843-478f-9957-90072d770c6c","ios":"levelo://app?vid=56724e01-9843-478f-9957-90072d770c6c"},"vehicle_type_id":"4","last_reported":1730995879,"current_range_meters":9600,"station_id":"ce4bhu92rcd13ifvqi70","pricing_plan_id":"cebpf4jnsgd1na2vs0mg"},{"bike_id":"ba81f366-ea79-4c3c-b173-d3b6978cafbf","system_id":"levelo_inurba_marseille","lat":43.29624,"lon":5.37176,"is_reserved":false,"is_disabled":false,"rental_uris":{"android":"levelo://app?vid=ba81f366-ea79-4c3c-b173-d3b6978cafbf","ios":"levelo://app?vid=ba81f366-ea79-4c3c-b173-d3b6978cafbf"},"vehicle_type_id":"4","last_reported":1730995879,"current_range_meters":38800,"station_id":"ce4bgnh2rcd13ifvqc0g","pricing_plan_id":"cebpf4jnsgd1na2vs0mg"},{"bike_id":"9044ed43-de46-4645-b2ad-5e136647239a","system_id":"levelo_inurba_marseille","lat":43.337444,"lon":5.374475,"is_reserved":false,"is_disabled":false,"rental_uris":{"android":"levelo://app?vid=9044ed43-de46-4645-b2ad-5e136647239a","ios":"levelo://app?vid=9044ed43-de46-4645-b2ad-5e136647239a"},"vehicle_type_id":"4","last_reported":1730995879,"current_range_meters":36400,"station_id":"","pricing_plan_id":"cebpf4jnsgd1na2vs0mg"},{"bike_id":"705fff24-d923-4789-8e22-cb2c7d8105e1","system_id":"levelo_inurba_marseille","lat":43.26805,"lon":5.40273,"is_reserved":false,"is_disabled":false,"rental_uris":{"android":"levelo://app?vid=705fff24-d923-4789-8e22-cb2c7d8105e1","ios":"levelo://app?vid=705fff24-d923-4789-8e22-cb2c7d8105e1"},"vehicle_type_id":"4","last_reported":1730995879,"current_range_meters":9200,"station_id":"ce501612rcd8frsf0b60","pricing_plan_id":"cebpf4jnsgd1na2vs0mg"},{"bike_id":"cde33d01-4fdf-4588-9993-50576e545d63","system_id":"levelo_inurba_marseille","lat":43.29904,"lon":5.43678,"is_reserved":false,"is_disabled":false,"rental_uris":{"android":"levelo://app?vid=cde33d01-4fdf-4588-9993-50576e545d63","ios":"levelo://app?vid=cde33d01-4fdf-4588-9993-50576e545d63"},"vehicle_type_id":"4","last_reported":1730995879,"current_range_meters":33200,"station_id":"ce4bhpp2rcd13ifvqhfg","pricing_plan_id":"cebpf4jnsgd1na2vs0mg"},{"bike_id":"84d60574-e97d-416a-bb69-40e9fb469182","system_id":"levelo_inurba_marseille","lat":43.22928,"lon":5.35377,"is_reserved":false,"is_disabled":false,"rental_uris":{"android":"levelo://app?vid=84d60574-e97d-416a-bb69-40e9fb469182","ios":"levelo://app?vid=84d60574-e97d-416a-bb69-40e9fb469182"},"vehicle_type_id":"4","last_reported":1730995879,"current_range_meters":39200,"station_id":"cpo3532slgdg3j2ikp40","pricing_plan_id":"cebpf4jnsgd1na2vs0mg"},{"bike_id":"6677c91d-3e85-4d69-93bd-16eddf6f0c93","system_id":"levelo_inurba_marseille","lat":43.25867,"lon":5.39907,"is_reserved":false,"is_disabled":false,"rental_uris":{"android":"levelo://app?vid=6677c91d-3e85-4d69-93bd-16eddf6f0c93","ios":"levelo://app?vid=6677c91d-3e85-4d69-93bd-16eddf6f0c93"},"vehicle_type_id":"4","last_reported":1730995879,"current_range_meters":40000,"station_id":"ce4bhl92rcd13ifvqghg","pricing_plan_id":"cebpf4jnsgd1na2vs0mg"},{"bike_id":"7ee938f5-5cb3-43de-9fdd-d1bcc674d87e","system_id":"levelo_inurba_marseille","lat":43.26939,"lon":5.40257,"is_reserved":false,"is_disabled":false,"rental_uris":{"android":"levelo://app?vid=7ee938f5-5cb3-43de-9fdd-d1bcc674d87e","ios":"levelo://app?vid=7ee938f5-5cb3-43de-9fdd-d1bcc674d87e"},"vehicle_type_id":"4","last_reported":1730995879,"current_range_meters":14400,"station_id":"cjm6bp8fraef2m0cb0m0","pricing_plan_id":"cebpf4jnsgd1na2vs0mg"},{"bike_id":"5174ae6b-73b7-4eb9-b82e-9c61c1f78ce8","system_id":"levelo_inurba_marseille","lat":43.31228,"lon":5.40619,"is_reserved":false,"is_disabled":false,"rental_uris":{"android":"levelo://app?vid=5174ae6b-73b7-4eb9-b82e-9c61c1f78ce8","ios":"levelo://app?vid=5174ae6b-73b7-4eb9-b82e-9c61c1f78ce8"},"vehicle_type_id":"4","last_reported":1730995879,"current_range_meters":16400,"station_id":"","pricing_plan_id":"cebpf4jnsgd1na2vs0mg"},{"bike_id":"f0b1fc38-bd45-42b9-a902-6d44d0608b45","system_id":"levelo_inurba_marseille","lat":43.2987,"lon":5.39739,"is_reserved":false,"is_disabled":false,"rental_uris":{"android":"levelo://app?vid=f0b1fc38-bd45-42b9-a902-6d44d0608b45","ios":"levelo://app?vid=f0b1fc38-bd45-42b9-a902-6d44d0608b45"},"vehicle_type_id":"4","last_reported":1730995879,"current_range_meters":38800,"station_id":"ce4bh0h2rcd13ifvqd50","pricing_plan_id":"cebpf4jnsgd1na2vs0mg"},{"bike_id":"c3e27800-3ee3-4406-99ec-fa9ce1dee0ca","system_id":"levelo_inurba_marseille","lat":43.3054,"lon":5.36543,"is_reserved":false,"is_disabled":false,"rental_uris":{"android":"levelo://app?vid=c3e27800-3ee3-4406-99ec-fa9ce1dee0ca","ios":"levelo://app?vid=c3e27800-3ee3-4406-99ec-fa9ce1dee0ca"},"vehicle_type_id":"4","last_reported":1730995879,"current_range_meters":39200,"station_id":"ce4bgs12rcd13ifvqcag","pricing_plan_id":"cebpf4jnsgd1na2vs0mg"},{"bike_id":"198f67f3-24a9-4d19-bed7-14145d808d1a","system_id":"levelo_inurba_marseille","lat":43.26559,"lon":5.37293,"is_reserved":false,"is_disabled":false,"rental_uris":{"android":"levelo://app?vid=198f67f3-24a9-4d19-bed7-14145d808d1a","ios":"levelo://app?vid=198f67f3-24a9-4d19-bed7-14145d808d1a"},"vehicle_type_id":"4","last_reported":1730995879,"current_range_meters":38800,"station_id":"ce4bhg12rcd13ifvqf70","pricing_plan_id":"cebpf4jnsgd1na2vs0mg"},{"bike_id":"da92a637-a209-47ff-9aee-60560419e699","system_id":"levelo_inurba_marseille","lat":43.28158,"lon":5.42646,"is_reserved":false,"is_disabled":false,"rental_uris":{"android":"levelo://app?vid=da92a637-a209-47ff-9aee-60560419e699","ios":"levelo://app?vid=da92a637-a209-47ff-9aee-60560419e699"},"vehicle_type_id":"4","last_reported":1730995879,"current_range_meters":36800,"station_id":"","pricing_plan_id":"cebpf4jnsgd1na2vs0mg"},{"bike_id":"e4c62c66-7a01-45f1-9037-bd1fbfe32aae","system_id":"levelo_inurba_marseille","lat":43.29132,"lon":5.359063,"is_reserved":false,"is_disabled":false,"rental_uris":{"android":"levelo://app?vid=e4c62c66-7a01-45f1-9037-bd1fbfe32aae","ios":"levelo://app?vid=e4c62c66-7a01-45f1-9037-bd1fbfe32aae"},"vehicle_type_id":"4","last_reported":1730995879,"current_range_meters":8400,"station_id":"ce4bha92rcd13ifvqeg0","pricing_plan_id":"cebpf4jnsgd1na2vs0mg"},{"bike_id":"85772bef-6852-46ab-906a-e533feeada03","system_id":"levelo_inurba_marseille","lat":43.26059,"lon":5.39408,"is_reserved":false,"is_disabled":false,"rental_uris":{"android":"levelo://app?vid=85772bef-6852-46ab-906a-e533feeada03","ios":"levelo://app?vid=85772bef-6852-46ab-906a-e533feeada03"},"vehicle_type_id":"4","last_reported":1730995879,"current_range_meters":39200,"station_id":"ce4bhh92rcd13ifvqfj0","pricing_plan_id":"cebpf4jnsgd1na2vs0mg"},{"bike_id":"dbe576af-e1f3-4018-8234-ac3847482372","system_id":"levelo_inurba_marseille","lat":43.29195,"lon":5.39313,"is_reserved":false,"is_disabled":false,"rental_uris":{"android":"levelo://app?vid=dbe576af-e1f3-4018-8234-ac3847482372","ios":"levelo://app?vid=dbe576af-e1f3-4018-8234-ac3847482372"},"vehicle_type_id":"4","last_reported":1730995879,"current_range_meters":32400,"station_id":"ce4bh192rcd13ifvqdd0","pricing_plan_id":"cebpf4jnsgd1na2vs0mg"},{"bike_id":"67678471-8900-40c3-b5bb-806b24feb686","system_id":"levelo_inurba_marseille","lat":43.31333,"lon":5.39696,"is_reserved":false,"is_disabled":false,"rental_uris":{"android":"levelo://app?vid=67678471-8900-40c3-b5bb-806b24feb686","ios":"levelo://app?vid=67678471-8900-40c3-b5bb-806b24feb686"},"vehicle_type_id":"4","last_reported":1730995879,"current_range_meters":16400,"station_id":"ce4bgvp2rcd13ifvqcu0","pricing_plan_id":"cebpf4jnsgd1na2vs0mg"},{"bike_id":"d619c91b-880c-4c6b-8f5a-fdbd568603fe","system_id":"levelo_inurba_marseille","lat":43.306037,"lon":5.372245,"is_reserved":false,"is_disabled":false,"rental_uris":{"android":"levelo://app?vid=d619c91b-880c-4c6b-8f5a-fdbd568603fe","ios":"levelo://app?vid=d619c91b-880c-4c6b-8f5a-fdbd568603fe"},"vehicle_type_id":"4","last_reported":1730995879,"current_range_meters":27600,"station_id":"ce4bgqh2rcd13ifvqc4g","pricing_plan_id":"cebpf4jnsgd1na2vs0mg"},{"bike_id":"d6fdae69-642e-4d84-a8fd-edeb75ed0ef4","system_id":"levelo_inurba_marseille","lat":43.22925,"lon":5.35374,"is_reserved":false,"is_disabled":false,"rental_uris":{"android":"levelo://app?vid=d6fdae69-642e-4d84-a8fd-edeb75ed0ef4","ios":"levelo://app?vid=d6fdae69-642e-4d84-a8fd-edeb75ed0ef4"},"vehicle_type_id":"4","last_reported":1730995879,"current_range_meters":27600,"station_id":"cpo3532slgdg3j2ikp40","pricing_plan_id":"cebpf4jnsgd1na2vs0mg"},{"bike_id":"9c67dc55-56be-48c5-a437-0348a5fc65cf","system_id":"levelo_inurba_marseille","lat":43.3204,"lon":5.41523,"is_reserved":false,"is_disabled":false,"rental_uris":{"android":"levelo://app?vid=9c67dc55-56be-48c5-a437-0348a5fc65cf","ios":"levelo://app?vid=9c67dc55-56be-48c5-a437-0348a5fc65cf"},"vehicle_type_id":"4","last_reported":1730995879,"current_range_meters":9200,"station_id":"ce4bhq92rcd13ifvqhkg","pricing_plan_id":"cebpf4jnsgd1na2vs0mg"},{"bike_id":"e337f190-c212-4a70-881f-5e9b3efc0a8c","system_id":"levelo_inurba_marseille","lat":43.30321,"lon":5.40459,"is_reserved":false,"is_disabled":false,"rental_uris":{"android":"levelo://app?vid=e337f190-c212-4a70-881f-5e9b3efc0a8c","ios":"levelo://app?vid=e337f190-c212-4a70-881f-5e9b3efc0a8c"},"vehicle_type_id":"4","last_reported":1730995879,"current_range_meters":38800,"station_id":"ce4bh012rcd13ifvqd10","pricing_plan_id":"cebpf4jnsgd1na2vs0mg"},{"bike_id":"18123d17-cdc9-4d2d-a240-a822d1c882e9","system_id":"levelo_inurba_marseille","lat":43.29008,"lon":5.35614,"is_reserved":false,"is_disabled":false,"rental_uris":{"android":"levelo://app?vid=18123d17-cdc9-4d2d-a240-a822d1c882e9","ios":"levelo://app?vid=18123d17-cdc9-4d2d-a240-a822d1c882e9"},"vehicle_type_id":"4","last_reported":1730995879,"current_range_meters":27600,"station_id":"ce4bhb92rcd13ifvqen0","pricing_plan_id":"cebpf4jnsgd1na2vs0mg"},{"bike_id":"42e59f4f-02e5-4657-aab7-27019ec177bf","system_id":"levelo_inurba_marseille","lat":43.32104,"lon":5.36783,"is_reserved":false,"is_disabled":false,"rental_uris":{"android":"levelo://app?vid=42e59f4f-02e5-4657-aab7-27019ec177bf","ios":"levelo://app?vid=42e59f4f-02e5-4657-aab7-27019ec177bf"},"vehicle_type_id":"4","last_reported":1730995879,"current_range_meters":24800,"station_id":"ce4bhrh2rcd13ifvqhug","pricing_plan_id":"cebpf4jnsgd1na2vs0mg"},{"bike_id":"126dd8ef-29d7-4e45-94c5-ae8c73768026","system_id":"levelo_inurba_marseille","lat":43.30186,"lon":5.36633,"is_reserved":false,"is_disabled":false,"rental_uris":{"android":"levelo://app?vid=126dd8ef-29d7-4e45-94c5-ae8c73768026","ios":"levelo://app?vid=126dd8ef-29d7-4e45-94c5-ae8c73768026"},"vehicle_type_id":"4","last_reported":1730995879,"current_range_meters":15200,"station_id":"ce4bhb12rcd13ifvqel0","pricing_plan_id":"cebpf4jnsgd1na2vs0mg"},{"bike_id":"001b7c42-40a7-47a9-927f-6c03197892aa","system_id":"levelo_inurba_marseille","lat":43.33728,"lon":5.39194,"is_reserved":false,"is_disabled":false,"rental_uris":{"android":"levelo://app?vid=001b7c42-40a7-47a9-927f-6c03197892aa","ios":"levelo://app?vid=001b7c42-40a7-47a9-927f-6c03197892aa"},"vehicle_type_id":"4","last_reported":1730995879,"current_range_meters":39200,"station_id":"ce4bhr92rcd13ifvqhsg","pricing_plan_id":"cebpf4jnsgd1na2vs0mg"},{"bike_id":"aedfcc50-e511-42e6-8d79-1f5200fb71ed","system_id":"levelo_inurba_marseille","lat":43.2465,"lon":5.38895,"is_reserved":false,"is_disabled":false,"rental_uris":{"android":"levelo://app?vid=aedfcc50-e511-42e6-8d79-1f5200fb71ed","ios":"levelo://app?vid=aedfcc50-e511-42e6-8d79-1f5200fb71ed"},"vehicle_type_id":"4","last_reported":1730995879,"current_range_meters":8400,"station_id":"ce4bhg12rcd13ifvqf60","pricing_plan_id":"cebpf4jnsgd1na2vs0mg"},{"bike_id":"1dff140f-47a5-4cf5-a11c-fdedd76b5c18","system_id":"levelo_inurba_marseille","lat":43.25718,"lon":5.41124,"is_reserved":false,"is_disabled":false,"rental_uris":{"android":"levelo://app?vid=1dff140f-47a5-4cf5-a11c-fdedd76b5c18","ios":"levelo://app?vid=1dff140f-47a5-4cf5-a11c-fdedd76b5c18"},"vehicle_type_id":"4","last_reported":1730995879,"current_range_meters":6400,"station_id":"ce4bhkp2rcd13ifvqgd0","pricing_plan_id":"cebpf4jnsgd1na2vs0mg"},{"bike_id":"9178d598-d5de-4d5c-85ae-0efa9377149a","system_id":"levelo_inurba_marseille","lat":43.23175,"lon":5.39996,"is_reserved":false,"is_disabled":false,"rental_uris":{"android":"levelo://app?vid=9178d598-d5de-4d5c-85ae-0efa9377149a","ios":"levelo://app?vid=9178d598-d5de-4d5c-85ae-0efa9377149a"},"vehicle_type_id":"4","last_reported":1730995879,"current_range_meters":20800,"station_id":"ce4bhn12rcd13ifvqgqg","pricing_plan_id":"cebpf4jnsgd1na2vs0mg"},{"bike_id":"da4474ea-1e17-4f1e-b9aa-461a2d214722","system_id":"levelo_inurba_marseille","lat":43.30465,"lon":5.37917,"is_reserved":false,"is_disabled":false,"rental_uris":{"android":"levelo://app?vid=da4474ea-1e17-4f1e-b9aa-461a2d214722","ios":"levelo://app?vid=da4474ea-1e17-4f1e-b9aa-461a2d214722"},"vehicle_type_id":"4","last_reported":1730995879,"current_range_meters":38800,"station_id":"ce4bgup2rcd13ifvqcn0","pricing_plan_id":"cebpf4jnsgd1na2vs0mg"},{"bike_id":"cb6ea851-bf40-4406-8667-fd4dee8f2841","system_id":"levelo_inurba_marseille","lat":43.30137,"lon":5.39888,"is_reserved":false,"is_disabled":false,"rental_uris":{"android":"levelo://app?vid=cb6ea851-bf40-4406-8667-fd4dee8f2841","ios":"levelo://app?vid=cb6ea851-bf40-4406-8667-fd4dee8f2841"},"vehicle_type_id":"4","last_reported":1730995879,"current_range_meters":22000,"station_id":"ce4bh0h2rcd13ifvqd40","pricing_plan_id":"cebpf4jnsgd1na2vs0mg"},{"bike_id":"fdf26527-6c0f-4b2a-b565-d41399ed3242","system_id":"levelo_inurba_marseille","lat":43.31538,"lon":5.38039,"is_reserved":false,"is_disabled":false,"rental_uris":{"android":"levelo://app?vid=fdf26527-6c0f-4b2a-b565-d41399ed3242","ios":"levelo://app?vid=fdf26527-6c0f-4b2a-b565-d41399ed3242"},"vehicle_type_id":"4","last_reported":1730995879,"current_range_meters":5600,"station_id":"ce4bhsp2rcd13ifvqi50","pricing_plan_id":"cebpf4jnsgd1na2vs0mg"},{"bike_id":"d49ce9ed-607f-43ae-a608-12aad5403bbf","system_id":"levelo_inurba_marseille","lat":43.32371,"lon":5.38891,"is_reserved":false,"is_disabled":false,"rental_uris":{"android":"levelo://app?vid=d49ce9ed-607f-43ae-a608-12aad5403bbf","ios":"levelo://app?vid=d49ce9ed-607f-43ae-a608-12aad5403bbf"},"vehicle_type_id":"4","last_reported":1730995879,"current_range_meters":9600,"station_id":"ce4bhqp2rcd13ifvqhog","pricing_plan_id":"cebpf4jnsgd1na2vs0mg"},{"bike_id":"d982d339-5568-4890-80be-c3acb5f42fad","system_id":"levelo_inurba_marseille","lat":43.30144,"lon":5.39866,"is_reserved":false,"is_disabled":false,"rental_uris":{"android":"levelo://app?vid=d982d339-5568-4890-80be-c3acb5f42fad","ios":"levelo://app?vid=d982d339-5568-4890-80be-c3acb5f42fad"},"vehicle_type_id":"4","last_reported":1730995879,"current_range_meters":38800,"station_id":"ce4bh0h2rcd13ifvqd40","pricing_plan_id":"cebpf4jnsgd1na2vs0mg"},{"bike_id":"0488e855-e7d4-4b84-8452-f2e7288b6818","system_id":"levelo_inurba_marseille","lat":43.32288,"lon":5.38273,"is_reserved":false,"is_disabled":false,"rental_uris":{"android":"levelo://app?vid=0488e855-e7d4-4b84-8452-f2e7288b6818","ios":"levelo://app?vid=0488e855-e7d4-4b84-8452-f2e7288b6818"},"vehicle_type_id":"4","last_reported":1730995879,"current_range_meters":20000,"station_id":"ce4bhr12rcd13ifvqhqg","pricing_plan_id":"cebpf4jnsgd1na2vs0mg"},{"bike_id":"0993ae53-b33b-4ec0-8420-6942bdb9eb84","system_id":"levelo_inurba_marseille","lat":43.30799,"lon":5.43535,"is_reserved":false,"is_disabled":false,"rental_uris":{"android":"levelo://app?vid=0993ae53-b33b-4ec0-8420-6942bdb9eb84","ios":"levelo://app?vid=0993ae53-b33b-4ec0-8420-6942bdb9eb84"},"vehicle_type_id":"4","last_reported":1730995879,"current_range_meters":38800,"station_id":"ce4bhph2rcd13ifvqheg","pricing_plan_id":"cebpf4jnsgd1na2vs0mg"},{"bike_id":"c0ad3e9e-8232-47fb-9ba0-a920f06f89e4","system_id":"levelo_inurba_marseille","lat":43.29872,"lon":5.39731,"is_reserved":false,"is_disabled":false,"rental_uris":{"android":"levelo://app?vid=c0ad3e9e-8232-47fb-9ba0-a920f06f89e4","ios":"levelo://app?vid=c0ad3e9e-8232-47fb-9ba0-a920f06f89e4"},"vehicle_type_id":"4","last_reported":1730995879,"current_range_meters":38800,"station_id":"ce4bh0h2rcd13ifvqd50","pricing_plan_id":"cebpf4jnsgd1na2vs0mg"},{"bike_id":"2d7ffc79-bbb4-4e9e-bbbe-4827c0129ea3","system_id":"levelo_inurba_marseille","lat":43.27056,"lon":5.40265,"is_reserved":false,"is_disabled":false,"rental_uris":{"android":"levelo://app?vid=2d7ffc79-bbb4-4e9e-bbbe-4827c0129ea3","ios":"levelo://app?vid=2d7ffc79-bbb4-4e9e-bbbe-4827c0129ea3"},"vehicle_type_id":"4","last_reported":1730995879,"current_range_meters":28800,"station_id":"ce4bhk92rcd13ifvqgc0","pricing_plan_id":"cebpf4jnsgd1na2vs0mg"},{"bike_id":"8a76bcd1-0f5e-4170-8a69-1f04e611da97","system_id":"levelo_inurba_marseille","lat":43.32479,"lon":5.3658,"is_reserved":false,"is_disabled":false,"rental_uris":{"android":"levelo://app?vid=8a76bcd1-0f5e-4170-8a69-1f04e611da97","ios":"levelo://app?vid=8a76bcd1-0f5e-4170-8a69-1f04e611da97"},"vehicle_type_id":"4","last_reported":1730995879,"current_range_meters":10800,"station_id":"ce4bhs12rcd13ifvqhvg","pricing_plan_id":"cebpf4jnsgd1na2vs0mg"},{"bike_id":"bcbb8b4f-0b40-4a73-ba39-d99337986b2c","system_id":"levelo_inurba_marseille","lat":43.32112,"lon":5.36779,"is_reserved":false,"is_disabled":false,"rental_uris":{"android":"levelo://app?vid=bcbb8b4f-0b40-4a73-ba39-d99337986b2c","ios":"levelo://app?vid=bcbb8b4f-0b40-4a73-ba39-d99337986b2c"},"vehicle_type_id":"4","last_reported":1730995879,"current_range_meters":38000,"station_id":"ce4bhrh2rcd13ifvqhug","pricing_plan_id":"cebpf4jnsgd1na2vs0mg"},{"bike_id":"9736e5ae-0044-4983-8ac5-4b40f71ce9dd","system_id":"levelo_inurba_marseille","lat":43.28001,"lon":5.4166,"is_reserved":false,"is_disabled":false,"rental_uris":{"android":"levelo://app?vid=9736e5ae-0044-4983-8ac5-4b40f71ce9dd","ios":"levelo://app?vid=9736e5ae-0044-4983-8ac5-4b40f71ce9dd"},"vehicle_type_id":"4","last_reported":1730995879,"current_range_meters":28400,"station_id":"ce4bho12rcd13ifvqh1g","pricing_plan_id":"cebpf4jnsgd1na2vs0mg"},{"bike_id":"93c3e829-8f89-4247-be5d-e931e8ceb625","system_id":"levelo_inurba_marseille","lat":43.26945,"lon":5.40253,"is_reserved":false,"is_disabled":false,"rental_uris":{"android":"levelo://app?vid=93c3e829-8f89-4247-be5d-e931e8ceb625","ios":"levelo://app?vid=93c3e829-8f89-4247-be5d-e931e8ceb625"},"vehicle_type_id":"4","last_reported":1730995879,"current_range_meters":28400,"station_id":"cjm6bp8fraef2m0cb0m0","pricing_plan_id":"cebpf4jnsgd1na2vs0mg"},{"bike_id":"92bbe5af-b5d9-48fc-afb8-3b15fc8d3190","system_id":"levelo_inurba_marseille","lat":43.31718,"lon":5.42401,"is_reserved":false,"is_disabled":false,"rental_uris":{"android":"levelo://app?vid=92bbe5af-b5d9-48fc-afb8-3b15fc8d3190","ios":"levelo://app?vid=92bbe5af-b5d9-48fc-afb8-3b15fc8d3190"},"vehicle_type_id":"4","last_reported":1730995879,"current_range_meters":33200,"station_id":"ce4bhp92rcd13ifvqhbg","pricing_plan_id":"cebpf4jnsgd1na2vs0mg"},{"bike_id":"5bf4652b-fe5a-4daa-9ac2-aaa677f48439","system_id":"levelo_inurba_marseille","lat":43.25939,"lon":5.40913,"is_reserved":false,"is_disabled":false,"rental_uris":{"android":"levelo://app?vid=5bf4652b-fe5a-4daa-9ac2-aaa677f48439","ios":"levelo://app?vid=5bf4652b-fe5a-4daa-9ac2-aaa677f48439"},"vehicle_type_id":"4","last_reported":1730995879,"current_range_meters":35200,"station_id":"ce4bhm92rcd13ifvqglg","pricing_plan_id":"cebpf4jnsgd1na2vs0mg"},{"bike_id":"087c12e0-51d1-40d3-8796-641de37d21e4","system_id":"levelo_inurba_marseille","lat":43.28278,"lon":5.35058,"is_reserved":false,"is_disabled":false,"rental_uris":{"android":"levelo://app?vid=087c12e0-51d1-40d3-8796-641de37d21e4","ios":"levelo://app?vid=087c12e0-51d1-40d3-8796-641de37d21e4"},"vehicle_type_id":"4","last_reported":1730995879,"current_range_meters":4800,"station_id":"ce4bhbp2rcd13ifvqerg","pricing_plan_id":"cebpf4jnsgd1na2vs0mg"},{"bike_id":"2a80336a-5d27-4559-9daa-1696403544c4","system_id":"levelo_inurba_marseille","lat":43.31227,"lon":5.36866,"is_reserved":false,"is_disabled":false,"rental_uris":{"android":"levelo://app?vid=2a80336a-5d27-4559-9daa-1696403544c4","ios":"levelo://app?vid=2a80336a-5d27-4559-9daa-1696403544c4"},"vehicle_type_id":"4","last_reported":1730995879,"current_range_meters":28800,"station_id":"ce4bgl92rcd13ifvqbq0","pricing_plan_id":"cebpf4jnsgd1na2vs0mg"},{"bike_id":"6e9a653a-4c4a-45f8-939f-a81eb4dd9ff6","system_id":"levelo_inurba_marseille","lat":43.31166,"lon":5.38731,"is_reserved":false,"is_disabled":false,"rental_uris":{"android":"levelo://app?vid=6e9a653a-4c4a-45f8-939f-a81eb4dd9ff6","ios":"levelo://app?vid=6e9a653a-4c4a-45f8-939f-a81eb4dd9ff6"},"vehicle_type_id":"4","last_reported":1730995879,"current_range_meters":24800,"station_id":"ce4bgv12rcd13ifvqcp0","pricing_plan_id":"cebpf4jnsgd1na2vs0mg"},{"bike_id":"cdd64da5-123d-44db-8157-5473e1626676","system_id":"levelo_inurba_marseille","lat":43.29577,"lon":5.36741,"is_reserved":false,"is_disabled":false,"rental_uris":{"android":"levelo://app?vid=cdd64da5-123d-44db-8157-5473e1626676","ios":"levelo://app?vid=cdd64da5-123d-44db-8157-5473e1626676"},"vehicle_type_id":"4","last_reported":1730995879,"current_range_meters":34000,"station_id":"ce4bgph2rcd13ifvqc2g","pricing_plan_id":"cebpf4jnsgd1na2vs0mg"},{"bike_id":"d62e36ca-7b17-4754-aef3-a382d44b84d7","system_id":"levelo_inurba_marseille","lat":43.30461,"lon":5.37907,"is_reserved":false,"is_disabled":false,"rental_uris":{"android":"levelo://app?vid=d62e36ca-7b17-4754-aef3-a382d44b84d7","ios":"levelo://app?vid=d62e36ca-7b17-4754-aef3-a382d44b84d7"},"vehicle_type_id":"4","last_reported":1730995879,"current_range_meters":7200,"station_id":"ce4bgs12rcd13ifvqcag","pricing_plan_id":"cebpf4jnsgd1na2vs0mg"},{"bike_id":"26ee007d-c521-4271-a726-fe0c9aeca07e","system_id":"levelo_inurba_marseille","lat":43.33113,"lon":5.3822,"is_reserved":false,"is_disabled":false,"rental_uris":{"android":"levelo://app?vid=26ee007d-c521-4271-a726-fe0c9aeca07e","ios":"levelo://app?vid=26ee007d-c521-4271-a726-fe0c9aeca07e"},"vehicle_type_id":"4","last_reported":1730995879,"current_range_meters":8000,"station_id":"","pricing_plan_id":"cebpf4jnsgd1na2vs0mg"},{"bike_id":"57a8f577-0796-4b9b-a40b-643e069b336e","system_id":"levelo_inurba_marseille","lat":43.26805,"lon":5.40273,"is_reserved":false,"is_disabled":false,"rental_uris":{"android":"levelo://app?vid=57a8f577-0796-4b9b-a40b-643e069b336e","ios":"levelo://app?vid=57a8f577-0796-4b9b-a40b-643e069b336e"},"vehicle_type_id":"4","last_reported":1730995879,"current_range_meters":32400,"station_id":"ce501612rcd8frsf0b60","pricing_plan_id":"cebpf4jnsgd1na2vs0mg"},{"bike_id":"d144a561-5e7a-4f03-8fbd-10e5949f1098","system_id":"levelo_inurba_marseille","lat":43.29871,"lon":5.39744,"is_reserved":false,"is_disabled":false,"rental_uris":{"android":"levelo://app?vid=d144a561-5e7a-4f03-8fbd-10e5949f1098","ios":"levelo://app?vid=d144a561-5e7a-4f03-8fbd-10e5949f1098"},"vehicle_type_id":"4","last_reported":1730995879,"current_range_meters":6800,"station_id":"ce4bh0h2rcd13ifvqd50","pricing_plan_id":"cebpf4jnsgd1na2vs0mg"},{"bike_id":"7f0ba656-1631-4c27-ab89-5faaa1c59a77","system_id":"levelo_inurba_marseille","lat":43.29022,"lon":5.38658,"is_reserved":false,"is_disabled":false,"rental_uris":{"android":"levelo://app?vid=7f0ba656-1631-4c27-ab89-5faaa1c59a77","ios":"levelo://app?vid=7f0ba656-1631-4c27-ab89-5faaa1c59a77"},"vehicle_type_id":"4","last_reported":1730995879,"current_range_meters":35600,"station_id":"ce4bh4p2rcd13ifvqe0g","pricing_plan_id":"cebpf4jnsgd1na2vs0mg"},{"bike_id":"63679012-d0a0-44a9-a805-20815a46a99d","system_id":"levelo_inurba_marseille","lat":43.33769,"lon":5.37476,"is_reserved":false,"is_disabled":false,"rental_uris":{"android":"levelo://app?vid=63679012-d0a0-44a9-a805-20815a46a99d","ios":"levelo://app?vid=63679012-d0a0-44a9-a805-20815a46a99d"},"vehicle_type_id":"4","last_reported":1730995879,"current_range_meters":6800,"station_id":"","pricing_plan_id":"cebpf4jnsgd1na2vs0mg"},{"bike_id":"dfcf3015-64e1-4c73-9065-23a58d1a316f","system_id":"levelo_inurba_marseille","lat":43.337444,"lon":5.374475,"is_reserved":false,"is_disabled":false,"rental_uris":{"android":"levelo://app?vid=dfcf3015-64e1-4c73-9065-23a58d1a316f","ios":"levelo://app?vid=dfcf3015-64e1-4c73-9065-23a58d1a316f"},"vehicle_type_id":"4","last_reported":1730995879,"current_range_meters":34000,"station_id":"","pricing_plan_id":"cebpf4jnsgd1na2vs0mg"},{"bike_id":"1a4da3d4-5f38-4038-87f3-4fe4d4322da2","system_id":"levelo_inurba_marseille","lat":43.28284,"lon":5.35079,"is_reserved":false,"is_disabled":false,"rental_uris":{"android":"levelo://app?vid=1a4da3d4-5f38-4038-87f3-4fe4d4322da2","ios":"levelo://app?vid=1a4da3d4-5f38-4038-87f3-4fe4d4322da2"},"vehicle_type_id":"4","last_reported":1730995879,"current_range_meters":8800,"station_id":"ce4bhbp2rcd13ifvqerg","pricing_plan_id":"cebpf4jnsgd1na2vs0mg"},{"bike_id":"0562544a-b79d-473e-a168-4b06e39e4c5b","system_id":"levelo_inurba_marseille","lat":43.32476,"lon":5.36574,"is_reserved":false,"is_disabled":false,"rental_uris":{"android":"levelo://app?vid=0562544a-b79d-473e-a168-4b06e39e4c5b","ios":"levelo://app?vid=0562544a-b79d-473e-a168-4b06e39e4c5b"},"vehicle_type_id":"4","last_reported":1730995879,"current_range_meters":30800,"station_id":"ce4bhs12rcd13ifvqhvg","pricing_plan_id":"cebpf4jnsgd1na2vs0mg"},{"bike_id":"cc67c400-f8e8-4d71-9b27-05b441a03844","system_id":"levelo_inurba_marseille","lat":43.2994,"lon":5.3655,"is_reserved":false,"is_disabled":false,"rental_uris":{"android":"levelo://app?vid=cc67c400-f8e8-4d71-9b27-05b441a03844","ios":"levelo://app?vid=cc67c400-f8e8-4d71-9b27-05b441a03844"},"vehicle_type_id":"4","last_reported":1730995879,"current_range_meters":16400,"station_id":"ce4bgm92rcd13ifvqbr0","pricing_plan_id":"cebpf4jnsgd1na2vs0mg"},{"bike_id":"f0c25ae0-cfdc-4136-9f06-999992d1cbf0","system_id":"levelo_inurba_marseille","lat":43.25721,"lon":5.41125,"is_reserved":false,"is_disabled":false,"rental_uris":{"android":"levelo://app?vid=f0c25ae0-cfdc-4136-9f06-999992d1cbf0","ios":"levelo://app?vid=f0c25ae0-cfdc-4136-9f06-999992d1cbf0"},"vehicle_type_id":"4","last_reported":1730995879,"current_range_meters":16400,"station_id":"ce4bhkp2rcd13ifvqgd0","pricing_plan_id":"cebpf4jnsgd1na2vs0mg"},{"bike_id":"684f1c84-d94a-48be-8c76-2150d9473079","system_id":"levelo_inurba_marseille","lat":43.2971,"lon":5.36626,"is_reserved":false,"is_disabled":false,"rental_uris":{"android":"levelo://app?vid=684f1c84-d94a-48be-8c76-2150d9473079","ios":"levelo://app?vid=684f1c84-d94a-48be-8c76-2150d9473079"},"vehicle_type_id":"4","last_reported":1730995879,"current_range_meters":9200,"station_id":"ce4bgn12rcd13ifvqbt0","pricing_plan_id":"cebpf4jnsgd1na2vs0mg"},{"bike_id":"6581458d-8518-45ea-81d3-cf1fe01e71f0","system_id":"levelo_inurba_marseille","lat":43.24177,"lon":5.39739,"is_reserved":false,"is_disabled":false,"rental_uris":{"android":"levelo://app?vid=6581458d-8518-45ea-81d3-cf1fe01e71f0","ios":"levelo://app?vid=6581458d-8518-45ea-81d3-cf1fe01e71f0"},"vehicle_type_id":"4","last_reported":1730995879,"current_range_meters":17600,"station_id":"ce4bhn12rcd13ifvqgpg","pricing_plan_id":"cebpf4jnsgd1na2vs0mg"},{"bike_id":"b7a5b6f8-28b8-4e72-a9ec-7c81056d675b","system_id":"levelo_inurba_marseille","lat":43.28395,"lon":5.37534,"is_reserved":false,"is_disabled":false,"rental_uris":{"android":"levelo://app?vid=b7a5b6f8-28b8-4e72-a9ec-7c81056d675b","ios":"levelo://app?vid=b7a5b6f8-28b8-4e72-a9ec-7c81056d675b"},"vehicle_type_id":"4","last_reported":1730995879,"current_range_meters":3600,"station_id":"ce4bh412rcd13ifvqds0","pricing_plan_id":"cebpf4jnsgd1na2vs0mg"},{"bike_id":"9af9c25b-33ad-4158-a1cc-079d3f198d97","system_id":"levelo_inurba_marseille","lat":43.27074,"lon":5.42283,"is_reserved":false,"is_disabled":false,"rental_uris":{"android":"levelo://app?vid=9af9c25b-33ad-4158-a1cc-079d3f198d97","ios":"levelo://app?vid=9af9c25b-33ad-4158-a1cc-079d3f198d97"},"vehicle_type_id":"4","last_reported":1730995879,"current_range_meters":11600,"station_id":"ce4bhk92rcd13ifvqgb0","pricing_plan_id":"cebpf4jnsgd1na2vs0mg"},{"bike_id":"26e2be75-9cad-44b2-a62b-1e0c8edbf9d4","system_id":"levelo_inurba_marseille","lat":43.27178,"lon":5.40997,"is_reserved":false,"is_disabled":false,"rental_uris":{"android":"levelo://app?vid=26e2be75-9cad-44b2-a62b-1e0c8edbf9d4","ios":"levelo://app?vid=26e2be75-9cad-44b2-a62b-1e0c8edbf9d4"},"vehicle_type_id":"4","last_reported":1730995879,"current_range_meters":37600,"station_id":"ce4bhl12rcd13ifvqgf0","pricing_plan_id":"cebpf4jnsgd1na2vs0mg"},{"bike_id":"3432efb2-a10d-427c-a287-16ab67192755","system_id":"levelo_inurba_marseille","lat":43.32596,"lon":5.41023,"is_reserved":false,"is_disabled":false,"rental_uris":{"android":"levelo://app?vid=3432efb2-a10d-427c-a287-16ab67192755","ios":"levelo://app?vid=3432efb2-a10d-427c-a287-16ab67192755"},"vehicle_type_id":"4","last_reported":1730995879,"current_range_meters":18800,"station_id":"","pricing_plan_id":"cebpf4jnsgd1na2vs0mg"},{"bike_id":"b3452367-7641-43f2-9697-dcc9ef842e23","system_id":"levelo_inurba_marseille","lat":43.28485,"lon":5.38419,"is_reserved":false,"is_disabled":false,"rental_uris":{"android":"levelo://app?vid=b3452367-7641-43f2-9697-dcc9ef842e23","ios":"levelo://app?vid=b3452367-7641-43f2-9697-dcc9ef842e23"},"vehicle_type_id":"4","last_reported":1730995879,"current_range_meters":28800,"station_id":"ce4bh512rcd13ifvqe3g","pricing_plan_id":"cebpf4jnsgd1na2vs0mg"},{"bike_id":"0e65a751-1254-4d73-ba68-a3930f19cf5e","system_id":"levelo_inurba_marseille","lat":43.33026,"lon":5.39043,"is_reserved":false,"is_disabled":false,"rental_uris":{"android":"levelo://app?vid=0e65a751-1254-4d73-ba68-a3930f19cf5e","ios":"levelo://app?vid=0e65a751-1254-4d73-ba68-a3930f19cf5e"},"vehicle_type_id":"4","last_reported":1730995879,"current_range_meters":37600,"station_id":"ce4bhr92rcd13ifvqhrg","pricing_plan_id":"cebpf4jnsgd1na2vs0mg"},{"bike_id":"31db28b1-fd8b-4ac2-b4e8-acdede187bef","system_id":"levelo_inurba_marseille","lat":43.32367,"lon":5.38894,"is_reserved":false,"is_disabled":false,"rental_uris":{"android":"levelo://app?vid=31db28b1-fd8b-4ac2-b4e8-acdede187bef","ios":"levelo://app?vid=31db28b1-fd8b-4ac2-b4e8-acdede187bef"},"vehicle_type_id":"4","last_reported":1730995879,"current_range_meters":38800,"station_id":"ce4bhqp2rcd13ifvqhog","pricing_plan_id":"cebpf4jnsgd1na2vs0mg"},{"bike_id":"cb3bbfe8-eb15-4cf2-b9b1-50cc4da0eb6a","system_id":"levelo_inurba_marseille","lat":43.26807,"lon":5.40261,"is_reserved":false,"is_disabled":false,"rental_uris":{"android":"levelo://app?vid=cb3bbfe8-eb15-4cf2-b9b1-50cc4da0eb6a","ios":"levelo://app?vid=cb3bbfe8-eb15-4cf2-b9b1-50cc4da0eb6a"},"vehicle_type_id":"4","last_reported":1730995879,"current_range_meters":9600,"station_id":"ce501612rcd8frsf0b60","pricing_plan_id":"cebpf4jnsgd1na2vs0mg"},{"bike_id":"b94fc4bd-2b0b-48b2-ae35-e1cd5f4c4ffc","system_id":"levelo_inurba_marseille","lat":43.30889,"lon":5.39662,"is_reserved":false,"is_disabled":false,"rental_uris":{"android":"levelo://app?vid=b94fc4bd-2b0b-48b2-ae35-e1cd5f4c4ffc","ios":"levelo://app?vid=b94fc4bd-2b0b-48b2-ae35-e1cd5f4c4ffc"},"vehicle_type_id":"4","last_reported":1730995879,"current_range_meters":2800,"station_id":"ce4bh012rcd13ifvqcv0","pricing_plan_id":"cebpf4jnsgd1na2vs0mg"},{"bike_id":"1a048762-4e60-40dd-ab6f-14975e9b44d5","system_id":"levelo_inurba_marseille","lat":43.31226,"lon":5.36847,"is_reserved":false,"is_disabled":false,"rental_uris":{"android":"levelo://app?vid=1a048762-4e60-40dd-ab6f-14975e9b44d5","ios":"levelo://app?vid=1a048762-4e60-40dd-ab6f-14975e9b44d5"},"vehicle_type_id":"4","last_reported":1730995879,"current_range_meters":32800,"station_id":"ce4bgl92rcd13ifvqbq0","pricing_plan_id":"cebpf4jnsgd1na2vs0mg"},{"bike_id":"bf0a5854-fd92-490f-ae2d-df643ad5e951","system_id":"levelo_inurba_marseille","lat":43.3014,"lon":5.36443,"is_reserved":false,"is_disabled":false,"rental_uris":{"android":"levelo://app?vid=bf0a5854-fd92-490f-ae2d-df643ad5e951","ios":"levelo://app?vid=bf0a5854-fd92-490f-ae2d-df643ad5e951"},"vehicle_type_id":"4","last_reported":1730995879,"current_range_meters":18000,"station_id":"","pricing_plan_id":"cebpf4jnsgd1na2vs0mg"},{"bike_id":"e1bdeadf-f5f1-4580-b428-5be14cea7162","system_id":"levelo_inurba_marseille","lat":43.23883,"lon":5.42898,"is_reserved":false,"is_disabled":false,"rental_uris":{"android":"levelo://app?vid=e1bdeadf-f5f1-4580-b428-5be14cea7162","ios":"levelo://app?vid=e1bdeadf-f5f1-4580-b428-5be14cea7162"},"vehicle_type_id":"4","last_reported":1730995879,"current_range_meters":12800,"station_id":"ce4bhmp2rcd13ifvqgog","pricing_plan_id":"cebpf4jnsgd1na2vs0mg"},{"bike_id":"1cd4cd9e-1a1a-48c5-a59e-5214849ffcfc","system_id":"levelo_inurba_marseille","lat":43.292648,"lon":5.408962,"is_reserved":false,"is_disabled":false,"rental_uris":{"android":"levelo://app?vid=1cd4cd9e-1a1a-48c5-a59e-5214849ffcfc","ios":"levelo://app?vid=1cd4cd9e-1a1a-48c5-a59e-5214849ffcfc"},"vehicle_type_id":"4","last_reported":1730995879,"current_range_meters":16800,"station_id":"ce4bh192rcd13ifvqdc0","pricing_plan_id":"cebpf4jnsgd1na2vs0mg"},{"bike_id":"c0cd4c56-8008-47bf-9ddc-fc31b7c69a28","system_id":"levelo_inurba_marseille","lat":43.28865,"lon":5.39317,"is_reserved":false,"is_disabled":false,"rental_uris":{"android":"levelo://app?vid=c0cd4c56-8008-47bf-9ddc-fc31b7c69a28","ios":"levelo://app?vid=c0cd4c56-8008-47bf-9ddc-fc31b7c69a28"},"vehicle_type_id":"4","last_reported":1730995879,"current_range_meters":25200,"station_id":"ce4bh2p2rcd13ifvqdi0","pricing_plan_id":"cebpf4jnsgd1na2vs0mg"},{"bike_id":"b1f2b8c0-59d6-4ea5-82dc-5dc447dbb7b0","system_id":"levelo_inurba_marseille","lat":43.30953,"lon":5.39031,"is_reserved":false,"is_disabled":false,"rental_uris":{"android":"levelo://app?vid=b1f2b8c0-59d6-4ea5-82dc-5dc447dbb7b0","ios":"levelo://app?vid=b1f2b8c0-59d6-4ea5-82dc-5dc447dbb7b0"},"vehicle_type_id":"4","last_reported":1730995879,"current_range_meters":19600,"station_id":"ce4bgup2rcd13ifvqco0","pricing_plan_id":"cebpf4jnsgd1na2vs0mg"},{"bike_id":"d3e54780-ddfb-432e-bfd3-55d19e8c43c8","system_id":"levelo_inurba_marseille","lat":43.31752,"lon":5.39032,"is_reserved":false,"is_disabled":false,"rental_uris":{"android":"levelo://app?vid=d3e54780-ddfb-432e-bfd3-55d19e8c43c8","ios":"levelo://app?vid=d3e54780-ddfb-432e-bfd3-55d19e8c43c8"},"vehicle_type_id":"4","last_reported":1730995879,"current_range_meters":30400,"station_id":"ce4bhqp2rcd13ifvqhng","pricing_plan_id":"cebpf4jnsgd1na2vs0mg"},{"bike_id":"f48ced8d-222f-42c7-a912-0f18b0eecc42","system_id":"levelo_inurba_marseille","lat":43.32109,"lon":5.36781,"is_reserved":false,"is_disabled":false,"rental_uris":{"android":"levelo://app?vid=f48ced8d-222f-42c7-a912-0f18b0eecc42","ios":"levelo://app?vid=f48ced8d-222f-42c7-a912-0f18b0eecc42"},"vehicle_type_id":"4","last_reported":1730995879,"current_range_meters":22000,"station_id":"ce4bhrh2rcd13ifvqhug","pricing_plan_id":"cebpf4jnsgd1na2vs0mg"},{"bike_id":"6cd8abf5-31e6-41d0-add4-43e96f2225ed","system_id":"levelo_inurba_marseille","lat":43.28615,"lon":5.35111,"is_reserved":false,"is_disabled":false,"rental_uris":{"android":"levelo://app?vid=6cd8abf5-31e6-41d0-add4-43e96f2225ed","ios":"levelo://app?vid=6cd8abf5-31e6-41d0-add4-43e96f2225ed"},"vehicle_type_id":"4","last_reported":1730995879,"current_range_meters":10000,"station_id":"ce4bhch2rcd13ifvqeug","pricing_plan_id":"cebpf4jnsgd1na2vs0mg"},{"bike_id":"82b97aae-830e-4430-ae99-7cef8ad2c993","system_id":"levelo_inurba_marseille","lat":43.337444,"lon":5.374475,"is_reserved":false,"is_disabled":false,"rental_uris":{"android":"levelo://app?vid=82b97aae-830e-4430-ae99-7cef8ad2c993","ios":"levelo://app?vid=82b97aae-830e-4430-ae99-7cef8ad2c993"},"vehicle_type_id":"4","last_reported":1730995879,"current_range_meters":36000,"station_id":"","pricing_plan_id":"cebpf4jnsgd1na2vs0mg"},{"bike_id":"ad30a104-ba1e-46d9-8895-2e7b87b23214","system_id":"levelo_inurba_marseille","lat":43.31229,"lon":5.36861,"is_reserved":false,"is_disabled":false,"rental_uris":{"android":"levelo://app?vid=ad30a104-ba1e-46d9-8895-2e7b87b23214","ios":"levelo://app?vid=ad30a104-ba1e-46d9-8895-2e7b87b23214"},"vehicle_type_id":"4","last_reported":1730995879,"current_range_meters":39200,"station_id":"ce4bgl92rcd13ifvqbq0","pricing_plan_id":"cebpf4jnsgd1na2vs0mg"},{"bike_id":"e11f2957-c866-431f-b50b-d0178644b09f","system_id":"levelo_inurba_marseille","lat":43.23183,"lon":5.39997,"is_reserved":false,"is_disabled":false,"rental_uris":{"android":"levelo://app?vid=e11f2957-c866-431f-b50b-d0178644b09f","ios":"levelo://app?vid=e11f2957-c866-431f-b50b-d0178644b09f"},"vehicle_type_id":"4","last_reported":1730995879,"current_range_meters":39200,"station_id":"ce4bhn12rcd13ifvqgqg","pricing_plan_id":"cebpf4jnsgd1na2vs0mg"},{"bike_id":"3198d98f-21b5-4c50-a2d3-13cfa3a1c6f3","system_id":"levelo_inurba_marseille","lat":43.27945,"lon":5.41048,"is_reserved":false,"is_disabled":false,"rental_uris":{"android":"levelo://app?vid=3198d98f-21b5-4c50-a2d3-13cfa3a1c6f3","ios":"levelo://app?vid=3198d98f-21b5-4c50-a2d3-13cfa3a1c6f3"},"vehicle_type_id":"4","last_reported":1730995879,"current_range_meters":20400,"station_id":"ce4bhnp2rcd13ifvqh0g","pricing_plan_id":"cebpf4jnsgd1na2vs0mg"},{"bike_id":"ae285f4b-c27f-4985-b4b5-516c95adf5dd","system_id":"levelo_inurba_marseille","lat":43.29032,"lon":5.3865,"is_reserved":false,"is_disabled":false,"rental_uris":{"android":"levelo://app?vid=ae285f4b-c27f-4985-b4b5-516c95adf5dd","ios":"levelo://app?vid=ae285f4b-c27f-4985-b4b5-516c95adf5dd"},"vehicle_type_id":"4","last_reported":1730995879,"current_range_meters":19600,"station_id":"ce4bh4p2rcd13ifvqe0g","pricing_plan_id":"cebpf4jnsgd1na2vs0mg"},{"bike_id":"92bfdb81-1ac2-4e23-9e47-9d5b1f837dde","system_id":"levelo_inurba_marseille","lat":43.30532,"lon":5.36546,"is_reserved":false,"is_disabled":false,"rental_uris":{"android":"levelo://app?vid=92bfdb81-1ac2-4e23-9e47-9d5b1f837dde","ios":"levelo://app?vid=92bfdb81-1ac2-4e23-9e47-9d5b1f837dde"},"vehicle_type_id":"4","last_reported":1730995879,"current_range_meters":16800,"station_id":"ce4bgs12rcd13ifvqcag","pricing_plan_id":"cebpf4jnsgd1na2vs0mg"},{"bike_id":"8befa393-3872-493a-9a5d-6005d6827670","system_id":"levelo_inurba_marseille","lat":43.33722,"lon":5.39188,"is_reserved":false,"is_disabled":false,"rental_uris":{"android":"levelo://app?vid=8befa393-3872-493a-9a5d-6005d6827670","ios":"levelo://app?vid=8befa393-3872-493a-9a5d-6005d6827670"},"vehicle_type_id":"4","last_reported":1730995879,"current_range_meters":39200,"station_id":"ce4bhr92rcd13ifvqhsg","pricing_plan_id":"cebpf4jnsgd1na2vs0mg"},{"bike_id":"9fc49755-493e-4943-ba82-79480e8185c0","system_id":"levelo_inurba_marseille","lat":43.25498,"lon":5.37652,"is_reserved":false,"is_disabled":false,"rental_uris":{"android":"levelo://app?vid=9fc49755-493e-4943-ba82-79480e8185c0","ios":"levelo://app?vid=9fc49755-493e-4943-ba82-79480e8185c0"},"vehicle_type_id":"4","last_reported":1730995879,"current_range_meters":39200,"station_id":"ce4bhh12rcd13ifvqff0","pricing_plan_id":"cebpf4jnsgd1na2vs0mg"},{"bike_id":"4f88d9c7-dd44-4163-8a07-70a135f34a3f","system_id":"levelo_inurba_marseille","lat":43.29101,"lon":5.3812,"is_reserved":false,"is_disabled":false,"rental_uris":{"android":"levelo://app?vid=4f88d9c7-dd44-4163-8a07-70a135f34a3f","ios":"levelo://app?vid=4f88d9c7-dd44-4163-8a07-70a135f34a3f"},"vehicle_type_id":"4","last_reported":1730995879,"current_range_meters":29600,"station_id":"ce4bh512rcd13ifvqe2g","pricing_plan_id":"cebpf4jnsgd1na2vs0mg"},{"bike_id":"0e0aa953-ce04-478d-bf26-e5f223f30f5e","system_id":"levelo_inurba_marseille","lat":43.30542,"lon":5.3654,"is_reserved":false,"is_disabled":false,"rental_uris":{"android":"levelo://app?vid=0e0aa953-ce04-478d-bf26-e5f223f30f5e","ios":"levelo://app?vid=0e0aa953-ce04-478d-bf26-e5f223f30f5e"},"vehicle_type_id":"4","last_reported":1730995879,"current_range_meters":39200,"station_id":"ce4bgs12rcd13ifvqcag","pricing_plan_id":"cebpf4jnsgd1na2vs0mg"},{"bike_id":"7fe5dab9-854c-4d53-832b-7fc0ce1cac8d","system_id":"levelo_inurba_marseille","lat":43.32488,"lon":5.36572,"is_reserved":false,"is_disabled":false,"rental_uris":{"android":"levelo://app?vid=7fe5dab9-854c-4d53-832b-7fc0ce1cac8d","ios":"levelo://app?vid=7fe5dab9-854c-4d53-832b-7fc0ce1cac8d"},"vehicle_type_id":"4","last_reported":1730995879,"current_range_meters":12000,"station_id":"ce4bhs12rcd13ifvqhvg","pricing_plan_id":"cebpf4jnsgd1na2vs0mg"},{"bike_id":"e42dd4c8-e95b-41bb-85eb-5f35636fee1e","system_id":"levelo_inurba_marseille","lat":43.2987,"lon":5.39734,"is_reserved":false,"is_disabled":false,"rental_uris":{"android":"levelo://app?vid=e42dd4c8-e95b-41bb-85eb-5f35636fee1e","ios":"levelo://app?vid=e42dd4c8-e95b-41bb-85eb-5f35636fee1e"},"vehicle_type_id":"4","last_reported":1730995879,"current_range_meters":38800,"station_id":"ce4bh0h2rcd13ifvqd50","pricing_plan_id":"cebpf4jnsgd1na2vs0mg"},{"bike_id":"af972262-c850-46a9-8d43-fc943639335e","system_id":"levelo_inurba_marseille","lat":43.312284,"lon":5.36857,"is_reserved":false,"is_disabled":false,"rental_uris":{"android":"levelo://app?vid=af972262-c850-46a9-8d43-fc943639335e","ios":"levelo://app?vid=af972262-c850-46a9-8d43-fc943639335e"},"vehicle_type_id":"4","last_reported":1730995879,"current_range_meters":36800,"station_id":"ce4bgl92rcd13ifvqbq0","pricing_plan_id":"cebpf4jnsgd1na2vs0mg"},{"bike_id":"dffec2a8-c439-421a-b78b-4882a98cf51d","system_id":"levelo_inurba_marseille","lat":43.25859,"lon":5.39914,"is_reserved":false,"is_disabled":false,"rental_uris":{"android":"levelo://app?vid=dffec2a8-c439-421a-b78b-4882a98cf51d","ios":"levelo://app?vid=dffec2a8-c439-421a-b78b-4882a98cf51d"},"vehicle_type_id":"4","last_reported":1730995879,"current_range_meters":26000,"station_id":"ce4bhl92rcd13ifvqghg","pricing_plan_id":"cebpf4jnsgd1na2vs0mg"},{"bike_id":"ff90f044-b67a-4b64-a278-2703b27d5b23","system_id":"levelo_inurba_marseille","lat":43.28537,"lon":5.37779,"is_reserved":false,"is_disabled":false,"rental_uris":{"android":"levelo://app?vid=ff90f044-b67a-4b64-a278-2703b27d5b23","ios":"levelo://app?vid=ff90f044-b67a-4b64-a278-2703b27d5b23"},"vehicle_type_id":"4","last_reported":1730995879,"current_range_meters":25200,"station_id":"","pricing_plan_id":"cebpf4jnsgd1na2vs0mg"},{"bike_id":"021feda6-65fc-487a-8026-afd888fc364c","system_id":"levelo_inurba_marseille","lat":43.2936,"lon":5.39581,"is_reserved":false,"is_disabled":false,"rental_uris":{"android":"levelo://app?vid=021feda6-65fc-487a-8026-afd888fc364c","ios":"levelo://app?vid=021feda6-65fc-487a-8026-afd888fc364c"},"vehicle_type_id":"4","last_reported":1730995879,"current_range_meters":27600,"station_id":"","pricing_plan_id":"cebpf4jnsgd1na2vs0mg"},{"bike_id":"bee07b44-92cd-4075-8079-76defd1a56fd","system_id":"levelo_inurba_marseille","lat":43.26943,"lon":5.40258,"is_reserved":false,"is_disabled":false,"rental_uris":{"android":"levelo://app?vid=bee07b44-92cd-4075-8079-76defd1a56fd","ios":"levelo://app?vid=bee07b44-92cd-4075-8079-76defd1a56fd"},"vehicle_type_id":"4","last_reported":1730995879,"current_range_meters":30800,"station_id":"cjm6bp8fraef2m0cb0m0","pricing_plan_id":"cebpf4jnsgd1na2vs0mg"},{"bike_id":"11063700-6e58-46bd-9c68-4557d8eae7ab","system_id":"levelo_inurba_marseille","lat":43.2465,"lon":5.38894,"is_reserved":false,"is_disabled":false,"rental_uris":{"android":"levelo://app?vid=11063700-6e58-46bd-9c68-4557d8eae7ab","ios":"levelo://app?vid=11063700-6e58-46bd-9c68-4557d8eae7ab"},"vehicle_type_id":"4","last_reported":1730995879,"current_range_meters":28000,"station_id":"ce4bhg12rcd13ifvqf60","pricing_plan_id":"cebpf4jnsgd1na2vs0mg"},{"bike_id":"0805f1ae-e78f-411e-8eaf-0a783b5dfef2","system_id":"levelo_inurba_marseille","lat":43.29424,"lon":5.38621,"is_reserved":false,"is_disabled":false,"rental_uris":{"android":"levelo://app?vid=0805f1ae-e78f-411e-8eaf-0a783b5dfef2","ios":"levelo://app?vid=0805f1ae-e78f-411e-8eaf-0a783b5dfef2"},"vehicle_type_id":"4","last_reported":1730995879,"current_range_meters":3600,"station_id":"ce4bh2h2rcd13ifvqdh0","pricing_plan_id":"cebpf4jnsgd1na2vs0mg"},{"bike_id":"90848dd6-d819-452a-acb1-0028c47c18d3","system_id":"levelo_inurba_marseille","lat":43.26896,"lon":5.36827,"is_reserved":false,"is_disabled":false,"rental_uris":{"android":"levelo://app?vid=90848dd6-d819-452a-acb1-0028c47c18d3","ios":"levelo://app?vid=90848dd6-d819-452a-acb1-0028c47c18d3"},"vehicle_type_id":"4","last_reported":1730995879,"current_range_meters":20800,"station_id":"","pricing_plan_id":"cebpf4jnsgd1na2vs0mg"},{"bike_id":"47c3268e-69b5-4d08-8c68-7e6daf6fc6ba","system_id":"levelo_inurba_marseille","lat":43.2905,"lon":5.35913,"is_reserved":false,"is_disabled":false,"rental_uris":{"android":"levelo://app?vid=47c3268e-69b5-4d08-8c68-7e6daf6fc6ba","ios":"levelo://app?vid=47c3268e-69b5-4d08-8c68-7e6daf6fc6ba"},"vehicle_type_id":"4","last_reported":1730995879,"current_range_meters":8000,"station_id":"ce4bha92rcd13ifvqeg0","pricing_plan_id":"cebpf4jnsgd1na2vs0mg"},{"bike_id":"5ece9216-9d6a-4fc2-8f7b-7329d0dd1cb8","system_id":"levelo_inurba_marseille","lat":43.30914,"lon":5.36838,"is_reserved":false,"is_disabled":false,"rental_uris":{"android":"levelo://app?vid=5ece9216-9d6a-4fc2-8f7b-7329d0dd1cb8","ios":"levelo://app?vid=5ece9216-9d6a-4fc2-8f7b-7329d0dd1cb8"},"vehicle_type_id":"4","last_reported":1730995879,"current_range_meters":30800,"station_id":"ce4bgn92rcd13ifvqbvg","pricing_plan_id":"cebpf4jnsgd1na2vs0mg"},{"bike_id":"a3ac34b3-11a5-4cb8-9d83-e5bbb7f3ddb7","system_id":"levelo_inurba_marseille","lat":43.28001,"lon":5.41671,"is_reserved":false,"is_disabled":false,"rental_uris":{"android":"levelo://app?vid=a3ac34b3-11a5-4cb8-9d83-e5bbb7f3ddb7","ios":"levelo://app?vid=a3ac34b3-11a5-4cb8-9d83-e5bbb7f3ddb7"},"vehicle_type_id":"4","last_reported":1730995879,"current_range_meters":4800,"station_id":"ce4bho12rcd13ifvqh1g","pricing_plan_id":"cebpf4jnsgd1na2vs0mg"},{"bike_id":"8ebfea15-0bdd-4724-9740-4f3ebdbb1c51","system_id":"levelo_inurba_marseille","lat":43.290894,"lon":5.381309,"is_reserved":false,"is_disabled":false,"rental_uris":{"android":"levelo://app?vid=8ebfea15-0bdd-4724-9740-4f3ebdbb1c51","ios":"levelo://app?vid=8ebfea15-0bdd-4724-9740-4f3ebdbb1c51"},"vehicle_type_id":"4","last_reported":1730995879,"current_range_meters":16800,"station_id":"ce4bh512rcd13ifvqe2g","pricing_plan_id":"cebpf4jnsgd1na2vs0mg"},{"bike_id":"81865f80-843f-4f21-83fa-be1669af1cd0","system_id":"levelo_inurba_marseille","lat":43.26212,"lon":5.37446,"is_reserved":false,"is_disabled":false,"rental_uris":{"android":"levelo://app?vid=81865f80-843f-4f21-83fa-be1669af1cd0","ios":"levelo://app?vid=81865f80-843f-4f21-83fa-be1669af1cd0"},"vehicle_type_id":"4","last_reported":1730995879,"current_range_meters":38800,"station_id":"ce4bhgp2rcd13ifvqfc0","pricing_plan_id":"cebpf4jnsgd1na2vs0mg"},{"bike_id":"80e5aff5-2c3a-48a0-9b04-ba3d2485ae08","system_id":"levelo_inurba_marseille","lat":43.2508,"lon":5.39505,"is_reserved":false,"is_disabled":false,"rental_uris":{"android":"levelo://app?vid=80e5aff5-2c3a-48a0-9b04-ba3d2485ae08","ios":"levelo://app?vid=80e5aff5-2c3a-48a0-9b04-ba3d2485ae08"},"vehicle_type_id":"4","last_reported":1730995879,"current_range_meters":16000,"station_id":"ce4bhm12rcd13ifvqgkg","pricing_plan_id":"cebpf4jnsgd1na2vs0mg"},{"bike_id":"5b3b4202-5abc-4b67-9cd0-f08d9124df40","system_id":"levelo_inurba_marseille","lat":43.337444,"lon":5.374475,"is_reserved":false,"is_disabled":false,"rental_uris":{"android":"levelo://app?vid=5b3b4202-5abc-4b67-9cd0-f08d9124df40","ios":"levelo://app?vid=5b3b4202-5abc-4b67-9cd0-f08d9124df40"},"vehicle_type_id":"4","last_reported":1730995879,"current_range_meters":38400,"station_id":"","pricing_plan_id":"cebpf4jnsgd1na2vs0mg"},{"bike_id":"54b7f1f6-7341-4bb2-bbd6-8766f023bcaf","system_id":"levelo_inurba_marseille","lat":43.30324,"lon":5.40436,"is_reserved":false,"is_disabled":false,"rental_uris":{"android":"levelo://app?vid=54b7f1f6-7341-4bb2-bbd6-8766f023bcaf","ios":"levelo://app?vid=54b7f1f6-7341-4bb2-bbd6-8766f023bcaf"},"vehicle_type_id":"4","last_reported":1730995879,"current_range_meters":20400,"station_id":"ce4bh012rcd13ifvqd10","pricing_plan_id":"cebpf4jnsgd1na2vs0mg"},{"bike_id":"53c2d71b-a41e-4e06-bcc8-cc5ff84cece4","system_id":"levelo_inurba_marseille","lat":43.3302,"lon":5.39055,"is_reserved":false,"is_disabled":false,"rental_uris":{"android":"levelo://app?vid=53c2d71b-a41e-4e06-bcc8-cc5ff84cece4","ios":"levelo://app?vid=53c2d71b-a41e-4e06-bcc8-cc5ff84cece4"},"vehicle_type_id":"4","last_reported":1730995879,"current_range_meters":30000,"station_id":"ce4bhr92rcd13ifvqhrg","pricing_plan_id":"cebpf4jnsgd1na2vs0mg"},{"bike_id":"8b3bfdfd-0c1d-4424-8d53-d1abee591b85","system_id":"levelo_inurba_marseille","lat":43.32483,"lon":5.36573,"is_reserved":false,"is_disabled":false,"rental_uris":{"android":"levelo://app?vid=8b3bfdfd-0c1d-4424-8d53-d1abee591b85","ios":"levelo://app?vid=8b3bfdfd-0c1d-4424-8d53-d1abee591b85"},"vehicle_type_id":"4","last_reported":1730995879,"current_range_meters":16000,"station_id":"ce4bhs12rcd13ifvqhvg","pricing_plan_id":"cebpf4jnsgd1na2vs0mg"},{"bike_id":"1e91633c-defa-4f6e-9cbb-5300a36868e5","system_id":"levelo_inurba_marseille","lat":43.32546,"lon":5.41456,"is_reserved":false,"is_disabled":false,"rental_uris":{"android":"levelo://app?vid=1e91633c-defa-4f6e-9cbb-5300a36868e5","ios":"levelo://app?vid=1e91633c-defa-4f6e-9cbb-5300a36868e5"},"vehicle_type_id":"4","last_reported":1730995879,"current_range_meters":6400,"station_id":"ce4bhq12rcd13ifvqhhg","pricing_plan_id":"cebpf4jnsgd1na2vs0mg"},{"bike_id":"1a538ea6-3b6e-4a15-91e8-486656776b2c","system_id":"levelo_inurba_marseille","lat":43.26031,"lon":5.37546,"is_reserved":false,"is_disabled":false,"rental_uris":{"android":"levelo://app?vid=1a538ea6-3b6e-4a15-91e8-486656776b2c","ios":"levelo://app?vid=1a538ea6-3b6e-4a15-91e8-486656776b2c"},"vehicle_type_id":"4","last_reported":1730995879,"current_range_meters":39200,"station_id":"ce4bhgh2rcd13ifvqfa0","pricing_plan_id":"cebpf4jnsgd1na2vs0mg"},{"bike_id":"33e2acff-8f3b-4d8e-a666-66d30e472997","system_id":"levelo_inurba_marseille","lat":43.31354,"lon":5.36714,"is_reserved":false,"is_disabled":false,"rental_uris":{"android":"levelo://app?vid=33e2acff-8f3b-4d8e-a666-66d30e472997","ios":"levelo://app?vid=33e2acff-8f3b-4d8e-a666-66d30e472997"},"vehicle_type_id":"4","last_reported":1730995879,"current_range_meters":38000,"station_id":"ce4bgr92rcd13ifvqc6g","pricing_plan_id":"cebpf4jnsgd1na2vs0mg"},{"bike_id":"c598bba8-f360-4ccc-9806-6cc9665deb5d","system_id":"levelo_inurba_marseille","lat":43.29899,"lon":5.43666,"is_reserved":false,"is_disabled":false,"rental_uris":{"android":"levelo://app?vid=c598bba8-f360-4ccc-9806-6cc9665deb5d","ios":"levelo://app?vid=c598bba8-f360-4ccc-9806-6cc9665deb5d"},"vehicle_type_id":"4","last_reported":1730995879,"current_range_meters":15200,"station_id":"ce4bhpp2rcd13ifvqhfg","pricing_plan_id":"cebpf4jnsgd1na2vs0mg"},{"bike_id":"47c488a2-76cc-486a-84e1-1bcb45dfb04b","system_id":"levelo_inurba_marseille","lat":43.31996,"lon":5.3816,"is_reserved":false,"is_disabled":false,"rental_uris":{"android":"levelo://app?vid=47c488a2-76cc-486a-84e1-1bcb45dfb04b","ios":"levelo://app?vid=47c488a2-76cc-486a-84e1-1bcb45dfb04b"},"vehicle_type_id":"4","last_reported":1730995879,"current_range_meters":28800,"station_id":"ce4bhr12rcd13ifvqhpg","pricing_plan_id":"cebpf4jnsgd1na2vs0mg"},{"bike_id":"9f4a1336-50f2-4c60-9fc9-5ed56515e270","system_id":"levelo_inurba_marseille","lat":43.32368,"lon":5.38892,"is_reserved":false,"is_disabled":false,"rental_uris":{"android":"levelo://app?vid=9f4a1336-50f2-4c60-9fc9-5ed56515e270","ios":"levelo://app?vid=9f4a1336-50f2-4c60-9fc9-5ed56515e270"},"vehicle_type_id":"4","last_reported":1730995879,"current_range_meters":38800,"station_id":"ce4bhqp2rcd13ifvqhog","pricing_plan_id":"cebpf4jnsgd1na2vs0mg"},{"bike_id":"f231a7e1-bd67-44b8-aae9-00d8d337fb8b","system_id":"levelo_inurba_marseille","lat":43.2695,"lon":5.38638,"is_reserved":false,"is_disabled":false,"rental_uris":{"android":"levelo://app?vid=f231a7e1-bd67-44b8-aae9-00d8d337fb8b","ios":"levelo://app?vid=f231a7e1-bd67-44b8-aae9-00d8d337fb8b"},"vehicle_type_id":"4","last_reported":1730995879,"current_range_meters":23200,"station_id":"ce4bhh92rcd13ifvqfh0","pricing_plan_id":"cebpf4jnsgd1na2vs0mg"},{"bike_id":"61aa6bae-4455-48bb-a117-184937161371","system_id":"levelo_inurba_marseille","lat":43.25828,"lon":5.39441,"is_reserved":false,"is_disabled":false,"rental_uris":{"android":"levelo://app?vid=61aa6bae-4455-48bb-a117-184937161371","ios":"levelo://app?vid=61aa6bae-4455-48bb-a117-184937161371"},"vehicle_type_id":"4","last_reported":1730995879,"current_range_meters":5600,"station_id":"ce4bhip2rcd13ifvqft0","pricing_plan_id":"cebpf4jnsgd1na2vs0mg"},{"bike_id":"f534cbce-b9d1-4ed8-b84d-058b14be0071","system_id":"levelo_inurba_marseille","lat":43.2958,"lon":5.3675,"is_reserved":false,"is_disabled":false,"rental_uris":{"android":"levelo://app?vid=f534cbce-b9d1-4ed8-b84d-058b14be0071","ios":"levelo://app?vid=f534cbce-b9d1-4ed8-b84d-058b14be0071"},"vehicle_type_id":"4","last_reported":1730995879,"current_range_meters":38800,"station_id":"ce4bgph2rcd13ifvqc2g","pricing_plan_id":"cebpf4jnsgd1na2vs0mg"},{"bike_id":"e862219a-18da-4a58-a0d8-2b758ac740ae","system_id":"levelo_inurba_marseille","lat":43.26491,"lon":5.39543,"is_reserved":false,"is_disabled":false,"rental_uris":{"android":"levelo://app?vid=e862219a-18da-4a58-a0d8-2b758ac740ae","ios":"levelo://app?vid=e862219a-18da-4a58-a0d8-2b758ac740ae"},"vehicle_type_id":"4","last_reported":1730995879,"current_range_meters":36400,"station_id":"ce4bhi12rcd13ifvqfq0","pricing_plan_id":"cebpf4jnsgd1na2vs0mg"},{"bike_id":"a28be342-40fd-46c4-b3d0-f40c8150b913","system_id":"levelo_inurba_marseille","lat":43.31884,"lon":5.40751,"is_reserved":false,"is_disabled":false,"rental_uris":{"android":"levelo://app?vid=a28be342-40fd-46c4-b3d0-f40c8150b913","ios":"levelo://app?vid=a28be342-40fd-46c4-b3d0-f40c8150b913"},"vehicle_type_id":"4","last_reported":1730995879,"current_range_meters":18000,"station_id":"ce4bhq12rcd13ifvqhig","pricing_plan_id":"cebpf4jnsgd1na2vs0mg"},{"bike_id":"707d5879-0be4-47b3-a523-c9c6ec132d1a","system_id":"levelo_inurba_marseille","lat":43.270556,"lon":5.402604,"is_reserved":false,"is_disabled":false,"rental_uris":{"android":"levelo://app?vid=707d5879-0be4-47b3-a523-c9c6ec132d1a","ios":"levelo://app?vid=707d5879-0be4-47b3-a523-c9c6ec132d1a"},"vehicle_type_id":"4","last_reported":1730995879,"current_range_meters":15200,"station_id":"ce4bhip2rcd13ifvqft0","pricing_plan_id":"cebpf4jnsgd1na2vs0mg"},{"bike_id":"93dbb929-1a93-49f0-931b-27045ba1fbe5","system_id":"levelo_inurba_marseille","lat":43.30143,"lon":5.38118,"is_reserved":false,"is_disabled":false,"rental_uris":{"android":"levelo://app?vid=93dbb929-1a93-49f0-931b-27045ba1fbe5","ios":"levelo://app?vid=93dbb929-1a93-49f0-931b-27045ba1fbe5"},"vehicle_type_id":"4","last_reported":1730995879,"current_range_meters":4000,"station_id":"ce4bgjp2rcd13ifvqbh0","pricing_plan_id":"cebpf4jnsgd1na2vs0mg"},{"bike_id":"b8872bd1-2499-4711-a609-12c4c71b687b","system_id":"levelo_inurba_marseille","lat":43.30552,"lon":5.36545,"is_reserved":false,"is_disabled":false,"rental_uris":{"android":"levelo://app?vid=b8872bd1-2499-4711-a609-12c4c71b687b","ios":"levelo://app?vid=b8872bd1-2499-4711-a609-12c4c71b687b"},"vehicle_type_id":"4","last_reported":1730995879,"current_range_meters":32400,"station_id":"ce4bgs12rcd13ifvqcag","pricing_plan_id":"cebpf4jnsgd1na2vs0mg"},{"bike_id":"76904182-6af9-4a85-ada4-d3e6d2ad8b6f","system_id":"levelo_inurba_marseille","lat":43.32474,"lon":5.36569,"is_reserved":false,"is_disabled":false,"rental_uris":{"android":"levelo://app?vid=76904182-6af9-4a85-ada4-d3e6d2ad8b6f","ios":"levelo://app?vid=76904182-6af9-4a85-ada4-d3e6d2ad8b6f"},"vehicle_type_id":"4","last_reported":1730995879,"current_range_meters":26000,"station_id":"ce4bhs12rcd13ifvqhvg","pricing_plan_id":"cebpf4jnsgd1na2vs0mg"},{"bike_id":"5ded64c9-0dd0-46b1-8699-44e5733cc693","system_id":"levelo_inurba_marseille","lat":43.241821,"lon":5.397305,"is_reserved":false,"is_disabled":false,"rental_uris":{"android":"levelo://app?vid=5ded64c9-0dd0-46b1-8699-44e5733cc693","ios":"levelo://app?vid=5ded64c9-0dd0-46b1-8699-44e5733cc693"},"vehicle_type_id":"4","last_reported":1730995879,"current_range_meters":8400,"station_id":"ce4bhn12rcd13ifvqgpg","pricing_plan_id":"cebpf4jnsgd1na2vs0mg"},{"bike_id":"f429e0c9-6c72-418d-97ae-44382cfcb58f","system_id":"levelo_inurba_marseille","lat":43.28932,"lon":5.38416,"is_reserved":false,"is_disabled":false,"rental_uris":{"android":"levelo://app?vid=f429e0c9-6c72-418d-97ae-44382cfcb58f","ios":"levelo://app?vid=f429e0c9-6c72-418d-97ae-44382cfcb58f"},"vehicle_type_id":"4","last_reported":1730995879,"current_range_meters":5600,"station_id":"ce4bh612rcd13ifvqe6g","pricing_plan_id":"cebpf4jnsgd1na2vs0mg"},{"bike_id":"ea4ba3a4-4483-472d-8beb-8e8e26a1c32d","system_id":"levelo_inurba_marseille","lat":43.26215,"lon":5.37442,"is_reserved":false,"is_disabled":false,"rental_uris":{"android":"levelo://app?vid=ea4ba3a4-4483-472d-8beb-8e8e26a1c32d","ios":"levelo://app?vid=ea4ba3a4-4483-472d-8beb-8e8e26a1c32d"},"vehicle_type_id":"4","last_reported":1730995879,"current_range_meters":9200,"station_id":"ce4bhgp2rcd13ifvqfc0","pricing_plan_id":"cebpf4jnsgd1na2vs0mg"},{"bike_id":"a26fbff8-2798-4b07-89c6-cd8f5780f627","system_id":"levelo_inurba_marseille","lat":43.29712,"lon":5.36613,"is_reserved":false,"is_disabled":false,"rental_uris":{"android":"levelo://app?vid=a26fbff8-2798-4b07-89c6-cd8f5780f627","ios":"levelo://app?vid=a26fbff8-2798-4b07-89c6-cd8f5780f627"},"vehicle_type_id":"4","last_reported":1730995879,"current_range_meters":28800,"station_id":"ce4bgn12rcd13ifvqbt0","pricing_plan_id":"cebpf4jnsgd1na2vs0mg"},{"bike_id":"eb24b330-5827-4ef9-a6e3-9864339b5a1f","system_id":"levelo_inurba_marseille","lat":43.2512,"lon":5.40327,"is_reserved":false,"is_disabled":false,"rental_uris":{"android":"levelo://app?vid=eb24b330-5827-4ef9-a6e3-9864339b5a1f","ios":"levelo://app?vid=eb24b330-5827-4ef9-a6e3-9864339b5a1f"},"vehicle_type_id":"4","last_reported":1730995879,"current_range_meters":6400,"station_id":"ce4bhlh2rcd13ifvqgig","pricing_plan_id":"cebpf4jnsgd1na2vs0mg"},{"bike_id":"1b953554-595a-4065-bbb8-7db5127495c8","system_id":"levelo_inurba_marseille","lat":43.27037,"lon":5.41634,"is_reserved":false,"is_disabled":false,"rental_uris":{"android":"levelo://app?vid=1b953554-595a-4065-bbb8-7db5127495c8","ios":"levelo://app?vid=1b953554-595a-4065-bbb8-7db5127495c8"},"vehicle_type_id":"4","last_reported":1730995879,"current_range_meters":26800,"station_id":"","pricing_plan_id":"cebpf4jnsgd1na2vs0mg"},{"bike_id":"4e880b1f-0d65-4465-bdbe-761b2e9fded2","system_id":"levelo_inurba_marseille","lat":43.3136,"lon":5.39489,"is_reserved":false,"is_disabled":false,"rental_uris":{"android":"levelo://app?vid=4e880b1f-0d65-4465-bdbe-761b2e9fded2","ios":"levelo://app?vid=4e880b1f-0d65-4465-bdbe-761b2e9fded2"},"vehicle_type_id":"4","last_reported":1730995879,"current_range_meters":32000,"station_id":"","pricing_plan_id":"cebpf4jnsgd1na2vs0mg"},{"bike_id":"d24ced80-341b-4862-ae7b-07840095ea03","system_id":"levelo_inurba_marseille","lat":43.27185,"lon":5.40997,"is_reserved":false,"is_disabled":false,"rental_uris":{"android":"levelo://app?vid=d24ced80-341b-4862-ae7b-07840095ea03","ios":"levelo://app?vid=d24ced80-341b-4862-ae7b-07840095ea03"},"vehicle_type_id":"4","last_reported":1730995879,"current_range_meters":28400,"station_id":"ce4bhl12rcd13ifvqgf0","pricing_plan_id":"cebpf4jnsgd1na2vs0mg"},{"bike_id":"a6e50ed6-0022-4b83-a918-6f82d02217f6","system_id":"levelo_inurba_marseille","lat":43.26202,"lon":5.37428,"is_reserved":false,"is_disabled":false,"rental_uris":{"android":"levelo://app?vid=a6e50ed6-0022-4b83-a918-6f82d02217f6","ios":"levelo://app?vid=a6e50ed6-0022-4b83-a918-6f82d02217f6"},"vehicle_type_id":"4","last_reported":1730995879,"current_range_meters":33600,"station_id":"ce4bhgp2rcd13ifvqfc0","pricing_plan_id":"cebpf4jnsgd1na2vs0mg"},{"bike_id":"4dd3dd42-3c34-4312-b885-5cbf58c530c2","system_id":"levelo_inurba_marseille","lat":43.23184,"lon":5.39987,"is_reserved":false,"is_disabled":false,"rental_uris":{"android":"levelo://app?vid=4dd3dd42-3c34-4312-b885-5cbf58c530c2","ios":"levelo://app?vid=4dd3dd42-3c34-4312-b885-5cbf58c530c2"},"vehicle_type_id":"4","last_reported":1730995879,"current_range_meters":9600,"station_id":"ce4bhn12rcd13ifvqgqg","pricing_plan_id":"cebpf4jnsgd1na2vs0mg"},{"bike_id":"e7ada93a-e1e5-421b-bb82-0cd644901f4f","system_id":"levelo_inurba_marseille","lat":43.29794,"lon":5.40415,"is_reserved":false,"is_disabled":false,"rental_uris":{"android":"levelo://app?vid=e7ada93a-e1e5-421b-bb82-0cd644901f4f","ios":"levelo://app?vid=e7ada93a-e1e5-421b-bb82-0cd644901f4f"},"vehicle_type_id":"4","last_reported":1730995879,"current_range_meters":35200,"station_id":"ce4bh112rcd13ifvqd90","pricing_plan_id":"cebpf4jnsgd1na2vs0mg"},{"bike_id":"2d36061b-6c80-40c8-bce4-ba116b411d90","system_id":"levelo_inurba_marseille","lat":43.27378,"lon":5.3626,"is_reserved":false,"is_disabled":false,"rental_uris":{"android":"levelo://app?vid=2d36061b-6c80-40c8-bce4-ba116b411d90","ios":"levelo://app?vid=2d36061b-6c80-40c8-bce4-ba116b411d90"},"vehicle_type_id":"4","last_reported":1730995879,"current_range_meters":32400,"station_id":"ce4bhbh2rcd13ifvqeo0","pricing_plan_id":"cebpf4jnsgd1na2vs0mg"},{"bike_id":"cdf308ab-9e0b-4730-8480-577b58d85e5c","system_id":"levelo_inurba_marseille","lat":43.29274,"lon":5.36845,"is_reserved":false,"is_disabled":false,"rental_uris":{"android":"levelo://app?vid=cdf308ab-9e0b-4730-8480-577b58d85e5c","ios":"levelo://app?vid=cdf308ab-9e0b-4730-8480-577b58d85e5c"},"vehicle_type_id":"4","last_reported":1730995879,"current_range_meters":34000,"station_id":"ce4bhbp2rcd13ifvqesg","pricing_plan_id":"cebpf4jnsgd1na2vs0mg"},{"bike_id":"26455d99-a64e-4de5-ae82-0c74af736cfe","system_id":"levelo_inurba_marseille","lat":43.26556,"lon":5.37287,"is_reserved":false,"is_disabled":false,"rental_uris":{"android":"levelo://app?vid=26455d99-a64e-4de5-ae82-0c74af736cfe","ios":"levelo://app?vid=26455d99-a64e-4de5-ae82-0c74af736cfe"},"vehicle_type_id":"4","last_reported":1730995879,"current_range_meters":12800,"station_id":"ce4bhg12rcd13ifvqf70","pricing_plan_id":"cebpf4jnsgd1na2vs0mg"},{"bike_id":"cda368aa-239d-457f-9bdb-f49eb7471516","system_id":"levelo_inurba_marseille","lat":43.27422,"lon":5.39422,"is_reserved":false,"is_disabled":false,"rental_uris":{"android":"levelo://app?vid=cda368aa-239d-457f-9bdb-f49eb7471516","ios":"levelo://app?vid=cda368aa-239d-457f-9bdb-f49eb7471516"},"vehicle_type_id":"4","last_reported":1730995879,"current_range_meters":28000,"station_id":"ce4bhdp2rcd13ifvqf20","pricing_plan_id":"cebpf4jnsgd1na2vs0mg"},{"bike_id":"1517e92a-0b76-4a80-a649-fde8acba376d","system_id":"levelo_inurba_marseille","lat":43.24662,"lon":5.38167,"is_reserved":false,"is_disabled":false,"rental_uris":{"android":"levelo://app?vid=1517e92a-0b76-4a80-a649-fde8acba376d","ios":"levelo://app?vid=1517e92a-0b76-4a80-a649-fde8acba376d"},"vehicle_type_id":"4","last_reported":1730995879,"current_range_meters":25200,"station_id":"ce4bhih2rcd13ifvqfr0","pricing_plan_id":"cebpf4jnsgd1na2vs0mg"},{"bike_id":"7101db2a-1873-493f-a705-c69ca9279569","system_id":"levelo_inurba_marseille","lat":43.33752,"lon":5.37454,"is_reserved":false,"is_disabled":false,"rental_uris":{"android":"levelo://app?vid=7101db2a-1873-493f-a705-c69ca9279569","ios":"levelo://app?vid=7101db2a-1873-493f-a705-c69ca9279569"},"vehicle_type_id":"4","last_reported":1730995879,"current_range_meters":34800,"station_id":"","pricing_plan_id":"cebpf4jnsgd1na2vs0mg"},{"bike_id":"14416159-7dd0-45c6-be23-5b55a9f9ac6f","system_id":"levelo_inurba_marseille","lat":43.30899,"lon":5.37183,"is_reserved":false,"is_disabled":false,"rental_uris":{"android":"levelo://app?vid=14416159-7dd0-45c6-be23-5b55a9f9ac6f","ios":"levelo://app?vid=14416159-7dd0-45c6-be23-5b55a9f9ac6f"},"vehicle_type_id":"4","last_reported":1730995879,"current_range_meters":36800,"station_id":"ce4bguh2rcd13ifvqckg","pricing_plan_id":"cebpf4jnsgd1na2vs0mg"},{"bike_id":"658367c0-72a6-4b36-868c-722455595742","system_id":"levelo_inurba_marseille","lat":43.25723,"lon":5.41107,"is_reserved":false,"is_disabled":false,"rental_uris":{"android":"levelo://app?vid=658367c0-72a6-4b36-868c-722455595742","ios":"levelo://app?vid=658367c0-72a6-4b36-868c-722455595742"},"vehicle_type_id":"4","last_reported":1730995879,"current_range_meters":40000,"station_id":"ce4bhkp2rcd13ifvqgd0","pricing_plan_id":"cebpf4jnsgd1na2vs0mg"},{"bike_id":"4fcf3408-30b9-4ad7-b447-72f87507543b","system_id":"levelo_inurba_marseille","lat":43.22936,"lon":5.35376,"is_reserved":false,"is_disabled":false,"rental_uris":{"android":"levelo://app?vid=4fcf3408-30b9-4ad7-b447-72f87507543b","ios":"levelo://app?vid=4fcf3408-30b9-4ad7-b447-72f87507543b"},"vehicle_type_id":"4","last_reported":1730995879,"current_range_meters":40000,"station_id":"cpo3532slgdg3j2ikp40","pricing_plan_id":"cebpf4jnsgd1na2vs0mg"},{"bike_id":"a33207ad-9017-4a59-8af5-9f1b711970ec","system_id":"levelo_inurba_marseille","lat":43.32494,"lon":5.36577,"is_reserved":false,"is_disabled":false,"rental_uris":{"android":"levelo://app?vid=a33207ad-9017-4a59-8af5-9f1b711970ec","ios":"levelo://app?vid=a33207ad-9017-4a59-8af5-9f1b711970ec"},"vehicle_type_id":"4","last_reported":1730995879,"current_range_meters":17600,"station_id":"ce4bhs12rcd13ifvqhvg","pricing_plan_id":"cebpf4jnsgd1na2vs0mg"},{"bike_id":"b9a1fa16-0be0-4988-83b0-ac21a48b9d8e","system_id":"levelo_inurba_marseille","lat":43.25932,"lon":5.40901,"is_reserved":false,"is_disabled":false,"rental_uris":{"android":"levelo://app?vid=b9a1fa16-0be0-4988-83b0-ac21a48b9d8e","ios":"levelo://app?vid=b9a1fa16-0be0-4988-83b0-ac21a48b9d8e"},"vehicle_type_id":"4","last_reported":1730995879,"current_range_meters":37600,"station_id":"ce4bhm92rcd13ifvqglg","pricing_plan_id":"cebpf4jnsgd1na2vs0mg"},{"bike_id":"a48171a6-2d6b-49bb-8eb3-f46478a41608","system_id":"levelo_inurba_marseille","lat":43.31335,"lon":5.39701,"is_reserved":false,"is_disabled":false,"rental_uris":{"android":"levelo://app?vid=a48171a6-2d6b-49bb-8eb3-f46478a41608","ios":"levelo://app?vid=a48171a6-2d6b-49bb-8eb3-f46478a41608"},"vehicle_type_id":"4","last_reported":1730995879,"current_range_meters":30800,"station_id":"ce4bgvp2rcd13ifvqcu0","pricing_plan_id":"cebpf4jnsgd1na2vs0mg"},{"bike_id":"5e86a304-875a-484d-a63a-ef141960df3c","system_id":"levelo_inurba_marseille","lat":43.29699,"lon":5.36634,"is_reserved":false,"is_disabled":false,"rental_uris":{"android":"levelo://app?vid=5e86a304-875a-484d-a63a-ef141960df3c","ios":"levelo://app?vid=5e86a304-875a-484d-a63a-ef141960df3c"},"vehicle_type_id":"4","last_reported":1730995879,"current_range_meters":34000,"station_id":"ce4bgn12rcd13ifvqbt0","pricing_plan_id":"cebpf4jnsgd1na2vs0mg"},{"bike_id":"54bafc87-7511-4e56-9ac6-f47425e522be","system_id":"levelo_inurba_marseille","lat":43.29573,"lon":5.37508,"is_reserved":false,"is_disabled":false,"rental_uris":{"android":"levelo://app?vid=54bafc87-7511-4e56-9ac6-f47425e522be","ios":"levelo://app?vid=54bafc87-7511-4e56-9ac6-f47425e522be"},"vehicle_type_id":"4","last_reported":1730995879,"current_range_meters":27200,"station_id":"ce4bgh92rcd13ifvqb50","pricing_plan_id":"cebpf4jnsgd1na2vs0mg"},