{"last_updated":1778312495,"ttl":60,"version":"2.2","data":{"bikes":[{"bike_id":"20add4ad-59c5-41d3-879b-de51e83773be","system_id":"levelo_inurba_marseille","lat":43.29176,"lon":5.38822,"is_reserved":false,"is_disabled":false,"rental_uris":{"android":"levelo://app?vid=20add4ad-59c5-41d3-879b-de51e83773be","ios":"levelo://app?vid=20add4ad-59c5-41d3-879b-de51e83773be"},"vehicle_type_id":"4","last_reported":1778312496,"current_range_meters":2800,"station_id":"","pricing_plan_id":"cebpf4jnsgd1na2vs0mg"},{"bike_id":"75dddf4b-8367-46bc-a9a7-0eb67ee811a7","system_id":"levelo_inurba_marseille","lat":43.23182,"lon":5.36588,"is_reserved":false,"is_disabled":false,"rental_uris":{"android":"levelo://app?vid=75dddf4b-8367-46bc-a9a7-0eb67ee811a7","ios":"levelo://app?vid=75dddf4b-8367-46bc-a9a7-0eb67ee811a7"},"vehicle_type_id":"4","last_reported":1778312496,"current_range_meters":2800,"station_id":"","pricing_plan_id":"cebpf4jnsgd1na2vs0mg"},{"bike_id":"f8430446-7d85-46a8-8125-34f5eb0c4b59","system_id":"levelo_inurba_marseille","lat":43.24796,"lon":5.37467,"is_reserved":false,"is_disabled":false,"rental_uris":{"android":"levelo://app?vid=f8430446-7d85-46a8-8125-34f5eb0c4b59","ios":"levelo://app?vid=f8430446-7d85-46a8-8125-34f5eb0c4b59"},"vehicle_type_id":"4","last_reported":1778312496,"current_range_meters":2800,"station_id":"ce4bhgh2rcd13ifvqfb0","pricing_plan_id":"cebpf4jnsgd1na2vs0mg"},{"bike_id":"78603c2e-11b9-4397-9e69-0d2887e5cdd7","system_id":"levelo_inurba_marseille","lat":43.33162,"lon":5.3769,"is_reserved":false,"is_disabled":false,"rental_uris":{"android":"levelo://app?vid=78603c2e-11b9-4397-9e69-0d2887e5cdd7","ios":"levelo://app?vid=78603c2e-11b9-4397-9e69-0d2887e5cdd7"},"vehicle_type_id":"4","last_reported":1778312496,"current_range_meters":2800,"station_id":"st_d46cu089ee8s73dldbu0","pricing_plan_id":"cebpf4jnsgd1na2vs0mg"},{"bike_id":"7ebded6a-b44e-4b27-9624-d27cf666a3c2","system_id":"levelo_inurba_marseille","lat":43.26178,"lon":5.37044,"is_reserved":false,"is_disabled":false,"rental_uris":{"android":"levelo://app?vid=7ebded6a-b44e-4b27-9624-d27cf666a3c2","ios":"levelo://app?vid=7ebded6a-b44e-4b27-9624-d27cf666a3c2"},"vehicle_type_id":"4","last_reported":1778312496,"current_range_meters":2800,"station_id":"","pricing_plan_id":"cebpf4jnsgd1na2vs0mg"},{"bike_id":"54bdac41-dc50-4afe-87cf-607065949d9b","system_id":"levelo_inurba_marseille","lat":43.29884,"lon":5.38903,"is_reserved":false,"is_disabled":true,"rental_uris":{"android":"levelo://app?vid=54bdac41-dc50-4afe-87cf-607065949d9b","ios":"levelo://app?vid=54bdac41-dc50-4afe-87cf-607065949d9b"},"vehicle_type_id":"4","last_reported":1778312496,"current_range_meters":2800,"station_id":"ce4bh392rcd13ifvqdl0","pricing_plan_id":"cebpf4jnsgd1na2vs0mg"},{"bike_id":"02d0e242-bf50-4acc-8fae-02b4a73cc75e","system_id":"levelo_inurba_marseille","lat":43.24464,"lon":5.42531,"is_reserved":false,"is_disabled":false,"rental_uris":{"android":"levelo://app?vid=02d0e242-bf50-4acc-8fae-02b4a73cc75e","ios":"levelo://app?vid=02d0e242-bf50-4acc-8fae-02b4a73cc75e"},"vehicle_type_id":"4","last_reported":1778312496,"current_range_meters":2800,"station_id":"st_d4a3vfp97mjs738cd8kg","pricing_plan_id":"cebpf4jnsgd1na2vs0mg"},{"bike_id":"64582fab-f614-4f31-b9c1-788bd7cecb99","system_id":"levelo_inurba_marseille","lat":43.26194,"lon":5.37939,"is_reserved":false,"is_disabled":false,"rental_uris":{"android":"levelo://app?vid=64582fab-f614-4f31-b9c1-788bd7cecb99","ios":"levelo://app?vid=64582fab-f614-4f31-b9c1-788bd7cecb99"},"vehicle_type_id":"4","last_reported":1778312496,"current_range_meters":2800,"station_id":"ce4bhjp2rcd13ifvqg90","pricing_plan_id":"cebpf4jnsgd1na2vs0mg"},{"bike_id":"3576c2a2-2c20-40e0-8316-6d5558e51c8a","system_id":"levelo_inurba_marseille","lat":43.24157,"lon":5.39719,"is_reserved":false,"is_disabled":false,"rental_uris":{"android":"levelo://app?vid=3576c2a2-2c20-40e0-8316-6d5558e51c8a","ios":"levelo://app?vid=3576c2a2-2c20-40e0-8316-6d5558e51c8a"},"vehicle_type_id":"4","last_reported":1778312496,"current_range_meters":2800,"station_id":"ce4bhn12rcd13ifvqgpg","pricing_plan_id":"cebpf4jnsgd1na2vs0mg"},{"bike_id":"acda420d-c0c2-4021-b9df-ca6acbade99f","system_id":"levelo_inurba_marseille","lat":43.28925,"lon":5.39633,"is_reserved":false,"is_disabled":true,"rental_uris":{"android":"levelo://app?vid=acda420d-c0c2-4021-b9df-ca6acbade99f","ios":"levelo://app?vid=acda420d-c0c2-4021-b9df-ca6acbade99f"},"vehicle_type_id":"4","last_reported":1778312496,"current_range_meters":2800,"station_id":"ce4bh3h2rcd13ifvqdn0","pricing_plan_id":"cebpf4jnsgd1na2vs0mg"},{"bike_id":"26808864-edd9-48ef-b4f9-6a35d8d7c7ef","system_id":"levelo_inurba_marseille","lat":43.23965,"lon":5.36631,"is_reserved":false,"is_disabled":true,"rental_uris":{"android":"levelo://app?vid=26808864-edd9-48ef-b4f9-6a35d8d7c7ef","ios":"levelo://app?vid=26808864-edd9-48ef-b4f9-6a35d8d7c7ef"},"vehicle_type_id":"4","last_reported":1778312496,"current_range_meters":2800,"station_id":"ce4bhi12rcd13ifvqfp0","pricing_plan_id":"cebpf4jnsgd1na2vs0mg"},{"bike_id":"e4d33083-7f78-49f3-93e5-b4b669df7054","system_id":"levelo_inurba_marseille","lat":43.31279,"lon":5.40152,"is_reserved":false,"is_disabled":false,"rental_uris":{"android":"levelo://app?vid=e4d33083-7f78-49f3-93e5-b4b669df7054","ios":"levelo://app?vid=e4d33083-7f78-49f3-93e5-b4b669df7054"},"vehicle_type_id":"4","last_reported":1778312496,"current_range_meters":2800,"station_id":"ce4bh092rcd13ifvqd30","pricing_plan_id":"cebpf4jnsgd1na2vs0mg"},{"bike_id":"22540de7-8630-43e4-a5f4-94906185db58","system_id":"levelo_inurba_marseille","lat":43.28616,"lon":5.35106,"is_reserved":false,"is_disabled":false,"rental_uris":{"android":"levelo://app?vid=22540de7-8630-43e4-a5f4-94906185db58","ios":"levelo://app?vid=22540de7-8630-43e4-a5f4-94906185db58"},"vehicle_type_id":"4","last_reported":1778312496,"current_range_meters":2800,"station_id":"ce4bhch2rcd13ifvqeug","pricing_plan_id":"cebpf4jnsgd1na2vs0mg"},{"bike_id":"d4a31161-e822-4493-a2db-eb83961ef4ad","system_id":"levelo_inurba_marseille","lat":43.2573,"lon":5.41168,"is_reserved":false,"is_disabled":false,"rental_uris":{"android":"levelo://app?vid=d4a31161-e822-4493-a2db-eb83961ef4ad","ios":"levelo://app?vid=d4a31161-e822-4493-a2db-eb83961ef4ad"},"vehicle_type_id":"4","last_reported":1778312496,"current_range_meters":2800,"station_id":"","pricing_plan_id":"cebpf4jnsgd1na2vs0mg"},{"bike_id":"4292e8ce-e1a6-4a8f-a403-35f7f77e0e07","system_id":"levelo_inurba_marseille","lat":43.28406,"lon":5.37543,"is_reserved":false,"is_disabled":false,"rental_uris":{"android":"levelo://app?vid=4292e8ce-e1a6-4a8f-a403-35f7f77e0e07","ios":"levelo://app?vid=4292e8ce-e1a6-4a8f-a403-35f7f77e0e07"},"vehicle_type_id":"4","last_reported":1778312496,"current_range_meters":2800,"station_id":"ce4bh412rcd13ifvqds0","pricing_plan_id":"cebpf4jnsgd1na2vs0mg"},{"bike_id":"ae15c2d1-b79c-472a-aa23-dbd2b063bdad","system_id":"levelo_inurba_marseille","lat":43.25271,"lon":5.39249,"is_reserved":false,"is_disabled":false,"rental_uris":{"android":"levelo://app?vid=ae15c2d1-b79c-472a-aa23-dbd2b063bdad","ios":"levelo://app?vid=ae15c2d1-b79c-472a-aa23-dbd2b063bdad"},"vehicle_type_id":"4","last_reported":1778312496,"current_range_meters":2800,"station_id":"","pricing_plan_id":"cebpf4jnsgd1na2vs0mg"},{"bike_id":"7ac272f1-93d7-437e-a7ad-9515e3c575bb","system_id":"levelo_inurba_marseille","lat":43.29259,"lon":5.35745,"is_reserved":false,"is_disabled":false,"rental_uris":{"android":"levelo://app?vid=7ac272f1-93d7-437e-a7ad-9515e3c575bb","ios":"levelo://app?vid=7ac272f1-93d7-437e-a7ad-9515e3c575bb"},"vehicle_type_id":"4","last_reported":1778312496,"current_range_meters":2800,"station_id":"","pricing_plan_id":"cebpf4jnsgd1na2vs0mg"},{"bike_id":"3a1b8853-3ad7-4660-a68c-7c6db0eeede3","system_id":"levelo_inurba_marseille","lat":43.24177,"lon":5.39724,"is_reserved":false,"is_disabled":false,"rental_uris":{"android":"levelo://app?vid=3a1b8853-3ad7-4660-a68c-7c6db0eeede3","ios":"levelo://app?vid=3a1b8853-3ad7-4660-a68c-7c6db0eeede3"},"vehicle_type_id":"4","last_reported":1778312496,"current_range_meters":2800,"station_id":"ce4bhn12rcd13ifvqgpg","pricing_plan_id":"cebpf4jnsgd1na2vs0mg"},{"bike_id":"b8033fcc-dc55-40bf-a115-206a22e96996","system_id":"levelo_inurba_marseille","lat":43.24182,"lon":5.39711,"is_reserved":false,"is_disabled":false,"rental_uris":{"android":"levelo://app?vid=b8033fcc-dc55-40bf-a115-206a22e96996","ios":"levelo://app?vid=b8033fcc-dc55-40bf-a115-206a22e96996"},"vehicle_type_id":"4","last_reported":1778312496,"current_range_meters":2800,"station_id":"ce4bhn12rcd13ifvqgpg","pricing_plan_id":"cebpf4jnsgd1na2vs0mg"},{"bike_id":"139fafbd-1b7e-43be-b9c7-de867d9ec84e","system_id":"levelo_inurba_marseille","lat":43.23173,"lon":5.39991,"is_reserved":false,"is_disabled":false,"rental_uris":{"android":"levelo://app?vid=139fafbd-1b7e-43be-b9c7-de867d9ec84e","ios":"levelo://app?vid=139fafbd-1b7e-43be-b9c7-de867d9ec84e"},"vehicle_type_id":"4","last_reported":1778312496,"current_range_meters":2800,"station_id":"ce4bhn12rcd13ifvqgqg","pricing_plan_id":"cebpf4jnsgd1na2vs0mg"},{"bike_id":"79528d5b-05a7-48e7-9ccf-eb3dcf2a91b1","system_id":"levelo_inurba_marseille","lat":43.26194,"lon":5.37429,"is_reserved":false,"is_disabled":true,"rental_uris":{"android":"levelo://app?vid=79528d5b-05a7-48e7-9ccf-eb3dcf2a91b1","ios":"levelo://app?vid=79528d5b-05a7-48e7-9ccf-eb3dcf2a91b1"},"vehicle_type_id":"4","last_reported":1778312496,"current_range_meters":3200,"station_id":"ce4bhgp2rcd13ifvqfc0","pricing_plan_id":"cebpf4jnsgd1na2vs0mg"},{"bike_id":"338578b3-d500-4475-89bc-43f6d832f4c5","system_id":"levelo_inurba_marseille","lat":43.24752,"lon":5.37461,"is_reserved":false,"is_disabled":false,"rental_uris":{"android":"levelo://app?vid=338578b3-d500-4475-89bc-43f6d832f4c5","ios":"levelo://app?vid=338578b3-d500-4475-89bc-43f6d832f4c5"},"vehicle_type_id":"4","last_reported":1778312496,"current_range_meters":3200,"station_id":"ce4bhgh2rcd13ifvqfb0","pricing_plan_id":"cebpf4jnsgd1na2vs0mg"},{"bike_id":"aea1a9e6-2a9b-4cba-bf25-1488f9d8a686","system_id":"levelo_inurba_marseille","lat":43.32482,"lon":5.38293,"is_reserved":false,"is_disabled":false,"rental_uris":{"android":"levelo://app?vid=aea1a9e6-2a9b-4cba-bf25-1488f9d8a686","ios":"levelo://app?vid=aea1a9e6-2a9b-4cba-bf25-1488f9d8a686"},"vehicle_type_id":"4","last_reported":1778312496,"current_range_meters":3200,"station_id":"st_d4asgbiv49dc73anf9m0","pricing_plan_id":"cebpf4jnsgd1na2vs0mg"},{"bike_id":"269111cd-cad1-4a4f-a8ba-5d0fd8c7d695","system_id":"levelo_inurba_marseille","lat":43.27919,"lon":5.38293,"is_reserved":false,"is_disabled":false,"rental_uris":{"android":"levelo://app?vid=269111cd-cad1-4a4f-a8ba-5d0fd8c7d695","ios":"levelo://app?vid=269111cd-cad1-4a4f-a8ba-5d0fd8c7d695"},"vehicle_type_id":"4","last_reported":1778312496,"current_range_meters":3200,"station_id":"","pricing_plan_id":"cebpf4jnsgd1na2vs0mg"},{"bike_id":"29c47587-f18b-42f0-8cfc-38dfdf722184","system_id":"levelo_inurba_marseille","lat":43.29945,"lon":5.3823,"is_reserved":false,"is_disabled":false,"rental_uris":{"android":"levelo://app?vid=29c47587-f18b-42f0-8cfc-38dfdf722184","ios":"levelo://app?vid=29c47587-f18b-42f0-8cfc-38dfdf722184"},"vehicle_type_id":"4","last_reported":1778312496,"current_range_meters":3200,"station_id":"","pricing_plan_id":"cebpf4jnsgd1na2vs0mg"},{"bike_id":"d1965583-dcb5-4292-81a2-e52d5f84ef92","system_id":"levelo_inurba_marseille","lat":43.26204,"lon":5.37927,"is_reserved":false,"is_disabled":false,"rental_uris":{"android":"levelo://app?vid=d1965583-dcb5-4292-81a2-e52d5f84ef92","ios":"levelo://app?vid=d1965583-dcb5-4292-81a2-e52d5f84ef92"},"vehicle_type_id":"4","last_reported":1778312496,"current_range_meters":3200,"station_id":"ce4bhjp2rcd13ifvqg90","pricing_plan_id":"cebpf4jnsgd1na2vs0mg"},{"bike_id":"eb69d245-4c11-4082-b033-bfef8903721a","system_id":"levelo_inurba_marseille","lat":43.29893,"lon":5.39743,"is_reserved":false,"is_disabled":false,"rental_uris":{"android":"levelo://app?vid=eb69d245-4c11-4082-b033-bfef8903721a","ios":"levelo://app?vid=eb69d245-4c11-4082-b033-bfef8903721a"},"vehicle_type_id":"4","last_reported":1778312496,"current_range_meters":3200,"station_id":"ce4bh0h2rcd13ifvqd50","pricing_plan_id":"cebpf4jnsgd1na2vs0mg"},{"bike_id":"44885175-8d7e-4ff3-a32e-bf77401da3d9","system_id":"levelo_inurba_marseille","lat":43.29631,"lon":5.37158,"is_reserved":false,"is_disabled":false,"rental_uris":{"android":"levelo://app?vid=44885175-8d7e-4ff3-a32e-bf77401da3d9","ios":"levelo://app?vid=44885175-8d7e-4ff3-a32e-bf77401da3d9"},"vehicle_type_id":"4","last_reported":1778312496,"current_range_meters":3200,"station_id":"ce4bgnh2rcd13ifvqc0g","pricing_plan_id":"cebpf4jnsgd1na2vs0mg"},{"bike_id":"9c7f7c5a-6e1f-4adc-b2ea-f1b66f023f9c","system_id":"levelo_inurba_marseille","lat":43.31304,"lon":5.38329,"is_reserved":false,"is_disabled":false,"rental_uris":{"android":"levelo://app?vid=9c7f7c5a-6e1f-4adc-b2ea-f1b66f023f9c","ios":"levelo://app?vid=9c7f7c5a-6e1f-4adc-b2ea-f1b66f023f9c"},"vehicle_type_id":"4","last_reported":1778312496,"current_range_meters":3200,"station_id":"","pricing_plan_id":"cebpf4jnsgd1na2vs0mg"},{"bike_id":"758c8ce9-535b-4800-93d7-846bd85146e6","system_id":"levelo_inurba_marseille","lat":43.24946,"lon":5.40472,"is_reserved":false,"is_disabled":false,"rental_uris":{"android":"levelo://app?vid=758c8ce9-535b-4800-93d7-846bd85146e6","ios":"levelo://app?vid=758c8ce9-535b-4800-93d7-846bd85146e6"},"vehicle_type_id":"4","last_reported":1778312496,"current_range_meters":3200,"station_id":"st_d2ngiaodas8pm72gd1h0","pricing_plan_id":"cebpf4jnsgd1na2vs0mg"},{"bike_id":"4adab041-9f44-4793-9f5f-5a30aefef920","system_id":"levelo_inurba_marseille","lat":43.28612,"lon":5.39906,"is_reserved":false,"is_disabled":false,"rental_uris":{"android":"levelo://app?vid=4adab041-9f44-4793-9f5f-5a30aefef920","ios":"levelo://app?vid=4adab041-9f44-4793-9f5f-5a30aefef920"},"vehicle_type_id":"4","last_reported":1778312496,"current_range_meters":3200,"station_id":"st_d4a7ka997mjs738ck50g","pricing_plan_id":"cebpf4jnsgd1na2vs0mg"},{"bike_id":"42c08e92-1e4f-43bd-9af8-59ea080b2967","system_id":"levelo_inurba_marseille","lat":43.24679,"lon":5.3815,"is_reserved":false,"is_disabled":false,"rental_uris":{"android":"levelo://app?vid=42c08e92-1e4f-43bd-9af8-59ea080b2967","ios":"levelo://app?vid=42c08e92-1e4f-43bd-9af8-59ea080b2967"},"vehicle_type_id":"4","last_reported":1778312496,"current_range_meters":3200,"station_id":"ce4bhih2rcd13ifvqfr0","pricing_plan_id":"cebpf4jnsgd1na2vs0mg"},{"bike_id":"bc7689e6-08ad-4ce6-b101-ffff1b93ca0c","system_id":"levelo_inurba_marseille","lat":43.29229,"lon":5.37123,"is_reserved":false,"is_disabled":false,"rental_uris":{"android":"levelo://app?vid=bc7689e6-08ad-4ce6-b101-ffff1b93ca0c","ios":"levelo://app?vid=bc7689e6-08ad-4ce6-b101-ffff1b93ca0c"},"vehicle_type_id":"4","last_reported":1778312496,"current_range_meters":3600,"station_id":"","pricing_plan_id":"cebpf4jnsgd1na2vs0mg"},{"bike_id":"ac5248c1-4fa9-4b63-9686-5ac601b0f9b1","system_id":"levelo_inurba_marseille","lat":43.29906,"lon":5.37817,"is_reserved":false,"is_disabled":false,"rental_uris":{"android":"levelo://app?vid=ac5248c1-4fa9-4b63-9686-5ac601b0f9b1","ios":"levelo://app?vid=ac5248c1-4fa9-4b63-9686-5ac601b0f9b1"},"vehicle_type_id":"4","last_reported":1778312496,"current_range_meters":3600,"station_id":"","pricing_plan_id":"cebpf4jnsgd1na2vs0mg"},{"bike_id":"6ec9e9c0-5c00-4ebb-a812-7b74cdafe255","system_id":"levelo_inurba_marseille","lat":43.28701,"lon":5.39992,"is_reserved":false,"is_disabled":false,"rental_uris":{"android":"levelo://app?vid=6ec9e9c0-5c00-4ebb-a812-7b74cdafe255","ios":"levelo://app?vid=6ec9e9c0-5c00-4ebb-a812-7b74cdafe255"},"vehicle_type_id":"4","last_reported":1778312496,"current_range_meters":3600,"station_id":"ce4bho92rcd13ifvqh3g","pricing_plan_id":"cebpf4jnsgd1na2vs0mg"},{"bike_id":"43b9c369-eec7-4801-b65c-0c3b3c87bd4f","system_id":"levelo_inurba_marseille","lat":43.33534,"lon":5.37469,"is_reserved":false,"is_disabled":false,"rental_uris":{"android":"levelo://app?vid=43b9c369-eec7-4801-b65c-0c3b3c87bd4f","ios":"levelo://app?vid=43b9c369-eec7-4801-b65c-0c3b3c87bd4f"},"vehicle_type_id":"4","last_reported":1778312496,"current_range_meters":3600,"station_id":"st_d46tts09ee8s73dlu43g","pricing_plan_id":"cebpf4jnsgd1na2vs0mg"},{"bike_id":"ab41857e-5e1d-4ef6-93ba-57193093c0da","system_id":"levelo_inurba_marseille","lat":43.30891,"lon":5.39617,"is_reserved":false,"is_disabled":false,"rental_uris":{"android":"levelo://app?vid=ab41857e-5e1d-4ef6-93ba-57193093c0da","ios":"levelo://app?vid=ab41857e-5e1d-4ef6-93ba-57193093c0da"},"vehicle_type_id":"4","last_reported":1778312496,"current_range_meters":3600,"station_id":"ce4bh012rcd13ifvqcv0","pricing_plan_id":"cebpf4jnsgd1na2vs0mg"},{"bike_id":"c59e1bd6-ece3-4e94-9308-3c08876ef280","system_id":"levelo_inurba_marseille","lat":43.26497,"lon":5.38937,"is_reserved":false,"is_disabled":false,"rental_uris":{"android":"levelo://app?vid=c59e1bd6-ece3-4e94-9308-3c08876ef280","ios":"levelo://app?vid=c59e1bd6-ece3-4e94-9308-3c08876ef280"},"vehicle_type_id":"4","last_reported":1778312496,"current_range_meters":3600,"station_id":"","pricing_plan_id":"cebpf4jnsgd1na2vs0mg"},{"bike_id":"3056c84a-f614-437e-b41b-b1adbc616cfd","system_id":"levelo_inurba_marseille","lat":43.31879,"lon":5.36801,"is_reserved":false,"is_disabled":true,"rental_uris":{"android":"levelo://app?vid=3056c84a-f614-437e-b41b-b1adbc616cfd","ios":"levelo://app?vid=3056c84a-f614-437e-b41b-b1adbc616cfd"},"vehicle_type_id":"4","last_reported":1778312496,"current_range_meters":3600,"station_id":"st_d6o2h0d0559c73evc1b0","pricing_plan_id":"cebpf4jnsgd1na2vs0mg"},{"bike_id":"92d47218-2771-4776-a400-43c117101942","system_id":"levelo_inurba_marseille","lat":43.250892,"lon":5.395274,"is_reserved":false,"is_disabled":true,"rental_uris":{"android":"levelo://app?vid=92d47218-2771-4776-a400-43c117101942","ios":"levelo://app?vid=92d47218-2771-4776-a400-43c117101942"},"vehicle_type_id":"4","last_reported":1778312496,"current_range_meters":3600,"station_id":"ce4bhm12rcd13ifvqgkg","pricing_plan_id":"cebpf4jnsgd1na2vs0mg"},{"bike_id":"78bfcf6a-8002-47c3-bd0a-fd7693c617bf","system_id":"levelo_inurba_marseille","lat":43.26552,"lon":5.39003,"is_reserved":false,"is_disabled":false,"rental_uris":{"android":"levelo://app?vid=78bfcf6a-8002-47c3-bd0a-fd7693c617bf","ios":"levelo://app?vid=78bfcf6a-8002-47c3-bd0a-fd7693c617bf"},"vehicle_type_id":"4","last_reported":1778312496,"current_range_meters":3600,"station_id":"ce4bhe12rcd13ifvqf30","pricing_plan_id":"cebpf4jnsgd1na2vs0mg"},{"bike_id":"3122ba5c-241c-4b18-a8de-67da515b61a7","system_id":"levelo_inurba_marseille","lat":43.25567,"lon":5.38229,"is_reserved":false,"is_disabled":true,"rental_uris":{"android":"levelo://app?vid=3122ba5c-241c-4b18-a8de-67da515b61a7","ios":"levelo://app?vid=3122ba5c-241c-4b18-a8de-67da515b61a7"},"vehicle_type_id":"4","last_reported":1778312496,"current_range_meters":3600,"station_id":"ce4bhih2rcd13ifvqfs0","pricing_plan_id":"cebpf4jnsgd1na2vs0mg"},{"bike_id":"b2294491-b091-4f21-a219-0d82de5f39e6","system_id":"levelo_inurba_marseille","lat":43.28928,"lon":5.36621,"is_reserved":false,"is_disabled":false,"rental_uris":{"android":"levelo://app?vid=b2294491-b091-4f21-a219-0d82de5f39e6","ios":"levelo://app?vid=b2294491-b091-4f21-a219-0d82de5f39e6"},"vehicle_type_id":"4","last_reported":1778312496,"current_range_meters":3600,"station_id":"ce4bhap2rcd13ifvqek0","pricing_plan_id":"cebpf4jnsgd1na2vs0mg"},{"bike_id":"fcfb7837-66f4-4297-a5f2-5b64613cd121","system_id":"levelo_inurba_marseille","lat":43.28341,"lon":5.41437,"is_reserved":false,"is_disabled":false,"rental_uris":{"android":"levelo://app?vid=fcfb7837-66f4-4297-a5f2-5b64613cd121","ios":"levelo://app?vid=fcfb7837-66f4-4297-a5f2-5b64613cd121"},"vehicle_type_id":"4","last_reported":1778312496,"current_range_meters":3600,"station_id":"","pricing_plan_id":"cebpf4jnsgd1na2vs0mg"},{"bike_id":"c81f80a9-bccf-42c4-90d3-496a1498aeb7","system_id":"levelo_inurba_marseille","lat":43.26068,"lon":5.37552,"is_reserved":false,"is_disabled":false,"rental_uris":{"android":"levelo://app?vid=c81f80a9-bccf-42c4-90d3-496a1498aeb7","ios":"levelo://app?vid=c81f80a9-bccf-42c4-90d3-496a1498aeb7"},"vehicle_type_id":"4","last_reported":1778312496,"current_range_meters":3600,"station_id":"","pricing_plan_id":"cebpf4jnsgd1na2vs0mg"},{"bike_id":"48fff531-107f-4daf-bbb2-efc4df2af605","system_id":"levelo_inurba_marseille","lat":43.24062,"lon":5.37765,"is_reserved":false,"is_disabled":false,"rental_uris":{"android":"levelo://app?vid=48fff531-107f-4daf-bbb2-efc4df2af605","ios":"levelo://app?vid=48fff531-107f-4daf-bbb2-efc4df2af605"},"vehicle_type_id":"4","last_reported":1778312496,"current_range_meters":3600,"station_id":"ce4bhnp2rcd13ifvqgvg","pricing_plan_id":"cebpf4jnsgd1na2vs0mg"},{"bike_id":"1443c9f0-139b-4d04-8945-c2db5286a83d","system_id":"levelo_inurba_marseille","lat":43.30595,"lon":5.37198,"is_reserved":false,"is_disabled":false,"rental_uris":{"android":"levelo://app?vid=1443c9f0-139b-4d04-8945-c2db5286a83d","ios":"levelo://app?vid=1443c9f0-139b-4d04-8945-c2db5286a83d"},"vehicle_type_id":"4","last_reported":1778312496,"current_range_meters":4000,"station_id":"ce4bgqh2rcd13ifvqc4g","pricing_plan_id":"cebpf4jnsgd1na2vs0mg"},{"bike_id":"1709f6c4-df38-4392-a22b-79877bea9f71","system_id":"levelo_inurba_marseille","lat":43.26255,"lon":5.39131,"is_reserved":false,"is_disabled":false,"rental_uris":{"android":"levelo://app?vid=1709f6c4-df38-4392-a22b-79877bea9f71","ios":"levelo://app?vid=1709f6c4-df38-4392-a22b-79877bea9f71"},"vehicle_type_id":"4","last_reported":1778312496,"current_range_meters":4000,"station_id":"","pricing_plan_id":"cebpf4jnsgd1na2vs0mg"},{"bike_id":"5f06a8a1-2ff5-4ac3-a16d-8044e5eff3c8","system_id":"levelo_inurba_marseille","lat":43.23431,"lon":5.35904,"is_reserved":false,"is_disabled":false,"rental_uris":{"android":"levelo://app?vid=5f06a8a1-2ff5-4ac3-a16d-8044e5eff3c8","ios":"levelo://app?vid=5f06a8a1-2ff5-4ac3-a16d-8044e5eff3c8"},"vehicle_type_id":"4","last_reported":1778312496,"current_range_meters":4000,"station_id":"","pricing_plan_id":"cebpf4jnsgd1na2vs0mg"},{"bike_id":"f9765471-797c-4251-b388-a11b5bbe30f0","system_id":"levelo_inurba_marseille","lat":43.33537,"lon":5.37473,"is_reserved":false,"is_disabled":false,"rental_uris":{"android":"levelo://app?vid=f9765471-797c-4251-b388-a11b5bbe30f0","ios":"levelo://app?vid=f9765471-797c-4251-b388-a11b5bbe30f0"},"vehicle_type_id":"4","last_reported":1778312496,"current_range_meters":4000,"station_id":"st_d46tts09ee8s73dlu43g","pricing_plan_id":"cebpf4jnsgd1na2vs0mg"},{"bike_id":"ff4d1d92-3c09-4393-bd19-a95497791c85","system_id":"levelo_inurba_marseille","lat":43.26599,"lon":5.39039,"is_reserved":false,"is_disabled":false,"rental_uris":{"android":"levelo://app?vid=ff4d1d92-3c09-4393-bd19-a95497791c85","ios":"levelo://app?vid=ff4d1d92-3c09-4393-bd19-a95497791c85"},"vehicle_type_id":"4","last_reported":1778312496,"current_range_meters":4000,"station_id":"","pricing_plan_id":"cebpf4jnsgd1na2vs0mg"},{"bike_id":"3f268525-db91-4c64-a179-42ecb6c80f46","system_id":"levelo_inurba_marseille","lat":43.27933,"lon":5.37199,"is_reserved":false,"is_disabled":false,"rental_uris":{"android":"levelo://app?vid=3f268525-db91-4c64-a179-42ecb6c80f46","ios":"levelo://app?vid=3f268525-db91-4c64-a179-42ecb6c80f46"},"vehicle_type_id":"4","last_reported":1778312496,"current_range_meters":4000,"station_id":"","pricing_plan_id":"cebpf4jnsgd1na2vs0mg"},{"bike_id":"06ab7e03-6cc1-4519-8625-3652421fe315","system_id":"levelo_inurba_marseille","lat":43.33164,"lon":5.37682,"is_reserved":false,"is_disabled":false,"rental_uris":{"android":"levelo://app?vid=06ab7e03-6cc1-4519-8625-3652421fe315","ios":"levelo://app?vid=06ab7e03-6cc1-4519-8625-3652421fe315"},"vehicle_type_id":"4","last_reported":1778312496,"current_range_meters":4000,"station_id":"st_d46cu089ee8s73dldbu0","pricing_plan_id":"cebpf4jnsgd1na2vs0mg"},{"bike_id":"8eea14e8-81f9-450a-9f42-646e56a018e2","system_id":"levelo_inurba_marseille","lat":43.28872,"lon":5.4252,"is_reserved":false,"is_disabled":true,"rental_uris":{"android":"levelo://app?vid=8eea14e8-81f9-450a-9f42-646e56a018e2","ios":"levelo://app?vid=8eea14e8-81f9-450a-9f42-646e56a018e2"},"vehicle_type_id":"4","last_reported":1778312496,"current_range_meters":4000,"station_id":"st_d3b462108ojc7389ooeg","pricing_plan_id":"cebpf4jnsgd1na2vs0mg"},{"bike_id":"621ef308-33a9-4a52-9e82-b4966d1a8f8d","system_id":"levelo_inurba_marseille","lat":43.28732,"lon":5.39995,"is_reserved":false,"is_disabled":true,"rental_uris":{"android":"levelo://app?vid=621ef308-33a9-4a52-9e82-b4966d1a8f8d","ios":"levelo://app?vid=621ef308-33a9-4a52-9e82-b4966d1a8f8d"},"vehicle_type_id":"4","last_reported":1778312496,"current_range_meters":4000,"station_id":"ce4bho92rcd13ifvqh3g","pricing_plan_id":"cebpf4jnsgd1na2vs0mg"},{"bike_id":"271e283d-2f8c-4648-a622-26b7eba777d8","system_id":"levelo_inurba_marseille","lat":43.24781,"lon":5.37535,"is_reserved":false,"is_disabled":false,"rental_uris":{"android":"levelo://app?vid=271e283d-2f8c-4648-a622-26b7eba777d8","ios":"levelo://app?vid=271e283d-2f8c-4648-a622-26b7eba777d8"},"vehicle_type_id":"4","last_reported":1778312496,"current_range_meters":4400,"station_id":"","pricing_plan_id":"cebpf4jnsgd1na2vs0mg"},{"bike_id":"894cda9e-9123-496e-85d4-3eb0f38b46f7","system_id":"levelo_inurba_marseille","lat":43.29882,"lon":5.39719,"is_reserved":false,"is_disabled":false,"rental_uris":{"android":"levelo://app?vid=894cda9e-9123-496e-85d4-3eb0f38b46f7","ios":"levelo://app?vid=894cda9e-9123-496e-85d4-3eb0f38b46f7"},"vehicle_type_id":"4","last_reported":1778312496,"current_range_meters":4400,"station_id":"ce4bh0h2rcd13ifvqd50","pricing_plan_id":"cebpf4jnsgd1na2vs0mg"},{"bike_id":"28591a20-c550-4108-9263-49d1bdca52ed","system_id":"levelo_inurba_marseille","lat":43.28478,"lon":5.48395,"is_reserved":false,"is_disabled":false,"rental_uris":{"android":"levelo://app?vid=28591a20-c550-4108-9263-49d1bdca52ed","ios":"levelo://app?vid=28591a20-c550-4108-9263-49d1bdca52ed"},"vehicle_type_id":"4","last_reported":1778312496,"current_range_meters":4400,"station_id":"","pricing_plan_id":"cebpf4jnsgd1na2vs0mg"},{"bike_id":"37998d8c-8065-4b38-b75b-e58f03489059","system_id":"levelo_inurba_marseille","lat":43.29789,"lon":5.37109,"is_reserved":false,"is_disabled":true,"rental_uris":{"android":"levelo://app?vid=37998d8c-8065-4b38-b75b-e58f03489059","ios":"levelo://app?vid=37998d8c-8065-4b38-b75b-e58f03489059"},"vehicle_type_id":"4","last_reported":1778312496,"current_range_meters":4400,"station_id":"ce4bgop2rcd13ifvqc1g","pricing_plan_id":"cebpf4jnsgd1na2vs0mg"},{"bike_id":"9a3140d6-e3fa-492e-8460-9c6f22636700","system_id":"levelo_inurba_marseille","lat":43.31368,"lon":5.39958,"is_reserved":false,"is_disabled":false,"rental_uris":{"android":"levelo://app?vid=9a3140d6-e3fa-492e-8460-9c6f22636700","ios":"levelo://app?vid=9a3140d6-e3fa-492e-8460-9c6f22636700"},"vehicle_type_id":"4","last_reported":1778312496,"current_range_meters":4400,"station_id":"","pricing_plan_id":"cebpf4jnsgd1na2vs0mg"},{"bike_id":"6e8c8d70-f5c2-458a-9d2f-01ee9c4702a0","system_id":"levelo_inurba_marseille","lat":43.286183,"lon":5.35104,"is_reserved":false,"is_disabled":false,"rental_uris":{"android":"levelo://app?vid=6e8c8d70-f5c2-458a-9d2f-01ee9c4702a0","ios":"levelo://app?vid=6e8c8d70-f5c2-458a-9d2f-01ee9c4702a0"},"vehicle_type_id":"4","last_reported":1778312496,"current_range_meters":4400,"station_id":"ce4bhch2rcd13ifvqeug","pricing_plan_id":"cebpf4jnsgd1na2vs0mg"},{"bike_id":"4bb82c69-d801-463f-8ebc-b8eca855164e","system_id":"levelo_inurba_marseille","lat":43.30151,"lon":5.38086,"is_reserved":false,"is_disabled":false,"rental_uris":{"android":"levelo://app?vid=4bb82c69-d801-463f-8ebc-b8eca855164e","ios":"levelo://app?vid=4bb82c69-d801-463f-8ebc-b8eca855164e"},"vehicle_type_id":"4","last_reported":1778312496,"current_range_meters":4400,"station_id":"ce4bgjp2rcd13ifvqbh0","pricing_plan_id":"cebpf4jnsgd1na2vs0mg"},{"bike_id":"98bef945-3165-4b80-9af1-9bac2a9ad948","system_id":"levelo_inurba_marseille","lat":43.24062,"lon":5.37753,"is_reserved":false,"is_disabled":false,"rental_uris":{"android":"levelo://app?vid=98bef945-3165-4b80-9af1-9bac2a9ad948","ios":"levelo://app?vid=98bef945-3165-4b80-9af1-9bac2a9ad948"},"vehicle_type_id":"4","last_reported":1778312496,"current_range_meters":4400,"station_id":"ce4bhnp2rcd13ifvqgvg","pricing_plan_id":"cebpf4jnsgd1na2vs0mg"},{"bike_id":"4914e9ad-2671-4a20-a60d-4fb13fede2c7","system_id":"levelo_inurba_marseille","lat":43.2654,"lon":5.37272,"is_reserved":false,"is_disabled":false,"rental_uris":{"android":"levelo://app?vid=4914e9ad-2671-4a20-a60d-4fb13fede2c7","ios":"levelo://app?vid=4914e9ad-2671-4a20-a60d-4fb13fede2c7"},"vehicle_type_id":"4","last_reported":1778312496,"current_range_meters":4800,"station_id":"ce4bhg12rcd13ifvqf70","pricing_plan_id":"cebpf4jnsgd1na2vs0mg"},{"bike_id":"f986817d-6392-43f8-9ac4-27c0873d810e","system_id":"levelo_inurba_marseille","lat":43.24796,"lon":5.37469,"is_reserved":false,"is_disabled":false,"rental_uris":{"android":"levelo://app?vid=f986817d-6392-43f8-9ac4-27c0873d810e","ios":"levelo://app?vid=f986817d-6392-43f8-9ac4-27c0873d810e"},"vehicle_type_id":"4","last_reported":1778312496,"current_range_meters":4800,"station_id":"ce4bhgh2rcd13ifvqfb0","pricing_plan_id":"cebpf4jnsgd1na2vs0mg"},{"bike_id":"3c448e94-09fa-4e14-bfed-9eae4cc96d57","system_id":"levelo_inurba_marseille","lat":43.31434,"lon":5.37389,"is_reserved":false,"is_disabled":false,"rental_uris":{"android":"levelo://app?vid=3c448e94-09fa-4e14-bfed-9eae4cc96d57","ios":"levelo://app?vid=3c448e94-09fa-4e14-bfed-9eae4cc96d57"},"vehicle_type_id":"4","last_reported":1778312496,"current_range_meters":4800,"station_id":"","pricing_plan_id":"cebpf4jnsgd1na2vs0mg"},{"bike_id":"4b65741e-5ed9-4da8-8620-3a00f88659d6","system_id":"levelo_inurba_marseille","lat":43.2847,"lon":5.48384,"is_reserved":false,"is_disabled":false,"rental_uris":{"android":"levelo://app?vid=4b65741e-5ed9-4da8-8620-3a00f88659d6","ios":"levelo://app?vid=4b65741e-5ed9-4da8-8620-3a00f88659d6"},"vehicle_type_id":"4","last_reported":1778312496,"current_range_meters":4800,"station_id":"","pricing_plan_id":"cebpf4jnsgd1na2vs0mg"},{"bike_id":"b93893d6-ef5b-42cb-9e31-04c26f6e26a9","system_id":"levelo_inurba_marseille","lat":43.2655,"lon":5.37287,"is_reserved":false,"is_disabled":false,"rental_uris":{"android":"levelo://app?vid=b93893d6-ef5b-42cb-9e31-04c26f6e26a9","ios":"levelo://app?vid=b93893d6-ef5b-42cb-9e31-04c26f6e26a9"},"vehicle_type_id":"4","last_reported":1778312496,"current_range_meters":4800,"station_id":"ce4bhg12rcd13ifvqf70","pricing_plan_id":"cebpf4jnsgd1na2vs0mg"},{"bike_id":"415142c7-f50e-411e-adf6-f39700e22f6d","system_id":"levelo_inurba_marseille","lat":43.32673,"lon":5.35541,"is_reserved":false,"is_disabled":false,"rental_uris":{"android":"levelo://app?vid=415142c7-f50e-411e-adf6-f39700e22f6d","ios":"levelo://app?vid=415142c7-f50e-411e-adf6-f39700e22f6d"},"vehicle_type_id":"4","last_reported":1778312496,"current_range_meters":4800,"station_id":"","pricing_plan_id":"cebpf4jnsgd1na2vs0mg"},{"bike_id":"dd974ac6-7838-40db-813d-bc39ed35a745","system_id":"levelo_inurba_marseille","lat":43.273746,"lon":5.36261,"is_reserved":false,"is_disabled":false,"rental_uris":{"android":"levelo://app?vid=dd974ac6-7838-40db-813d-bc39ed35a745","ios":"levelo://app?vid=dd974ac6-7838-40db-813d-bc39ed35a745"},"vehicle_type_id":"4","last_reported":1778312496,"current_range_meters":4800,"station_id":"","pricing_plan_id":"cebpf4jnsgd1na2vs0mg"},{"bike_id":"ad1907da-bd52-407d-9b1c-0a023b47783d","system_id":"levelo_inurba_marseille","lat":43.292001,"lon":5.358023,"is_reserved":false,"is_disabled":false,"rental_uris":{"android":"levelo://app?vid=ad1907da-bd52-407d-9b1c-0a023b47783d","ios":"levelo://app?vid=ad1907da-bd52-407d-9b1c-0a023b47783d"},"vehicle_type_id":"4","last_reported":1778312496,"current_range_meters":5600,"station_id":"ce4bhb12rcd13ifvqel0","pricing_plan_id":"cebpf4jnsgd1na2vs0mg"},{"bike_id":"18aa77ae-7c98-4629-b198-a90b4281d21b","system_id":"levelo_inurba_marseille","lat":43.29847,"lon":5.36283,"is_reserved":false,"is_disabled":false,"rental_uris":{"android":"levelo://app?vid=18aa77ae-7c98-4629-b198-a90b4281d21b","ios":"levelo://app?vid=18aa77ae-7c98-4629-b198-a90b4281d21b"},"vehicle_type_id":"4","last_reported":1778312496,"current_range_meters":5600,"station_id":"ce4bgpp2rcd13ifvqc3g","pricing_plan_id":"cebpf4jnsgd1na2vs0mg"},{"bike_id":"6452db2c-1182-4afc-94bd-93e76ac56d68","system_id":"levelo_inurba_marseille","lat":43.27065,"lon":5.42269,"is_reserved":false,"is_disabled":false,"rental_uris":{"android":"levelo://app?vid=6452db2c-1182-4afc-94bd-93e76ac56d68","ios":"levelo://app?vid=6452db2c-1182-4afc-94bd-93e76ac56d68"},"vehicle_type_id":"4","last_reported":1778312496,"current_range_meters":5600,"station_id":"ce4bhk92rcd13ifvqgb0","pricing_plan_id":"cebpf4jnsgd1na2vs0mg"},{"bike_id":"89e60c09-d607-4c05-88a7-ef49c882e139","system_id":"levelo_inurba_marseille","lat":43.24175,"lon":5.36393,"is_reserved":false,"is_disabled":false,"rental_uris":{"android":"levelo://app?vid=89e60c09-d607-4c05-88a7-ef49c882e139","ios":"levelo://app?vid=89e60c09-d607-4c05-88a7-ef49c882e139"},"vehicle_type_id":"4","last_reported":1778312496,"current_range_meters":5600,"station_id":"cpo36qri1sfpv3e86is0","pricing_plan_id":"cebpf4jnsgd1na2vs0mg"},{"bike_id":"ce6d5dbc-0b80-4f3a-abfd-d46149cf65d1","system_id":"levelo_inurba_marseille","lat":43.29945,"lon":5.3742,"is_reserved":false,"is_disabled":false,"rental_uris":{"android":"levelo://app?vid=ce6d5dbc-0b80-4f3a-abfd-d46149cf65d1","ios":"levelo://app?vid=ce6d5dbc-0b80-4f3a-abfd-d46149cf65d1"},"vehicle_type_id":"4","last_reported":1778312496,"current_range_meters":5600,"station_id":"","pricing_plan_id":"cebpf4jnsgd1na2vs0mg"},{"bike_id":"287fafd1-d806-4b3f-a1f3-af43d40f3ef9","system_id":"levelo_inurba_marseille","lat":43.31495,"lon":5.37245,"is_reserved":false,"is_disabled":false,"rental_uris":{"android":"levelo://app?vid=287fafd1-d806-4b3f-a1f3-af43d40f3ef9","ios":"levelo://app?vid=287fafd1-d806-4b3f-a1f3-af43d40f3ef9"},"vehicle_type_id":"4","last_reported":1778312496,"current_range_meters":5600,"station_id":"","pricing_plan_id":"cebpf4jnsgd1na2vs0mg"},{"bike_id":"6052b460-2ae9-4384-970a-feb21203acee","system_id":"levelo_inurba_marseille","lat":43.29928,"lon":5.37465,"is_reserved":false,"is_disabled":false,"rental_uris":{"android":"levelo://app?vid=6052b460-2ae9-4384-970a-feb21203acee","ios":"levelo://app?vid=6052b460-2ae9-4384-970a-feb21203acee"},"vehicle_type_id":"4","last_reported":1778312496,"current_range_meters":5600,"station_id":"ce4bgjh2rcd13ifvqbg0","pricing_plan_id":"cebpf4jnsgd1na2vs0mg"},{"bike_id":"fa833790-fea7-4b87-ab01-22a9071ab066","system_id":"levelo_inurba_marseille","lat":43.28468,"lon":5.4839,"is_reserved":false,"is_disabled":false,"rental_uris":{"android":"levelo://app?vid=fa833790-fea7-4b87-ab01-22a9071ab066","ios":"levelo://app?vid=fa833790-fea7-4b87-ab01-22a9071ab066"},"vehicle_type_id":"4","last_reported":1778312496,"current_range_meters":5600,"station_id":"st_d3svhcjqgbts73a3dn0g","pricing_plan_id":"cebpf4jnsgd1na2vs0mg"},{"bike_id":"5fc85a70-cd51-491b-a363-a46b0850da15","system_id":"levelo_inurba_marseille","lat":43.32911,"lon":5.36713,"is_reserved":false,"is_disabled":false,"rental_uris":{"android":"levelo://app?vid=5fc85a70-cd51-491b-a363-a46b0850da15","ios":"levelo://app?vid=5fc85a70-cd51-491b-a363-a46b0850da15"},"vehicle_type_id":"4","last_reported":1778312496,"current_range_meters":5600,"station_id":"","pricing_plan_id":"cebpf4jnsgd1na2vs0mg"},{"bike_id":"5b17b337-4e55-486b-b310-212b10614e57","system_id":"levelo_inurba_marseille","lat":43.32356,"lon":5.36727,"is_reserved":false,"is_disabled":false,"rental_uris":{"android":"levelo://app?vid=5b17b337-4e55-486b-b310-212b10614e57","ios":"levelo://app?vid=5b17b337-4e55-486b-b310-212b10614e57"},"vehicle_type_id":"4","last_reported":1778312496,"current_range_meters":5600,"station_id":"ce4bhsh2rcd13ifvqi2g","pricing_plan_id":"cebpf4jnsgd1na2vs0mg"},{"bike_id":"af4f28bf-21b5-4a5a-a8f7-b2cb6c3299df","system_id":"levelo_inurba_marseille","lat":43.29577,"lon":5.36722,"is_reserved":false,"is_disabled":false,"rental_uris":{"android":"levelo://app?vid=af4f28bf-21b5-4a5a-a8f7-b2cb6c3299df","ios":"levelo://app?vid=af4f28bf-21b5-4a5a-a8f7-b2cb6c3299df"},"vehicle_type_id":"4","last_reported":1778312496,"current_range_meters":5600,"station_id":"ce4bgph2rcd13ifvqc2g","pricing_plan_id":"cebpf4jnsgd1na2vs0mg"},{"bike_id":"f1341701-ce72-4914-bad3-31e4950fc2b5","system_id":"levelo_inurba_marseille","lat":43.29028,"lon":5.38132,"is_reserved":false,"is_disabled":false,"rental_uris":{"android":"levelo://app?vid=f1341701-ce72-4914-bad3-31e4950fc2b5","ios":"levelo://app?vid=f1341701-ce72-4914-bad3-31e4950fc2b5"},"vehicle_type_id":"4","last_reported":1778312496,"current_range_meters":5600,"station_id":"ce4bh4p2rcd13ifvqe1g","pricing_plan_id":"cebpf4jnsgd1na2vs0mg"},{"bike_id":"2eff6c3c-b3c7-4f79-9177-294eb1d510e0","system_id":"levelo_inurba_marseille","lat":43.21176,"lon":5.35026,"is_reserved":false,"is_disabled":false,"rental_uris":{"android":"levelo://app?vid=2eff6c3c-b3c7-4f79-9177-294eb1d510e0","ios":"levelo://app?vid=2eff6c3c-b3c7-4f79-9177-294eb1d510e0"},"vehicle_type_id":"4","last_reported":1778312496,"current_range_meters":5600,"station_id":"","pricing_plan_id":"cebpf4jnsgd1na2vs0mg"},{"bike_id":"0bc66aaf-5baf-4527-9d78-345db4e62b37","system_id":"levelo_inurba_marseille","lat":43.27512,"lon":5.41593,"is_reserved":false,"is_disabled":false,"rental_uris":{"android":"levelo://app?vid=0bc66aaf-5baf-4527-9d78-345db4e62b37","ios":"levelo://app?vid=0bc66aaf-5baf-4527-9d78-345db4e62b37"},"vehicle_type_id":"4","last_reported":1778312496,"current_range_meters":5600,"station_id":"st_d6im8g6chgec73a5pndg","pricing_plan_id":"cebpf4jnsgd1na2vs0mg"},{"bike_id":"05ea95a4-cd67-4fc1-a218-6926df79c21d","system_id":"levelo_inurba_marseille","lat":43.31075,"lon":5.37777,"is_reserved":false,"is_disabled":false,"rental_uris":{"android":"levelo://app?vid=05ea95a4-cd67-4fc1-a218-6926df79c21d","ios":"levelo://app?vid=05ea95a4-cd67-4fc1-a218-6926df79c21d"},"vehicle_type_id":"4","last_reported":1778312496,"current_range_meters":6000,"station_id":"ce4bgt92rcd13ifvqcg0","pricing_plan_id":"cebpf4jnsgd1na2vs0mg"},{"bike_id":"f03e9416-653d-45fd-aba7-c2ee459eb1bb","system_id":"levelo_inurba_marseille","lat":43.33539,"lon":5.37441,"is_reserved":false,"is_disabled":false,"rental_uris":{"android":"levelo://app?vid=f03e9416-653d-45fd-aba7-c2ee459eb1bb","ios":"levelo://app?vid=f03e9416-653d-45fd-aba7-c2ee459eb1bb"},"vehicle_type_id":"4","last_reported":1778312496,"current_range_meters":6000,"station_id":"st_d46tts09ee8s73dlu43g","pricing_plan_id":"cebpf4jnsgd1na2vs0mg"},{"bike_id":"82f907ec-863d-443b-9a33-e018df21131b","system_id":"levelo_inurba_marseille","lat":43.27966,"lon":5.38671,"is_reserved":false,"is_disabled":false,"rental_uris":{"android":"levelo://app?vid=82f907ec-863d-443b-9a33-e018df21131b","ios":"levelo://app?vid=82f907ec-863d-443b-9a33-e018df21131b"},"vehicle_type_id":"4","last_reported":1778312496,"current_range_meters":6000,"station_id":"ce4bhg12rcd13ifvqf80","pricing_plan_id":"cebpf4jnsgd1na2vs0mg"},{"bike_id":"7b416787-800a-4e18-b782-4ef145ce6930","system_id":"levelo_inurba_marseille","lat":43.27975,"lon":5.38709,"is_reserved":false,"is_disabled":false,"rental_uris":{"android":"levelo://app?vid=7b416787-800a-4e18-b782-4ef145ce6930","ios":"levelo://app?vid=7b416787-800a-4e18-b782-4ef145ce6930"},"vehicle_type_id":"4","last_reported":1778312496,"current_range_meters":6000,"station_id":"ce4bhg12rcd13ifvqf80","pricing_plan_id":"cebpf4jnsgd1na2vs0mg"},{"bike_id":"9f135140-bc51-471a-99ba-2c149cd74964","system_id":"levelo_inurba_marseille","lat":43.22556,"lon":5.41623,"is_reserved":false,"is_disabled":false,"rental_uris":{"android":"levelo://app?vid=9f135140-bc51-471a-99ba-2c149cd74964","ios":"levelo://app?vid=9f135140-bc51-471a-99ba-2c149cd74964"},"vehicle_type_id":"4","last_reported":1778312496,"current_range_meters":6000,"station_id":"st_d2o4gvlbi1j2169b742g","pricing_plan_id":"cebpf4jnsgd1na2vs0mg"},{"bike_id":"7e50e839-dd6a-450c-9a70-575aa4d103f4","system_id":"levelo_inurba_marseille","lat":43.30897,"lon":5.36832,"is_reserved":false,"is_disabled":false,"rental_uris":{"android":"levelo://app?vid=7e50e839-dd6a-450c-9a70-575aa4d103f4","ios":"levelo://app?vid=7e50e839-dd6a-450c-9a70-575aa4d103f4"},"vehicle_type_id":"4","last_reported":1778312496,"current_range_meters":6000,"station_id":"ce4bgn92rcd13ifvqbvg","pricing_plan_id":"cebpf4jnsgd1na2vs0mg"},{"bike_id":"95489a07-b280-4aea-935b-70fc8cc33653","system_id":"levelo_inurba_marseille","lat":43.21759,"lon":5.34582,"is_reserved":false,"is_disabled":true,"rental_uris":{"android":"levelo://app?vid=95489a07-b280-4aea-935b-70fc8cc33653","ios":"levelo://app?vid=95489a07-b280-4aea-935b-70fc8cc33653"},"vehicle_type_id":"4","last_reported":1778312496,"current_range_meters":6000,"station_id":"st_cvj6r9ubvosntc0bgbag","pricing_plan_id":"cebpf4jnsgd1na2vs0mg"},{"bike_id":"13b1bcc7-e9d8-48b8-a72f-6d1f9d17e51d","system_id":"levelo_inurba_marseille","lat":43.24905,"lon":5.38971,"is_reserved":false,"is_disabled":false,"rental_uris":{"android":"levelo://app?vid=13b1bcc7-e9d8-48b8-a72f-6d1f9d17e51d","ios":"levelo://app?vid=13b1bcc7-e9d8-48b8-a72f-6d1f9d17e51d"},"vehicle_type_id":"4","last_reported":1778312496,"current_range_meters":6000,"station_id":"","pricing_plan_id":"cebpf4jnsgd1na2vs0mg"},{"bike_id":"bdd7e5e6-a507-4b27-9760-4ad4469a7c6c","system_id":"levelo_inurba_marseille","lat":43.299253,"lon":5.374698,"is_reserved":false,"is_disabled":false,"rental_uris":{"android":"levelo://app?vid=bdd7e5e6-a507-4b27-9760-4ad4469a7c6c","ios":"levelo://app?vid=bdd7e5e6-a507-4b27-9760-4ad4469a7c6c"},"vehicle_type_id":"4","last_reported":1778312496,"current_range_meters":6000,"station_id":"ce4bgjh2rcd13ifvqbg0","pricing_plan_id":"cebpf4jnsgd1na2vs0mg"},{"bike_id":"1f542d0e-b2af-4dc5-9631-c64dfe5f0a7a","system_id":"levelo_inurba_marseille","lat":43.29859,"lon":5.39737,"is_reserved":false,"is_disabled":false,"rental_uris":{"android":"levelo://app?vid=1f542d0e-b2af-4dc5-9631-c64dfe5f0a7a","ios":"levelo://app?vid=1f542d0e-b2af-4dc5-9631-c64dfe5f0a7a"},"vehicle_type_id":"4","last_reported":1778312496,"current_range_meters":6000,"station_id":"ce4bh0h2rcd13ifvqd50","pricing_plan_id":"cebpf4jnsgd1na2vs0mg"},{"bike_id":"c1a97594-c328-414c-a4af-a7778a5a6311","system_id":"levelo_inurba_marseille","lat":43.27318,"lon":5.38998,"is_reserved":false,"is_disabled":false,"rental_uris":{"android":"levelo://app?vid=c1a97594-c328-414c-a4af-a7778a5a6311","ios":"levelo://app?vid=c1a97594-c328-414c-a4af-a7778a5a6311"},"vehicle_type_id":"4","last_reported":1778312496,"current_range_meters":6000,"station_id":"ce4bhgp2rcd13ifvqfe0","pricing_plan_id":"cebpf4jnsgd1na2vs0mg"},{"bike_id":"feecb4be-b14f-4f21-b0cd-b401783be40f","system_id":"levelo_inurba_marseille","lat":43.27948,"lon":5.41031,"is_reserved":false,"is_disabled":false,"rental_uris":{"android":"levelo://app?vid=feecb4be-b14f-4f21-b0cd-b401783be40f","ios":"levelo://app?vid=feecb4be-b14f-4f21-b0cd-b401783be40f"},"vehicle_type_id":"4","last_reported":1778312496,"current_range_meters":6000,"station_id":"ce4bhnp2rcd13ifvqh0g","pricing_plan_id":"cebpf4jnsgd1na2vs0mg"},{"bike_id":"ba1a84df-99bc-4f91-b102-9b8b01f50ffc","system_id":"levelo_inurba_marseille","lat":43.31894,"lon":5.3679,"is_reserved":false,"is_disabled":false,"rental_uris":{"android":"levelo://app?vid=ba1a84df-99bc-4f91-b102-9b8b01f50ffc","ios":"levelo://app?vid=ba1a84df-99bc-4f91-b102-9b8b01f50ffc"},"vehicle_type_id":"4","last_reported":1778312496,"current_range_meters":6400,"station_id":"st_d6o2h0d0559c73evc1b0","pricing_plan_id":"cebpf4jnsgd1na2vs0mg"},{"bike_id":"6fe4ba82-0048-4e70-941c-4452870ef26d","system_id":"levelo_inurba_marseille","lat":43.24821,"lon":5.37436,"is_reserved":false,"is_disabled":false,"rental_uris":{"android":"levelo://app?vid=6fe4ba82-0048-4e70-941c-4452870ef26d","ios":"levelo://app?vid=6fe4ba82-0048-4e70-941c-4452870ef26d"},"vehicle_type_id":"4","last_reported":1778312496,"current_range_meters":6400,"station_id":"ce4bhgh2rcd13ifvqfb0","pricing_plan_id":"cebpf4jnsgd1na2vs0mg"},{"bike_id":"09f03c71-3135-488b-aa1b-16f1834011a9","system_id":"levelo_inurba_marseille","lat":43.29198,"lon":5.35677,"is_reserved":false,"is_disabled":false,"rental_uris":{"android":"levelo://app?vid=09f03c71-3135-488b-aa1b-16f1834011a9","ios":"levelo://app?vid=09f03c71-3135-488b-aa1b-16f1834011a9"},"vehicle_type_id":"4","last_reported":1778312496,"current_range_meters":6400,"station_id":"","pricing_plan_id":"cebpf4jnsgd1na2vs0mg"},{"bike_id":"7c56137a-05b5-47d0-b192-873a2f490371","system_id":"levelo_inurba_marseille","lat":43.24385,"lon":5.37059,"is_reserved":false,"is_disabled":false,"rental_uris":{"android":"levelo://app?vid=7c56137a-05b5-47d0-b192-873a2f490371","ios":"levelo://app?vid=7c56137a-05b5-47d0-b192-873a2f490371"},"vehicle_type_id":"4","last_reported":1778312496,"current_range_meters":6400,"station_id":"ce4bhhh2rcd13ifvqfk0","pricing_plan_id":"cebpf4jnsgd1na2vs0mg"},{"bike_id":"c61964c8-c89c-477d-b76c-a022d4861077","system_id":"levelo_inurba_marseille","lat":43.30921,"lon":5.40127,"is_reserved":false,"is_disabled":false,"rental_uris":{"android":"levelo://app?vid=c61964c8-c89c-477d-b76c-a022d4861077","ios":"levelo://app?vid=c61964c8-c89c-477d-b76c-a022d4861077"},"vehicle_type_id":"4","last_reported":1778312496,"current_range_meters":6400,"station_id":"ce4bgvp2rcd13ifvqct0","pricing_plan_id":"cebpf4jnsgd1na2vs0mg"},{"bike_id":"c90e6cae-dbe6-402b-9a31-659b3311ab55","system_id":"levelo_inurba_marseille","lat":43.28102,"lon":5.37825,"is_reserved":false,"is_disabled":false,"rental_uris":{"android":"levelo://app?vid=c90e6cae-dbe6-402b-9a31-659b3311ab55","ios":"levelo://app?vid=c90e6cae-dbe6-402b-9a31-659b3311ab55"},"vehicle_type_id":"4","last_reported":1778312496,"current_range_meters":6400,"station_id":"ce4bha12rcd13ifvqee0","pricing_plan_id":"cebpf4jnsgd1na2vs0mg"},{"bike_id":"c1b768b5-78ad-4562-8b11-acf628f13106","system_id":"levelo_inurba_marseille","lat":43.27982,"lon":5.44225,"is_reserved":false,"is_disabled":false,"rental_uris":{"android":"levelo://app?vid=c1b768b5-78ad-4562-8b11-acf628f13106","ios":"levelo://app?vid=c1b768b5-78ad-4562-8b11-acf628f13106"},"vehicle_type_id":"4","last_reported":1778312496,"current_range_meters":6400,"station_id":"","pricing_plan_id":"cebpf4jnsgd1na2vs0mg"},{"bike_id":"4ee78646-fefd-4446-9cad-30077bd1d04f","system_id":"levelo_inurba_marseille","lat":43.30229,"lon":5.4006,"is_reserved":false,"is_disabled":true,"rental_uris":{"android":"levelo://app?vid=4ee78646-fefd-4446-9cad-30077bd1d04f","ios":"levelo://app?vid=4ee78646-fefd-4446-9cad-30077bd1d04f"},"vehicle_type_id":"4","last_reported":1778312496,"current_range_meters":6400,"station_id":"","pricing_plan_id":"cebpf4jnsgd1na2vs0mg"},{"bike_id":"e8461b56-9af7-4d44-a288-92e063783260","system_id":"levelo_inurba_marseille","lat":43.26218,"lon":5.40429,"is_reserved":false,"is_disabled":false,"rental_uris":{"android":"levelo://app?vid=e8461b56-9af7-4d44-a288-92e063783260","ios":"levelo://app?vid=e8461b56-9af7-4d44-a288-92e063783260"},"vehicle_type_id":"4","last_reported":1778312496,"current_range_meters":6400,"station_id":"ce4bhmh2rcd13ifvqgmg","pricing_plan_id":"cebpf4jnsgd1na2vs0mg"},{"bike_id":"bfb0916e-2b00-499b-8dce-6828f49a497a","system_id":"levelo_inurba_marseille","lat":43.25086,"lon":5.39513,"is_reserved":false,"is_disabled":false,"rental_uris":{"android":"levelo://app?vid=bfb0916e-2b00-499b-8dce-6828f49a497a","ios":"levelo://app?vid=bfb0916e-2b00-499b-8dce-6828f49a497a"},"vehicle_type_id":"4","last_reported":1778312496,"current_range_meters":6400,"station_id":"ce4bhm12rcd13ifvqgkg","pricing_plan_id":"cebpf4jnsgd1na2vs0mg"},{"bike_id":"884bb36e-ffbe-429a-8e06-5f1168a9b588","system_id":"levelo_inurba_marseille","lat":43.30151,"lon":5.38079,"is_reserved":false,"is_disabled":false,"rental_uris":{"android":"levelo://app?vid=884bb36e-ffbe-429a-8e06-5f1168a9b588","ios":"levelo://app?vid=884bb36e-ffbe-429a-8e06-5f1168a9b588"},"vehicle_type_id":"4","last_reported":1778312496,"current_range_meters":6400,"station_id":"ce4bgjp2rcd13ifvqbh0","pricing_plan_id":"cebpf4jnsgd1na2vs0mg"},{"bike_id":"e8b1e16d-8120-4289-bd8d-f5e10e7fd582","system_id":"levelo_inurba_marseille","lat":43.30934,"lon":5.40147,"is_reserved":false,"is_disabled":false,"rental_uris":{"android":"levelo://app?vid=e8b1e16d-8120-4289-bd8d-f5e10e7fd582","ios":"levelo://app?vid=e8b1e16d-8120-4289-bd8d-f5e10e7fd582"},"vehicle_type_id":"4","last_reported":1778312496,"current_range_meters":6400,"station_id":"ce4bgvp2rcd13ifvqct0","pricing_plan_id":"cebpf4jnsgd1na2vs0mg"},{"bike_id":"cbc65248-03cc-4144-a0cb-baf3e5a8f89e","system_id":"levelo_inurba_marseille","lat":43.29886,"lon":5.39716,"is_reserved":false,"is_disabled":false,"rental_uris":{"android":"levelo://app?vid=cbc65248-03cc-4144-a0cb-baf3e5a8f89e","ios":"levelo://app?vid=cbc65248-03cc-4144-a0cb-baf3e5a8f89e"},"vehicle_type_id":"4","last_reported":1778312496,"current_range_meters":6400,"station_id":"ce4bh0h2rcd13ifvqd50","pricing_plan_id":"cebpf4jnsgd1na2vs0mg"},{"bike_id":"48a3f40b-b41c-45ee-82b8-00b871da13dc","system_id":"levelo_inurba_marseille","lat":43.26577,"lon":5.403,"is_reserved":false,"is_disabled":false,"rental_uris":{"android":"levelo://app?vid=48a3f40b-b41c-45ee-82b8-00b871da13dc","ios":"levelo://app?vid=48a3f40b-b41c-45ee-82b8-00b871da13dc"},"vehicle_type_id":"4","last_reported":1778312496,"current_range_meters":6800,"station_id":"ce4bhmp2rcd13ifvqgng","pricing_plan_id":"cebpf4jnsgd1na2vs0mg"},{"bike_id":"eee51eae-5aaa-4a90-b6bb-0ee2250819e2","system_id":"levelo_inurba_marseille","lat":43.27884,"lon":5.38763,"is_reserved":false,"is_disabled":false,"rental_uris":{"android":"levelo://app?vid=eee51eae-5aaa-4a90-b6bb-0ee2250819e2","ios":"levelo://app?vid=eee51eae-5aaa-4a90-b6bb-0ee2250819e2"},"vehicle_type_id":"4","last_reported":1778312496,"current_range_meters":6800,"station_id":"","pricing_plan_id":"cebpf4jnsgd1na2vs0mg"},{"bike_id":"36bf5966-883a-4820-975e-e8801ce08727","system_id":"levelo_inurba_marseille","lat":43.29317,"lon":5.37143,"is_reserved":false,"is_disabled":false,"rental_uris":{"android":"levelo://app?vid=36bf5966-883a-4820-975e-e8801ce08727","ios":"levelo://app?vid=36bf5966-883a-4820-975e-e8801ce08727"},"vehicle_type_id":"4","last_reported":1778312496,"current_range_meters":6800,"station_id":"ce4bgh92rcd13ifvqb40","pricing_plan_id":"cebpf4jnsgd1na2vs0mg"},{"bike_id":"1a8c1511-a5c4-4f88-9446-0c157bdbb297","system_id":"levelo_inurba_marseille","lat":43.30625,"lon":5.37225,"is_reserved":false,"is_disabled":false,"rental_uris":{"android":"levelo://app?vid=1a8c1511-a5c4-4f88-9446-0c157bdbb297","ios":"levelo://app?vid=1a8c1511-a5c4-4f88-9446-0c157bdbb297"},"vehicle_type_id":"4","last_reported":1778312496,"current_range_meters":6800,"station_id":"ce4bgqh2rcd13ifvqc4g","pricing_plan_id":"cebpf4jnsgd1na2vs0mg"},{"bike_id":"e9603e54-ff6b-4fae-9e9b-b17dd395cbe4","system_id":"levelo_inurba_marseille","lat":43.26377,"lon":5.39941,"is_reserved":false,"is_disabled":false,"rental_uris":{"android":"levelo://app?vid=e9603e54-ff6b-4fae-9e9b-b17dd395cbe4","ios":"levelo://app?vid=e9603e54-ff6b-4fae-9e9b-b17dd395cbe4"},"vehicle_type_id":"4","last_reported":1778312496,"current_range_meters":6800,"station_id":"","pricing_plan_id":"cebpf4jnsgd1na2vs0mg"},{"bike_id":"a8bb88cb-244c-492f-86ff-2263fb765676","system_id":"levelo_inurba_marseille","lat":43.31265,"lon":5.40156,"is_reserved":false,"is_disabled":false,"rental_uris":{"android":"levelo://app?vid=a8bb88cb-244c-492f-86ff-2263fb765676","ios":"levelo://app?vid=a8bb88cb-244c-492f-86ff-2263fb765676"},"vehicle_type_id":"4","last_reported":1778312496,"current_range_meters":6800,"station_id":"ce4bh092rcd13ifvqd30","pricing_plan_id":"cebpf4jnsgd1na2vs0mg"},{"bike_id":"c081e2e6-b6d3-466f-b56c-4844cab8d639","system_id":"levelo_inurba_marseille","lat":43.23777,"lon":5.41456,"is_reserved":false,"is_disabled":false,"rental_uris":{"android":"levelo://app?vid=c081e2e6-b6d3-466f-b56c-4844cab8d639","ios":"levelo://app?vid=c081e2e6-b6d3-466f-b56c-4844cab8d639"},"vehicle_type_id":"4","last_reported":1778312496,"current_range_meters":6800,"station_id":"","pricing_plan_id":"cebpf4jnsgd1na2vs0mg"},{"bike_id":"c875cdeb-f31c-4344-a886-0babf4b5b024","system_id":"levelo_inurba_marseille","lat":43.24447,"lon":5.42574,"is_reserved":false,"is_disabled":false,"rental_uris":{"android":"levelo://app?vid=c875cdeb-f31c-4344-a886-0babf4b5b024","ios":"levelo://app?vid=c875cdeb-f31c-4344-a886-0babf4b5b024"},"vehicle_type_id":"4","last_reported":1778312496,"current_range_meters":6800,"station_id":"st_d4a3vfp97mjs738cd8kg","pricing_plan_id":"cebpf4jnsgd1na2vs0mg"},{"bike_id":"2bfeb872-3b6a-44bd-aaf4-d49eee479e56","system_id":"levelo_inurba_marseille","lat":43.21736,"lon":5.34574,"is_reserved":false,"is_disabled":false,"rental_uris":{"android":"levelo://app?vid=2bfeb872-3b6a-44bd-aaf4-d49eee479e56","ios":"levelo://app?vid=2bfeb872-3b6a-44bd-aaf4-d49eee479e56"},"vehicle_type_id":"4","last_reported":1778312496,"current_range_meters":6800,"station_id":"st_cvj6r9ubvosntc0bgbag","pricing_plan_id":"cebpf4jnsgd1na2vs0mg"},{"bike_id":"9d19633a-09dc-421b-9646-d96c48669e07","system_id":"levelo_inurba_marseille","lat":43.24158,"lon":5.39725,"is_reserved":false,"is_disabled":false,"rental_uris":{"android":"levelo://app?vid=9d19633a-09dc-421b-9646-d96c48669e07","ios":"levelo://app?vid=9d19633a-09dc-421b-9646-d96c48669e07"},"vehicle_type_id":"4","last_reported":1778312496,"current_range_meters":6800,"station_id":"ce4bhn12rcd13ifvqgpg","pricing_plan_id":"cebpf4jnsgd1na2vs0mg"},{"bike_id":"260a19db-c927-4d40-9031-32f18476130c","system_id":"levelo_inurba_marseille","lat":43.30931,"lon":5.40139,"is_reserved":false,"is_disabled":false,"rental_uris":{"android":"levelo://app?vid=260a19db-c927-4d40-9031-32f18476130c","ios":"levelo://app?vid=260a19db-c927-4d40-9031-32f18476130c"},"vehicle_type_id":"4","last_reported":1778312496,"current_range_meters":6800,"station_id":"ce4bgvp2rcd13ifvqct0","pricing_plan_id":"cebpf4jnsgd1na2vs0mg"},{"bike_id":"a69079ab-511f-4727-a17c-675c43b9b33d","system_id":"levelo_inurba_marseille","lat":43.31114,"lon":5.37765,"is_reserved":false,"is_disabled":false,"rental_uris":{"android":"levelo://app?vid=a69079ab-511f-4727-a17c-675c43b9b33d","ios":"levelo://app?vid=a69079ab-511f-4727-a17c-675c43b9b33d"},"vehicle_type_id":"4","last_reported":1778312496,"current_range_meters":6800,"station_id":"ce4bgt92rcd13ifvqcg0","pricing_plan_id":"cebpf4jnsgd1na2vs0mg"},{"bike_id":"12633ac5-c16f-4db3-80b2-9ed2ef625bfd","system_id":"levelo_inurba_marseille","lat":43.29031,"lon":5.39929,"is_reserved":false,"is_disabled":false,"rental_uris":{"android":"levelo://app?vid=12633ac5-c16f-4db3-80b2-9ed2ef625bfd","ios":"levelo://app?vid=12633ac5-c16f-4db3-80b2-9ed2ef625bfd"},"vehicle_type_id":"4","last_reported":1778312496,"current_range_meters":6800,"station_id":"ce4bh392rcd13ifvqdm0","pricing_plan_id":"cebpf4jnsgd1na2vs0mg"},{"bike_id":"ea00afd6-b2e3-4eb1-8393-253193c0efff","system_id":"levelo_inurba_marseille","lat":43.27373,"lon":5.36246,"is_reserved":false,"is_disabled":true,"rental_uris":{"android":"levelo://app?vid=ea00afd6-b2e3-4eb1-8393-253193c0efff","ios":"levelo://app?vid=ea00afd6-b2e3-4eb1-8393-253193c0efff"},"vehicle_type_id":"4","last_reported":1778312496,"current_range_meters":6800,"station_id":"ce4bhbh2rcd13ifvqeo0","pricing_plan_id":"cebpf4jnsgd1na2vs0mg"},{"bike_id":"8c9cc813-ce65-41a4-a58d-7de02edc3b93","system_id":"levelo_inurba_marseille","lat":43.28672,"lon":5.36324,"is_reserved":false,"is_disabled":false,"rental_uris":{"android":"levelo://app?vid=8c9cc813-ce65-41a4-a58d-7de02edc3b93","ios":"levelo://app?vid=8c9cc813-ce65-41a4-a58d-7de02edc3b93"},"vehicle_type_id":"4","last_reported":1778312496,"current_range_meters":6800,"station_id":"ce4bhah2rcd13ifvqej0","pricing_plan_id":"cebpf4jnsgd1na2vs0mg"},{"bike_id":"a2255690-14bf-4d7c-b2f6-ffd493bfffd8","system_id":"levelo_inurba_marseille","lat":43.24151,"lon":5.36403,"is_reserved":false,"is_disabled":false,"rental_uris":{"android":"levelo://app?vid=a2255690-14bf-4d7c-b2f6-ffd493bfffd8","ios":"levelo://app?vid=a2255690-14bf-4d7c-b2f6-ffd493bfffd8"},"vehicle_type_id":"4","last_reported":1778312496,"current_range_meters":7200,"station_id":"cpo36qri1sfpv3e86is0","pricing_plan_id":"cebpf4jnsgd1na2vs0mg"},{"bike_id":"8fdbe986-716a-4dce-a50d-3af695e9688c","system_id":"levelo_inurba_marseille","lat":43.33538,"lon":5.37456,"is_reserved":false,"is_disabled":false,"rental_uris":{"android":"levelo://app?vid=8fdbe986-716a-4dce-a50d-3af695e9688c","ios":"levelo://app?vid=8fdbe986-716a-4dce-a50d-3af695e9688c"},"vehicle_type_id":"4","last_reported":1778312496,"current_range_meters":7200,"station_id":"st_d46tts09ee8s73dlu43g","pricing_plan_id":"cebpf4jnsgd1na2vs0mg"},{"bike_id":"798dd442-ecce-41be-b4b9-436ee7f8a467","system_id":"levelo_inurba_marseille","lat":43.272094,"lon":5.390291,"is_reserved":false,"is_disabled":false,"rental_uris":{"android":"levelo://app?vid=798dd442-ecce-41be-b4b9-436ee7f8a467","ios":"levelo://app?vid=798dd442-ecce-41be-b4b9-436ee7f8a467"},"vehicle_type_id":"4","last_reported":1778312496,"current_range_meters":7200,"station_id":"ce4bhhp2rcd13ifvqfm0","pricing_plan_id":"cebpf4jnsgd1na2vs0mg"},{"bike_id":"a20bf0ad-4e5f-4dca-a238-a53131a5d311","system_id":"levelo_inurba_marseille","lat":43.27619,"lon":5.36102,"is_reserved":false,"is_disabled":false,"rental_uris":{"android":"levelo://app?vid=a20bf0ad-4e5f-4dca-a238-a53131a5d311","ios":"levelo://app?vid=a20bf0ad-4e5f-4dca-a238-a53131a5d311"},"vehicle_type_id":"4","last_reported":1778312496,"current_range_meters":7200,"station_id":"ce4bgj92rcd13ifvqbe0","pricing_plan_id":"cebpf4jnsgd1na2vs0mg"},{"bike_id":"24ddfd4a-4143-402b-9a18-24695f949e9a","system_id":"levelo_inurba_marseille","lat":43.30358,"lon":5.4247,"is_reserved":false,"is_disabled":false,"rental_uris":{"android":"levelo://app?vid=24ddfd4a-4143-402b-9a18-24695f949e9a","ios":"levelo://app?vid=24ddfd4a-4143-402b-9a18-24695f949e9a"},"vehicle_type_id":"4","last_reported":1778312496,"current_range_meters":7200,"station_id":"ce4bhoh2rcd13ifvqh6g","pricing_plan_id":"cebpf4jnsgd1na2vs0mg"},{"bike_id":"c23b9fb6-8249-47b9-b834-2db7ce007788","system_id":"levelo_inurba_marseille","lat":43.29113,"lon":5.40285,"is_reserved":false,"is_disabled":false,"rental_uris":{"android":"levelo://app?vid=c23b9fb6-8249-47b9-b834-2db7ce007788","ios":"levelo://app?vid=c23b9fb6-8249-47b9-b834-2db7ce007788"},"vehicle_type_id":"4","last_reported":1778312496,"current_range_meters":7200,"station_id":"","pricing_plan_id":"cebpf4jnsgd1na2vs0mg"},{"bike_id":"9d6e5803-f86e-480f-8608-b1264f61154e","system_id":"levelo_inurba_marseille","lat":43.32106,"lon":5.36757,"is_reserved":false,"is_disabled":false,"rental_uris":{"android":"levelo://app?vid=9d6e5803-f86e-480f-8608-b1264f61154e","ios":"levelo://app?vid=9d6e5803-f86e-480f-8608-b1264f61154e"},"vehicle_type_id":"4","last_reported":1778312496,"current_range_meters":7200,"station_id":"ce4bhrh2rcd13ifvqhug","pricing_plan_id":"cebpf4jnsgd1na2vs0mg"},{"bike_id":"07829fdc-c599-44a2-8a5d-d38b8b9f7bb8","system_id":"levelo_inurba_marseille","lat":43.30371,"lon":5.42509,"is_reserved":false,"is_disabled":true,"rental_uris":{"android":"levelo://app?vid=07829fdc-c599-44a2-8a5d-d38b8b9f7bb8","ios":"levelo://app?vid=07829fdc-c599-44a2-8a5d-d38b8b9f7bb8"},"vehicle_type_id":"4","last_reported":1778312496,"current_range_meters":7200,"station_id":"ce4bhoh2rcd13ifvqh6g","pricing_plan_id":"cebpf4jnsgd1na2vs0mg"},{"bike_id":"2d4086a4-858c-483d-b34b-ed85e093cb96","system_id":"levelo_inurba_marseille","lat":43.30189,"lon":5.38207,"is_reserved":false,"is_disabled":false,"rental_uris":{"android":"levelo://app?vid=2d4086a4-858c-483d-b34b-ed85e093cb96","ios":"levelo://app?vid=2d4086a4-858c-483d-b34b-ed85e093cb96"},"vehicle_type_id":"4","last_reported":1778312496,"current_range_meters":7200,"station_id":"","pricing_plan_id":"cebpf4jnsgd1na2vs0mg"},{"bike_id":"a9b6caf4-cf49-4aec-a6fc-9f0762250c26","system_id":"levelo_inurba_marseille","lat":43.24466,"lon":5.42514,"is_reserved":false,"is_disabled":false,"rental_uris":{"android":"levelo://app?vid=a9b6caf4-cf49-4aec-a6fc-9f0762250c26","ios":"levelo://app?vid=a9b6caf4-cf49-4aec-a6fc-9f0762250c26"},"vehicle_type_id":"4","last_reported":1778312496,"current_range_meters":7200,"station_id":"st_d4a3vfp97mjs738cd8kg","pricing_plan_id":"cebpf4jnsgd1na2vs0mg"},{"bike_id":"c440543a-fc70-44c0-b21f-aa93407f1be5","system_id":"levelo_inurba_marseille","lat":43.34139,"lon":5.40922,"is_reserved":false,"is_disabled":true,"rental_uris":{"android":"levelo://app?vid=c440543a-fc70-44c0-b21f-aa93407f1be5","ios":"levelo://app?vid=c440543a-fc70-44c0-b21f-aa93407f1be5"},"vehicle_type_id":"4","last_reported":1778312496,"current_range_meters":7200,"station_id":"ce4bhqh2rcd13ifvqhlg","pricing_plan_id":"cebpf4jnsgd1na2vs0mg"},{"bike_id":"ee88be94-e2e7-4c1c-b2c9-5ac0b9e8b679","system_id":"levelo_inurba_marseille","lat":43.29576,"lon":5.37507,"is_reserved":false,"is_disabled":false,"rental_uris":{"android":"levelo://app?vid=ee88be94-e2e7-4c1c-b2c9-5ac0b9e8b679","ios":"levelo://app?vid=ee88be94-e2e7-4c1c-b2c9-5ac0b9e8b679"},"vehicle_type_id":"4","last_reported":1778312496,"current_range_meters":7200,"station_id":"ce4bgh92rcd13ifvqb50","pricing_plan_id":"cebpf4jnsgd1na2vs0mg"},{"bike_id":"14d2a79c-a2f4-4072-8c12-ce9b05fbf93b","system_id":"levelo_inurba_marseille","lat":43.2455,"lon":5.39499,"is_reserved":false,"is_disabled":false,"rental_uris":{"android":"levelo://app?vid=14d2a79c-a2f4-4072-8c12-ce9b05fbf93b","ios":"levelo://app?vid=14d2a79c-a2f4-4072-8c12-ce9b05fbf93b"},"vehicle_type_id":"4","last_reported":1778312496,"current_range_meters":7200,"station_id":"ce4bhlp2rcd13ifvqgjg","pricing_plan_id":"cebpf4jnsgd1na2vs0mg"},{"bike_id":"43705be5-0b0d-4249-9a45-6509fa354e7e","system_id":"levelo_inurba_marseille","lat":43.29961,"lon":5.36996,"is_reserved":false,"is_disabled":false,"rental_uris":{"android":"levelo://app?vid=43705be5-0b0d-4249-9a45-6509fa354e7e","ios":"levelo://app?vid=43705be5-0b0d-4249-9a45-6509fa354e7e"},"vehicle_type_id":"4","last_reported":1778312496,"current_range_meters":7200,"station_id":"","pricing_plan_id":"cebpf4jnsgd1na2vs0mg"},{"bike_id":"ef4c0d2f-d37c-409b-be4c-7cceaa4aabfa","system_id":"levelo_inurba_marseille","lat":43.28469,"lon":5.48402,"is_reserved":false,"is_disabled":false,"rental_uris":{"android":"levelo://app?vid=ef4c0d2f-d37c-409b-be4c-7cceaa4aabfa","ios":"levelo://app?vid=ef4c0d2f-d37c-409b-be4c-7cceaa4aabfa"},"vehicle_type_id":"4","last_reported":1778312496,"current_range_meters":8000,"station_id":"st_d3svhcjqgbts73a3dn0g","pricing_plan_id":"cebpf4jnsgd1na2vs0mg"},{"bike_id":"91d78913-28b2-401d-850a-f1af99bf6768","system_id":"levelo_inurba_marseille","lat":43.28866,"lon":5.42505,"is_reserved":false,"is_disabled":false,"rental_uris":{"android":"levelo://app?vid=91d78913-28b2-401d-850a-f1af99bf6768","ios":"levelo://app?vid=91d78913-28b2-401d-850a-f1af99bf6768"},"vehicle_type_id":"4","last_reported":1778312496,"current_range_meters":8000,"station_id":"st_d3b462108ojc7389ooeg","pricing_plan_id":"cebpf4jnsgd1na2vs0mg"},{"bike_id":"3d22a6b7-1b35-450e-95ec-0bfb2eba181e","system_id":"levelo_inurba_marseille","lat":43.29827,"lon":5.44036,"is_reserved":false,"is_disabled":false,"rental_uris":{"android":"levelo://app?vid=3d22a6b7-1b35-450e-95ec-0bfb2eba181e","ios":"levelo://app?vid=3d22a6b7-1b35-450e-95ec-0bfb2eba181e"},"vehicle_type_id":"4","last_reported":1778312496,"current_range_meters":8000,"station_id":"st_d3jp68qikq2c7381ktn0","pricing_plan_id":"cebpf4jnsgd1na2vs0mg"},{"bike_id":"72d42090-5bb1-42d2-8258-66748f74b226","system_id":"levelo_inurba_marseille","lat":43.29,"lon":5.39657,"is_reserved":false,"is_disabled":true,"rental_uris":{"android":"levelo://app?vid=72d42090-5bb1-42d2-8258-66748f74b226","ios":"levelo://app?vid=72d42090-5bb1-42d2-8258-66748f74b226"},"vehicle_type_id":"4","last_reported":1778312496,"current_range_meters":8000,"station_id":"","pricing_plan_id":"cebpf4jnsgd1na2vs0mg"},{"bike_id":"6e483db2-5264-44cb-9c4e-ddc930ad5ce9","system_id":"levelo_inurba_marseille","lat":43.27397,"lon":5.39422,"is_reserved":false,"is_disabled":false,"rental_uris":{"android":"levelo://app?vid=6e483db2-5264-44cb-9c4e-ddc930ad5ce9","ios":"levelo://app?vid=6e483db2-5264-44cb-9c4e-ddc930ad5ce9"},"vehicle_type_id":"4","last_reported":1778312496,"current_range_meters":8000,"station_id":"ce4bhdp2rcd13ifvqf20","pricing_plan_id":"cebpf4jnsgd1na2vs0mg"},{"bike_id":"e6bd8138-3d56-4ae6-9878-8794caa087c5","system_id":"levelo_inurba_marseille","lat":43.24463,"lon":5.42521,"is_reserved":false,"is_disabled":true,"rental_uris":{"android":"levelo://app?vid=e6bd8138-3d56-4ae6-9878-8794caa087c5","ios":"levelo://app?vid=e6bd8138-3d56-4ae6-9878-8794caa087c5"},"vehicle_type_id":"4","last_reported":1778312496,"current_range_meters":8000,"station_id":"st_d4a3vfp97mjs738cd8kg","pricing_plan_id":"cebpf4jnsgd1na2vs0mg"},{"bike_id":"8a852fed-d7dd-4420-bba2-92667b6841e9","system_id":"levelo_inurba_marseille","lat":43.29038,"lon":5.39949,"is_reserved":false,"is_disabled":false,"rental_uris":{"android":"levelo://app?vid=8a852fed-d7dd-4420-bba2-92667b6841e9","ios":"levelo://app?vid=8a852fed-d7dd-4420-bba2-92667b6841e9"},"vehicle_type_id":"4","last_reported":1778312496,"current_range_meters":8000,"station_id":"ce4bh392rcd13ifvqdm0","pricing_plan_id":"cebpf4jnsgd1na2vs0mg"},{"bike_id":"240f83cd-e330-45fb-9f58-4a13270cfff0","system_id":"levelo_inurba_marseille","lat":43.28152,"lon":5.42649,"is_reserved":false,"is_disabled":false,"rental_uris":{"android":"levelo://app?vid=240f83cd-e330-45fb-9f58-4a13270cfff0","ios":"levelo://app?vid=240f83cd-e330-45fb-9f58-4a13270cfff0"},"vehicle_type_id":"4","last_reported":1778312496,"current_range_meters":8000,"station_id":"ce4bhnh2rcd13ifvqgug","pricing_plan_id":"cebpf4jnsgd1na2vs0mg"},{"bike_id":"281f7e49-1f6f-4c0d-a23b-2864fd35a6bd","system_id":"levelo_inurba_marseille","lat":43.26944,"lon":5.40245,"is_reserved":false,"is_disabled":false,"rental_uris":{"android":"levelo://app?vid=281f7e49-1f6f-4c0d-a23b-2864fd35a6bd","ios":"levelo://app?vid=281f7e49-1f6f-4c0d-a23b-2864fd35a6bd"},"vehicle_type_id":"4","last_reported":1778312496,"current_range_meters":8000,"station_id":"cjm6bp8fraef2m0cb0m0","pricing_plan_id":"cebpf4jnsgd1na2vs0mg"},{"bike_id":"1f4f450f-46c9-4882-82d7-427a8b57ee08","system_id":"levelo_inurba_marseille","lat":43.30145,"lon":5.38078,"is_reserved":false,"is_disabled":false,"rental_uris":{"android":"levelo://app?vid=1f4f450f-46c9-4882-82d7-427a8b57ee08","ios":"levelo://app?vid=1f4f450f-46c9-4882-82d7-427a8b57ee08"},"vehicle_type_id":"4","last_reported":1778312496,"current_range_meters":8000,"station_id":"ce4bgjp2rcd13ifvqbh0","pricing_plan_id":"cebpf4jnsgd1na2vs0mg"},{"bike_id":"06750813-80e5-4eb6-b50a-57ffe9fa6b8b","system_id":"levelo_inurba_marseille","lat":43.25581,"lon":5.38224,"is_reserved":false,"is_disabled":true,"rental_uris":{"android":"levelo://app?vid=06750813-80e5-4eb6-b50a-57ffe9fa6b8b","ios":"levelo://app?vid=06750813-80e5-4eb6-b50a-57ffe9fa6b8b"},"vehicle_type_id":"4","last_reported":1778312496,"current_range_meters":8000,"station_id":"ce4bhih2rcd13ifvqfs0","pricing_plan_id":"cebpf4jnsgd1na2vs0mg"},{"bike_id":"407e9612-ad93-4d7c-a713-0ff1764d5034","system_id":"levelo_inurba_marseille","lat":43.3137,"lon":5.41503,"is_reserved":false,"is_disabled":false,"rental_uris":{"android":"levelo://app?vid=407e9612-ad93-4d7c-a713-0ff1764d5034","ios":"levelo://app?vid=407e9612-ad93-4d7c-a713-0ff1764d5034"},"vehicle_type_id":"4","last_reported":1778312496,"current_range_meters":8000,"station_id":"","pricing_plan_id":"cebpf4jnsgd1na2vs0mg"},{"bike_id":"55eae868-1b1d-4225-9916-dd72feb22dd0","system_id":"levelo_inurba_marseille","lat":43.30375,"lon":5.42485,"is_reserved":false,"is_disabled":false,"rental_uris":{"android":"levelo://app?vid=55eae868-1b1d-4225-9916-dd72feb22dd0","ios":"levelo://app?vid=55eae868-1b1d-4225-9916-dd72feb22dd0"},"vehicle_type_id":"4","last_reported":1778312496,"current_range_meters":8000,"station_id":"ce4bhoh2rcd13ifvqh6g","pricing_plan_id":"cebpf4jnsgd1na2vs0mg"},{"bike_id":"e744fd51-d53a-4993-92a1-3a6752e7a33c","system_id":"levelo_inurba_marseille","lat":43.32123,"lon":5.36726,"is_reserved":false,"is_disabled":false,"rental_uris":{"android":"levelo://app?vid=e744fd51-d53a-4993-92a1-3a6752e7a33c","ios":"levelo://app?vid=e744fd51-d53a-4993-92a1-3a6752e7a33c"},"vehicle_type_id":"4","last_reported":1778312496,"current_range_meters":8000,"station_id":"ce4bhrh2rcd13ifvqhug","pricing_plan_id":"cebpf4jnsgd1na2vs0mg"},{"bike_id":"a30008ae-a2df-4129-8ea6-0f377536b8ba","system_id":"levelo_inurba_marseille","lat":43.32086,"lon":5.36804,"is_reserved":false,"is_disabled":false,"rental_uris":{"android":"levelo://app?vid=a30008ae-a2df-4129-8ea6-0f377536b8ba","ios":"levelo://app?vid=a30008ae-a2df-4129-8ea6-0f377536b8ba"},"vehicle_type_id":"4","last_reported":1778312496,"current_range_meters":8000,"station_id":"ce4bhrh2rcd13ifvqhug","pricing_plan_id":"cebpf4jnsgd1na2vs0mg"},{"bike_id":"ac669cf6-3802-49e7-8567-a514ce79081d","system_id":"levelo_inurba_marseille","lat":43.29137,"lon":5.38522,"is_reserved":false,"is_disabled":true,"rental_uris":{"android":"levelo://app?vid=ac669cf6-3802-49e7-8567-a514ce79081d","ios":"levelo://app?vid=ac669cf6-3802-49e7-8567-a514ce79081d"},"vehicle_type_id":"4","last_reported":1778312496,"current_range_meters":8000,"station_id":"","pricing_plan_id":"cebpf4jnsgd1na2vs0mg"},{"bike_id":"5dda00a1-f787-488a-aa64-058079c40c64","system_id":"levelo_inurba_marseille","lat":43.26953,"lon":5.39453,"is_reserved":false,"is_disabled":false,"rental_uris":{"android":"levelo://app?vid=5dda00a1-f787-488a-aa64-058079c40c64","ios":"levelo://app?vid=5dda00a1-f787-488a-aa64-058079c40c64"},"vehicle_type_id":"4","last_reported":1778312496,"current_range_meters":8000,"station_id":"","pricing_plan_id":"cebpf4jnsgd1na2vs0mg"},{"bike_id":"b1eefa37-96ae-4f95-a344-438091e1d04d","system_id":"levelo_inurba_marseille","lat":43.31033,"lon":5.39387,"is_reserved":false,"is_disabled":false,"rental_uris":{"android":"levelo://app?vid=b1eefa37-96ae-4f95-a344-438091e1d04d","ios":"levelo://app?vid=b1eefa37-96ae-4f95-a344-438091e1d04d"},"vehicle_type_id":"4","last_reported":1778312496,"current_range_meters":8000,"station_id":"","pricing_plan_id":"cebpf4jnsgd1na2vs0mg"},{"bike_id":"496ef005-3b28-4f89-8627-d41c73f67f06","system_id":"levelo_inurba_marseille","lat":43.31712,"lon":5.40486,"is_reserved":false,"is_disabled":false,"rental_uris":{"android":"levelo://app?vid=496ef005-3b28-4f89-8627-d41c73f67f06","ios":"levelo://app?vid=496ef005-3b28-4f89-8627-d41c73f67f06"},"vehicle_type_id":"4","last_reported":1778312496,"current_range_meters":8000,"station_id":"ce4bh012rcd13ifvqd00","pricing_plan_id":"cebpf4jnsgd1na2vs0mg"},{"bike_id":"74a938f2-f578-4294-9976-174677fe2f35","system_id":"levelo_inurba_marseille","lat":43.29502,"lon":5.43297,"is_reserved":false,"is_disabled":false,"rental_uris":{"android":"levelo://app?vid=74a938f2-f578-4294-9976-174677fe2f35","ios":"levelo://app?vid=74a938f2-f578-4294-9976-174677fe2f35"},"vehicle_type_id":"4","last_reported":1778312496,"current_range_meters":8000,"station_id":"st_d3j5ugp08ojc73fj9d10","pricing_plan_id":"cebpf4jnsgd1na2vs0mg"},{"bike_id":"0259c7f9-4a67-468b-967d-555f1f780b18","system_id":"levelo_inurba_marseille","lat":43.24662,"lon":5.38153,"is_reserved":false,"is_disabled":false,"rental_uris":{"android":"levelo://app?vid=0259c7f9-4a67-468b-967d-555f1f780b18","ios":"levelo://app?vid=0259c7f9-4a67-468b-967d-555f1f780b18"},"vehicle_type_id":"4","last_reported":1778312496,"current_range_meters":8000,"station_id":"ce4bhih2rcd13ifvqfr0","pricing_plan_id":"cebpf4jnsgd1na2vs0mg"},{"bike_id":"ba9999b1-4282-4f46-9032-3a0c9b4ec963","system_id":"levelo_inurba_marseille","lat":43.24876,"lon":5.41839,"is_reserved":false,"is_disabled":false,"rental_uris":{"android":"levelo://app?vid=ba9999b1-4282-4f46-9032-3a0c9b4ec963","ios":"levelo://app?vid=ba9999b1-4282-4f46-9032-3a0c9b4ec963"},"vehicle_type_id":"4","last_reported":1778312496,"current_range_meters":8000,"station_id":"","pricing_plan_id":"cebpf4jnsgd1na2vs0mg"},{"bike_id":"c74991ed-3578-4827-98b9-e12bf38aed62","system_id":"levelo_inurba_marseille","lat":43.22557,"lon":5.41625,"is_reserved":false,"is_disabled":false,"rental_uris":{"android":"levelo://app?vid=c74991ed-3578-4827-98b9-e12bf38aed62","ios":"levelo://app?vid=c74991ed-3578-4827-98b9-e12bf38aed62"},"vehicle_type_id":"4","last_reported":1778312496,"current_range_meters":8000,"station_id":"st_d2o4gvlbi1j2169b742g","pricing_plan_id":"cebpf4jnsgd1na2vs0mg"},{"bike_id":"1261a57e-b9db-4e44-b05c-c17513cf7550","system_id":"levelo_inurba_marseille","lat":43.27076,"lon":5.42281,"is_reserved":false,"is_disabled":false,"rental_uris":{"android":"levelo://app?vid=1261a57e-b9db-4e44-b05c-c17513cf7550","ios":"levelo://app?vid=1261a57e-b9db-4e44-b05c-c17513cf7550"},"vehicle_type_id":"4","last_reported":1778312496,"current_range_meters":8000,"station_id":"ce4bhk92rcd13ifvqgb0","pricing_plan_id":"cebpf4jnsgd1na2vs0mg"},{"bike_id":"080915f6-df4c-4af9-8ea4-57ab55674d2e","system_id":"levelo_inurba_marseille","lat":43.29927,"lon":5.37479,"is_reserved":false,"is_disabled":false,"rental_uris":{"android":"levelo://app?vid=080915f6-df4c-4af9-8ea4-57ab55674d2e","ios":"levelo://app?vid=080915f6-df4c-4af9-8ea4-57ab55674d2e"},"vehicle_type_id":"4","last_reported":1778312496,"current_range_meters":8000,"station_id":"ce4bgjh2rcd13ifvqbg0","pricing_plan_id":"cebpf4jnsgd1na2vs0mg"},{"bike_id":"627ea465-4e71-4046-a508-023e31352421","system_id":"levelo_inurba_marseille","lat":43.25058,"lon":5.40494,"is_reserved":false,"is_disabled":false,"rental_uris":{"android":"levelo://app?vid=627ea465-4e71-4046-a508-023e31352421","ios":"levelo://app?vid=627ea465-4e71-4046-a508-023e31352421"},"vehicle_type_id":"4","last_reported":1778312496,"current_range_meters":8000,"station_id":"","pricing_plan_id":"cebpf4jnsgd1na2vs0mg"},{"bike_id":"c115c8b6-b19e-449b-95a6-e5e87fcc567f","system_id":"levelo_inurba_marseille","lat":43.2817,"lon":5.42627,"is_reserved":false,"is_disabled":false,"rental_uris":{"android":"levelo://app?vid=c115c8b6-b19e-449b-95a6-e5e87fcc567f","ios":"levelo://app?vid=c115c8b6-b19e-449b-95a6-e5e87fcc567f"},"vehicle_type_id":"4","last_reported":1778312496,"current_range_meters":8000,"station_id":"ce4bhnh2rcd13ifvqgug","pricing_plan_id":"cebpf4jnsgd1na2vs0mg"},{"bike_id":"a0c19b63-2c1f-4c1e-983a-5581ff0a42a8","system_id":"levelo_inurba_marseille","lat":43.29288,"lon":5.44527,"is_reserved":false,"is_disabled":false,"rental_uris":{"android":"levelo://app?vid=a0c19b63-2c1f-4c1e-983a-5581ff0a42a8","ios":"levelo://app?vid=a0c19b63-2c1f-4c1e-983a-5581ff0a42a8"},"vehicle_type_id":"4","last_reported":1778312496,"current_range_meters":8000,"station_id":"","pricing_plan_id":"cebpf4jnsgd1na2vs0mg"},{"bike_id":"ffe0cb96-af34-4cc2-8ffa-153f35a471f1","system_id":"levelo_inurba_marseille","lat":43.28856,"lon":5.42531,"is_reserved":false,"is_disabled":false,"rental_uris":{"android":"levelo://app?vid=ffe0cb96-af34-4cc2-8ffa-153f35a471f1","ios":"levelo://app?vid=ffe0cb96-af34-4cc2-8ffa-153f35a471f1"},"vehicle_type_id":"4","last_reported":1778312496,"current_range_meters":8000,"station_id":"st_d3b462108ojc7389ooeg","pricing_plan_id":"cebpf4jnsgd1na2vs0mg"},{"bike_id":"0c7d2fbb-13a2-4b84-b36b-3bb945348f14","system_id":"levelo_inurba_marseille","lat":43.28419,"lon":5.37522,"is_reserved":false,"is_disabled":true,"rental_uris":{"android":"levelo://app?vid=0c7d2fbb-13a2-4b84-b36b-3bb945348f14","ios":"levelo://app?vid=0c7d2fbb-13a2-4b84-b36b-3bb945348f14"},"vehicle_type_id":"4","last_reported":1778312496,"current_range_meters":8000,"station_id":"ce4bh412rcd13ifvqds0","pricing_plan_id":"cebpf4jnsgd1na2vs0mg"},{"bike_id":"59e4a1ef-cde3-435c-ac35-1590f3c40ae5","system_id":"levelo_inurba_marseille","lat":43.26541,"lon":5.37283,"is_reserved":false,"is_disabled":false,"rental_uris":{"android":"levelo://app?vid=59e4a1ef-cde3-435c-ac35-1590f3c40ae5","ios":"levelo://app?vid=59e4a1ef-cde3-435c-ac35-1590f3c40ae5"},"vehicle_type_id":"4","last_reported":1778312496,"current_range_meters":8400,"station_id":"ce4bhg12rcd13ifvqf70","pricing_plan_id":"cebpf4jnsgd1na2vs0mg"},{"bike_id":"4fd5b212-cba9-47fe-a389-1fe7b66457c2","system_id":"levelo_inurba_marseille","lat":43.30321,"lon":5.36905,"is_reserved":false,"is_disabled":false,"rental_uris":{"android":"levelo://app?vid=4fd5b212-cba9-47fe-a389-1fe7b66457c2","ios":"levelo://app?vid=4fd5b212-cba9-47fe-a389-1fe7b66457c2"},"vehicle_type_id":"4","last_reported":1778312496,"current_range_meters":8400,"station_id":"ce4bgqh2rcd13ifvqc5g","pricing_plan_id":"cebpf4jnsgd1na2vs0mg"},{"bike_id":"84c07c47-2192-4df1-ac6f-ac8d10e2bc24","system_id":"levelo_inurba_marseille","lat":43.28841,"lon":5.35839,"is_reserved":false,"is_disabled":true,"rental_uris":{"android":"levelo://app?vid=84c07c47-2192-4df1-ac6f-ac8d10e2bc24","ios":"levelo://app?vid=84c07c47-2192-4df1-ac6f-ac8d10e2bc24"},"vehicle_type_id":"4","last_reported":1778312496,"current_range_meters":8400,"station_id":"ce4bhb12rcd13ifvqem0","pricing_plan_id":"cebpf4jnsgd1na2vs0mg"},{"bike_id":"ace37dd3-e52b-431f-82cf-9ca71cf094cf","system_id":"levelo_inurba_marseille","lat":43.29573,"lon":5.36739,"is_reserved":false,"is_disabled":false,"rental_uris":{"android":"levelo://app?vid=ace37dd3-e52b-431f-82cf-9ca71cf094cf","ios":"levelo://app?vid=ace37dd3-e52b-431f-82cf-9ca71cf094cf"},"vehicle_type_id":"4","last_reported":1778312496,"current_range_meters":8400,"station_id":"ce4bgph2rcd13ifvqc2g","pricing_plan_id":"cebpf4jnsgd1na2vs0mg"},{"bike_id":"38887742-ccb4-4045-9587-2439946abdce","system_id":"levelo_inurba_marseille","lat":43.29983,"lon":5.37166,"is_reserved":false,"is_disabled":false,"rental_uris":{"android":"levelo://app?vid=38887742-ccb4-4045-9587-2439946abdce","ios":"levelo://app?vid=38887742-ccb4-4045-9587-2439946abdce"},"vehicle_type_id":"4","last_reported":1778312496,"current_range_meters":8400,"station_id":"ce4bgr92rcd13ifvqc7g","pricing_plan_id":"cebpf4jnsgd1na2vs0mg"},{"bike_id":"f539bb17-16cf-4505-8a99-d64e79a69d9e","system_id":"levelo_inurba_marseille","lat":43.32122,"lon":5.36749,"is_reserved":false,"is_disabled":false,"rental_uris":{"android":"levelo://app?vid=f539bb17-16cf-4505-8a99-d64e79a69d9e","ios":"levelo://app?vid=f539bb17-16cf-4505-8a99-d64e79a69d9e"},"vehicle_type_id":"4","last_reported":1778312496,"current_range_meters":8400,"station_id":"ce4bhrh2rcd13ifvqhug","pricing_plan_id":"cebpf4jnsgd1na2vs0mg"},{"bike_id":"558ecc7a-7ed0-4d4d-8eaf-a0bf6d6ce907","system_id":"levelo_inurba_marseille","lat":43.28196,"lon":5.40578,"is_reserved":false,"is_disabled":false,"rental_uris":{"android":"levelo://app?vid=558ecc7a-7ed0-4d4d-8eaf-a0bf6d6ce907","ios":"levelo://app?vid=558ecc7a-7ed0-4d4d-8eaf-a0bf6d6ce907"},"vehicle_type_id":"4","last_reported":1778312496,"current_range_meters":8400,"station_id":"","pricing_plan_id":"cebpf4jnsgd1na2vs0mg"},{"bike_id":"f422b51e-1ef9-42a2-8365-1d33f807a8e0","system_id":"levelo_inurba_marseille","lat":43.23892,"lon":5.37455,"is_reserved":false,"is_disabled":true,"rental_uris":{"android":"levelo://app?vid=f422b51e-1ef9-42a2-8365-1d33f807a8e0","ios":"levelo://app?vid=f422b51e-1ef9-42a2-8365-1d33f807a8e0"},"vehicle_type_id":"4","last_reported":1778312496,"current_range_meters":8400,"station_id":"st_d6sm7csbq4hs73f8fpjg","pricing_plan_id":"cebpf4jnsgd1na2vs0mg"},{"bike_id":"6b3cb1cc-9882-47b1-bdc8-79b0dcb9abda","system_id":"levelo_inurba_marseille","lat":43.2796,"lon":5.43663,"is_reserved":false,"is_disabled":false,"rental_uris":{"android":"levelo://app?vid=6b3cb1cc-9882-47b1-bdc8-79b0dcb9abda","ios":"levelo://app?vid=6b3cb1cc-9882-47b1-bdc8-79b0dcb9abda"},"vehicle_type_id":"4","last_reported":1778312496,"current_range_meters":8400,"station_id":"","pricing_plan_id":"cebpf4jnsgd1na2vs0mg"},{"bike_id":"dd9bf54b-c3a5-4092-9a89-9da5355b4806","system_id":"levelo_inurba_marseille","lat":43.29826,"lon":5.36289,"is_reserved":false,"is_disabled":false,"rental_uris":{"android":"levelo://app?vid=dd9bf54b-c3a5-4092-9a89-9da5355b4806","ios":"levelo://app?vid=dd9bf54b-c3a5-4092-9a89-9da5355b4806"},"vehicle_type_id":"4","last_reported":1778312496,"current_range_meters":8400,"station_id":"ce4bgpp2rcd13ifvqc3g","pricing_plan_id":"cebpf4jnsgd1na2vs0mg"},{"bike_id":"47448b09-dcdd-42c1-94dc-4ba84781915e","system_id":"levelo_inurba_marseille","lat":43.2894,"lon":5.36388,"is_reserved":false,"is_disabled":false,"rental_uris":{"android":"levelo://app?vid=47448b09-dcdd-42c1-94dc-4ba84781915e","ios":"levelo://app?vid=47448b09-dcdd-42c1-94dc-4ba84781915e"},"vehicle_type_id":"4","last_reported":1778312496,"current_range_meters":8400,"station_id":"ce4bhc92rcd13ifvqetg","pricing_plan_id":"cebpf4jnsgd1na2vs0mg"},{"bike_id":"576986aa-7644-4f7b-b151-0df89f47974e","system_id":"levelo_inurba_marseille","lat":43.290231,"lon":5.381276,"is_reserved":false,"is_disabled":false,"rental_uris":{"android":"levelo://app?vid=576986aa-7644-4f7b-b151-0df89f47974e","ios":"levelo://app?vid=576986aa-7644-4f7b-b151-0df89f47974e"},"vehicle_type_id":"4","last_reported":1778312496,"current_range_meters":8400,"station_id":"ce4bh4p2rcd13ifvqe1g","pricing_plan_id":"cebpf4jnsgd1na2vs0mg"},{"bike_id":"bb14baeb-3016-4cc2-93fa-30395fb0af59","system_id":"levelo_inurba_marseille","lat":43.26783,"lon":5.39413,"is_reserved":false,"is_disabled":true,"rental_uris":{"android":"levelo://app?vid=bb14baeb-3016-4cc2-93fa-30395fb0af59","ios":"levelo://app?vid=bb14baeb-3016-4cc2-93fa-30395fb0af59"},"vehicle_type_id":"4","last_reported":1778312496,"current_range_meters":8400,"station_id":"ce4bhh12rcd13ifvqfg0","pricing_plan_id":"cebpf4jnsgd1na2vs0mg"},{"bike_id":"e477c5f0-4b62-491b-9863-990a0efda1db","system_id":"levelo_inurba_marseille","lat":43.31903,"lon":5.36804,"is_reserved":false,"is_disabled":false,"rental_uris":{"android":"levelo://app?vid=e477c5f0-4b62-491b-9863-990a0efda1db","ios":"levelo://app?vid=e477c5f0-4b62-491b-9863-990a0efda1db"},"vehicle_type_id":"4","last_reported":1778312496,"current_range_meters":8400,"station_id":"st_d6o2h0d0559c73evc1b0","pricing_plan_id":"cebpf4jnsgd1na2vs0mg"},{"bike_id":"80ce62aa-95db-4134-a27f-af6f321881d8","system_id":"levelo_inurba_marseille","lat":43.3303,"lon":5.39033,"is_reserved":false,"is_disabled":false,"rental_uris":{"android":"levelo://app?vid=80ce62aa-95db-4134-a27f-af6f321881d8","ios":"levelo://app?vid=80ce62aa-95db-4134-a27f-af6f321881d8"},"vehicle_type_id":"4","last_reported":1778312496,"current_range_meters":8400,"station_id":"ce4bhr92rcd13ifvqhrg","pricing_plan_id":"cebpf4jnsgd1na2vs0mg"},{"bike_id":"2a519ee5-cd7e-433f-8bc7-6cd332eaebda","system_id":"levelo_inurba_marseille","lat":43.26204,"lon":5.37445,"is_reserved":false,"is_disabled":false,"rental_uris":{"android":"levelo://app?vid=2a519ee5-cd7e-433f-8bc7-6cd332eaebda","ios":"levelo://app?vid=2a519ee5-cd7e-433f-8bc7-6cd332eaebda"},"vehicle_type_id":"4","last_reported":1778312496,"current_range_meters":8400,"station_id":"ce4bhgp2rcd13ifvqfc0","pricing_plan_id":"cebpf4jnsgd1na2vs0mg"},{"bike_id":"9963445d-0140-42ed-b05a-cee82ba1ae29","system_id":"levelo_inurba_marseille","lat":43.24803,"lon":5.37485,"is_reserved":false,"is_disabled":false,"rental_uris":{"android":"levelo://app?vid=9963445d-0140-42ed-b05a-cee82ba1ae29","ios":"levelo://app?vid=9963445d-0140-42ed-b05a-cee82ba1ae29"},"vehicle_type_id":"4","last_reported":1778312496,"current_range_meters":8400,"station_id":"ce4bhgh2rcd13ifvqfb0","pricing_plan_id":"cebpf4jnsgd1na2vs0mg"},{"bike_id":"eb59bc86-01f7-4d0f-8e41-67cced78906b","system_id":"levelo_inurba_marseille","lat":43.28482,"lon":5.38424,"is_reserved":false,"is_disabled":false,"rental_uris":{"android":"levelo://app?vid=eb59bc86-01f7-4d0f-8e41-67cced78906b","ios":"levelo://app?vid=eb59bc86-01f7-4d0f-8e41-67cced78906b"},"vehicle_type_id":"4","last_reported":1778312496,"current_range_meters":8400,"station_id":"ce4bh512rcd13ifvqe3g","pricing_plan_id":"cebpf4jnsgd1na2vs0mg"},{"bike_id":"5a28d04e-2eb5-47c1-bb9f-6dd56c626293","system_id":"levelo_inurba_marseille","lat":43.263644,"lon":5.410884,"is_reserved":false,"is_disabled":false,"rental_uris":{"android":"levelo://app?vid=5a28d04e-2eb5-47c1-bb9f-6dd56c626293","ios":"levelo://app?vid=5a28d04e-2eb5-47c1-bb9f-6dd56c626293"},"vehicle_type_id":"4","last_reported":1778312496,"current_range_meters":8800,"station_id":"st_d4e5ca6na9uc73bfl5fg","pricing_plan_id":"cebpf4jnsgd1na2vs0mg"},{"bike_id":"d4b06890-877f-4b29-9abe-d77b340070e3","system_id":"levelo_inurba_marseille","lat":43.2463,"lon":5.38917,"is_reserved":false,"is_disabled":false,"rental_uris":{"android":"levelo://app?vid=d4b06890-877f-4b29-9abe-d77b340070e3","ios":"levelo://app?vid=d4b06890-877f-4b29-9abe-d77b340070e3"},"vehicle_type_id":"4","last_reported":1778312496,"current_range_meters":8800,"station_id":"ce4bhg12rcd13ifvqf60","pricing_plan_id":"cebpf4jnsgd1na2vs0mg"},{"bike_id":"9dc61640-987a-437c-ada7-637d7471e1db","system_id":"levelo_inurba_marseille","lat":43.33165,"lon":5.37701,"is_reserved":false,"is_disabled":false,"rental_uris":{"android":"levelo://app?vid=9dc61640-987a-437c-ada7-637d7471e1db","ios":"levelo://app?vid=9dc61640-987a-437c-ada7-637d7471e1db"},"vehicle_type_id":"4","last_reported":1778312496,"current_range_meters":8800,"station_id":"st_d46cu089ee8s73dldbu0","pricing_plan_id":"cebpf4jnsgd1na2vs0mg"},{"bike_id":"6e35d6e6-6a3d-40f3-a6b5-43d47f15914d","system_id":"levelo_inurba_marseille","lat":43.30147,"lon":5.381,"is_reserved":false,"is_disabled":false,"rental_uris":{"android":"levelo://app?vid=6e35d6e6-6a3d-40f3-a6b5-43d47f15914d","ios":"levelo://app?vid=6e35d6e6-6a3d-40f3-a6b5-43d47f15914d"},"vehicle_type_id":"4","last_reported":1778312496,"current_range_meters":8800,"station_id":"ce4bgjp2rcd13ifvqbh0","pricing_plan_id":"cebpf4jnsgd1na2vs0mg"},{"bike_id":"f6cd1f40-16c5-432d-8a50-dae9a4c5a7ed","system_id":"levelo_inurba_marseille","lat":43.28102,"lon":5.37832,"is_reserved":false,"is_disabled":false,"rental_uris":{"android":"levelo://app?vid=f6cd1f40-16c5-432d-8a50-dae9a4c5a7ed","ios":"levelo://app?vid=f6cd1f40-16c5-432d-8a50-dae9a4c5a7ed"},"vehicle_type_id":"4","last_reported":1778312496,"current_range_meters":8800,"station_id":"ce4bha12rcd13ifvqee0","pricing_plan_id":"cebpf4jnsgd1na2vs0mg"},{"bike_id":"cac6599d-f38b-41ad-911f-155080b0afc6","system_id":"levelo_inurba_marseille","lat":43.21198,"lon":5.35052,"is_reserved":false,"is_disabled":false,"rental_uris":{"android":"levelo://app?vid=cac6599d-f38b-41ad-911f-155080b0afc6","ios":"levelo://app?vid=cac6599d-f38b-41ad-911f-155080b0afc6"},"vehicle_type_id":"4","last_reported":1778312496,"current_range_meters":8800,"station_id":"st_cvj6sg6p6f1abm77japg","pricing_plan_id":"cebpf4jnsgd1na2vs0mg"},{"bike_id":"9a45abed-8a50-4591-a381-dce67a2e04c0","system_id":"levelo_inurba_marseille","lat":43.29787,"lon":5.39354,"is_reserved":false,"is_disabled":true,"rental_uris":{"android":"levelo://app?vid=9a45abed-8a50-4591-a381-dce67a2e04c0","ios":"levelo://app?vid=9a45abed-8a50-4591-a381-dce67a2e04c0"},"vehicle_type_id":"4","last_reported":1778312496,"current_range_meters":8800,"station_id":"chh1huq6cuj3fo74tm60","pricing_plan_id":"cebpf4jnsgd1na2vs0mg"},{"bike_id":"d5001d3f-f5ab-4f62-bc83-c91230e3b662","system_id":"levelo_inurba_marseille","lat":43.26379,"lon":5.41012,"is_reserved":false,"is_disabled":false,"rental_uris":{"android":"levelo://app?vid=d5001d3f-f5ab-4f62-bc83-c91230e3b662","ios":"levelo://app?vid=d5001d3f-f5ab-4f62-bc83-c91230e3b662"},"vehicle_type_id":"4","last_reported":1778312496,"current_range_meters":8800,"station_id":"st_d4e5ca6na9uc73bfl5fg","pricing_plan_id":"cebpf4jnsgd1na2vs0mg"},{"bike_id":"91704e72-34a3-42ff-80e5-e15451bb7680","system_id":"levelo_inurba_marseille","lat":43.29967,"lon":5.38487,"is_reserved":false,"is_disabled":false,"rental_uris":{"android":"levelo://app?vid=91704e72-34a3-42ff-80e5-e15451bb7680","ios":"levelo://app?vid=91704e72-34a3-42ff-80e5-e15451bb7680"},"vehicle_type_id":"4","last_reported":1778312496,"current_range_meters":8800,"station_id":"ce4bgj92rcd13ifvqbd0","pricing_plan_id":"cebpf4jnsgd1na2vs0mg"},{"bike_id":"9775f441-18d9-49a6-894e-b798872d65c2","system_id":"levelo_inurba_marseille","lat":43.28426,"lon":5.38075,"is_reserved":false,"is_disabled":false,"rental_uris":{"android":"levelo://app?vid=9775f441-18d9-49a6-894e-b798872d65c2","ios":"levelo://app?vid=9775f441-18d9-49a6-894e-b798872d65c2"},"vehicle_type_id":"4","last_reported":1778312496,"current_range_meters":8800,"station_id":"","pricing_plan_id":"cebpf4jnsgd1na2vs0mg"},{"bike_id":"93dda1bf-40d7-4bf0-b156-ba33b7414cd1","system_id":"levelo_inurba_marseille","lat":43.22534,"lon":5.41614,"is_reserved":false,"is_disabled":false,"rental_uris":{"android":"levelo://app?vid=93dda1bf-40d7-4bf0-b156-ba33b7414cd1","ios":"levelo://app?vid=93dda1bf-40d7-4bf0-b156-ba33b7414cd1"},"vehicle_type_id":"4","last_reported":1778312496,"current_range_meters":8800,"station_id":"st_d2o4gvlbi1j2169b742g","pricing_plan_id":"cebpf4jnsgd1na2vs0mg"},{"bike_id":"2d6c01d3-5f85-478d-bc15-696908fb6eb2","system_id":"levelo_inurba_marseille","lat":43.28414,"lon":5.37501,"is_reserved":false,"is_disabled":false,"rental_uris":{"android":"levelo://app?vid=2d6c01d3-5f85-478d-bc15-696908fb6eb2","ios":"levelo://app?vid=2d6c01d3-5f85-478d-bc15-696908fb6eb2"},"vehicle_type_id":"4","last_reported":1778312496,"current_range_meters":8800,"station_id":"ce4bh412rcd13ifvqds0","pricing_plan_id":"cebpf4jnsgd1na2vs0mg"},{"bike_id":"6a7ce6a8-4ddb-4191-9882-a35e5c244100","system_id":"levelo_inurba_marseille","lat":43.24797,"lon":5.37456,"is_reserved":false,"is_disabled":false,"rental_uris":{"android":"levelo://app?vid=6a7ce6a8-4ddb-4191-9882-a35e5c244100","ios":"levelo://app?vid=6a7ce6a8-4ddb-4191-9882-a35e5c244100"},"vehicle_type_id":"4","last_reported":1778312496,"current_range_meters":8800,"station_id":"ce4bhgh2rcd13ifvqfb0","pricing_plan_id":"cebpf4jnsgd1na2vs0mg"},{"bike_id":"738a8e86-a5da-4ce2-b707-799567696bb0","system_id":"levelo_inurba_marseille","lat":43.27939,"lon":5.41024,"is_reserved":false,"is_disabled":false,"rental_uris":{"android":"levelo://app?vid=738a8e86-a5da-4ce2-b707-799567696bb0","ios":"levelo://app?vid=738a8e86-a5da-4ce2-b707-799567696bb0"},"vehicle_type_id":"4","last_reported":1778312496,"current_range_meters":8800,"station_id":"ce4bhnp2rcd13ifvqh0g","pricing_plan_id":"cebpf4jnsgd1na2vs0mg"},{"bike_id":"7026d306-6ecf-4826-ba3d-c6c15fdac4aa","system_id":"levelo_inurba_marseille","lat":43.24803,"lon":5.37458,"is_reserved":false,"is_disabled":false,"rental_uris":{"android":"levelo://app?vid=7026d306-6ecf-4826-ba3d-c6c15fdac4aa","ios":"levelo://app?vid=7026d306-6ecf-4826-ba3d-c6c15fdac4aa"},"vehicle_type_id":"4","last_reported":1778312496,"current_range_meters":8800,"station_id":"ce4bhgh2rcd13ifvqfb0","pricing_plan_id":"cebpf4jnsgd1na2vs0mg"},{"bike_id":"808c4ecd-9bba-4ef5-91dc-62b4109dcc93","system_id":"levelo_inurba_marseille","lat":43.29542,"lon":5.38525,"is_reserved":false,"is_disabled":true,"rental_uris":{"android":"levelo://app?vid=808c4ecd-9bba-4ef5-91dc-62b4109dcc93","ios":"levelo://app?vid=808c4ecd-9bba-4ef5-91dc-62b4109dcc93"},"vehicle_type_id":"4","last_reported":1778312496,"current_range_meters":8800,"station_id":"ce4bgih2rcd13ifvqba0","pricing_plan_id":"cebpf4jnsgd1na2vs0mg"},{"bike_id":"f8df4f61-fbc6-4b5b-aad5-2cbb39f58e82","system_id":"levelo_inurba_marseille","lat":43.29434,"lon":5.39769,"is_reserved":false,"is_disabled":true,"rental_uris":{"android":"levelo://app?vid=f8df4f61-fbc6-4b5b-aad5-2cbb39f58e82","ios":"levelo://app?vid=f8df4f61-fbc6-4b5b-aad5-2cbb39f58e82"},"vehicle_type_id":"4","last_reported":1778312496,"current_range_meters":8800,"station_id":"ce4bh3h2rcd13ifvqdo0","pricing_plan_id":"cebpf4jnsgd1na2vs0mg"},{"bike_id":"b39cbedf-95d2-495a-8f72-7df8d57492bc","system_id":"levelo_inurba_marseille","lat":43.29984,"lon":5.37178,"is_reserved":false,"is_disabled":true,"rental_uris":{"android":"levelo://app?vid=b39cbedf-95d2-495a-8f72-7df8d57492bc","ios":"levelo://app?vid=b39cbedf-95d2-495a-8f72-7df8d57492bc"},"vehicle_type_id":"4","last_reported":1778312496,"current_range_meters":8800,"station_id":"ce4bgr92rcd13ifvqc7g","pricing_plan_id":"cebpf4jnsgd1na2vs0mg"},{"bike_id":"d51c481b-08a2-49cc-abcb-8f03275c11e2","system_id":"levelo_inurba_marseille","lat":43.31367,"lon":5.38517,"is_reserved":false,"is_disabled":true,"rental_uris":{"android":"levelo://app?vid=d51c481b-08a2-49cc-abcb-8f03275c11e2","ios":"levelo://app?vid=d51c481b-08a2-49cc-abcb-8f03275c11e2"},"vehicle_type_id":"4","last_reported":1778312496,"current_range_meters":8800,"station_id":"ce4bgt92rcd13ifvqcf0","pricing_plan_id":"cebpf4jnsgd1na2vs0mg"},{"bike_id":"036022eb-f4b7-499f-bea2-49a36e1775a4","system_id":"levelo_inurba_marseille","lat":43.22533,"lon":5.34844,"is_reserved":false,"is_disabled":false,"rental_uris":{"android":"levelo://app?vid=036022eb-f4b7-499f-bea2-49a36e1775a4","ios":"levelo://app?vid=036022eb-f4b7-499f-bea2-49a36e1775a4"},"vehicle_type_id":"4","last_reported":1778312496,"current_range_meters":8800,"station_id":"st_cvj5dfep6f1abm77gieg","pricing_plan_id":"cebpf4jnsgd1na2vs0mg"},{"bike_id":"4d963981-ea5e-4a59-8abe-c2ad68a2e5c4","system_id":"levelo_inurba_marseille","lat":43.26213,"lon":5.40448,"is_reserved":false,"is_disabled":true,"rental_uris":{"android":"levelo://app?vid=4d963981-ea5e-4a59-8abe-c2ad68a2e5c4","ios":"levelo://app?vid=4d963981-ea5e-4a59-8abe-c2ad68a2e5c4"},"vehicle_type_id":"4","last_reported":1778312496,"current_range_meters":8800,"station_id":"ce4bhmh2rcd13ifvqgmg","pricing_plan_id":"cebpf4jnsgd1na2vs0mg"},{"bike_id":"3e63ca9f-52b9-4901-a1d9-7f430e423bd0","system_id":"levelo_inurba_marseille","lat":43.31446,"lon":5.44114,"is_reserved":false,"is_disabled":false,"rental_uris":{"android":"levelo://app?vid=3e63ca9f-52b9-4901-a1d9-7f430e423bd0","ios":"levelo://app?vid=3e63ca9f-52b9-4901-a1d9-7f430e423bd0"},"vehicle_type_id":"4","last_reported":1778312496,"current_range_meters":8800,"station_id":"","pricing_plan_id":"cebpf4jnsgd1na2vs0mg"},{"bike_id":"c2277f9d-93a6-480b-b9fc-a6864cbe3c7a","system_id":"levelo_inurba_marseille","lat":43.27677,"lon":5.40665,"is_reserved":false,"is_disabled":false,"rental_uris":{"android":"levelo://app?vid=c2277f9d-93a6-480b-b9fc-a6864cbe3c7a","ios":"levelo://app?vid=c2277f9d-93a6-480b-b9fc-a6864cbe3c7a"},"vehicle_type_id":"4","last_reported":1778312496,"current_range_meters":8800,"station_id":"","pricing_plan_id":"cebpf4jnsgd1na2vs0mg"},{"bike_id":"c7e79763-442e-494f-977f-c5c07a619ab8","system_id":"levelo_inurba_marseille","lat":43.31051,"lon":5.37158,"is_reserved":false,"is_disabled":false,"rental_uris":{"android":"levelo://app?vid=c7e79763-442e-494f-977f-c5c07a619ab8","ios":"levelo://app?vid=c7e79763-442e-494f-977f-c5c07a619ab8"},"vehicle_type_id":"4","last_reported":1778312496,"current_range_meters":8800,"station_id":"st_d4kl2rp97mjs73e7tdfg","pricing_plan_id":"cebpf4jnsgd1na2vs0mg"},{"bike_id":"7f49df42-98bd-4b53-9ebb-a4fc448030d6","system_id":"levelo_inurba_marseille","lat":43.303253,"lon":5.404226,"is_reserved":false,"is_disabled":false,"rental_uris":{"android":"levelo://app?vid=7f49df42-98bd-4b53-9ebb-a4fc448030d6","ios":"levelo://app?vid=7f49df42-98bd-4b53-9ebb-a4fc448030d6"},"vehicle_type_id":"4","last_reported":1778312496,"current_range_meters":8800,"station_id":"ce4bh012rcd13ifvqd10","pricing_plan_id":"cebpf4jnsgd1na2vs0mg"},{"bike_id":"fe6f91b1-cffe-480a-9840-5f57a8831370","system_id":"levelo_inurba_marseille","lat":43.27943,"lon":5.4102,"is_reserved":false,"is_disabled":false,"rental_uris":{"android":"levelo://app?vid=fe6f91b1-cffe-480a-9840-5f57a8831370","ios":"levelo://app?vid=fe6f91b1-cffe-480a-9840-5f57a8831370"},"vehicle_type_id":"4","last_reported":1778312496,"current_range_meters":8800,"station_id":"ce4bhnp2rcd13ifvqh0g","pricing_plan_id":"cebpf4jnsgd1na2vs0mg"},{"bike_id":"f457b7ba-331d-4e16-9d4b-1e0b450b1f95","system_id":"levelo_inurba_marseille","lat":43.31897,"lon":5.3681,"is_reserved":false,"is_disabled":false,"rental_uris":{"android":"levelo://app?vid=f457b7ba-331d-4e16-9d4b-1e0b450b1f95","ios":"levelo://app?vid=f457b7ba-331d-4e16-9d4b-1e0b450b1f95"},"vehicle_type_id":"4","last_reported":1778312496,"current_range_meters":8800,"station_id":"st_d6o2h0d0559c73evc1b0","pricing_plan_id":"cebpf4jnsgd1na2vs0mg"},{"bike_id":"39765ff2-4465-460b-b072-d027c052a99e","system_id":"levelo_inurba_marseille","lat":43.296251,"lon":5.371707,"is_reserved":false,"is_disabled":false,"rental_uris":{"android":"levelo://app?vid=39765ff2-4465-460b-b072-d027c052a99e","ios":"levelo://app?vid=39765ff2-4465-460b-b072-d027c052a99e"},"vehicle_type_id":"4","last_reported":1778312496,"current_range_meters":9200,"station_id":"ce4bgnh2rcd13ifvqc0g","pricing_plan_id":"cebpf4jnsgd1na2vs0mg"},{"bike_id":"58f02a01-2d6b-42fb-b6cf-a6eb2f8162a4","system_id":"levelo_inurba_marseille","lat":43.26107,"lon":5.39628,"is_reserved":false,"is_disabled":false,"rental_uris":{"android":"levelo://app?vid=58f02a01-2d6b-42fb-b6cf-a6eb2f8162a4","ios":"levelo://app?vid=58f02a01-2d6b-42fb-b6cf-a6eb2f8162a4"},"vehicle_type_id":"4","last_reported":1778312496,"current_range_meters":9200,"station_id":"","pricing_plan_id":"cebpf4jnsgd1na2vs0mg"},{"bike_id":"81cbddbe-c80f-4f75-8c47-62ad070b9c01","system_id":"levelo_inurba_marseille","lat":43.29257,"lon":5.40909,"is_reserved":false,"is_disabled":false,"rental_uris":{"android":"levelo://app?vid=81cbddbe-c80f-4f75-8c47-62ad070b9c01","ios":"levelo://app?vid=81cbddbe-c80f-4f75-8c47-62ad070b9c01"},"vehicle_type_id":"4","last_reported":1778312496,"current_range_meters":9200,"station_id":"ce4bh192rcd13ifvqdc0","pricing_plan_id":"cebpf4jnsgd1na2vs0mg"},{"bike_id":"e5f0fbb4-b8dc-4aa1-9466-61d5f4ac958f","system_id":"levelo_inurba_marseille","lat":43.29017,"lon":5.38115,"is_reserved":false,"is_disabled":true,"rental_uris":{"android":"levelo://app?vid=e5f0fbb4-b8dc-4aa1-9466-61d5f4ac958f","ios":"levelo://app?vid=e5f0fbb4-b8dc-4aa1-9466-61d5f4ac958f"},"vehicle_type_id":"4","last_reported":1778312496,"current_range_meters":9200,"station_id":"ce4bh4p2rcd13ifvqe1g","pricing_plan_id":"cebpf4jnsgd1na2vs0mg"},{"bike_id":"a7e5fd95-3aa5-487e-bd42-9e76e558c05d","system_id":"levelo_inurba_marseille","lat":43.30926,"lon":5.40138,"is_reserved":false,"is_disabled":false,"rental_uris":{"android":"levelo://app?vid=a7e5fd95-3aa5-487e-bd42-9e76e558c05d","ios":"levelo://app?vid=a7e5fd95-3aa5-487e-bd42-9e76e558c05d"},"vehicle_type_id":"4","last_reported":1778312496,"current_range_meters":9200,"station_id":"ce4bgvp2rcd13ifvqct0","pricing_plan_id":"cebpf4jnsgd1na2vs0mg"},{"bike_id":"0ea4ca60-10ee-4a25-b377-d5b31b22e033","system_id":"levelo_inurba_marseille","lat":43.27897,"lon":5.39591,"is_reserved":false,"is_disabled":false,"rental_uris":{"android":"levelo://app?vid=0ea4ca60-10ee-4a25-b377-d5b31b22e033","ios":"levelo://app?vid=0ea4ca60-10ee-4a25-b377-d5b31b22e033"},"vehicle_type_id":"4","last_reported":1778312496,"current_range_meters":9200,"station_id":"ce4bhf92rcd13ifvqf40","pricing_plan_id":"cebpf4jnsgd1na2vs0mg"},{"bike_id":"1c760ae4-8219-47f6-9f1d-3747135e94a0","system_id":"levelo_inurba_marseille","lat":43.27958,"lon":5.38701,"is_reserved":false,"is_disabled":false,"rental_uris":{"android":"levelo://app?vid=1c760ae4-8219-47f6-9f1d-3747135e94a0","ios":"levelo://app?vid=1c760ae4-8219-47f6-9f1d-3747135e94a0"},"vehicle_type_id":"4","last_reported":1778312496,"current_range_meters":9200,"station_id":"ce4bhg12rcd13ifvqf80","pricing_plan_id":"cebpf4jnsgd1na2vs0mg"},{"bike_id":"88923792-19e8-4460-8358-78b65d9951e1","system_id":"levelo_inurba_marseille","lat":43.31913,"lon":5.40232,"is_reserved":false,"is_disabled":false,"rental_uris":{"android":"levelo://app?vid=88923792-19e8-4460-8358-78b65d9951e1","ios":"levelo://app?vid=88923792-19e8-4460-8358-78b65d9951e1"},"vehicle_type_id":"4","last_reported":1778312496,"current_range_meters":9200,"station_id":"","pricing_plan_id":"cebpf4jnsgd1na2vs0mg"},