{"last_updated":1739366175,"ttl":60,"version":"2.2","data":{"bikes":[{"bike_id":"9ae4959d-6de9-4c98-bb63-3a430a52595d","system_id":"levelo_inurba_marseille","lat":43.31321,"lon":5.36683,"is_reserved":false,"is_disabled":false,"rental_uris":{"android":"levelo://app?vid=9ae4959d-6de9-4c98-bb63-3a430a52595d","ios":"levelo://app?vid=9ae4959d-6de9-4c98-bb63-3a430a52595d"},"vehicle_type_id":"4","last_reported":1739366175,"current_range_meters":17600,"station_id":"ce4bgr92rcd13ifvqc6g","pricing_plan_id":"cebpf4jnsgd1na2vs0mg"},{"bike_id":"7803dd1a-a242-4883-848b-e4cbfccf197b","system_id":"levelo_inurba_marseille","lat":43.31387,"lon":5.36686,"is_reserved":false,"is_disabled":false,"rental_uris":{"android":"levelo://app?vid=7803dd1a-a242-4883-848b-e4cbfccf197b","ios":"levelo://app?vid=7803dd1a-a242-4883-848b-e4cbfccf197b"},"vehicle_type_id":"4","last_reported":1739366175,"current_range_meters":8800,"station_id":"","pricing_plan_id":"cebpf4jnsgd1na2vs0mg"},{"bike_id":"dc989998-5259-41e3-b5d5-ff22ee58f0f9","system_id":"levelo_inurba_marseille","lat":43.27834,"lon":5.39209,"is_reserved":false,"is_disabled":false,"rental_uris":{"android":"levelo://app?vid=dc989998-5259-41e3-b5d5-ff22ee58f0f9","ios":"levelo://app?vid=dc989998-5259-41e3-b5d5-ff22ee58f0f9"},"vehicle_type_id":"4","last_reported":1739366175,"current_range_meters":18000,"station_id":"ce4bhjp2rcd13ifvqga0","pricing_plan_id":"cebpf4jnsgd1na2vs0mg"},{"bike_id":"9c9e6dfa-122e-4154-8057-4016db8e7671","system_id":"levelo_inurba_marseille","lat":43.33739,"lon":5.39185,"is_reserved":false,"is_disabled":false,"rental_uris":{"android":"levelo://app?vid=9c9e6dfa-122e-4154-8057-4016db8e7671","ios":"levelo://app?vid=9c9e6dfa-122e-4154-8057-4016db8e7671"},"vehicle_type_id":"4","last_reported":1739366175,"current_range_meters":38400,"station_id":"ce4bhr92rcd13ifvqhsg","pricing_plan_id":"cebpf4jnsgd1na2vs0mg"},{"bike_id":"d5c8b014-4ad0-4ada-ab08-e631886858c2","system_id":"levelo_inurba_marseille","lat":43.29503,"lon":5.37494,"is_reserved":false,"is_disabled":false,"rental_uris":{"android":"levelo://app?vid=d5c8b014-4ad0-4ada-ab08-e631886858c2","ios":"levelo://app?vid=d5c8b014-4ad0-4ada-ab08-e631886858c2"},"vehicle_type_id":"4","last_reported":1739366175,"current_range_meters":30000,"station_id":"ce4bgkp2rcd13ifvqbmg","pricing_plan_id":"cebpf4jnsgd1na2vs0mg"},{"bike_id":"f6ef4f9a-c914-4d4b-a06e-00485b64285e","system_id":"levelo_inurba_marseille","lat":43.32483,"lon":5.3657,"is_reserved":false,"is_disabled":false,"rental_uris":{"android":"levelo://app?vid=f6ef4f9a-c914-4d4b-a06e-00485b64285e","ios":"levelo://app?vid=f6ef4f9a-c914-4d4b-a06e-00485b64285e"},"vehicle_type_id":"4","last_reported":1739366175,"current_range_meters":38800,"station_id":"ce4bhs12rcd13ifvqhvg","pricing_plan_id":"cebpf4jnsgd1na2vs0mg"},{"bike_id":"d4a8521c-c54c-4fbb-8f3c-fd7527641f17","system_id":"levelo_inurba_marseille","lat":43.30111,"lon":5.39859,"is_reserved":false,"is_disabled":false,"rental_uris":{"android":"levelo://app?vid=d4a8521c-c54c-4fbb-8f3c-fd7527641f17","ios":"levelo://app?vid=d4a8521c-c54c-4fbb-8f3c-fd7527641f17"},"vehicle_type_id":"4","last_reported":1739366175,"current_range_meters":39200,"station_id":"ce4bh0h2rcd13ifvqd40","pricing_plan_id":"cebpf4jnsgd1na2vs0mg"},{"bike_id":"154c3d10-560a-48c8-8975-f28b510614e3","system_id":"levelo_inurba_marseille","lat":43.30293,"lon":5.37703,"is_reserved":false,"is_disabled":false,"rental_uris":{"android":"levelo://app?vid=154c3d10-560a-48c8-8975-f28b510614e3","ios":"levelo://app?vid=154c3d10-560a-48c8-8975-f28b510614e3"},"vehicle_type_id":"4","last_reported":1739366175,"current_range_meters":28400,"station_id":"ce4bguh2rcd13ifvqcj0","pricing_plan_id":"cebpf4jnsgd1na2vs0mg"},{"bike_id":"8b1c9bed-283d-4644-9673-1058c0737c9c","system_id":"levelo_inurba_marseille","lat":43.30467,"lon":5.37895,"is_reserved":false,"is_disabled":false,"rental_uris":{"android":"levelo://app?vid=8b1c9bed-283d-4644-9673-1058c0737c9c","ios":"levelo://app?vid=8b1c9bed-283d-4644-9673-1058c0737c9c"},"vehicle_type_id":"4","last_reported":1739366175,"current_range_meters":38800,"station_id":"ce4bgup2rcd13ifvqcn0","pricing_plan_id":"cebpf4jnsgd1na2vs0mg"},{"bike_id":"4c4891db-fb43-4fcc-aed3-6542b2bf0dbf","system_id":"levelo_inurba_marseille","lat":43.28153,"lon":5.42641,"is_reserved":false,"is_disabled":false,"rental_uris":{"android":"levelo://app?vid=4c4891db-fb43-4fcc-aed3-6542b2bf0dbf","ios":"levelo://app?vid=4c4891db-fb43-4fcc-aed3-6542b2bf0dbf"},"vehicle_type_id":"4","last_reported":1739366175,"current_range_meters":33600,"station_id":"ce4bhnh2rcd13ifvqgug","pricing_plan_id":"cebpf4jnsgd1na2vs0mg"},{"bike_id":"b7e5ed26-b327-48d1-b3da-d61a2e48fa80","system_id":"levelo_inurba_marseille","lat":43.31292,"lon":5.4016,"is_reserved":false,"is_disabled":false,"rental_uris":{"android":"levelo://app?vid=b7e5ed26-b327-48d1-b3da-d61a2e48fa80","ios":"levelo://app?vid=b7e5ed26-b327-48d1-b3da-d61a2e48fa80"},"vehicle_type_id":"4","last_reported":1739366175,"current_range_meters":33600,"station_id":"ce4bh092rcd13ifvqd30","pricing_plan_id":"cebpf4jnsgd1na2vs0mg"},{"bike_id":"9e4564f0-0519-46c9-beea-73f529a3ce6a","system_id":"levelo_inurba_marseille","lat":43.24818,"lon":5.37444,"is_reserved":false,"is_disabled":false,"rental_uris":{"android":"levelo://app?vid=9e4564f0-0519-46c9-beea-73f529a3ce6a","ios":"levelo://app?vid=9e4564f0-0519-46c9-beea-73f529a3ce6a"},"vehicle_type_id":"4","last_reported":1739366175,"current_range_meters":28400,"station_id":"ce4bhgh2rcd13ifvqfb0","pricing_plan_id":"cebpf4jnsgd1na2vs0mg"},{"bike_id":"e8b98b7c-5d68-4a57-8bb7-0cc04267f30a","system_id":"levelo_inurba_marseille","lat":43.27998,"lon":5.40025,"is_reserved":false,"is_disabled":false,"rental_uris":{"android":"levelo://app?vid=e8b98b7c-5d68-4a57-8bb7-0cc04267f30a","ios":"levelo://app?vid=e8b98b7c-5d68-4a57-8bb7-0cc04267f30a"},"vehicle_type_id":"4","last_reported":1739366175,"current_range_meters":24000,"station_id":"ce4bho92rcd13ifvqh4g","pricing_plan_id":"cebpf4jnsgd1na2vs0mg"},{"bike_id":"a94d2018-f678-4713-bf2d-5da0b28f3e59","system_id":"levelo_inurba_marseille","lat":43.29746,"lon":5.37096,"is_reserved":false,"is_disabled":false,"rental_uris":{"android":"levelo://app?vid=a94d2018-f678-4713-bf2d-5da0b28f3e59","ios":"levelo://app?vid=a94d2018-f678-4713-bf2d-5da0b28f3e59"},"vehicle_type_id":"4","last_reported":1739366175,"current_range_meters":34000,"station_id":"ce4bgop2rcd13ifvqc1g","pricing_plan_id":"cebpf4jnsgd1na2vs0mg"},{"bike_id":"3df3041b-27b7-4def-8d60-99d6191bfdce","system_id":"levelo_inurba_marseille","lat":43.27492,"lon":5.42443,"is_reserved":false,"is_disabled":false,"rental_uris":{"android":"levelo://app?vid=3df3041b-27b7-4def-8d60-99d6191bfdce","ios":"levelo://app?vid=3df3041b-27b7-4def-8d60-99d6191bfdce"},"vehicle_type_id":"4","last_reported":1739366175,"current_range_meters":38800,"station_id":"ce4bhn92rcd13ifvqgrg","pricing_plan_id":"cebpf4jnsgd1na2vs0mg"},{"bike_id":"ce6d7b91-69b1-4f57-8d9d-2962869f8466","system_id":"levelo_inurba_marseille","lat":43.26939,"lon":5.38918,"is_reserved":false,"is_disabled":false,"rental_uris":{"android":"levelo://app?vid=ce6d7b91-69b1-4f57-8d9d-2962869f8466","ios":"levelo://app?vid=ce6d7b91-69b1-4f57-8d9d-2962869f8466"},"vehicle_type_id":"4","last_reported":1739366175,"current_range_meters":6400,"station_id":"ce4bhhh2rcd13ifvqfl0","pricing_plan_id":"cebpf4jnsgd1na2vs0mg"},{"bike_id":"a832a774-4cc9-4cea-8617-d1834a9e1812","system_id":"levelo_inurba_marseille","lat":43.28619,"lon":5.35107,"is_reserved":false,"is_disabled":false,"rental_uris":{"android":"levelo://app?vid=a832a774-4cc9-4cea-8617-d1834a9e1812","ios":"levelo://app?vid=a832a774-4cc9-4cea-8617-d1834a9e1812"},"vehicle_type_id":"4","last_reported":1739366175,"current_range_meters":37600,"station_id":"ce4bhch2rcd13ifvqeug","pricing_plan_id":"cebpf4jnsgd1na2vs0mg"},{"bike_id":"f255be7c-ceba-481c-b44b-c7a9c3eb4436","system_id":"levelo_inurba_marseille","lat":43.29265,"lon":5.38442,"is_reserved":false,"is_disabled":false,"rental_uris":{"android":"levelo://app?vid=f255be7c-ceba-481c-b44b-c7a9c3eb4436","ios":"levelo://app?vid=f255be7c-ceba-481c-b44b-c7a9c3eb4436"},"vehicle_type_id":"4","last_reported":1739366175,"current_range_meters":27600,"station_id":"ce4bh692rcd13ifvqea0","pricing_plan_id":"cebpf4jnsgd1na2vs0mg"},{"bike_id":"33ad253b-8e86-4ab6-b2cf-f0d61d9f366b","system_id":"levelo_inurba_marseille","lat":43.31734,"lon":5.39035,"is_reserved":false,"is_disabled":false,"rental_uris":{"android":"levelo://app?vid=33ad253b-8e86-4ab6-b2cf-f0d61d9f366b","ios":"levelo://app?vid=33ad253b-8e86-4ab6-b2cf-f0d61d9f366b"},"vehicle_type_id":"4","last_reported":1739366175,"current_range_meters":7200,"station_id":"ce4bhqp2rcd13ifvqhng","pricing_plan_id":"cebpf4jnsgd1na2vs0mg"},{"bike_id":"a9eb76ae-d2f9-4fe3-87ec-b061f4429926","system_id":"levelo_inurba_marseille","lat":43.27368,"lon":5.36256,"is_reserved":false,"is_disabled":false,"rental_uris":{"android":"levelo://app?vid=a9eb76ae-d2f9-4fe3-87ec-b061f4429926","ios":"levelo://app?vid=a9eb76ae-d2f9-4fe3-87ec-b061f4429926"},"vehicle_type_id":"4","last_reported":1739366175,"current_range_meters":35600,"station_id":"ce4bhbh2rcd13ifvqeo0","pricing_plan_id":"cebpf4jnsgd1na2vs0mg"},{"bike_id":"26c79ef5-6f5f-49d9-b4aa-17fb6a7df4bb","system_id":"levelo_inurba_marseille","lat":43.29845,"lon":5.36286,"is_reserved":false,"is_disabled":false,"rental_uris":{"android":"levelo://app?vid=26c79ef5-6f5f-49d9-b4aa-17fb6a7df4bb","ios":"levelo://app?vid=26c79ef5-6f5f-49d9-b4aa-17fb6a7df4bb"},"vehicle_type_id":"4","last_reported":1739366175,"current_range_meters":38400,"station_id":"ce4bgpp2rcd13ifvqc3g","pricing_plan_id":"cebpf4jnsgd1na2vs0mg"},{"bike_id":"39e55a90-fe76-4904-bf9c-9841fe168f13","system_id":"levelo_inurba_marseille","lat":43.33734,"lon":5.39185,"is_reserved":false,"is_disabled":false,"rental_uris":{"android":"levelo://app?vid=39e55a90-fe76-4904-bf9c-9841fe168f13","ios":"levelo://app?vid=39e55a90-fe76-4904-bf9c-9841fe168f13"},"vehicle_type_id":"4","last_reported":1739366175,"current_range_meters":38800,"station_id":"ce4bhr92rcd13ifvqhsg","pricing_plan_id":"cebpf4jnsgd1na2vs0mg"},{"bike_id":"94746c64-49b9-4259-8f1b-68b3226f7952","system_id":"levelo_inurba_marseille","lat":43.2418,"lon":5.39732,"is_reserved":false,"is_disabled":false,"rental_uris":{"android":"levelo://app?vid=94746c64-49b9-4259-8f1b-68b3226f7952","ios":"levelo://app?vid=94746c64-49b9-4259-8f1b-68b3226f7952"},"vehicle_type_id":"4","last_reported":1739366175,"current_range_meters":36400,"station_id":"ce4bhn12rcd13ifvqgpg","pricing_plan_id":"cebpf4jnsgd1na2vs0mg"},{"bike_id":"ab1cebf3-c0b3-4000-9889-44d51e1315d9","system_id":"levelo_inurba_marseille","lat":43.264997,"lon":5.395469,"is_reserved":false,"is_disabled":true,"rental_uris":{"android":"levelo://app?vid=ab1cebf3-c0b3-4000-9889-44d51e1315d9","ios":"levelo://app?vid=ab1cebf3-c0b3-4000-9889-44d51e1315d9"},"vehicle_type_id":"4","last_reported":1739366175,"current_range_meters":22800,"station_id":"ce4bhi12rcd13ifvqfq0","pricing_plan_id":"cebpf4jnsgd1na2vs0mg"},{"bike_id":"a3193942-c0cf-4407-8fe9-47e7b213864d","system_id":"levelo_inurba_marseille","lat":43.30532,"lon":5.36743,"is_reserved":false,"is_disabled":false,"rental_uris":{"android":"levelo://app?vid=a3193942-c0cf-4407-8fe9-47e7b213864d","ios":"levelo://app?vid=a3193942-c0cf-4407-8fe9-47e7b213864d"},"vehicle_type_id":"4","last_reported":1739366175,"current_range_meters":30000,"station_id":"ce4bgrp2rcd13ifvqc9g","pricing_plan_id":"cebpf4jnsgd1na2vs0mg"},{"bike_id":"731da6c6-f7ca-4a26-90c2-82e3497d26ff","system_id":"levelo_inurba_marseille","lat":43.31348,"lon":5.36725,"is_reserved":false,"is_disabled":false,"rental_uris":{"android":"levelo://app?vid=731da6c6-f7ca-4a26-90c2-82e3497d26ff","ios":"levelo://app?vid=731da6c6-f7ca-4a26-90c2-82e3497d26ff"},"vehicle_type_id":"4","last_reported":1739366175,"current_range_meters":30000,"station_id":"ce4bgr92rcd13ifvqc6g","pricing_plan_id":"cebpf4jnsgd1na2vs0mg"},{"bike_id":"9259a6aa-9930-4e48-b365-8afc48a92395","system_id":"levelo_inurba_marseille","lat":43.24389,"lon":5.37052,"is_reserved":false,"is_disabled":false,"rental_uris":{"android":"levelo://app?vid=9259a6aa-9930-4e48-b365-8afc48a92395","ios":"levelo://app?vid=9259a6aa-9930-4e48-b365-8afc48a92395"},"vehicle_type_id":"4","last_reported":1739366175,"current_range_meters":31200,"station_id":"ce4bhhh2rcd13ifvqfk0","pricing_plan_id":"cebpf4jnsgd1na2vs0mg"},{"bike_id":"bf8cd02e-ccdc-4523-894a-3fce83d782e3","system_id":"levelo_inurba_marseille","lat":43.3373,"lon":5.39178,"is_reserved":false,"is_disabled":false,"rental_uris":{"android":"levelo://app?vid=bf8cd02e-ccdc-4523-894a-3fce83d782e3","ios":"levelo://app?vid=bf8cd02e-ccdc-4523-894a-3fce83d782e3"},"vehicle_type_id":"4","last_reported":1739366175,"current_range_meters":38800,"station_id":"ce4bhr92rcd13ifvqhsg","pricing_plan_id":"cebpf4jnsgd1na2vs0mg"},{"bike_id":"b737ae82-c86e-4ede-80b2-31fc6f755e14","system_id":"levelo_inurba_marseille","lat":43.2952,"lon":5.3855,"is_reserved":false,"is_disabled":true,"rental_uris":{"android":"levelo://app?vid=b737ae82-c86e-4ede-80b2-31fc6f755e14","ios":"levelo://app?vid=b737ae82-c86e-4ede-80b2-31fc6f755e14"},"vehicle_type_id":"4","last_reported":1739366175,"current_range_meters":38800,"station_id":"ce4bgih2rcd13ifvqba0","pricing_plan_id":"cebpf4jnsgd1na2vs0mg"},{"bike_id":"20cff2ea-df40-43e9-9e60-e9c41ce0ec64","system_id":"levelo_inurba_marseille","lat":43.231527,"lon":5.437136,"is_reserved":false,"is_disabled":false,"rental_uris":{"android":"levelo://app?vid=20cff2ea-df40-43e9-9e60-e9c41ce0ec64","ios":"levelo://app?vid=20cff2ea-df40-43e9-9e60-e9c41ce0ec64"},"vehicle_type_id":"4","last_reported":1739366175,"current_range_meters":38800,"station_id":"ce4bhmp2rcd13ifvqgog","pricing_plan_id":"cebpf4jnsgd1na2vs0mg"},{"bike_id":"c179f179-1614-4d6a-9586-627695823c73","system_id":"levelo_inurba_marseille","lat":43.26805,"lon":5.40247,"is_reserved":false,"is_disabled":false,"rental_uris":{"android":"levelo://app?vid=c179f179-1614-4d6a-9586-627695823c73","ios":"levelo://app?vid=c179f179-1614-4d6a-9586-627695823c73"},"vehicle_type_id":"4","last_reported":1739366175,"current_range_meters":26800,"station_id":"ce501612rcd8frsf0b60","pricing_plan_id":"cebpf4jnsgd1na2vs0mg"},{"bike_id":"be075a0e-e040-4059-bb19-f68b4462e320","system_id":"levelo_inurba_marseille","lat":43.291809,"lon":5.392686,"is_reserved":false,"is_disabled":false,"rental_uris":{"android":"levelo://app?vid=be075a0e-e040-4059-bb19-f68b4462e320","ios":"levelo://app?vid=be075a0e-e040-4059-bb19-f68b4462e320"},"vehicle_type_id":"4","last_reported":1739366175,"current_range_meters":24400,"station_id":"ce4bh192rcd13ifvqdd0","pricing_plan_id":"cebpf4jnsgd1na2vs0mg"},{"bike_id":"679b51a7-0864-4c79-a75b-8b937ab8b8fc","system_id":"levelo_inurba_marseille","lat":43.24556,"lon":5.39522,"is_reserved":false,"is_disabled":false,"rental_uris":{"android":"levelo://app?vid=679b51a7-0864-4c79-a75b-8b937ab8b8fc","ios":"levelo://app?vid=679b51a7-0864-4c79-a75b-8b937ab8b8fc"},"vehicle_type_id":"4","last_reported":1739366175,"current_range_meters":25600,"station_id":"ce4bhlp2rcd13ifvqgjg","pricing_plan_id":"cebpf4jnsgd1na2vs0mg"},{"bike_id":"3900d08b-8693-4bd9-848b-faf62990505d","system_id":"levelo_inurba_marseille","lat":43.30148,"lon":5.3986,"is_reserved":false,"is_disabled":false,"rental_uris":{"android":"levelo://app?vid=3900d08b-8693-4bd9-848b-faf62990505d","ios":"levelo://app?vid=3900d08b-8693-4bd9-848b-faf62990505d"},"vehicle_type_id":"4","last_reported":1739366175,"current_range_meters":38800,"station_id":"ce4bh0h2rcd13ifvqd40","pricing_plan_id":"cebpf4jnsgd1na2vs0mg"},{"bike_id":"34336859-b941-4777-a7fe-56d01a220fb2","system_id":"levelo_inurba_marseille","lat":43.29707,"lon":5.36608,"is_reserved":false,"is_disabled":false,"rental_uris":{"android":"levelo://app?vid=34336859-b941-4777-a7fe-56d01a220fb2","ios":"levelo://app?vid=34336859-b941-4777-a7fe-56d01a220fb2"},"vehicle_type_id":"4","last_reported":1739366175,"current_range_meters":37600,"station_id":"ce4bgn12rcd13ifvqbt0","pricing_plan_id":"cebpf4jnsgd1na2vs0mg"},{"bike_id":"ccfa7f3d-d0da-45a7-b714-03e25a4d2531","system_id":"levelo_inurba_marseille","lat":43.29301,"lon":5.37447,"is_reserved":false,"is_disabled":false,"rental_uris":{"android":"levelo://app?vid=ccfa7f3d-d0da-45a7-b714-03e25a4d2531","ios":"levelo://app?vid=ccfa7f3d-d0da-45a7-b714-03e25a4d2531"},"vehicle_type_id":"4","last_reported":1739366175,"current_range_meters":38000,"station_id":"ce4bgi12rcd13ifvqb70","pricing_plan_id":"cebpf4jnsgd1na2vs0mg"},{"bike_id":"0946e1d0-cc5c-4db2-a494-cafba877eb11","system_id":"levelo_inurba_marseille","lat":43.30472,"lon":5.37902,"is_reserved":false,"is_disabled":false,"rental_uris":{"android":"levelo://app?vid=0946e1d0-cc5c-4db2-a494-cafba877eb11","ios":"levelo://app?vid=0946e1d0-cc5c-4db2-a494-cafba877eb11"},"vehicle_type_id":"4","last_reported":1739366175,"current_range_meters":38800,"station_id":"ce4bgup2rcd13ifvqcn0","pricing_plan_id":"cebpf4jnsgd1na2vs0mg"},{"bike_id":"839412cb-f74c-48fe-adb7-08202875d9d0","system_id":"levelo_inurba_marseille","lat":43.30646,"lon":5.40099,"is_reserved":false,"is_disabled":false,"rental_uris":{"android":"levelo://app?vid=839412cb-f74c-48fe-adb7-08202875d9d0","ios":"levelo://app?vid=839412cb-f74c-48fe-adb7-08202875d9d0"},"vehicle_type_id":"4","last_reported":1739366175,"current_range_meters":24400,"station_id":"ce4bh112rcd13ifvqda0","pricing_plan_id":"cebpf4jnsgd1na2vs0mg"},{"bike_id":"c6e92d4a-a6e9-460b-8819-941185c2b087","system_id":"levelo_inurba_marseille","lat":43.3016,"lon":5.38092,"is_reserved":false,"is_disabled":false,"rental_uris":{"android":"levelo://app?vid=c6e92d4a-a6e9-460b-8819-941185c2b087","ios":"levelo://app?vid=c6e92d4a-a6e9-460b-8819-941185c2b087"},"vehicle_type_id":"4","last_reported":1739366175,"current_range_meters":35600,"station_id":"ce4bgjp2rcd13ifvqbh0","pricing_plan_id":"cebpf4jnsgd1na2vs0mg"},{"bike_id":"0f898702-5a7a-46b3-acd9-f0d77c965d23","system_id":"levelo_inurba_marseille","lat":43.28857,"lon":5.35858,"is_reserved":false,"is_disabled":true,"rental_uris":{"android":"levelo://app?vid=0f898702-5a7a-46b3-acd9-f0d77c965d23","ios":"levelo://app?vid=0f898702-5a7a-46b3-acd9-f0d77c965d23"},"vehicle_type_id":"4","last_reported":1739366175,"current_range_meters":800,"station_id":"ce4bhb12rcd13ifvqem0","pricing_plan_id":"cebpf4jnsgd1na2vs0mg"},{"bike_id":"5ec5dad3-2aa4-4468-abda-cdb85c06529e","system_id":"levelo_inurba_marseille","lat":43.29956,"lon":5.37164,"is_reserved":false,"is_disabled":false,"rental_uris":{"android":"levelo://app?vid=5ec5dad3-2aa4-4468-abda-cdb85c06529e","ios":"levelo://app?vid=5ec5dad3-2aa4-4468-abda-cdb85c06529e"},"vehicle_type_id":"4","last_reported":1739366175,"current_range_meters":38800,"station_id":"ce4bgr92rcd13ifvqc7g","pricing_plan_id":"cebpf4jnsgd1na2vs0mg"},{"bike_id":"2312436e-97b4-471d-8601-91b04578b3cf","system_id":"levelo_inurba_marseille","lat":43.27501,"lon":5.42459,"is_reserved":false,"is_disabled":false,"rental_uris":{"android":"levelo://app?vid=2312436e-97b4-471d-8601-91b04578b3cf","ios":"levelo://app?vid=2312436e-97b4-471d-8601-91b04578b3cf"},"vehicle_type_id":"4","last_reported":1739366175,"current_range_meters":27600,"station_id":"ce4bhn92rcd13ifvqgrg","pricing_plan_id":"cebpf4jnsgd1na2vs0mg"},{"bike_id":"1abe2258-cb0f-4672-9569-519c505ed71d","system_id":"levelo_inurba_marseille","lat":43.31274,"lon":5.40158,"is_reserved":false,"is_disabled":false,"rental_uris":{"android":"levelo://app?vid=1abe2258-cb0f-4672-9569-519c505ed71d","ios":"levelo://app?vid=1abe2258-cb0f-4672-9569-519c505ed71d"},"vehicle_type_id":"4","last_reported":1739366175,"current_range_meters":39200,"station_id":"ce4bh092rcd13ifvqd30","pricing_plan_id":"cebpf4jnsgd1na2vs0mg"},{"bike_id":"641ac591-57ea-414b-b64d-5d6c99c4788d","system_id":"levelo_inurba_marseille","lat":43.2694,"lon":5.38914,"is_reserved":false,"is_disabled":false,"rental_uris":{"android":"levelo://app?vid=641ac591-57ea-414b-b64d-5d6c99c4788d","ios":"levelo://app?vid=641ac591-57ea-414b-b64d-5d6c99c4788d"},"vehicle_type_id":"4","last_reported":1739366175,"current_range_meters":35200,"station_id":"ce4bhhh2rcd13ifvqfl0","pricing_plan_id":"cebpf4jnsgd1na2vs0mg"},{"bike_id":"f61f0289-db11-4f78-af36-f70fd4404161","system_id":"levelo_inurba_marseille","lat":43.290051,"lon":5.356176,"is_reserved":false,"is_disabled":true,"rental_uris":{"android":"levelo://app?vid=f61f0289-db11-4f78-af36-f70fd4404161","ios":"levelo://app?vid=f61f0289-db11-4f78-af36-f70fd4404161"},"vehicle_type_id":"4","last_reported":1739366175,"current_range_meters":34000,"station_id":"","pricing_plan_id":"cebpf4jnsgd1na2vs0mg"},{"bike_id":"39a640ed-fd8c-4b56-84e0-fe67663afd2d","system_id":"levelo_inurba_marseille","lat":43.23167,"lon":5.43703,"is_reserved":false,"is_disabled":false,"rental_uris":{"android":"levelo://app?vid=39a640ed-fd8c-4b56-84e0-fe67663afd2d","ios":"levelo://app?vid=39a640ed-fd8c-4b56-84e0-fe67663afd2d"},"vehicle_type_id":"4","last_reported":1739366175,"current_range_meters":28000,"station_id":"ce4bhmp2rcd13ifvqgog","pricing_plan_id":"cebpf4jnsgd1na2vs0mg"},{"bike_id":"b03c6d48-9fd6-4bf2-bc41-8e49175a4e58","system_id":"levelo_inurba_marseille","lat":43.32666,"lon":5.40998,"is_reserved":false,"is_disabled":false,"rental_uris":{"android":"levelo://app?vid=b03c6d48-9fd6-4bf2-bc41-8e49175a4e58","ios":"levelo://app?vid=b03c6d48-9fd6-4bf2-bc41-8e49175a4e58"},"vehicle_type_id":"4","last_reported":1739366175,"current_range_meters":38000,"station_id":"ce4bhpp2rcd13ifvqhgg","pricing_plan_id":"cebpf4jnsgd1na2vs0mg"},{"bike_id":"76ebc75d-2fe5-45e0-9f44-dea2f5f86814","system_id":"levelo_inurba_marseille","lat":43.24399,"lon":5.37055,"is_reserved":false,"is_disabled":false,"rental_uris":{"android":"levelo://app?vid=76ebc75d-2fe5-45e0-9f44-dea2f5f86814","ios":"levelo://app?vid=76ebc75d-2fe5-45e0-9f44-dea2f5f86814"},"vehicle_type_id":"4","last_reported":1739366175,"current_range_meters":28400,"station_id":"ce4bhhh2rcd13ifvqfk0","pricing_plan_id":"cebpf4jnsgd1na2vs0mg"},{"bike_id":"7e4baaff-43df-45ac-ba99-60d4ee3b5a14","system_id":"levelo_inurba_marseille","lat":43.32481,"lon":5.36569,"is_reserved":false,"is_disabled":false,"rental_uris":{"android":"levelo://app?vid=7e4baaff-43df-45ac-ba99-60d4ee3b5a14","ios":"levelo://app?vid=7e4baaff-43df-45ac-ba99-60d4ee3b5a14"},"vehicle_type_id":"4","last_reported":1739366175,"current_range_meters":8000,"station_id":"ce4bhs12rcd13ifvqhvg","pricing_plan_id":"cebpf4jnsgd1na2vs0mg"},{"bike_id":"76305925-afef-4e0d-9960-6de968abbadf","system_id":"levelo_inurba_marseille","lat":43.24805,"lon":5.37455,"is_reserved":false,"is_disabled":false,"rental_uris":{"android":"levelo://app?vid=76305925-afef-4e0d-9960-6de968abbadf","ios":"levelo://app?vid=76305925-afef-4e0d-9960-6de968abbadf"},"vehicle_type_id":"4","last_reported":1739366175,"current_range_meters":34800,"station_id":"ce4bhgh2rcd13ifvqfb0","pricing_plan_id":"cebpf4jnsgd1na2vs0mg"},{"bike_id":"1fb1a03a-258b-416a-92dc-66b98dcbe7d9","system_id":"levelo_inurba_marseille","lat":43.33728,"lon":5.39184,"is_reserved":false,"is_disabled":false,"rental_uris":{"android":"levelo://app?vid=1fb1a03a-258b-416a-92dc-66b98dcbe7d9","ios":"levelo://app?vid=1fb1a03a-258b-416a-92dc-66b98dcbe7d9"},"vehicle_type_id":"4","last_reported":1739366175,"current_range_meters":38800,"station_id":"ce4bhr92rcd13ifvqhsg","pricing_plan_id":"cebpf4jnsgd1na2vs0mg"},{"bike_id":"80b55b9b-3311-4f84-bd1e-e3b2f430b33c","system_id":"levelo_inurba_marseille","lat":43.30563,"lon":5.36695,"is_reserved":false,"is_disabled":false,"rental_uris":{"android":"levelo://app?vid=80b55b9b-3311-4f84-bd1e-e3b2f430b33c","ios":"levelo://app?vid=80b55b9b-3311-4f84-bd1e-e3b2f430b33c"},"vehicle_type_id":"4","last_reported":1739366175,"current_range_meters":38800,"station_id":"ce4bgrp2rcd13ifvqc9g","pricing_plan_id":"cebpf4jnsgd1na2vs0mg"},{"bike_id":"51ab7186-5043-4bed-baca-73708608a302","system_id":"levelo_inurba_marseille","lat":43.29584,"lon":5.37026,"is_reserved":false,"is_disabled":true,"rental_uris":{"android":"levelo://app?vid=51ab7186-5043-4bed-baca-73708608a302","ios":"levelo://app?vid=51ab7186-5043-4bed-baca-73708608a302"},"vehicle_type_id":"4","last_reported":1739366175,"current_range_meters":2800,"station_id":"","pricing_plan_id":"cebpf4jnsgd1na2vs0mg"},{"bike_id":"50088e93-5803-4364-92d7-3190d4649e3b","system_id":"levelo_inurba_marseille","lat":43.27952,"lon":5.4106,"is_reserved":false,"is_disabled":false,"rental_uris":{"android":"levelo://app?vid=50088e93-5803-4364-92d7-3190d4649e3b","ios":"levelo://app?vid=50088e93-5803-4364-92d7-3190d4649e3b"},"vehicle_type_id":"4","last_reported":1739366175,"current_range_meters":39200,"station_id":"ce4bhnp2rcd13ifvqh0g","pricing_plan_id":"cebpf4jnsgd1na2vs0mg"},{"bike_id":"314a7f3a-1d53-4c2c-b61d-216d8b048da4","system_id":"levelo_inurba_marseille","lat":43.30289,"lon":5.36878,"is_reserved":false,"is_disabled":false,"rental_uris":{"android":"levelo://app?vid=314a7f3a-1d53-4c2c-b61d-216d8b048da4","ios":"levelo://app?vid=314a7f3a-1d53-4c2c-b61d-216d8b048da4"},"vehicle_type_id":"4","last_reported":1739366175,"current_range_meters":35600,"station_id":"ce4bgqh2rcd13ifvqc5g","pricing_plan_id":"cebpf4jnsgd1na2vs0mg"},{"bike_id":"a9ffde4b-cac5-4882-af9c-1027b29fc5b1","system_id":"levelo_inurba_marseille","lat":43.28458,"lon":5.35886,"is_reserved":false,"is_disabled":false,"rental_uris":{"android":"levelo://app?vid=a9ffde4b-cac5-4882-af9c-1027b29fc5b1","ios":"levelo://app?vid=a9ffde4b-cac5-4882-af9c-1027b29fc5b1"},"vehicle_type_id":"4","last_reported":1739366175,"current_range_meters":23200,"station_id":"ce4bhah2rcd13ifvqei0","pricing_plan_id":"cebpf4jnsgd1na2vs0mg"},{"bike_id":"4a64ece0-ade0-4398-bd9a-7915c991c761","system_id":"levelo_inurba_marseille","lat":43.32484,"lon":5.36581,"is_reserved":false,"is_disabled":false,"rental_uris":{"android":"levelo://app?vid=4a64ece0-ade0-4398-bd9a-7915c991c761","ios":"levelo://app?vid=4a64ece0-ade0-4398-bd9a-7915c991c761"},"vehicle_type_id":"4","last_reported":1739366175,"current_range_meters":10800,"station_id":"ce4bhs12rcd13ifvqhvg","pricing_plan_id":"cebpf4jnsgd1na2vs0mg"},{"bike_id":"56665ebe-33aa-4c07-95f1-029d77e6be56","system_id":"levelo_inurba_marseille","lat":43.26563,"lon":5.39011,"is_reserved":false,"is_disabled":false,"rental_uris":{"android":"levelo://app?vid=56665ebe-33aa-4c07-95f1-029d77e6be56","ios":"levelo://app?vid=56665ebe-33aa-4c07-95f1-029d77e6be56"},"vehicle_type_id":"4","last_reported":1739366175,"current_range_meters":36000,"station_id":"ce4bhe12rcd13ifvqf30","pricing_plan_id":"cebpf4jnsgd1na2vs0mg"},{"bike_id":"3022a390-1c44-4221-b627-b981bb6953c7","system_id":"levelo_inurba_marseille","lat":43.28002,"lon":5.40022,"is_reserved":false,"is_disabled":false,"rental_uris":{"android":"levelo://app?vid=3022a390-1c44-4221-b627-b981bb6953c7","ios":"levelo://app?vid=3022a390-1c44-4221-b627-b981bb6953c7"},"vehicle_type_id":"4","last_reported":1739366175,"current_range_meters":24800,"station_id":"ce4bho92rcd13ifvqh4g","pricing_plan_id":"cebpf4jnsgd1na2vs0mg"},{"bike_id":"f7cd2f79-78bc-4162-a0ec-72719ede3443","system_id":"levelo_inurba_marseille","lat":43.28724,"lon":5.39996,"is_reserved":false,"is_disabled":false,"rental_uris":{"android":"levelo://app?vid=f7cd2f79-78bc-4162-a0ec-72719ede3443","ios":"levelo://app?vid=f7cd2f79-78bc-4162-a0ec-72719ede3443"},"vehicle_type_id":"4","last_reported":1739366175,"current_range_meters":24800,"station_id":"ce4bho92rcd13ifvqh3g","pricing_plan_id":"cebpf4jnsgd1na2vs0mg"},{"bike_id":"d1e173a7-7a13-459d-aa61-e912781d87f3","system_id":"levelo_inurba_marseille","lat":43.27322,"lon":5.39097,"is_reserved":false,"is_disabled":false,"rental_uris":{"android":"levelo://app?vid=d1e173a7-7a13-459d-aa61-e912781d87f3","ios":"levelo://app?vid=d1e173a7-7a13-459d-aa61-e912781d87f3"},"vehicle_type_id":"4","last_reported":1739366175,"current_range_meters":28000,"station_id":"ce4bhgp2rcd13ifvqfe0","pricing_plan_id":"cebpf4jnsgd1na2vs0mg"},{"bike_id":"10dce821-bd6f-48b5-a755-f2a3c840842c","system_id":"levelo_inurba_marseille","lat":43.23127,"lon":5.43732,"is_reserved":false,"is_disabled":true,"rental_uris":{"android":"levelo://app?vid=10dce821-bd6f-48b5-a755-f2a3c840842c","ios":"levelo://app?vid=10dce821-bd6f-48b5-a755-f2a3c840842c"},"vehicle_type_id":"4","last_reported":1739366175,"current_range_meters":0,"station_id":"ce4bhmp2rcd13ifvqgog","pricing_plan_id":"cebpf4jnsgd1na2vs0mg"},{"bike_id":"de77abfa-6f74-40e9-8131-b7884eda37eb","system_id":"levelo_inurba_marseille","lat":43.29941,"lon":5.39404,"is_reserved":false,"is_disabled":false,"rental_uris":{"android":"levelo://app?vid=de77abfa-6f74-40e9-8131-b7884eda37eb","ios":"levelo://app?vid=de77abfa-6f74-40e9-8131-b7884eda37eb"},"vehicle_type_id":"4","last_reported":1739366175,"current_range_meters":25600,"station_id":"","pricing_plan_id":"cebpf4jnsgd1na2vs0mg"},{"bike_id":"6536fdfe-60f2-4069-9713-9a9d729a0c4e","system_id":"levelo_inurba_marseille","lat":43.28018,"lon":5.39998,"is_reserved":false,"is_disabled":false,"rental_uris":{"android":"levelo://app?vid=6536fdfe-60f2-4069-9713-9a9d729a0c4e","ios":"levelo://app?vid=6536fdfe-60f2-4069-9713-9a9d729a0c4e"},"vehicle_type_id":"4","last_reported":1739366175,"current_range_meters":35600,"station_id":"ce4bho92rcd13ifvqh4g","pricing_plan_id":"cebpf4jnsgd1na2vs0mg"},{"bike_id":"aa081435-b5f9-4834-b16c-7f35c836b33a","system_id":"levelo_inurba_marseille","lat":43.30174,"lon":5.3746,"is_reserved":false,"is_disabled":false,"rental_uris":{"android":"levelo://app?vid=aa081435-b5f9-4834-b16c-7f35c836b33a","ios":"levelo://app?vid=aa081435-b5f9-4834-b16c-7f35c836b33a"},"vehicle_type_id":"4","last_reported":1739366175,"current_range_meters":36800,"station_id":"","pricing_plan_id":"cebpf4jnsgd1na2vs0mg"},{"bike_id":"ee079ffa-4416-4a91-bc98-3bd665acea3b","system_id":"levelo_inurba_marseille","lat":43.33729,"lon":5.39182,"is_reserved":false,"is_disabled":false,"rental_uris":{"android":"levelo://app?vid=ee079ffa-4416-4a91-bc98-3bd665acea3b","ios":"levelo://app?vid=ee079ffa-4416-4a91-bc98-3bd665acea3b"},"vehicle_type_id":"4","last_reported":1739366175,"current_range_meters":38800,"station_id":"ce4bhr92rcd13ifvqhsg","pricing_plan_id":"cebpf4jnsgd1na2vs0mg"},{"bike_id":"1fa82dc6-47d4-4356-bbca-393bf4461726","system_id":"levelo_inurba_marseille","lat":43.23958,"lon":5.36616,"is_reserved":false,"is_disabled":false,"rental_uris":{"android":"levelo://app?vid=1fa82dc6-47d4-4356-bbca-393bf4461726","ios":"levelo://app?vid=1fa82dc6-47d4-4356-bbca-393bf4461726"},"vehicle_type_id":"4","last_reported":1739366175,"current_range_meters":12800,"station_id":"ce4bhi12rcd13ifvqfp0","pricing_plan_id":"cebpf4jnsgd1na2vs0mg"},{"bike_id":"5619d8cb-1470-4f34-b601-3725ed3721d6","system_id":"levelo_inurba_marseille","lat":43.31701,"lon":5.3774,"is_reserved":false,"is_disabled":false,"rental_uris":{"android":"levelo://app?vid=5619d8cb-1470-4f34-b601-3725ed3721d6","ios":"levelo://app?vid=5619d8cb-1470-4f34-b601-3725ed3721d6"},"vehicle_type_id":"4","last_reported":1739366175,"current_range_meters":12400,"station_id":"ce4bgth2rcd13ifvqch0","pricing_plan_id":"cebpf4jnsgd1na2vs0mg"},{"bike_id":"42d75ddc-d462-40bc-a7f3-a489a173066f","system_id":"levelo_inurba_marseille","lat":43.28725,"lon":5.36072,"is_reserved":false,"is_disabled":false,"rental_uris":{"android":"levelo://app?vid=42d75ddc-d462-40bc-a7f3-a489a173066f","ios":"levelo://app?vid=42d75ddc-d462-40bc-a7f3-a489a173066f"},"vehicle_type_id":"4","last_reported":1739366175,"current_range_meters":25600,"station_id":"cki0cbj6b192h4jlfktg","pricing_plan_id":"cebpf4jnsgd1na2vs0mg"},{"bike_id":"e903e33f-f5a5-499e-a34c-22eb3cafde37","system_id":"levelo_inurba_marseille","lat":43.29877,"lon":5.43815,"is_reserved":false,"is_disabled":false,"rental_uris":{"android":"levelo://app?vid=e903e33f-f5a5-499e-a34c-22eb3cafde37","ios":"levelo://app?vid=e903e33f-f5a5-499e-a34c-22eb3cafde37"},"vehicle_type_id":"4","last_reported":1739366175,"current_range_meters":10800,"station_id":"","pricing_plan_id":"cebpf4jnsgd1na2vs0mg"},{"bike_id":"23d748fe-d2fd-4357-8c0a-18133dabd7ec","system_id":"levelo_inurba_marseille","lat":43.32487,"lon":5.36555,"is_reserved":false,"is_disabled":false,"rental_uris":{"android":"levelo://app?vid=23d748fe-d2fd-4357-8c0a-18133dabd7ec","ios":"levelo://app?vid=23d748fe-d2fd-4357-8c0a-18133dabd7ec"},"vehicle_type_id":"4","last_reported":1739366175,"current_range_meters":39200,"station_id":"ce4bhs12rcd13ifvqhvg","pricing_plan_id":"cebpf4jnsgd1na2vs0mg"},{"bike_id":"bc9b283e-d1e3-4ecc-baae-e649ca388761","system_id":"levelo_inurba_marseille","lat":43.30145,"lon":5.37425,"is_reserved":false,"is_disabled":false,"rental_uris":{"android":"levelo://app?vid=bc9b283e-d1e3-4ecc-baae-e649ca388761","ios":"levelo://app?vid=bc9b283e-d1e3-4ecc-baae-e649ca388761"},"vehicle_type_id":"4","last_reported":1739366175,"current_range_meters":33200,"station_id":"ce4bgs92rcd13ifvqcc0","pricing_plan_id":"cebpf4jnsgd1na2vs0mg"},{"bike_id":"3adb6699-f719-4456-92ab-1968693e97fb","system_id":"levelo_inurba_marseille","lat":43.24177,"lon":5.36395,"is_reserved":false,"is_disabled":false,"rental_uris":{"android":"levelo://app?vid=3adb6699-f719-4456-92ab-1968693e97fb","ios":"levelo://app?vid=3adb6699-f719-4456-92ab-1968693e97fb"},"vehicle_type_id":"4","last_reported":1739366175,"current_range_meters":27200,"station_id":"cpo36qri1sfpv3e86is0","pricing_plan_id":"cebpf4jnsgd1na2vs0mg"},{"bike_id":"2db28ac3-3674-40f3-802b-a0f35e971790","system_id":"levelo_inurba_marseille","lat":43.27918,"lon":5.39583,"is_reserved":false,"is_disabled":false,"rental_uris":{"android":"levelo://app?vid=2db28ac3-3674-40f3-802b-a0f35e971790","ios":"levelo://app?vid=2db28ac3-3674-40f3-802b-a0f35e971790"},"vehicle_type_id":"4","last_reported":1739366175,"current_range_meters":8400,"station_id":"ce4bhf92rcd13ifvqf40","pricing_plan_id":"cebpf4jnsgd1na2vs0mg"},{"bike_id":"496fa2ad-a547-4095-b8b9-a29f1a78ab4b","system_id":"levelo_inurba_marseille","lat":43.27816,"lon":5.40725,"is_reserved":false,"is_disabled":false,"rental_uris":{"android":"levelo://app?vid=496fa2ad-a547-4095-b8b9-a29f1a78ab4b","ios":"levelo://app?vid=496fa2ad-a547-4095-b8b9-a29f1a78ab4b"},"vehicle_type_id":"4","last_reported":1739366175,"current_range_meters":32400,"station_id":"ce4bhnh2rcd13ifvqgtg","pricing_plan_id":"cebpf4jnsgd1na2vs0mg"},{"bike_id":"2d708f40-fafd-4352-afb2-83f671d6d30f","system_id":"levelo_inurba_marseille","lat":43.29604,"lon":5.37718,"is_reserved":false,"is_disabled":false,"rental_uris":{"android":"levelo://app?vid=2d708f40-fafd-4352-afb2-83f671d6d30f","ios":"levelo://app?vid=2d708f40-fafd-4352-afb2-83f671d6d30f"},"vehicle_type_id":"4","last_reported":1739366175,"current_range_meters":17600,"station_id":"ce4bgi92rcd13ifvqb90","pricing_plan_id":"cebpf4jnsgd1na2vs0mg"},{"bike_id":"149626b9-1ac5-4f2c-ad21-b13aaef1dba9","system_id":"levelo_inurba_marseille","lat":43.28574,"lon":5.37008,"is_reserved":false,"is_disabled":false,"rental_uris":{"android":"levelo://app?vid=149626b9-1ac5-4f2c-ad21-b13aaef1dba9","ios":"levelo://app?vid=149626b9-1ac5-4f2c-ad21-b13aaef1dba9"},"vehicle_type_id":"4","last_reported":1739366175,"current_range_meters":21600,"station_id":"ce4bht12rcd13ifvqi60","pricing_plan_id":"cebpf4jnsgd1na2vs0mg"},{"bike_id":"211cb129-dca9-4da8-8639-5498c4f8bbc8","system_id":"levelo_inurba_marseille","lat":43.23074,"lon":5.35496,"is_reserved":false,"is_disabled":false,"rental_uris":{"android":"levelo://app?vid=211cb129-dca9-4da8-8639-5498c4f8bbc8","ios":"levelo://app?vid=211cb129-dca9-4da8-8639-5498c4f8bbc8"},"vehicle_type_id":"4","last_reported":1739366175,"current_range_meters":25600,"station_id":"cpo3342slgdg3j2ifvpg","pricing_plan_id":"cebpf4jnsgd1na2vs0mg"},{"bike_id":"45c5718d-4e45-4fa7-9422-612adbf02fc3","system_id":"levelo_inurba_marseille","lat":43.29558,"lon":5.42299,"is_reserved":false,"is_disabled":false,"rental_uris":{"android":"levelo://app?vid=45c5718d-4e45-4fa7-9422-612adbf02fc3","ios":"levelo://app?vid=45c5718d-4e45-4fa7-9422-612adbf02fc3"},"vehicle_type_id":"4","last_reported":1739366175,"current_range_meters":22800,"station_id":"ce4bhph2rcd13ifvqhdg","pricing_plan_id":"cebpf4jnsgd1na2vs0mg"},{"bike_id":"693269d9-6ed0-4fb9-817f-d49481e23c48","system_id":"levelo_inurba_marseille","lat":43.29516,"lon":5.4219,"is_reserved":false,"is_disabled":false,"rental_uris":{"android":"levelo://app?vid=693269d9-6ed0-4fb9-817f-d49481e23c48","ios":"levelo://app?vid=693269d9-6ed0-4fb9-817f-d49481e23c48"},"vehicle_type_id":"4","last_reported":1739366175,"current_range_meters":27200,"station_id":"ce4bhph2rcd13ifvqhdg","pricing_plan_id":"cebpf4jnsgd1na2vs0mg"},{"bike_id":"8e754aaf-d3c5-499b-8f37-074a42397bb2","system_id":"levelo_inurba_marseille","lat":43.29089,"lon":5.38132,"is_reserved":false,"is_disabled":false,"rental_uris":{"android":"levelo://app?vid=8e754aaf-d3c5-499b-8f37-074a42397bb2","ios":"levelo://app?vid=8e754aaf-d3c5-499b-8f37-074a42397bb2"},"vehicle_type_id":"4","last_reported":1739366175,"current_range_meters":16400,"station_id":"ce4bh512rcd13ifvqe2g","pricing_plan_id":"cebpf4jnsgd1na2vs0mg"},{"bike_id":"3d01ee57-be5d-4165-815d-c5b06c8be331","system_id":"levelo_inurba_marseille","lat":43.24995,"lon":5.38928,"is_reserved":false,"is_disabled":false,"rental_uris":{"android":"levelo://app?vid=3d01ee57-be5d-4165-815d-c5b06c8be331","ios":"levelo://app?vid=3d01ee57-be5d-4165-815d-c5b06c8be331"},"vehicle_type_id":"4","last_reported":1739366175,"current_range_meters":39200,"station_id":"ce4bhgp2rcd13ifvqfd0","pricing_plan_id":"cebpf4jnsgd1na2vs0mg"},{"bike_id":"e0464fc4-a003-4688-8872-bb27aca00e58","system_id":"levelo_inurba_marseille","lat":43.29092,"lon":5.38129,"is_reserved":false,"is_disabled":false,"rental_uris":{"android":"levelo://app?vid=e0464fc4-a003-4688-8872-bb27aca00e58","ios":"levelo://app?vid=e0464fc4-a003-4688-8872-bb27aca00e58"},"vehicle_type_id":"4","last_reported":1739366175,"current_range_meters":28400,"station_id":"ce4bh512rcd13ifvqe2g","pricing_plan_id":"cebpf4jnsgd1na2vs0mg"},{"bike_id":"870f7fa6-af19-44f3-af7e-2a740c283a6a","system_id":"levelo_inurba_marseille","lat":43.29169,"lon":5.37158,"is_reserved":false,"is_disabled":false,"rental_uris":{"android":"levelo://app?vid=870f7fa6-af19-44f3-af7e-2a740c283a6a","ios":"levelo://app?vid=870f7fa6-af19-44f3-af7e-2a740c283a6a"},"vehicle_type_id":"4","last_reported":1739366175,"current_range_meters":38800,"station_id":"ce4bha92rcd13ifvqeh0","pricing_plan_id":"cebpf4jnsgd1na2vs0mg"},{"bike_id":"c07ffd3b-1b45-4f4f-af96-2b31373f9d65","system_id":"levelo_inurba_marseille","lat":43.24197,"lon":5.36388,"is_reserved":false,"is_disabled":false,"rental_uris":{"android":"levelo://app?vid=c07ffd3b-1b45-4f4f-af96-2b31373f9d65","ios":"levelo://app?vid=c07ffd3b-1b45-4f4f-af96-2b31373f9d65"},"vehicle_type_id":"4","last_reported":1739366175,"current_range_meters":28000,"station_id":"cpo36qri1sfpv3e86is0","pricing_plan_id":"cebpf4jnsgd1na2vs0mg"},{"bike_id":"76ed4e97-7fa9-4836-bcd3-e52753ef31b4","system_id":"levelo_inurba_marseille","lat":43.29865,"lon":5.36307,"is_reserved":false,"is_disabled":false,"rental_uris":{"android":"levelo://app?vid=76ed4e97-7fa9-4836-bcd3-e52753ef31b4","ios":"levelo://app?vid=76ed4e97-7fa9-4836-bcd3-e52753ef31b4"},"vehicle_type_id":"4","last_reported":1739366175,"current_range_meters":38400,"station_id":"ce4bgpp2rcd13ifvqc3g","pricing_plan_id":"cebpf4jnsgd1na2vs0mg"},{"bike_id":"2074baf4-8b25-4a98-be95-05ac45b40ae1","system_id":"levelo_inurba_marseille","lat":43.31752,"lon":5.39013,"is_reserved":false,"is_disabled":true,"rental_uris":{"android":"levelo://app?vid=2074baf4-8b25-4a98-be95-05ac45b40ae1","ios":"levelo://app?vid=2074baf4-8b25-4a98-be95-05ac45b40ae1"},"vehicle_type_id":"4","last_reported":1739366175,"current_range_meters":38000,"station_id":"ce4bhqp2rcd13ifvqhng","pricing_plan_id":"cebpf4jnsgd1na2vs0mg"},{"bike_id":"d32849cf-4c14-4032-9063-172d06d3f04f","system_id":"levelo_inurba_marseille","lat":43.23201,"lon":5.35557,"is_reserved":false,"is_disabled":false,"rental_uris":{"android":"levelo://app?vid=d32849cf-4c14-4032-9063-172d06d3f04f","ios":"levelo://app?vid=d32849cf-4c14-4032-9063-172d06d3f04f"},"vehicle_type_id":"4","last_reported":1739366175,"current_range_meters":30800,"station_id":"ce4bhu92rcd13ifvqi70","pricing_plan_id":"cebpf4jnsgd1na2vs0mg"},{"bike_id":"2ff86c0c-69fd-4294-8842-114f3593748f","system_id":"levelo_inurba_marseille","lat":43.31345,"lon":5.36725,"is_reserved":false,"is_disabled":false,"rental_uris":{"android":"levelo://app?vid=2ff86c0c-69fd-4294-8842-114f3593748f","ios":"levelo://app?vid=2ff86c0c-69fd-4294-8842-114f3593748f"},"vehicle_type_id":"4","last_reported":1739366175,"current_range_meters":36800,"station_id":"ce4bgr92rcd13ifvqc6g","pricing_plan_id":"cebpf4jnsgd1na2vs0mg"},{"bike_id":"c6339eaf-56e8-4560-a790-bdb55b253869","system_id":"levelo_inurba_marseille","lat":43.29265,"lon":5.38436,"is_reserved":false,"is_disabled":false,"rental_uris":{"android":"levelo://app?vid=c6339eaf-56e8-4560-a790-bdb55b253869","ios":"levelo://app?vid=c6339eaf-56e8-4560-a790-bdb55b253869"},"vehicle_type_id":"4","last_reported":1739366175,"current_range_meters":28800,"station_id":"ce4bh692rcd13ifvqea0","pricing_plan_id":"cebpf4jnsgd1na2vs0mg"},{"bike_id":"1718508b-a124-4004-b648-bc715139650e","system_id":"levelo_inurba_marseille","lat":43.28932,"lon":5.36387,"is_reserved":false,"is_disabled":false,"rental_uris":{"android":"levelo://app?vid=1718508b-a124-4004-b648-bc715139650e","ios":"levelo://app?vid=1718508b-a124-4004-b648-bc715139650e"},"vehicle_type_id":"4","last_reported":1739366175,"current_range_meters":38800,"station_id":"ce4bhc92rcd13ifvqetg","pricing_plan_id":"cebpf4jnsgd1na2vs0mg"},{"bike_id":"536366d2-282b-48e8-9268-35b7ee369088","system_id":"levelo_inurba_marseille","lat":43.25001,"lon":5.38925,"is_reserved":false,"is_disabled":false,"rental_uris":{"android":"levelo://app?vid=536366d2-282b-48e8-9268-35b7ee369088","ios":"levelo://app?vid=536366d2-282b-48e8-9268-35b7ee369088"},"vehicle_type_id":"4","last_reported":1739366175,"current_range_meters":30400,"station_id":"ce4bhgp2rcd13ifvqfd0","pricing_plan_id":"cebpf4jnsgd1na2vs0mg"},{"bike_id":"09a31e22-31a3-4a8b-a8f3-c6b84a9cc357","system_id":"levelo_inurba_marseille","lat":43.27549,"lon":5.38429,"is_reserved":false,"is_disabled":false,"rental_uris":{"android":"levelo://app?vid=09a31e22-31a3-4a8b-a8f3-c6b84a9cc357","ios":"levelo://app?vid=09a31e22-31a3-4a8b-a8f3-c6b84a9cc357"},"vehicle_type_id":"4","last_reported":1739366175,"current_range_meters":24000,"station_id":"ce4bhh92rcd13ifvqfi0","pricing_plan_id":"cebpf4jnsgd1na2vs0mg"},{"bike_id":"b7cfafc0-fba3-47fa-8c3d-d96c6bee1f7a","system_id":"levelo_inurba_marseille","lat":43.24389,"lon":5.37058,"is_reserved":false,"is_disabled":false,"rental_uris":{"android":"levelo://app?vid=b7cfafc0-fba3-47fa-8c3d-d96c6bee1f7a","ios":"levelo://app?vid=b7cfafc0-fba3-47fa-8c3d-d96c6bee1f7a"},"vehicle_type_id":"4","last_reported":1739366175,"current_range_meters":30000,"station_id":"ce4bhhh2rcd13ifvqfk0","pricing_plan_id":"cebpf4jnsgd1na2vs0mg"},{"bike_id":"9ba133ba-7b58-4607-8737-7fb5bce66e58","system_id":"levelo_inurba_marseille","lat":43.2439,"lon":5.37065,"is_reserved":false,"is_disabled":false,"rental_uris":{"android":"levelo://app?vid=9ba133ba-7b58-4607-8737-7fb5bce66e58","ios":"levelo://app?vid=9ba133ba-7b58-4607-8737-7fb5bce66e58"},"vehicle_type_id":"4","last_reported":1739366175,"current_range_meters":38800,"station_id":"ce4bhhh2rcd13ifvqfk0","pricing_plan_id":"cebpf4jnsgd1na2vs0mg"},{"bike_id":"24d2a29b-fa24-4c85-a726-541b11d56bc0","system_id":"levelo_inurba_marseille","lat":43.313556,"lon":5.367256,"is_reserved":false,"is_disabled":false,"rental_uris":{"android":"levelo://app?vid=24d2a29b-fa24-4c85-a726-541b11d56bc0","ios":"levelo://app?vid=24d2a29b-fa24-4c85-a726-541b11d56bc0"},"vehicle_type_id":"4","last_reported":1739366175,"current_range_meters":14000,"station_id":"ce4bgr92rcd13ifvqc6g","pricing_plan_id":"cebpf4jnsgd1na2vs0mg"},{"bike_id":"3e05173f-c640-4ed3-a2ba-c06426ae393a","system_id":"levelo_inurba_marseille","lat":43.29893,"lon":5.39777,"is_reserved":false,"is_disabled":false,"rental_uris":{"android":"levelo://app?vid=3e05173f-c640-4ed3-a2ba-c06426ae393a","ios":"levelo://app?vid=3e05173f-c640-4ed3-a2ba-c06426ae393a"},"vehicle_type_id":"4","last_reported":1739366175,"current_range_meters":39200,"station_id":"ce4bh0h2rcd13ifvqd50","pricing_plan_id":"cebpf4jnsgd1na2vs0mg"},{"bike_id":"8ec577f3-8ca3-449b-97e8-b869a3caa09d","system_id":"levelo_inurba_marseille","lat":43.29561,"lon":5.37511,"is_reserved":false,"is_disabled":false,"rental_uris":{"android":"levelo://app?vid=8ec577f3-8ca3-449b-97e8-b869a3caa09d","ios":"levelo://app?vid=8ec577f3-8ca3-449b-97e8-b869a3caa09d"},"vehicle_type_id":"4","last_reported":1739366175,"current_range_meters":20800,"station_id":"ce4bgh92rcd13ifvqb50","pricing_plan_id":"cebpf4jnsgd1na2vs0mg"},{"bike_id":"14b2070b-6ddc-42e3-b1e8-9c0cbc081f72","system_id":"levelo_inurba_marseille","lat":43.33738,"lon":5.39188,"is_reserved":false,"is_disabled":false,"rental_uris":{"android":"levelo://app?vid=14b2070b-6ddc-42e3-b1e8-9c0cbc081f72","ios":"levelo://app?vid=14b2070b-6ddc-42e3-b1e8-9c0cbc081f72"},"vehicle_type_id":"4","last_reported":1739366175,"current_range_meters":38800,"station_id":"ce4bhr92rcd13ifvqhsg","pricing_plan_id":"cebpf4jnsgd1na2vs0mg"},{"bike_id":"4bbcedc6-dcb6-4c54-8729-7dfa03c3fd3c","system_id":"levelo_inurba_marseille","lat":43.30467,"lon":5.37907,"is_reserved":false,"is_disabled":false,"rental_uris":{"android":"levelo://app?vid=4bbcedc6-dcb6-4c54-8729-7dfa03c3fd3c","ios":"levelo://app?vid=4bbcedc6-dcb6-4c54-8729-7dfa03c3fd3c"},"vehicle_type_id":"4","last_reported":1739366175,"current_range_meters":3600,"station_id":"ce4bgup2rcd13ifvqcn0","pricing_plan_id":"cebpf4jnsgd1na2vs0mg"},{"bike_id":"8bd6ca36-73a4-4e93-8710-0833574e1c13","system_id":"levelo_inurba_marseille","lat":43.28415,"lon":5.34977,"is_reserved":false,"is_disabled":false,"rental_uris":{"android":"levelo://app?vid=8bd6ca36-73a4-4e93-8710-0833574e1c13","ios":"levelo://app?vid=8bd6ca36-73a4-4e93-8710-0833574e1c13"},"vehicle_type_id":"4","last_reported":1739366175,"current_range_meters":16800,"station_id":"ce4bhbh2rcd13ifvqepg","pricing_plan_id":"cebpf4jnsgd1na2vs0mg"},{"bike_id":"a83166f4-1cf5-4d0d-a6dd-f555fdc6444e","system_id":"levelo_inurba_marseille","lat":43.27176,"lon":5.40995,"is_reserved":false,"is_disabled":false,"rental_uris":{"android":"levelo://app?vid=a83166f4-1cf5-4d0d-a6dd-f555fdc6444e","ios":"levelo://app?vid=a83166f4-1cf5-4d0d-a6dd-f555fdc6444e"},"vehicle_type_id":"4","last_reported":1739366175,"current_range_meters":2000,"station_id":"ce4bhl12rcd13ifvqgf0","pricing_plan_id":"cebpf4jnsgd1na2vs0mg"},{"bike_id":"679672e6-2052-4088-a59e-97b09e4b2e39","system_id":"levelo_inurba_marseille","lat":43.28004,"lon":5.40015,"is_reserved":false,"is_disabled":false,"rental_uris":{"android":"levelo://app?vid=679672e6-2052-4088-a59e-97b09e4b2e39","ios":"levelo://app?vid=679672e6-2052-4088-a59e-97b09e4b2e39"},"vehicle_type_id":"4","last_reported":1739366175,"current_range_meters":27200,"station_id":"ce4bho92rcd13ifvqh4g","pricing_plan_id":"cebpf4jnsgd1na2vs0mg"},{"bike_id":"c6e064e2-66be-4a6d-ad32-d649c9969106","system_id":"levelo_inurba_marseille","lat":43.29251,"lon":5.40902,"is_reserved":false,"is_disabled":false,"rental_uris":{"android":"levelo://app?vid=c6e064e2-66be-4a6d-ad32-d649c9969106","ios":"levelo://app?vid=c6e064e2-66be-4a6d-ad32-d649c9969106"},"vehicle_type_id":"4","last_reported":1739366175,"current_range_meters":33600,"station_id":"ce4bh192rcd13ifvqdc0","pricing_plan_id":"cebpf4jnsgd1na2vs0mg"},{"bike_id":"c6db21d7-d9e3-4a71-aaf3-94276ad01457","system_id":"levelo_inurba_marseille","lat":43.32921,"lon":5.36043,"is_reserved":false,"is_disabled":false,"rental_uris":{"android":"levelo://app?vid=c6db21d7-d9e3-4a71-aaf3-94276ad01457","ios":"levelo://app?vid=c6db21d7-d9e3-4a71-aaf3-94276ad01457"},"vehicle_type_id":"4","last_reported":1739366175,"current_range_meters":36800,"station_id":"","pricing_plan_id":"cebpf4jnsgd1na2vs0mg"},{"bike_id":"377cf040-7eb4-443d-88f3-08209509044a","system_id":"levelo_inurba_marseille","lat":43.30156,"lon":5.38087,"is_reserved":false,"is_disabled":false,"rental_uris":{"android":"levelo://app?vid=377cf040-7eb4-443d-88f3-08209509044a","ios":"levelo://app?vid=377cf040-7eb4-443d-88f3-08209509044a"},"vehicle_type_id":"4","last_reported":1739366175,"current_range_meters":16800,"station_id":"ce4bgjp2rcd13ifvqbh0","pricing_plan_id":"cebpf4jnsgd1na2vs0mg"},{"bike_id":"acd088e7-dc82-4cb8-8e19-47754c61567c","system_id":"levelo_inurba_marseille","lat":43.313622,"lon":5.367066,"is_reserved":false,"is_disabled":false,"rental_uris":{"android":"levelo://app?vid=acd088e7-dc82-4cb8-8e19-47754c61567c","ios":"levelo://app?vid=acd088e7-dc82-4cb8-8e19-47754c61567c"},"vehicle_type_id":"4","last_reported":1739366175,"current_range_meters":34000,"station_id":"ce4bgr92rcd13ifvqc6g","pricing_plan_id":"cebpf4jnsgd1na2vs0mg"},{"bike_id":"37fee8de-7920-4095-90fd-dbb82aabca95","system_id":"levelo_inurba_marseille","lat":43.31312,"lon":5.36722,"is_reserved":false,"is_disabled":false,"rental_uris":{"android":"levelo://app?vid=37fee8de-7920-4095-90fd-dbb82aabca95","ios":"levelo://app?vid=37fee8de-7920-4095-90fd-dbb82aabca95"},"vehicle_type_id":"4","last_reported":1739366175,"current_range_meters":28000,"station_id":"ce4bgr92rcd13ifvqc6g","pricing_plan_id":"cebpf4jnsgd1na2vs0mg"},{"bike_id":"201b14f4-65c7-45ff-8010-fe136e6675ac","system_id":"levelo_inurba_marseille","lat":43.2417,"lon":5.3971,"is_reserved":false,"is_disabled":false,"rental_uris":{"android":"levelo://app?vid=201b14f4-65c7-45ff-8010-fe136e6675ac","ios":"levelo://app?vid=201b14f4-65c7-45ff-8010-fe136e6675ac"},"vehicle_type_id":"4","last_reported":1739366175,"current_range_meters":20400,"station_id":"ce4bhn12rcd13ifvqgpg","pricing_plan_id":"cebpf4jnsgd1na2vs0mg"},{"bike_id":"cbf36f90-71c3-43e4-8ad9-c765f367b2ea","system_id":"levelo_inurba_marseille","lat":43.3149,"lon":5.3732,"is_reserved":false,"is_disabled":false,"rental_uris":{"android":"levelo://app?vid=cbf36f90-71c3-43e4-8ad9-c765f367b2ea","ios":"levelo://app?vid=cbf36f90-71c3-43e4-8ad9-c765f367b2ea"},"vehicle_type_id":"4","last_reported":1739366175,"current_range_meters":38800,"station_id":"ce4bgt12rcd13ifvqcd0","pricing_plan_id":"cebpf4jnsgd1na2vs0mg"},{"bike_id":"77cbc246-1758-41d0-ac04-a473b52b3b94","system_id":"levelo_inurba_marseille","lat":43.29604,"lon":5.37711,"is_reserved":false,"is_disabled":false,"rental_uris":{"android":"levelo://app?vid=77cbc246-1758-41d0-ac04-a473b52b3b94","ios":"levelo://app?vid=77cbc246-1758-41d0-ac04-a473b52b3b94"},"vehicle_type_id":"4","last_reported":1739366175,"current_range_meters":38400,"station_id":"ce4bgi92rcd13ifvqb90","pricing_plan_id":"cebpf4jnsgd1na2vs0mg"},{"bike_id":"d621c70c-2587-4929-b5ff-d7c8758fd1f2","system_id":"levelo_inurba_marseille","lat":43.27045,"lon":5.40268,"is_reserved":false,"is_disabled":false,"rental_uris":{"android":"levelo://app?vid=d621c70c-2587-4929-b5ff-d7c8758fd1f2","ios":"levelo://app?vid=d621c70c-2587-4929-b5ff-d7c8758fd1f2"},"vehicle_type_id":"4","last_reported":1739366175,"current_range_meters":2800,"station_id":"ce4bhk92rcd13ifvqgc0","pricing_plan_id":"cebpf4jnsgd1na2vs0mg"},{"bike_id":"6e7d3d9b-4a1e-44cb-a74d-08fc3df39ea4","system_id":"levelo_inurba_marseille","lat":43.25809,"lon":5.40971,"is_reserved":false,"is_disabled":false,"rental_uris":{"android":"levelo://app?vid=6e7d3d9b-4a1e-44cb-a74d-08fc3df39ea4","ios":"levelo://app?vid=6e7d3d9b-4a1e-44cb-a74d-08fc3df39ea4"},"vehicle_type_id":"4","last_reported":1739366175,"current_range_meters":24000,"station_id":"ce4bhm92rcd13ifvqglg","pricing_plan_id":"cebpf4jnsgd1na2vs0mg"},{"bike_id":"509fed5d-b467-4f81-860f-2b5cb9b19322","system_id":"levelo_inurba_marseille","lat":43.30578,"lon":5.39345,"is_reserved":false,"is_disabled":false,"rental_uris":{"android":"levelo://app?vid=509fed5d-b467-4f81-860f-2b5cb9b19322","ios":"levelo://app?vid=509fed5d-b467-4f81-860f-2b5cb9b19322"},"vehicle_type_id":"4","last_reported":1739366175,"current_range_meters":22000,"station_id":"ce4bh0p2rcd13ifvqd80","pricing_plan_id":"cebpf4jnsgd1na2vs0mg"},{"bike_id":"ddbfc913-16cf-4d9f-a892-35d08e1e6767","system_id":"levelo_inurba_marseille","lat":43.29595,"lon":5.36758,"is_reserved":false,"is_disabled":false,"rental_uris":{"android":"levelo://app?vid=ddbfc913-16cf-4d9f-a892-35d08e1e6767","ios":"levelo://app?vid=ddbfc913-16cf-4d9f-a892-35d08e1e6767"},"vehicle_type_id":"4","last_reported":1739366175,"current_range_meters":11200,"station_id":"ce4bgph2rcd13ifvqc2g","pricing_plan_id":"cebpf4jnsgd1na2vs0mg"},{"bike_id":"0a77f424-9d7d-4010-bd33-1687a2ffd57e","system_id":"levelo_inurba_marseille","lat":43.24795,"lon":5.3744,"is_reserved":false,"is_disabled":false,"rental_uris":{"android":"levelo://app?vid=0a77f424-9d7d-4010-bd33-1687a2ffd57e","ios":"levelo://app?vid=0a77f424-9d7d-4010-bd33-1687a2ffd57e"},"vehicle_type_id":"4","last_reported":1739366175,"current_range_meters":10000,"station_id":"ce4bhgh2rcd13ifvqfb0","pricing_plan_id":"cebpf4jnsgd1na2vs0mg"},{"bike_id":"7ceeb2e5-8673-48b0-9f08-9e1430bd1bc6","system_id":"levelo_inurba_marseille","lat":43.28431,"lon":5.38484,"is_reserved":false,"is_disabled":false,"rental_uris":{"android":"levelo://app?vid=7ceeb2e5-8673-48b0-9f08-9e1430bd1bc6","ios":"levelo://app?vid=7ceeb2e5-8673-48b0-9f08-9e1430bd1bc6"},"vehicle_type_id":"4","last_reported":1739366175,"current_range_meters":38800,"station_id":"","pricing_plan_id":"cebpf4jnsgd1na2vs0mg"},{"bike_id":"c2250f20-2283-4e17-b7ce-382f2f740aa1","system_id":"levelo_inurba_marseille","lat":43.24805,"lon":5.37456,"is_reserved":false,"is_disabled":false,"rental_uris":{"android":"levelo://app?vid=c2250f20-2283-4e17-b7ce-382f2f740aa1","ios":"levelo://app?vid=c2250f20-2283-4e17-b7ce-382f2f740aa1"},"vehicle_type_id":"4","last_reported":1739366175,"current_range_meters":38800,"station_id":"ce4bhgh2rcd13ifvqfb0","pricing_plan_id":"cebpf4jnsgd1na2vs0mg"},{"bike_id":"3656b63c-3665-4253-be74-0134df87e332","system_id":"levelo_inurba_marseille","lat":43.26784,"lon":5.39416,"is_reserved":false,"is_disabled":false,"rental_uris":{"android":"levelo://app?vid=3656b63c-3665-4253-be74-0134df87e332","ios":"levelo://app?vid=3656b63c-3665-4253-be74-0134df87e332"},"vehicle_type_id":"4","last_reported":1739366175,"current_range_meters":38000,"station_id":"ce4bhh12rcd13ifvqfg0","pricing_plan_id":"cebpf4jnsgd1na2vs0mg"},{"bike_id":"d52467fa-3015-4742-aee2-f7ab48c12d28","system_id":"levelo_inurba_marseille","lat":43.30305,"lon":5.36898,"is_reserved":false,"is_disabled":false,"rental_uris":{"android":"levelo://app?vid=d52467fa-3015-4742-aee2-f7ab48c12d28","ios":"levelo://app?vid=d52467fa-3015-4742-aee2-f7ab48c12d28"},"vehicle_type_id":"4","last_reported":1739366175,"current_range_meters":14800,"station_id":"ce4bgqh2rcd13ifvqc5g","pricing_plan_id":"cebpf4jnsgd1na2vs0mg"},{"bike_id":"64cf455a-ecc8-403c-bf04-31784242b18d","system_id":"levelo_inurba_marseille","lat":43.29361,"lon":5.37847,"is_reserved":false,"is_disabled":false,"rental_uris":{"android":"levelo://app?vid=64cf455a-ecc8-403c-bf04-31784242b18d","ios":"levelo://app?vid=64cf455a-ecc8-403c-bf04-31784242b18d"},"vehicle_type_id":"4","last_reported":1739366175,"current_range_meters":34800,"station_id":"ce4bgjh2rcd13ifvqbf0","pricing_plan_id":"cebpf4jnsgd1na2vs0mg"},{"bike_id":"fe3424e3-a348-48e5-9e41-be02e3e2afed","system_id":"levelo_inurba_marseille","lat":43.28001,"lon":5.42425,"is_reserved":false,"is_disabled":false,"rental_uris":{"android":"levelo://app?vid=fe3424e3-a348-48e5-9e41-be02e3e2afed","ios":"levelo://app?vid=fe3424e3-a348-48e5-9e41-be02e3e2afed"},"vehicle_type_id":"4","last_reported":1739366175,"current_range_meters":22000,"station_id":"","pricing_plan_id":"cebpf4jnsgd1na2vs0mg"},{"bike_id":"53ffd3c0-9cfe-4361-853a-3d21ebbe0d77","system_id":"levelo_inurba_marseille","lat":43.29054,"lon":5.39969,"is_reserved":false,"is_disabled":false,"rental_uris":{"android":"levelo://app?vid=53ffd3c0-9cfe-4361-853a-3d21ebbe0d77","ios":"levelo://app?vid=53ffd3c0-9cfe-4361-853a-3d21ebbe0d77"},"vehicle_type_id":"4","last_reported":1739366175,"current_range_meters":36400,"station_id":"ce4bh392rcd13ifvqdm0","pricing_plan_id":"cebpf4jnsgd1na2vs0mg"},{"bike_id":"f85fd452-5bde-4296-ab83-dac7111c9b77","system_id":"levelo_inurba_marseille","lat":43.32545,"lon":5.41445,"is_reserved":false,"is_disabled":false,"rental_uris":{"android":"levelo://app?vid=f85fd452-5bde-4296-ab83-dac7111c9b77","ios":"levelo://app?vid=f85fd452-5bde-4296-ab83-dac7111c9b77"},"vehicle_type_id":"4","last_reported":1739366175,"current_range_meters":38000,"station_id":"ce4bhq12rcd13ifvqhhg","pricing_plan_id":"cebpf4jnsgd1na2vs0mg"},{"bike_id":"d3b58dda-3b0c-4227-b0cb-8890146ef189","system_id":"levelo_inurba_marseille","lat":43.30543,"lon":5.3654,"is_reserved":false,"is_disabled":false,"rental_uris":{"android":"levelo://app?vid=d3b58dda-3b0c-4227-b0cb-8890146ef189","ios":"levelo://app?vid=d3b58dda-3b0c-4227-b0cb-8890146ef189"},"vehicle_type_id":"4","last_reported":1739366175,"current_range_meters":38800,"station_id":"ce4bgs12rcd13ifvqcag","pricing_plan_id":"cebpf4jnsgd1na2vs0mg"},{"bike_id":"30b76049-e41b-4adb-862f-755fe2524e05","system_id":"levelo_inurba_marseille","lat":43.288513,"lon":5.393247,"is_reserved":false,"is_disabled":true,"rental_uris":{"android":"levelo://app?vid=30b76049-e41b-4adb-862f-755fe2524e05","ios":"levelo://app?vid=30b76049-e41b-4adb-862f-755fe2524e05"},"vehicle_type_id":"4","last_reported":1739366175,"current_range_meters":36000,"station_id":"","pricing_plan_id":"cebpf4jnsgd1na2vs0mg"},{"bike_id":"ad8b4abb-fa0b-4c1f-abe0-3431ebeb0f61","system_id":"levelo_inurba_marseille","lat":43.26681,"lon":5.38272,"is_reserved":false,"is_disabled":false,"rental_uris":{"android":"levelo://app?vid=ad8b4abb-fa0b-4c1f-abe0-3431ebeb0f61","ios":"levelo://app?vid=ad8b4abb-fa0b-4c1f-abe0-3431ebeb0f61"},"vehicle_type_id":"4","last_reported":1739366175,"current_range_meters":36800,"station_id":"ce4bhg92rcd13ifvqf90","pricing_plan_id":"cebpf4jnsgd1na2vs0mg"},{"bike_id":"922176c1-358f-4563-bcdc-a73cb85fa9ad","system_id":"levelo_inurba_marseille","lat":43.3043,"lon":5.3889,"is_reserved":false,"is_disabled":false,"rental_uris":{"android":"levelo://app?vid=922176c1-358f-4563-bcdc-a73cb85fa9ad","ios":"levelo://app?vid=922176c1-358f-4563-bcdc-a73cb85fa9ad"},"vehicle_type_id":"4","last_reported":1739366175,"current_range_meters":34800,"station_id":"ce4bgk12rcd13ifvqbi0","pricing_plan_id":"cebpf4jnsgd1na2vs0mg"},{"bike_id":"b5c6d8e3-df4e-4921-be7d-a4e22b9e9116","system_id":"levelo_inurba_marseille","lat":43.30571,"lon":5.36711,"is_reserved":false,"is_disabled":false,"rental_uris":{"android":"levelo://app?vid=b5c6d8e3-df4e-4921-be7d-a4e22b9e9116","ios":"levelo://app?vid=b5c6d8e3-df4e-4921-be7d-a4e22b9e9116"},"vehicle_type_id":"4","last_reported":1739366175,"current_range_meters":20000,"station_id":"ce4bgrp2rcd13ifvqc9g","pricing_plan_id":"cebpf4jnsgd1na2vs0mg"},{"bike_id":"86a3e793-aa0e-4be2-a5ae-ebbf4b19b476","system_id":"levelo_inurba_marseille","lat":43.29532,"lon":5.38534,"is_reserved":false,"is_disabled":false,"rental_uris":{"android":"levelo://app?vid=86a3e793-aa0e-4be2-a5ae-ebbf4b19b476","ios":"levelo://app?vid=86a3e793-aa0e-4be2-a5ae-ebbf4b19b476"},"vehicle_type_id":"4","last_reported":1739366175,"current_range_meters":28800,"station_id":"ce4bgih2rcd13ifvqba0","pricing_plan_id":"cebpf4jnsgd1na2vs0mg"},{"bike_id":"dd77d9b1-3fcc-489f-ae09-be267a74a694","system_id":"levelo_inurba_marseille","lat":43.29687,"lon":5.37283,"is_reserved":false,"is_disabled":false,"rental_uris":{"android":"levelo://app?vid=dd77d9b1-3fcc-489f-ae09-be267a74a694","ios":"levelo://app?vid=dd77d9b1-3fcc-489f-ae09-be267a74a694"},"vehicle_type_id":"4","last_reported":1739366175,"current_range_meters":38800,"station_id":"ce4bgk12rcd13ifvqbj0","pricing_plan_id":"cebpf4jnsgd1na2vs0mg"},{"bike_id":"2452517f-7a3c-4d6f-8077-e60bf6c1652c","system_id":"levelo_inurba_marseille","lat":43.2848,"lon":5.3842,"is_reserved":false,"is_disabled":true,"rental_uris":{"android":"levelo://app?vid=2452517f-7a3c-4d6f-8077-e60bf6c1652c","ios":"levelo://app?vid=2452517f-7a3c-4d6f-8077-e60bf6c1652c"},"vehicle_type_id":"4","last_reported":1739366175,"current_range_meters":0,"station_id":"ce4bh512rcd13ifvqe3g","pricing_plan_id":"cebpf4jnsgd1na2vs0mg"},{"bike_id":"f9f30f0b-1a80-4d54-bb89-d92dcc515c4e","system_id":"levelo_inurba_marseille","lat":43.26941,"lon":5.38931,"is_reserved":false,"is_disabled":false,"rental_uris":{"android":"levelo://app?vid=f9f30f0b-1a80-4d54-bb89-d92dcc515c4e","ios":"levelo://app?vid=f9f30f0b-1a80-4d54-bb89-d92dcc515c4e"},"vehicle_type_id":"4","last_reported":1739366175,"current_range_meters":20400,"station_id":"ce4bhhh2rcd13ifvqfl0","pricing_plan_id":"cebpf4jnsgd1na2vs0mg"},{"bike_id":"78d54cec-e701-4caa-af4d-5bc00d2c196f","system_id":"levelo_inurba_marseille","lat":43.2892,"lon":5.38407,"is_reserved":false,"is_disabled":false,"rental_uris":{"android":"levelo://app?vid=78d54cec-e701-4caa-af4d-5bc00d2c196f","ios":"levelo://app?vid=78d54cec-e701-4caa-af4d-5bc00d2c196f"},"vehicle_type_id":"4","last_reported":1739366175,"current_range_meters":34800,"station_id":"ce4bh612rcd13ifvqe6g","pricing_plan_id":"cebpf4jnsgd1na2vs0mg"},{"bike_id":"6f6dba09-9ceb-4ec0-a4eb-10d8b83b36e7","system_id":"levelo_inurba_marseille","lat":43.295227,"lon":5.390535,"is_reserved":false,"is_disabled":false,"rental_uris":{"android":"levelo://app?vid=6f6dba09-9ceb-4ec0-a4eb-10d8b83b36e7","ios":"levelo://app?vid=6f6dba09-9ceb-4ec0-a4eb-10d8b83b36e7"},"vehicle_type_id":"4","last_reported":1739366175,"current_range_meters":34000,"station_id":"ce4bh3p2rcd13ifvqdp0","pricing_plan_id":"cebpf4jnsgd1na2vs0mg"},{"bike_id":"6ac8ed50-e559-41da-9f09-049c8152642a","system_id":"levelo_inurba_marseille","lat":43.28272,"lon":5.35081,"is_reserved":false,"is_disabled":false,"rental_uris":{"android":"levelo://app?vid=6ac8ed50-e559-41da-9f09-049c8152642a","ios":"levelo://app?vid=6ac8ed50-e559-41da-9f09-049c8152642a"},"vehicle_type_id":"4","last_reported":1739366175,"current_range_meters":31200,"station_id":"ce4bhbp2rcd13ifvqerg","pricing_plan_id":"cebpf4jnsgd1na2vs0mg"},{"bike_id":"70e18aa0-65fa-4b5b-9e7a-7c95d30e0723","system_id":"levelo_inurba_marseille","lat":43.31126,"lon":5.37771,"is_reserved":false,"is_disabled":false,"rental_uris":{"android":"levelo://app?vid=70e18aa0-65fa-4b5b-9e7a-7c95d30e0723","ios":"levelo://app?vid=70e18aa0-65fa-4b5b-9e7a-7c95d30e0723"},"vehicle_type_id":"4","last_reported":1739366175,"current_range_meters":22800,"station_id":"ce4bgt92rcd13ifvqcg0","pricing_plan_id":"cebpf4jnsgd1na2vs0mg"},{"bike_id":"017c7154-481b-45a2-ab83-d5a473f21711","system_id":"levelo_inurba_marseille","lat":43.28724,"lon":5.36085,"is_reserved":false,"is_disabled":false,"rental_uris":{"android":"levelo://app?vid=017c7154-481b-45a2-ab83-d5a473f21711","ios":"levelo://app?vid=017c7154-481b-45a2-ab83-d5a473f21711"},"vehicle_type_id":"4","last_reported":1739366175,"current_range_meters":39200,"station_id":"cki0cbj6b192h4jlfktg","pricing_plan_id":"cebpf4jnsgd1na2vs0mg"},{"bike_id":"e7317b5b-173d-4060-8e4e-467fa10d516f","system_id":"levelo_inurba_marseille","lat":43.30232,"lon":5.40032,"is_reserved":false,"is_disabled":true,"rental_uris":{"android":"levelo://app?vid=e7317b5b-173d-4060-8e4e-467fa10d516f","ios":"levelo://app?vid=e7317b5b-173d-4060-8e4e-467fa10d516f"},"vehicle_type_id":"4","last_reported":1739366175,"current_range_meters":8000,"station_id":"","pricing_plan_id":"cebpf4jnsgd1na2vs0mg"},{"bike_id":"83930399-1738-4435-81c0-df3ce39f48fe","system_id":"levelo_inurba_marseille","lat":43.28998,"lon":5.35603,"is_reserved":false,"is_disabled":false,"rental_uris":{"android":"levelo://app?vid=83930399-1738-4435-81c0-df3ce39f48fe","ios":"levelo://app?vid=83930399-1738-4435-81c0-df3ce39f48fe"},"vehicle_type_id":"4","last_reported":1739366175,"current_range_meters":24000,"station_id":"ce4bhb92rcd13ifvqen0","pricing_plan_id":"cebpf4jnsgd1na2vs0mg"},{"bike_id":"a7e849d6-c7d9-4199-9c40-6df8a5e9c3e7","system_id":"levelo_inurba_marseille","lat":43.31213,"lon":5.36833,"is_reserved":false,"is_disabled":false,"rental_uris":{"android":"levelo://app?vid=a7e849d6-c7d9-4199-9c40-6df8a5e9c3e7","ios":"levelo://app?vid=a7e849d6-c7d9-4199-9c40-6df8a5e9c3e7"},"vehicle_type_id":"4","last_reported":1739366175,"current_range_meters":8800,"station_id":"ce4bgl92rcd13ifvqbq0","pricing_plan_id":"cebpf4jnsgd1na2vs0mg"},{"bike_id":"04d4b8ab-1d4d-44ab-9d49-e10f569c0553","system_id":"levelo_inurba_marseille","lat":43.29816,"lon":5.36225,"is_reserved":false,"is_disabled":false,"rental_uris":{"android":"levelo://app?vid=04d4b8ab-1d4d-44ab-9d49-e10f569c0553","ios":"levelo://app?vid=04d4b8ab-1d4d-44ab-9d49-e10f569c0553"},"vehicle_type_id":"4","last_reported":1739366175,"current_range_meters":33200,"station_id":"ce4bgpp2rcd13ifvqc3g","pricing_plan_id":"cebpf4jnsgd1na2vs0mg"},{"bike_id":"7758a3af-2af0-46c6-af72-aa71f1edaeb1","system_id":"levelo_inurba_marseille","lat":43.32656,"lon":5.40989,"is_reserved":false,"is_disabled":false,"rental_uris":{"android":"levelo://app?vid=7758a3af-2af0-46c6-af72-aa71f1edaeb1","ios":"levelo://app?vid=7758a3af-2af0-46c6-af72-aa71f1edaeb1"},"vehicle_type_id":"4","last_reported":1739366175,"current_range_meters":38800,"station_id":"ce4bhpp2rcd13ifvqhgg","pricing_plan_id":"cebpf4jnsgd1na2vs0mg"},{"bike_id":"5477f798-88ef-4e18-becc-9c30c1042f54","system_id":"levelo_inurba_marseille","lat":43.27058,"lon":5.40255,"is_reserved":false,"is_disabled":false,"rental_uris":{"android":"levelo://app?vid=5477f798-88ef-4e18-becc-9c30c1042f54","ios":"levelo://app?vid=5477f798-88ef-4e18-becc-9c30c1042f54"},"vehicle_type_id":"4","last_reported":1739366175,"current_range_meters":26800,"station_id":"ce4bhk92rcd13ifvqgc0","pricing_plan_id":"cebpf4jnsgd1na2vs0mg"},{"bike_id":"824f363c-2d8a-40ee-81b0-f02844ac9fa3","system_id":"levelo_inurba_marseille","lat":43.30168,"lon":5.38083,"is_reserved":false,"is_disabled":false,"rental_uris":{"android":"levelo://app?vid=824f363c-2d8a-40ee-81b0-f02844ac9fa3","ios":"levelo://app?vid=824f363c-2d8a-40ee-81b0-f02844ac9fa3"},"vehicle_type_id":"4","last_reported":1739366175,"current_range_meters":32000,"station_id":"ce4bgjp2rcd13ifvqbh0","pricing_plan_id":"cebpf4jnsgd1na2vs0mg"},{"bike_id":"c4813b27-4250-43ea-8be5-ccd7321d2af3","system_id":"levelo_inurba_marseille","lat":43.28217,"lon":5.36983,"is_reserved":false,"is_disabled":false,"rental_uris":{"android":"levelo://app?vid=c4813b27-4250-43ea-8be5-ccd7321d2af3","ios":"levelo://app?vid=c4813b27-4250-43ea-8be5-ccd7321d2af3"},"vehicle_type_id":"4","last_reported":1739366175,"current_range_meters":17600,"station_id":"","pricing_plan_id":"cebpf4jnsgd1na2vs0mg"},{"bike_id":"6bd6ade3-a369-4327-a01b-15150508c645","system_id":"levelo_inurba_marseille","lat":43.2512,"lon":5.40317,"is_reserved":false,"is_disabled":false,"rental_uris":{"android":"levelo://app?vid=6bd6ade3-a369-4327-a01b-15150508c645","ios":"levelo://app?vid=6bd6ade3-a369-4327-a01b-15150508c645"},"vehicle_type_id":"4","last_reported":1739366175,"current_range_meters":38800,"station_id":"ce4bhlh2rcd13ifvqgig","pricing_plan_id":"cebpf4jnsgd1na2vs0mg"},{"bike_id":"2f6ca5c9-7339-425d-96d9-1012c8a7d24d","system_id":"levelo_inurba_marseille","lat":43.23148,"lon":5.4372,"is_reserved":false,"is_disabled":false,"rental_uris":{"android":"levelo://app?vid=2f6ca5c9-7339-425d-96d9-1012c8a7d24d","ios":"levelo://app?vid=2f6ca5c9-7339-425d-96d9-1012c8a7d24d"},"vehicle_type_id":"4","last_reported":1739366175,"current_range_meters":20000,"station_id":"ce4bhmp2rcd13ifvqgog","pricing_plan_id":"cebpf4jnsgd1na2vs0mg"},{"bike_id":"343b4f1e-3215-4cb8-a37a-cac365569d0a","system_id":"levelo_inurba_marseille","lat":43.30602,"lon":5.39352,"is_reserved":false,"is_disabled":false,"rental_uris":{"android":"levelo://app?vid=343b4f1e-3215-4cb8-a37a-cac365569d0a","ios":"levelo://app?vid=343b4f1e-3215-4cb8-a37a-cac365569d0a"},"vehicle_type_id":"4","last_reported":1739366175,"current_range_meters":22800,"station_id":"ce4bh0p2rcd13ifvqd80","pricing_plan_id":"cebpf4jnsgd1na2vs0mg"},{"bike_id":"a7cdfdf5-0a50-4326-b65d-a1fde3ea796b","system_id":"levelo_inurba_marseille","lat":43.30547,"lon":5.36538,"is_reserved":false,"is_disabled":false,"rental_uris":{"android":"levelo://app?vid=a7cdfdf5-0a50-4326-b65d-a1fde3ea796b","ios":"levelo://app?vid=a7cdfdf5-0a50-4326-b65d-a1fde3ea796b"},"vehicle_type_id":"4","last_reported":1739366175,"current_range_meters":35200,"station_id":"ce4bgs12rcd13ifvqcag","pricing_plan_id":"cebpf4jnsgd1na2vs0mg"},{"bike_id":"36ff92ad-ebc1-4fd8-8dd7-e924b8bea389","system_id":"levelo_inurba_marseille","lat":43.30468,"lon":5.37895,"is_reserved":false,"is_disabled":true,"rental_uris":{"android":"levelo://app?vid=36ff92ad-ebc1-4fd8-8dd7-e924b8bea389","ios":"levelo://app?vid=36ff92ad-ebc1-4fd8-8dd7-e924b8bea389"},"vehicle_type_id":"4","last_reported":1739366175,"current_range_meters":17600,"station_id":"ce4bho92rcd13ifvqh3g","pricing_plan_id":"cebpf4jnsgd1na2vs0mg"},{"bike_id":"de19df19-591f-45b3-b782-a7b8f9bb3f69","system_id":"levelo_inurba_marseille","lat":43.25111,"lon":5.40349,"is_reserved":false,"is_disabled":false,"rental_uris":{"android":"levelo://app?vid=de19df19-591f-45b3-b782-a7b8f9bb3f69","ios":"levelo://app?vid=de19df19-591f-45b3-b782-a7b8f9bb3f69"},"vehicle_type_id":"4","last_reported":1739366175,"current_range_meters":8800,"station_id":"ce4bhlh2rcd13ifvqgig","pricing_plan_id":"cebpf4jnsgd1na2vs0mg"},{"bike_id":"7399132f-cac0-47dd-97c2-a8a020c2c9ec","system_id":"levelo_inurba_marseille","lat":43.25932,"lon":5.40888,"is_reserved":false,"is_disabled":false,"rental_uris":{"android":"levelo://app?vid=7399132f-cac0-47dd-97c2-a8a020c2c9ec","ios":"levelo://app?vid=7399132f-cac0-47dd-97c2-a8a020c2c9ec"},"vehicle_type_id":"4","last_reported":1739366175,"current_range_meters":30400,"station_id":"ce4bhm92rcd13ifvqglg","pricing_plan_id":"cebpf4jnsgd1na2vs0mg"},{"bike_id":"2c27f1df-0c75-4df0-8fa2-7fffe3fbcebe","system_id":"levelo_inurba_marseille","lat":43.30168,"lon":5.38074,"is_reserved":false,"is_disabled":false,"rental_uris":{"android":"levelo://app?vid=2c27f1df-0c75-4df0-8fa2-7fffe3fbcebe","ios":"levelo://app?vid=2c27f1df-0c75-4df0-8fa2-7fffe3fbcebe"},"vehicle_type_id":"4","last_reported":1739366175,"current_range_meters":35200,"station_id":"ce4bgjp2rcd13ifvqbh0","pricing_plan_id":"cebpf4jnsgd1na2vs0mg"},{"bike_id":"ca8a5279-544b-4153-bef1-c9511e7c0ee9","system_id":"levelo_inurba_marseille","lat":43.23166,"lon":5.43716,"is_reserved":false,"is_disabled":false,"rental_uris":{"android":"levelo://app?vid=ca8a5279-544b-4153-bef1-c9511e7c0ee9","ios":"levelo://app?vid=ca8a5279-544b-4153-bef1-c9511e7c0ee9"},"vehicle_type_id":"4","last_reported":1739366175,"current_range_meters":12800,"station_id":"ce4bhmp2rcd13ifvqgog","pricing_plan_id":"cebpf4jnsgd1na2vs0mg"},{"bike_id":"9b5805ff-b000-4f23-9cca-899a14f9357e","system_id":"levelo_inurba_marseille","lat":43.29573,"lon":5.3998,"is_reserved":false,"is_disabled":false,"rental_uris":{"android":"levelo://app?vid=9b5805ff-b000-4f23-9cca-899a14f9357e","ios":"levelo://app?vid=9b5805ff-b000-4f23-9cca-899a14f9357e"},"vehicle_type_id":"4","last_reported":1739366175,"current_range_meters":35200,"station_id":"ce4bh312rcd13ifvqdj0","pricing_plan_id":"cebpf4jnsgd1na2vs0mg"},{"bike_id":"d25ee3e8-855e-4c6c-a4d7-6dd3de45a53d","system_id":"levelo_inurba_marseille","lat":43.27993,"lon":5.41668,"is_reserved":false,"is_disabled":false,"rental_uris":{"android":"levelo://app?vid=d25ee3e8-855e-4c6c-a4d7-6dd3de45a53d","ios":"levelo://app?vid=d25ee3e8-855e-4c6c-a4d7-6dd3de45a53d"},"vehicle_type_id":"4","last_reported":1739366175,"current_range_meters":39200,"station_id":"ce4bho12rcd13ifvqh1g","pricing_plan_id":"cebpf4jnsgd1na2vs0mg"},{"bike_id":"ed524d48-7f6e-4ed6-b5a4-217506bf7015","system_id":"levelo_inurba_marseille","lat":43.25568,"lon":5.38246,"is_reserved":false,"is_disabled":false,"rental_uris":{"android":"levelo://app?vid=ed524d48-7f6e-4ed6-b5a4-217506bf7015","ios":"levelo://app?vid=ed524d48-7f6e-4ed6-b5a4-217506bf7015"},"vehicle_type_id":"4","last_reported":1739366175,"current_range_meters":38800,"station_id":"ce4bhih2rcd13ifvqfs0","pricing_plan_id":"cebpf4jnsgd1na2vs0mg"},{"bike_id":"50d92cd1-8c5f-4115-8b0a-e1a07714df94","system_id":"levelo_inurba_marseille","lat":43.30651,"lon":5.401,"is_reserved":false,"is_disabled":false,"rental_uris":{"android":"levelo://app?vid=50d92cd1-8c5f-4115-8b0a-e1a07714df94","ios":"levelo://app?vid=50d92cd1-8c5f-4115-8b0a-e1a07714df94"},"vehicle_type_id":"4","last_reported":1739366175,"current_range_meters":13600,"station_id":"ce4bh112rcd13ifvqda0","pricing_plan_id":"cebpf4jnsgd1na2vs0mg"},{"bike_id":"ee2e1f34-7a57-4fc7-881f-b33a3e6cdadf","system_id":"levelo_inurba_marseille","lat":43.29633,"lon":5.37179,"is_reserved":false,"is_disabled":false,"rental_uris":{"android":"levelo://app?vid=ee2e1f34-7a57-4fc7-881f-b33a3e6cdadf","ios":"levelo://app?vid=ee2e1f34-7a57-4fc7-881f-b33a3e6cdadf"},"vehicle_type_id":"4","last_reported":1739366175,"current_range_meters":36000,"station_id":"ce4bgnh2rcd13ifvqc0g","pricing_plan_id":"cebpf4jnsgd1na2vs0mg"},{"bike_id":"8d2d4012-ff69-4800-927a-45caff6cd054","system_id":"levelo_inurba_marseille","lat":43.2315,"lon":5.43673,"is_reserved":false,"is_disabled":false,"rental_uris":{"android":"levelo://app?vid=8d2d4012-ff69-4800-927a-45caff6cd054","ios":"levelo://app?vid=8d2d4012-ff69-4800-927a-45caff6cd054"},"vehicle_type_id":"4","last_reported":1739366175,"current_range_meters":16000,"station_id":"ce4bhmp2rcd13ifvqgog","pricing_plan_id":"cebpf4jnsgd1na2vs0mg"},{"bike_id":"1ec14052-2d33-4aa1-9ab8-58cc71db74d1","system_id":"levelo_inurba_marseille","lat":43.2417,"lon":5.364,"is_reserved":false,"is_disabled":false,"rental_uris":{"android":"levelo://app?vid=1ec14052-2d33-4aa1-9ab8-58cc71db74d1","ios":"levelo://app?vid=1ec14052-2d33-4aa1-9ab8-58cc71db74d1"},"vehicle_type_id":"4","last_reported":1739366175,"current_range_meters":9600,"station_id":"cpo36qri1sfpv3e86is0","pricing_plan_id":"cebpf4jnsgd1na2vs0mg"},{"bike_id":"6e58a69c-2a4e-4c49-840d-6e728a603acb","system_id":"levelo_inurba_marseille","lat":43.23066,"lon":5.35492,"is_reserved":false,"is_disabled":false,"rental_uris":{"android":"levelo://app?vid=6e58a69c-2a4e-4c49-840d-6e728a603acb","ios":"levelo://app?vid=6e58a69c-2a4e-4c49-840d-6e728a603acb"},"vehicle_type_id":"4","last_reported":1739366175,"current_range_meters":9200,"station_id":"cpo3342slgdg3j2ifvpg","pricing_plan_id":"cebpf4jnsgd1na2vs0mg"},{"bike_id":"714e823e-a106-446c-93c5-a960f9e5752a","system_id":"levelo_inurba_marseille","lat":43.30594,"lon":5.39356,"is_reserved":false,"is_disabled":false,"rental_uris":{"android":"levelo://app?vid=714e823e-a106-446c-93c5-a960f9e5752a","ios":"levelo://app?vid=714e823e-a106-446c-93c5-a960f9e5752a"},"vehicle_type_id":"4","last_reported":1739366175,"current_range_meters":33600,"station_id":"ce4bh0p2rcd13ifvqd80","pricing_plan_id":"cebpf4jnsgd1na2vs0mg"},{"bike_id":"f94040f9-28ae-4bd8-908b-dd7d3707f4e8","system_id":"levelo_inurba_marseille","lat":43.23156,"lon":5.43724,"is_reserved":false,"is_disabled":true,"rental_uris":{"android":"levelo://app?vid=f94040f9-28ae-4bd8-908b-dd7d3707f4e8","ios":"levelo://app?vid=f94040f9-28ae-4bd8-908b-dd7d3707f4e8"},"vehicle_type_id":"4","last_reported":1739366175,"current_range_meters":0,"station_id":"ce4bhmp2rcd13ifvqgog","pricing_plan_id":"cebpf4jnsgd1na2vs0mg"},{"bike_id":"6d3495b4-e9b7-44ba-90d1-92fb4b51e922","system_id":"levelo_inurba_marseille","lat":43.33606,"lon":5.4103,"is_reserved":false,"is_disabled":false,"rental_uris":{"android":"levelo://app?vid=6d3495b4-e9b7-44ba-90d1-92fb4b51e922","ios":"levelo://app?vid=6d3495b4-e9b7-44ba-90d1-92fb4b51e922"},"vehicle_type_id":"4","last_reported":1739366175,"current_range_meters":7200,"station_id":"ce4bhqh2rcd13ifvqhmg","pricing_plan_id":"cebpf4jnsgd1na2vs0mg"},{"bike_id":"3b223bb0-9a60-42b1-b1a9-6cf049a5235d","system_id":"levelo_inurba_marseille","lat":43.243984,"lon":5.37054,"is_reserved":false,"is_disabled":false,"rental_uris":{"android":"levelo://app?vid=3b223bb0-9a60-42b1-b1a9-6cf049a5235d","ios":"levelo://app?vid=3b223bb0-9a60-42b1-b1a9-6cf049a5235d"},"vehicle_type_id":"4","last_reported":1739366175,"current_range_meters":19200,"station_id":"ce4bhhh2rcd13ifvqfk0","pricing_plan_id":"cebpf4jnsgd1na2vs0mg"},{"bike_id":"fc855d4e-cf92-48ad-b751-57eb2469a89a","system_id":"levelo_inurba_marseille","lat":43.3247,"lon":5.36556,"is_reserved":false,"is_disabled":false,"rental_uris":{"android":"levelo://app?vid=fc855d4e-cf92-48ad-b751-57eb2469a89a","ios":"levelo://app?vid=fc855d4e-cf92-48ad-b751-57eb2469a89a"},"vehicle_type_id":"4","last_reported":1739366175,"current_range_meters":38800,"station_id":"ce4bhs12rcd13ifvqhvg","pricing_plan_id":"cebpf4jnsgd1na2vs0mg"},{"bike_id":"79df8d93-a019-4f4d-ad9b-607d770a7910","system_id":"levelo_inurba_marseille","lat":43.29413,"lon":5.38905,"is_reserved":false,"is_disabled":false,"rental_uris":{"android":"levelo://app?vid=79df8d93-a019-4f4d-ad9b-607d770a7910","ios":"levelo://app?vid=79df8d93-a019-4f4d-ad9b-607d770a7910"},"vehicle_type_id":"4","last_reported":1739366175,"current_range_meters":22000,"station_id":"","pricing_plan_id":"cebpf4jnsgd1na2vs0mg"},{"bike_id":"5fa39c1b-7382-423d-aea7-6be3e5fad12f","system_id":"levelo_inurba_marseille","lat":43.25495,"lon":5.37649,"is_reserved":false,"is_disabled":false,"rental_uris":{"android":"levelo://app?vid=5fa39c1b-7382-423d-aea7-6be3e5fad12f","ios":"levelo://app?vid=5fa39c1b-7382-423d-aea7-6be3e5fad12f"},"vehicle_type_id":"4","last_reported":1739366175,"current_range_meters":30400,"station_id":"ce4bhh12rcd13ifvqff0","pricing_plan_id":"cebpf4jnsgd1na2vs0mg"},{"bike_id":"21414c14-4b39-44d3-8fad-9e7204749271","system_id":"levelo_inurba_marseille","lat":43.2997,"lon":5.38482,"is_reserved":false,"is_disabled":false,"rental_uris":{"android":"levelo://app?vid=21414c14-4b39-44d3-8fad-9e7204749271","ios":"levelo://app?vid=21414c14-4b39-44d3-8fad-9e7204749271"},"vehicle_type_id":"4","last_reported":1739366175,"current_range_meters":38000,"station_id":"ce4bgj92rcd13ifvqbd0","pricing_plan_id":"cebpf4jnsgd1na2vs0mg"},{"bike_id":"9b02ba68-14be-47ff-96d9-441235861991","system_id":"levelo_inurba_marseille","lat":43.30549,"lon":5.36526,"is_reserved":false,"is_disabled":false,"rental_uris":{"android":"levelo://app?vid=9b02ba68-14be-47ff-96d9-441235861991","ios":"levelo://app?vid=9b02ba68-14be-47ff-96d9-441235861991"},"vehicle_type_id":"4","last_reported":1739366175,"current_range_meters":34800,"station_id":"ce4bgs12rcd13ifvqcag","pricing_plan_id":"cebpf4jnsgd1na2vs0mg"},{"bike_id":"18db5a5b-698f-4b53-a652-998bb2486d1b","system_id":"levelo_inurba_marseille","lat":43.30922,"lon":5.40164,"is_reserved":false,"is_disabled":false,"rental_uris":{"android":"levelo://app?vid=18db5a5b-698f-4b53-a652-998bb2486d1b","ios":"levelo://app?vid=18db5a5b-698f-4b53-a652-998bb2486d1b"},"vehicle_type_id":"4","last_reported":1739366175,"current_range_meters":38800,"station_id":"ce4bgvp2rcd13ifvqct0","pricing_plan_id":"cebpf4jnsgd1na2vs0mg"},{"bike_id":"9b2f27b9-cc53-4a28-88cb-f588fa596c80","system_id":"levelo_inurba_marseille","lat":43.29969,"lon":5.37173,"is_reserved":false,"is_disabled":false,"rental_uris":{"android":"levelo://app?vid=9b2f27b9-cc53-4a28-88cb-f588fa596c80","ios":"levelo://app?vid=9b2f27b9-cc53-4a28-88cb-f588fa596c80"},"vehicle_type_id":"4","last_reported":1739366175,"current_range_meters":39200,"station_id":"ce4bgr92rcd13ifvqc7g","pricing_plan_id":"cebpf4jnsgd1na2vs0mg"},{"bike_id":"9e959baa-c12c-421b-ae7e-498336eaac08","system_id":"levelo_inurba_marseille","lat":43.25003,"lon":5.3893,"is_reserved":false,"is_disabled":false,"rental_uris":{"android":"levelo://app?vid=9e959baa-c12c-421b-ae7e-498336eaac08","ios":"levelo://app?vid=9e959baa-c12c-421b-ae7e-498336eaac08"},"vehicle_type_id":"4","last_reported":1739366175,"current_range_meters":30400,"station_id":"ce4bhgp2rcd13ifvqfd0","pricing_plan_id":"cebpf4jnsgd1na2vs0mg"},{"bike_id":"95238438-aee1-472d-8c03-6f5da0f062d1","system_id":"levelo_inurba_marseille","lat":43.31359,"lon":5.36687,"is_reserved":false,"is_disabled":false,"rental_uris":{"android":"levelo://app?vid=95238438-aee1-472d-8c03-6f5da0f062d1","ios":"levelo://app?vid=95238438-aee1-472d-8c03-6f5da0f062d1"},"vehicle_type_id":"4","last_reported":1739366175,"current_range_meters":16000,"station_id":"ce4bgr92rcd13ifvqc6g","pricing_plan_id":"cebpf4jnsgd1na2vs0mg"},{"bike_id":"8368b656-79bc-48cc-9e88-84edad523bd2","system_id":"levelo_inurba_marseille","lat":43.27813,"lon":5.40708,"is_reserved":false,"is_disabled":false,"rental_uris":{"android":"levelo://app?vid=8368b656-79bc-48cc-9e88-84edad523bd2","ios":"levelo://app?vid=8368b656-79bc-48cc-9e88-84edad523bd2"},"vehicle_type_id":"4","last_reported":1739366175,"current_range_meters":8800,"station_id":"ce4bhnh2rcd13ifvqgtg","pricing_plan_id":"cebpf4jnsgd1na2vs0mg"},{"bike_id":"b1898baf-b8a9-4a30-b162-de94b403ca66","system_id":"levelo_inurba_marseille","lat":43.30488,"lon":5.37913,"is_reserved":false,"is_disabled":false,"rental_uris":{"android":"levelo://app?vid=b1898baf-b8a9-4a30-b162-de94b403ca66","ios":"levelo://app?vid=b1898baf-b8a9-4a30-b162-de94b403ca66"},"vehicle_type_id":"4","last_reported":1739366175,"current_range_meters":37600,"station_id":"ce4bgup2rcd13ifvqcn0","pricing_plan_id":"cebpf4jnsgd1na2vs0mg"},{"bike_id":"b0b937cb-3ada-41b7-9bd4-0b703be0c2a5","system_id":"levelo_inurba_marseille","lat":43.23145,"lon":5.43718,"is_reserved":false,"is_disabled":false,"rental_uris":{"android":"levelo://app?vid=b0b937cb-3ada-41b7-9bd4-0b703be0c2a5","ios":"levelo://app?vid=b0b937cb-3ada-41b7-9bd4-0b703be0c2a5"},"vehicle_type_id":"4","last_reported":1739366175,"current_range_meters":10800,"station_id":"ce4bhmp2rcd13ifvqgog","pricing_plan_id":"cebpf4jnsgd1na2vs0mg"},{"bike_id":"dd7e4e2f-f2db-4c41-9b95-8e20b6da1267","system_id":"levelo_inurba_marseille","lat":43.32481,"lon":5.36576,"is_reserved":false,"is_disabled":false,"rental_uris":{"android":"levelo://app?vid=dd7e4e2f-f2db-4c41-9b95-8e20b6da1267","ios":"levelo://app?vid=dd7e4e2f-f2db-4c41-9b95-8e20b6da1267"},"vehicle_type_id":"4","last_reported":1739366175,"current_range_meters":12000,"station_id":"ce4bhs12rcd13ifvqhvg","pricing_plan_id":"cebpf4jnsgd1na2vs0mg"},{"bike_id":"d06b3b54-dc24-493e-97db-e54b37ab5416","system_id":"levelo_inurba_marseille","lat":43.3054,"lon":5.36537,"is_reserved":false,"is_disabled":false,"rental_uris":{"android":"levelo://app?vid=d06b3b54-dc24-493e-97db-e54b37ab5416","ios":"levelo://app?vid=d06b3b54-dc24-493e-97db-e54b37ab5416"},"vehicle_type_id":"4","last_reported":1739366175,"current_range_meters":26800,"station_id":"ce4bgs12rcd13ifvqcag","pricing_plan_id":"cebpf4jnsgd1na2vs0mg"},{"bike_id":"dad6eda5-21a3-483b-bf5d-1360d5b1eb1c","system_id":"levelo_inurba_marseille","lat":43.30913,"lon":5.36849,"is_reserved":false,"is_disabled":false,"rental_uris":{"android":"levelo://app?vid=dad6eda5-21a3-483b-bf5d-1360d5b1eb1c","ios":"levelo://app?vid=dad6eda5-21a3-483b-bf5d-1360d5b1eb1c"},"vehicle_type_id":"4","last_reported":1739366175,"current_range_meters":30400,"station_id":"ce4bgn92rcd13ifvqbvg","pricing_plan_id":"cebpf4jnsgd1na2vs0mg"},{"bike_id":"64a4afed-394e-48fc-9f2c-d35a6553ee2a","system_id":"levelo_inurba_marseille","lat":43.3043,"lon":5.39748,"is_reserved":false,"is_disabled":false,"rental_uris":{"android":"levelo://app?vid=64a4afed-394e-48fc-9f2c-d35a6553ee2a","ios":"levelo://app?vid=64a4afed-394e-48fc-9f2c-d35a6553ee2a"},"vehicle_type_id":"4","last_reported":1739366175,"current_range_meters":22800,"station_id":"ce4bh092rcd13ifvqd20","pricing_plan_id":"cebpf4jnsgd1na2vs0mg"},{"bike_id":"0a7d28ac-16e5-459a-9e3d-51b36dee94ec","system_id":"levelo_inurba_marseille","lat":43.30574,"lon":5.36541,"is_reserved":false,"is_disabled":false,"rental_uris":{"android":"levelo://app?vid=0a7d28ac-16e5-459a-9e3d-51b36dee94ec","ios":"levelo://app?vid=0a7d28ac-16e5-459a-9e3d-51b36dee94ec"},"vehicle_type_id":"4","last_reported":1739366175,"current_range_meters":25200,"station_id":"ce4bgs12rcd13ifvqcag","pricing_plan_id":"cebpf4jnsgd1na2vs0mg"},{"bike_id":"15ee7139-10dc-4fac-a480-f569a3ba5357","system_id":"levelo_inurba_marseille","lat":43.30165,"lon":5.38097,"is_reserved":false,"is_disabled":false,"rental_uris":{"android":"levelo://app?vid=15ee7139-10dc-4fac-a480-f569a3ba5357","ios":"levelo://app?vid=15ee7139-10dc-4fac-a480-f569a3ba5357"},"vehicle_type_id":"4","last_reported":1739366175,"current_range_meters":38800,"station_id":"ce4bgjp2rcd13ifvqbh0","pricing_plan_id":"cebpf4jnsgd1na2vs0mg"},{"bike_id":"91efa81f-bcfa-46f6-bc90-09ce14e94cb8","system_id":"levelo_inurba_marseille","lat":43.29813,"lon":5.38128,"is_reserved":false,"is_disabled":false,"rental_uris":{"android":"levelo://app?vid=91efa81f-bcfa-46f6-bc90-09ce14e94cb8","ios":"levelo://app?vid=91efa81f-bcfa-46f6-bc90-09ce14e94cb8"},"vehicle_type_id":"4","last_reported":1739366175,"current_range_meters":38400,"station_id":"ce4bgip2rcd13ifvqbb0","pricing_plan_id":"cebpf4jnsgd1na2vs0mg"},{"bike_id":"ab909ba3-48d2-452b-b4b4-0bfd6be14168","system_id":"levelo_inurba_marseille","lat":43.33596,"lon":5.40974,"is_reserved":false,"is_disabled":false,"rental_uris":{"android":"levelo://app?vid=ab909ba3-48d2-452b-b4b4-0bfd6be14168","ios":"levelo://app?vid=ab909ba3-48d2-452b-b4b4-0bfd6be14168"},"vehicle_type_id":"4","last_reported":1739366175,"current_range_meters":38800,"station_id":"ce4bhqh2rcd13ifvqhmg","pricing_plan_id":"cebpf4jnsgd1na2vs0mg"},{"bike_id":"beac2093-e3f1-4a43-875b-f5700b6484b8","system_id":"levelo_inurba_marseille","lat":43.32544,"lon":5.41437,"is_reserved":false,"is_disabled":false,"rental_uris":{"android":"levelo://app?vid=beac2093-e3f1-4a43-875b-f5700b6484b8","ios":"levelo://app?vid=beac2093-e3f1-4a43-875b-f5700b6484b8"},"vehicle_type_id":"4","last_reported":1739366175,"current_range_meters":32800,"station_id":"ce4bhq12rcd13ifvqhhg","pricing_plan_id":"cebpf4jnsgd1na2vs0mg"},{"bike_id":"0fb30756-cd50-4cd1-ba06-1ebd026d9274","system_id":"levelo_inurba_marseille","lat":43.25004,"lon":5.38868,"is_reserved":false,"is_disabled":false,"rental_uris":{"android":"levelo://app?vid=0fb30756-cd50-4cd1-ba06-1ebd026d9274","ios":"levelo://app?vid=0fb30756-cd50-4cd1-ba06-1ebd026d9274"},"vehicle_type_id":"4","last_reported":1739366175,"current_range_meters":27200,"station_id":"ce4bhgp2rcd13ifvqfd0","pricing_plan_id":"cebpf4jnsgd1na2vs0mg"},{"bike_id":"c3e70ac6-c957-435c-9332-228defae339e","system_id":"levelo_inurba_marseille","lat":43.33611,"lon":5.41033,"is_reserved":false,"is_disabled":false,"rental_uris":{"android":"levelo://app?vid=c3e70ac6-c957-435c-9332-228defae339e","ios":"levelo://app?vid=c3e70ac6-c957-435c-9332-228defae339e"},"vehicle_type_id":"4","last_reported":1739366175,"current_range_meters":33600,"station_id":"ce4bhqh2rcd13ifvqhmg","pricing_plan_id":"cebpf4jnsgd1na2vs0mg"},{"bike_id":"9dbb02c4-e9d3-4565-9a7b-78ece6853bf1","system_id":"levelo_inurba_marseille","lat":43.29419,"lon":5.38628,"is_reserved":false,"is_disabled":false,"rental_uris":{"android":"levelo://app?vid=9dbb02c4-e9d3-4565-9a7b-78ece6853bf1","ios":"levelo://app?vid=9dbb02c4-e9d3-4565-9a7b-78ece6853bf1"},"vehicle_type_id":"4","last_reported":1739366175,"current_range_meters":25200,"station_id":"ce4bh2h2rcd13ifvqdh0","pricing_plan_id":"cebpf4jnsgd1na2vs0mg"},{"bike_id":"b0f70249-6360-4dc3-a83a-fd73a6b534c8","system_id":"levelo_inurba_marseille","lat":43.32154,"lon":5.3847,"is_reserved":false,"is_disabled":false,"rental_uris":{"android":"levelo://app?vid=b0f70249-6360-4dc3-a83a-fd73a6b534c8","ios":"levelo://app?vid=b0f70249-6360-4dc3-a83a-fd73a6b534c8"},"vehicle_type_id":"4","last_reported":1739366175,"current_range_meters":33600,"station_id":"","pricing_plan_id":"cebpf4jnsgd1na2vs0mg"},{"bike_id":"54ce597b-1ca1-4d62-923d-d4b29eec04b3","system_id":"levelo_inurba_marseille","lat":43.31131,"lon":5.38261,"is_reserved":false,"is_disabled":false,"rental_uris":{"android":"levelo://app?vid=54ce597b-1ca1-4d62-923d-d4b29eec04b3","ios":"levelo://app?vid=54ce597b-1ca1-4d62-923d-d4b29eec04b3"},"vehicle_type_id":"4","last_reported":1739366175,"current_range_meters":15200,"station_id":"","pricing_plan_id":"cebpf4jnsgd1na2vs0mg"},{"bike_id":"7c0b6dad-6811-4e5b-951d-59b914288aee","system_id":"levelo_inurba_marseille","lat":43.27941,"lon":5.4105,"is_reserved":false,"is_disabled":false,"rental_uris":{"android":"levelo://app?vid=7c0b6dad-6811-4e5b-951d-59b914288aee","ios":"levelo://app?vid=7c0b6dad-6811-4e5b-951d-59b914288aee"},"vehicle_type_id":"4","last_reported":1739366175,"current_range_meters":16400,"station_id":"ce4bhnp2rcd13ifvqh0g","pricing_plan_id":"cebpf4jnsgd1na2vs0mg"},{"bike_id":"5eec168a-1760-4dd3-a2da-38014a330db7","system_id":"levelo_inurba_marseille","lat":43.27966,"lon":5.38735,"is_reserved":false,"is_disabled":false,"rental_uris":{"android":"levelo://app?vid=5eec168a-1760-4dd3-a2da-38014a330db7","ios":"levelo://app?vid=5eec168a-1760-4dd3-a2da-38014a330db7"},"vehicle_type_id":"4","last_reported":1739366175,"current_range_meters":4400,"station_id":"ce4bhg12rcd13ifvqf80","pricing_plan_id":"cebpf4jnsgd1na2vs0mg"},{"bike_id":"ef21d2aa-e17b-4739-a1c8-6fbc2e9df327","system_id":"levelo_inurba_marseille","lat":43.2501,"lon":5.38925,"is_reserved":false,"is_disabled":false,"rental_uris":{"android":"levelo://app?vid=ef21d2aa-e17b-4739-a1c8-6fbc2e9df327","ios":"levelo://app?vid=ef21d2aa-e17b-4739-a1c8-6fbc2e9df327"},"vehicle_type_id":"4","last_reported":1739366175,"current_range_meters":32000,"station_id":"ce4bhgp2rcd13ifvqfd0","pricing_plan_id":"cebpf4jnsgd1na2vs0mg"},{"bike_id":"71ae8788-ed57-4df6-805f-27ca1e8f5e3c","system_id":"levelo_inurba_marseille","lat":43.29212,"lon":5.35835,"is_reserved":false,"is_disabled":false,"rental_uris":{"android":"levelo://app?vid=71ae8788-ed57-4df6-805f-27ca1e8f5e3c","ios":"levelo://app?vid=71ae8788-ed57-4df6-805f-27ca1e8f5e3c"},"vehicle_type_id":"4","last_reported":1739366175,"current_range_meters":29600,"station_id":"ce4bhb12rcd13ifvqel0","pricing_plan_id":"cebpf4jnsgd1na2vs0mg"},{"bike_id":"48d290e3-cd66-4bb0-9756-721312ed5f1e","system_id":"levelo_inurba_marseille","lat":43.26031,"lon":5.37549,"is_reserved":false,"is_disabled":false,"rental_uris":{"android":"levelo://app?vid=48d290e3-cd66-4bb0-9756-721312ed5f1e","ios":"levelo://app?vid=48d290e3-cd66-4bb0-9756-721312ed5f1e"},"vehicle_type_id":"4","last_reported":1739366175,"current_range_meters":12000,"station_id":"ce4bhgh2rcd13ifvqfa0","pricing_plan_id":"cebpf4jnsgd1na2vs0mg"},{"bike_id":"fbfa6e03-bec8-49f4-8c8a-66125482de72","system_id":"levelo_inurba_marseille","lat":43.29751,"lon":5.37697,"is_reserved":false,"is_disabled":false,"rental_uris":{"android":"levelo://app?vid=fbfa6e03-bec8-49f4-8c8a-66125482de72","ios":"levelo://app?vid=fbfa6e03-bec8-49f4-8c8a-66125482de72"},"vehicle_type_id":"4","last_reported":1739366175,"current_range_meters":27600,"station_id":"ce4bgkh2rcd13ifvqbl0","pricing_plan_id":"cebpf4jnsgd1na2vs0mg"},{"bike_id":"4985f4e8-357c-45d1-92f1-5e51b059536f","system_id":"levelo_inurba_marseille","lat":43.30566,"lon":5.36537,"is_reserved":false,"is_disabled":false,"rental_uris":{"android":"levelo://app?vid=4985f4e8-357c-45d1-92f1-5e51b059536f","ios":"levelo://app?vid=4985f4e8-357c-45d1-92f1-5e51b059536f"},"vehicle_type_id":"4","last_reported":1739366175,"current_range_meters":10800,"station_id":"ce4bgs12rcd13ifvqcag","pricing_plan_id":"cebpf4jnsgd1na2vs0mg"},{"bike_id":"2c322756-faf0-440b-9de1-d24cf75d63ae","system_id":"levelo_inurba_marseille","lat":43.29592,"lon":5.37729,"is_reserved":false,"is_disabled":false,"rental_uris":{"android":"levelo://app?vid=2c322756-faf0-440b-9de1-d24cf75d63ae","ios":"levelo://app?vid=2c322756-faf0-440b-9de1-d24cf75d63ae"},"vehicle_type_id":"4","last_reported":1739366175,"current_range_meters":38800,"station_id":"ce4bgi92rcd13ifvqb90","pricing_plan_id":"cebpf4jnsgd1na2vs0mg"},{"bike_id":"afaa6ff3-f958-448e-bb22-0cf576b24c3a","system_id":"levelo_inurba_marseille","lat":43.26682,"lon":5.38274,"is_reserved":false,"is_disabled":true,"rental_uris":{"android":"levelo://app?vid=afaa6ff3-f958-448e-bb22-0cf576b24c3a","ios":"levelo://app?vid=afaa6ff3-f958-448e-bb22-0cf576b24c3a"},"vehicle_type_id":"4","last_reported":1739366175,"current_range_meters":1600,"station_id":"ce4bhg92rcd13ifvqf90","pricing_plan_id":"cebpf4jnsgd1na2vs0mg"},{"bike_id":"58a923a1-50e5-4bcc-a5c7-59fd5ea18680","system_id":"levelo_inurba_marseille","lat":43.23155,"lon":5.43723,"is_reserved":false,"is_disabled":false,"rental_uris":{"android":"levelo://app?vid=58a923a1-50e5-4bcc-a5c7-59fd5ea18680","ios":"levelo://app?vid=58a923a1-50e5-4bcc-a5c7-59fd5ea18680"},"vehicle_type_id":"4","last_reported":1739366175,"current_range_meters":20000,"station_id":"ce4bhmp2rcd13ifvqgog","pricing_plan_id":"cebpf4jnsgd1na2vs0mg"},{"bike_id":"c292f505-0f54-46f2-827e-f686b8d7486a","system_id":"levelo_inurba_marseille","lat":43.28972,"lon":5.37822,"is_reserved":false,"is_disabled":false,"rental_uris":{"android":"levelo://app?vid=c292f505-0f54-46f2-827e-f686b8d7486a","ios":"levelo://app?vid=c292f505-0f54-46f2-827e-f686b8d7486a"},"vehicle_type_id":"4","last_reported":1739366175,"current_range_meters":26000,"station_id":"ce4bh9p2rcd13ifvqed0","pricing_plan_id":"cebpf4jnsgd1na2vs0mg"},{"bike_id":"51d770a2-dd16-4796-a058-ebfc42d09fdc","system_id":"levelo_inurba_marseille","lat":43.299092,"lon":5.374973,"is_reserved":false,"is_disabled":false,"rental_uris":{"android":"levelo://app?vid=51d770a2-dd16-4796-a058-ebfc42d09fdc","ios":"levelo://app?vid=51d770a2-dd16-4796-a058-ebfc42d09fdc"},"vehicle_type_id":"4","last_reported":1739366175,"current_range_meters":35200,"station_id":"ce4bgjh2rcd13ifvqbg0","pricing_plan_id":"cebpf4jnsgd1na2vs0mg"},{"bike_id":"60273a6b-5e20-49a3-aa83-8d6ecaeab2c0","system_id":"levelo_inurba_marseille","lat":43.3148,"lon":5.37308,"is_reserved":false,"is_disabled":false,"rental_uris":{"android":"levelo://app?vid=60273a6b-5e20-49a3-aa83-8d6ecaeab2c0","ios":"levelo://app?vid=60273a6b-5e20-49a3-aa83-8d6ecaeab2c0"},"vehicle_type_id":"4","last_reported":1739366175,"current_range_meters":22400,"station_id":"ce4bgt12rcd13ifvqcd0","pricing_plan_id":"cebpf4jnsgd1na2vs0mg"},{"bike_id":"bedc90d0-b231-4246-af0c-3abc4601c6a0","system_id":"levelo_inurba_marseille","lat":43.29065,"lon":5.37165,"is_reserved":false,"is_disabled":false,"rental_uris":{"android":"levelo://app?vid=bedc90d0-b231-4246-af0c-3abc4601c6a0","ios":"levelo://app?vid=bedc90d0-b231-4246-af0c-3abc4601c6a0"},"vehicle_type_id":"4","last_reported":1739366175,"current_range_meters":30800,"station_id":"ce4bh5p2rcd13ifvqe4g","pricing_plan_id":"cebpf4jnsgd1na2vs0mg"},{"bike_id":"9fcdab55-6d1d-456d-84cd-a4b15d39fdcf","system_id":"levelo_inurba_marseille","lat":43.249957,"lon":5.389324,"is_reserved":false,"is_disabled":false,"rental_uris":{"android":"levelo://app?vid=9fcdab55-6d1d-456d-84cd-a4b15d39fdcf","ios":"levelo://app?vid=9fcdab55-6d1d-456d-84cd-a4b15d39fdcf"},"vehicle_type_id":"4","last_reported":1739366175,"current_range_meters":7200,"station_id":"ce4bhgp2rcd13ifvqfd0","pricing_plan_id":"cebpf4jnsgd1na2vs0mg"},{"bike_id":"197121bd-ad8f-4f49-a198-3c8983bddf84","system_id":"levelo_inurba_marseille","lat":43.30232,"lon":5.39475,"is_reserved":false,"is_disabled":false,"rental_uris":{"android":"levelo://app?vid=197121bd-ad8f-4f49-a198-3c8983bddf84","ios":"levelo://app?vid=197121bd-ad8f-4f49-a198-3c8983bddf84"},"vehicle_type_id":"4","last_reported":1739366175,"current_range_meters":16000,"station_id":"ce4bh0p2rcd13ifvqd70","pricing_plan_id":"cebpf4jnsgd1na2vs0mg"},{"bike_id":"18d2ffa0-63d8-4406-8447-0b13621962de","system_id":"levelo_inurba_marseille","lat":43.30453,"lon":5.37901,"is_reserved":false,"is_disabled":false,"rental_uris":{"android":"levelo://app?vid=18d2ffa0-63d8-4406-8447-0b13621962de","ios":"levelo://app?vid=18d2ffa0-63d8-4406-8447-0b13621962de"},"vehicle_type_id":"4","last_reported":1739366175,"current_range_meters":38800,"station_id":"ce4bgup2rcd13ifvqcn0","pricing_plan_id":"cebpf4jnsgd1na2vs0mg"},{"bike_id":"3227462f-afc0-48de-8f4d-4b21ffc2230a","system_id":"levelo_inurba_marseille","lat":43.30161,"lon":5.37411,"is_reserved":false,"is_disabled":false,"rental_uris":{"android":"levelo://app?vid=3227462f-afc0-48de-8f4d-4b21ffc2230a","ios":"levelo://app?vid=3227462f-afc0-48de-8f4d-4b21ffc2230a"},"vehicle_type_id":"4","last_reported":1739366175,"current_range_meters":32400,"station_id":"ce4bgs92rcd13ifvqcc0","pricing_plan_id":"cebpf4jnsgd1na2vs0mg"},{"bike_id":"aa2a2975-b7ac-443c-9404-5c5e1b57efc0","system_id":"levelo_inurba_marseille","lat":43.23954,"lon":5.36608,"is_reserved":false,"is_disabled":false,"rental_uris":{"android":"levelo://app?vid=aa2a2975-b7ac-443c-9404-5c5e1b57efc0","ios":"levelo://app?vid=aa2a2975-b7ac-443c-9404-5c5e1b57efc0"},"vehicle_type_id":"4","last_reported":1739366175,"current_range_meters":7200,"station_id":"ce4bhi12rcd13ifvqfp0","pricing_plan_id":"cebpf4jnsgd1na2vs0mg"},{"bike_id":"f17f084e-b6c7-45c8-92c0-b718ab2f3029","system_id":"levelo_inurba_marseille","lat":43.24393,"lon":5.37041,"is_reserved":false,"is_disabled":false,"rental_uris":{"android":"levelo://app?vid=f17f084e-b6c7-45c8-92c0-b718ab2f3029","ios":"levelo://app?vid=f17f084e-b6c7-45c8-92c0-b718ab2f3029"},"vehicle_type_id":"4","last_reported":1739366175,"current_range_meters":33200,"station_id":"ce4bhhh2rcd13ifvqfk0","pricing_plan_id":"cebpf4jnsgd1na2vs0mg"},{"bike_id":"d3460b7b-e380-4b3a-92a9-5f7cd890c05f","system_id":"levelo_inurba_marseille","lat":43.23154,"lon":5.43711,"is_reserved":false,"is_disabled":false,"rental_uris":{"android":"levelo://app?vid=d3460b7b-e380-4b3a-92a9-5f7cd890c05f","ios":"levelo://app?vid=d3460b7b-e380-4b3a-92a9-5f7cd890c05f"},"vehicle_type_id":"4","last_reported":1739366175,"current_range_meters":18800,"station_id":"ce4bhmp2rcd13ifvqgog","pricing_plan_id":"cebpf4jnsgd1na2vs0mg"},{"bike_id":"d81e91d8-e797-42a2-b210-b4bb3dc89a0c","system_id":"levelo_inurba_marseille","lat":43.30436,"lon":5.39744,"is_reserved":false,"is_disabled":false,"rental_uris":{"android":"levelo://app?vid=d81e91d8-e797-42a2-b210-b4bb3dc89a0c","ios":"levelo://app?vid=d81e91d8-e797-42a2-b210-b4bb3dc89a0c"},"vehicle_type_id":"4","last_reported":1739366175,"current_range_meters":24800,"station_id":"ce4bh092rcd13ifvqd20","pricing_plan_id":"cebpf4jnsgd1na2vs0mg"},{"bike_id":"d157203c-3a5b-4bbc-9638-6eefce740d5e","system_id":"levelo_inurba_marseille","lat":43.23198,"lon":5.35556,"is_reserved":false,"is_disabled":false,"rental_uris":{"android":"levelo://app?vid=d157203c-3a5b-4bbc-9638-6eefce740d5e","ios":"levelo://app?vid=d157203c-3a5b-4bbc-9638-6eefce740d5e"},"vehicle_type_id":"4","last_reported":1739366175,"current_range_meters":35600,"station_id":"ce4bhu92rcd13ifvqi70","pricing_plan_id":"cebpf4jnsgd1na2vs0mg"},{"bike_id":"d9fd01f7-0adf-4397-8052-adf8d30ee713","system_id":"levelo_inurba_marseille","lat":43.30147,"lon":5.38079,"is_reserved":false,"is_disabled":false,"rental_uris":{"android":"levelo://app?vid=d9fd01f7-0adf-4397-8052-adf8d30ee713","ios":"levelo://app?vid=d9fd01f7-0adf-4397-8052-adf8d30ee713"},"vehicle_type_id":"4","last_reported":1739366175,"current_range_meters":37600,"station_id":"ce4bgjp2rcd13ifvqbh0","pricing_plan_id":"cebpf4jnsgd1na2vs0mg"},{"bike_id":"ea0590d8-618f-4aa9-a2d1-c4953674a834","system_id":"levelo_inurba_marseille","lat":43.31747,"lon":5.39001,"is_reserved":false,"is_disabled":false,"rental_uris":{"android":"levelo://app?vid=ea0590d8-618f-4aa9-a2d1-c4953674a834","ios":"levelo://app?vid=ea0590d8-618f-4aa9-a2d1-c4953674a834"},"vehicle_type_id":"4","last_reported":1739366175,"current_range_meters":38800,"station_id":"ce4bhqp2rcd13ifvqhng","pricing_plan_id":"cebpf4jnsgd1na2vs0mg"},{"bike_id":"6477f7d9-757f-4fec-8c2c-6f528ed204dc","system_id":"levelo_inurba_marseille","lat":43.24172,"lon":5.36412,"is_reserved":false,"is_disabled":false,"rental_uris":{"android":"levelo://app?vid=6477f7d9-757f-4fec-8c2c-6f528ed204dc","ios":"levelo://app?vid=6477f7d9-757f-4fec-8c2c-6f528ed204dc"},"vehicle_type_id":"4","last_reported":1739366175,"current_range_meters":37600,"station_id":"cpo36qri1sfpv3e86is0","pricing_plan_id":"cebpf4jnsgd1na2vs0mg"},