{"last_updated":1744096227,"ttl":60,"version":"2.2","data":{"bikes":[{"bike_id":"88e9ffa1-b1ad-4c58-8b1d-75e9dfcce5ae","system_id":"levelo_inurba_marseille","lat":43.2708,"lon":5.42285,"is_reserved":false,"is_disabled":false,"rental_uris":{"android":"levelo://app?vid=88e9ffa1-b1ad-4c58-8b1d-75e9dfcce5ae","ios":"levelo://app?vid=88e9ffa1-b1ad-4c58-8b1d-75e9dfcce5ae"},"vehicle_type_id":"4","last_reported":1744096227,"current_range_meters":2800,"station_id":"ce4bhk92rcd13ifvqgb0","pricing_plan_id":"cebpf4jnsgd1na2vs0mg"},{"bike_id":"f3a82a8f-9c35-45c4-ba4d-a07bdb15f8b5","system_id":"levelo_inurba_marseille","lat":43.33153,"lon":5.41063,"is_reserved":false,"is_disabled":false,"rental_uris":{"android":"levelo://app?vid=f3a82a8f-9c35-45c4-ba4d-a07bdb15f8b5","ios":"levelo://app?vid=f3a82a8f-9c35-45c4-ba4d-a07bdb15f8b5"},"vehicle_type_id":"4","last_reported":1744096227,"current_range_meters":2800,"station_id":"","pricing_plan_id":"cebpf4jnsgd1na2vs0mg"},{"bike_id":"be488dc8-880d-4a7d-a22a-e13a4e04d191","system_id":"levelo_inurba_marseille","lat":43.33766,"lon":5.3747,"is_reserved":false,"is_disabled":false,"rental_uris":{"android":"levelo://app?vid=be488dc8-880d-4a7d-a22a-e13a4e04d191","ios":"levelo://app?vid=be488dc8-880d-4a7d-a22a-e13a4e04d191"},"vehicle_type_id":"4","last_reported":1744096227,"current_range_meters":2800,"station_id":"","pricing_plan_id":"cebpf4jnsgd1na2vs0mg"},{"bike_id":"0d14882d-2313-4155-bd76-520bb291bc82","system_id":"levelo_inurba_marseille","lat":43.29026,"lon":5.38138,"is_reserved":false,"is_disabled":false,"rental_uris":{"android":"levelo://app?vid=0d14882d-2313-4155-bd76-520bb291bc82","ios":"levelo://app?vid=0d14882d-2313-4155-bd76-520bb291bc82"},"vehicle_type_id":"4","last_reported":1744096227,"current_range_meters":2000,"station_id":"ce4bh4p2rcd13ifvqe1g","pricing_plan_id":"cebpf4jnsgd1na2vs0mg"},{"bike_id":"238dceb2-7500-49a0-8655-3a10aedbd855","system_id":"levelo_inurba_marseille","lat":43.28435,"lon":5.39193,"is_reserved":false,"is_disabled":false,"rental_uris":{"android":"levelo://app?vid=238dceb2-7500-49a0-8655-3a10aedbd855","ios":"levelo://app?vid=238dceb2-7500-49a0-8655-3a10aedbd855"},"vehicle_type_id":"4","last_reported":1744096227,"current_range_meters":3200,"station_id":"ce4bhoh2rcd13ifvqh5g","pricing_plan_id":"cebpf4jnsgd1na2vs0mg"},{"bike_id":"136b6e45-ee21-453e-aa22-e07947db9071","system_id":"levelo_inurba_marseille","lat":43.23165,"lon":5.43696,"is_reserved":false,"is_disabled":true,"rental_uris":{"android":"levelo://app?vid=136b6e45-ee21-453e-aa22-e07947db9071","ios":"levelo://app?vid=136b6e45-ee21-453e-aa22-e07947db9071"},"vehicle_type_id":"4","last_reported":1744096227,"current_range_meters":3200,"station_id":"ce4bhmp2rcd13ifvqgog","pricing_plan_id":"cebpf4jnsgd1na2vs0mg"},{"bike_id":"b5891bee-e98f-42f2-ba6f-debf744cfd74","system_id":"levelo_inurba_marseille","lat":43.28462,"lon":5.35879,"is_reserved":false,"is_disabled":false,"rental_uris":{"android":"levelo://app?vid=b5891bee-e98f-42f2-ba6f-debf744cfd74","ios":"levelo://app?vid=b5891bee-e98f-42f2-ba6f-debf744cfd74"},"vehicle_type_id":"4","last_reported":1744096227,"current_range_meters":3600,"station_id":"ce4bhah2rcd13ifvqei0","pricing_plan_id":"cebpf4jnsgd1na2vs0mg"},{"bike_id":"00393ee2-317d-4e98-a30d-fd25773ef49f","system_id":"levelo_inurba_marseille","lat":43.33016,"lon":5.38987,"is_reserved":false,"is_disabled":false,"rental_uris":{"android":"levelo://app?vid=00393ee2-317d-4e98-a30d-fd25773ef49f","ios":"levelo://app?vid=00393ee2-317d-4e98-a30d-fd25773ef49f"},"vehicle_type_id":"4","last_reported":1744096227,"current_range_meters":3600,"station_id":"","pricing_plan_id":"cebpf4jnsgd1na2vs0mg"},{"bike_id":"028e1eee-584f-4406-8b72-e6aeccda7f91","system_id":"levelo_inurba_marseille","lat":43.29971,"lon":5.37174,"is_reserved":false,"is_disabled":false,"rental_uris":{"android":"levelo://app?vid=028e1eee-584f-4406-8b72-e6aeccda7f91","ios":"levelo://app?vid=028e1eee-584f-4406-8b72-e6aeccda7f91"},"vehicle_type_id":"4","last_reported":1744096227,"current_range_meters":3600,"station_id":"ce4bgr92rcd13ifvqc7g","pricing_plan_id":"cebpf4jnsgd1na2vs0mg"},{"bike_id":"21a311c7-76a2-4ae8-9912-0b655a823a2c","system_id":"levelo_inurba_marseille","lat":43.27952,"lon":5.41051,"is_reserved":false,"is_disabled":false,"rental_uris":{"android":"levelo://app?vid=21a311c7-76a2-4ae8-9912-0b655a823a2c","ios":"levelo://app?vid=21a311c7-76a2-4ae8-9912-0b655a823a2c"},"vehicle_type_id":"4","last_reported":1744096227,"current_range_meters":4000,"station_id":"ce4bhnp2rcd13ifvqh0g","pricing_plan_id":"cebpf4jnsgd1na2vs0mg"},{"bike_id":"4b9376fa-c956-4b38-b8b1-be9291d4d44c","system_id":"levelo_inurba_marseille","lat":43.31222,"lon":5.36856,"is_reserved":false,"is_disabled":false,"rental_uris":{"android":"levelo://app?vid=4b9376fa-c956-4b38-b8b1-be9291d4d44c","ios":"levelo://app?vid=4b9376fa-c956-4b38-b8b1-be9291d4d44c"},"vehicle_type_id":"4","last_reported":1744096227,"current_range_meters":4000,"station_id":"ce4bgl92rcd13ifvqbq0","pricing_plan_id":"cebpf4jnsgd1na2vs0mg"},{"bike_id":"fe41db97-68a4-4c46-a124-d16878e56a65","system_id":"levelo_inurba_marseille","lat":43.246584,"lon":5.381673,"is_reserved":false,"is_disabled":false,"rental_uris":{"android":"levelo://app?vid=fe41db97-68a4-4c46-a124-d16878e56a65","ios":"levelo://app?vid=fe41db97-68a4-4c46-a124-d16878e56a65"},"vehicle_type_id":"4","last_reported":1744096227,"current_range_meters":3600,"station_id":"ce4bhih2rcd13ifvqfr0","pricing_plan_id":"cebpf4jnsgd1na2vs0mg"},{"bike_id":"351b921a-1463-4cf6-859d-ca5bd51a6e76","system_id":"levelo_inurba_marseille","lat":43.31799,"lon":5.36828,"is_reserved":false,"is_disabled":false,"rental_uris":{"android":"levelo://app?vid=351b921a-1463-4cf6-859d-ca5bd51a6e76","ios":"levelo://app?vid=351b921a-1463-4cf6-859d-ca5bd51a6e76"},"vehicle_type_id":"4","last_reported":1744096227,"current_range_meters":4400,"station_id":"","pricing_plan_id":"cebpf4jnsgd1na2vs0mg"},{"bike_id":"e4a07207-fed0-4e37-8539-48386b90c7e5","system_id":"levelo_inurba_marseille","lat":43.32537,"lon":5.41428,"is_reserved":false,"is_disabled":false,"rental_uris":{"android":"levelo://app?vid=e4a07207-fed0-4e37-8539-48386b90c7e5","ios":"levelo://app?vid=e4a07207-fed0-4e37-8539-48386b90c7e5"},"vehicle_type_id":"4","last_reported":1744096227,"current_range_meters":4400,"station_id":"ce4bhq12rcd13ifvqhhg","pricing_plan_id":"cebpf4jnsgd1na2vs0mg"},{"bike_id":"9d81a515-002d-464f-87d2-cd2a08b4bdc3","system_id":"levelo_inurba_marseille","lat":43.29963,"lon":5.385,"is_reserved":false,"is_disabled":false,"rental_uris":{"android":"levelo://app?vid=9d81a515-002d-464f-87d2-cd2a08b4bdc3","ios":"levelo://app?vid=9d81a515-002d-464f-87d2-cd2a08b4bdc3"},"vehicle_type_id":"4","last_reported":1744096227,"current_range_meters":4800,"station_id":"ce4bgj92rcd13ifvqbd0","pricing_plan_id":"cebpf4jnsgd1na2vs0mg"},{"bike_id":"e338240f-435f-4193-8417-a9c441797f7a","system_id":"levelo_inurba_marseille","lat":43.27497,"lon":5.4245,"is_reserved":false,"is_disabled":false,"rental_uris":{"android":"levelo://app?vid=e338240f-435f-4193-8417-a9c441797f7a","ios":"levelo://app?vid=e338240f-435f-4193-8417-a9c441797f7a"},"vehicle_type_id":"4","last_reported":1744096227,"current_range_meters":4800,"station_id":"ce4bhn92rcd13ifvqgrg","pricing_plan_id":"cebpf4jnsgd1na2vs0mg"},{"bike_id":"d89cf537-5d49-4ffb-bba5-1642ba79c24f","system_id":"levelo_inurba_marseille","lat":43.25123,"lon":5.40323,"is_reserved":false,"is_disabled":false,"rental_uris":{"android":"levelo://app?vid=d89cf537-5d49-4ffb-bba5-1642ba79c24f","ios":"levelo://app?vid=d89cf537-5d49-4ffb-bba5-1642ba79c24f"},"vehicle_type_id":"4","last_reported":1744096227,"current_range_meters":4800,"station_id":"ce4bhlh2rcd13ifvqgig","pricing_plan_id":"cebpf4jnsgd1na2vs0mg"},{"bike_id":"7038d8b5-aa95-4a1b-8937-9ac42583a1e6","system_id":"levelo_inurba_marseille","lat":43.29297,"lon":5.37459,"is_reserved":false,"is_disabled":false,"rental_uris":{"android":"levelo://app?vid=7038d8b5-aa95-4a1b-8937-9ac42583a1e6","ios":"levelo://app?vid=7038d8b5-aa95-4a1b-8937-9ac42583a1e6"},"vehicle_type_id":"4","last_reported":1744096227,"current_range_meters":4400,"station_id":"ce4bgi12rcd13ifvqb70","pricing_plan_id":"cebpf4jnsgd1na2vs0mg"},{"bike_id":"06a6902a-24a7-4b87-8987-7779b1a9cd1e","system_id":"levelo_inurba_marseille","lat":43.255,"lon":5.37653,"is_reserved":false,"is_disabled":false,"rental_uris":{"android":"levelo://app?vid=06a6902a-24a7-4b87-8987-7779b1a9cd1e","ios":"levelo://app?vid=06a6902a-24a7-4b87-8987-7779b1a9cd1e"},"vehicle_type_id":"4","last_reported":1744096227,"current_range_meters":5600,"station_id":"ce4bhh12rcd13ifvqff0","pricing_plan_id":"cebpf4jnsgd1na2vs0mg"},{"bike_id":"89d5e646-fa33-433c-a7bf-83ee666c2ec4","system_id":"levelo_inurba_marseille","lat":43.310696,"lon":5.383504,"is_reserved":false,"is_disabled":false,"rental_uris":{"android":"levelo://app?vid=89d5e646-fa33-433c-a7bf-83ee666c2ec4","ios":"levelo://app?vid=89d5e646-fa33-433c-a7bf-83ee666c2ec4"},"vehicle_type_id":"4","last_reported":1744096227,"current_range_meters":5600,"station_id":"ce4bgjh2rcd13ifvqbf0","pricing_plan_id":"cebpf4jnsgd1na2vs0mg"},{"bike_id":"22a73431-8061-475a-96f7-bba32ddd89a8","system_id":"levelo_inurba_marseille","lat":43.254944,"lon":5.376513,"is_reserved":false,"is_disabled":false,"rental_uris":{"android":"levelo://app?vid=22a73431-8061-475a-96f7-bba32ddd89a8","ios":"levelo://app?vid=22a73431-8061-475a-96f7-bba32ddd89a8"},"vehicle_type_id":"4","last_reported":1744096227,"current_range_meters":5600,"station_id":"ce4bhh12rcd13ifvqff0","pricing_plan_id":"cebpf4jnsgd1na2vs0mg"},{"bike_id":"c2d5aea1-f36b-49c4-8580-b2d41dc17c36","system_id":"levelo_inurba_marseille","lat":43.24181,"lon":5.39726,"is_reserved":false,"is_disabled":false,"rental_uris":{"android":"levelo://app?vid=c2d5aea1-f36b-49c4-8580-b2d41dc17c36","ios":"levelo://app?vid=c2d5aea1-f36b-49c4-8580-b2d41dc17c36"},"vehicle_type_id":"4","last_reported":1744096227,"current_range_meters":6000,"station_id":"ce4bhn12rcd13ifvqgpg","pricing_plan_id":"cebpf4jnsgd1na2vs0mg"},{"bike_id":"a959694d-18ce-4d80-917f-23c91ed81065","system_id":"levelo_inurba_marseille","lat":43.29902,"lon":5.43672,"is_reserved":false,"is_disabled":false,"rental_uris":{"android":"levelo://app?vid=a959694d-18ce-4d80-917f-23c91ed81065","ios":"levelo://app?vid=a959694d-18ce-4d80-917f-23c91ed81065"},"vehicle_type_id":"4","last_reported":1744096227,"current_range_meters":6000,"station_id":"ce4bhpp2rcd13ifvqhfg","pricing_plan_id":"cebpf4jnsgd1na2vs0mg"},{"bike_id":"6ebe9ec3-b74c-497b-aa8c-e68d0877c617","system_id":"levelo_inurba_marseille","lat":43.251188,"lon":5.403254,"is_reserved":false,"is_disabled":false,"rental_uris":{"android":"levelo://app?vid=6ebe9ec3-b74c-497b-aa8c-e68d0877c617","ios":"levelo://app?vid=6ebe9ec3-b74c-497b-aa8c-e68d0877c617"},"vehicle_type_id":"4","last_reported":1744096227,"current_range_meters":6400,"station_id":"ce4bhlh2rcd13ifvqgig","pricing_plan_id":"cebpf4jnsgd1na2vs0mg"},{"bike_id":"8a38320c-a733-4cf5-8c8e-152497fe8f8f","system_id":"levelo_inurba_marseille","lat":43.28153,"lon":5.426391,"is_reserved":false,"is_disabled":false,"rental_uris":{"android":"levelo://app?vid=8a38320c-a733-4cf5-8c8e-152497fe8f8f","ios":"levelo://app?vid=8a38320c-a733-4cf5-8c8e-152497fe8f8f"},"vehicle_type_id":"4","last_reported":1744096227,"current_range_meters":6400,"station_id":"ce4bhnh2rcd13ifvqgug","pricing_plan_id":"cebpf4jnsgd1na2vs0mg"},{"bike_id":"1031a154-a0bb-4fea-b1c7-2bc34e177401","system_id":"levelo_inurba_marseille","lat":43.33784,"lon":5.37442,"is_reserved":false,"is_disabled":false,"rental_uris":{"android":"levelo://app?vid=1031a154-a0bb-4fea-b1c7-2bc34e177401","ios":"levelo://app?vid=1031a154-a0bb-4fea-b1c7-2bc34e177401"},"vehicle_type_id":"4","last_reported":1744096227,"current_range_meters":6400,"station_id":"","pricing_plan_id":"cebpf4jnsgd1na2vs0mg"},{"bike_id":"516d1131-8d22-4c00-9743-8f8296b9be79","system_id":"levelo_inurba_marseille","lat":43.25483,"lon":5.37645,"is_reserved":false,"is_disabled":true,"rental_uris":{"android":"levelo://app?vid=516d1131-8d22-4c00-9743-8f8296b9be79","ios":"levelo://app?vid=516d1131-8d22-4c00-9743-8f8296b9be79"},"vehicle_type_id":"4","last_reported":1744096227,"current_range_meters":6400,"station_id":"ce4bhh12rcd13ifvqff0","pricing_plan_id":"cebpf4jnsgd1na2vs0mg"},{"bike_id":"19224d95-e048-4cbb-8884-43e0e6b3db9b","system_id":"levelo_inurba_marseille","lat":43.29872,"lon":5.39766,"is_reserved":false,"is_disabled":true,"rental_uris":{"android":"levelo://app?vid=19224d95-e048-4cbb-8884-43e0e6b3db9b","ios":"levelo://app?vid=19224d95-e048-4cbb-8884-43e0e6b3db9b"},"vehicle_type_id":"4","last_reported":1744096227,"current_range_meters":6400,"station_id":"ce4bh0h2rcd13ifvqd50","pricing_plan_id":"cebpf4jnsgd1na2vs0mg"},{"bike_id":"1c24abbf-d842-4df3-9e43-2ef3129819ef","system_id":"levelo_inurba_marseille","lat":43.27213,"lon":5.39177,"is_reserved":false,"is_disabled":false,"rental_uris":{"android":"levelo://app?vid=1c24abbf-d842-4df3-9e43-2ef3129819ef","ios":"levelo://app?vid=1c24abbf-d842-4df3-9e43-2ef3129819ef"},"vehicle_type_id":"4","last_reported":1744096227,"current_range_meters":6400,"station_id":"ce4bhhp2rcd13ifvqfm0","pricing_plan_id":"cebpf4jnsgd1na2vs0mg"},{"bike_id":"98916001-1598-48db-b977-9e094261257b","system_id":"levelo_inurba_marseille","lat":43.27072,"lon":5.42286,"is_reserved":false,"is_disabled":false,"rental_uris":{"android":"levelo://app?vid=98916001-1598-48db-b977-9e094261257b","ios":"levelo://app?vid=98916001-1598-48db-b977-9e094261257b"},"vehicle_type_id":"4","last_reported":1744096227,"current_range_meters":6800,"station_id":"ce4bhk92rcd13ifvqgb0","pricing_plan_id":"cebpf4jnsgd1na2vs0mg"},{"bike_id":"f3b83e8a-c65f-4f5d-8899-2b84c089f530","system_id":"levelo_inurba_marseille","lat":43.32123,"lon":5.36782,"is_reserved":false,"is_disabled":false,"rental_uris":{"android":"levelo://app?vid=f3b83e8a-c65f-4f5d-8899-2b84c089f530","ios":"levelo://app?vid=f3b83e8a-c65f-4f5d-8899-2b84c089f530"},"vehicle_type_id":"4","last_reported":1744096227,"current_range_meters":6800,"station_id":"ce4bhrh2rcd13ifvqhug","pricing_plan_id":"cebpf4jnsgd1na2vs0mg"},{"bike_id":"73276e73-379c-4215-bfe8-0a4cdf26f8fb","system_id":"levelo_inurba_marseille","lat":43.27376,"lon":5.3625,"is_reserved":false,"is_disabled":false,"rental_uris":{"android":"levelo://app?vid=73276e73-379c-4215-bfe8-0a4cdf26f8fb","ios":"levelo://app?vid=73276e73-379c-4215-bfe8-0a4cdf26f8fb"},"vehicle_type_id":"4","last_reported":1744096227,"current_range_meters":6800,"station_id":"ce4bhbh2rcd13ifvqeo0","pricing_plan_id":"cebpf4jnsgd1na2vs0mg"},{"bike_id":"abf828e0-bebc-4654-bc93-1d92f449deee","system_id":"levelo_inurba_marseille","lat":43.32364,"lon":5.36774,"is_reserved":false,"is_disabled":false,"rental_uris":{"android":"levelo://app?vid=abf828e0-bebc-4654-bc93-1d92f449deee","ios":"levelo://app?vid=abf828e0-bebc-4654-bc93-1d92f449deee"},"vehicle_type_id":"4","last_reported":1744096227,"current_range_meters":6800,"station_id":"ce4bhsh2rcd13ifvqi2g","pricing_plan_id":"cebpf4jnsgd1na2vs0mg"},{"bike_id":"e223670b-5545-4017-934f-c2adf2f3c08b","system_id":"levelo_inurba_marseille","lat":43.270702,"lon":5.422827,"is_reserved":false,"is_disabled":false,"rental_uris":{"android":"levelo://app?vid=e223670b-5545-4017-934f-c2adf2f3c08b","ios":"levelo://app?vid=e223670b-5545-4017-934f-c2adf2f3c08b"},"vehicle_type_id":"4","last_reported":1744096227,"current_range_meters":6800,"station_id":"ce4bhk92rcd13ifvqgb0","pricing_plan_id":"cebpf4jnsgd1na2vs0mg"},{"bike_id":"836a232a-b0d9-4c7a-8bb9-c62a9522474f","system_id":"levelo_inurba_marseille","lat":43.257147,"lon":5.4109,"is_reserved":false,"is_disabled":false,"rental_uris":{"android":"levelo://app?vid=836a232a-b0d9-4c7a-8bb9-c62a9522474f","ios":"levelo://app?vid=836a232a-b0d9-4c7a-8bb9-c62a9522474f"},"vehicle_type_id":"4","last_reported":1744096227,"current_range_meters":6800,"station_id":"ce4bhkp2rcd13ifvqgd0","pricing_plan_id":"cebpf4jnsgd1na2vs0mg"},{"bike_id":"0f8eb46a-061e-4294-a3be-19fc001fdf11","system_id":"levelo_inurba_marseille","lat":43.32283,"lon":5.38262,"is_reserved":false,"is_disabled":false,"rental_uris":{"android":"levelo://app?vid=0f8eb46a-061e-4294-a3be-19fc001fdf11","ios":"levelo://app?vid=0f8eb46a-061e-4294-a3be-19fc001fdf11"},"vehicle_type_id":"4","last_reported":1744096227,"current_range_meters":7200,"station_id":"ce4bhr12rcd13ifvqhqg","pricing_plan_id":"cebpf4jnsgd1na2vs0mg"},{"bike_id":"4561ee59-7e60-4f80-b580-0ae73bb98761","system_id":"levelo_inurba_marseille","lat":43.307859,"lon":5.376381,"is_reserved":false,"is_disabled":true,"rental_uris":{"android":"levelo://app?vid=4561ee59-7e60-4f80-b580-0ae73bb98761","ios":"levelo://app?vid=4561ee59-7e60-4f80-b580-0ae73bb98761"},"vehicle_type_id":"4","last_reported":1744096227,"current_range_meters":7200,"station_id":"ce4bgv92rcd13ifvqcq0","pricing_plan_id":"cebpf4jnsgd1na2vs0mg"},{"bike_id":"fd7d128c-986f-4250-b6d2-bf737d7077fb","system_id":"levelo_inurba_marseille","lat":43.26496,"lon":5.39559,"is_reserved":false,"is_disabled":true,"rental_uris":{"android":"levelo://app?vid=fd7d128c-986f-4250-b6d2-bf737d7077fb","ios":"levelo://app?vid=fd7d128c-986f-4250-b6d2-bf737d7077fb"},"vehicle_type_id":"4","last_reported":1744096227,"current_range_meters":7200,"station_id":"ce4bhi12rcd13ifvqfq0","pricing_plan_id":"cebpf4jnsgd1na2vs0mg"},{"bike_id":"87bda883-ac94-49fc-94c2-3a86e52b4f97","system_id":"levelo_inurba_marseille","lat":43.307241,"lon":5.383376,"is_reserved":false,"is_disabled":false,"rental_uris":{"android":"levelo://app?vid=87bda883-ac94-49fc-94c2-3a86e52b4f97","ios":"levelo://app?vid=87bda883-ac94-49fc-94c2-3a86e52b4f97"},"vehicle_type_id":"4","last_reported":1744096227,"current_range_meters":7200,"station_id":"","pricing_plan_id":"cebpf4jnsgd1na2vs0mg"},{"bike_id":"c9d68e0d-f0e0-4532-8994-3973830ee91c","system_id":"levelo_inurba_marseille","lat":43.26056,"lon":5.39397,"is_reserved":false,"is_disabled":false,"rental_uris":{"android":"levelo://app?vid=c9d68e0d-f0e0-4532-8994-3973830ee91c","ios":"levelo://app?vid=c9d68e0d-f0e0-4532-8994-3973830ee91c"},"vehicle_type_id":"4","last_reported":1744096227,"current_range_meters":7200,"station_id":"ce4bhh92rcd13ifvqfj0","pricing_plan_id":"cebpf4jnsgd1na2vs0mg"},{"bike_id":"5ba02e57-e745-47ce-9b93-c851debe9e12","system_id":"levelo_inurba_marseille","lat":43.27193,"lon":5.40999,"is_reserved":false,"is_disabled":false,"rental_uris":{"android":"levelo://app?vid=5ba02e57-e745-47ce-9b93-c851debe9e12","ios":"levelo://app?vid=5ba02e57-e745-47ce-9b93-c851debe9e12"},"vehicle_type_id":"4","last_reported":1744096227,"current_range_meters":7200,"station_id":"ce4bhl12rcd13ifvqgf0","pricing_plan_id":"cebpf4jnsgd1na2vs0mg"},{"bike_id":"7ae1c95c-1e2c-400a-8efd-618212ebe707","system_id":"levelo_inurba_marseille","lat":43.316411,"lon":5.38238,"is_reserved":false,"is_disabled":false,"rental_uris":{"android":"levelo://app?vid=7ae1c95c-1e2c-400a-8efd-618212ebe707","ios":"levelo://app?vid=7ae1c95c-1e2c-400a-8efd-618212ebe707"},"vehicle_type_id":"4","last_reported":1744096227,"current_range_meters":7200,"station_id":"","pricing_plan_id":"cebpf4jnsgd1na2vs0mg"},{"bike_id":"21ad2b20-e326-40c8-a3d6-b2092488dc26","system_id":"levelo_inurba_marseille","lat":43.24395,"lon":5.37016,"is_reserved":false,"is_disabled":false,"rental_uris":{"android":"levelo://app?vid=21ad2b20-e326-40c8-a3d6-b2092488dc26","ios":"levelo://app?vid=21ad2b20-e326-40c8-a3d6-b2092488dc26"},"vehicle_type_id":"4","last_reported":1744096227,"current_range_meters":7200,"station_id":"ce4bhhh2rcd13ifvqfk0","pricing_plan_id":"cebpf4jnsgd1na2vs0mg"},{"bike_id":"239ab272-487f-44d9-b9ee-fe55e7fc2e52","system_id":"levelo_inurba_marseille","lat":43.29303,"lon":5.37471,"is_reserved":false,"is_disabled":true,"rental_uris":{"android":"levelo://app?vid=239ab272-487f-44d9-b9ee-fe55e7fc2e52","ios":"levelo://app?vid=239ab272-487f-44d9-b9ee-fe55e7fc2e52"},"vehicle_type_id":"4","last_reported":1744096227,"current_range_meters":8000,"station_id":"ce4bgi12rcd13ifvqb70","pricing_plan_id":"cebpf4jnsgd1na2vs0mg"},{"bike_id":"21465284-4bc0-4c69-8d7f-95731c02f76d","system_id":"levelo_inurba_marseille","lat":43.3136,"lon":5.38507,"is_reserved":false,"is_disabled":false,"rental_uris":{"android":"levelo://app?vid=21465284-4bc0-4c69-8d7f-95731c02f76d","ios":"levelo://app?vid=21465284-4bc0-4c69-8d7f-95731c02f76d"},"vehicle_type_id":"4","last_reported":1744096227,"current_range_meters":8000,"station_id":"ce4bgt92rcd13ifvqcf0","pricing_plan_id":"cebpf4jnsgd1na2vs0mg"},{"bike_id":"db77aa95-72db-470c-9c43-5322da612de8","system_id":"levelo_inurba_marseille","lat":43.31826,"lon":5.40184,"is_reserved":false,"is_disabled":false,"rental_uris":{"android":"levelo://app?vid=db77aa95-72db-470c-9c43-5322da612de8","ios":"levelo://app?vid=db77aa95-72db-470c-9c43-5322da612de8"},"vehicle_type_id":"4","last_reported":1744096227,"current_range_meters":8000,"station_id":"","pricing_plan_id":"cebpf4jnsgd1na2vs0mg"},{"bike_id":"bec659b1-2ddb-41bf-9e2d-39084f6c1a4a","system_id":"levelo_inurba_marseille","lat":43.317193,"lon":5.424013,"is_reserved":false,"is_disabled":false,"rental_uris":{"android":"levelo://app?vid=bec659b1-2ddb-41bf-9e2d-39084f6c1a4a","ios":"levelo://app?vid=bec659b1-2ddb-41bf-9e2d-39084f6c1a4a"},"vehicle_type_id":"4","last_reported":1744096227,"current_range_meters":8000,"station_id":"ce4bhp92rcd13ifvqhbg","pricing_plan_id":"cebpf4jnsgd1na2vs0mg"},{"bike_id":"9972aee6-4470-443a-8e14-c2078bb91c0d","system_id":"levelo_inurba_marseille","lat":43.31216,"lon":5.37099,"is_reserved":false,"is_disabled":false,"rental_uris":{"android":"levelo://app?vid=9972aee6-4470-443a-8e14-c2078bb91c0d","ios":"levelo://app?vid=9972aee6-4470-443a-8e14-c2078bb91c0d"},"vehicle_type_id":"4","last_reported":1744096227,"current_range_meters":8000,"station_id":"","pricing_plan_id":"cebpf4jnsgd1na2vs0mg"},{"bike_id":"9f58fe17-7445-4171-ab8a-b7da8864df25","system_id":"levelo_inurba_marseille","lat":43.29893,"lon":5.43651,"is_reserved":false,"is_disabled":false,"rental_uris":{"android":"levelo://app?vid=9f58fe17-7445-4171-ab8a-b7da8864df25","ios":"levelo://app?vid=9f58fe17-7445-4171-ab8a-b7da8864df25"},"vehicle_type_id":"4","last_reported":1744096227,"current_range_meters":8000,"station_id":"ce4bhpp2rcd13ifvqhfg","pricing_plan_id":"cebpf4jnsgd1na2vs0mg"},{"bike_id":"cc057f14-b1e1-4dee-b107-8741c01c5964","system_id":"levelo_inurba_marseille","lat":43.32093,"lon":5.36782,"is_reserved":false,"is_disabled":true,"rental_uris":{"android":"levelo://app?vid=cc057f14-b1e1-4dee-b107-8741c01c5964","ios":"levelo://app?vid=cc057f14-b1e1-4dee-b107-8741c01c5964"},"vehicle_type_id":"4","last_reported":1744096227,"current_range_meters":8000,"station_id":"ce4bhrh2rcd13ifvqhug","pricing_plan_id":"cebpf4jnsgd1na2vs0mg"},{"bike_id":"472cc903-1990-45bb-855b-95941b9edb84","system_id":"levelo_inurba_marseille","lat":43.24425,"lon":5.37035,"is_reserved":false,"is_disabled":false,"rental_uris":{"android":"levelo://app?vid=472cc903-1990-45bb-855b-95941b9edb84","ios":"levelo://app?vid=472cc903-1990-45bb-855b-95941b9edb84"},"vehicle_type_id":"4","last_reported":1744096227,"current_range_meters":8400,"station_id":"ce4bhhh2rcd13ifvqfk0","pricing_plan_id":"cebpf4jnsgd1na2vs0mg"},{"bike_id":"750bc9c2-8244-4f27-a571-77c62d7d6b92","system_id":"levelo_inurba_marseille","lat":43.31265,"lon":5.37766,"is_reserved":false,"is_disabled":false,"rental_uris":{"android":"levelo://app?vid=750bc9c2-8244-4f27-a571-77c62d7d6b92","ios":"levelo://app?vid=750bc9c2-8244-4f27-a571-77c62d7d6b92"},"vehicle_type_id":"4","last_reported":1744096227,"current_range_meters":8400,"station_id":"","pricing_plan_id":"cebpf4jnsgd1na2vs0mg"},{"bike_id":"b4631891-b75f-4987-8122-6d603b0cc762","system_id":"levelo_inurba_marseille","lat":43.24391,"lon":5.37059,"is_reserved":false,"is_disabled":false,"rental_uris":{"android":"levelo://app?vid=b4631891-b75f-4987-8122-6d603b0cc762","ios":"levelo://app?vid=b4631891-b75f-4987-8122-6d603b0cc762"},"vehicle_type_id":"4","last_reported":1744096227,"current_range_meters":8400,"station_id":"ce4bhhh2rcd13ifvqfk0","pricing_plan_id":"cebpf4jnsgd1na2vs0mg"},{"bike_id":"62f09ee9-4a5c-4371-a1a6-0cfab82c7212","system_id":"levelo_inurba_marseille","lat":43.29519,"lon":5.38622,"is_reserved":false,"is_disabled":false,"rental_uris":{"android":"levelo://app?vid=62f09ee9-4a5c-4371-a1a6-0cfab82c7212","ios":"levelo://app?vid=62f09ee9-4a5c-4371-a1a6-0cfab82c7212"},"vehicle_type_id":"4","last_reported":1744096227,"current_range_meters":8400,"station_id":"","pricing_plan_id":"cebpf4jnsgd1na2vs0mg"},{"bike_id":"72b8b41d-e043-4509-8ece-eccb5cd34253","system_id":"levelo_inurba_marseille","lat":43.267846,"lon":5.393937,"is_reserved":false,"is_disabled":false,"rental_uris":{"android":"levelo://app?vid=72b8b41d-e043-4509-8ece-eccb5cd34253","ios":"levelo://app?vid=72b8b41d-e043-4509-8ece-eccb5cd34253"},"vehicle_type_id":"4","last_reported":1744096227,"current_range_meters":8400,"station_id":"ce4bhh12rcd13ifvqfg0","pricing_plan_id":"cebpf4jnsgd1na2vs0mg"},{"bike_id":"c05f9950-3465-4e68-888a-ae2cf089b451","system_id":"levelo_inurba_marseille","lat":43.257086,"lon":5.410414,"is_reserved":false,"is_disabled":false,"rental_uris":{"android":"levelo://app?vid=c05f9950-3465-4e68-888a-ae2cf089b451","ios":"levelo://app?vid=c05f9950-3465-4e68-888a-ae2cf089b451"},"vehicle_type_id":"4","last_reported":1744096227,"current_range_meters":8400,"station_id":"ce4bhkp2rcd13ifvqgd0","pricing_plan_id":"cebpf4jnsgd1na2vs0mg"},{"bike_id":"b9bb07c3-031d-47e1-bc44-46ab3242e129","system_id":"levelo_inurba_marseille","lat":43.30904,"lon":5.3684,"is_reserved":false,"is_disabled":false,"rental_uris":{"android":"levelo://app?vid=b9bb07c3-031d-47e1-bc44-46ab3242e129","ios":"levelo://app?vid=b9bb07c3-031d-47e1-bc44-46ab3242e129"},"vehicle_type_id":"4","last_reported":1744096227,"current_range_meters":8400,"station_id":"ce4bgn92rcd13ifvqbvg","pricing_plan_id":"cebpf4jnsgd1na2vs0mg"},{"bike_id":"a2939184-a851-4e88-950c-6424e69786a6","system_id":"levelo_inurba_marseille","lat":43.27802,"lon":5.40688,"is_reserved":false,"is_disabled":true,"rental_uris":{"android":"levelo://app?vid=a2939184-a851-4e88-950c-6424e69786a6","ios":"levelo://app?vid=a2939184-a851-4e88-950c-6424e69786a6"},"vehicle_type_id":"4","last_reported":1744096227,"current_range_meters":8400,"station_id":"ce4bhnh2rcd13ifvqgtg","pricing_plan_id":"cebpf4jnsgd1na2vs0mg"},{"bike_id":"7bb83873-debe-47f5-96f9-7730ff73780d","system_id":"levelo_inurba_marseille","lat":43.3122,"lon":5.36853,"is_reserved":false,"is_disabled":false,"rental_uris":{"android":"levelo://app?vid=7bb83873-debe-47f5-96f9-7730ff73780d","ios":"levelo://app?vid=7bb83873-debe-47f5-96f9-7730ff73780d"},"vehicle_type_id":"4","last_reported":1744096227,"current_range_meters":8400,"station_id":"ce4bgl92rcd13ifvqbq0","pricing_plan_id":"cebpf4jnsgd1na2vs0mg"},{"bike_id":"3cbad1fb-d71d-4e4f-90fa-c1465f9f9b65","system_id":"levelo_inurba_marseille","lat":43.21198,"lon":5.35104,"is_reserved":false,"is_disabled":true,"rental_uris":{"android":"levelo://app?vid=3cbad1fb-d71d-4e4f-90fa-c1465f9f9b65","ios":"levelo://app?vid=3cbad1fb-d71d-4e4f-90fa-c1465f9f9b65"},"vehicle_type_id":"4","last_reported":1744096227,"current_range_meters":8400,"station_id":"st_cvj6sg6p6f1abm77japg","pricing_plan_id":"cebpf4jnsgd1na2vs0mg"},{"bike_id":"17a00ad8-838f-4a96-b838-0ac4acdf8abf","system_id":"levelo_inurba_marseille","lat":43.25939,"lon":5.40904,"is_reserved":false,"is_disabled":false,"rental_uris":{"android":"levelo://app?vid=17a00ad8-838f-4a96-b838-0ac4acdf8abf","ios":"levelo://app?vid=17a00ad8-838f-4a96-b838-0ac4acdf8abf"},"vehicle_type_id":"4","last_reported":1744096227,"current_range_meters":8800,"station_id":"ce4bhm92rcd13ifvqglg","pricing_plan_id":"cebpf4jnsgd1na2vs0mg"},{"bike_id":"17ae3293-59cd-4be2-9b83-3db3af796493","system_id":"levelo_inurba_marseille","lat":43.30407,"lon":5.41301,"is_reserved":false,"is_disabled":false,"rental_uris":{"android":"levelo://app?vid=17ae3293-59cd-4be2-9b83-3db3af796493","ios":"levelo://app?vid=17ae3293-59cd-4be2-9b83-3db3af796493"},"vehicle_type_id":"4","last_reported":1744096227,"current_range_meters":8800,"station_id":"ce4bhop2rcd13ifvqh8g","pricing_plan_id":"cebpf4jnsgd1na2vs0mg"},{"bike_id":"9389f907-78e2-4c8e-b008-de9739faa63f","system_id":"levelo_inurba_marseille","lat":43.33198,"lon":5.38974,"is_reserved":false,"is_disabled":false,"rental_uris":{"android":"levelo://app?vid=9389f907-78e2-4c8e-b008-de9739faa63f","ios":"levelo://app?vid=9389f907-78e2-4c8e-b008-de9739faa63f"},"vehicle_type_id":"4","last_reported":1744096227,"current_range_meters":8800,"station_id":"","pricing_plan_id":"cebpf4jnsgd1na2vs0mg"},{"bike_id":"6b770536-e0ee-4074-a4d5-7fac1065bae9","system_id":"levelo_inurba_marseille","lat":43.33727,"lon":5.39203,"is_reserved":false,"is_disabled":false,"rental_uris":{"android":"levelo://app?vid=6b770536-e0ee-4074-a4d5-7fac1065bae9","ios":"levelo://app?vid=6b770536-e0ee-4074-a4d5-7fac1065bae9"},"vehicle_type_id":"4","last_reported":1744096227,"current_range_meters":8800,"station_id":"ce4bhr92rcd13ifvqhsg","pricing_plan_id":"cebpf4jnsgd1na2vs0mg"},{"bike_id":"7b3646e0-cbf2-40de-92a8-c829ec618775","system_id":"levelo_inurba_marseille","lat":43.31995,"lon":5.38153,"is_reserved":false,"is_disabled":true,"rental_uris":{"android":"levelo://app?vid=7b3646e0-cbf2-40de-92a8-c829ec618775","ios":"levelo://app?vid=7b3646e0-cbf2-40de-92a8-c829ec618775"},"vehicle_type_id":"4","last_reported":1744096227,"current_range_meters":8800,"station_id":"ce4bhr12rcd13ifvqhpg","pricing_plan_id":"cebpf4jnsgd1na2vs0mg"},{"bike_id":"500233d6-8d0e-4f56-bbbc-35558cdc396c","system_id":"levelo_inurba_marseille","lat":43.28938,"lon":5.36639,"is_reserved":false,"is_disabled":true,"rental_uris":{"android":"levelo://app?vid=500233d6-8d0e-4f56-bbbc-35558cdc396c","ios":"levelo://app?vid=500233d6-8d0e-4f56-bbbc-35558cdc396c"},"vehicle_type_id":"4","last_reported":1744096227,"current_range_meters":8800,"station_id":"ce4bhap2rcd13ifvqek0","pricing_plan_id":"cebpf4jnsgd1na2vs0mg"},{"bike_id":"21c59577-5327-44df-ae67-b91a3b0f8756","system_id":"levelo_inurba_marseille","lat":43.31342,"lon":5.3673,"is_reserved":false,"is_disabled":false,"rental_uris":{"android":"levelo://app?vid=21c59577-5327-44df-ae67-b91a3b0f8756","ios":"levelo://app?vid=21c59577-5327-44df-ae67-b91a3b0f8756"},"vehicle_type_id":"4","last_reported":1744096227,"current_range_meters":8800,"station_id":"ce4bgr92rcd13ifvqc6g","pricing_plan_id":"cebpf4jnsgd1na2vs0mg"},{"bike_id":"444a5f07-09c5-40f5-8d58-60f1f25c67b9","system_id":"levelo_inurba_marseille","lat":43.31985,"lon":5.38158,"is_reserved":false,"is_disabled":false,"rental_uris":{"android":"levelo://app?vid=444a5f07-09c5-40f5-8d58-60f1f25c67b9","ios":"levelo://app?vid=444a5f07-09c5-40f5-8d58-60f1f25c67b9"},"vehicle_type_id":"4","last_reported":1744096227,"current_range_meters":8800,"station_id":"ce4bhr12rcd13ifvqhpg","pricing_plan_id":"cebpf4jnsgd1na2vs0mg"},{"bike_id":"485f24a3-8ba6-4caa-8780-8392668d8f6b","system_id":"levelo_inurba_marseille","lat":43.3172,"lon":5.37772,"is_reserved":false,"is_disabled":true,"rental_uris":{"android":"levelo://app?vid=485f24a3-8ba6-4caa-8780-8392668d8f6b","ios":"levelo://app?vid=485f24a3-8ba6-4caa-8780-8392668d8f6b"},"vehicle_type_id":"4","last_reported":1744096227,"current_range_meters":9200,"station_id":"ce4bgth2rcd13ifvqch0","pricing_plan_id":"cebpf4jnsgd1na2vs0mg"},{"bike_id":"f563a514-7415-4ded-b2b4-91475c1fff53","system_id":"levelo_inurba_marseille","lat":43.26941,"lon":5.40283,"is_reserved":false,"is_disabled":false,"rental_uris":{"android":"levelo://app?vid=f563a514-7415-4ded-b2b4-91475c1fff53","ios":"levelo://app?vid=f563a514-7415-4ded-b2b4-91475c1fff53"},"vehicle_type_id":"4","last_reported":1744096227,"current_range_meters":9200,"station_id":"cjm6bp8fraef2m0cb0m0","pricing_plan_id":"cebpf4jnsgd1na2vs0mg"},{"bike_id":"89771962-fe60-4144-a8a6-39dd0f7b9fb3","system_id":"levelo_inurba_marseille","lat":43.21208,"lon":5.35097,"is_reserved":false,"is_disabled":false,"rental_uris":{"android":"levelo://app?vid=89771962-fe60-4144-a8a6-39dd0f7b9fb3","ios":"levelo://app?vid=89771962-fe60-4144-a8a6-39dd0f7b9fb3"},"vehicle_type_id":"4","last_reported":1744096227,"current_range_meters":9200,"station_id":"st_cvj6sg6p6f1abm77japg","pricing_plan_id":"cebpf4jnsgd1na2vs0mg"},{"bike_id":"5601ba45-e3e8-42fe-8a68-10d46f765359","system_id":"levelo_inurba_marseille","lat":43.26784,"lon":5.39417,"is_reserved":false,"is_disabled":false,"rental_uris":{"android":"levelo://app?vid=5601ba45-e3e8-42fe-8a68-10d46f765359","ios":"levelo://app?vid=5601ba45-e3e8-42fe-8a68-10d46f765359"},"vehicle_type_id":"4","last_reported":1744096227,"current_range_meters":9200,"station_id":"ce4bhh12rcd13ifvqfg0","pricing_plan_id":"cebpf4jnsgd1na2vs0mg"},{"bike_id":"f39be6f5-2f69-4c37-b021-559d20b299a4","system_id":"levelo_inurba_marseille","lat":43.30003,"lon":5.37656,"is_reserved":false,"is_disabled":false,"rental_uris":{"android":"levelo://app?vid=f39be6f5-2f69-4c37-b021-559d20b299a4","ios":"levelo://app?vid=f39be6f5-2f69-4c37-b021-559d20b299a4"},"vehicle_type_id":"4","last_reported":1744096227,"current_range_meters":9200,"station_id":"","pricing_plan_id":"cebpf4jnsgd1na2vs0mg"},{"bike_id":"55fe5251-21ad-4a8a-81dd-9a34b7108151","system_id":"levelo_inurba_marseille","lat":43.30532,"lon":5.3656,"is_reserved":false,"is_disabled":false,"rental_uris":{"android":"levelo://app?vid=55fe5251-21ad-4a8a-81dd-9a34b7108151","ios":"levelo://app?vid=55fe5251-21ad-4a8a-81dd-9a34b7108151"},"vehicle_type_id":"4","last_reported":1744096227,"current_range_meters":9200,"station_id":"ce4bgs12rcd13ifvqcag","pricing_plan_id":"cebpf4jnsgd1na2vs0mg"},{"bike_id":"23f362af-ca0e-4b2b-b568-f4912dc4ec04","system_id":"levelo_inurba_marseille","lat":43.30547,"lon":5.36711,"is_reserved":false,"is_disabled":true,"rental_uris":{"android":"levelo://app?vid=23f362af-ca0e-4b2b-b568-f4912dc4ec04","ios":"levelo://app?vid=23f362af-ca0e-4b2b-b568-f4912dc4ec04"},"vehicle_type_id":"4","last_reported":1744096227,"current_range_meters":9200,"station_id":"ce4bgrp2rcd13ifvqc9g","pricing_plan_id":"cebpf4jnsgd1na2vs0mg"},{"bike_id":"2e9000dc-6400-4918-a994-dd60039ca96d","system_id":"levelo_inurba_marseille","lat":43.3199,"lon":5.38136,"is_reserved":false,"is_disabled":true,"rental_uris":{"android":"levelo://app?vid=2e9000dc-6400-4918-a994-dd60039ca96d","ios":"levelo://app?vid=2e9000dc-6400-4918-a994-dd60039ca96d"},"vehicle_type_id":"4","last_reported":1744096227,"current_range_meters":9200,"station_id":"ce4bhr12rcd13ifvqhpg","pricing_plan_id":"cebpf4jnsgd1na2vs0mg"},{"bike_id":"ae224cde-effe-420c-820f-bed9b8f97713","system_id":"levelo_inurba_marseille","lat":43.30921,"lon":5.36846,"is_reserved":false,"is_disabled":false,"rental_uris":{"android":"levelo://app?vid=ae224cde-effe-420c-820f-bed9b8f97713","ios":"levelo://app?vid=ae224cde-effe-420c-820f-bed9b8f97713"},"vehicle_type_id":"4","last_reported":1744096227,"current_range_meters":9600,"station_id":"ce4bgn92rcd13ifvqbvg","pricing_plan_id":"cebpf4jnsgd1na2vs0mg"},{"bike_id":"3b4e1299-1e40-4aec-ad7e-7eb21543e414","system_id":"levelo_inurba_marseille","lat":43.31222,"lon":5.36859,"is_reserved":false,"is_disabled":false,"rental_uris":{"android":"levelo://app?vid=3b4e1299-1e40-4aec-ad7e-7eb21543e414","ios":"levelo://app?vid=3b4e1299-1e40-4aec-ad7e-7eb21543e414"},"vehicle_type_id":"4","last_reported":1744096227,"current_range_meters":9600,"station_id":"ce4bgl92rcd13ifvqbq0","pricing_plan_id":"cebpf4jnsgd1na2vs0mg"},{"bike_id":"d1789c99-5c7c-4e88-9d29-ce771e783c08","system_id":"levelo_inurba_marseille","lat":43.31013,"lon":5.37742,"is_reserved":false,"is_disabled":false,"rental_uris":{"android":"levelo://app?vid=d1789c99-5c7c-4e88-9d29-ce771e783c08","ios":"levelo://app?vid=d1789c99-5c7c-4e88-9d29-ce771e783c08"},"vehicle_type_id":"4","last_reported":1744096227,"current_range_meters":9600,"station_id":"","pricing_plan_id":"cebpf4jnsgd1na2vs0mg"},{"bike_id":"e42a3a9c-b79c-475c-96dc-e16180b680f3","system_id":"levelo_inurba_marseille","lat":43.33602,"lon":5.41003,"is_reserved":false,"is_disabled":false,"rental_uris":{"android":"levelo://app?vid=e42a3a9c-b79c-475c-96dc-e16180b680f3","ios":"levelo://app?vid=e42a3a9c-b79c-475c-96dc-e16180b680f3"},"vehicle_type_id":"4","last_reported":1744096227,"current_range_meters":9600,"station_id":"ce4bhqh2rcd13ifvqhmg","pricing_plan_id":"cebpf4jnsgd1na2vs0mg"},{"bike_id":"f11deefa-fd09-4262-a77e-35f24c433380","system_id":"levelo_inurba_marseille","lat":43.30952,"lon":5.3903,"is_reserved":false,"is_disabled":false,"rental_uris":{"android":"levelo://app?vid=f11deefa-fd09-4262-a77e-35f24c433380","ios":"levelo://app?vid=f11deefa-fd09-4262-a77e-35f24c433380"},"vehicle_type_id":"4","last_reported":1744096227,"current_range_meters":9600,"station_id":"ce4bgup2rcd13ifvqco0","pricing_plan_id":"cebpf4jnsgd1na2vs0mg"},{"bike_id":"3576b946-70b3-456f-a60a-d98e227f015c","system_id":"levelo_inurba_marseille","lat":43.30122,"lon":5.38235,"is_reserved":false,"is_disabled":false,"rental_uris":{"android":"levelo://app?vid=3576b946-70b3-456f-a60a-d98e227f015c","ios":"levelo://app?vid=3576b946-70b3-456f-a60a-d98e227f015c"},"vehicle_type_id":"4","last_reported":1744096227,"current_range_meters":9600,"station_id":"ce4bgup2rcd13ifvqcn0","pricing_plan_id":"cebpf4jnsgd1na2vs0mg"},{"bike_id":"91af7c49-4122-4f83-a08d-fc084211eb7b","system_id":"levelo_inurba_marseille","lat":43.31356,"lon":5.36724,"is_reserved":false,"is_disabled":false,"rental_uris":{"android":"levelo://app?vid=91af7c49-4122-4f83-a08d-fc084211eb7b","ios":"levelo://app?vid=91af7c49-4122-4f83-a08d-fc084211eb7b"},"vehicle_type_id":"4","last_reported":1744096227,"current_range_meters":9600,"station_id":"ce4bgr92rcd13ifvqc6g","pricing_plan_id":"cebpf4jnsgd1na2vs0mg"},{"bike_id":"90837c00-0cda-4577-a71e-5ca8702fd375","system_id":"levelo_inurba_marseille","lat":43.28732,"lon":5.37937,"is_reserved":false,"is_disabled":false,"rental_uris":{"android":"levelo://app?vid=90837c00-0cda-4577-a71e-5ca8702fd375","ios":"levelo://app?vid=90837c00-0cda-4577-a71e-5ca8702fd375"},"vehicle_type_id":"4","last_reported":1744096227,"current_range_meters":9600,"station_id":"ce4bh9p2rcd13ifvqec0","pricing_plan_id":"cebpf4jnsgd1na2vs0mg"},{"bike_id":"5721e144-8bd5-4375-9a52-4dcca54e07eb","system_id":"levelo_inurba_marseille","lat":43.29885,"lon":5.39769,"is_reserved":false,"is_disabled":false,"rental_uris":{"android":"levelo://app?vid=5721e144-8bd5-4375-9a52-4dcca54e07eb","ios":"levelo://app?vid=5721e144-8bd5-4375-9a52-4dcca54e07eb"},"vehicle_type_id":"4","last_reported":1744096227,"current_range_meters":9600,"station_id":"ce4bh0h2rcd13ifvqd50","pricing_plan_id":"cebpf4jnsgd1na2vs0mg"},{"bike_id":"9ad34866-480a-4e90-a606-26f193456360","system_id":"levelo_inurba_marseille","lat":43.30287,"lon":5.37698,"is_reserved":false,"is_disabled":false,"rental_uris":{"android":"levelo://app?vid=9ad34866-480a-4e90-a606-26f193456360","ios":"levelo://app?vid=9ad34866-480a-4e90-a606-26f193456360"},"vehicle_type_id":"4","last_reported":1744096227,"current_range_meters":9600,"station_id":"ce4bguh2rcd13ifvqcj0","pricing_plan_id":"cebpf4jnsgd1na2vs0mg"},{"bike_id":"e8785ddb-82d3-4dab-bed8-88449ef4b370","system_id":"levelo_inurba_marseille","lat":43.274261,"lon":5.362906,"is_reserved":false,"is_disabled":false,"rental_uris":{"android":"levelo://app?vid=e8785ddb-82d3-4dab-bed8-88449ef4b370","ios":"levelo://app?vid=e8785ddb-82d3-4dab-bed8-88449ef4b370"},"vehicle_type_id":"4","last_reported":1744096227,"current_range_meters":9600,"station_id":"ce4bhi12rcd13ifvqfp0","pricing_plan_id":"cebpf4jnsgd1na2vs0mg"},{"bike_id":"dff0c398-5457-4c82-99b9-071db8607d47","system_id":"levelo_inurba_marseille","lat":43.25697,"lon":5.41937,"is_reserved":false,"is_disabled":false,"rental_uris":{"android":"levelo://app?vid=dff0c398-5457-4c82-99b9-071db8607d47","ios":"levelo://app?vid=dff0c398-5457-4c82-99b9-071db8607d47"},"vehicle_type_id":"4","last_reported":1744096227,"current_range_meters":10000,"station_id":"","pricing_plan_id":"cebpf4jnsgd1na2vs0mg"},{"bike_id":"f17ce36f-e80a-4732-89e2-7a7dfab19d87","system_id":"levelo_inurba_marseille","lat":43.299,"lon":5.43661,"is_reserved":false,"is_disabled":false,"rental_uris":{"android":"levelo://app?vid=f17ce36f-e80a-4732-89e2-7a7dfab19d87","ios":"levelo://app?vid=f17ce36f-e80a-4732-89e2-7a7dfab19d87"},"vehicle_type_id":"4","last_reported":1744096227,"current_range_meters":10000,"station_id":"ce4bhpp2rcd13ifvqhfg","pricing_plan_id":"cebpf4jnsgd1na2vs0mg"},{"bike_id":"82f28cf6-556c-431d-a12b-bd3ce5fc2f28","system_id":"levelo_inurba_marseille","lat":43.27503,"lon":5.37763,"is_reserved":false,"is_disabled":false,"rental_uris":{"android":"levelo://app?vid=82f28cf6-556c-431d-a12b-bd3ce5fc2f28","ios":"levelo://app?vid=82f28cf6-556c-431d-a12b-bd3ce5fc2f28"},"vehicle_type_id":"4","last_reported":1744096227,"current_range_meters":10000,"station_id":"","pricing_plan_id":"cebpf4jnsgd1na2vs0mg"},{"bike_id":"d50e409f-bff5-4638-85e9-afa60580b5a7","system_id":"levelo_inurba_marseille","lat":43.32111,"lon":5.367683,"is_reserved":false,"is_disabled":false,"rental_uris":{"android":"levelo://app?vid=d50e409f-bff5-4638-85e9-afa60580b5a7","ios":"levelo://app?vid=d50e409f-bff5-4638-85e9-afa60580b5a7"},"vehicle_type_id":"4","last_reported":1744096227,"current_range_meters":10000,"station_id":"ce4bhrh2rcd13ifvqhug","pricing_plan_id":"cebpf4jnsgd1na2vs0mg"},{"bike_id":"c9bafbba-b7f7-46f1-9ddb-3cbf4105567c","system_id":"levelo_inurba_marseille","lat":43.30953,"lon":5.39061,"is_reserved":false,"is_disabled":false,"rental_uris":{"android":"levelo://app?vid=c9bafbba-b7f7-46f1-9ddb-3cbf4105567c","ios":"levelo://app?vid=c9bafbba-b7f7-46f1-9ddb-3cbf4105567c"},"vehicle_type_id":"4","last_reported":1744096227,"current_range_meters":10000,"station_id":"ce4bgup2rcd13ifvqco0","pricing_plan_id":"cebpf4jnsgd1na2vs0mg"},{"bike_id":"b7d15525-0102-4d63-b7d3-eaa2bc4c21c3","system_id":"levelo_inurba_marseille","lat":43.21747,"lon":5.34632,"is_reserved":false,"is_disabled":true,"rental_uris":{"android":"levelo://app?vid=b7d15525-0102-4d63-b7d3-eaa2bc4c21c3","ios":"levelo://app?vid=b7d15525-0102-4d63-b7d3-eaa2bc4c21c3"},"vehicle_type_id":"4","last_reported":1744096227,"current_range_meters":10000,"station_id":"","pricing_plan_id":"cebpf4jnsgd1na2vs0mg"},{"bike_id":"034b881e-44c7-46eb-affa-8c5577be2c99","system_id":"levelo_inurba_marseille","lat":43.27818,"lon":5.40729,"is_reserved":false,"is_disabled":true,"rental_uris":{"android":"levelo://app?vid=034b881e-44c7-46eb-affa-8c5577be2c99","ios":"levelo://app?vid=034b881e-44c7-46eb-affa-8c5577be2c99"},"vehicle_type_id":"4","last_reported":1744096227,"current_range_meters":10000,"station_id":"ce4bhnh2rcd13ifvqgtg","pricing_plan_id":"cebpf4jnsgd1na2vs0mg"},{"bike_id":"149d12c1-918e-45ca-96d3-9e3d71a1137b","system_id":"levelo_inurba_marseille","lat":43.29036,"lon":5.40013,"is_reserved":false,"is_disabled":true,"rental_uris":{"android":"levelo://app?vid=149d12c1-918e-45ca-96d3-9e3d71a1137b","ios":"levelo://app?vid=149d12c1-918e-45ca-96d3-9e3d71a1137b"},"vehicle_type_id":"4","last_reported":1744096227,"current_range_meters":10000,"station_id":"","pricing_plan_id":"cebpf4jnsgd1na2vs0mg"},{"bike_id":"37956fe4-5744-431d-afa2-d35a2b0e9346","system_id":"levelo_inurba_marseille","lat":43.31357,"lon":5.36703,"is_reserved":false,"is_disabled":false,"rental_uris":{"android":"levelo://app?vid=37956fe4-5744-431d-afa2-d35a2b0e9346","ios":"levelo://app?vid=37956fe4-5744-431d-afa2-d35a2b0e9346"},"vehicle_type_id":"4","last_reported":1744096227,"current_range_meters":10800,"station_id":"ce4bgr92rcd13ifvqc6g","pricing_plan_id":"cebpf4jnsgd1na2vs0mg"},{"bike_id":"4b9dfe05-0e60-423c-af4b-3ef6e8cad4ce","system_id":"levelo_inurba_marseille","lat":43.25114,"lon":5.40341,"is_reserved":false,"is_disabled":true,"rental_uris":{"android":"levelo://app?vid=4b9dfe05-0e60-423c-af4b-3ef6e8cad4ce","ios":"levelo://app?vid=4b9dfe05-0e60-423c-af4b-3ef6e8cad4ce"},"vehicle_type_id":"4","last_reported":1744096227,"current_range_meters":10800,"station_id":"ce4bhlh2rcd13ifvqgig","pricing_plan_id":"cebpf4jnsgd1na2vs0mg"},{"bike_id":"708bac0c-e5ff-48d8-a93a-c994aa19a96c","system_id":"levelo_inurba_marseille","lat":43.26781,"lon":5.39482,"is_reserved":false,"is_disabled":false,"rental_uris":{"android":"levelo://app?vid=708bac0c-e5ff-48d8-a93a-c994aa19a96c","ios":"levelo://app?vid=708bac0c-e5ff-48d8-a93a-c994aa19a96c"},"vehicle_type_id":"4","last_reported":1744096227,"current_range_meters":10800,"station_id":"ce4bhh12rcd13ifvqfg0","pricing_plan_id":"cebpf4jnsgd1na2vs0mg"},{"bike_id":"ea81f7e4-37ee-44b0-85d8-d05d8e89516e","system_id":"levelo_inurba_marseille","lat":43.29271,"lon":5.36837,"is_reserved":false,"is_disabled":true,"rental_uris":{"android":"levelo://app?vid=ea81f7e4-37ee-44b0-85d8-d05d8e89516e","ios":"levelo://app?vid=ea81f7e4-37ee-44b0-85d8-d05d8e89516e"},"vehicle_type_id":"4","last_reported":1744096227,"current_range_meters":11200,"station_id":"ce4bhbp2rcd13ifvqesg","pricing_plan_id":"cebpf4jnsgd1na2vs0mg"},{"bike_id":"a613de97-0090-4415-bf45-b9a7dfc2a534","system_id":"levelo_inurba_marseille","lat":43.24168,"lon":5.36398,"is_reserved":false,"is_disabled":false,"rental_uris":{"android":"levelo://app?vid=a613de97-0090-4415-bf45-b9a7dfc2a534","ios":"levelo://app?vid=a613de97-0090-4415-bf45-b9a7dfc2a534"},"vehicle_type_id":"4","last_reported":1744096227,"current_range_meters":11200,"station_id":"cpo36qri1sfpv3e86is0","pricing_plan_id":"cebpf4jnsgd1na2vs0mg"},{"bike_id":"cedeffb4-214e-49cd-9345-ab031b50baf2","system_id":"levelo_inurba_marseille","lat":43.29901,"lon":5.39774,"is_reserved":false,"is_disabled":false,"rental_uris":{"android":"levelo://app?vid=cedeffb4-214e-49cd-9345-ab031b50baf2","ios":"levelo://app?vid=cedeffb4-214e-49cd-9345-ab031b50baf2"},"vehicle_type_id":"4","last_reported":1744096227,"current_range_meters":11200,"station_id":"ce4bh0h2rcd13ifvqd50","pricing_plan_id":"cebpf4jnsgd1na2vs0mg"},{"bike_id":"daf5225b-2179-4f7d-a490-4b27348bcc04","system_id":"levelo_inurba_marseille","lat":43.272096,"lon":5.391772,"is_reserved":false,"is_disabled":false,"rental_uris":{"android":"levelo://app?vid=daf5225b-2179-4f7d-a490-4b27348bcc04","ios":"levelo://app?vid=daf5225b-2179-4f7d-a490-4b27348bcc04"},"vehicle_type_id":"4","last_reported":1744096227,"current_range_meters":11600,"station_id":"ce4bhhp2rcd13ifvqfm0","pricing_plan_id":"cebpf4jnsgd1na2vs0mg"},{"bike_id":"fb7a1608-45dc-49fb-b059-ed5163e78863","system_id":"levelo_inurba_marseille","lat":43.31719,"lon":5.437295,"is_reserved":false,"is_disabled":true,"rental_uris":{"android":"levelo://app?vid=fb7a1608-45dc-49fb-b059-ed5163e78863","ios":"levelo://app?vid=fb7a1608-45dc-49fb-b059-ed5163e78863"},"vehicle_type_id":"4","last_reported":1744096227,"current_range_meters":11600,"station_id":"ce4bhp92rcd13ifvqhcg","pricing_plan_id":"cebpf4jnsgd1na2vs0mg"},{"bike_id":"0748ce16-1dbb-4683-afb9-eabebbdfd5a5","system_id":"levelo_inurba_marseille","lat":43.29211,"lon":5.40082,"is_reserved":false,"is_disabled":false,"rental_uris":{"android":"levelo://app?vid=0748ce16-1dbb-4683-afb9-eabebbdfd5a5","ios":"levelo://app?vid=0748ce16-1dbb-4683-afb9-eabebbdfd5a5"},"vehicle_type_id":"4","last_reported":1744096227,"current_range_meters":11600,"station_id":"","pricing_plan_id":"cebpf4jnsgd1na2vs0mg"},{"bike_id":"3efd225c-11ac-48b1-ac8f-b3d2e3dc9b5d","system_id":"levelo_inurba_marseille","lat":43.3014,"lon":5.38066,"is_reserved":false,"is_disabled":false,"rental_uris":{"android":"levelo://app?vid=3efd225c-11ac-48b1-ac8f-b3d2e3dc9b5d","ios":"levelo://app?vid=3efd225c-11ac-48b1-ac8f-b3d2e3dc9b5d"},"vehicle_type_id":"4","last_reported":1744096227,"current_range_meters":11600,"station_id":"ce4bgjp2rcd13ifvqbh0","pricing_plan_id":"cebpf4jnsgd1na2vs0mg"},{"bike_id":"57c4e6e8-026a-4350-b996-12df6b497807","system_id":"levelo_inurba_marseille","lat":43.295893,"lon":5.377086,"is_reserved":false,"is_disabled":true,"rental_uris":{"android":"levelo://app?vid=57c4e6e8-026a-4350-b996-12df6b497807","ios":"levelo://app?vid=57c4e6e8-026a-4350-b996-12df6b497807"},"vehicle_type_id":"4","last_reported":1744096227,"current_range_meters":11600,"station_id":"ce4bgi92rcd13ifvqb90","pricing_plan_id":"cebpf4jnsgd1na2vs0mg"},{"bike_id":"ec7d3251-d53b-4874-b96d-6dae899b6aa1","system_id":"levelo_inurba_marseille","lat":43.2721,"lon":5.39185,"is_reserved":false,"is_disabled":false,"rental_uris":{"android":"levelo://app?vid=ec7d3251-d53b-4874-b96d-6dae899b6aa1","ios":"levelo://app?vid=ec7d3251-d53b-4874-b96d-6dae899b6aa1"},"vehicle_type_id":"4","last_reported":1744096227,"current_range_meters":11200,"station_id":"ce4bhhp2rcd13ifvqfm0","pricing_plan_id":"cebpf4jnsgd1na2vs0mg"},{"bike_id":"2b98acb6-7c0c-4c91-b6e0-ced5ec8f1349","system_id":"levelo_inurba_marseille","lat":43.31753,"lon":5.39015,"is_reserved":false,"is_disabled":false,"rental_uris":{"android":"levelo://app?vid=2b98acb6-7c0c-4c91-b6e0-ced5ec8f1349","ios":"levelo://app?vid=2b98acb6-7c0c-4c91-b6e0-ced5ec8f1349"},"vehicle_type_id":"4","last_reported":1744096227,"current_range_meters":11600,"station_id":"ce4bhqp2rcd13ifvqhng","pricing_plan_id":"cebpf4jnsgd1na2vs0mg"},{"bike_id":"0e8db975-15e5-4606-a622-3ed207d2441f","system_id":"levelo_inurba_marseille","lat":43.29559,"lon":5.42291,"is_reserved":false,"is_disabled":false,"rental_uris":{"android":"levelo://app?vid=0e8db975-15e5-4606-a622-3ed207d2441f","ios":"levelo://app?vid=0e8db975-15e5-4606-a622-3ed207d2441f"},"vehicle_type_id":"4","last_reported":1744096227,"current_range_meters":11600,"station_id":"ce4bhph2rcd13ifvqhdg","pricing_plan_id":"cebpf4jnsgd1na2vs0mg"},{"bike_id":"98169039-9034-4fba-a990-56a868121d4d","system_id":"levelo_inurba_marseille","lat":43.30539,"lon":5.36554,"is_reserved":false,"is_disabled":false,"rental_uris":{"android":"levelo://app?vid=98169039-9034-4fba-a990-56a868121d4d","ios":"levelo://app?vid=98169039-9034-4fba-a990-56a868121d4d"},"vehicle_type_id":"4","last_reported":1744096227,"current_range_meters":11600,"station_id":"ce4bgs12rcd13ifvqcag","pricing_plan_id":"cebpf4jnsgd1na2vs0mg"},{"bike_id":"f9dfa114-9392-45ea-82d5-7f9c22d73bc6","system_id":"levelo_inurba_marseille","lat":43.300068,"lon":5.36393,"is_reserved":false,"is_disabled":false,"rental_uris":{"android":"levelo://app?vid=f9dfa114-9392-45ea-82d5-7f9c22d73bc6","ios":"levelo://app?vid=f9dfa114-9392-45ea-82d5-7f9c22d73bc6"},"vehicle_type_id":"4","last_reported":1744096227,"current_range_meters":12000,"station_id":"","pricing_plan_id":"cebpf4jnsgd1na2vs0mg"},{"bike_id":"4c29676f-7258-4bbd-a1cd-ae3fe729068d","system_id":"levelo_inurba_marseille","lat":43.32478,"lon":5.36584,"is_reserved":false,"is_disabled":false,"rental_uris":{"android":"levelo://app?vid=4c29676f-7258-4bbd-a1cd-ae3fe729068d","ios":"levelo://app?vid=4c29676f-7258-4bbd-a1cd-ae3fe729068d"},"vehicle_type_id":"4","last_reported":1744096227,"current_range_meters":11600,"station_id":"ce4bhs12rcd13ifvqhvg","pricing_plan_id":"cebpf4jnsgd1na2vs0mg"},{"bike_id":"0aa02c49-cbb3-4907-a588-f754056f3ba8","system_id":"levelo_inurba_marseille","lat":43.30795,"lon":5.38153,"is_reserved":false,"is_disabled":true,"rental_uris":{"android":"levelo://app?vid=0aa02c49-cbb3-4907-a588-f754056f3ba8","ios":"levelo://app?vid=0aa02c49-cbb3-4907-a588-f754056f3ba8"},"vehicle_type_id":"4","last_reported":1744096227,"current_range_meters":12000,"station_id":"ce4bgt12rcd13ifvqce0","pricing_plan_id":"cebpf4jnsgd1na2vs0mg"},{"bike_id":"d44c4b1a-6848-40fa-a6bd-56eae44289c2","system_id":"levelo_inurba_marseille","lat":43.2968,"lon":5.37308,"is_reserved":false,"is_disabled":false,"rental_uris":{"android":"levelo://app?vid=d44c4b1a-6848-40fa-a6bd-56eae44289c2","ios":"levelo://app?vid=d44c4b1a-6848-40fa-a6bd-56eae44289c2"},"vehicle_type_id":"4","last_reported":1744096227,"current_range_meters":12000,"station_id":"ce4bgk12rcd13ifvqbj0","pricing_plan_id":"cebpf4jnsgd1na2vs0mg"},{"bike_id":"68d1cc33-0218-451e-8e10-d32225c21263","system_id":"levelo_inurba_marseille","lat":43.23174,"lon":5.43696,"is_reserved":false,"is_disabled":true,"rental_uris":{"android":"levelo://app?vid=68d1cc33-0218-451e-8e10-d32225c21263","ios":"levelo://app?vid=68d1cc33-0218-451e-8e10-d32225c21263"},"vehicle_type_id":"4","last_reported":1744096227,"current_range_meters":12000,"station_id":"ce4bhmp2rcd13ifvqgog","pricing_plan_id":"cebpf4jnsgd1na2vs0mg"},{"bike_id":"7d03e8c4-09b6-43fd-b688-8fa9a993b909","system_id":"levelo_inurba_marseille","lat":43.30927,"lon":5.3674,"is_reserved":false,"is_disabled":false,"rental_uris":{"android":"levelo://app?vid=7d03e8c4-09b6-43fd-b688-8fa9a993b909","ios":"levelo://app?vid=7d03e8c4-09b6-43fd-b688-8fa9a993b909"},"vehicle_type_id":"4","last_reported":1744096227,"current_range_meters":12000,"station_id":"","pricing_plan_id":"cebpf4jnsgd1na2vs0mg"},{"bike_id":"5811823e-f5a8-403b-aabc-b5669d7c77a5","system_id":"levelo_inurba_marseille","lat":43.30906,"lon":5.36843,"is_reserved":false,"is_disabled":false,"rental_uris":{"android":"levelo://app?vid=5811823e-f5a8-403b-aabc-b5669d7c77a5","ios":"levelo://app?vid=5811823e-f5a8-403b-aabc-b5669d7c77a5"},"vehicle_type_id":"4","last_reported":1744096227,"current_range_meters":12000,"station_id":"ce4bgn92rcd13ifvqbvg","pricing_plan_id":"cebpf4jnsgd1na2vs0mg"},{"bike_id":"cf1ff944-6ec6-45c5-ad6f-1a6c9a1154b0","system_id":"levelo_inurba_marseille","lat":43.3091,"lon":5.36861,"is_reserved":false,"is_disabled":false,"rental_uris":{"android":"levelo://app?vid=cf1ff944-6ec6-45c5-ad6f-1a6c9a1154b0","ios":"levelo://app?vid=cf1ff944-6ec6-45c5-ad6f-1a6c9a1154b0"},"vehicle_type_id":"4","last_reported":1744096227,"current_range_meters":12400,"station_id":"ce4bgn92rcd13ifvqbvg","pricing_plan_id":"cebpf4jnsgd1na2vs0mg"},{"bike_id":"4bacdaaa-7fb4-452a-b873-94dd24624c9a","system_id":"levelo_inurba_marseille","lat":43.31361,"lon":5.36718,"is_reserved":false,"is_disabled":false,"rental_uris":{"android":"levelo://app?vid=4bacdaaa-7fb4-452a-b873-94dd24624c9a","ios":"levelo://app?vid=4bacdaaa-7fb4-452a-b873-94dd24624c9a"},"vehicle_type_id":"4","last_reported":1744096227,"current_range_meters":12400,"station_id":"ce4bgr92rcd13ifvqc6g","pricing_plan_id":"cebpf4jnsgd1na2vs0mg"},{"bike_id":"a2b55975-55e4-4a3f-8af7-2c27ff45ed68","system_id":"levelo_inurba_marseille","lat":43.28152,"lon":5.42637,"is_reserved":false,"is_disabled":true,"rental_uris":{"android":"levelo://app?vid=a2b55975-55e4-4a3f-8af7-2c27ff45ed68","ios":"levelo://app?vid=a2b55975-55e4-4a3f-8af7-2c27ff45ed68"},"vehicle_type_id":"4","last_reported":1744096227,"current_range_meters":12800,"station_id":"","pricing_plan_id":"cebpf4jnsgd1na2vs0mg"},{"bike_id":"93e3fd92-d65f-4f36-ba40-a3e5476ebc87","system_id":"levelo_inurba_marseille","lat":43.30689,"lon":5.36587,"is_reserved":false,"is_disabled":false,"rental_uris":{"android":"levelo://app?vid=93e3fd92-d65f-4f36-ba40-a3e5476ebc87","ios":"levelo://app?vid=93e3fd92-d65f-4f36-ba40-a3e5476ebc87"},"vehicle_type_id":"4","last_reported":1744096227,"current_range_meters":12800,"station_id":"","pricing_plan_id":"cebpf4jnsgd1na2vs0mg"},{"bike_id":"158df057-ca83-4895-ad1d-881f1e1b56e6","system_id":"levelo_inurba_marseille","lat":43.27208,"lon":5.39212,"is_reserved":false,"is_disabled":true,"rental_uris":{"android":"levelo://app?vid=158df057-ca83-4895-ad1d-881f1e1b56e6","ios":"levelo://app?vid=158df057-ca83-4895-ad1d-881f1e1b56e6"},"vehicle_type_id":"4","last_reported":1744096227,"current_range_meters":12800,"station_id":"ce4bhhp2rcd13ifvqfm0","pricing_plan_id":"cebpf4jnsgd1na2vs0mg"},{"bike_id":"cf1e3e29-0d99-4c8b-9d85-9649606fe6fe","system_id":"levelo_inurba_marseille","lat":43.30907,"lon":5.36842,"is_reserved":false,"is_disabled":false,"rental_uris":{"android":"levelo://app?vid=cf1e3e29-0d99-4c8b-9d85-9649606fe6fe","ios":"levelo://app?vid=cf1e3e29-0d99-4c8b-9d85-9649606fe6fe"},"vehicle_type_id":"4","last_reported":1744096227,"current_range_meters":12800,"station_id":"ce4bgn92rcd13ifvqbvg","pricing_plan_id":"cebpf4jnsgd1na2vs0mg"},{"bike_id":"5aa69766-38fe-4c8e-af06-a6c9608392bf","system_id":"levelo_inurba_marseille","lat":43.295273,"lon":5.378634,"is_reserved":false,"is_disabled":true,"rental_uris":{"android":"levelo://app?vid=5aa69766-38fe-4c8e-af06-a6c9608392bf","ios":"levelo://app?vid=5aa69766-38fe-4c8e-af06-a6c9608392bf"},"vehicle_type_id":"4","last_reported":1744096227,"current_range_meters":12800,"station_id":"","pricing_plan_id":"cebpf4jnsgd1na2vs0mg"},{"bike_id":"c6b95ef4-f676-4eb8-b447-b52c4d069950","system_id":"levelo_inurba_marseille","lat":43.30632,"lon":5.40097,"is_reserved":false,"is_disabled":false,"rental_uris":{"android":"levelo://app?vid=c6b95ef4-f676-4eb8-b447-b52c4d069950","ios":"levelo://app?vid=c6b95ef4-f676-4eb8-b447-b52c4d069950"},"vehicle_type_id":"4","last_reported":1744096227,"current_range_meters":12800,"station_id":"ce4bh112rcd13ifvqda0","pricing_plan_id":"cebpf4jnsgd1na2vs0mg"},{"bike_id":"5169b809-a48f-4bcf-bbb3-dacf1232cb57","system_id":"levelo_inurba_marseille","lat":43.28485,"lon":5.38425,"is_reserved":false,"is_disabled":false,"rental_uris":{"android":"levelo://app?vid=5169b809-a48f-4bcf-bbb3-dacf1232cb57","ios":"levelo://app?vid=5169b809-a48f-4bcf-bbb3-dacf1232cb57"},"vehicle_type_id":"4","last_reported":1744096227,"current_range_meters":12800,"station_id":"ce4bh512rcd13ifvqe3g","pricing_plan_id":"cebpf4jnsgd1na2vs0mg"},{"bike_id":"e0c712a4-8c41-4e69-a875-50251525a0f6","system_id":"levelo_inurba_marseille","lat":43.279198,"lon":5.408722,"is_reserved":false,"is_disabled":false,"rental_uris":{"android":"levelo://app?vid=e0c712a4-8c41-4e69-a875-50251525a0f6","ios":"levelo://app?vid=e0c712a4-8c41-4e69-a875-50251525a0f6"},"vehicle_type_id":"4","last_reported":1744096227,"current_range_meters":12800,"station_id":"","pricing_plan_id":"cebpf4jnsgd1na2vs0mg"},{"bike_id":"575ecfc1-7681-4131-b780-0093048f354c","system_id":"levelo_inurba_marseille","lat":43.2593,"lon":5.40907,"is_reserved":false,"is_disabled":false,"rental_uris":{"android":"levelo://app?vid=575ecfc1-7681-4131-b780-0093048f354c","ios":"levelo://app?vid=575ecfc1-7681-4131-b780-0093048f354c"},"vehicle_type_id":"4","last_reported":1744096227,"current_range_meters":13600,"station_id":"ce4bhm92rcd13ifvqglg","pricing_plan_id":"cebpf4jnsgd1na2vs0mg"},{"bike_id":"cd757393-e20d-4e9a-b983-4d719cb69f85","system_id":"levelo_inurba_marseille","lat":43.29276,"lon":5.36851,"is_reserved":false,"is_disabled":false,"rental_uris":{"android":"levelo://app?vid=cd757393-e20d-4e9a-b983-4d719cb69f85","ios":"levelo://app?vid=cd757393-e20d-4e9a-b983-4d719cb69f85"},"vehicle_type_id":"4","last_reported":1744096227,"current_range_meters":13600,"station_id":"ce4bhbp2rcd13ifvqesg","pricing_plan_id":"cebpf4jnsgd1na2vs0mg"},{"bike_id":"1ca7d0c4-b7aa-4350-ad9f-4e24c2ba029a","system_id":"levelo_inurba_marseille","lat":43.30369,"lon":5.42492,"is_reserved":false,"is_disabled":true,"rental_uris":{"android":"levelo://app?vid=1ca7d0c4-b7aa-4350-ad9f-4e24c2ba029a","ios":"levelo://app?vid=1ca7d0c4-b7aa-4350-ad9f-4e24c2ba029a"},"vehicle_type_id":"4","last_reported":1744096227,"current_range_meters":13600,"station_id":"ce4bhoh2rcd13ifvqh6g","pricing_plan_id":"cebpf4jnsgd1na2vs0mg"},{"bike_id":"424487f3-4350-40b8-aa7c-dfad0244cdf9","system_id":"levelo_inurba_marseille","lat":43.27803,"lon":5.41791,"is_reserved":false,"is_disabled":false,"rental_uris":{"android":"levelo://app?vid=424487f3-4350-40b8-aa7c-dfad0244cdf9","ios":"levelo://app?vid=424487f3-4350-40b8-aa7c-dfad0244cdf9"},"vehicle_type_id":"4","last_reported":1744096227,"current_range_meters":13600,"station_id":"","pricing_plan_id":"cebpf4jnsgd1na2vs0mg"},{"bike_id":"f143ff2e-721e-493c-bcdc-a7d2cc09ad81","system_id":"levelo_inurba_marseille","lat":43.31031,"lon":5.37762,"is_reserved":false,"is_disabled":true,"rental_uris":{"android":"levelo://app?vid=f143ff2e-721e-493c-bcdc-a7d2cc09ad81","ios":"levelo://app?vid=f143ff2e-721e-493c-bcdc-a7d2cc09ad81"},"vehicle_type_id":"4","last_reported":1744096227,"current_range_meters":13600,"station_id":"","pricing_plan_id":"cebpf4jnsgd1na2vs0mg"},{"bike_id":"45d83681-f2eb-4a39-a20c-4022ba893ea0","system_id":"levelo_inurba_marseille","lat":43.33198,"lon":5.38967,"is_reserved":false,"is_disabled":false,"rental_uris":{"android":"levelo://app?vid=45d83681-f2eb-4a39-a20c-4022ba893ea0","ios":"levelo://app?vid=45d83681-f2eb-4a39-a20c-4022ba893ea0"},"vehicle_type_id":"4","last_reported":1744096227,"current_range_meters":13600,"station_id":"","pricing_plan_id":"cebpf4jnsgd1na2vs0mg"},{"bike_id":"47b469b5-8f60-4f5a-8e1b-6fb8dca45179","system_id":"levelo_inurba_marseille","lat":43.30947,"lon":5.39034,"is_reserved":false,"is_disabled":false,"rental_uris":{"android":"levelo://app?vid=47b469b5-8f60-4f5a-8e1b-6fb8dca45179","ios":"levelo://app?vid=47b469b5-8f60-4f5a-8e1b-6fb8dca45179"},"vehicle_type_id":"4","last_reported":1744096227,"current_range_meters":14000,"station_id":"ce4bgup2rcd13ifvqco0","pricing_plan_id":"cebpf4jnsgd1na2vs0mg"},{"bike_id":"4e021816-8e2b-4be2-aca3-1658f588fc9d","system_id":"levelo_inurba_marseille","lat":43.2997,"lon":5.37185,"is_reserved":false,"is_disabled":false,"rental_uris":{"android":"levelo://app?vid=4e021816-8e2b-4be2-aca3-1658f588fc9d","ios":"levelo://app?vid=4e021816-8e2b-4be2-aca3-1658f588fc9d"},"vehicle_type_id":"4","last_reported":1744096227,"current_range_meters":14000,"station_id":"ce4bgr92rcd13ifvqc7g","pricing_plan_id":"cebpf4jnsgd1na2vs0mg"},{"bike_id":"7a27bbe8-2753-4075-8ccd-7f573c8d455f","system_id":"levelo_inurba_marseille","lat":43.24177,"lon":5.39732,"is_reserved":false,"is_disabled":true,"rental_uris":{"android":"levelo://app?vid=7a27bbe8-2753-4075-8ccd-7f573c8d455f","ios":"levelo://app?vid=7a27bbe8-2753-4075-8ccd-7f573c8d455f"},"vehicle_type_id":"4","last_reported":1744096227,"current_range_meters":14000,"station_id":"ce4bhn12rcd13ifvqgpg","pricing_plan_id":"cebpf4jnsgd1na2vs0mg"},{"bike_id":"5b5ffd5f-ff47-4b19-8c4c-94dc4ce8cd40","system_id":"levelo_inurba_marseille","lat":43.31196,"lon":5.36845,"is_reserved":false,"is_disabled":false,"rental_uris":{"android":"levelo://app?vid=5b5ffd5f-ff47-4b19-8c4c-94dc4ce8cd40","ios":"levelo://app?vid=5b5ffd5f-ff47-4b19-8c4c-94dc4ce8cd40"},"vehicle_type_id":"4","last_reported":1744096227,"current_range_meters":14000,"station_id":"ce4bgl92rcd13ifvqbq0","pricing_plan_id":"cebpf4jnsgd1na2vs0mg"},{"bike_id":"378e917e-b1ad-41e8-a5e3-b8e5b32c8ddf","system_id":"levelo_inurba_marseille","lat":43.26213,"lon":5.37443,"is_reserved":false,"is_disabled":false,"rental_uris":{"android":"levelo://app?vid=378e917e-b1ad-41e8-a5e3-b8e5b32c8ddf","ios":"levelo://app?vid=378e917e-b1ad-41e8-a5e3-b8e5b32c8ddf"},"vehicle_type_id":"4","last_reported":1744096227,"current_range_meters":14000,"station_id":"ce4bhgp2rcd13ifvqfc0","pricing_plan_id":"cebpf4jnsgd1na2vs0mg"},{"bike_id":"5e860ab0-b315-4b26-b214-7411686a7210","system_id":"levelo_inurba_marseille","lat":43.292971,"lon":5.374668,"is_reserved":false,"is_disabled":false,"rental_uris":{"android":"levelo://app?vid=5e860ab0-b315-4b26-b214-7411686a7210","ios":"levelo://app?vid=5e860ab0-b315-4b26-b214-7411686a7210"},"vehicle_type_id":"4","last_reported":1744096227,"current_range_meters":14400,"station_id":"ce4bhqp2rcd13ifvqhng","pricing_plan_id":"cebpf4jnsgd1na2vs0mg"},{"bike_id":"9e524312-4eb1-42a9-8d5b-763346e53427","system_id":"levelo_inurba_marseille","lat":43.30531,"lon":5.36712,"is_reserved":false,"is_disabled":false,"rental_uris":{"android":"levelo://app?vid=9e524312-4eb1-42a9-8d5b-763346e53427","ios":"levelo://app?vid=9e524312-4eb1-42a9-8d5b-763346e53427"},"vehicle_type_id":"4","last_reported":1744096227,"current_range_meters":14400,"station_id":"ce4bgrp2rcd13ifvqc9g","pricing_plan_id":"cebpf4jnsgd1na2vs0mg"},{"bike_id":"ec154a88-831b-49bb-95f3-f093ae54dbd3","system_id":"levelo_inurba_marseille","lat":43.336,"lon":5.41033,"is_reserved":false,"is_disabled":false,"rental_uris":{"android":"levelo://app?vid=ec154a88-831b-49bb-95f3-f093ae54dbd3","ios":"levelo://app?vid=ec154a88-831b-49bb-95f3-f093ae54dbd3"},"vehicle_type_id":"4","last_reported":1744096227,"current_range_meters":14400,"station_id":"ce4bhqh2rcd13ifvqhmg","pricing_plan_id":"cebpf4jnsgd1na2vs0mg"},{"bike_id":"ce5ed1c9-72dc-47d4-b09c-55d7645e4525","system_id":"levelo_inurba_marseille","lat":43.25101,"lon":5.40325,"is_reserved":false,"is_disabled":false,"rental_uris":{"android":"levelo://app?vid=ce5ed1c9-72dc-47d4-b09c-55d7645e4525","ios":"levelo://app?vid=ce5ed1c9-72dc-47d4-b09c-55d7645e4525"},"vehicle_type_id":"4","last_reported":1744096227,"current_range_meters":14400,"station_id":"ce4bhlh2rcd13ifvqgig","pricing_plan_id":"cebpf4jnsgd1na2vs0mg"},{"bike_id":"b397701f-0d3d-44bf-ab3e-3ccc7e74fb2e","system_id":"levelo_inurba_marseille","lat":43.264174,"lon":5.422708,"is_reserved":false,"is_disabled":false,"rental_uris":{"android":"levelo://app?vid=b397701f-0d3d-44bf-ab3e-3ccc7e74fb2e","ios":"levelo://app?vid=b397701f-0d3d-44bf-ab3e-3ccc7e74fb2e"},"vehicle_type_id":"4","last_reported":1744096227,"current_range_meters":14400,"station_id":"","pricing_plan_id":"cebpf4jnsgd1na2vs0mg"},{"bike_id":"980b4909-06e8-4961-a7b7-ea7871482c8f","system_id":"levelo_inurba_marseille","lat":43.31361,"lon":5.36708,"is_reserved":false,"is_disabled":false,"rental_uris":{"android":"levelo://app?vid=980b4909-06e8-4961-a7b7-ea7871482c8f","ios":"levelo://app?vid=980b4909-06e8-4961-a7b7-ea7871482c8f"},"vehicle_type_id":"4","last_reported":1744096227,"current_range_meters":14400,"station_id":"ce4bgr92rcd13ifvqc6g","pricing_plan_id":"cebpf4jnsgd1na2vs0mg"},{"bike_id":"b964cd59-0de2-4a58-916a-1aa3148901e9","system_id":"levelo_inurba_marseille","lat":43.30456,"lon":5.3793,"is_reserved":false,"is_disabled":false,"rental_uris":{"android":"levelo://app?vid=b964cd59-0de2-4a58-916a-1aa3148901e9","ios":"levelo://app?vid=b964cd59-0de2-4a58-916a-1aa3148901e9"},"vehicle_type_id":"4","last_reported":1744096227,"current_range_meters":14800,"station_id":"ce4bgup2rcd13ifvqcn0","pricing_plan_id":"cebpf4jnsgd1na2vs0mg"},{"bike_id":"0c01be24-5fc2-43fd-bcb9-f1d4dd53281a","system_id":"levelo_inurba_marseille","lat":43.29039,"lon":5.39951,"is_reserved":false,"is_disabled":false,"rental_uris":{"android":"levelo://app?vid=0c01be24-5fc2-43fd-bcb9-f1d4dd53281a","ios":"levelo://app?vid=0c01be24-5fc2-43fd-bcb9-f1d4dd53281a"},"vehicle_type_id":"4","last_reported":1744096227,"current_range_meters":14800,"station_id":"ce4bh392rcd13ifvqdm0","pricing_plan_id":"cebpf4jnsgd1na2vs0mg"},{"bike_id":"67f5402e-84ba-4cca-bae1-1308d8bfce95","system_id":"levelo_inurba_marseille","lat":43.323593,"lon":5.36749,"is_reserved":false,"is_disabled":true,"rental_uris":{"android":"levelo://app?vid=67f5402e-84ba-4cca-bae1-1308d8bfce95","ios":"levelo://app?vid=67f5402e-84ba-4cca-bae1-1308d8bfce95"},"vehicle_type_id":"4","last_reported":1744096227,"current_range_meters":14800,"station_id":"ce4bhsh2rcd13ifvqi2g","pricing_plan_id":"cebpf4jnsgd1na2vs0mg"},{"bike_id":"832e25ed-c9f5-4445-9d74-4e5c6bd010cb","system_id":"levelo_inurba_marseille","lat":43.29046,"lon":5.39973,"is_reserved":false,"is_disabled":false,"rental_uris":{"android":"levelo://app?vid=832e25ed-c9f5-4445-9d74-4e5c6bd010cb","ios":"levelo://app?vid=832e25ed-c9f5-4445-9d74-4e5c6bd010cb"},"vehicle_type_id":"4","last_reported":1744096227,"current_range_meters":14800,"station_id":"ce4bh392rcd13ifvqdm0","pricing_plan_id":"cebpf4jnsgd1na2vs0mg"},{"bike_id":"486607d2-83f1-40ec-be7e-bbb19553a2c2","system_id":"levelo_inurba_marseille","lat":43.30274,"lon":5.37703,"is_reserved":false,"is_disabled":false,"rental_uris":{"android":"levelo://app?vid=486607d2-83f1-40ec-be7e-bbb19553a2c2","ios":"levelo://app?vid=486607d2-83f1-40ec-be7e-bbb19553a2c2"},"vehicle_type_id":"4","last_reported":1744096227,"current_range_meters":14800,"station_id":"ce4bguh2rcd13ifvqcj0","pricing_plan_id":"cebpf4jnsgd1na2vs0mg"},{"bike_id":"0c08edf5-8321-4dc5-91e6-49c36aa6602a","system_id":"levelo_inurba_marseille","lat":43.29033,"lon":5.39962,"is_reserved":false,"is_disabled":false,"rental_uris":{"android":"levelo://app?vid=0c08edf5-8321-4dc5-91e6-49c36aa6602a","ios":"levelo://app?vid=0c08edf5-8321-4dc5-91e6-49c36aa6602a"},"vehicle_type_id":"4","last_reported":1744096227,"current_range_meters":14800,"station_id":"ce4bh392rcd13ifvqdm0","pricing_plan_id":"cebpf4jnsgd1na2vs0mg"},{"bike_id":"852819f8-8577-46de-b1fa-432b264e47e4","system_id":"levelo_inurba_marseille","lat":43.24154,"lon":5.39729,"is_reserved":false,"is_disabled":false,"rental_uris":{"android":"levelo://app?vid=852819f8-8577-46de-b1fa-432b264e47e4","ios":"levelo://app?vid=852819f8-8577-46de-b1fa-432b264e47e4"},"vehicle_type_id":"4","last_reported":1744096227,"current_range_meters":16000,"station_id":"ce4bhn12rcd13ifvqgpg","pricing_plan_id":"cebpf4jnsgd1na2vs0mg"},{"bike_id":"2aff3da0-1529-4960-a86c-d64b02e2b8cd","system_id":"levelo_inurba_marseille","lat":43.23065,"lon":5.3548,"is_reserved":false,"is_disabled":false,"rental_uris":{"android":"levelo://app?vid=2aff3da0-1529-4960-a86c-d64b02e2b8cd","ios":"levelo://app?vid=2aff3da0-1529-4960-a86c-d64b02e2b8cd"},"vehicle_type_id":"4","last_reported":1744096227,"current_range_meters":16000,"station_id":"cpo3342slgdg3j2ifvpg","pricing_plan_id":"cebpf4jnsgd1na2vs0mg"},{"bike_id":"1cda5072-621e-4a37-a501-0116aa1d991d","system_id":"levelo_inurba_marseille","lat":43.26498,"lon":5.39537,"is_reserved":false,"is_disabled":false,"rental_uris":{"android":"levelo://app?vid=1cda5072-621e-4a37-a501-0116aa1d991d","ios":"levelo://app?vid=1cda5072-621e-4a37-a501-0116aa1d991d"},"vehicle_type_id":"4","last_reported":1744096227,"current_range_meters":15200,"station_id":"ce4bhi12rcd13ifvqfq0","pricing_plan_id":"cebpf4jnsgd1na2vs0mg"},{"bike_id":"0d137e5e-4aa9-4d4c-b4ca-556b2a058b9d","system_id":"levelo_inurba_marseille","lat":43.24744,"lon":5.39419,"is_reserved":false,"is_disabled":false,"rental_uris":{"android":"levelo://app?vid=0d137e5e-4aa9-4d4c-b4ca-556b2a058b9d","ios":"levelo://app?vid=0d137e5e-4aa9-4d4c-b4ca-556b2a058b9d"},"vehicle_type_id":"4","last_reported":1744096227,"current_range_meters":16000,"station_id":"","pricing_plan_id":"cebpf4jnsgd1na2vs0mg"},{"bike_id":"25addcb4-8c65-4b9f-a107-9a505bc7e1e5","system_id":"levelo_inurba_marseille","lat":43.31475,"lon":5.36857,"is_reserved":false,"is_disabled":false,"rental_uris":{"android":"levelo://app?vid=25addcb4-8c65-4b9f-a107-9a505bc7e1e5","ios":"levelo://app?vid=25addcb4-8c65-4b9f-a107-9a505bc7e1e5"},"vehicle_type_id":"4","last_reported":1744096227,"current_range_meters":16000,"station_id":"","pricing_plan_id":"cebpf4jnsgd1na2vs0mg"},{"bike_id":"71aa604c-6491-403d-b6de-93549d709257","system_id":"levelo_inurba_marseille","lat":43.30539,"lon":5.36711,"is_reserved":false,"is_disabled":true,"rental_uris":{"android":"levelo://app?vid=71aa604c-6491-403d-b6de-93549d709257","ios":"levelo://app?vid=71aa604c-6491-403d-b6de-93549d709257"},"vehicle_type_id":"4","last_reported":1744096227,"current_range_meters":16000,"station_id":"ce4bgrp2rcd13ifvqc9g","pricing_plan_id":"cebpf4jnsgd1na2vs0mg"},{"bike_id":"ad0d4453-2c58-4258-8e17-aa49c50e1a2a","system_id":"levelo_inurba_marseille","lat":43.31995,"lon":5.38153,"is_reserved":false,"is_disabled":false,"rental_uris":{"android":"levelo://app?vid=ad0d4453-2c58-4258-8e17-aa49c50e1a2a","ios":"levelo://app?vid=ad0d4453-2c58-4258-8e17-aa49c50e1a2a"},"vehicle_type_id":"4","last_reported":1744096227,"current_range_meters":16000,"station_id":"ce4bhr12rcd13ifvqhpg","pricing_plan_id":"cebpf4jnsgd1na2vs0mg"},{"bike_id":"c1445642-4ff3-4d94-9dbc-495541e5c07b","system_id":"levelo_inurba_marseille","lat":43.288615,"lon":5.358577,"is_reserved":false,"is_disabled":false,"rental_uris":{"android":"levelo://app?vid=c1445642-4ff3-4d94-9dbc-495541e5c07b","ios":"levelo://app?vid=c1445642-4ff3-4d94-9dbc-495541e5c07b"},"vehicle_type_id":"4","last_reported":1744096227,"current_range_meters":12000,"station_id":"ce4bhb12rcd13ifvqem0","pricing_plan_id":"cebpf4jnsgd1na2vs0mg"},{"bike_id":"af24e20d-cd14-47b0-8e42-24aa1cee57db","system_id":"levelo_inurba_marseille","lat":43.275,"lon":5.42464,"is_reserved":false,"is_disabled":false,"rental_uris":{"android":"levelo://app?vid=af24e20d-cd14-47b0-8e42-24aa1cee57db","ios":"levelo://app?vid=af24e20d-cd14-47b0-8e42-24aa1cee57db"},"vehicle_type_id":"4","last_reported":1744096227,"current_range_meters":16000,"station_id":"ce4bhn92rcd13ifvqgrg","pricing_plan_id":"cebpf4jnsgd1na2vs0mg"},{"bike_id":"302b0c63-344c-4e0d-b6e7-6cb2af7663da","system_id":"levelo_inurba_marseille","lat":43.26917,"lon":5.38649,"is_reserved":false,"is_disabled":true,"rental_uris":{"android":"levelo://app?vid=302b0c63-344c-4e0d-b6e7-6cb2af7663da","ios":"levelo://app?vid=302b0c63-344c-4e0d-b6e7-6cb2af7663da"},"vehicle_type_id":"4","last_reported":1744096227,"current_range_meters":16400,"station_id":"ce4bhh92rcd13ifvqfh0","pricing_plan_id":"cebpf4jnsgd1na2vs0mg"},{"bike_id":"fba87522-c345-46be-8b8a-85d74f969fd7","system_id":"levelo_inurba_marseille","lat":43.287,"lon":5.39984,"is_reserved":false,"is_disabled":false,"rental_uris":{"android":"levelo://app?vid=fba87522-c345-46be-8b8a-85d74f969fd7","ios":"levelo://app?vid=fba87522-c345-46be-8b8a-85d74f969fd7"},"vehicle_type_id":"4","last_reported":1744096227,"current_range_meters":16400,"station_id":"ce4bho92rcd13ifvqh3g","pricing_plan_id":"cebpf4jnsgd1na2vs0mg"},{"bike_id":"3992552f-8665-4257-82ce-346cf4533fc2","system_id":"levelo_inurba_marseille","lat":43.27839,"lon":5.40706,"is_reserved":false,"is_disabled":false,"rental_uris":{"android":"levelo://app?vid=3992552f-8665-4257-82ce-346cf4533fc2","ios":"levelo://app?vid=3992552f-8665-4257-82ce-346cf4533fc2"},"vehicle_type_id":"4","last_reported":1744096227,"current_range_meters":16400,"station_id":"ce4bhnh2rcd13ifvqgtg","pricing_plan_id":"cebpf4jnsgd1na2vs0mg"},{"bike_id":"9de631d8-33cc-46a8-9c33-d43cd6133cfd","system_id":"levelo_inurba_marseille","lat":43.30424,"lon":5.41284,"is_reserved":false,"is_disabled":false,"rental_uris":{"android":"levelo://app?vid=9de631d8-33cc-46a8-9c33-d43cd6133cfd","ios":"levelo://app?vid=9de631d8-33cc-46a8-9c33-d43cd6133cfd"},"vehicle_type_id":"4","last_reported":1744096227,"current_range_meters":16400,"station_id":"ce4bhop2rcd13ifvqh8g","pricing_plan_id":"cebpf4jnsgd1na2vs0mg"},{"bike_id":"b3eaef5b-dac9-4f1e-aa7e-dd808d1ba556","system_id":"levelo_inurba_marseille","lat":43.31345,"lon":5.36728,"is_reserved":false,"is_disabled":false,"rental_uris":{"android":"levelo://app?vid=b3eaef5b-dac9-4f1e-aa7e-dd808d1ba556","ios":"levelo://app?vid=b3eaef5b-dac9-4f1e-aa7e-dd808d1ba556"},"vehicle_type_id":"4","last_reported":1744096227,"current_range_meters":16400,"station_id":"ce4bgr92rcd13ifvqc6g","pricing_plan_id":"cebpf4jnsgd1na2vs0mg"},{"bike_id":"140748c5-3e7f-4cb1-b2cb-60696689fb02","system_id":"levelo_inurba_marseille","lat":43.30469,"lon":5.37909,"is_reserved":false,"is_disabled":false,"rental_uris":{"android":"levelo://app?vid=140748c5-3e7f-4cb1-b2cb-60696689fb02","ios":"levelo://app?vid=140748c5-3e7f-4cb1-b2cb-60696689fb02"},"vehicle_type_id":"4","last_reported":1744096227,"current_range_meters":16800,"station_id":"ce4bgup2rcd13ifvqcn0","pricing_plan_id":"cebpf4jnsgd1na2vs0mg"},{"bike_id":"ffd23061-d90c-47a4-89fb-f1646bcdff1c","system_id":"levelo_inurba_marseille","lat":43.27089,"lon":5.4228,"is_reserved":false,"is_disabled":true,"rental_uris":{"android":"levelo://app?vid=ffd23061-d90c-47a4-89fb-f1646bcdff1c","ios":"levelo://app?vid=ffd23061-d90c-47a4-89fb-f1646bcdff1c"},"vehicle_type_id":"4","last_reported":1744096227,"current_range_meters":16800,"station_id":"ce4bhk92rcd13ifvqgb0","pricing_plan_id":"cebpf4jnsgd1na2vs0mg"},{"bike_id":"3656c20c-eb1e-4ae4-9294-cf1933f151b7","system_id":"levelo_inurba_marseille","lat":43.24177,"lon":5.39725,"is_reserved":false,"is_disabled":false,"rental_uris":{"android":"levelo://app?vid=3656c20c-eb1e-4ae4-9294-cf1933f151b7","ios":"levelo://app?vid=3656c20c-eb1e-4ae4-9294-cf1933f151b7"},"vehicle_type_id":"4","last_reported":1744096227,"current_range_meters":16800,"station_id":"ce4bhn12rcd13ifvqgpg","pricing_plan_id":"cebpf4jnsgd1na2vs0mg"},{"bike_id":"777877af-639a-4696-9286-ab6e293634ea","system_id":"levelo_inurba_marseille","lat":43.292571,"lon":5.366781,"is_reserved":false,"is_disabled":false,"rental_uris":{"android":"levelo://app?vid=777877af-639a-4696-9286-ab6e293634ea","ios":"levelo://app?vid=777877af-639a-4696-9286-ab6e293634ea"},"vehicle_type_id":"4","last_reported":1744096227,"current_range_meters":16800,"station_id":"ce4bhbh2rcd13ifvqeqg","pricing_plan_id":"cebpf4jnsgd1na2vs0mg"},{"bike_id":"3c9a3005-73e0-42ac-a4bc-2bc303ef92fe","system_id":"levelo_inurba_marseille","lat":43.28613,"lon":5.37063,"is_reserved":false,"is_disabled":false,"rental_uris":{"android":"levelo://app?vid=3c9a3005-73e0-42ac-a4bc-2bc303ef92fe","ios":"levelo://app?vid=3c9a3005-73e0-42ac-a4bc-2bc303ef92fe"},"vehicle_type_id":"4","last_reported":1744096227,"current_range_meters":16800,"station_id":"ce4bht12rcd13ifvqi60","pricing_plan_id":"cebpf4jnsgd1na2vs0mg"},{"bike_id":"e41e3d45-5795-4963-8a5e-14be782be993","system_id":"levelo_inurba_marseille","lat":43.30539,"lon":5.36553,"is_reserved":false,"is_disabled":false,"rental_uris":{"android":"levelo://app?vid=e41e3d45-5795-4963-8a5e-14be782be993","ios":"levelo://app?vid=e41e3d45-5795-4963-8a5e-14be782be993"},"vehicle_type_id":"4","last_reported":1744096227,"current_range_meters":16800,"station_id":"ce4bgs12rcd13ifvqcag","pricing_plan_id":"cebpf4jnsgd1na2vs0mg"},{"bike_id":"a1674ea7-f4ee-4b2f-bae5-57133e8704ee","system_id":"levelo_inurba_marseille","lat":43.30909,"lon":5.36848,"is_reserved":false,"is_disabled":false,"rental_uris":{"android":"levelo://app?vid=a1674ea7-f4ee-4b2f-bae5-57133e8704ee","ios":"levelo://app?vid=a1674ea7-f4ee-4b2f-bae5-57133e8704ee"},"vehicle_type_id":"4","last_reported":1744096227,"current_range_meters":17200,"station_id":"ce4bgn92rcd13ifvqbvg","pricing_plan_id":"cebpf4jnsgd1na2vs0mg"},{"bike_id":"e550d74a-e830-4a4b-91fb-45079a405831","system_id":"levelo_inurba_marseille","lat":43.33021,"lon":5.39046,"is_reserved":false,"is_disabled":false,"rental_uris":{"android":"levelo://app?vid=e550d74a-e830-4a4b-91fb-45079a405831","ios":"levelo://app?vid=e550d74a-e830-4a4b-91fb-45079a405831"},"vehicle_type_id":"4","last_reported":1744096227,"current_range_meters":17200,"station_id":"ce4bhr92rcd13ifvqhrg","pricing_plan_id":"cebpf4jnsgd1na2vs0mg"},{"bike_id":"d101bcb3-cbe9-443b-ae1f-29d283af6cec","system_id":"levelo_inurba_marseille","lat":43.299701,"lon":5.384954,"is_reserved":false,"is_disabled":false,"rental_uris":{"android":"levelo://app?vid=d101bcb3-cbe9-443b-ae1f-29d283af6cec","ios":"levelo://app?vid=d101bcb3-cbe9-443b-ae1f-29d283af6cec"},"vehicle_type_id":"4","last_reported":1744096227,"current_range_meters":17200,"station_id":"cjm6bp8fraef2m0cb0m0","pricing_plan_id":"cebpf4jnsgd1na2vs0mg"},{"bike_id":"c1ab22c3-8480-4c80-a462-a754e71d457d","system_id":"levelo_inurba_marseille","lat":43.31495,"lon":5.37252,"is_reserved":false,"is_disabled":false,"rental_uris":{"android":"levelo://app?vid=c1ab22c3-8480-4c80-a462-a754e71d457d","ios":"levelo://app?vid=c1ab22c3-8480-4c80-a462-a754e71d457d"},"vehicle_type_id":"4","last_reported":1744096227,"current_range_meters":17200,"station_id":"ce4bgt12rcd13ifvqcd0","pricing_plan_id":"cebpf4jnsgd1na2vs0mg"},{"bike_id":"e24c6fd3-f9cb-40c7-9e57-dd2c20540e9b","system_id":"levelo_inurba_marseille","lat":43.33087,"lon":5.40822,"is_reserved":false,"is_disabled":true,"rental_uris":{"android":"levelo://app?vid=e24c6fd3-f9cb-40c7-9e57-dd2c20540e9b","ios":"levelo://app?vid=e24c6fd3-f9cb-40c7-9e57-dd2c20540e9b"},"vehicle_type_id":"4","last_reported":1744096227,"current_range_meters":17200,"station_id":"","pricing_plan_id":"cebpf4jnsgd1na2vs0mg"},{"bike_id":"da68898f-513e-4562-9685-4c6284864d89","system_id":"levelo_inurba_marseille","lat":43.27942,"lon":5.41052,"is_reserved":false,"is_disabled":true,"rental_uris":{"android":"levelo://app?vid=da68898f-513e-4562-9685-4c6284864d89","ios":"levelo://app?vid=da68898f-513e-4562-9685-4c6284864d89"},"vehicle_type_id":"4","last_reported":1744096227,"current_range_meters":17200,"station_id":"ce4bhnp2rcd13ifvqh0g","pricing_plan_id":"cebpf4jnsgd1na2vs0mg"},{"bike_id":"ebe58abd-e740-43ed-85e6-f6ed0fd536f4","system_id":"levelo_inurba_marseille","lat":43.30274,"lon":5.37723,"is_reserved":false,"is_disabled":false,"rental_uris":{"android":"levelo://app?vid=ebe58abd-e740-43ed-85e6-f6ed0fd536f4","ios":"levelo://app?vid=ebe58abd-e740-43ed-85e6-f6ed0fd536f4"},"vehicle_type_id":"4","last_reported":1744096227,"current_range_meters":17200,"station_id":"ce4bguh2rcd13ifvqcj0","pricing_plan_id":"cebpf4jnsgd1na2vs0mg"},{"bike_id":"4b65cc57-449d-45ba-bc37-c17aaa0f8cf0","system_id":"levelo_inurba_marseille","lat":43.30886,"lon":5.39634,"is_reserved":false,"is_disabled":false,"rental_uris":{"android":"levelo://app?vid=4b65cc57-449d-45ba-bc37-c17aaa0f8cf0","ios":"levelo://app?vid=4b65cc57-449d-45ba-bc37-c17aaa0f8cf0"},"vehicle_type_id":"4","last_reported":1744096227,"current_range_meters":17600,"station_id":"ce4bh012rcd13ifvqcv0","pricing_plan_id":"cebpf4jnsgd1na2vs0mg"},{"bike_id":"92c822fe-ff9f-4023-a7a2-fe479a6e58f0","system_id":"levelo_inurba_marseille","lat":43.30548,"lon":5.3654,"is_reserved":false,"is_disabled":false,"rental_uris":{"android":"levelo://app?vid=92c822fe-ff9f-4023-a7a2-fe479a6e58f0","ios":"levelo://app?vid=92c822fe-ff9f-4023-a7a2-fe479a6e58f0"},"vehicle_type_id":"4","last_reported":1744096227,"current_range_meters":17600,"station_id":"ce4bgs12rcd13ifvqcag","pricing_plan_id":"cebpf4jnsgd1na2vs0mg"},{"bike_id":"c07089cb-fc37-4213-a93b-fc326f79309b","system_id":"levelo_inurba_marseille","lat":43.31365,"lon":5.38521,"is_reserved":false,"is_disabled":true,"rental_uris":{"android":"levelo://app?vid=c07089cb-fc37-4213-a93b-fc326f79309b","ios":"levelo://app?vid=c07089cb-fc37-4213-a93b-fc326f79309b"},"vehicle_type_id":"4","last_reported":1744096227,"current_range_meters":17600,"station_id":"ce4bgt92rcd13ifvqcf0","pricing_plan_id":"cebpf4jnsgd1na2vs0mg"},{"bike_id":"f1ba98d2-ddd1-4117-9a93-9ed94176b6d6","system_id":"levelo_inurba_marseille","lat":43.28708,"lon":5.39995,"is_reserved":false,"is_disabled":true,"rental_uris":{"android":"levelo://app?vid=f1ba98d2-ddd1-4117-9a93-9ed94176b6d6","ios":"levelo://app?vid=f1ba98d2-ddd1-4117-9a93-9ed94176b6d6"},"vehicle_type_id":"4","last_reported":1744096227,"current_range_meters":17600,"station_id":"ce4bho92rcd13ifvqh3g","pricing_plan_id":"cebpf4jnsgd1na2vs0mg"},{"bike_id":"58ba8bcd-209e-4668-9a70-ea2381fcb732","system_id":"levelo_inurba_marseille","lat":43.29039,"lon":5.37582,"is_reserved":false,"is_disabled":false,"rental_uris":{"android":"levelo://app?vid=58ba8bcd-209e-4668-9a70-ea2381fcb732","ios":"levelo://app?vid=58ba8bcd-209e-4668-9a70-ea2381fcb732"},"vehicle_type_id":"4","last_reported":1744096227,"current_range_meters":17200,"station_id":"ce4bh692rcd13ifvqe90","pricing_plan_id":"cebpf4jnsgd1na2vs0mg"},{"bike_id":"ce641620-c7c1-4693-8c90-e4348aa1a019","system_id":"levelo_inurba_marseille","lat":43.30375,"lon":5.42488,"is_reserved":false,"is_disabled":false,"rental_uris":{"android":"levelo://app?vid=ce641620-c7c1-4693-8c90-e4348aa1a019","ios":"levelo://app?vid=ce641620-c7c1-4693-8c90-e4348aa1a019"},"vehicle_type_id":"4","last_reported":1744096227,"current_range_meters":17600,"station_id":"ce4bhoh2rcd13ifvqh6g","pricing_plan_id":"cebpf4jnsgd1na2vs0mg"},{"bike_id":"be040bda-fc29-43d8-a246-9c808bf8b01f","system_id":"levelo_inurba_marseille","lat":43.3091,"lon":5.3685,"is_reserved":false,"is_disabled":false,"rental_uris":{"android":"levelo://app?vid=be040bda-fc29-43d8-a246-9c808bf8b01f","ios":"levelo://app?vid=be040bda-fc29-43d8-a246-9c808bf8b01f"},"vehicle_type_id":"4","last_reported":1744096227,"current_range_meters":17600,"station_id":"ce4bgn92rcd13ifvqbvg","pricing_plan_id":"cebpf4jnsgd1na2vs0mg"},{"bike_id":"11a6ff8e-c397-45c3-a259-6ad14be198e6","system_id":"levelo_inurba_marseille","lat":43.25112,"lon":5.4035,"is_reserved":false,"is_disabled":false,"rental_uris":{"android":"levelo://app?vid=11a6ff8e-c397-45c3-a259-6ad14be198e6","ios":"levelo://app?vid=11a6ff8e-c397-45c3-a259-6ad14be198e6"},"vehicle_type_id":"4","last_reported":1744096227,"current_range_meters":17600,"station_id":"ce4bhlh2rcd13ifvqgig","pricing_plan_id":"cebpf4jnsgd1na2vs0mg"},{"bike_id":"efb536b9-0ebb-4e3b-9752-d4f700f5118b","system_id":"levelo_inurba_marseille","lat":43.26944,"lon":5.3864,"is_reserved":false,"is_disabled":true,"rental_uris":{"android":"levelo://app?vid=efb536b9-0ebb-4e3b-9752-d4f700f5118b","ios":"levelo://app?vid=efb536b9-0ebb-4e3b-9752-d4f700f5118b"},"vehicle_type_id":"4","last_reported":1744096227,"current_range_meters":18000,"station_id":"ce4bhh92rcd13ifvqfh0","pricing_plan_id":"cebpf4jnsgd1na2vs0mg"},{"bike_id":"ff41a0fe-f825-4e7b-ab7a-9d0a61ab471c","system_id":"levelo_inurba_marseille","lat":43.307288,"lon":5.424474,"is_reserved":false,"is_disabled":false,"rental_uris":{"android":"levelo://app?vid=ff41a0fe-f825-4e7b-ab7a-9d0a61ab471c","ios":"levelo://app?vid=ff41a0fe-f825-4e7b-ab7a-9d0a61ab471c"},"vehicle_type_id":"4","last_reported":1744096227,"current_range_meters":18000,"station_id":"st_cvj6ca6bvosntc0bfgr0","pricing_plan_id":"cebpf4jnsgd1na2vs0mg"},{"bike_id":"5134ac2e-9f46-4e89-87ea-8d823d92e704","system_id":"levelo_inurba_marseille","lat":43.31685,"lon":5.40465,"is_reserved":false,"is_disabled":false,"rental_uris":{"android":"levelo://app?vid=5134ac2e-9f46-4e89-87ea-8d823d92e704","ios":"levelo://app?vid=5134ac2e-9f46-4e89-87ea-8d823d92e704"},"vehicle_type_id":"4","last_reported":1744096227,"current_range_meters":18000,"station_id":"ce4bh012rcd13ifvqd00","pricing_plan_id":"cebpf4jnsgd1na2vs0mg"},{"bike_id":"5273534c-3473-4abd-9c4b-e677a5c1499a","system_id":"levelo_inurba_marseille","lat":43.29066,"lon":5.36959,"is_reserved":false,"is_disabled":false,"rental_uris":{"android":"levelo://app?vid=5273534c-3473-4abd-9c4b-e677a5c1499a","ios":"levelo://app?vid=5273534c-3473-4abd-9c4b-e677a5c1499a"},"vehicle_type_id":"4","last_reported":1744096227,"current_range_meters":18000,"station_id":"","pricing_plan_id":"cebpf4jnsgd1na2vs0mg"},{"bike_id":"45f06e6f-944b-4b52-b5a0-3b5f621bbc28","system_id":"levelo_inurba_marseille","lat":43.29967,"lon":5.37169,"is_reserved":false,"is_disabled":false,"rental_uris":{"android":"levelo://app?vid=45f06e6f-944b-4b52-b5a0-3b5f621bbc28","ios":"levelo://app?vid=45f06e6f-944b-4b52-b5a0-3b5f621bbc28"},"vehicle_type_id":"4","last_reported":1744096227,"current_range_meters":18000,"station_id":"ce4bgr92rcd13ifvqc7g","pricing_plan_id":"cebpf4jnsgd1na2vs0mg"},{"bike_id":"1e099cf5-9456-4ac3-8d36-9153ce8a87f2","system_id":"levelo_inurba_marseille","lat":43.29582,"lon":5.39987,"is_reserved":false,"is_disabled":true,"rental_uris":{"android":"levelo://app?vid=1e099cf5-9456-4ac3-8d36-9153ce8a87f2","ios":"levelo://app?vid=1e099cf5-9456-4ac3-8d36-9153ce8a87f2"},"vehicle_type_id":"4","last_reported":1744096227,"current_range_meters":18800,"station_id":"ce4bh312rcd13ifvqdj0","pricing_plan_id":"cebpf4jnsgd1na2vs0mg"},{"bike_id":"27768073-dde6-48e9-bf13-e40e2934834a","system_id":"levelo_inurba_marseille","lat":43.24169,"lon":5.39752,"is_reserved":false,"is_disabled":false,"rental_uris":{"android":"levelo://app?vid=27768073-dde6-48e9-bf13-e40e2934834a","ios":"levelo://app?vid=27768073-dde6-48e9-bf13-e40e2934834a"},"vehicle_type_id":"4","last_reported":1744096227,"current_range_meters":18800,"station_id":"ce4bhn12rcd13ifvqgpg","pricing_plan_id":"cebpf4jnsgd1na2vs0mg"},{"bike_id":"52dfef30-eef0-4dd6-a138-a48c8dcc2c3a","system_id":"levelo_inurba_marseille","lat":43.30422,"lon":5.42795,"is_reserved":false,"is_disabled":true,"rental_uris":{"android":"levelo://app?vid=52dfef30-eef0-4dd6-a138-a48c8dcc2c3a","ios":"levelo://app?vid=52dfef30-eef0-4dd6-a138-a48c8dcc2c3a"},"vehicle_type_id":"4","last_reported":1744096227,"current_range_meters":18800,"station_id":"","pricing_plan_id":"cebpf4jnsgd1na2vs0mg"},{"bike_id":"44177a0e-05fc-42ce-9fe6-f0c6eb6aee7a","system_id":"levelo_inurba_marseille","lat":43.28471,"lon":5.35902,"is_reserved":false,"is_disabled":true,"rental_uris":{"android":"levelo://app?vid=44177a0e-05fc-42ce-9fe6-f0c6eb6aee7a","ios":"levelo://app?vid=44177a0e-05fc-42ce-9fe6-f0c6eb6aee7a"},"vehicle_type_id":"4","last_reported":1744096227,"current_range_meters":18800,"station_id":"ce4bhah2rcd13ifvqei0","pricing_plan_id":"cebpf4jnsgd1na2vs0mg"},{"bike_id":"5f434b04-e3fa-4a88-9489-020ea8c069ed","system_id":"levelo_inurba_marseille","lat":43.27803,"lon":5.40725,"is_reserved":false,"is_disabled":false,"rental_uris":{"android":"levelo://app?vid=5f434b04-e3fa-4a88-9489-020ea8c069ed","ios":"levelo://app?vid=5f434b04-e3fa-4a88-9489-020ea8c069ed"},"vehicle_type_id":"4","last_reported":1744096227,"current_range_meters":18800,"station_id":"ce4bhnh2rcd13ifvqgtg","pricing_plan_id":"cebpf4jnsgd1na2vs0mg"},{"bike_id":"4dc136a8-8160-4308-9205-36fd73669df8","system_id":"levelo_inurba_marseille","lat":43.286667,"lon":5.363488,"is_reserved":false,"is_disabled":false,"rental_uris":{"android":"levelo://app?vid=4dc136a8-8160-4308-9205-36fd73669df8","ios":"levelo://app?vid=4dc136a8-8160-4308-9205-36fd73669df8"},"vehicle_type_id":"4","last_reported":1744096227,"current_range_meters":19200,"station_id":"ce4bh9p2rcd13ifvqed0","pricing_plan_id":"cebpf4jnsgd1na2vs0mg"},{"bike_id":"19560ba7-702b-45d0-ab40-cdf504801ead","system_id":"levelo_inurba_marseille","lat":43.31486,"lon":5.3729,"is_reserved":false,"is_disabled":false,"rental_uris":{"android":"levelo://app?vid=19560ba7-702b-45d0-ab40-cdf504801ead","ios":"levelo://app?vid=19560ba7-702b-45d0-ab40-cdf504801ead"},"vehicle_type_id":"4","last_reported":1744096227,"current_range_meters":19200,"station_id":"ce4bgt12rcd13ifvqcd0","pricing_plan_id":"cebpf4jnsgd1na2vs0mg"},{"bike_id":"1ceb6dc5-480f-44cd-b4b8-03aaf9a43aba","system_id":"levelo_inurba_marseille","lat":43.31453,"lon":5.37287,"is_reserved":false,"is_disabled":false,"rental_uris":{"android":"levelo://app?vid=1ceb6dc5-480f-44cd-b4b8-03aaf9a43aba","ios":"levelo://app?vid=1ceb6dc5-480f-44cd-b4b8-03aaf9a43aba"},"vehicle_type_id":"4","last_reported":1744096227,"current_range_meters":19200,"station_id":"ce4bgt12rcd13ifvqcd0","pricing_plan_id":"cebpf4jnsgd1na2vs0mg"},{"bike_id":"acc78b4a-306f-426f-afde-0c6a41e8f8ca","system_id":"levelo_inurba_marseille","lat":43.2742,"lon":5.39412,"is_reserved":false,"is_disabled":false,"rental_uris":{"android":"levelo://app?vid=acc78b4a-306f-426f-afde-0c6a41e8f8ca","ios":"levelo://app?vid=acc78b4a-306f-426f-afde-0c6a41e8f8ca"},"vehicle_type_id":"4","last_reported":1744096227,"current_range_meters":19200,"station_id":"ce4bhdp2rcd13ifvqf20","pricing_plan_id":"cebpf4jnsgd1na2vs0mg"},{"bike_id":"2b8a9ffe-8be7-46c9-a4ca-edbad6e62d36","system_id":"levelo_inurba_marseille","lat":43.290405,"lon":5.399795,"is_reserved":false,"is_disabled":true,"rental_uris":{"android":"levelo://app?vid=2b8a9ffe-8be7-46c9-a4ca-edbad6e62d36","ios":"levelo://app?vid=2b8a9ffe-8be7-46c9-a4ca-edbad6e62d36"},"vehicle_type_id":"4","last_reported":1744096227,"current_range_meters":19200,"station_id":"ce4bh392rcd13ifvqdm0","pricing_plan_id":"cebpf4jnsgd1na2vs0mg"},{"bike_id":"b37944fb-f9c1-4c8e-ac3a-9da227afb433","system_id":"levelo_inurba_marseille","lat":43.30798,"lon":5.38162,"is_reserved":false,"is_disabled":true,"rental_uris":{"android":"levelo://app?vid=b37944fb-f9c1-4c8e-ac3a-9da227afb433","ios":"levelo://app?vid=b37944fb-f9c1-4c8e-ac3a-9da227afb433"},"vehicle_type_id":"4","last_reported":1744096227,"current_range_meters":19200,"station_id":"ce4bgt12rcd13ifvqce0","pricing_plan_id":"cebpf4jnsgd1na2vs0mg"},{"bike_id":"4bc00b5d-34b7-481c-8a4a-16b059d4d39e","system_id":"levelo_inurba_marseille","lat":43.26058,"lon":5.39397,"is_reserved":false,"is_disabled":false,"rental_uris":{"android":"levelo://app?vid=4bc00b5d-34b7-481c-8a4a-16b059d4d39e","ios":"levelo://app?vid=4bc00b5d-34b7-481c-8a4a-16b059d4d39e"},"vehicle_type_id":"4","last_reported":1744096227,"current_range_meters":19600,"station_id":"ce4bhh92rcd13ifvqfj0","pricing_plan_id":"cebpf4jnsgd1na2vs0mg"},{"bike_id":"08543b2b-6a60-48e3-a94e-96a69d0dee2a","system_id":"levelo_inurba_marseille","lat":43.32546,"lon":5.41434,"is_reserved":false,"is_disabled":false,"rental_uris":{"android":"levelo://app?vid=08543b2b-6a60-48e3-a94e-96a69d0dee2a","ios":"levelo://app?vid=08543b2b-6a60-48e3-a94e-96a69d0dee2a"},"vehicle_type_id":"4","last_reported":1744096227,"current_range_meters":19600,"station_id":"ce4bhq12rcd13ifvqhhg","pricing_plan_id":"cebpf4jnsgd1na2vs0mg"},{"bike_id":"2b90b939-7989-4a2d-8169-0489226ec44d","system_id":"levelo_inurba_marseille","lat":43.25003,"lon":5.38928,"is_reserved":false,"is_disabled":false,"rental_uris":{"android":"levelo://app?vid=2b90b939-7989-4a2d-8169-0489226ec44d","ios":"levelo://app?vid=2b90b939-7989-4a2d-8169-0489226ec44d"},"vehicle_type_id":"4","last_reported":1744096227,"current_range_meters":19600,"station_id":"ce4bhgp2rcd13ifvqfd0","pricing_plan_id":"cebpf4jnsgd1na2vs0mg"},{"bike_id":"5c084113-5098-4718-9eb9-681f243436d8","system_id":"levelo_inurba_marseille","lat":43.300301,"lon":5.370789,"is_reserved":false,"is_disabled":false,"rental_uris":{"android":"levelo://app?vid=5c084113-5098-4718-9eb9-681f243436d8","ios":"levelo://app?vid=5c084113-5098-4718-9eb9-681f243436d8"},"vehicle_type_id":"4","last_reported":1744096227,"current_range_meters":19600,"station_id":"ce4bgr92rcd13ifvqc6g","pricing_plan_id":"cebpf4jnsgd1na2vs0mg"},{"bike_id":"a8bd7125-70ec-477e-9a4a-4174f1af043a","system_id":"levelo_inurba_marseille","lat":43.30448,"lon":5.37908,"is_reserved":false,"is_disabled":false,"rental_uris":{"android":"levelo://app?vid=a8bd7125-70ec-477e-9a4a-4174f1af043a","ios":"levelo://app?vid=a8bd7125-70ec-477e-9a4a-4174f1af043a"},"vehicle_type_id":"4","last_reported":1744096227,"current_range_meters":20000,"station_id":"ce4bgup2rcd13ifvqcn0","pricing_plan_id":"cebpf4jnsgd1na2vs0mg"},{"bike_id":"0095d2a4-c552-434c-af74-f9ea889d4984","system_id":"levelo_inurba_marseille","lat":43.2474,"lon":5.41206,"is_reserved":false,"is_disabled":false,"rental_uris":{"android":"levelo://app?vid=0095d2a4-c552-434c-af74-f9ea889d4984","ios":"levelo://app?vid=0095d2a4-c552-434c-af74-f9ea889d4984"},"vehicle_type_id":"4","last_reported":1744096227,"current_range_meters":20000,"station_id":"","pricing_plan_id":"cebpf4jnsgd1na2vs0mg"},{"bike_id":"d7b2134e-575c-40f1-9b3b-0ad40ab4b220","system_id":"levelo_inurba_marseille","lat":43.298388,"lon":5.43688,"is_reserved":false,"is_disabled":false,"rental_uris":{"android":"levelo://app?vid=d7b2134e-575c-40f1-9b3b-0ad40ab4b220","ios":"levelo://app?vid=d7b2134e-575c-40f1-9b3b-0ad40ab4b220"},"vehicle_type_id":"4","last_reported":1744096227,"current_range_meters":20000,"station_id":"","pricing_plan_id":"cebpf4jnsgd1na2vs0mg"},{"bike_id":"d0c59af0-3c2c-4c7c-8feb-c746099854ac","system_id":"levelo_inurba_marseille","lat":43.290412,"lon":5.399691,"is_reserved":false,"is_disabled":false,"rental_uris":{"android":"levelo://app?vid=d0c59af0-3c2c-4c7c-8feb-c746099854ac","ios":"levelo://app?vid=d0c59af0-3c2c-4c7c-8feb-c746099854ac"},"vehicle_type_id":"4","last_reported":1744096227,"current_range_meters":20000,"station_id":"ce4bhh92rcd13ifvqfj0","pricing_plan_id":"cebpf4jnsgd1na2vs0mg"},{"bike_id":"bd6c91b7-fca1-46dc-8fad-86d6e39575e2","system_id":"levelo_inurba_marseille","lat":43.299093,"lon":5.381653,"is_reserved":false,"is_disabled":false,"rental_uris":{"android":"levelo://app?vid=bd6c91b7-fca1-46dc-8fad-86d6e39575e2","ios":"levelo://app?vid=bd6c91b7-fca1-46dc-8fad-86d6e39575e2"},"vehicle_type_id":"4","last_reported":1744096227,"current_range_meters":20000,"station_id":"ce4bgj92rcd13ifvqbe0","pricing_plan_id":"cebpf4jnsgd1na2vs0mg"},{"bike_id":"0e07a684-41d9-47ff-922f-720929dd273d","system_id":"levelo_inurba_marseille","lat":43.26678,"lon":5.38268,"is_reserved":false,"is_disabled":false,"rental_uris":{"android":"levelo://app?vid=0e07a684-41d9-47ff-922f-720929dd273d","ios":"levelo://app?vid=0e07a684-41d9-47ff-922f-720929dd273d"},"vehicle_type_id":"4","last_reported":1744096227,"current_range_meters":20400,"station_id":"ce4bhg92rcd13ifvqf90","pricing_plan_id":"cebpf4jnsgd1na2vs0mg"},{"bike_id":"eb104f46-4489-4884-bd99-0934bb8695a9","system_id":"levelo_inurba_marseille","lat":43.23058,"lon":5.35497,"is_reserved":false,"is_disabled":false,"rental_uris":{"android":"levelo://app?vid=eb104f46-4489-4884-bd99-0934bb8695a9","ios":"levelo://app?vid=eb104f46-4489-4884-bd99-0934bb8695a9"},"vehicle_type_id":"4","last_reported":1744096227,"current_range_meters":20400,"station_id":"cpo3342slgdg3j2ifvpg","pricing_plan_id":"cebpf4jnsgd1na2vs0mg"},{"bike_id":"9b037c0e-68e8-413d-9e6f-c325a966579e","system_id":"levelo_inurba_marseille","lat":43.30548,"lon":5.36553,"is_reserved":false,"is_disabled":false,"rental_uris":{"android":"levelo://app?vid=9b037c0e-68e8-413d-9e6f-c325a966579e","ios":"levelo://app?vid=9b037c0e-68e8-413d-9e6f-c325a966579e"},"vehicle_type_id":"4","last_reported":1744096227,"current_range_meters":20400,"station_id":"ce4bgs12rcd13ifvqcag","pricing_plan_id":"cebpf4jnsgd1na2vs0mg"},{"bike_id":"c1c63035-c83b-4419-8cbf-133778d95125","system_id":"levelo_inurba_marseille","lat":43.297895,"lon":5.393519,"is_reserved":false,"is_disabled":true,"rental_uris":{"android":"levelo://app?vid=c1c63035-c83b-4419-8cbf-133778d95125","ios":"levelo://app?vid=c1c63035-c83b-4419-8cbf-133778d95125"},"vehicle_type_id":"4","last_reported":1744096227,"current_range_meters":20400,"station_id":"chh1huq6cuj3fo74tm60","pricing_plan_id":"cebpf4jnsgd1na2vs0mg"},{"bike_id":"6278194a-3064-41bd-8565-b8ff44b1552d","system_id":"levelo_inurba_marseille","lat":43.295321,"lon":5.385422,"is_reserved":false,"is_disabled":true,"rental_uris":{"android":"levelo://app?vid=6278194a-3064-41bd-8565-b8ff44b1552d","ios":"levelo://app?vid=6278194a-3064-41bd-8565-b8ff44b1552d"},"vehicle_type_id":"4","last_reported":1744096227,"current_range_meters":20400,"station_id":"ce4bgih2rcd13ifvqba0","pricing_plan_id":"cebpf4jnsgd1na2vs0mg"},{"bike_id":"a19f601a-a735-4cac-86ee-9fab23ef1b95","system_id":"levelo_inurba_marseille","lat":43.24801,"lon":5.37452,"is_reserved":false,"is_disabled":true,"rental_uris":{"android":"levelo://app?vid=a19f601a-a735-4cac-86ee-9fab23ef1b95","ios":"levelo://app?vid=a19f601a-a735-4cac-86ee-9fab23ef1b95"},"vehicle_type_id":"4","last_reported":1744096227,"current_range_meters":20400,"station_id":"ce4bhgh2rcd13ifvqfb0","pricing_plan_id":"cebpf4jnsgd1na2vs0mg"},{"bike_id":"d339f119-e992-40d5-b99d-85a7bf25ba95","system_id":"levelo_inurba_marseille","lat":43.30944,"lon":5.39034,"is_reserved":false,"is_disabled":false,"rental_uris":{"android":"levelo://app?vid=d339f119-e992-40d5-b99d-85a7bf25ba95","ios":"levelo://app?vid=d339f119-e992-40d5-b99d-85a7bf25ba95"},"vehicle_type_id":"4","last_reported":1744096227,"current_range_meters":20400,"station_id":"ce4bgup2rcd13ifvqco0","pricing_plan_id":"cebpf4jnsgd1na2vs0mg"},{"bike_id":"fd07d6de-a218-43d3-8caa-eaba2cec3dca","system_id":"levelo_inurba_marseille","lat":43.27934,"lon":5.41039,"is_reserved":false,"is_disabled":false,"rental_uris":{"android":"levelo://app?vid=fd07d6de-a218-43d3-8caa-eaba2cec3dca","ios":"levelo://app?vid=fd07d6de-a218-43d3-8caa-eaba2cec3dca"},"vehicle_type_id":"4","last_reported":1744096227,"current_range_meters":20400,"station_id":"ce4bhnp2rcd13ifvqh0g","pricing_plan_id":"cebpf4jnsgd1na2vs0mg"},{"bike_id":"a3db18d0-2cff-4d87-bff4-0349b2ed0b85","system_id":"levelo_inurba_marseille","lat":43.27574,"lon":5.38427,"is_reserved":false,"is_disabled":false,"rental_uris":{"android":"levelo://app?vid=a3db18d0-2cff-4d87-bff4-0349b2ed0b85","ios":"levelo://app?vid=a3db18d0-2cff-4d87-bff4-0349b2ed0b85"},"vehicle_type_id":"4","last_reported":1744096227,"current_range_meters":20400,"station_id":"ce4bhh92rcd13ifvqfi0","pricing_plan_id":"cebpf4jnsgd1na2vs0mg"},{"bike_id":"39e79879-3514-46f1-ae55-e9d6ebd2e60f","system_id":"levelo_inurba_marseille","lat":43.27836,"lon":5.42191,"is_reserved":false,"is_disabled":false,"rental_uris":{"android":"levelo://app?vid=39e79879-3514-46f1-ae55-e9d6ebd2e60f","ios":"levelo://app?vid=39e79879-3514-46f1-ae55-e9d6ebd2e60f"},"vehicle_type_id":"4","last_reported":1744096227,"current_range_meters":20800,"station_id":"","pricing_plan_id":"cebpf4jnsgd1na2vs0mg"},