{"last_updated":1686596625,"ttl":30,"version":"2.2","data":{"bikes":[{"bike_id":"4792b473-85e2-4fdd-83a4-302c95f6ac67","system_id":"levelo_inurba_marseille","lat":43.31093,"lon":5.36742,"is_reserved":false,"is_disabled":false,"rental_uris":{"android":"levelo://app?vid=4792b473-85e2-4fdd-83a4-302c95f6ac67","ios":"levelo://app?vid=4792b473-85e2-4fdd-83a4-302c95f6ac67"},"vehicle_type_id":"4","last_reported":1686596626,"current_range_meters":29600,"station_id":"","pricing_plan_id":"free"},{"bike_id":"dff1b0e2-7c5c-414a-846b-2ef60e70ea3e","system_id":"levelo_inurba_marseille","lat":43.31226,"lon":5.37172,"is_reserved":false,"is_disabled":false,"rental_uris":{"android":"levelo://app?vid=dff1b0e2-7c5c-414a-846b-2ef60e70ea3e","ios":"levelo://app?vid=dff1b0e2-7c5c-414a-846b-2ef60e70ea3e"},"vehicle_type_id":"4","last_reported":1686596626,"current_range_meters":23600,"station_id":"","pricing_plan_id":"free"},{"bike_id":"2236174f-9b48-4e77-bc47-17f9275c2cb6","system_id":"levelo_inurba_marseille","lat":43.309076,"lon":5.368465,"is_reserved":false,"is_disabled":false,"rental_uris":{"android":"levelo://app?vid=2236174f-9b48-4e77-bc47-17f9275c2cb6","ios":"levelo://app?vid=2236174f-9b48-4e77-bc47-17f9275c2cb6"},"vehicle_type_id":"4","last_reported":1686596626,"current_range_meters":4800,"station_id":"ce4bgn92rcd13ifvqbvg","pricing_plan_id":"free"},{"bike_id":"a7974559-7a0f-4418-b819-40a6a22b3f8a","system_id":"levelo_inurba_marseille","lat":43.314811,"lon":5.373103,"is_reserved":false,"is_disabled":false,"rental_uris":{"android":"levelo://app?vid=a7974559-7a0f-4418-b819-40a6a22b3f8a","ios":"levelo://app?vid=a7974559-7a0f-4418-b819-40a6a22b3f8a"},"vehicle_type_id":"4","last_reported":1686596626,"current_range_meters":31200,"station_id":"ce4bgt12rcd13ifvqcd0","pricing_plan_id":"free"},{"bike_id":"bb5b42a2-61b9-44e6-a561-7e1f69b3434c","system_id":"levelo_inurba_marseille","lat":43.314811,"lon":5.373103,"is_reserved":false,"is_disabled":false,"rental_uris":{"android":"levelo://app?vid=bb5b42a2-61b9-44e6-a561-7e1f69b3434c","ios":"levelo://app?vid=bb5b42a2-61b9-44e6-a561-7e1f69b3434c"},"vehicle_type_id":"4","last_reported":1686596626,"current_range_meters":1200,"station_id":"ce4bgt12rcd13ifvqcd0","pricing_plan_id":"free"},{"bike_id":"3569622a-753a-48bd-8a46-599c5b9b113c","system_id":"levelo_inurba_marseille","lat":43.308606,"lon":5.372099,"is_reserved":false,"is_disabled":false,"rental_uris":{"android":"levelo://app?vid=3569622a-753a-48bd-8a46-599c5b9b113c","ios":"levelo://app?vid=3569622a-753a-48bd-8a46-599c5b9b113c"},"vehicle_type_id":"4","last_reported":1686596626,"current_range_meters":6000,"station_id":"ce4bguh2rcd13ifvqckg","pricing_plan_id":"free"},{"bike_id":"c1fb032f-fb08-4a02-aedc-39d3c7c6c011","system_id":"levelo_inurba_marseille","lat":43.306,"lon":5.36574,"is_reserved":false,"is_disabled":false,"rental_uris":{"android":"levelo://app?vid=c1fb032f-fb08-4a02-aedc-39d3c7c6c011","ios":"levelo://app?vid=c1fb032f-fb08-4a02-aedc-39d3c7c6c011"},"vehicle_type_id":"4","last_reported":1686596626,"current_range_meters":0,"station_id":"","pricing_plan_id":"free"},{"bike_id":"744e04fe-bd6f-440f-9dd3-8b3ef8ea43cf","system_id":"levelo_inurba_marseille","lat":43.305368,"lon":5.367343,"is_reserved":false,"is_disabled":false,"rental_uris":{"android":"levelo://app?vid=744e04fe-bd6f-440f-9dd3-8b3ef8ea43cf","ios":"levelo://app?vid=744e04fe-bd6f-440f-9dd3-8b3ef8ea43cf"},"vehicle_type_id":"4","last_reported":1686596626,"current_range_meters":400,"station_id":"ce4bgrp2rcd13ifvqc9g","pricing_plan_id":"free"},{"bike_id":"4178eaab-a76c-4f04-885b-a6e28f80a27b","system_id":"levelo_inurba_marseille","lat":43.305706,"lon":5.365654,"is_reserved":false,"is_disabled":false,"rental_uris":{"android":"levelo://app?vid=4178eaab-a76c-4f04-885b-a6e28f80a27b","ios":"levelo://app?vid=4178eaab-a76c-4f04-885b-a6e28f80a27b"},"vehicle_type_id":"4","last_reported":1686596626,"current_range_meters":16000,"station_id":"ce4bgs12rcd13ifvqcag","pricing_plan_id":"free"},{"bike_id":"1f8a5235-ab9c-441f-a19a-efb2bdaabe00","system_id":"levelo_inurba_marseille","lat":43.305368,"lon":5.367343,"is_reserved":false,"is_disabled":false,"rental_uris":{"android":"levelo://app?vid=1f8a5235-ab9c-441f-a19a-efb2bdaabe00","ios":"levelo://app?vid=1f8a5235-ab9c-441f-a19a-efb2bdaabe00"},"vehicle_type_id":"4","last_reported":1686596626,"current_range_meters":31200,"station_id":"ce4bgrp2rcd13ifvqc9g","pricing_plan_id":"free"},{"bike_id":"8aefcc2e-f099-4017-a49d-e9d5977150f5","system_id":"levelo_inurba_marseille","lat":43.305989,"lon":5.37225,"is_reserved":false,"is_disabled":false,"rental_uris":{"android":"levelo://app?vid=8aefcc2e-f099-4017-a49d-e9d5977150f5","ios":"levelo://app?vid=8aefcc2e-f099-4017-a49d-e9d5977150f5"},"vehicle_type_id":"4","last_reported":1686596626,"current_range_meters":4000,"station_id":"ce4bgqh2rcd13ifvqc4g","pricing_plan_id":"free"},{"bike_id":"97904960-c678-4f96-bf6b-fdae6fbbeace","system_id":"levelo_inurba_marseille","lat":43.305989,"lon":5.37225,"is_reserved":false,"is_disabled":false,"rental_uris":{"android":"levelo://app?vid=97904960-c678-4f96-bf6b-fdae6fbbeace","ios":"levelo://app?vid=97904960-c678-4f96-bf6b-fdae6fbbeace"},"vehicle_type_id":"4","last_reported":1686596626,"current_range_meters":6000,"station_id":"ce4bgqh2rcd13ifvqc4g","pricing_plan_id":"free"},{"bike_id":"a905a992-ad3f-4a7f-a7f5-f77a27153810","system_id":"levelo_inurba_marseille","lat":43.311131,"lon":5.377651,"is_reserved":false,"is_disabled":false,"rental_uris":{"android":"levelo://app?vid=a905a992-ad3f-4a7f-a7f5-f77a27153810","ios":"levelo://app?vid=a905a992-ad3f-4a7f-a7f5-f77a27153810"},"vehicle_type_id":"4","last_reported":1686596626,"current_range_meters":1200,"station_id":"ce4bgt92rcd13ifvqcg0","pricing_plan_id":"free"},{"bike_id":"e371172f-8e29-4e86-abe5-eb892838ef49","system_id":"levelo_inurba_marseille","lat":43.317075,"lon":5.377367,"is_reserved":false,"is_disabled":false,"rental_uris":{"android":"levelo://app?vid=e371172f-8e29-4e86-abe5-eb892838ef49","ios":"levelo://app?vid=e371172f-8e29-4e86-abe5-eb892838ef49"},"vehicle_type_id":"4","last_reported":1686596626,"current_range_meters":25600,"station_id":"ce4bgth2rcd13ifvqch0","pricing_plan_id":"free"},{"bike_id":"ce27853c-3346-473e-99fb-e121615e6d3f","system_id":"levelo_inurba_marseille","lat":43.31527,"lon":5.38029,"is_reserved":false,"is_disabled":false,"rental_uris":{"android":"levelo://app?vid=ce27853c-3346-473e-99fb-e121615e6d3f","ios":"levelo://app?vid=ce27853c-3346-473e-99fb-e121615e6d3f"},"vehicle_type_id":"4","last_reported":1686596626,"current_range_meters":5600,"station_id":"ce4bhsp2rcd13ifvqi50","pricing_plan_id":"free"},{"bike_id":"e696b712-880b-465c-832a-527da1dcd8ae","system_id":"levelo_inurba_marseille","lat":43.31536,"lon":5.38032,"is_reserved":false,"is_disabled":false,"rental_uris":{"android":"levelo://app?vid=e696b712-880b-465c-832a-527da1dcd8ae","ios":"levelo://app?vid=e696b712-880b-465c-832a-527da1dcd8ae"},"vehicle_type_id":"4","last_reported":1686596626,"current_range_meters":15600,"station_id":"ce4bhsp2rcd13ifvqi50","pricing_plan_id":"free"},{"bike_id":"67f53162-9837-407d-81cf-fc3c4b765ca1","system_id":"levelo_inurba_marseille","lat":43.31528,"lon":5.38038,"is_reserved":false,"is_disabled":false,"rental_uris":{"android":"levelo://app?vid=67f53162-9837-407d-81cf-fc3c4b765ca1","ios":"levelo://app?vid=67f53162-9837-407d-81cf-fc3c4b765ca1"},"vehicle_type_id":"4","last_reported":1686596626,"current_range_meters":5200,"station_id":"ce4bhsp2rcd13ifvqi50","pricing_plan_id":"free"},{"bike_id":"12d71afa-8a20-4eaf-be5b-0500d7dc0dd7","system_id":"levelo_inurba_marseille","lat":43.31532,"lon":5.38037,"is_reserved":false,"is_disabled":false,"rental_uris":{"android":"levelo://app?vid=12d71afa-8a20-4eaf-be5b-0500d7dc0dd7","ios":"levelo://app?vid=12d71afa-8a20-4eaf-be5b-0500d7dc0dd7"},"vehicle_type_id":"4","last_reported":1686596626,"current_range_meters":1600,"station_id":"ce4bhsp2rcd13ifvqi50","pricing_plan_id":"free"},{"bike_id":"cee983fb-5f20-4f4d-9af5-3a28ce25a679","system_id":"levelo_inurba_marseille","lat":43.301939,"lon":5.366286,"is_reserved":false,"is_disabled":false,"rental_uris":{"android":"levelo://app?vid=cee983fb-5f20-4f4d-9af5-3a28ce25a679","ios":"levelo://app?vid=cee983fb-5f20-4f4d-9af5-3a28ce25a679"},"vehicle_type_id":"4","last_reported":1686596626,"current_range_meters":31200,"station_id":"ce4bgrh2rcd13ifvqc8g","pricing_plan_id":"free"},{"bike_id":"053f3e06-bcfb-4dd1-bf24-76d39e9de46e","system_id":"levelo_inurba_marseille","lat":43.308012,"lon":5.381511,"is_reserved":false,"is_disabled":false,"rental_uris":{"android":"levelo://app?vid=053f3e06-bcfb-4dd1-bf24-76d39e9de46e","ios":"levelo://app?vid=053f3e06-bcfb-4dd1-bf24-76d39e9de46e"},"vehicle_type_id":"4","last_reported":1686596626,"current_range_meters":0,"station_id":"ce4bgt12rcd13ifvqce0","pricing_plan_id":"free"},{"bike_id":"2a21799b-5794-45c2-99b0-c8ff69b62e21","system_id":"levelo_inurba_marseille","lat":43.308012,"lon":5.381511,"is_reserved":false,"is_disabled":false,"rental_uris":{"android":"levelo://app?vid=2a21799b-5794-45c2-99b0-c8ff69b62e21","ios":"levelo://app?vid=2a21799b-5794-45c2-99b0-c8ff69b62e21"},"vehicle_type_id":"4","last_reported":1686596626,"current_range_meters":0,"station_id":"ce4bgt12rcd13ifvqce0","pricing_plan_id":"free"},{"bike_id":"e4eb563a-2d01-4fac-972d-7f62e590ead0","system_id":"levelo_inurba_marseille","lat":43.308012,"lon":5.381511,"is_reserved":false,"is_disabled":false,"rental_uris":{"android":"levelo://app?vid=e4eb563a-2d01-4fac-972d-7f62e590ead0","ios":"levelo://app?vid=e4eb563a-2d01-4fac-972d-7f62e590ead0"},"vehicle_type_id":"4","last_reported":1686596626,"current_range_meters":0,"station_id":"ce4bgt12rcd13ifvqce0","pricing_plan_id":"free"},{"bike_id":"e9556d91-6189-4203-8f01-ccae0efe1551","system_id":"levelo_inurba_marseille","lat":43.308012,"lon":5.381511,"is_reserved":false,"is_disabled":false,"rental_uris":{"android":"levelo://app?vid=e9556d91-6189-4203-8f01-ccae0efe1551","ios":"levelo://app?vid=e9556d91-6189-4203-8f01-ccae0efe1551"},"vehicle_type_id":"4","last_reported":1686596626,"current_range_meters":7200,"station_id":"ce4bgt12rcd13ifvqce0","pricing_plan_id":"free"},{"bike_id":"6e59791b-f110-41aa-97c8-a83d9f23480b","system_id":"levelo_inurba_marseille","lat":43.302784,"lon":5.377158,"is_reserved":false,"is_disabled":false,"rental_uris":{"android":"levelo://app?vid=6e59791b-f110-41aa-97c8-a83d9f23480b","ios":"levelo://app?vid=6e59791b-f110-41aa-97c8-a83d9f23480b"},"vehicle_type_id":"4","last_reported":1686596626,"current_range_meters":1200,"station_id":"ce4bguh2rcd13ifvqcj0","pricing_plan_id":"free"},{"bike_id":"55e0693b-3e87-43a5-9e5a-eb07d0527591","system_id":"levelo_inurba_marseille","lat":43.30149,"lon":5.3741,"is_reserved":false,"is_disabled":false,"rental_uris":{"android":"levelo://app?vid=55e0693b-3e87-43a5-9e5a-eb07d0527591","ios":"levelo://app?vid=55e0693b-3e87-43a5-9e5a-eb07d0527591"},"vehicle_type_id":"4","last_reported":1686596626,"current_range_meters":0,"station_id":"ce4bgs92rcd13ifvqcc0","pricing_plan_id":"free"},{"bike_id":"6758cb31-a0d9-459c-9f33-1ed9d3d6b710","system_id":"levelo_inurba_marseille","lat":43.30143,"lon":5.37413,"is_reserved":false,"is_disabled":false,"rental_uris":{"android":"levelo://app?vid=6758cb31-a0d9-459c-9f33-1ed9d3d6b710","ios":"levelo://app?vid=6758cb31-a0d9-459c-9f33-1ed9d3d6b710"},"vehicle_type_id":"4","last_reported":1686596626,"current_range_meters":5600,"station_id":"ce4bgs92rcd13ifvqcc0","pricing_plan_id":"free"},{"bike_id":"148976ba-5642-4c28-9d40-d4126c007abe","system_id":"levelo_inurba_marseille","lat":43.31763,"lon":5.38291,"is_reserved":false,"is_disabled":false,"rental_uris":{"android":"levelo://app?vid=148976ba-5642-4c28-9d40-d4126c007abe","ios":"levelo://app?vid=148976ba-5642-4c28-9d40-d4126c007abe"},"vehicle_type_id":"4","last_reported":1686596626,"current_range_meters":24800,"station_id":"","pricing_plan_id":"free"},{"bike_id":"53be99d0-4300-4f33-aa2a-8622745e539e","system_id":"levelo_inurba_marseille","lat":43.319935,"lon":5.381699,"is_reserved":false,"is_disabled":false,"rental_uris":{"android":"levelo://app?vid=53be99d0-4300-4f33-aa2a-8622745e539e","ios":"levelo://app?vid=53be99d0-4300-4f33-aa2a-8622745e539e"},"vehicle_type_id":"4","last_reported":1686596626,"current_range_meters":26000,"station_id":"ce4bhr12rcd13ifvqhpg","pricing_plan_id":"free"},{"bike_id":"241479bc-85d3-4b05-8f6f-1c276f5686ac","system_id":"levelo_inurba_marseille","lat":43.32001,"lon":5.38152,"is_reserved":false,"is_disabled":false,"rental_uris":{"android":"levelo://app?vid=241479bc-85d3-4b05-8f6f-1c276f5686ac","ios":"levelo://app?vid=241479bc-85d3-4b05-8f6f-1c276f5686ac"},"vehicle_type_id":"4","last_reported":1686596626,"current_range_meters":2000,"station_id":"ce4bhr12rcd13ifvqhpg","pricing_plan_id":"free"},{"bike_id":"beb96505-fc50-43f0-a2e3-9147b071a9f0","system_id":"levelo_inurba_marseille","lat":43.299222,"lon":5.365554,"is_reserved":false,"is_disabled":false,"rental_uris":{"android":"levelo://app?vid=beb96505-fc50-43f0-a2e3-9147b071a9f0","ios":"levelo://app?vid=beb96505-fc50-43f0-a2e3-9147b071a9f0"},"vehicle_type_id":"4","last_reported":1686596626,"current_range_meters":8000,"station_id":"ce4bgm92rcd13ifvqbr0","pricing_plan_id":"free"},{"bike_id":"1bac387a-baa0-4faf-b9c8-002be9ad92b7","system_id":"levelo_inurba_marseille","lat":43.305364,"lon":5.384119,"is_reserved":false,"is_disabled":false,"rental_uris":{"android":"levelo://app?vid=1bac387a-baa0-4faf-b9c8-002be9ad92b7","ios":"levelo://app?vid=1bac387a-baa0-4faf-b9c8-002be9ad92b7"},"vehicle_type_id":"4","last_reported":1686596626,"current_range_meters":0,"station_id":"ce4bgg92rcd13ifvqb30","pricing_plan_id":"free"},{"bike_id":"bd6aaabc-d1f3-40d2-af03-328a7dda89e3","system_id":"levelo_inurba_marseille","lat":43.30535,"lon":5.3843,"is_reserved":false,"is_disabled":false,"rental_uris":{"android":"levelo://app?vid=bd6aaabc-d1f3-40d2-af03-328a7dda89e3","ios":"levelo://app?vid=bd6aaabc-d1f3-40d2-af03-328a7dda89e3"},"vehicle_type_id":"4","last_reported":1686596626,"current_range_meters":16400,"station_id":"ce4bgg92rcd13ifvqb30","pricing_plan_id":"free"},{"bike_id":"19646ddb-cae9-4aa4-9534-e3d7378d40f8","system_id":"levelo_inurba_marseille","lat":43.299243,"lon":5.374807,"is_reserved":false,"is_disabled":false,"rental_uris":{"android":"levelo://app?vid=19646ddb-cae9-4aa4-9534-e3d7378d40f8","ios":"levelo://app?vid=19646ddb-cae9-4aa4-9534-e3d7378d40f8"},"vehicle_type_id":"4","last_reported":1686596626,"current_range_meters":29200,"station_id":"ce4bgjh2rcd13ifvqbg0","pricing_plan_id":"free"},{"bike_id":"c8465b01-80ca-4fe5-b265-049723932c90","system_id":"levelo_inurba_marseille","lat":43.31166,"lon":5.3871,"is_reserved":false,"is_disabled":false,"rental_uris":{"android":"levelo://app?vid=c8465b01-80ca-4fe5-b265-049723932c90","ios":"levelo://app?vid=c8465b01-80ca-4fe5-b265-049723932c90"},"vehicle_type_id":"4","last_reported":1686596626,"current_range_meters":7600,"station_id":"ce4bgv12rcd13ifvqcp0","pricing_plan_id":"free"},{"bike_id":"ea6cec08-075e-4225-9dff-f1498528fc7d","system_id":"levelo_inurba_marseille","lat":43.299243,"lon":5.37481,"is_reserved":false,"is_disabled":false,"rental_uris":{"android":"levelo://app?vid=ea6cec08-075e-4225-9dff-f1498528fc7d","ios":"levelo://app?vid=ea6cec08-075e-4225-9dff-f1498528fc7d"},"vehicle_type_id":"4","last_reported":1686596626,"current_range_meters":3600,"station_id":"ce4bgjh2rcd13ifvqbg0","pricing_plan_id":"free"},{"bike_id":"e63ab30a-c3da-4dff-9adc-d899ea37f38d","system_id":"levelo_inurba_marseille","lat":43.29711,"lon":5.36613,"is_reserved":false,"is_disabled":false,"rental_uris":{"android":"levelo://app?vid=e63ab30a-c3da-4dff-9adc-d899ea37f38d","ios":"levelo://app?vid=e63ab30a-c3da-4dff-9adc-d899ea37f38d"},"vehicle_type_id":"4","last_reported":1686596626,"current_range_meters":12400,"station_id":"","pricing_plan_id":"free"},{"bike_id":"08fa89b2-b1bb-4d4e-9efd-33b1209a0493","system_id":"levelo_inurba_marseille","lat":43.29705,"lon":5.36612,"is_reserved":false,"is_disabled":false,"rental_uris":{"android":"levelo://app?vid=08fa89b2-b1bb-4d4e-9efd-33b1209a0493","ios":"levelo://app?vid=08fa89b2-b1bb-4d4e-9efd-33b1209a0493"},"vehicle_type_id":"4","last_reported":1686596626,"current_range_meters":2000,"station_id":"","pricing_plan_id":"free"},{"bike_id":"1cc984b8-a230-4daa-96f9-a72f3cb78505","system_id":"levelo_inurba_marseille","lat":43.2968,"lon":5.37291,"is_reserved":false,"is_disabled":false,"rental_uris":{"android":"levelo://app?vid=1cc984b8-a230-4daa-96f9-a72f3cb78505","ios":"levelo://app?vid=1cc984b8-a230-4daa-96f9-a72f3cb78505"},"vehicle_type_id":"4","last_reported":1686596626,"current_range_meters":0,"station_id":"ce4bgk12rcd13ifvqbj0","pricing_plan_id":"free"},{"bike_id":"9ce350ae-10af-4ae4-ac13-fd527e7c9369","system_id":"levelo_inurba_marseille","lat":43.29677,"lon":5.37284,"is_reserved":false,"is_disabled":false,"rental_uris":{"android":"levelo://app?vid=9ce350ae-10af-4ae4-ac13-fd527e7c9369","ios":"levelo://app?vid=9ce350ae-10af-4ae4-ac13-fd527e7c9369"},"vehicle_type_id":"4","last_reported":1686596626,"current_range_meters":6000,"station_id":"ce4bgk12rcd13ifvqbj0","pricing_plan_id":"free"},{"bike_id":"88d0330c-5bb0-4a19-9b65-d4683b42e015","system_id":"levelo_inurba_marseille","lat":43.29683,"lon":5.36046,"is_reserved":false,"is_disabled":false,"rental_uris":{"android":"levelo://app?vid=88d0330c-5bb0-4a19-9b65-d4683b42e015","ios":"levelo://app?vid=88d0330c-5bb0-4a19-9b65-d4683b42e015"},"vehicle_type_id":"4","last_reported":1686596626,"current_range_meters":24800,"station_id":"ce4bgpp2rcd13ifvqc3g","pricing_plan_id":"free"},{"bike_id":"85da430a-b93d-4827-980c-8f8641079d7e","system_id":"levelo_inurba_marseille","lat":43.309589,"lon":5.390258,"is_reserved":false,"is_disabled":false,"rental_uris":{"android":"levelo://app?vid=85da430a-b93d-4827-980c-8f8641079d7e","ios":"levelo://app?vid=85da430a-b93d-4827-980c-8f8641079d7e"},"vehicle_type_id":"4","last_reported":1686596626,"current_range_meters":10400,"station_id":"ce4bgup2rcd13ifvqco0","pricing_plan_id":"free"},{"bike_id":"ee6a1930-93ce-4ae7-843d-3f260ba69dbc","system_id":"levelo_inurba_marseille","lat":43.29708,"lon":5.37701,"is_reserved":false,"is_disabled":false,"rental_uris":{"android":"levelo://app?vid=ee6a1930-93ce-4ae7-843d-3f260ba69dbc","ios":"levelo://app?vid=ee6a1930-93ce-4ae7-843d-3f260ba69dbc"},"vehicle_type_id":"4","last_reported":1686596626,"current_range_meters":11200,"station_id":"ce4bgkh2rcd13ifvqbl0","pricing_plan_id":"free"},{"bike_id":"b6a08af2-022c-4c26-9d0c-d9b2e6265c9d","system_id":"levelo_inurba_marseille","lat":43.29706,"lon":5.37703,"is_reserved":false,"is_disabled":false,"rental_uris":{"android":"levelo://app?vid=b6a08af2-022c-4c26-9d0c-d9b2e6265c9d","ios":"levelo://app?vid=b6a08af2-022c-4c26-9d0c-d9b2e6265c9d"},"vehicle_type_id":"4","last_reported":1686596626,"current_range_meters":16000,"station_id":"","pricing_plan_id":"free"},{"bike_id":"f4fb76a2-74c8-4e0b-a164-ee3f65091989","system_id":"levelo_inurba_marseille","lat":43.296935,"lon":5.376544,"is_reserved":false,"is_disabled":false,"rental_uris":{"android":"levelo://app?vid=f4fb76a2-74c8-4e0b-a164-ee3f65091989","ios":"levelo://app?vid=f4fb76a2-74c8-4e0b-a164-ee3f65091989"},"vehicle_type_id":"4","last_reported":1686596626,"current_range_meters":31200,"station_id":"ce4bgkh2rcd13ifvqbl0","pricing_plan_id":"free"},{"bike_id":"1ac65d75-e6ee-40c4-a473-2287efd7deb7","system_id":"levelo_inurba_marseille","lat":43.296921,"lon":5.376579,"is_reserved":false,"is_disabled":false,"rental_uris":{"android":"levelo://app?vid=1ac65d75-e6ee-40c4-a473-2287efd7deb7","ios":"levelo://app?vid=1ac65d75-e6ee-40c4-a473-2287efd7deb7"},"vehicle_type_id":"4","last_reported":1686596626,"current_range_meters":0,"station_id":"ce4bgkh2rcd13ifvqbl0","pricing_plan_id":"free"},{"bike_id":"71d7ad48-331f-4e3f-ae8f-0b8e5bdd9278","system_id":"levelo_inurba_marseille","lat":43.317557,"lon":5.390173,"is_reserved":false,"is_disabled":false,"rental_uris":{"android":"levelo://app?vid=71d7ad48-331f-4e3f-ae8f-0b8e5bdd9278","ios":"levelo://app?vid=71d7ad48-331f-4e3f-ae8f-0b8e5bdd9278"},"vehicle_type_id":"4","last_reported":1686596626,"current_range_meters":12400,"station_id":"ce4bhqp2rcd13ifvqhng","pricing_plan_id":"free"},{"bike_id":"225c7872-eaa4-4089-b361-77c4400a5087","system_id":"levelo_inurba_marseille","lat":43.317557,"lon":5.390173,"is_reserved":false,"is_disabled":false,"rental_uris":{"android":"levelo://app?vid=225c7872-eaa4-4089-b361-77c4400a5087","ios":"levelo://app?vid=225c7872-eaa4-4089-b361-77c4400a5087"},"vehicle_type_id":"4","last_reported":1686596626,"current_range_meters":0,"station_id":"ce4bhqp2rcd13ifvqhng","pricing_plan_id":"free"},{"bike_id":"b909ed30-4755-4370-9370-327f2b4559b8","system_id":"levelo_inurba_marseille","lat":43.317557,"lon":5.390173,"is_reserved":false,"is_disabled":false,"rental_uris":{"android":"levelo://app?vid=b909ed30-4755-4370-9370-327f2b4559b8","ios":"levelo://app?vid=b909ed30-4755-4370-9370-327f2b4559b8"},"vehicle_type_id":"4","last_reported":1686596626,"current_range_meters":8000,"station_id":"ce4bhqp2rcd13ifvqhng","pricing_plan_id":"free"},{"bike_id":"f401678f-38c1-4bd7-b5c1-8d53e22cac1f","system_id":"levelo_inurba_marseille","lat":43.30424,"lon":5.38884,"is_reserved":false,"is_disabled":false,"rental_uris":{"android":"levelo://app?vid=f401678f-38c1-4bd7-b5c1-8d53e22cac1f","ios":"levelo://app?vid=f401678f-38c1-4bd7-b5c1-8d53e22cac1f"},"vehicle_type_id":"4","last_reported":1686596626,"current_range_meters":8000,"station_id":"","pricing_plan_id":"free"},{"bike_id":"abe5df43-a1ee-4832-b883-ac756f7a9a44","system_id":"levelo_inurba_marseille","lat":43.30433,"lon":5.38902,"is_reserved":false,"is_disabled":false,"rental_uris":{"android":"levelo://app?vid=abe5df43-a1ee-4832-b883-ac756f7a9a44","ios":"levelo://app?vid=abe5df43-a1ee-4832-b883-ac756f7a9a44"},"vehicle_type_id":"4","last_reported":1686596626,"current_range_meters":0,"station_id":"","pricing_plan_id":"free"},{"bike_id":"acfd58c1-0057-4a8a-9181-5f3420d2fbf8","system_id":"levelo_inurba_marseille","lat":43.29584,"lon":5.37607,"is_reserved":false,"is_disabled":false,"rental_uris":{"android":"levelo://app?vid=acfd58c1-0057-4a8a-9181-5f3420d2fbf8","ios":"levelo://app?vid=acfd58c1-0057-4a8a-9181-5f3420d2fbf8"},"vehicle_type_id":"4","last_reported":1686596626,"current_range_meters":13600,"station_id":"","pricing_plan_id":"free"},{"bike_id":"41f6a62a-566b-4682-accf-2d905c1b07c6","system_id":"levelo_inurba_marseille","lat":43.30428,"lon":5.38904,"is_reserved":false,"is_disabled":false,"rental_uris":{"android":"levelo://app?vid=41f6a62a-566b-4682-accf-2d905c1b07c6","ios":"levelo://app?vid=41f6a62a-566b-4682-accf-2d905c1b07c6"},"vehicle_type_id":"4","last_reported":1686596626,"current_range_meters":5200,"station_id":"ce4bgk12rcd13ifvqbi0","pricing_plan_id":"free"},{"bike_id":"b8ce26b1-9d17-4d10-b100-b8d5c0ba49ac","system_id":"levelo_inurba_marseille","lat":43.313571,"lon":5.384829,"is_reserved":false,"is_disabled":false,"rental_uris":{"android":"levelo://app?vid=b8ce26b1-9d17-4d10-b100-b8d5c0ba49ac","ios":"levelo://app?vid=b8ce26b1-9d17-4d10-b100-b8d5c0ba49ac"},"vehicle_type_id":"4","last_reported":1686596626,"current_range_meters":13200,"station_id":"ce4bgt92rcd13ifvqcf0","pricing_plan_id":"free"},{"bike_id":"91e70a52-1e7d-4517-a1af-205b2fb62940","system_id":"levelo_inurba_marseille","lat":43.32367,"lon":5.388836,"is_reserved":false,"is_disabled":false,"rental_uris":{"android":"levelo://app?vid=91e70a52-1e7d-4517-a1af-205b2fb62940","ios":"levelo://app?vid=91e70a52-1e7d-4517-a1af-205b2fb62940"},"vehicle_type_id":"4","last_reported":1686596626,"current_range_meters":23200,"station_id":"ce4bhqp2rcd13ifvqhog","pricing_plan_id":"free"},{"bike_id":"46855f82-9c64-4051-920e-312c6a202b8d","system_id":"levelo_inurba_marseille","lat":43.32367,"lon":5.388836,"is_reserved":false,"is_disabled":false,"rental_uris":{"android":"levelo://app?vid=46855f82-9c64-4051-920e-312c6a202b8d","ios":"levelo://app?vid=46855f82-9c64-4051-920e-312c6a202b8d"},"vehicle_type_id":"4","last_reported":1686596626,"current_range_meters":400,"station_id":"ce4bhqp2rcd13ifvqhog","pricing_plan_id":"free"},{"bike_id":"4754aa0d-07c1-4e68-b01f-31cfb52e70ae","system_id":"levelo_inurba_marseille","lat":43.29601,"lon":5.381084,"is_reserved":false,"is_disabled":false,"rental_uris":{"android":"levelo://app?vid=4754aa0d-07c1-4e68-b01f-31cfb52e70ae","ios":"levelo://app?vid=4754aa0d-07c1-4e68-b01f-31cfb52e70ae"},"vehicle_type_id":"4","last_reported":1686596626,"current_range_meters":2800,"station_id":"ce4bgl12rcd13ifvqbo0","pricing_plan_id":"free"},{"bike_id":"83b7b574-b0da-48d8-abe9-adbf5bb0334a","system_id":"levelo_inurba_marseille","lat":43.293249,"lon":5.371578,"is_reserved":false,"is_disabled":false,"rental_uris":{"android":"levelo://app?vid=83b7b574-b0da-48d8-abe9-adbf5bb0334a","ios":"levelo://app?vid=83b7b574-b0da-48d8-abe9-adbf5bb0334a"},"vehicle_type_id":"4","last_reported":1686596626,"current_range_meters":2000,"station_id":"ce4bgh92rcd13ifvqb40","pricing_plan_id":"free"},{"bike_id":"82cebf4f-bff1-48eb-9dc0-2086e8a89de8","system_id":"levelo_inurba_marseille","lat":43.293249,"lon":5.371578,"is_reserved":false,"is_disabled":false,"rental_uris":{"android":"levelo://app?vid=82cebf4f-bff1-48eb-9dc0-2086e8a89de8","ios":"levelo://app?vid=82cebf4f-bff1-48eb-9dc0-2086e8a89de8"},"vehicle_type_id":"4","last_reported":1686596626,"current_range_meters":14800,"station_id":"ce4bgh92rcd13ifvqb40","pricing_plan_id":"free"},{"bike_id":"96580932-ea75-4563-ac5b-98afcc8a89bf","system_id":"levelo_inurba_marseille","lat":43.293249,"lon":5.371578,"is_reserved":false,"is_disabled":false,"rental_uris":{"android":"levelo://app?vid=96580932-ea75-4563-ac5b-98afcc8a89bf","ios":"levelo://app?vid=96580932-ea75-4563-ac5b-98afcc8a89bf"},"vehicle_type_id":"4","last_reported":1686596626,"current_range_meters":25600,"station_id":"ce4bgh92rcd13ifvqb40","pricing_plan_id":"free"},{"bike_id":"b7f6bd20-4246-46a0-9144-fd8848d1bc50","system_id":"levelo_inurba_marseille","lat":43.292749,"lon":5.368402,"is_reserved":false,"is_disabled":false,"rental_uris":{"android":"levelo://app?vid=b7f6bd20-4246-46a0-9144-fd8848d1bc50","ios":"levelo://app?vid=b7f6bd20-4246-46a0-9144-fd8848d1bc50"},"vehicle_type_id":"4","last_reported":1686596626,"current_range_meters":0,"station_id":"ce4bhbp2rcd13ifvqesg","pricing_plan_id":"free"},{"bike_id":"d10262ce-fdde-4040-be92-1df446fb6880","system_id":"levelo_inurba_marseille","lat":43.293009,"lon":5.374584,"is_reserved":false,"is_disabled":false,"rental_uris":{"android":"levelo://app?vid=d10262ce-fdde-4040-be92-1df446fb6880","ios":"levelo://app?vid=d10262ce-fdde-4040-be92-1df446fb6880"},"vehicle_type_id":"4","last_reported":1686596626,"current_range_meters":13600,"station_id":"ce4bgi12rcd13ifvqb70","pricing_plan_id":"free"},{"bike_id":"4d4c74fc-d21e-42a1-b103-f3b9c24dcce3","system_id":"levelo_inurba_marseille","lat":43.305994,"lon":5.393687,"is_reserved":false,"is_disabled":false,"rental_uris":{"android":"levelo://app?vid=4d4c74fc-d21e-42a1-b103-f3b9c24dcce3","ios":"levelo://app?vid=4d4c74fc-d21e-42a1-b103-f3b9c24dcce3"},"vehicle_type_id":"4","last_reported":1686596626,"current_range_meters":24400,"station_id":"ce4bh0p2rcd13ifvqd80","pricing_plan_id":"free"},{"bike_id":"0ea26add-cbe0-4bc6-af1b-2df4a8c035ce","system_id":"levelo_inurba_marseille","lat":43.293009,"lon":5.374584,"is_reserved":false,"is_disabled":false,"rental_uris":{"android":"levelo://app?vid=0ea26add-cbe0-4bc6-af1b-2df4a8c035ce","ios":"levelo://app?vid=0ea26add-cbe0-4bc6-af1b-2df4a8c035ce"},"vehicle_type_id":"4","last_reported":1686596626,"current_range_meters":800,"station_id":"ce4bgi12rcd13ifvqb70","pricing_plan_id":"free"},{"bike_id":"e3356e33-1868-4cb5-be73-5524f0504ef0","system_id":"levelo_inurba_marseille","lat":43.302992,"lon":5.392136,"is_reserved":false,"is_disabled":false,"rental_uris":{"android":"levelo://app?vid=e3356e33-1868-4cb5-be73-5524f0504ef0","ios":"levelo://app?vid=e3356e33-1868-4cb5-be73-5524f0504ef0"},"vehicle_type_id":"4","last_reported":1686596626,"current_range_meters":2400,"station_id":"ce4bgkh2rcd13ifvqbk0","pricing_plan_id":"free"},{"bike_id":"12f25c5c-9076-4df4-96f2-17967aedb896","system_id":"levelo_inurba_marseille","lat":43.30085,"lon":5.390856,"is_reserved":false,"is_disabled":false,"rental_uris":{"android":"levelo://app?vid=12f25c5c-9076-4df4-96f2-17967aedb896","ios":"levelo://app?vid=12f25c5c-9076-4df4-96f2-17967aedb896"},"vehicle_type_id":"4","last_reported":1686596626,"current_range_meters":17600,"station_id":"ce4bh192rcd13ifvqdb0","pricing_plan_id":"free"},{"bike_id":"13de7327-00ec-4c14-8e7b-91480df5a490","system_id":"levelo_inurba_marseille","lat":43.300852,"lon":5.390859,"is_reserved":false,"is_disabled":false,"rental_uris":{"android":"levelo://app?vid=13de7327-00ec-4c14-8e7b-91480df5a490","ios":"levelo://app?vid=13de7327-00ec-4c14-8e7b-91480df5a490"},"vehicle_type_id":"4","last_reported":1686596626,"current_range_meters":18400,"station_id":"ce4bh192rcd13ifvqdb0","pricing_plan_id":"free"},{"bike_id":"d8d31c55-1005-4777-bb6e-00e11a2bc160","system_id":"levelo_inurba_marseille","lat":43.298764,"lon":5.388973,"is_reserved":false,"is_disabled":false,"rental_uris":{"android":"levelo://app?vid=d8d31c55-1005-4777-bb6e-00e11a2bc160","ios":"levelo://app?vid=d8d31c55-1005-4777-bb6e-00e11a2bc160"},"vehicle_type_id":"4","last_reported":1686596626,"current_range_meters":16000,"station_id":"ce4bh392rcd13ifvqdl0","pricing_plan_id":"free"},{"bike_id":"0bef4b14-1fee-4703-82ce-5c570120e986","system_id":"levelo_inurba_marseille","lat":43.309038,"lon":5.396546,"is_reserved":false,"is_disabled":false,"rental_uris":{"android":"levelo://app?vid=0bef4b14-1fee-4703-82ce-5c570120e986","ios":"levelo://app?vid=0bef4b14-1fee-4703-82ce-5c570120e986"},"vehicle_type_id":"4","last_reported":1686596626,"current_range_meters":6000,"station_id":"ce4bh012rcd13ifvqcv0","pricing_plan_id":"free"},{"bike_id":"df36824a-dcd9-445a-83a9-b8cc6eb3d6bd","system_id":"levelo_inurba_marseille","lat":43.309038,"lon":5.396546,"is_reserved":false,"is_disabled":false,"rental_uris":{"android":"levelo://app?vid=df36824a-dcd9-445a-83a9-b8cc6eb3d6bd","ios":"levelo://app?vid=df36824a-dcd9-445a-83a9-b8cc6eb3d6bd"},"vehicle_type_id":"4","last_reported":1686596626,"current_range_meters":3600,"station_id":"ce4bh012rcd13ifvqcv0","pricing_plan_id":"free"},{"bike_id":"dad6d30e-66cc-4762-9d6c-98a79a4cfa97","system_id":"levelo_inurba_marseille","lat":43.309038,"lon":5.396546,"is_reserved":false,"is_disabled":false,"rental_uris":{"android":"levelo://app?vid=dad6d30e-66cc-4762-9d6c-98a79a4cfa97","ios":"levelo://app?vid=dad6d30e-66cc-4762-9d6c-98a79a4cfa97"},"vehicle_type_id":"4","last_reported":1686596626,"current_range_meters":15200,"station_id":"ce4bh012rcd13ifvqcv0","pricing_plan_id":"free"},{"bike_id":"66e50d58-5ab6-40f5-894d-63d2f483bf84","system_id":"levelo_inurba_marseille","lat":43.313291,"lon":5.396838,"is_reserved":false,"is_disabled":false,"rental_uris":{"android":"levelo://app?vid=66e50d58-5ab6-40f5-894d-63d2f483bf84","ios":"levelo://app?vid=66e50d58-5ab6-40f5-894d-63d2f483bf84"},"vehicle_type_id":"4","last_reported":1686596626,"current_range_meters":8400,"station_id":"ce4bgvp2rcd13ifvqcu0","pricing_plan_id":"free"},{"bike_id":"e5e386c4-326b-4225-818f-2042f1c7796e","system_id":"levelo_inurba_marseille","lat":43.313291,"lon":5.396838,"is_reserved":false,"is_disabled":false,"rental_uris":{"android":"levelo://app?vid=e5e386c4-326b-4225-818f-2042f1c7796e","ios":"levelo://app?vid=e5e386c4-326b-4225-818f-2042f1c7796e"},"vehicle_type_id":"4","last_reported":1686596626,"current_range_meters":2800,"station_id":"ce4bgvp2rcd13ifvqcu0","pricing_plan_id":"free"},{"bike_id":"9a3d91b0-4fe7-4aba-b52a-ebde8bab1dc7","system_id":"levelo_inurba_marseille","lat":43.313291,"lon":5.396838,"is_reserved":false,"is_disabled":false,"rental_uris":{"android":"levelo://app?vid=9a3d91b0-4fe7-4aba-b52a-ebde8bab1dc7","ios":"levelo://app?vid=9a3d91b0-4fe7-4aba-b52a-ebde8bab1dc7"},"vehicle_type_id":"4","last_reported":1686596626,"current_range_meters":25600,"station_id":"ce4bgvp2rcd13ifvqcu0","pricing_plan_id":"free"},{"bike_id":"5fb96060-9ab4-4a4a-86d6-8a2df976c11a","system_id":"levelo_inurba_marseille","lat":43.309038,"lon":5.396546,"is_reserved":false,"is_disabled":false,"rental_uris":{"android":"levelo://app?vid=5fb96060-9ab4-4a4a-86d6-8a2df976c11a","ios":"levelo://app?vid=5fb96060-9ab4-4a4a-86d6-8a2df976c11a"},"vehicle_type_id":"4","last_reported":1686596626,"current_range_meters":6400,"station_id":"ce4bh012rcd13ifvqcv0","pricing_plan_id":"free"},{"bike_id":"7f3131e1-f81e-4225-9a0c-130153a2a8a1","system_id":"levelo_inurba_marseille","lat":43.313291,"lon":5.396838,"is_reserved":false,"is_disabled":false,"rental_uris":{"android":"levelo://app?vid=7f3131e1-f81e-4225-9a0c-130153a2a8a1","ios":"levelo://app?vid=7f3131e1-f81e-4225-9a0c-130153a2a8a1"},"vehicle_type_id":"4","last_reported":1686596626,"current_range_meters":8000,"station_id":"ce4bgvp2rcd13ifvqcu0","pricing_plan_id":"free"},{"bike_id":"4c41dd3e-2112-4ccb-bd89-27532291e35f","system_id":"levelo_inurba_marseille","lat":43.309038,"lon":5.396546,"is_reserved":false,"is_disabled":false,"rental_uris":{"android":"levelo://app?vid=4c41dd3e-2112-4ccb-bd89-27532291e35f","ios":"levelo://app?vid=4c41dd3e-2112-4ccb-bd89-27532291e35f"},"vehicle_type_id":"4","last_reported":1686596626,"current_range_meters":22400,"station_id":"ce4bh012rcd13ifvqcv0","pricing_plan_id":"free"},{"bike_id":"c7427d7c-0968-4209-be36-3df853fa13a8","system_id":"levelo_inurba_marseille","lat":43.291994,"lon":5.357886,"is_reserved":false,"is_disabled":false,"rental_uris":{"android":"levelo://app?vid=c7427d7c-0968-4209-be36-3df853fa13a8","ios":"levelo://app?vid=c7427d7c-0968-4209-be36-3df853fa13a8"},"vehicle_type_id":"4","last_reported":1686596626,"current_range_meters":19600,"station_id":"ce4bhb12rcd13ifvqel0","pricing_plan_id":"free"},{"bike_id":"2add860f-2bac-4dce-95dd-1c1a5882caf2","system_id":"levelo_inurba_marseille","lat":43.29529,"lon":5.385581,"is_reserved":false,"is_disabled":false,"rental_uris":{"android":"levelo://app?vid=2add860f-2bac-4dce-95dd-1c1a5882caf2","ios":"levelo://app?vid=2add860f-2bac-4dce-95dd-1c1a5882caf2"},"vehicle_type_id":"4","last_reported":1686596626,"current_range_meters":11200,"station_id":"ce4bgih2rcd13ifvqba0","pricing_plan_id":"free"},{"bike_id":"c95b9b6b-0581-420d-adc0-b123dc9055fd","system_id":"levelo_inurba_marseille","lat":43.29529,"lon":5.385581,"is_reserved":false,"is_disabled":false,"rental_uris":{"android":"levelo://app?vid=c95b9b6b-0581-420d-adc0-b123dc9055fd","ios":"levelo://app?vid=c95b9b6b-0581-420d-adc0-b123dc9055fd"},"vehicle_type_id":"4","last_reported":1686596626,"current_range_meters":15200,"station_id":"ce4bgih2rcd13ifvqba0","pricing_plan_id":"free"},{"bike_id":"40734fd3-11b3-460b-b345-d4e65712d666","system_id":"levelo_inurba_marseille","lat":43.29529,"lon":5.385581,"is_reserved":false,"is_disabled":false,"rental_uris":{"android":"levelo://app?vid=40734fd3-11b3-460b-b345-d4e65712d666","ios":"levelo://app?vid=40734fd3-11b3-460b-b345-d4e65712d666"},"vehicle_type_id":"4","last_reported":1686596626,"current_range_meters":3600,"station_id":"ce4bgih2rcd13ifvqba0","pricing_plan_id":"free"},{"bike_id":"e96b4b4d-bd6d-4961-ba9a-6c1fb64487fc","system_id":"levelo_inurba_marseille","lat":43.290779,"lon":5.371482,"is_reserved":false,"is_disabled":false,"rental_uris":{"android":"levelo://app?vid=e96b4b4d-bd6d-4961-ba9a-6c1fb64487fc","ios":"levelo://app?vid=e96b4b4d-bd6d-4961-ba9a-6c1fb64487fc"},"vehicle_type_id":"4","last_reported":1686596626,"current_range_meters":9600,"station_id":"ce4bh5p2rcd13ifvqe4g","pricing_plan_id":"free"},{"bike_id":"7e302980-ccbf-4a9c-84e6-50cfd5592175","system_id":"levelo_inurba_marseille","lat":43.290779,"lon":5.371482,"is_reserved":false,"is_disabled":false,"rental_uris":{"android":"levelo://app?vid=7e302980-ccbf-4a9c-84e6-50cfd5592175","ios":"levelo://app?vid=7e302980-ccbf-4a9c-84e6-50cfd5592175"},"vehicle_type_id":"4","last_reported":1686596626,"current_range_meters":30800,"station_id":"ce4bh5p2rcd13ifvqe4g","pricing_plan_id":"free"},{"bike_id":"b815ea4a-5a9b-4738-9eb5-131ed5d6a80d","system_id":"levelo_inurba_marseille","lat":43.289184,"lon":5.366408,"is_reserved":false,"is_disabled":false,"rental_uris":{"android":"levelo://app?vid=b815ea4a-5a9b-4738-9eb5-131ed5d6a80d","ios":"levelo://app?vid=b815ea4a-5a9b-4738-9eb5-131ed5d6a80d"},"vehicle_type_id":"4","last_reported":1686596626,"current_range_meters":2800,"station_id":"ce4bhap2rcd13ifvqek0","pricing_plan_id":"free"},{"bike_id":"48a499c1-a341-408c-8bde-8caf70e578c0","system_id":"levelo_inurba_marseille","lat":43.289184,"lon":5.366408,"is_reserved":false,"is_disabled":false,"rental_uris":{"android":"levelo://app?vid=48a499c1-a341-408c-8bde-8caf70e578c0","ios":"levelo://app?vid=48a499c1-a341-408c-8bde-8caf70e578c0"},"vehicle_type_id":"4","last_reported":1686596626,"current_range_meters":31200,"station_id":"ce4bhap2rcd13ifvqek0","pricing_plan_id":"free"},{"bike_id":"8a91f0d0-dcf9-47b1-b793-ebac1b51c271","system_id":"levelo_inurba_marseille","lat":43.289184,"lon":5.366408,"is_reserved":false,"is_disabled":false,"rental_uris":{"android":"levelo://app?vid=8a91f0d0-dcf9-47b1-b793-ebac1b51c271","ios":"levelo://app?vid=8a91f0d0-dcf9-47b1-b793-ebac1b51c271"},"vehicle_type_id":"4","last_reported":1686596626,"current_range_meters":18800,"station_id":"ce4bhap2rcd13ifvqek0","pricing_plan_id":"free"},{"bike_id":"3f52274c-2634-4b10-b059-7c8991b18a95","system_id":"levelo_inurba_marseille","lat":43.289184,"lon":5.366408,"is_reserved":false,"is_disabled":false,"rental_uris":{"android":"levelo://app?vid=3f52274c-2634-4b10-b059-7c8991b18a95","ios":"levelo://app?vid=3f52274c-2634-4b10-b059-7c8991b18a95"},"vehicle_type_id":"4","last_reported":1686596626,"current_range_meters":24000,"station_id":"ce4bhap2rcd13ifvqek0","pricing_plan_id":"free"},{"bike_id":"c2de279b-72dc-4781-a0a7-0c24b8b0dcc6","system_id":"levelo_inurba_marseille","lat":43.289424,"lon":5.363933,"is_reserved":false,"is_disabled":false,"rental_uris":{"android":"levelo://app?vid=c2de279b-72dc-4781-a0a7-0c24b8b0dcc6","ios":"levelo://app?vid=c2de279b-72dc-4781-a0a7-0c24b8b0dcc6"},"vehicle_type_id":"4","last_reported":1686596626,"current_range_meters":31200,"station_id":"ce4bhc92rcd13ifvqetg","pricing_plan_id":"free"},{"bike_id":"0a4beee8-1d0b-40b6-a628-dd56857f4693","system_id":"levelo_inurba_marseille","lat":43.294032,"lon":5.386342,"is_reserved":false,"is_disabled":false,"rental_uris":{"android":"levelo://app?vid=0a4beee8-1d0b-40b6-a628-dd56857f4693","ios":"levelo://app?vid=0a4beee8-1d0b-40b6-a628-dd56857f4693"},"vehicle_type_id":"4","last_reported":1686596626,"current_range_meters":15200,"station_id":"","pricing_plan_id":"free"},{"bike_id":"d411c1be-10b4-4838-a93f-35add8fed384","system_id":"levelo_inurba_marseille","lat":43.330442,"lon":5.389148,"is_reserved":false,"is_disabled":false,"rental_uris":{"android":"levelo://app?vid=d411c1be-10b4-4838-a93f-35add8fed384","ios":"levelo://app?vid=d411c1be-10b4-4838-a93f-35add8fed384"},"vehicle_type_id":"4","last_reported":1686596626,"current_range_meters":9600,"station_id":"ce4bhr92rcd13ifvqhrg","pricing_plan_id":"free"},{"bike_id":"a79959ec-0e97-465f-b895-8844e9b311f3","system_id":"levelo_inurba_marseille","lat":43.297814,"lon":5.393513,"is_reserved":false,"is_disabled":false,"rental_uris":{"android":"levelo://app?vid=a79959ec-0e97-465f-b895-8844e9b311f3","ios":"levelo://app?vid=a79959ec-0e97-465f-b895-8844e9b311f3"},"vehicle_type_id":"4","last_reported":1686596626,"current_range_meters":0,"station_id":"chh1huq6cuj3fo74tm60","pricing_plan_id":"free"},{"bike_id":"94fd6cc1-b7b3-4a02-98ac-c1d1bec22053","system_id":"levelo_inurba_marseille","lat":43.28856,"lon":5.358371,"is_reserved":false,"is_disabled":false,"rental_uris":{"android":"levelo://app?vid=94fd6cc1-b7b3-4a02-98ac-c1d1bec22053","ios":"levelo://app?vid=94fd6cc1-b7b3-4a02-98ac-c1d1bec22053"},"vehicle_type_id":"4","last_reported":1686596626,"current_range_meters":0,"station_id":"ce4bhb12rcd13ifvqem0","pricing_plan_id":"free"},{"bike_id":"47ce4155-fcd9-4ef3-88ff-bbd7030579f9","system_id":"levelo_inurba_marseille","lat":43.28856,"lon":5.358371,"is_reserved":false,"is_disabled":false,"rental_uris":{"android":"levelo://app?vid=47ce4155-fcd9-4ef3-88ff-bbd7030579f9","ios":"levelo://app?vid=47ce4155-fcd9-4ef3-88ff-bbd7030579f9"},"vehicle_type_id":"4","last_reported":1686596626,"current_range_meters":0,"station_id":"ce4bhb12rcd13ifvqem0","pricing_plan_id":"free"},{"bike_id":"c0fb8083-e02d-4dec-b1b9-fa095e6c5b75","system_id":"levelo_inurba_marseille","lat":43.337396,"lon":5.374526,"is_reserved":false,"is_disabled":false,"rental_uris":{"android":"levelo://app?vid=c0fb8083-e02d-4dec-b1b9-fa095e6c5b75","ios":"levelo://app?vid=c0fb8083-e02d-4dec-b1b9-fa095e6c5b75"},"vehicle_type_id":"4","last_reported":1686596626,"current_range_meters":15600,"station_id":"ce4bhp92rcd13ifvqhag","pricing_plan_id":"free"},{"bike_id":"04ba7c38-9398-4d83-8367-4fdd3359e6a7","system_id":"levelo_inurba_marseille","lat":43.309371,"lon":5.401449,"is_reserved":false,"is_disabled":false,"rental_uris":{"android":"levelo://app?vid=04ba7c38-9398-4d83-8367-4fdd3359e6a7","ios":"levelo://app?vid=04ba7c38-9398-4d83-8367-4fdd3359e6a7"},"vehicle_type_id":"4","last_reported":1686596626,"current_range_meters":28800,"station_id":"ce4bgvp2rcd13ifvqct0","pricing_plan_id":"free"},{"bike_id":"659826ae-d1e7-416c-9cb5-780c2a59f674","system_id":"levelo_inurba_marseille","lat":43.309371,"lon":5.401449,"is_reserved":false,"is_disabled":false,"rental_uris":{"android":"levelo://app?vid=659826ae-d1e7-416c-9cb5-780c2a59f674","ios":"levelo://app?vid=659826ae-d1e7-416c-9cb5-780c2a59f674"},"vehicle_type_id":"4","last_reported":1686596626,"current_range_meters":21200,"station_id":"ce4bgvp2rcd13ifvqct0","pricing_plan_id":"free"},{"bike_id":"58dcd456-d4a0-485e-9a40-2f05f8f00134","system_id":"levelo_inurba_marseille","lat":43.309371,"lon":5.401449,"is_reserved":false,"is_disabled":false,"rental_uris":{"android":"levelo://app?vid=58dcd456-d4a0-485e-9a40-2f05f8f00134","ios":"levelo://app?vid=58dcd456-d4a0-485e-9a40-2f05f8f00134"},"vehicle_type_id":"4","last_reported":1686596626,"current_range_meters":30800,"station_id":"ce4bgvp2rcd13ifvqct0","pricing_plan_id":"free"},{"bike_id":"1be7f287-25b7-482d-adaa-33fdffc2d631","system_id":"levelo_inurba_marseille","lat":43.309371,"lon":5.401449,"is_reserved":false,"is_disabled":false,"rental_uris":{"android":"levelo://app?vid=1be7f287-25b7-482d-adaa-33fdffc2d631","ios":"levelo://app?vid=1be7f287-25b7-482d-adaa-33fdffc2d631"},"vehicle_type_id":"4","last_reported":1686596626,"current_range_meters":27200,"station_id":"ce4bgvp2rcd13ifvqct0","pricing_plan_id":"free"},{"bike_id":"353eb7f8-4d94-4b60-b7b6-2addba64805f","system_id":"levelo_inurba_marseille","lat":43.302759,"lon":5.400793,"is_reserved":false,"is_disabled":false,"rental_uris":{"android":"levelo://app?vid=353eb7f8-4d94-4b60-b7b6-2addba64805f","ios":"levelo://app?vid=353eb7f8-4d94-4b60-b7b6-2addba64805f"},"vehicle_type_id":"4","last_reported":1686596626,"current_range_meters":30400,"station_id":"ce4bgvh2rcd13ifvqcs0","pricing_plan_id":"free"},{"bike_id":"45c08706-9c39-42ce-a2a2-b393a691847b","system_id":"levelo_inurba_marseille","lat":43.301117,"lon":5.398795,"is_reserved":false,"is_disabled":false,"rental_uris":{"android":"levelo://app?vid=45c08706-9c39-42ce-a2a2-b393a691847b","ios":"levelo://app?vid=45c08706-9c39-42ce-a2a2-b393a691847b"},"vehicle_type_id":"4","last_reported":1686596626,"current_range_meters":21600,"station_id":"ce4bh0h2rcd13ifvqd40","pricing_plan_id":"free"},{"bike_id":"75ae9378-4114-45e8-a4e4-d31f7a449367","system_id":"levelo_inurba_marseille","lat":43.29878,"lon":5.39724,"is_reserved":false,"is_disabled":false,"rental_uris":{"android":"levelo://app?vid=75ae9378-4114-45e8-a4e4-d31f7a449367","ios":"levelo://app?vid=75ae9378-4114-45e8-a4e4-d31f7a449367"},"vehicle_type_id":"4","last_reported":1686596626,"current_range_meters":19600,"station_id":"ce4bh0h2rcd13ifvqd50","pricing_plan_id":"free"},{"bike_id":"01b2c69a-126c-432e-9623-6713fdbfce2a","system_id":"levelo_inurba_marseille","lat":43.298681,"lon":5.397225,"is_reserved":false,"is_disabled":false,"rental_uris":{"android":"levelo://app?vid=01b2c69a-126c-432e-9623-6713fdbfce2a","ios":"levelo://app?vid=01b2c69a-126c-432e-9623-6713fdbfce2a"},"vehicle_type_id":"4","last_reported":1686596626,"current_range_meters":20800,"station_id":"ce4bh0h2rcd13ifvqd50","pricing_plan_id":"free"},{"bike_id":"8d88e11d-3425-417e-ae78-4786dbeced9a","system_id":"levelo_inurba_marseille","lat":43.286591,"lon":5.363346,"is_reserved":false,"is_disabled":false,"rental_uris":{"android":"levelo://app?vid=8d88e11d-3425-417e-ae78-4786dbeced9a","ios":"levelo://app?vid=8d88e11d-3425-417e-ae78-4786dbeced9a"},"vehicle_type_id":"4","last_reported":1686596626,"current_range_meters":13600,"station_id":"ce4bhah2rcd13ifvqej0","pricing_plan_id":"free"},{"bike_id":"3e6acf07-158d-4232-984f-f819eaa4c6ee","system_id":"levelo_inurba_marseille","lat":43.298681,"lon":5.397225,"is_reserved":false,"is_disabled":false,"rental_uris":{"android":"levelo://app?vid=3e6acf07-158d-4232-984f-f819eaa4c6ee","ios":"levelo://app?vid=3e6acf07-158d-4232-984f-f819eaa4c6ee"},"vehicle_type_id":"4","last_reported":1686596626,"current_range_meters":2800,"station_id":"ce4bh0h2rcd13ifvqd50","pricing_plan_id":"free"},{"bike_id":"b341ea05-e2e7-4d8a-9294-feade58bba1b","system_id":"levelo_inurba_marseille","lat":43.286591,"lon":5.363346,"is_reserved":false,"is_disabled":false,"rental_uris":{"android":"levelo://app?vid=b341ea05-e2e7-4d8a-9294-feade58bba1b","ios":"levelo://app?vid=b341ea05-e2e7-4d8a-9294-feade58bba1b"},"vehicle_type_id":"4","last_reported":1686596626,"current_range_meters":30000,"station_id":"ce4bhah2rcd13ifvqej0","pricing_plan_id":"free"},{"bike_id":"e663dbfd-d744-40bd-b406-0a0957cf718a","system_id":"levelo_inurba_marseille","lat":43.298681,"lon":5.397225,"is_reserved":false,"is_disabled":false,"rental_uris":{"android":"levelo://app?vid=e663dbfd-d744-40bd-b406-0a0957cf718a","ios":"levelo://app?vid=e663dbfd-d744-40bd-b406-0a0957cf718a"},"vehicle_type_id":"4","last_reported":1686596626,"current_range_meters":3600,"station_id":"ce4bh0h2rcd13ifvqd50","pricing_plan_id":"free"},{"bike_id":"90621729-947a-47e9-9377-f2aff4c92d1c","system_id":"levelo_inurba_marseille","lat":43.286591,"lon":5.363346,"is_reserved":false,"is_disabled":false,"rental_uris":{"android":"levelo://app?vid=90621729-947a-47e9-9377-f2aff4c92d1c","ios":"levelo://app?vid=90621729-947a-47e9-9377-f2aff4c92d1c"},"vehicle_type_id":"4","last_reported":1686596626,"current_range_meters":10000,"station_id":"ce4bhah2rcd13ifvqej0","pricing_plan_id":"free"},{"bike_id":"56958d85-50df-486d-a009-88f3986a7f2d","system_id":"levelo_inurba_marseille","lat":43.286591,"lon":5.363346,"is_reserved":false,"is_disabled":false,"rental_uris":{"android":"levelo://app?vid=56958d85-50df-486d-a009-88f3986a7f2d","ios":"levelo://app?vid=56958d85-50df-486d-a009-88f3986a7f2d"},"vehicle_type_id":"4","last_reported":1686596626,"current_range_meters":28400,"station_id":"ce4bhah2rcd13ifvqej0","pricing_plan_id":"free"},{"bike_id":"c6a5b6fd-954a-4757-a36d-3f5fd2612f80","system_id":"levelo_inurba_marseille","lat":43.298681,"lon":5.397225,"is_reserved":false,"is_disabled":false,"rental_uris":{"android":"levelo://app?vid=c6a5b6fd-954a-4757-a36d-3f5fd2612f80","ios":"levelo://app?vid=c6a5b6fd-954a-4757-a36d-3f5fd2612f80"},"vehicle_type_id":"4","last_reported":1686596626,"current_range_meters":8400,"station_id":"ce4bh0h2rcd13ifvqd50","pricing_plan_id":"free"},{"bike_id":"80bc739a-9b6a-41cc-83b7-6ba44a310f21","system_id":"levelo_inurba_marseille","lat":43.28667,"lon":5.36347,"is_reserved":false,"is_disabled":false,"rental_uris":{"android":"levelo://app?vid=80bc739a-9b6a-41cc-83b7-6ba44a310f21","ios":"levelo://app?vid=80bc739a-9b6a-41cc-83b7-6ba44a310f21"},"vehicle_type_id":"4","last_reported":1686596626,"current_range_meters":27600,"station_id":"ce4bhah2rcd13ifvqej0","pricing_plan_id":"free"},{"bike_id":"f6f7f520-1291-4960-ba9e-219b19631321","system_id":"levelo_inurba_marseille","lat":43.28702,"lon":5.37393,"is_reserved":false,"is_disabled":false,"rental_uris":{"android":"levelo://app?vid=f6f7f520-1291-4960-ba9e-219b19631321","ios":"levelo://app?vid=f6f7f520-1291-4960-ba9e-219b19631321"},"vehicle_type_id":"4","last_reported":1686596626,"current_range_meters":22400,"station_id":"","pricing_plan_id":"free"},{"bike_id":"e308896f-13f0-4de1-8039-0cfd14ded282","system_id":"levelo_inurba_marseille","lat":43.286591,"lon":5.363346,"is_reserved":false,"is_disabled":false,"rental_uris":{"android":"levelo://app?vid=e308896f-13f0-4de1-8039-0cfd14ded282","ios":"levelo://app?vid=e308896f-13f0-4de1-8039-0cfd14ded282"},"vehicle_type_id":"4","last_reported":1686596626,"current_range_meters":30800,"station_id":"ce4bhah2rcd13ifvqej0","pricing_plan_id":"free"},{"bike_id":"6ced36c8-179e-41a3-a774-bc0372fa3cca","system_id":"levelo_inurba_marseille","lat":43.298681,"lon":5.397225,"is_reserved":false,"is_disabled":false,"rental_uris":{"android":"levelo://app?vid=6ced36c8-179e-41a3-a774-bc0372fa3cca","ios":"levelo://app?vid=6ced36c8-179e-41a3-a774-bc0372fa3cca"},"vehicle_type_id":"4","last_reported":1686596626,"current_range_meters":5200,"station_id":"ce4bh0h2rcd13ifvqd50","pricing_plan_id":"free"},{"bike_id":"ac77e8d4-11bb-410d-ac55-17a81ec0f0bc","system_id":"levelo_inurba_marseille","lat":43.295196,"lon":5.39397,"is_reserved":false,"is_disabled":false,"rental_uris":{"android":"levelo://app?vid=ac77e8d4-11bb-410d-ac55-17a81ec0f0bc","ios":"levelo://app?vid=ac77e8d4-11bb-410d-ac55-17a81ec0f0bc"},"vehicle_type_id":"4","last_reported":1686596626,"current_range_meters":4000,"station_id":"ce4bh292rcd13ifvqdf0","pricing_plan_id":"free"},{"bike_id":"49574b42-0728-45ed-aa6b-3f1ad11d7632","system_id":"levelo_inurba_marseille","lat":43.286591,"lon":5.363346,"is_reserved":false,"is_disabled":false,"rental_uris":{"android":"levelo://app?vid=49574b42-0728-45ed-aa6b-3f1ad11d7632","ios":"levelo://app?vid=49574b42-0728-45ed-aa6b-3f1ad11d7632"},"vehicle_type_id":"4","last_reported":1686596626,"current_range_meters":6000,"station_id":"ce4bhah2rcd13ifvqej0","pricing_plan_id":"free"},{"bike_id":"32ab565e-26a1-49f1-b802-770f8e25669b","system_id":"levelo_inurba_marseille","lat":43.298681,"lon":5.397225,"is_reserved":false,"is_disabled":false,"rental_uris":{"android":"levelo://app?vid=32ab565e-26a1-49f1-b802-770f8e25669b","ios":"levelo://app?vid=32ab565e-26a1-49f1-b802-770f8e25669b"},"vehicle_type_id":"4","last_reported":1686596626,"current_range_meters":23600,"station_id":"ce4bh0h2rcd13ifvqd50","pricing_plan_id":"free"},{"bike_id":"af17827f-99ef-430a-aa42-4028060c2630","system_id":"levelo_inurba_marseille","lat":43.28694,"lon":5.37394,"is_reserved":false,"is_disabled":false,"rental_uris":{"android":"levelo://app?vid=af17827f-99ef-430a-aa42-4028060c2630","ios":"levelo://app?vid=af17827f-99ef-430a-aa42-4028060c2630"},"vehicle_type_id":"4","last_reported":1686596626,"current_range_meters":10400,"station_id":"","pricing_plan_id":"free"},{"bike_id":"27ea3dd6-2a84-4d1b-93c1-f31532ac7d9a","system_id":"levelo_inurba_marseille","lat":43.302759,"lon":5.400793,"is_reserved":false,"is_disabled":false,"rental_uris":{"android":"levelo://app?vid=27ea3dd6-2a84-4d1b-93c1-f31532ac7d9a","ios":"levelo://app?vid=27ea3dd6-2a84-4d1b-93c1-f31532ac7d9a"},"vehicle_type_id":"4","last_reported":1686596626,"current_range_meters":0,"station_id":"ce4bgvh2rcd13ifvqcs0","pricing_plan_id":"free"},{"bike_id":"a87a8fd3-c06d-4cdf-9821-56001d99f6e8","system_id":"levelo_inurba_marseille","lat":43.286593,"lon":5.363346,"is_reserved":false,"is_disabled":false,"rental_uris":{"android":"levelo://app?vid=a87a8fd3-c06d-4cdf-9821-56001d99f6e8","ios":"levelo://app?vid=a87a8fd3-c06d-4cdf-9821-56001d99f6e8"},"vehicle_type_id":"4","last_reported":1686596626,"current_range_meters":11600,"station_id":"ce4bhah2rcd13ifvqej0","pricing_plan_id":"free"},{"bike_id":"ccb3a525-b300-4273-8631-4956ae5b0ec7","system_id":"levelo_inurba_marseille","lat":43.28751,"lon":5.37766,"is_reserved":false,"is_disabled":false,"rental_uris":{"android":"levelo://app?vid=ccb3a525-b300-4273-8631-4956ae5b0ec7","ios":"levelo://app?vid=ccb3a525-b300-4273-8631-4956ae5b0ec7"},"vehicle_type_id":"4","last_reported":1686596626,"current_range_meters":22400,"station_id":"","pricing_plan_id":"free"},{"bike_id":"5564519e-6e5e-4952-8a15-210ae5f3673c","system_id":"levelo_inurba_marseille","lat":43.295194,"lon":5.39397,"is_reserved":false,"is_disabled":false,"rental_uris":{"android":"levelo://app?vid=5564519e-6e5e-4952-8a15-210ae5f3673c","ios":"levelo://app?vid=5564519e-6e5e-4952-8a15-210ae5f3673c"},"vehicle_type_id":"4","last_reported":1686596626,"current_range_meters":13200,"station_id":"ce4bh292rcd13ifvqdf0","pricing_plan_id":"free"},{"bike_id":"2a8aaf6f-8fb7-4726-ab2a-991e86f92edf","system_id":"levelo_inurba_marseille","lat":43.302759,"lon":5.400793,"is_reserved":false,"is_disabled":false,"rental_uris":{"android":"levelo://app?vid=2a8aaf6f-8fb7-4726-ab2a-991e86f92edf","ios":"levelo://app?vid=2a8aaf6f-8fb7-4726-ab2a-991e86f92edf"},"vehicle_type_id":"4","last_reported":1686596626,"current_range_meters":5600,"station_id":"ce4bgvh2rcd13ifvqcs0","pricing_plan_id":"free"},{"bike_id":"ad8cbd1d-9bf2-4769-b75d-a6a042627063","system_id":"levelo_inurba_marseille","lat":43.302759,"lon":5.400793,"is_reserved":false,"is_disabled":false,"rental_uris":{"android":"levelo://app?vid=ad8cbd1d-9bf2-4769-b75d-a6a042627063","ios":"levelo://app?vid=ad8cbd1d-9bf2-4769-b75d-a6a042627063"},"vehicle_type_id":"4","last_reported":1686596626,"current_range_meters":31200,"station_id":"ce4bgvh2rcd13ifvqcs0","pricing_plan_id":"free"},{"bike_id":"3d65adb7-12da-43a4-a852-e8ed93523474","system_id":"levelo_inurba_marseille","lat":43.286039,"lon":5.370679,"is_reserved":false,"is_disabled":false,"rental_uris":{"android":"levelo://app?vid=3d65adb7-12da-43a4-a852-e8ed93523474","ios":"levelo://app?vid=3d65adb7-12da-43a4-a852-e8ed93523474"},"vehicle_type_id":"4","last_reported":1686596626,"current_range_meters":31200,"station_id":"ce4bht12rcd13ifvqi60","pricing_plan_id":"free"},{"bike_id":"4ee7ee48-e8e8-46c8-90fa-6aeb086023e8","system_id":"levelo_inurba_marseille","lat":43.286039,"lon":5.370679,"is_reserved":false,"is_disabled":false,"rental_uris":{"android":"levelo://app?vid=4ee7ee48-e8e8-46c8-90fa-6aeb086023e8","ios":"levelo://app?vid=4ee7ee48-e8e8-46c8-90fa-6aeb086023e8"},"vehicle_type_id":"4","last_reported":1686596626,"current_range_meters":25200,"station_id":"ce4bht12rcd13ifvqi60","pricing_plan_id":"free"},{"bike_id":"66c4605c-250e-4e4b-9cc7-3c0f715ed628","system_id":"levelo_inurba_marseille","lat":43.286039,"lon":5.370679,"is_reserved":false,"is_disabled":false,"rental_uris":{"android":"levelo://app?vid=66c4605c-250e-4e4b-9cc7-3c0f715ed628","ios":"levelo://app?vid=66c4605c-250e-4e4b-9cc7-3c0f715ed628"},"vehicle_type_id":"4","last_reported":1686596626,"current_range_meters":2800,"station_id":"ce4bht12rcd13ifvqi60","pricing_plan_id":"free"},{"bike_id":"a25d1025-022c-4385-811a-ec4dd8e18e05","system_id":"levelo_inurba_marseille","lat":43.286039,"lon":5.370679,"is_reserved":false,"is_disabled":false,"rental_uris":{"android":"levelo://app?vid=a25d1025-022c-4385-811a-ec4dd8e18e05","ios":"levelo://app?vid=a25d1025-022c-4385-811a-ec4dd8e18e05"},"vehicle_type_id":"4","last_reported":1686596626,"current_range_meters":31200,"station_id":"ce4bht12rcd13ifvqi60","pricing_plan_id":"free"},{"bike_id":"a1ff7911-417b-44f9-b32a-e6aea26984a5","system_id":"levelo_inurba_marseille","lat":43.287184,"lon":5.37937,"is_reserved":false,"is_disabled":false,"rental_uris":{"android":"levelo://app?vid=a1ff7911-417b-44f9-b32a-e6aea26984a5","ios":"levelo://app?vid=a1ff7911-417b-44f9-b32a-e6aea26984a5"},"vehicle_type_id":"4","last_reported":1686596626,"current_range_meters":19200,"station_id":"ce4bh9p2rcd13ifvqec0","pricing_plan_id":"free"},{"bike_id":"7c78ebda-b7e5-43fd-b064-c2c7daf82f0f","system_id":"levelo_inurba_marseille","lat":43.291994,"lon":5.392907,"is_reserved":false,"is_disabled":false,"rental_uris":{"android":"levelo://app?vid=7c78ebda-b7e5-43fd-b064-c2c7daf82f0f","ios":"levelo://app?vid=7c78ebda-b7e5-43fd-b064-c2c7daf82f0f"},"vehicle_type_id":"4","last_reported":1686596626,"current_range_meters":27600,"station_id":"ce4bh192rcd13ifvqdd0","pricing_plan_id":"free"},{"bike_id":"629ceecb-b64c-4fbb-a2ef-794dd86146e0","system_id":"levelo_inurba_marseille","lat":43.291994,"lon":5.392907,"is_reserved":false,"is_disabled":false,"rental_uris":{"android":"levelo://app?vid=629ceecb-b64c-4fbb-a2ef-794dd86146e0","ios":"levelo://app?vid=629ceecb-b64c-4fbb-a2ef-794dd86146e0"},"vehicle_type_id":"4","last_reported":1686596626,"current_range_meters":16800,"station_id":"ce4bh192rcd13ifvqdd0","pricing_plan_id":"free"},{"bike_id":"fc60b443-0191-4a29-a751-d64146e67ebf","system_id":"levelo_inurba_marseille","lat":43.291994,"lon":5.392907,"is_reserved":false,"is_disabled":false,"rental_uris":{"android":"levelo://app?vid=fc60b443-0191-4a29-a751-d64146e67ebf","ios":"levelo://app?vid=fc60b443-0191-4a29-a751-d64146e67ebf"},"vehicle_type_id":"4","last_reported":1686596626,"current_range_meters":9200,"station_id":"ce4bh192rcd13ifvqdd0","pricing_plan_id":"free"},{"bike_id":"0fd38e8d-58c1-481f-a529-22f44461db55","system_id":"levelo_inurba_marseille","lat":43.29202,"lon":5.39329,"is_reserved":false,"is_disabled":false,"rental_uris":{"android":"levelo://app?vid=0fd38e8d-58c1-481f-a529-22f44461db55","ios":"levelo://app?vid=0fd38e8d-58c1-481f-a529-22f44461db55"},"vehicle_type_id":"4","last_reported":1686596626,"current_range_meters":4800,"station_id":"","pricing_plan_id":"free"},{"bike_id":"b0ad82a8-5ec4-4193-b8ea-580c59eb7935","system_id":"levelo_inurba_marseille","lat":43.30713,"lon":5.40523,"is_reserved":false,"is_disabled":false,"rental_uris":{"android":"levelo://app?vid=b0ad82a8-5ec4-4193-b8ea-580c59eb7935","ios":"levelo://app?vid=b0ad82a8-5ec4-4193-b8ea-580c59eb7935"},"vehicle_type_id":"4","last_reported":1686596626,"current_range_meters":4000,"station_id":"","pricing_plan_id":"free"},{"bike_id":"2bc71aae-42da-45d8-a28a-1350d01eb813","system_id":"levelo_inurba_marseille","lat":43.284534,"lon":5.358662,"is_reserved":false,"is_disabled":false,"rental_uris":{"android":"levelo://app?vid=2bc71aae-42da-45d8-a28a-1350d01eb813","ios":"levelo://app?vid=2bc71aae-42da-45d8-a28a-1350d01eb813"},"vehicle_type_id":"4","last_reported":1686596626,"current_range_meters":25200,"station_id":"ce4bhah2rcd13ifvqei0","pricing_plan_id":"free"},{"bike_id":"375c9f18-1401-454c-906a-ab5dbb8319c7","system_id":"levelo_inurba_marseille","lat":43.284534,"lon":5.358662,"is_reserved":false,"is_disabled":false,"rental_uris":{"android":"levelo://app?vid=375c9f18-1401-454c-906a-ab5dbb8319c7","ios":"levelo://app?vid=375c9f18-1401-454c-906a-ab5dbb8319c7"},"vehicle_type_id":"4","last_reported":1686596626,"current_range_meters":24000,"station_id":"ce4bhah2rcd13ifvqei0","pricing_plan_id":"free"},{"bike_id":"c87c2a23-7e2d-4f1b-b30d-39c57c7bcfe4","system_id":"levelo_inurba_marseille","lat":43.284534,"lon":5.358662,"is_reserved":false,"is_disabled":false,"rental_uris":{"android":"levelo://app?vid=c87c2a23-7e2d-4f1b-b30d-39c57c7bcfe4","ios":"levelo://app?vid=c87c2a23-7e2d-4f1b-b30d-39c57c7bcfe4"},"vehicle_type_id":"4","last_reported":1686596626,"current_range_meters":0,"station_id":"ce4bhah2rcd13ifvqei0","pricing_plan_id":"free"},{"bike_id":"01af268c-fe17-4f51-a46f-529d0b0f1bcc","system_id":"levelo_inurba_marseille","lat":43.284534,"lon":5.358662,"is_reserved":false,"is_disabled":false,"rental_uris":{"android":"levelo://app?vid=01af268c-fe17-4f51-a46f-529d0b0f1bcc","ios":"levelo://app?vid=01af268c-fe17-4f51-a46f-529d0b0f1bcc"},"vehicle_type_id":"4","last_reported":1686596626,"current_range_meters":31200,"station_id":"ce4bhah2rcd13ifvqei0","pricing_plan_id":"free"},{"bike_id":"e6a46dff-5a34-4911-aa0f-fdf82cf552fc","system_id":"levelo_inurba_marseille","lat":43.284534,"lon":5.358662,"is_reserved":false,"is_disabled":false,"rental_uris":{"android":"levelo://app?vid=e6a46dff-5a34-4911-aa0f-fdf82cf552fc","ios":"levelo://app?vid=e6a46dff-5a34-4911-aa0f-fdf82cf552fc"},"vehicle_type_id":"4","last_reported":1686596626,"current_range_meters":23600,"station_id":"ce4bhah2rcd13ifvqei0","pricing_plan_id":"free"},{"bike_id":"1b7eec4b-1eea-4c98-a267-96c38454d362","system_id":"levelo_inurba_marseille","lat":43.284534,"lon":5.358662,"is_reserved":false,"is_disabled":false,"rental_uris":{"android":"levelo://app?vid=1b7eec4b-1eea-4c98-a267-96c38454d362","ios":"levelo://app?vid=1b7eec4b-1eea-4c98-a267-96c38454d362"},"vehicle_type_id":"4","last_reported":1686596626,"current_range_meters":21200,"station_id":"ce4bhah2rcd13ifvqei0","pricing_plan_id":"free"},{"bike_id":"be49bfdc-9a50-4c56-ba1d-f39228ce9861","system_id":"levelo_inurba_marseille","lat":43.284534,"lon":5.358662,"is_reserved":false,"is_disabled":false,"rental_uris":{"android":"levelo://app?vid=be49bfdc-9a50-4c56-ba1d-f39228ce9861","ios":"levelo://app?vid=be49bfdc-9a50-4c56-ba1d-f39228ce9861"},"vehicle_type_id":"4","last_reported":1686596626,"current_range_meters":18800,"station_id":"ce4bhah2rcd13ifvqei0","pricing_plan_id":"free"},{"bike_id":"903f7349-f6ea-4db6-9e4d-932da366bf5f","system_id":"levelo_inurba_marseille","lat":43.284534,"lon":5.358662,"is_reserved":false,"is_disabled":false,"rental_uris":{"android":"levelo://app?vid=903f7349-f6ea-4db6-9e4d-932da366bf5f","ios":"levelo://app?vid=903f7349-f6ea-4db6-9e4d-932da366bf5f"},"vehicle_type_id":"4","last_reported":1686596626,"current_range_meters":31200,"station_id":"ce4bhah2rcd13ifvqei0","pricing_plan_id":"free"},{"bike_id":"c1f05937-f1ce-4bb7-8171-0c4bb6a3e32f","system_id":"levelo_inurba_marseille","lat":43.28406,"lon":5.37524,"is_reserved":false,"is_disabled":false,"rental_uris":{"android":"levelo://app?vid=c1f05937-f1ce-4bb7-8171-0c4bb6a3e32f","ios":"levelo://app?vid=c1f05937-f1ce-4bb7-8171-0c4bb6a3e32f"},"vehicle_type_id":"4","last_reported":1686596626,"current_range_meters":11200,"station_id":"","pricing_plan_id":"free"},{"bike_id":"4c300d3e-db5b-45c3-8ae8-9b8ac1b54d80","system_id":"levelo_inurba_marseille","lat":43.295713,"lon":5.399639,"is_reserved":false,"is_disabled":false,"rental_uris":{"android":"levelo://app?vid=4c300d3e-db5b-45c3-8ae8-9b8ac1b54d80","ios":"levelo://app?vid=4c300d3e-db5b-45c3-8ae8-9b8ac1b54d80"},"vehicle_type_id":"4","last_reported":1686596626,"current_range_meters":8400,"station_id":"ce4bh312rcd13ifvqdj0","pricing_plan_id":"free"},{"bike_id":"c2d17567-a1d2-46db-8082-b89e56e67b7a","system_id":"levelo_inurba_marseille","lat":43.29891,"lon":5.40277,"is_reserved":false,"is_disabled":false,"rental_uris":{"android":"levelo://app?vid=c2d17567-a1d2-46db-8082-b89e56e67b7a","ios":"levelo://app?vid=c2d17567-a1d2-46db-8082-b89e56e67b7a"},"vehicle_type_id":"4","last_reported":1686596626,"current_range_meters":19600,"station_id":"","pricing_plan_id":"free"},{"bike_id":"c272f13d-2a18-4e4c-97fb-784d58f43931","system_id":"levelo_inurba_marseille","lat":43.291994,"lon":5.392907,"is_reserved":false,"is_disabled":false,"rental_uris":{"android":"levelo://app?vid=c272f13d-2a18-4e4c-97fb-784d58f43931","ios":"levelo://app?vid=c272f13d-2a18-4e4c-97fb-784d58f43931"},"vehicle_type_id":"4","last_reported":1686596626,"current_range_meters":17600,"station_id":"ce4bh192rcd13ifvqdd0","pricing_plan_id":"free"},{"bike_id":"5fc8293f-7100-4c17-9023-981b82c610d1","system_id":"levelo_inurba_marseille","lat":43.28524,"lon":5.3504,"is_reserved":false,"is_disabled":false,"rental_uris":{"android":"levelo://app?vid=5fc8293f-7100-4c17-9023-981b82c610d1","ios":"levelo://app?vid=5fc8293f-7100-4c17-9023-981b82c610d1"},"vehicle_type_id":"4","last_reported":1686596626,"current_range_meters":3600,"station_id":"ce4bhbh2rcd13ifvqepg","pricing_plan_id":"free"},{"bike_id":"de8e53ac-c9d9-4e77-9c77-6adccfaaedc6","system_id":"levelo_inurba_marseille","lat":43.323464,"lon":5.406297,"is_reserved":false,"is_disabled":false,"rental_uris":{"android":"levelo://app?vid=de8e53ac-c9d9-4e77-9c77-6adccfaaedc6","ios":"levelo://app?vid=de8e53ac-c9d9-4e77-9c77-6adccfaaedc6"},"vehicle_type_id":"4","last_reported":1686596626,"current_range_meters":28800,"station_id":"ce4bhq92rcd13ifvqhjg","pricing_plan_id":"free"},{"bike_id":"891e330d-9ba6-4dc1-aaa9-b9a093e22a23","system_id":"levelo_inurba_marseille","lat":43.323464,"lon":5.406297,"is_reserved":false,"is_disabled":false,"rental_uris":{"android":"levelo://app?vid=891e330d-9ba6-4dc1-aaa9-b9a093e22a23","ios":"levelo://app?vid=891e330d-9ba6-4dc1-aaa9-b9a093e22a23"},"vehicle_type_id":"4","last_reported":1686596626,"current_range_meters":23600,"station_id":"ce4bhq92rcd13ifvqhjg","pricing_plan_id":"free"},{"bike_id":"16e5fedd-6e86-436a-a0a2-72c7cd60a6ea","system_id":"levelo_inurba_marseille","lat":43.323464,"lon":5.406297,"is_reserved":false,"is_disabled":false,"rental_uris":{"android":"levelo://app?vid=16e5fedd-6e86-436a-a0a2-72c7cd60a6ea","ios":"levelo://app?vid=16e5fedd-6e86-436a-a0a2-72c7cd60a6ea"},"vehicle_type_id":"4","last_reported":1686596626,"current_range_meters":22800,"station_id":"ce4bhq92rcd13ifvqhjg","pricing_plan_id":"free"},{"bike_id":"c94e786e-64bf-4086-bd5f-dc89f7159837","system_id":"levelo_inurba_marseille","lat":43.323464,"lon":5.406297,"is_reserved":false,"is_disabled":false,"rental_uris":{"android":"levelo://app?vid=c94e786e-64bf-4086-bd5f-dc89f7159837","ios":"levelo://app?vid=c94e786e-64bf-4086-bd5f-dc89f7159837"},"vehicle_type_id":"4","last_reported":1686596626,"current_range_meters":29200,"station_id":"ce4bhq92rcd13ifvqhjg","pricing_plan_id":"free"},{"bike_id":"e60b7c6d-57b7-4c23-80b4-872cd0c44fbc","system_id":"levelo_inurba_marseille","lat":43.288501,"lon":5.393087,"is_reserved":false,"is_disabled":false,"rental_uris":{"android":"levelo://app?vid=e60b7c6d-57b7-4c23-80b4-872cd0c44fbc","ios":"levelo://app?vid=e60b7c6d-57b7-4c23-80b4-872cd0c44fbc"},"vehicle_type_id":"4","last_reported":1686596626,"current_range_meters":17200,"station_id":"ce4bh2p2rcd13ifvqdi0","pricing_plan_id":"free"},{"bike_id":"5a89e9f8-da90-4f18-842c-10b47c62ca19","system_id":"levelo_inurba_marseille","lat":43.292724,"lon":5.401131,"is_reserved":false,"is_disabled":false,"rental_uris":{"android":"levelo://app?vid=5a89e9f8-da90-4f18-842c-10b47c62ca19","ios":"levelo://app?vid=5a89e9f8-da90-4f18-842c-10b47c62ca19"},"vehicle_type_id":"4","last_reported":1686596626,"current_range_meters":24400,"station_id":"ce4bh312rcd13ifvqdk0","pricing_plan_id":"free"},{"bike_id":"32e8cb40-ff4e-4d91-b104-f620e6196523","system_id":"levelo_inurba_marseille","lat":43.29642,"lon":5.40496,"is_reserved":false,"is_disabled":false,"rental_uris":{"android":"levelo://app?vid=32e8cb40-ff4e-4d91-b104-f620e6196523","ios":"levelo://app?vid=32e8cb40-ff4e-4d91-b104-f620e6196523"},"vehicle_type_id":"4","last_reported":1686596626,"current_range_meters":24400,"station_id":"","pricing_plan_id":"free"},{"bike_id":"91ffc437-0b53-4957-84a0-5a9a0d14506a","system_id":"levelo_inurba_marseille","lat":43.283502,"lon":5.386471,"is_reserved":false,"is_disabled":false,"rental_uris":{"android":"levelo://app?vid=91ffc437-0b53-4957-84a0-5a9a0d14506a","ios":"levelo://app?vid=91ffc437-0b53-4957-84a0-5a9a0d14506a"},"vehicle_type_id":"4","last_reported":1686596626,"current_range_meters":28000,"station_id":"ce4bh492rcd13ifvqdvg","pricing_plan_id":"free"},{"bike_id":"44ea426e-bdd4-4cb6-abaf-a163ff3b3162","system_id":"levelo_inurba_marseille","lat":43.2904,"lon":5.39966,"is_reserved":false,"is_disabled":false,"rental_uris":{"android":"levelo://app?vid=44ea426e-bdd4-4cb6-abaf-a163ff3b3162","ios":"levelo://app?vid=44ea426e-bdd4-4cb6-abaf-a163ff3b3162"},"vehicle_type_id":"4","last_reported":1686596626,"current_range_meters":400,"station_id":"ce4bh392rcd13ifvqdm0","pricing_plan_id":"free"},{"bike_id":"5a4c71fd-9f64-467b-bb0c-f1494eee303e","system_id":"levelo_inurba_marseille","lat":43.28101,"lon":5.37831,"is_reserved":false,"is_disabled":false,"rental_uris":{"android":"levelo://app?vid=5a4c71fd-9f64-467b-bb0c-f1494eee303e","ios":"levelo://app?vid=5a4c71fd-9f64-467b-bb0c-f1494eee303e"},"vehicle_type_id":"4","last_reported":1686596626,"current_range_meters":29600,"station_id":"ce4bha12rcd13ifvqee0","pricing_plan_id":"free"},{"bike_id":"49740f99-614b-47af-b2db-04095e303f91","system_id":"levelo_inurba_marseille","lat":43.28442,"lon":5.39205,"is_reserved":false,"is_disabled":false,"rental_uris":{"android":"levelo://app?vid=49740f99-614b-47af-b2db-04095e303f91","ios":"levelo://app?vid=49740f99-614b-47af-b2db-04095e303f91"},"vehicle_type_id":"4","last_reported":1686596626,"current_range_meters":12800,"station_id":"ce4bhoh2rcd13ifvqh5g","pricing_plan_id":"free"},{"bike_id":"e02f7ede-ce3c-4821-8e28-705ad363f808","system_id":"levelo_inurba_marseille","lat":43.28573,"lon":5.394992,"is_reserved":false,"is_disabled":false,"rental_uris":{"android":"levelo://app?vid=e02f7ede-ce3c-4821-8e28-705ad363f808","ios":"levelo://app?vid=e02f7ede-ce3c-4821-8e28-705ad363f808"},"vehicle_type_id":"4","last_reported":1686596626,"current_range_meters":6400,"station_id":"ce4bh292rcd13ifvqdg0","pricing_plan_id":"free"},{"bike_id":"0930922d-8229-4caa-ad41-32a2e3e93c3d","system_id":"levelo_inurba_marseille","lat":43.28573,"lon":5.394992,"is_reserved":false,"is_disabled":false,"rental_uris":{"android":"levelo://app?vid=0930922d-8229-4caa-ad41-32a2e3e93c3d","ios":"levelo://app?vid=0930922d-8229-4caa-ad41-32a2e3e93c3d"},"vehicle_type_id":"4","last_reported":1686596626,"current_range_meters":18400,"station_id":"ce4bh292rcd13ifvqdg0","pricing_plan_id":"free"},{"bike_id":"21040f4f-0676-426e-af24-a7e7278bd199","system_id":"levelo_inurba_marseille","lat":43.287154,"lon":5.399979,"is_reserved":false,"is_disabled":false,"rental_uris":{"android":"levelo://app?vid=21040f4f-0676-426e-af24-a7e7278bd199","ios":"levelo://app?vid=21040f4f-0676-426e-af24-a7e7278bd199"},"vehicle_type_id":"4","last_reported":1686596626,"current_range_meters":5200,"station_id":"ce4bho92rcd13ifvqh3g","pricing_plan_id":"free"},{"bike_id":"f31af363-bbd5-4f3a-9dda-010161d5e196","system_id":"levelo_inurba_marseille","lat":43.287154,"lon":5.399979,"is_reserved":false,"is_disabled":false,"rental_uris":{"android":"levelo://app?vid=f31af363-bbd5-4f3a-9dda-010161d5e196","ios":"levelo://app?vid=f31af363-bbd5-4f3a-9dda-010161d5e196"},"vehicle_type_id":"4","last_reported":1686596626,"current_range_meters":19200,"station_id":"ce4bho92rcd13ifvqh3g","pricing_plan_id":"free"},{"bike_id":"0bd3c255-c194-4195-a370-c06681c29fe6","system_id":"levelo_inurba_marseille","lat":43.33612,"lon":5.410321,"is_reserved":false,"is_disabled":false,"rental_uris":{"android":"levelo://app?vid=0bd3c255-c194-4195-a370-c06681c29fe6","ios":"levelo://app?vid=0bd3c255-c194-4195-a370-c06681c29fe6"},"vehicle_type_id":"4","last_reported":1686596626,"current_range_meters":8400,"station_id":"ce4bhqh2rcd13ifvqhmg","pricing_plan_id":"free"},{"bike_id":"c2037ee8-0dbd-4cf7-b503-88b654b986bd","system_id":"levelo_inurba_marseille","lat":43.320045,"lon":5.415046,"is_reserved":false,"is_disabled":false,"rental_uris":{"android":"levelo://app?vid=c2037ee8-0dbd-4cf7-b503-88b654b986bd","ios":"levelo://app?vid=c2037ee8-0dbd-4cf7-b503-88b654b986bd"},"vehicle_type_id":"4","last_reported":1686596626,"current_range_meters":6000,"station_id":"ce4bhq92rcd13ifvqhkg","pricing_plan_id":"free"},{"bike_id":"4b26e7be-1aa3-4567-a66a-2935df86ee78","system_id":"levelo_inurba_marseille","lat":43.320045,"lon":5.415048,"is_reserved":false,"is_disabled":false,"rental_uris":{"android":"levelo://app?vid=4b26e7be-1aa3-4567-a66a-2935df86ee78","ios":"levelo://app?vid=4b26e7be-1aa3-4567-a66a-2935df86ee78"},"vehicle_type_id":"4","last_reported":1686596626,"current_range_meters":11600,"station_id":"ce4bhq92rcd13ifvqhkg","pricing_plan_id":"free"},{"bike_id":"d604e263-d9b8-48c4-b720-074397c20f01","system_id":"levelo_inurba_marseille","lat":43.292571,"lon":5.409107,"is_reserved":false,"is_disabled":false,"rental_uris":{"android":"levelo://app?vid=d604e263-d9b8-48c4-b720-074397c20f01","ios":"levelo://app?vid=d604e263-d9b8-48c4-b720-074397c20f01"},"vehicle_type_id":"4","last_reported":1686596626,"current_range_meters":11200,"station_id":"ce4bh192rcd13ifvqdc0","pricing_plan_id":"free"},{"bike_id":"103c167b-febf-4dc1-8cbc-dea10e8ad2df","system_id":"levelo_inurba_marseille","lat":43.27604,"lon":5.36108,"is_reserved":false,"is_disabled":false,"rental_uris":{"android":"levelo://app?vid=103c167b-febf-4dc1-8cbc-dea10e8ad2df","ios":"levelo://app?vid=103c167b-febf-4dc1-8cbc-dea10e8ad2df"},"vehicle_type_id":"4","last_reported":1686596626,"current_range_meters":31200,"station_id":"ce4bgj92rcd13ifvqbe0","pricing_plan_id":"free"},{"bike_id":"71e4c421-cfff-485f-9255-50cc21368540","system_id":"levelo_inurba_marseille","lat":43.27754,"lon":5.38268,"is_reserved":false,"is_disabled":false,"rental_uris":{"android":"levelo://app?vid=71e4c421-cfff-485f-9255-50cc21368540","ios":"levelo://app?vid=71e4c421-cfff-485f-9255-50cc21368540"},"vehicle_type_id":"4","last_reported":1686596626,"current_range_meters":17200,"station_id":"","pricing_plan_id":"free"},{"bike_id":"8a470114-04b2-4dfd-9b72-09c74c9f749f","system_id":"levelo_inurba_marseille","lat":43.280784,"lon":5.396622,"is_reserved":false,"is_disabled":false,"rental_uris":{"android":"levelo://app?vid=8a470114-04b2-4dfd-9b72-09c74c9f749f","ios":"levelo://app?vid=8a470114-04b2-4dfd-9b72-09c74c9f749f"},"vehicle_type_id":"4","last_reported":1686596626,"current_range_meters":15200,"station_id":"ce4bho12rcd13ifvqh2g","pricing_plan_id":"free"},{"bike_id":"2ef71bcc-59ac-4e8c-a5a2-972482754eb6","system_id":"levelo_inurba_marseille","lat":43.28078,"lon":5.3966,"is_reserved":false,"is_disabled":false,"rental_uris":{"android":"levelo://app?vid=2ef71bcc-59ac-4e8c-a5a2-972482754eb6","ios":"levelo://app?vid=2ef71bcc-59ac-4e8c-a5a2-972482754eb6"},"vehicle_type_id":"4","last_reported":1686596626,"current_range_meters":26000,"station_id":"ce4bho12rcd13ifvqh2g","pricing_plan_id":"free"},{"bike_id":"2d3e7658-7c7d-447a-9409-52964b8517c5","system_id":"levelo_inurba_marseille","lat":43.278401,"lon":5.392152,"is_reserved":false,"is_disabled":false,"rental_uris":{"android":"levelo://app?vid=2d3e7658-7c7d-447a-9409-52964b8517c5","ios":"levelo://app?vid=2d3e7658-7c7d-447a-9409-52964b8517c5"},"vehicle_type_id":"4","last_reported":1686596626,"current_range_meters":0,"station_id":"ce4bhjp2rcd13ifvqga0","pricing_plan_id":"free"},{"bike_id":"97931687-0383-42b8-8488-8641e199cb5e","system_id":"levelo_inurba_marseille","lat":43.33612,"lon":5.410321,"is_reserved":false,"is_disabled":false,"rental_uris":{"android":"levelo://app?vid=97931687-0383-42b8-8488-8641e199cb5e","ios":"levelo://app?vid=97931687-0383-42b8-8488-8641e199cb5e"},"vehicle_type_id":"4","last_reported":1686596626,"current_range_meters":8400,"station_id":"ce4bhqh2rcd13ifvqhmg","pricing_plan_id":"free"},{"bike_id":"a1a8ba77-f1fe-49b5-8d9c-a609b851b8ac","system_id":"levelo_inurba_marseille","lat":43.33612,"lon":5.410321,"is_reserved":false,"is_disabled":false,"rental_uris":{"android":"levelo://app?vid=a1a8ba77-f1fe-49b5-8d9c-a609b851b8ac","ios":"levelo://app?vid=a1a8ba77-f1fe-49b5-8d9c-a609b851b8ac"},"vehicle_type_id":"4","last_reported":1686596626,"current_range_meters":7600,"station_id":"ce4bhqh2rcd13ifvqhmg","pricing_plan_id":"free"},{"bike_id":"e7452ad7-e82d-4df6-b9f8-f52173c3e52e","system_id":"levelo_inurba_marseille","lat":43.336134,"lon":5.410341,"is_reserved":false,"is_disabled":false,"rental_uris":{"android":"levelo://app?vid=e7452ad7-e82d-4df6-b9f8-f52173c3e52e","ios":"levelo://app?vid=e7452ad7-e82d-4df6-b9f8-f52173c3e52e"},"vehicle_type_id":"4","last_reported":1686596626,"current_range_meters":9200,"station_id":"ce4bhqh2rcd13ifvqhmg","pricing_plan_id":"free"},{"bike_id":"ae7adfde-7515-4c9e-b6a3-b41071a57bea","system_id":"levelo_inurba_marseille","lat":43.336134,"lon":5.410341,"is_reserved":false,"is_disabled":false,"rental_uris":{"android":"levelo://app?vid=ae7adfde-7515-4c9e-b6a3-b41071a57bea","ios":"levelo://app?vid=ae7adfde-7515-4c9e-b6a3-b41071a57bea"},"vehicle_type_id":"4","last_reported":1686596626,"current_range_meters":20800,"station_id":"ce4bhqh2rcd13ifvqhmg","pricing_plan_id":"free"},{"bike_id":"fdf5f688-4ba6-4507-85a0-ea7db31eb18c","system_id":"levelo_inurba_marseille","lat":43.35155,"lon":5.37568,"is_reserved":false,"is_disabled":false,"rental_uris":{"android":"levelo://app?vid=fdf5f688-4ba6-4507-85a0-ea7db31eb18c","ios":"levelo://app?vid=fdf5f688-4ba6-4507-85a0-ea7db31eb18c"},"vehicle_type_id":"4","last_reported":1686596626,"current_range_meters":8800,"station_id":"","pricing_plan_id":"free"},{"bike_id":"3cbaecf4-efa7-4cad-baf6-f133ab5db117","system_id":"levelo_inurba_marseille","lat":43.276769,"lon":5.388787,"is_reserved":false,"is_disabled":false,"rental_uris":{"android":"levelo://app?vid=3cbaecf4-efa7-4cad-baf6-f133ab5db117","ios":"levelo://app?vid=3cbaecf4-efa7-4cad-baf6-f133ab5db117"},"vehicle_type_id":"4","last_reported":1686596626,"current_range_meters":1600,"station_id":"ce4bhi12rcd13ifvqfo0","pricing_plan_id":"free"},{"bike_id":"c135417b-40c4-4c04-943e-b7711837ba3c","system_id":"levelo_inurba_marseille","lat":43.317121,"lon":5.423936,"is_reserved":false,"is_disabled":false,"rental_uris":{"android":"levelo://app?vid=c135417b-40c4-4c04-943e-b7711837ba3c","ios":"levelo://app?vid=c135417b-40c4-4c04-943e-b7711837ba3c"},"vehicle_type_id":"4","last_reported":1686596626,"current_range_meters":22400,"station_id":"ce4bhp92rcd13ifvqhbg","pricing_plan_id":"free"},{"bike_id":"60369bb0-0d71-43b9-a915-5d4c7e589c53","system_id":"levelo_inurba_marseille","lat":43.317121,"lon":5.423936,"is_reserved":false,"is_disabled":false,"rental_uris":{"android":"levelo://app?vid=60369bb0-0d71-43b9-a915-5d4c7e589c53","ios":"levelo://app?vid=60369bb0-0d71-43b9-a915-5d4c7e589c53"},"vehicle_type_id":"4","last_reported":1686596626,"current_range_meters":800,"station_id":"ce4bhp92rcd13ifvqhbg","pricing_plan_id":"free"},{"bike_id":"753c6b72-ca8a-45ae-bd9d-8eca801d7a1c","system_id":"levelo_inurba_marseille","lat":43.27614,"lon":5.39489,"is_reserved":false,"is_disabled":false,"rental_uris":{"android":"levelo://app?vid=753c6b72-ca8a-45ae-bd9d-8eca801d7a1c","ios":"levelo://app?vid=753c6b72-ca8a-45ae-bd9d-8eca801d7a1c"},"vehicle_type_id":"4","last_reported":1686596626,"current_range_meters":10800,"station_id":"","pricing_plan_id":"free"},{"bike_id":"7149946e-71ec-410e-8363-af9277790fd6","system_id":"levelo_inurba_marseille","lat":43.273125,"lon":5.390731,"is_reserved":false,"is_disabled":false,"rental_uris":{"android":"levelo://app?vid=7149946e-71ec-410e-8363-af9277790fd6","ios":"levelo://app?vid=7149946e-71ec-410e-8363-af9277790fd6"},"vehicle_type_id":"4","last_reported":1686596626,"current_range_meters":17600,"station_id":"ce4bhgp2rcd13ifvqfe0","pricing_plan_id":"free"},{"bike_id":"ec9585f6-6f6c-47b4-aefa-fb3efb61f75f","system_id":"levelo_inurba_marseille","lat":43.304096,"lon":5.425385,"is_reserved":false,"is_disabled":false,"rental_uris":{"android":"levelo://app?vid=ec9585f6-6f6c-47b4-aefa-fb3efb61f75f","ios":"levelo://app?vid=ec9585f6-6f6c-47b4-aefa-fb3efb61f75f"},"vehicle_type_id":"4","last_reported":1686596626,"current_range_meters":5600,"station_id":"ce4bhoh2rcd13ifvqh6g","pricing_plan_id":"free"},{"bike_id":"0a69b60a-ed4a-4a2e-af0a-5edf88887cf0","system_id":"levelo_inurba_marseille","lat":43.295511,"lon":5.422926,"is_reserved":false,"is_disabled":false,"rental_uris":{"android":"levelo://app?vid=0a69b60a-ed4a-4a2e-af0a-5edf88887cf0","ios":"levelo://app?vid=0a69b60a-ed4a-4a2e-af0a-5edf88887cf0"},"vehicle_type_id":"4","last_reported":1686596626,"current_range_meters":6000,"station_id":"ce4bhph2rcd13ifvqhdg","pricing_plan_id":"free"},{"bike_id":"b3119382-7984-452d-9e30-a8c87790ebcf","system_id":"levelo_inurba_marseille","lat":43.278128,"lon":5.407195,"is_reserved":false,"is_disabled":false,"rental_uris":{"android":"levelo://app?vid=b3119382-7984-452d-9e30-a8c87790ebcf","ios":"levelo://app?vid=b3119382-7984-452d-9e30-a8c87790ebcf"},"vehicle_type_id":"4","last_reported":1686596626,"current_range_meters":6000,"station_id":"ce4bhnh2rcd13ifvqgtg","pricing_plan_id":"free"},{"bike_id":"0035d56e-f975-4b3d-8fad-670d496742ce","system_id":"levelo_inurba_marseille","lat":43.278128,"lon":5.407195,"is_reserved":false,"is_disabled":false,"rental_uris":{"android":"levelo://app?vid=0035d56e-f975-4b3d-8fad-670d496742ce","ios":"levelo://app?vid=0035d56e-f975-4b3d-8fad-670d496742ce"},"vehicle_type_id":"4","last_reported":1686596626,"current_range_meters":14000,"station_id":"ce4bhnh2rcd13ifvqgtg","pricing_plan_id":"free"},{"bike_id":"e85dc146-dedc-4eee-abed-89155c210262","system_id":"levelo_inurba_marseille","lat":43.27814,"lon":5.40711,"is_reserved":false,"is_disabled":false,"rental_uris":{"android":"levelo://app?vid=e85dc146-dedc-4eee-abed-89155c210262","ios":"levelo://app?vid=e85dc146-dedc-4eee-abed-89155c210262"},"vehicle_type_id":"4","last_reported":1686596626,"current_range_meters":4800,"station_id":"ce4bhnh2rcd13ifvqgtg","pricing_plan_id":"free"},{"bike_id":"822832b7-1766-4ef3-ba8d-cadae1947573","system_id":"levelo_inurba_marseille","lat":43.278128,"lon":5.407195,"is_reserved":false,"is_disabled":false,"rental_uris":{"android":"levelo://app?vid=822832b7-1766-4ef3-ba8d-cadae1947573","ios":"levelo://app?vid=822832b7-1766-4ef3-ba8d-cadae1947573"},"vehicle_type_id":"4","last_reported":1686596626,"current_range_meters":24800,"station_id":"ce4bhnh2rcd13ifvqgtg","pricing_plan_id":"free"},{"bike_id":"0ad57b0c-4974-4d54-a187-78d183611933","system_id":"levelo_inurba_marseille","lat":43.278128,"lon":5.407195,"is_reserved":false,"is_disabled":false,"rental_uris":{"android":"levelo://app?vid=0ad57b0c-4974-4d54-a187-78d183611933","ios":"levelo://app?vid=0ad57b0c-4974-4d54-a187-78d183611933"},"vehicle_type_id":"4","last_reported":1686596626,"current_range_meters":16800,"station_id":"ce4bhnh2rcd13ifvqgtg","pricing_plan_id":"free"},{"bike_id":"d94ef23e-f0b5-42a5-a676-1c210bab9189","system_id":"levelo_inurba_marseille","lat":43.278128,"lon":5.407195,"is_reserved":false,"is_disabled":false,"rental_uris":{"android":"levelo://app?vid=d94ef23e-f0b5-42a5-a676-1c210bab9189","ios":"levelo://app?vid=d94ef23e-f0b5-42a5-a676-1c210bab9189"},"vehicle_type_id":"4","last_reported":1686596626,"current_range_meters":27600,"station_id":"ce4bhnh2rcd13ifvqgtg","pricing_plan_id":"free"},{"bike_id":"278ee436-7ab2-4e00-86a9-0e93915a289c","system_id":"levelo_inurba_marseille","lat":43.278128,"lon":5.407195,"is_reserved":false,"is_disabled":false,"rental_uris":{"android":"levelo://app?vid=278ee436-7ab2-4e00-86a9-0e93915a289c","ios":"levelo://app?vid=278ee436-7ab2-4e00-86a9-0e93915a289c"},"vehicle_type_id":"4","last_reported":1686596626,"current_range_meters":22000,"station_id":"ce4bhnh2rcd13ifvqgtg","pricing_plan_id":"free"},{"bike_id":"79b58784-545e-497b-b64e-59acc52e24f7","system_id":"levelo_inurba_marseille","lat":43.278128,"lon":5.407195,"is_reserved":false,"is_disabled":false,"rental_uris":{"android":"levelo://app?vid=79b58784-545e-497b-b64e-59acc52e24f7","ios":"levelo://app?vid=79b58784-545e-497b-b64e-59acc52e24f7"},"vehicle_type_id":"4","last_reported":1686596626,"current_range_meters":20800,"station_id":"ce4bhnh2rcd13ifvqgtg","pricing_plan_id":"free"},{"bike_id":"cf7f49b9-cc8c-4a81-a54c-fd1a34549409","system_id":"levelo_inurba_marseille","lat":43.278128,"lon":5.407195,"is_reserved":false,"is_disabled":false,"rental_uris":{"android":"levelo://app?vid=cf7f49b9-cc8c-4a81-a54c-fd1a34549409","ios":"levelo://app?vid=cf7f49b9-cc8c-4a81-a54c-fd1a34549409"},"vehicle_type_id":"4","last_reported":1686596626,"current_range_meters":20000,"station_id":"ce4bhnh2rcd13ifvqgtg","pricing_plan_id":"free"},{"bike_id":"8df6b4ef-6a21-4962-99b9-6c3df907d334","system_id":"levelo_inurba_marseille","lat":43.27996,"lon":5.416624,"is_reserved":false,"is_disabled":false,"rental_uris":{"android":"levelo://app?vid=8df6b4ef-6a21-4962-99b9-6c3df907d334","ios":"levelo://app?vid=8df6b4ef-6a21-4962-99b9-6c3df907d334"},"vehicle_type_id":"4","last_reported":1686596626,"current_range_meters":15600,"station_id":"ce4bho12rcd13ifvqh1g","pricing_plan_id":"free"},{"bike_id":"aff0257b-fe4b-4fb6-94ec-257193ba5275","system_id":"levelo_inurba_marseille","lat":43.27994,"lon":5.41659,"is_reserved":false,"is_disabled":false,"rental_uris":{"android":"levelo://app?vid=aff0257b-fe4b-4fb6-94ec-257193ba5275","ios":"levelo://app?vid=aff0257b-fe4b-4fb6-94ec-257193ba5275"},"vehicle_type_id":"4","last_reported":1686596626,"current_range_meters":10400,"station_id":"ce4bho12rcd13ifvqh1g","pricing_plan_id":"free"},{"bike_id":"2208e7ab-2666-48ab-ad67-3042454517c2","system_id":"levelo_inurba_marseille","lat":43.27996,"lon":5.416624,"is_reserved":false,"is_disabled":false,"rental_uris":{"android":"levelo://app?vid=2208e7ab-2666-48ab-ad67-3042454517c2","ios":"levelo://app?vid=2208e7ab-2666-48ab-ad67-3042454517c2"},"vehicle_type_id":"4","last_reported":1686596626,"current_range_meters":3600,"station_id":"ce4bho12rcd13ifvqh1g","pricing_plan_id":"free"},{"bike_id":"21b8ac1b-1e4c-4a2a-966f-fb63d7b37fd7","system_id":"levelo_inurba_marseille","lat":43.27993,"lon":5.4166,"is_reserved":false,"is_disabled":false,"rental_uris":{"android":"levelo://app?vid=21b8ac1b-1e4c-4a2a-966f-fb63d7b37fd7","ios":"levelo://app?vid=21b8ac1b-1e4c-4a2a-966f-fb63d7b37fd7"},"vehicle_type_id":"4","last_reported":1686596626,"current_range_meters":17200,"station_id":"ce4bho12rcd13ifvqh1g","pricing_plan_id":"free"},{"bike_id":"f84f2515-de31-447a-8046-4a4a6bb95c8a","system_id":"levelo_inurba_marseille","lat":43.2799,"lon":5.41657,"is_reserved":false,"is_disabled":false,"rental_uris":{"android":"levelo://app?vid=f84f2515-de31-447a-8046-4a4a6bb95c8a","ios":"levelo://app?vid=f84f2515-de31-447a-8046-4a4a6bb95c8a"},"vehicle_type_id":"4","last_reported":1686596626,"current_range_meters":0,"station_id":"ce4bho12rcd13ifvqh1g","pricing_plan_id":"free"},{"bike_id":"363dfb54-1e4e-4f20-b896-db8d6737cd53","system_id":"levelo_inurba_marseille","lat":43.27991,"lon":5.41662,"is_reserved":false,"is_disabled":false,"rental_uris":{"android":"levelo://app?vid=363dfb54-1e4e-4f20-b896-db8d6737cd53","ios":"levelo://app?vid=363dfb54-1e4e-4f20-b896-db8d6737cd53"},"vehicle_type_id":"4","last_reported":1686596626,"current_range_meters":18800,"station_id":"ce4bho12rcd13ifvqh1g","pricing_plan_id":"free"},{"bike_id":"8f19fee8-fffe-4dbd-a254-f451829a949e","system_id":"levelo_inurba_marseille","lat":43.27989,"lon":5.4166,"is_reserved":false,"is_disabled":false,"rental_uris":{"android":"levelo://app?vid=8f19fee8-fffe-4dbd-a254-f451829a949e","ios":"levelo://app?vid=8f19fee8-fffe-4dbd-a254-f451829a949e"},"vehicle_type_id":"4","last_reported":1686596626,"current_range_meters":24000,"station_id":"ce4bho12rcd13ifvqh1g","pricing_plan_id":"free"},{"bike_id":"a2972263-5775-4b5b-acd0-322b454e8d89","system_id":"levelo_inurba_marseille","lat":43.27987,"lon":5.41659,"is_reserved":false,"is_disabled":false,"rental_uris":{"android":"levelo://app?vid=a2972263-5775-4b5b-acd0-322b454e8d89","ios":"levelo://app?vid=a2972263-5775-4b5b-acd0-322b454e8d89"},"vehicle_type_id":"4","last_reported":1686596626,"current_range_meters":16800,"station_id":"ce4bho12rcd13ifvqh1g","pricing_plan_id":"free"},{"bike_id":"c028772f-525f-460c-b6e1-ef39cab93090","system_id":"levelo_inurba_marseille","lat":43.27986,"lon":5.4166,"is_reserved":false,"is_disabled":false,"rental_uris":{"android":"levelo://app?vid=c028772f-525f-460c-b6e1-ef39cab93090","ios":"levelo://app?vid=c028772f-525f-460c-b6e1-ef39cab93090"},"vehicle_type_id":"4","last_reported":1686596626,"current_range_meters":0,"station_id":"ce4bho12rcd13ifvqh1g","pricing_plan_id":"free"},{"bike_id":"41b4ad10-125f-47bb-af68-8e7f5be02b68","system_id":"levelo_inurba_marseille","lat":43.27996,"lon":5.416624,"is_reserved":false,"is_disabled":false,"rental_uris":{"android":"levelo://app?vid=41b4ad10-125f-47bb-af68-8e7f5be02b68","ios":"levelo://app?vid=41b4ad10-125f-47bb-af68-8e7f5be02b68"},"vehicle_type_id":"4","last_reported":1686596626,"current_range_meters":6400,"station_id":"ce4bho12rcd13ifvqh1g","pricing_plan_id":"free"},{"bike_id":"566d7384-8f3b-476b-8684-bfaabfbd1d79","system_id":"levelo_inurba_marseille","lat":43.27996,"lon":5.416624,"is_reserved":false,"is_disabled":false,"rental_uris":{"android":"levelo://app?vid=566d7384-8f3b-476b-8684-bfaabfbd1d79","ios":"levelo://app?vid=566d7384-8f3b-476b-8684-bfaabfbd1d79"},"vehicle_type_id":"4","last_reported":1686596626,"current_range_meters":25600,"station_id":"ce4bho12rcd13ifvqh1g","pricing_plan_id":"free"},{"bike_id":"0b20b5ea-9db5-401b-b2b1-fd07078c272c","system_id":"levelo_inurba_marseille","lat":43.27982,"lon":5.41659,"is_reserved":false,"is_disabled":false,"rental_uris":{"android":"levelo://app?vid=0b20b5ea-9db5-401b-b2b1-fd07078c272c","ios":"levelo://app?vid=0b20b5ea-9db5-401b-b2b1-fd07078c272c"},"vehicle_type_id":"4","last_reported":1686596626,"current_range_meters":18400,"station_id":"ce4bho12rcd13ifvqh1g","pricing_plan_id":"free"},{"bike_id":"d088919b-5f3e-449a-9a87-735389ab4ab7","system_id":"levelo_inurba_marseille","lat":43.27981,"lon":5.41658,"is_reserved":false,"is_disabled":false,"rental_uris":{"android":"levelo://app?vid=d088919b-5f3e-449a-9a87-735389ab4ab7","ios":"levelo://app?vid=d088919b-5f3e-449a-9a87-735389ab4ab7"},"vehicle_type_id":"4","last_reported":1686596626,"current_range_meters":3600,"station_id":"ce4bho12rcd13ifvqh1g","pricing_plan_id":"free"},{"bike_id":"29c50d3f-9af2-4177-8789-924a7e2121d8","system_id":"levelo_inurba_marseille","lat":43.267966,"lon":5.393976,"is_reserved":false,"is_disabled":false,"rental_uris":{"android":"levelo://app?vid=29c50d3f-9af2-4177-8789-924a7e2121d8","ios":"levelo://app?vid=29c50d3f-9af2-4177-8789-924a7e2121d8"},"vehicle_type_id":"4","last_reported":1686596626,"current_range_meters":13200,"station_id":"ce4bhh12rcd13ifvqfg0","pricing_plan_id":"free"},{"bike_id":"5162ffc7-6c9e-41bb-bdd1-569a7d1e6f21","system_id":"levelo_inurba_marseille","lat":43.30791,"lon":5.43529,"is_reserved":false,"is_disabled":false,"rental_uris":{"android":"levelo://app?vid=5162ffc7-6c9e-41bb-bdd1-569a7d1e6f21","ios":"levelo://app?vid=5162ffc7-6c9e-41bb-bdd1-569a7d1e6f21"},"vehicle_type_id":"4","last_reported":1686596626,"current_range_meters":0,"station_id":"","pricing_plan_id":"free"},{"bike_id":"b1b6bc0a-3c09-44e0-9f6d-357d4bfa3d8d","system_id":"levelo_inurba_marseille","lat":43.28056,"lon":5.42116,"is_reserved":false,"is_disabled":false,"rental_uris":{"android":"levelo://app?vid=b1b6bc0a-3c09-44e0-9f6d-357d4bfa3d8d","ios":"levelo://app?vid=b1b6bc0a-3c09-44e0-9f6d-357d4bfa3d8d"},"vehicle_type_id":"4","last_reported":1686596626,"current_range_meters":20000,"station_id":"","pricing_plan_id":"free"},{"bike_id":"fc603de6-10bc-460c-805a-3e45af213258","system_id":"levelo_inurba_marseille","lat":43.317104,"lon":5.436818,"is_reserved":false,"is_disabled":false,"rental_uris":{"android":"levelo://app?vid=fc603de6-10bc-460c-805a-3e45af213258","ios":"levelo://app?vid=fc603de6-10bc-460c-805a-3e45af213258"},"vehicle_type_id":"4","last_reported":1686596626,"current_range_meters":5200,"station_id":"ce4bhp92rcd13ifvqhcg","pricing_plan_id":"free"},{"bike_id":"55615cf2-70d0-44a8-96de-fa0cb6800d21","system_id":"levelo_inurba_marseille","lat":43.317104,"lon":5.436818,"is_reserved":false,"is_disabled":false,"rental_uris":{"android":"levelo://app?vid=55615cf2-70d0-44a8-96de-fa0cb6800d21","ios":"levelo://app?vid=55615cf2-70d0-44a8-96de-fa0cb6800d21"},"vehicle_type_id":"4","last_reported":1686596626,"current_range_meters":13600,"station_id":"ce4bhp92rcd13ifvqhcg","pricing_plan_id":"free"},{"bike_id":"d22a8864-2146-4129-a239-f4923d18a83b","system_id":"levelo_inurba_marseille","lat":43.27318,"lon":5.41212,"is_reserved":false,"is_disabled":false,"rental_uris":{"android":"levelo://app?vid=d22a8864-2146-4129-a239-f4923d18a83b","ios":"levelo://app?vid=d22a8864-2146-4129-a239-f4923d18a83b"},"vehicle_type_id":"4","last_reported":1686596626,"current_range_meters":17200,"station_id":"","pricing_plan_id":"free"},{"bike_id":"7ce96ff6-920c-4e17-9d82-a1aae6b1d988","system_id":"levelo_inurba_marseille","lat":43.27182,"lon":5.40991,"is_reserved":false,"is_disabled":false,"rental_uris":{"android":"levelo://app?vid=7ce96ff6-920c-4e17-9d82-a1aae6b1d988","ios":"levelo://app?vid=7ce96ff6-920c-4e17-9d82-a1aae6b1d988"},"vehicle_type_id":"4","last_reported":1686596626,"current_range_meters":23600,"station_id":"","pricing_plan_id":"free"},{"bike_id":"a1e9f7dc-d2f9-41c7-a6c8-a0f9a84c26fe","system_id":"levelo_inurba_marseille","lat":43.271388,"lon":5.409269,"is_reserved":false,"is_disabled":false,"rental_uris":{"android":"levelo://app?vid=a1e9f7dc-d2f9-41c7-a6c8-a0f9a84c26fe","ios":"levelo://app?vid=a1e9f7dc-d2f9-41c7-a6c8-a0f9a84c26fe"},"vehicle_type_id":"4","last_reported":1686596626,"current_range_meters":13200,"station_id":"ce4bhl12rcd13ifvqgf0","pricing_plan_id":"free"},{"bike_id":"618e8141-59b9-4902-92ec-d3a22f24c883","system_id":"levelo_inurba_marseille","lat":43.271388,"lon":5.409269,"is_reserved":false,"is_disabled":false,"rental_uris":{"android":"levelo://app?vid=618e8141-59b9-4902-92ec-d3a22f24c883","ios":"levelo://app?vid=618e8141-59b9-4902-92ec-d3a22f24c883"},"vehicle_type_id":"4","last_reported":1686596626,"current_range_meters":6400,"station_id":"ce4bhl12rcd13ifvqgf0","pricing_plan_id":"free"},{"bike_id":"d9440497-96e4-445a-96b0-be82f0b32081","system_id":"levelo_inurba_marseille","lat":43.271388,"lon":5.409269,"is_reserved":false,"is_disabled":false,"rental_uris":{"android":"levelo://app?vid=d9440497-96e4-445a-96b0-be82f0b32081","ios":"levelo://app?vid=d9440497-96e4-445a-96b0-be82f0b32081"},"vehicle_type_id":"4","last_reported":1686596626,"current_range_meters":5200,"station_id":"ce4bhl12rcd13ifvqgf0","pricing_plan_id":"free"},{"bike_id":"34e5d142-c361-4b3e-af1d-408d9d018e21","system_id":"levelo_inurba_marseille","lat":43.271368,"lon":5.40928,"is_reserved":false,"is_disabled":false,"rental_uris":{"android":"levelo://app?vid=34e5d142-c361-4b3e-af1d-408d9d018e21","ios":"levelo://app?vid=34e5d142-c361-4b3e-af1d-408d9d018e21"},"vehicle_type_id":"4","last_reported":1686596626,"current_range_meters":4000,"station_id":"ce4bhl12rcd13ifvqgf0","pricing_plan_id":"free"},{"bike_id":"b0b509eb-9e18-4b0e-8e67-f767b6f2905a","system_id":"levelo_inurba_marseille","lat":43.27126,"lon":5.4092,"is_reserved":false,"is_disabled":false,"rental_uris":{"android":"levelo://app?vid=b0b509eb-9e18-4b0e-8e67-f767b6f2905a","ios":"levelo://app?vid=b0b509eb-9e18-4b0e-8e67-f767b6f2905a"},"vehicle_type_id":"4","last_reported":1686596626,"current_range_meters":8400,"station_id":"ce4bhl12rcd13ifvqgf0","pricing_plan_id":"free"},{"bike_id":"6da8412f-5b67-4839-b655-325f4ee587df","system_id":"levelo_inurba_marseille","lat":43.267959,"lon":5.402685,"is_reserved":false,"is_disabled":false,"rental_uris":{"android":"levelo://app?vid=6da8412f-5b67-4839-b655-325f4ee587df","ios":"levelo://app?vid=6da8412f-5b67-4839-b655-325f4ee587df"},"vehicle_type_id":"4","last_reported":1686596626,"current_range_meters":18400,"station_id":"ce501612rcd8frsf0b60","pricing_plan_id":"free"},{"bike_id":"19fcc9d3-42a8-491b-96f3-06d0df574654","system_id":"levelo_inurba_marseille","lat":43.2607,"lon":5.393983,"is_reserved":false,"is_disabled":false,"rental_uris":{"android":"levelo://app?vid=19fcc9d3-42a8-491b-96f3-06d0df574654","ios":"levelo://app?vid=19fcc9d3-42a8-491b-96f3-06d0df574654"},"vehicle_type_id":"4","last_reported":1686596626,"current_range_meters":10400,"station_id":"ce4bhh92rcd13ifvqfj0","pricing_plan_id":"free"},{"bike_id":"7965a311-dc64-48d6-a24e-507b7f789346","system_id":"levelo_inurba_marseille","lat":43.260912,"lon":5.397584,"is_reserved":false,"is_disabled":false,"rental_uris":{"android":"levelo://app?vid=7965a311-dc64-48d6-a24e-507b7f789346","ios":"levelo://app?vid=7965a311-dc64-48d6-a24e-507b7f789346"},"vehicle_type_id":"4","last_reported":1686596626,"current_range_meters":18000,"station_id":"ce4bhi12rcd13ifvqfq0","pricing_plan_id":"free"},{"bike_id":"608221f5-1d3a-4d6b-a493-c89ac30a0802","system_id":"levelo_inurba_marseille","lat":43.275028,"lon":5.424534,"is_reserved":false,"is_disabled":false,"rental_uris":{"android":"levelo://app?vid=608221f5-1d3a-4d6b-a493-c89ac30a0802","ios":"levelo://app?vid=608221f5-1d3a-4d6b-a493-c89ac30a0802"},"vehicle_type_id":"4","last_reported":1686596626,"current_range_meters":0,"station_id":"ce4bhn92rcd13ifvqgrg","pricing_plan_id":"free"},{"bike_id":"264cdbfc-f190-4442-a745-dc6641952cd2","system_id":"levelo_inurba_marseille","lat":43.25499,"lon":5.37651,"is_reserved":false,"is_disabled":false,"rental_uris":{"android":"levelo://app?vid=264cdbfc-f190-4442-a745-dc6641952cd2","ios":"levelo://app?vid=264cdbfc-f190-4442-a745-dc6641952cd2"},"vehicle_type_id":"4","last_reported":1686596626,"current_range_meters":31200,"station_id":"ce4bhh12rcd13ifvqff0","pricing_plan_id":"free"},{"bike_id":"7818be98-4337-4f49-8669-85dfe8f60c31","system_id":"levelo_inurba_marseille","lat":43.270721,"lon":5.422764,"is_reserved":false,"is_disabled":false,"rental_uris":{"android":"levelo://app?vid=7818be98-4337-4f49-8669-85dfe8f60c31","ios":"levelo://app?vid=7818be98-4337-4f49-8669-85dfe8f60c31"},"vehicle_type_id":"4","last_reported":1686596626,"current_range_meters":24000,"station_id":"ce4bhk92rcd13ifvqgb0","pricing_plan_id":"free"},{"bike_id":"0a0e3b88-ad8a-4594-88b4-56deb68ce24e","system_id":"levelo_inurba_marseille","lat":43.270721,"lon":5.422764,"is_reserved":false,"is_disabled":false,"rental_uris":{"android":"levelo://app?vid=0a0e3b88-ad8a-4594-88b4-56deb68ce24e","ios":"levelo://app?vid=0a0e3b88-ad8a-4594-88b4-56deb68ce24e"},"vehicle_type_id":"4","last_reported":1686596626,"current_range_meters":5200,"station_id":"ce4bhk92rcd13ifvqgb0","pricing_plan_id":"free"},{"bike_id":"a3377990-0813-459f-bdf7-3e4f30e52a04","system_id":"levelo_inurba_marseille","lat":43.28279,"lon":5.44306,"is_reserved":false,"is_disabled":false,"rental_uris":{"android":"levelo://app?vid=a3377990-0813-459f-bdf7-3e4f30e52a04","ios":"levelo://app?vid=a3377990-0813-459f-bdf7-3e4f30e52a04"},"vehicle_type_id":"4","last_reported":1686596626,"current_range_meters":18400,"station_id":"","pricing_plan_id":"free"},{"bike_id":"cd69837c-ebb3-4768-8ab7-c3e43a28af54","system_id":"levelo_inurba_marseille","lat":43.250009,"lon":5.389195,"is_reserved":false,"is_disabled":false,"rental_uris":{"android":"levelo://app?vid=cd69837c-ebb3-4768-8ab7-c3e43a28af54","ios":"levelo://app?vid=cd69837c-ebb3-4768-8ab7-c3e43a28af54"},"vehicle_type_id":"4","last_reported":1686596626,"current_range_meters":31200,"station_id":"ce4bhgp2rcd13ifvqfd0","pricing_plan_id":"free"},{"bike_id":"f8c5bf57-4621-45b3-8c6a-60f150864f8b","system_id":"levelo_inurba_marseille","lat":43.250009,"lon":5.389195,"is_reserved":false,"is_disabled":false,"rental_uris":{"android":"levelo://app?vid=f8c5bf57-4621-45b3-8c6a-60f150864f8b","ios":"levelo://app?vid=f8c5bf57-4621-45b3-8c6a-60f150864f8b"},"vehicle_type_id":"4","last_reported":1686596626,"current_range_meters":29600,"station_id":"ce4bhgp2rcd13ifvqfd0","pricing_plan_id":"free"},{"bike_id":"a461e144-dfa1-4b4b-9b52-6a80a1d0d572","system_id":"levelo_inurba_marseille","lat":43.24808,"lon":5.37454,"is_reserved":false,"is_disabled":false,"rental_uris":{"android":"levelo://app?vid=a461e144-dfa1-4b4b-9b52-6a80a1d0d572","ios":"levelo://app?vid=a461e144-dfa1-4b4b-9b52-6a80a1d0d572"},"vehicle_type_id":"4","last_reported":1686596626,"current_range_meters":31200,"station_id":"ce4bhgh2rcd13ifvqfb0","pricing_plan_id":"free"},{"bike_id":"c3eb2168-5ffa-4b5b-8011-9348d4e05182","system_id":"levelo_inurba_marseille","lat":43.24807,"lon":5.37455,"is_reserved":false,"is_disabled":false,"rental_uris":{"android":"levelo://app?vid=c3eb2168-5ffa-4b5b-8011-9348d4e05182","ios":"levelo://app?vid=c3eb2168-5ffa-4b5b-8011-9348d4e05182"},"vehicle_type_id":"4","last_reported":1686596626,"current_range_meters":31200,"station_id":"ce4bhgh2rcd13ifvqfb0","pricing_plan_id":"free"},