{"last_updated":1773909046,"ttl":60,"version":"2.2","data":{"bikes":[{"bike_id":"34f2f833-a5de-40d5-8f4d-0a2f83ae8f57","system_id":"levelo_inurba_marseille","lat":43.29245,"lon":5.36074,"is_reserved":false,"is_disabled":false,"rental_uris":{"android":"levelo://app?vid=34f2f833-a5de-40d5-8f4d-0a2f83ae8f57","ios":"levelo://app?vid=34f2f833-a5de-40d5-8f4d-0a2f83ae8f57"},"vehicle_type_id":"4","last_reported":1773909047,"current_range_meters":2800,"station_id":"ce4bhbh2rcd13ifvqeqg","pricing_plan_id":"cebpf4jnsgd1na2vs0mg"},{"bike_id":"f45d7712-3fd6-4c81-b832-9bf9f4621523","system_id":"levelo_inurba_marseille","lat":43.29619,"lon":5.37934,"is_reserved":false,"is_disabled":false,"rental_uris":{"android":"levelo://app?vid=f45d7712-3fd6-4c81-b832-9bf9f4621523","ios":"levelo://app?vid=f45d7712-3fd6-4c81-b832-9bf9f4621523"},"vehicle_type_id":"4","last_reported":1773909047,"current_range_meters":2800,"station_id":"","pricing_plan_id":"cebpf4jnsgd1na2vs0mg"},{"bike_id":"3734c7df-26cf-4b97-9070-348c5cc0e530","system_id":"levelo_inurba_marseille","lat":43.3028,"lon":5.37701,"is_reserved":false,"is_disabled":false,"rental_uris":{"android":"levelo://app?vid=3734c7df-26cf-4b97-9070-348c5cc0e530","ios":"levelo://app?vid=3734c7df-26cf-4b97-9070-348c5cc0e530"},"vehicle_type_id":"4","last_reported":1773909047,"current_range_meters":2800,"station_id":"ce4bguh2rcd13ifvqcj0","pricing_plan_id":"cebpf4jnsgd1na2vs0mg"},{"bike_id":"211e13a4-8553-4cba-bc36-2b4ecae54d77","system_id":"levelo_inurba_marseille","lat":43.240702,"lon":5.377619,"is_reserved":false,"is_disabled":false,"rental_uris":{"android":"levelo://app?vid=211e13a4-8553-4cba-bc36-2b4ecae54d77","ios":"levelo://app?vid=211e13a4-8553-4cba-bc36-2b4ecae54d77"},"vehicle_type_id":"4","last_reported":1773909047,"current_range_meters":2800,"station_id":"ce4bhnp2rcd13ifvqgvg","pricing_plan_id":"cebpf4jnsgd1na2vs0mg"},{"bike_id":"28aeb324-367a-4df0-a8e5-3178de82c22d","system_id":"levelo_inurba_marseille","lat":43.28281,"lon":5.35075,"is_reserved":false,"is_disabled":false,"rental_uris":{"android":"levelo://app?vid=28aeb324-367a-4df0-a8e5-3178de82c22d","ios":"levelo://app?vid=28aeb324-367a-4df0-a8e5-3178de82c22d"},"vehicle_type_id":"4","last_reported":1773909047,"current_range_meters":2800,"station_id":"ce4bhbp2rcd13ifvqerg","pricing_plan_id":"cebpf4jnsgd1na2vs0mg"},{"bike_id":"3206c205-26ee-44dd-92a5-e4e72860753f","system_id":"levelo_inurba_marseille","lat":43.3061,"lon":5.37865,"is_reserved":false,"is_disabled":false,"rental_uris":{"android":"levelo://app?vid=3206c205-26ee-44dd-92a5-e4e72860753f","ios":"levelo://app?vid=3206c205-26ee-44dd-92a5-e4e72860753f"},"vehicle_type_id":"4","last_reported":1773909047,"current_range_meters":2800,"station_id":"","pricing_plan_id":"cebpf4jnsgd1na2vs0mg"},{"bike_id":"032692c2-e8ca-40e7-9c05-3713e043006b","system_id":"levelo_inurba_marseille","lat":43.23892,"lon":5.37469,"is_reserved":false,"is_disabled":false,"rental_uris":{"android":"levelo://app?vid=032692c2-e8ca-40e7-9c05-3713e043006b","ios":"levelo://app?vid=032692c2-e8ca-40e7-9c05-3713e043006b"},"vehicle_type_id":"4","last_reported":1773909047,"current_range_meters":2800,"station_id":"st_d6sm7csbq4hs73f8fpjg","pricing_plan_id":"cebpf4jnsgd1na2vs0mg"},{"bike_id":"51130f5c-24e8-4dd0-80b8-58fa109ebc72","system_id":"levelo_inurba_marseille","lat":43.30179,"lon":5.3662,"is_reserved":false,"is_disabled":false,"rental_uris":{"android":"levelo://app?vid=51130f5c-24e8-4dd0-80b8-58fa109ebc72","ios":"levelo://app?vid=51130f5c-24e8-4dd0-80b8-58fa109ebc72"},"vehicle_type_id":"4","last_reported":1773909047,"current_range_meters":2800,"station_id":"ce4bgrh2rcd13ifvqc8g","pricing_plan_id":"cebpf4jnsgd1na2vs0mg"},{"bike_id":"e86a3546-f0dc-4b35-827f-9e1628b653d3","system_id":"levelo_inurba_marseille","lat":43.30167,"lon":5.36628,"is_reserved":false,"is_disabled":false,"rental_uris":{"android":"levelo://app?vid=e86a3546-f0dc-4b35-827f-9e1628b653d3","ios":"levelo://app?vid=e86a3546-f0dc-4b35-827f-9e1628b653d3"},"vehicle_type_id":"4","last_reported":1773909047,"current_range_meters":2800,"station_id":"ce4bgrh2rcd13ifvqc8g","pricing_plan_id":"cebpf4jnsgd1na2vs0mg"},{"bike_id":"3feb4c73-6e63-47f9-927f-446525b49f72","system_id":"levelo_inurba_marseille","lat":43.31896,"lon":5.36808,"is_reserved":false,"is_disabled":false,"rental_uris":{"android":"levelo://app?vid=3feb4c73-6e63-47f9-927f-446525b49f72","ios":"levelo://app?vid=3feb4c73-6e63-47f9-927f-446525b49f72"},"vehicle_type_id":"4","last_reported":1773909047,"current_range_meters":2800,"station_id":"st_d6o2h0d0559c73evc1b0","pricing_plan_id":"cebpf4jnsgd1na2vs0mg"},{"bike_id":"6a89d8ab-bbe3-4732-bdda-bf03c36f8a07","system_id":"levelo_inurba_marseille","lat":43.29194,"lon":5.39309,"is_reserved":false,"is_disabled":false,"rental_uris":{"android":"levelo://app?vid=6a89d8ab-bbe3-4732-bdda-bf03c36f8a07","ios":"levelo://app?vid=6a89d8ab-bbe3-4732-bdda-bf03c36f8a07"},"vehicle_type_id":"4","last_reported":1773909047,"current_range_meters":3200,"station_id":"ce4bh192rcd13ifvqdd0","pricing_plan_id":"cebpf4jnsgd1na2vs0mg"},{"bike_id":"7ac6a13a-26e2-4b6c-bedc-5f35ba13c658","system_id":"levelo_inurba_marseille","lat":43.28859,"lon":5.39378,"is_reserved":false,"is_disabled":false,"rental_uris":{"android":"levelo://app?vid=7ac6a13a-26e2-4b6c-bedc-5f35ba13c658","ios":"levelo://app?vid=7ac6a13a-26e2-4b6c-bedc-5f35ba13c658"},"vehicle_type_id":"4","last_reported":1773909047,"current_range_meters":3200,"station_id":"","pricing_plan_id":"cebpf4jnsgd1na2vs0mg"},{"bike_id":"c3b8d42e-c6cb-428b-9a9c-4adf659dc89a","system_id":"levelo_inurba_marseille","lat":43.261921,"lon":5.374489,"is_reserved":false,"is_disabled":false,"rental_uris":{"android":"levelo://app?vid=c3b8d42e-c6cb-428b-9a9c-4adf659dc89a","ios":"levelo://app?vid=c3b8d42e-c6cb-428b-9a9c-4adf659dc89a"},"vehicle_type_id":"4","last_reported":1773909047,"current_range_meters":3200,"station_id":"ce4bhgp2rcd13ifvqfc0","pricing_plan_id":"cebpf4jnsgd1na2vs0mg"},{"bike_id":"4ad80934-374e-4334-9451-9d7e564aa9e6","system_id":"levelo_inurba_marseille","lat":43.3135,"lon":5.36733,"is_reserved":false,"is_disabled":false,"rental_uris":{"android":"levelo://app?vid=4ad80934-374e-4334-9451-9d7e564aa9e6","ios":"levelo://app?vid=4ad80934-374e-4334-9451-9d7e564aa9e6"},"vehicle_type_id":"4","last_reported":1773909047,"current_range_meters":3200,"station_id":"ce4bgr92rcd13ifvqc6g","pricing_plan_id":"cebpf4jnsgd1na2vs0mg"},{"bike_id":"a549a2bf-089f-4f4a-9c0e-34a203fd9800","system_id":"levelo_inurba_marseille","lat":43.3019,"lon":5.36619,"is_reserved":false,"is_disabled":false,"rental_uris":{"android":"levelo://app?vid=a549a2bf-089f-4f4a-9c0e-34a203fd9800","ios":"levelo://app?vid=a549a2bf-089f-4f4a-9c0e-34a203fd9800"},"vehicle_type_id":"4","last_reported":1773909047,"current_range_meters":3200,"station_id":"ce4bgrh2rcd13ifvqc8g","pricing_plan_id":"cebpf4jnsgd1na2vs0mg"},{"bike_id":"4cb34c35-2880-4dd2-abd8-ee5da50b1009","system_id":"levelo_inurba_marseille","lat":43.29024,"lon":5.39991,"is_reserved":false,"is_disabled":false,"rental_uris":{"android":"levelo://app?vid=4cb34c35-2880-4dd2-abd8-ee5da50b1009","ios":"levelo://app?vid=4cb34c35-2880-4dd2-abd8-ee5da50b1009"},"vehicle_type_id":"4","last_reported":1773909047,"current_range_meters":3200,"station_id":"ce4bh392rcd13ifvqdm0","pricing_plan_id":"cebpf4jnsgd1na2vs0mg"},{"bike_id":"8719a8bd-211a-46f5-92a2-b56ee4431850","system_id":"levelo_inurba_marseille","lat":43.26684,"lon":5.38273,"is_reserved":false,"is_disabled":false,"rental_uris":{"android":"levelo://app?vid=8719a8bd-211a-46f5-92a2-b56ee4431850","ios":"levelo://app?vid=8719a8bd-211a-46f5-92a2-b56ee4431850"},"vehicle_type_id":"4","last_reported":1773909047,"current_range_meters":3200,"station_id":"ce4bhg92rcd13ifvqf90","pricing_plan_id":"cebpf4jnsgd1na2vs0mg"},{"bike_id":"7f500eb3-0237-4d8c-b5ea-89a50ae4ebbe","system_id":"levelo_inurba_marseille","lat":43.29554,"lon":5.39411,"is_reserved":false,"is_disabled":false,"rental_uris":{"android":"levelo://app?vid=7f500eb3-0237-4d8c-b5ea-89a50ae4ebbe","ios":"levelo://app?vid=7f500eb3-0237-4d8c-b5ea-89a50ae4ebbe"},"vehicle_type_id":"4","last_reported":1773909047,"current_range_meters":3200,"station_id":"ce4bh292rcd13ifvqdf0","pricing_plan_id":"cebpf4jnsgd1na2vs0mg"},{"bike_id":"e563383a-8a89-4304-b11f-18268886193e","system_id":"levelo_inurba_marseille","lat":43.25572,"lon":5.38239,"is_reserved":false,"is_disabled":false,"rental_uris":{"android":"levelo://app?vid=e563383a-8a89-4304-b11f-18268886193e","ios":"levelo://app?vid=e563383a-8a89-4304-b11f-18268886193e"},"vehicle_type_id":"4","last_reported":1773909047,"current_range_meters":3200,"station_id":"ce4bhih2rcd13ifvqfs0","pricing_plan_id":"cebpf4jnsgd1na2vs0mg"},{"bike_id":"b479353b-fe14-4392-b2d7-5de9d2a8735a","system_id":"levelo_inurba_marseille","lat":43.32236,"lon":5.43808,"is_reserved":false,"is_disabled":false,"rental_uris":{"android":"levelo://app?vid=b479353b-fe14-4392-b2d7-5de9d2a8735a","ios":"levelo://app?vid=b479353b-fe14-4392-b2d7-5de9d2a8735a"},"vehicle_type_id":"4","last_reported":1773909047,"current_range_meters":3200,"station_id":"","pricing_plan_id":"cebpf4jnsgd1na2vs0mg"},{"bike_id":"f7315d1e-73c8-4876-9e17-aedad5ed61d7","system_id":"levelo_inurba_marseille","lat":43.31138,"lon":5.3864,"is_reserved":false,"is_disabled":false,"rental_uris":{"android":"levelo://app?vid=f7315d1e-73c8-4876-9e17-aedad5ed61d7","ios":"levelo://app?vid=f7315d1e-73c8-4876-9e17-aedad5ed61d7"},"vehicle_type_id":"4","last_reported":1773909047,"current_range_meters":3200,"station_id":"","pricing_plan_id":"cebpf4jnsgd1na2vs0mg"},{"bike_id":"50e0584e-4dc0-49b6-950a-79953725031f","system_id":"levelo_inurba_marseille","lat":43.23073,"lon":5.35492,"is_reserved":false,"is_disabled":false,"rental_uris":{"android":"levelo://app?vid=50e0584e-4dc0-49b6-950a-79953725031f","ios":"levelo://app?vid=50e0584e-4dc0-49b6-950a-79953725031f"},"vehicle_type_id":"4","last_reported":1773909047,"current_range_meters":3200,"station_id":"cpo3342slgdg3j2ifvpg","pricing_plan_id":"cebpf4jnsgd1na2vs0mg"},{"bike_id":"2706db3b-3f01-4b6b-a1e9-42e6bda22571","system_id":"levelo_inurba_marseille","lat":43.26163,"lon":5.37292,"is_reserved":false,"is_disabled":false,"rental_uris":{"android":"levelo://app?vid=2706db3b-3f01-4b6b-a1e9-42e6bda22571","ios":"levelo://app?vid=2706db3b-3f01-4b6b-a1e9-42e6bda22571"},"vehicle_type_id":"4","last_reported":1773909047,"current_range_meters":3200,"station_id":"","pricing_plan_id":"cebpf4jnsgd1na2vs0mg"},{"bike_id":"b8233da9-3d92-4507-90ab-bbd6636ab5c3","system_id":"levelo_inurba_marseille","lat":43.30148,"lon":5.39107,"is_reserved":false,"is_disabled":false,"rental_uris":{"android":"levelo://app?vid=b8233da9-3d92-4507-90ab-bbd6636ab5c3","ios":"levelo://app?vid=b8233da9-3d92-4507-90ab-bbd6636ab5c3"},"vehicle_type_id":"4","last_reported":1773909047,"current_range_meters":3200,"station_id":"","pricing_plan_id":"cebpf4jnsgd1na2vs0mg"},{"bike_id":"b1678298-3f5b-4e9b-bb34-63fa7c9d9c9c","system_id":"levelo_inurba_marseille","lat":43.28477,"lon":5.48389,"is_reserved":false,"is_disabled":false,"rental_uris":{"android":"levelo://app?vid=b1678298-3f5b-4e9b-bb34-63fa7c9d9c9c","ios":"levelo://app?vid=b1678298-3f5b-4e9b-bb34-63fa7c9d9c9c"},"vehicle_type_id":"4","last_reported":1773909047,"current_range_meters":3600,"station_id":"","pricing_plan_id":"cebpf4jnsgd1na2vs0mg"},{"bike_id":"962b5809-08d5-4f64-9a05-d98be451d928","system_id":"levelo_inurba_marseille","lat":43.262073,"lon":5.37442,"is_reserved":false,"is_disabled":false,"rental_uris":{"android":"levelo://app?vid=962b5809-08d5-4f64-9a05-d98be451d928","ios":"levelo://app?vid=962b5809-08d5-4f64-9a05-d98be451d928"},"vehicle_type_id":"4","last_reported":1773909047,"current_range_meters":3600,"station_id":"ce4bhgp2rcd13ifvqfc0","pricing_plan_id":"cebpf4jnsgd1na2vs0mg"},{"bike_id":"641fadc8-18c8-4da9-af42-22c7c4e3360c","system_id":"levelo_inurba_marseille","lat":43.24804,"lon":5.37461,"is_reserved":false,"is_disabled":false,"rental_uris":{"android":"levelo://app?vid=641fadc8-18c8-4da9-af42-22c7c4e3360c","ios":"levelo://app?vid=641fadc8-18c8-4da9-af42-22c7c4e3360c"},"vehicle_type_id":"4","last_reported":1773909047,"current_range_meters":3600,"station_id":"ce4bhgh2rcd13ifvqfb0","pricing_plan_id":"cebpf4jnsgd1na2vs0mg"},{"bike_id":"9d99e656-43f9-4521-b575-035a903587ec","system_id":"levelo_inurba_marseille","lat":43.28581,"lon":5.39486,"is_reserved":false,"is_disabled":false,"rental_uris":{"android":"levelo://app?vid=9d99e656-43f9-4521-b575-035a903587ec","ios":"levelo://app?vid=9d99e656-43f9-4521-b575-035a903587ec"},"vehicle_type_id":"4","last_reported":1773909047,"current_range_meters":3600,"station_id":"ce4bh292rcd13ifvqdg0","pricing_plan_id":"cebpf4jnsgd1na2vs0mg"},{"bike_id":"24d974e5-bba3-4c89-b8a7-c466f3f80f92","system_id":"levelo_inurba_marseille","lat":43.30545,"lon":5.36721,"is_reserved":false,"is_disabled":false,"rental_uris":{"android":"levelo://app?vid=24d974e5-bba3-4c89-b8a7-c466f3f80f92","ios":"levelo://app?vid=24d974e5-bba3-4c89-b8a7-c466f3f80f92"},"vehicle_type_id":"4","last_reported":1773909047,"current_range_meters":3600,"station_id":"ce4bgrp2rcd13ifvqc9g","pricing_plan_id":"cebpf4jnsgd1na2vs0mg"},{"bike_id":"1b59590e-e328-4e92-856f-c235b636532c","system_id":"levelo_inurba_marseille","lat":43.30307,"lon":5.36891,"is_reserved":false,"is_disabled":false,"rental_uris":{"android":"levelo://app?vid=1b59590e-e328-4e92-856f-c235b636532c","ios":"levelo://app?vid=1b59590e-e328-4e92-856f-c235b636532c"},"vehicle_type_id":"4","last_reported":1773909047,"current_range_meters":3600,"station_id":"ce4bgqh2rcd13ifvqc5g","pricing_plan_id":"cebpf4jnsgd1na2vs0mg"},{"bike_id":"15d16198-178f-4581-9c99-d0f097b847d4","system_id":"levelo_inurba_marseille","lat":43.28666,"lon":5.44213,"is_reserved":false,"is_disabled":false,"rental_uris":{"android":"levelo://app?vid=15d16198-178f-4581-9c99-d0f097b847d4","ios":"levelo://app?vid=15d16198-178f-4581-9c99-d0f097b847d4"},"vehicle_type_id":"4","last_reported":1773909047,"current_range_meters":3600,"station_id":"","pricing_plan_id":"cebpf4jnsgd1na2vs0mg"},{"bike_id":"7c245f6b-63fb-4c36-8493-afb8fd5288f8","system_id":"levelo_inurba_marseille","lat":43.31214,"lon":5.39097,"is_reserved":false,"is_disabled":false,"rental_uris":{"android":"levelo://app?vid=7c245f6b-63fb-4c36-8493-afb8fd5288f8","ios":"levelo://app?vid=7c245f6b-63fb-4c36-8493-afb8fd5288f8"},"vehicle_type_id":"4","last_reported":1773909047,"current_range_meters":3600,"station_id":"","pricing_plan_id":"cebpf4jnsgd1na2vs0mg"},{"bike_id":"4cb6ad81-5494-4e4b-921c-b1bc303d077b","system_id":"levelo_inurba_marseille","lat":43.30184,"lon":5.38084,"is_reserved":false,"is_disabled":false,"rental_uris":{"android":"levelo://app?vid=4cb6ad81-5494-4e4b-921c-b1bc303d077b","ios":"levelo://app?vid=4cb6ad81-5494-4e4b-921c-b1bc303d077b"},"vehicle_type_id":"4","last_reported":1773909047,"current_range_meters":3600,"station_id":"ce4bgjp2rcd13ifvqbh0","pricing_plan_id":"cebpf4jnsgd1na2vs0mg"},{"bike_id":"03805ab2-144d-4468-8570-21df18f3ebcc","system_id":"levelo_inurba_marseille","lat":43.232,"lon":5.3555,"is_reserved":false,"is_disabled":false,"rental_uris":{"android":"levelo://app?vid=03805ab2-144d-4468-8570-21df18f3ebcc","ios":"levelo://app?vid=03805ab2-144d-4468-8570-21df18f3ebcc"},"vehicle_type_id":"4","last_reported":1773909047,"current_range_meters":3600,"station_id":"ce4bhu92rcd13ifvqi70","pricing_plan_id":"cebpf4jnsgd1na2vs0mg"},{"bike_id":"5252fe12-c97f-41b9-b9fc-769280624f62","system_id":"levelo_inurba_marseille","lat":43.27347,"lon":5.3907,"is_reserved":false,"is_disabled":false,"rental_uris":{"android":"levelo://app?vid=5252fe12-c97f-41b9-b9fc-769280624f62","ios":"levelo://app?vid=5252fe12-c97f-41b9-b9fc-769280624f62"},"vehicle_type_id":"4","last_reported":1773909047,"current_range_meters":4000,"station_id":"ce4bhgp2rcd13ifvqfe0","pricing_plan_id":"cebpf4jnsgd1na2vs0mg"},{"bike_id":"5032ee4c-643b-4fa7-8a5c-8d5e764831f6","system_id":"levelo_inurba_marseille","lat":43.21748,"lon":5.34612,"is_reserved":false,"is_disabled":false,"rental_uris":{"android":"levelo://app?vid=5032ee4c-643b-4fa7-8a5c-8d5e764831f6","ios":"levelo://app?vid=5032ee4c-643b-4fa7-8a5c-8d5e764831f6"},"vehicle_type_id":"4","last_reported":1773909047,"current_range_meters":4000,"station_id":"st_cvj6r9ubvosntc0bgbag","pricing_plan_id":"cebpf4jnsgd1na2vs0mg"},{"bike_id":"e2ef51d4-1505-4176-8b0f-d0250ea83c14","system_id":"levelo_inurba_marseille","lat":43.26695,"lon":5.38267,"is_reserved":false,"is_disabled":false,"rental_uris":{"android":"levelo://app?vid=e2ef51d4-1505-4176-8b0f-d0250ea83c14","ios":"levelo://app?vid=e2ef51d4-1505-4176-8b0f-d0250ea83c14"},"vehicle_type_id":"4","last_reported":1773909047,"current_range_meters":4000,"station_id":"ce4bhg92rcd13ifvqf90","pricing_plan_id":"cebpf4jnsgd1na2vs0mg"},{"bike_id":"cbc8599d-0f53-4276-b29f-85b323d36cb9","system_id":"levelo_inurba_marseille","lat":43.25496,"lon":5.37646,"is_reserved":false,"is_disabled":false,"rental_uris":{"android":"levelo://app?vid=cbc8599d-0f53-4276-b29f-85b323d36cb9","ios":"levelo://app?vid=cbc8599d-0f53-4276-b29f-85b323d36cb9"},"vehicle_type_id":"4","last_reported":1773909047,"current_range_meters":4000,"station_id":"ce4bhh12rcd13ifvqff0","pricing_plan_id":"cebpf4jnsgd1na2vs0mg"},{"bike_id":"442cea1b-010c-4b60-9f0f-ddd0e028d919","system_id":"levelo_inurba_marseille","lat":43.2955,"lon":5.38532,"is_reserved":false,"is_disabled":false,"rental_uris":{"android":"levelo://app?vid=442cea1b-010c-4b60-9f0f-ddd0e028d919","ios":"levelo://app?vid=442cea1b-010c-4b60-9f0f-ddd0e028d919"},"vehicle_type_id":"4","last_reported":1773909047,"current_range_meters":4000,"station_id":"ce4bgih2rcd13ifvqba0","pricing_plan_id":"cebpf4jnsgd1na2vs0mg"},{"bike_id":"9c128561-aa22-4f83-ae42-9e502839f984","system_id":"levelo_inurba_marseille","lat":43.29601,"lon":5.37726,"is_reserved":false,"is_disabled":false,"rental_uris":{"android":"levelo://app?vid=9c128561-aa22-4f83-ae42-9e502839f984","ios":"levelo://app?vid=9c128561-aa22-4f83-ae42-9e502839f984"},"vehicle_type_id":"4","last_reported":1773909047,"current_range_meters":4000,"station_id":"ce4bgi92rcd13ifvqb90","pricing_plan_id":"cebpf4jnsgd1na2vs0mg"},{"bike_id":"5f48b784-ccd6-4c4d-ba2a-b915cab8937a","system_id":"levelo_inurba_marseille","lat":43.24079,"lon":5.37755,"is_reserved":false,"is_disabled":false,"rental_uris":{"android":"levelo://app?vid=5f48b784-ccd6-4c4d-ba2a-b915cab8937a","ios":"levelo://app?vid=5f48b784-ccd6-4c4d-ba2a-b915cab8937a"},"vehicle_type_id":"4","last_reported":1773909047,"current_range_meters":4000,"station_id":"ce4bhnp2rcd13ifvqgvg","pricing_plan_id":"cebpf4jnsgd1na2vs0mg"},{"bike_id":"88ca1256-842c-47b4-a8b2-16b0eb7ac6cd","system_id":"levelo_inurba_marseille","lat":43.27676,"lon":5.38872,"is_reserved":false,"is_disabled":false,"rental_uris":{"android":"levelo://app?vid=88ca1256-842c-47b4-a8b2-16b0eb7ac6cd","ios":"levelo://app?vid=88ca1256-842c-47b4-a8b2-16b0eb7ac6cd"},"vehicle_type_id":"4","last_reported":1773909047,"current_range_meters":4000,"station_id":"ce4bhi12rcd13ifvqfo0","pricing_plan_id":"cebpf4jnsgd1na2vs0mg"},{"bike_id":"8ffa06ae-b4c3-4139-b95e-aafe549f6920","system_id":"levelo_inurba_marseille","lat":43.24084,"lon":5.37703,"is_reserved":false,"is_disabled":false,"rental_uris":{"android":"levelo://app?vid=8ffa06ae-b4c3-4139-b95e-aafe549f6920","ios":"levelo://app?vid=8ffa06ae-b4c3-4139-b95e-aafe549f6920"},"vehicle_type_id":"4","last_reported":1773909047,"current_range_meters":4000,"station_id":"ce4bhnp2rcd13ifvqgvg","pricing_plan_id":"cebpf4jnsgd1na2vs0mg"},{"bike_id":"eaa9d3c5-f89d-4396-8235-4030217e81cb","system_id":"levelo_inurba_marseille","lat":43.25468,"lon":5.37654,"is_reserved":false,"is_disabled":false,"rental_uris":{"android":"levelo://app?vid=eaa9d3c5-f89d-4396-8235-4030217e81cb","ios":"levelo://app?vid=eaa9d3c5-f89d-4396-8235-4030217e81cb"},"vehicle_type_id":"4","last_reported":1773909047,"current_range_meters":4000,"station_id":"ce4bhh12rcd13ifvqff0","pricing_plan_id":"cebpf4jnsgd1na2vs0mg"},{"bike_id":"3064287c-8ed3-41e8-93b5-31fa274eed05","system_id":"levelo_inurba_marseille","lat":43.29504,"lon":5.40115,"is_reserved":false,"is_disabled":true,"rental_uris":{"android":"levelo://app?vid=3064287c-8ed3-41e8-93b5-31fa274eed05","ios":"levelo://app?vid=3064287c-8ed3-41e8-93b5-31fa274eed05"},"vehicle_type_id":"4","last_reported":1773909047,"current_range_meters":4000,"station_id":"","pricing_plan_id":"cebpf4jnsgd1na2vs0mg"},{"bike_id":"72d70f4f-b95b-40da-ba95-d8605ea5e62e","system_id":"levelo_inurba_marseille","lat":43.2904,"lon":5.39951,"is_reserved":false,"is_disabled":false,"rental_uris":{"android":"levelo://app?vid=72d70f4f-b95b-40da-ba95-d8605ea5e62e","ios":"levelo://app?vid=72d70f4f-b95b-40da-ba95-d8605ea5e62e"},"vehicle_type_id":"4","last_reported":1773909047,"current_range_meters":4000,"station_id":"ce4bh392rcd13ifvqdm0","pricing_plan_id":"cebpf4jnsgd1na2vs0mg"},{"bike_id":"a39c2269-c1be-4679-b7ec-7b13e4b25bad","system_id":"levelo_inurba_marseille","lat":43.32491,"lon":5.38781,"is_reserved":false,"is_disabled":true,"rental_uris":{"android":"levelo://app?vid=a39c2269-c1be-4679-b7ec-7b13e4b25bad","ios":"levelo://app?vid=a39c2269-c1be-4679-b7ec-7b13e4b25bad"},"vehicle_type_id":"4","last_reported":1773909047,"current_range_meters":4000,"station_id":"","pricing_plan_id":"cebpf4jnsgd1na2vs0mg"},{"bike_id":"ec353870-38d4-45b2-8733-694b6044316c","system_id":"levelo_inurba_marseille","lat":43.31391,"lon":5.36759,"is_reserved":false,"is_disabled":false,"rental_uris":{"android":"levelo://app?vid=ec353870-38d4-45b2-8733-694b6044316c","ios":"levelo://app?vid=ec353870-38d4-45b2-8733-694b6044316c"},"vehicle_type_id":"4","last_reported":1773909047,"current_range_meters":4000,"station_id":"","pricing_plan_id":"cebpf4jnsgd1na2vs0mg"},{"bike_id":"779b8a3c-1846-46b5-9cab-bf0ec2b1118f","system_id":"levelo_inurba_marseille","lat":43.28485,"lon":5.48387,"is_reserved":false,"is_disabled":false,"rental_uris":{"android":"levelo://app?vid=779b8a3c-1846-46b5-9cab-bf0ec2b1118f","ios":"levelo://app?vid=779b8a3c-1846-46b5-9cab-bf0ec2b1118f"},"vehicle_type_id":"4","last_reported":1773909047,"current_range_meters":4000,"station_id":"st_d3svhcjqgbts73a3dn0g","pricing_plan_id":"cebpf4jnsgd1na2vs0mg"},{"bike_id":"b4e54967-4eb4-45f5-a80e-01baddc6b232","system_id":"levelo_inurba_marseille","lat":43.2927,"lon":5.40127,"is_reserved":false,"is_disabled":true,"rental_uris":{"android":"levelo://app?vid=b4e54967-4eb4-45f5-a80e-01baddc6b232","ios":"levelo://app?vid=b4e54967-4eb4-45f5-a80e-01baddc6b232"},"vehicle_type_id":"4","last_reported":1773909047,"current_range_meters":4400,"station_id":"ce4bh312rcd13ifvqdk0","pricing_plan_id":"cebpf4jnsgd1na2vs0mg"},{"bike_id":"ccf4cbaf-a48e-4a3a-bd43-50421be7ff22","system_id":"levelo_inurba_marseille","lat":43.273315,"lon":5.390669,"is_reserved":false,"is_disabled":true,"rental_uris":{"android":"levelo://app?vid=ccf4cbaf-a48e-4a3a-bd43-50421be7ff22","ios":"levelo://app?vid=ccf4cbaf-a48e-4a3a-bd43-50421be7ff22"},"vehicle_type_id":"4","last_reported":1773909047,"current_range_meters":4400,"station_id":"ce4bhgp2rcd13ifvqfe0","pricing_plan_id":"cebpf4jnsgd1na2vs0mg"},{"bike_id":"463475ad-696b-4a48-aa2e-edd863644959","system_id":"levelo_inurba_marseille","lat":43.27831,"lon":5.40742,"is_reserved":false,"is_disabled":false,"rental_uris":{"android":"levelo://app?vid=463475ad-696b-4a48-aa2e-edd863644959","ios":"levelo://app?vid=463475ad-696b-4a48-aa2e-edd863644959"},"vehicle_type_id":"4","last_reported":1773909047,"current_range_meters":4400,"station_id":"ce4bhnh2rcd13ifvqgtg","pricing_plan_id":"cebpf4jnsgd1na2vs0mg"},{"bike_id":"868b464c-59ab-4f59-8cc8-371ee88f50df","system_id":"levelo_inurba_marseille","lat":43.30533,"lon":5.36702,"is_reserved":false,"is_disabled":false,"rental_uris":{"android":"levelo://app?vid=868b464c-59ab-4f59-8cc8-371ee88f50df","ios":"levelo://app?vid=868b464c-59ab-4f59-8cc8-371ee88f50df"},"vehicle_type_id":"4","last_reported":1773909047,"current_range_meters":4400,"station_id":"ce4bgrp2rcd13ifvqc9g","pricing_plan_id":"cebpf4jnsgd1na2vs0mg"},{"bike_id":"f992aeeb-d813-4a07-b667-bac32cecf243","system_id":"levelo_inurba_marseille","lat":43.28159,"lon":5.42634,"is_reserved":false,"is_disabled":false,"rental_uris":{"android":"levelo://app?vid=f992aeeb-d813-4a07-b667-bac32cecf243","ios":"levelo://app?vid=f992aeeb-d813-4a07-b667-bac32cecf243"},"vehicle_type_id":"4","last_reported":1773909047,"current_range_meters":4400,"station_id":"ce4bhnh2rcd13ifvqgug","pricing_plan_id":"cebpf4jnsgd1na2vs0mg"},{"bike_id":"a9d31829-7e0d-482f-af05-97ddd320ae16","system_id":"levelo_inurba_marseille","lat":43.29809,"lon":5.42721,"is_reserved":false,"is_disabled":true,"rental_uris":{"android":"levelo://app?vid=a9d31829-7e0d-482f-af05-97ddd320ae16","ios":"levelo://app?vid=a9d31829-7e0d-482f-af05-97ddd320ae16"},"vehicle_type_id":"4","last_reported":1773909047,"current_range_meters":4400,"station_id":"","pricing_plan_id":"cebpf4jnsgd1na2vs0mg"},{"bike_id":"5bd8abc7-3678-4a26-92ef-cd8e416f7a05","system_id":"levelo_inurba_marseille","lat":43.30617,"lon":5.36671,"is_reserved":false,"is_disabled":false,"rental_uris":{"android":"levelo://app?vid=5bd8abc7-3678-4a26-92ef-cd8e416f7a05","ios":"levelo://app?vid=5bd8abc7-3678-4a26-92ef-cd8e416f7a05"},"vehicle_type_id":"4","last_reported":1773909047,"current_range_meters":4400,"station_id":"","pricing_plan_id":"cebpf4jnsgd1na2vs0mg"},{"bike_id":"0c5fe3ee-2ff5-4dff-892a-ecd63d863d49","system_id":"levelo_inurba_marseille","lat":43.30292,"lon":5.37704,"is_reserved":false,"is_disabled":false,"rental_uris":{"android":"levelo://app?vid=0c5fe3ee-2ff5-4dff-892a-ecd63d863d49","ios":"levelo://app?vid=0c5fe3ee-2ff5-4dff-892a-ecd63d863d49"},"vehicle_type_id":"4","last_reported":1773909047,"current_range_meters":4400,"station_id":"ce4bguh2rcd13ifvqcj0","pricing_plan_id":"cebpf4jnsgd1na2vs0mg"},{"bike_id":"e107cb22-a13d-4c03-93ce-8114e06b9a0f","system_id":"levelo_inurba_marseille","lat":43.28493,"lon":5.48398,"is_reserved":false,"is_disabled":false,"rental_uris":{"android":"levelo://app?vid=e107cb22-a13d-4c03-93ce-8114e06b9a0f","ios":"levelo://app?vid=e107cb22-a13d-4c03-93ce-8114e06b9a0f"},"vehicle_type_id":"4","last_reported":1773909047,"current_range_meters":4400,"station_id":"","pricing_plan_id":"cebpf4jnsgd1na2vs0mg"},{"bike_id":"d3b0c3f9-7243-45ee-a409-811872e77368","system_id":"levelo_inurba_marseille","lat":43.29519,"lon":5.39402,"is_reserved":false,"is_disabled":false,"rental_uris":{"android":"levelo://app?vid=d3b0c3f9-7243-45ee-a409-811872e77368","ios":"levelo://app?vid=d3b0c3f9-7243-45ee-a409-811872e77368"},"vehicle_type_id":"4","last_reported":1773909047,"current_range_meters":4400,"station_id":"ce4bh292rcd13ifvqdf0","pricing_plan_id":"cebpf4jnsgd1na2vs0mg"},{"bike_id":"97e35704-b2c8-428b-84b8-1711d250d1a4","system_id":"levelo_inurba_marseille","lat":43.28478,"lon":5.35896,"is_reserved":false,"is_disabled":false,"rental_uris":{"android":"levelo://app?vid=97e35704-b2c8-428b-84b8-1711d250d1a4","ios":"levelo://app?vid=97e35704-b2c8-428b-84b8-1711d250d1a4"},"vehicle_type_id":"4","last_reported":1773909047,"current_range_meters":4400,"station_id":"ce4bhah2rcd13ifvqei0","pricing_plan_id":"cebpf4jnsgd1na2vs0mg"},{"bike_id":"2e2b2a2e-280a-4592-b815-9ff100deb32d","system_id":"levelo_inurba_marseille","lat":43.24183,"lon":5.39725,"is_reserved":false,"is_disabled":false,"rental_uris":{"android":"levelo://app?vid=2e2b2a2e-280a-4592-b815-9ff100deb32d","ios":"levelo://app?vid=2e2b2a2e-280a-4592-b815-9ff100deb32d"},"vehicle_type_id":"4","last_reported":1773909047,"current_range_meters":4400,"station_id":"ce4bhn12rcd13ifvqgpg","pricing_plan_id":"cebpf4jnsgd1na2vs0mg"},{"bike_id":"768a8c01-41df-42a9-9687-055ac84fde99","system_id":"levelo_inurba_marseille","lat":43.24654,"lon":5.38921,"is_reserved":false,"is_disabled":false,"rental_uris":{"android":"levelo://app?vid=768a8c01-41df-42a9-9687-055ac84fde99","ios":"levelo://app?vid=768a8c01-41df-42a9-9687-055ac84fde99"},"vehicle_type_id":"4","last_reported":1773909047,"current_range_meters":4400,"station_id":"ce4bhg12rcd13ifvqf60","pricing_plan_id":"cebpf4jnsgd1na2vs0mg"},{"bike_id":"ad261fab-7885-4780-a277-e4835ccf8740","system_id":"levelo_inurba_marseille","lat":43.291229,"lon":5.386764,"is_reserved":false,"is_disabled":false,"rental_uris":{"android":"levelo://app?vid=ad261fab-7885-4780-a277-e4835ccf8740","ios":"levelo://app?vid=ad261fab-7885-4780-a277-e4835ccf8740"},"vehicle_type_id":"4","last_reported":1773909047,"current_range_meters":4400,"station_id":"cjm6bp8fraef2m0cb0m0","pricing_plan_id":"cebpf4jnsgd1na2vs0mg"},{"bike_id":"9ef9fd3b-08e1-41bf-bbd1-087477917b48","system_id":"levelo_inurba_marseille","lat":43.31212,"lon":5.36874,"is_reserved":false,"is_disabled":false,"rental_uris":{"android":"levelo://app?vid=9ef9fd3b-08e1-41bf-bbd1-087477917b48","ios":"levelo://app?vid=9ef9fd3b-08e1-41bf-bbd1-087477917b48"},"vehicle_type_id":"4","last_reported":1773909047,"current_range_meters":4800,"station_id":"ce4bgl92rcd13ifvqbq0","pricing_plan_id":"cebpf4jnsgd1na2vs0mg"},{"bike_id":"0500064c-31d4-4e57-9a37-ee03cdf6620b","system_id":"levelo_inurba_marseille","lat":43.26945,"lon":5.38636,"is_reserved":false,"is_disabled":false,"rental_uris":{"android":"levelo://app?vid=0500064c-31d4-4e57-9a37-ee03cdf6620b","ios":"levelo://app?vid=0500064c-31d4-4e57-9a37-ee03cdf6620b"},"vehicle_type_id":"4","last_reported":1773909047,"current_range_meters":4800,"station_id":"ce4bhh92rcd13ifvqfh0","pricing_plan_id":"cebpf4jnsgd1na2vs0mg"},{"bike_id":"fe5c801f-68be-46bc-a966-92199c3574ea","system_id":"levelo_inurba_marseille","lat":43.28157,"lon":5.42648,"is_reserved":false,"is_disabled":false,"rental_uris":{"android":"levelo://app?vid=fe5c801f-68be-46bc-a966-92199c3574ea","ios":"levelo://app?vid=fe5c801f-68be-46bc-a966-92199c3574ea"},"vehicle_type_id":"4","last_reported":1773909047,"current_range_meters":4800,"station_id":"ce4bhnh2rcd13ifvqgug","pricing_plan_id":"cebpf4jnsgd1na2vs0mg"},{"bike_id":"3884f493-538e-49aa-82ae-c2bb6fb01cb7","system_id":"levelo_inurba_marseille","lat":43.24079,"lon":5.37747,"is_reserved":false,"is_disabled":false,"rental_uris":{"android":"levelo://app?vid=3884f493-538e-49aa-82ae-c2bb6fb01cb7","ios":"levelo://app?vid=3884f493-538e-49aa-82ae-c2bb6fb01cb7"},"vehicle_type_id":"4","last_reported":1773909047,"current_range_meters":4800,"station_id":"ce4bhnp2rcd13ifvqgvg","pricing_plan_id":"cebpf4jnsgd1na2vs0mg"},{"bike_id":"c9cfc67c-4e42-4833-b4ab-11ad690d27f6","system_id":"levelo_inurba_marseille","lat":43.33021,"lon":5.39038,"is_reserved":false,"is_disabled":false,"rental_uris":{"android":"levelo://app?vid=c9cfc67c-4e42-4833-b4ab-11ad690d27f6","ios":"levelo://app?vid=c9cfc67c-4e42-4833-b4ab-11ad690d27f6"},"vehicle_type_id":"4","last_reported":1773909047,"current_range_meters":4800,"station_id":"ce4bhr92rcd13ifvqhrg","pricing_plan_id":"cebpf4jnsgd1na2vs0mg"},{"bike_id":"bea21c33-d04a-4338-9da1-264162e1bcd6","system_id":"levelo_inurba_marseille","lat":43.26368,"lon":5.41088,"is_reserved":false,"is_disabled":false,"rental_uris":{"android":"levelo://app?vid=bea21c33-d04a-4338-9da1-264162e1bcd6","ios":"levelo://app?vid=bea21c33-d04a-4338-9da1-264162e1bcd6"},"vehicle_type_id":"4","last_reported":1773909047,"current_range_meters":4800,"station_id":"st_d4e5ca6na9uc73bfl5fg","pricing_plan_id":"cebpf4jnsgd1na2vs0mg"},{"bike_id":"8994edd4-23d4-4cca-917d-016f34c00e0e","system_id":"levelo_inurba_marseille","lat":43.29719,"lon":5.37677,"is_reserved":false,"is_disabled":false,"rental_uris":{"android":"levelo://app?vid=8994edd4-23d4-4cca-917d-016f34c00e0e","ios":"levelo://app?vid=8994edd4-23d4-4cca-917d-016f34c00e0e"},"vehicle_type_id":"4","last_reported":1773909047,"current_range_meters":4800,"station_id":"ce4bgkh2rcd13ifvqbl0","pricing_plan_id":"cebpf4jnsgd1na2vs0mg"},{"bike_id":"9f28b9fb-0f01-4a1d-8f5c-93798bd33c21","system_id":"levelo_inurba_marseille","lat":43.28976,"lon":5.37839,"is_reserved":false,"is_disabled":false,"rental_uris":{"android":"levelo://app?vid=9f28b9fb-0f01-4a1d-8f5c-93798bd33c21","ios":"levelo://app?vid=9f28b9fb-0f01-4a1d-8f5c-93798bd33c21"},"vehicle_type_id":"4","last_reported":1773909047,"current_range_meters":5600,"station_id":"ce4bh9p2rcd13ifvqed0","pricing_plan_id":"cebpf4jnsgd1na2vs0mg"},{"bike_id":"e5ab1c34-6f57-4113-bcda-6867cb13653f","system_id":"levelo_inurba_marseille","lat":43.261901,"lon":5.374475,"is_reserved":false,"is_disabled":false,"rental_uris":{"android":"levelo://app?vid=e5ab1c34-6f57-4113-bcda-6867cb13653f","ios":"levelo://app?vid=e5ab1c34-6f57-4113-bcda-6867cb13653f"},"vehicle_type_id":"4","last_reported":1773909047,"current_range_meters":5600,"station_id":"ce4bhgp2rcd13ifvqfc0","pricing_plan_id":"cebpf4jnsgd1na2vs0mg"},{"bike_id":"2cd6d2c4-9839-4b08-8d75-805c4c2214dc","system_id":"levelo_inurba_marseille","lat":43.23047,"lon":5.35497,"is_reserved":false,"is_disabled":false,"rental_uris":{"android":"levelo://app?vid=2cd6d2c4-9839-4b08-8d75-805c4c2214dc","ios":"levelo://app?vid=2cd6d2c4-9839-4b08-8d75-805c4c2214dc"},"vehicle_type_id":"4","last_reported":1773909047,"current_range_meters":5600,"station_id":"cpo3342slgdg3j2ifvpg","pricing_plan_id":"cebpf4jnsgd1na2vs0mg"},{"bike_id":"74807e9c-7061-43ed-a53a-8f5de62805e4","system_id":"levelo_inurba_marseille","lat":43.26361,"lon":5.41053,"is_reserved":false,"is_disabled":false,"rental_uris":{"android":"levelo://app?vid=74807e9c-7061-43ed-a53a-8f5de62805e4","ios":"levelo://app?vid=74807e9c-7061-43ed-a53a-8f5de62805e4"},"vehicle_type_id":"4","last_reported":1773909047,"current_range_meters":5600,"station_id":"st_d4e5ca6na9uc73bfl5fg","pricing_plan_id":"cebpf4jnsgd1na2vs0mg"},{"bike_id":"d0b1f448-6af4-4ef1-a755-e03baf4488aa","system_id":"levelo_inurba_marseille","lat":43.29262,"lon":5.35759,"is_reserved":false,"is_disabled":false,"rental_uris":{"android":"levelo://app?vid=d0b1f448-6af4-4ef1-a755-e03baf4488aa","ios":"levelo://app?vid=d0b1f448-6af4-4ef1-a755-e03baf4488aa"},"vehicle_type_id":"4","last_reported":1773909047,"current_range_meters":5600,"station_id":"","pricing_plan_id":"cebpf4jnsgd1na2vs0mg"},{"bike_id":"f84b01ca-a305-48c8-abb1-5fe4887deffc","system_id":"levelo_inurba_marseille","lat":43.2315,"lon":5.43715,"is_reserved":false,"is_disabled":false,"rental_uris":{"android":"levelo://app?vid=f84b01ca-a305-48c8-abb1-5fe4887deffc","ios":"levelo://app?vid=f84b01ca-a305-48c8-abb1-5fe4887deffc"},"vehicle_type_id":"4","last_reported":1773909047,"current_range_meters":5600,"station_id":"ce4bhmp2rcd13ifvqgog","pricing_plan_id":"cebpf4jnsgd1na2vs0mg"},{"bike_id":"fad8e96d-acb2-4874-9608-7180f6b034b8","system_id":"levelo_inurba_marseille","lat":43.29168,"lon":5.40822,"is_reserved":false,"is_disabled":false,"rental_uris":{"android":"levelo://app?vid=fad8e96d-acb2-4874-9608-7180f6b034b8","ios":"levelo://app?vid=fad8e96d-acb2-4874-9608-7180f6b034b8"},"vehicle_type_id":"4","last_reported":1773909047,"current_range_meters":5600,"station_id":"","pricing_plan_id":"cebpf4jnsgd1na2vs0mg"},{"bike_id":"447b11a1-21b5-4523-80dc-ebe593853403","system_id":"levelo_inurba_marseille","lat":43.29364,"lon":5.42678,"is_reserved":false,"is_disabled":false,"rental_uris":{"android":"levelo://app?vid=447b11a1-21b5-4523-80dc-ebe593853403","ios":"levelo://app?vid=447b11a1-21b5-4523-80dc-ebe593853403"},"vehicle_type_id":"4","last_reported":1773909047,"current_range_meters":5600,"station_id":"","pricing_plan_id":"cebpf4jnsgd1na2vs0mg"},{"bike_id":"c8104402-c474-4e49-ac6e-f49702adb157","system_id":"levelo_inurba_marseille","lat":43.303402,"lon":5.386133,"is_reserved":false,"is_disabled":false,"rental_uris":{"android":"levelo://app?vid=c8104402-c474-4e49-ac6e-f49702adb157","ios":"levelo://app?vid=c8104402-c474-4e49-ac6e-f49702adb157"},"vehicle_type_id":"4","last_reported":1773909047,"current_range_meters":5600,"station_id":"ce4bgg92rcd13ifvqb30","pricing_plan_id":"cebpf4jnsgd1na2vs0mg"},{"bike_id":"c0ce446a-9085-4968-895d-00725cc652ae","system_id":"levelo_inurba_marseille","lat":43.29573,"lon":5.42286,"is_reserved":false,"is_disabled":false,"rental_uris":{"android":"levelo://app?vid=c0ce446a-9085-4968-895d-00725cc652ae","ios":"levelo://app?vid=c0ce446a-9085-4968-895d-00725cc652ae"},"vehicle_type_id":"4","last_reported":1773909047,"current_range_meters":6000,"station_id":"ce4bhph2rcd13ifvqhdg","pricing_plan_id":"cebpf4jnsgd1na2vs0mg"},{"bike_id":"69067704-4b9d-4067-8ddd-5b71f4ef1a8a","system_id":"levelo_inurba_marseille","lat":43.25918,"lon":5.40916,"is_reserved":false,"is_disabled":true,"rental_uris":{"android":"levelo://app?vid=69067704-4b9d-4067-8ddd-5b71f4ef1a8a","ios":"levelo://app?vid=69067704-4b9d-4067-8ddd-5b71f4ef1a8a"},"vehicle_type_id":"4","last_reported":1773909047,"current_range_meters":6000,"station_id":"ce4bhm92rcd13ifvqglg","pricing_plan_id":"cebpf4jnsgd1na2vs0mg"},{"bike_id":"20efb3b1-4cf9-43ed-8def-69982177d42a","system_id":"levelo_inurba_marseille","lat":43.30143,"lon":5.38103,"is_reserved":false,"is_disabled":false,"rental_uris":{"android":"levelo://app?vid=20efb3b1-4cf9-43ed-8def-69982177d42a","ios":"levelo://app?vid=20efb3b1-4cf9-43ed-8def-69982177d42a"},"vehicle_type_id":"4","last_reported":1773909047,"current_range_meters":6000,"station_id":"ce4bgjp2rcd13ifvqbh0","pricing_plan_id":"cebpf4jnsgd1na2vs0mg"},{"bike_id":"88db41f5-96f3-4155-a4d0-ecc56f594edb","system_id":"levelo_inurba_marseille","lat":43.22929,"lon":5.35384,"is_reserved":false,"is_disabled":false,"rental_uris":{"android":"levelo://app?vid=88db41f5-96f3-4155-a4d0-ecc56f594edb","ios":"levelo://app?vid=88db41f5-96f3-4155-a4d0-ecc56f594edb"},"vehicle_type_id":"4","last_reported":1773909047,"current_range_meters":6000,"station_id":"cpo3532slgdg3j2ikp40","pricing_plan_id":"cebpf4jnsgd1na2vs0mg"},{"bike_id":"64136d29-903a-495c-83bd-e4c986b19dce","system_id":"levelo_inurba_marseille","lat":43.30149,"lon":5.38062,"is_reserved":false,"is_disabled":false,"rental_uris":{"android":"levelo://app?vid=64136d29-903a-495c-83bd-e4c986b19dce","ios":"levelo://app?vid=64136d29-903a-495c-83bd-e4c986b19dce"},"vehicle_type_id":"4","last_reported":1773909047,"current_range_meters":6000,"station_id":"ce4bgjp2rcd13ifvqbh0","pricing_plan_id":"cebpf4jnsgd1na2vs0mg"},{"bike_id":"a5d7a922-fa93-4b5a-85d5-d874d92b0a20","system_id":"levelo_inurba_marseille","lat":43.30653,"lon":5.39858,"is_reserved":false,"is_disabled":false,"rental_uris":{"android":"levelo://app?vid=a5d7a922-fa93-4b5a-85d5-d874d92b0a20","ios":"levelo://app?vid=a5d7a922-fa93-4b5a-85d5-d874d92b0a20"},"vehicle_type_id":"4","last_reported":1773909047,"current_range_meters":6000,"station_id":"","pricing_plan_id":"cebpf4jnsgd1na2vs0mg"},{"bike_id":"2f0354fc-31aa-4398-9c3e-f0f50b7b2184","system_id":"levelo_inurba_marseille","lat":43.24176,"lon":5.39734,"is_reserved":false,"is_disabled":false,"rental_uris":{"android":"levelo://app?vid=2f0354fc-31aa-4398-9c3e-f0f50b7b2184","ios":"levelo://app?vid=2f0354fc-31aa-4398-9c3e-f0f50b7b2184"},"vehicle_type_id":"4","last_reported":1773909047,"current_range_meters":6400,"station_id":"ce4bhn12rcd13ifvqgpg","pricing_plan_id":"cebpf4jnsgd1na2vs0mg"},{"bike_id":"3903529a-97cf-43f8-9c3a-f35f9c9bbdf2","system_id":"levelo_inurba_marseille","lat":43.31363,"lon":5.36736,"is_reserved":false,"is_disabled":true,"rental_uris":{"android":"levelo://app?vid=3903529a-97cf-43f8-9c3a-f35f9c9bbdf2","ios":"levelo://app?vid=3903529a-97cf-43f8-9c3a-f35f9c9bbdf2"},"vehicle_type_id":"4","last_reported":1773909047,"current_range_meters":6400,"station_id":"ce4bgr92rcd13ifvqc6g","pricing_plan_id":"cebpf4jnsgd1na2vs0mg"},{"bike_id":"eabf8e41-a27c-4d5b-84c1-d95bcff48f69","system_id":"levelo_inurba_marseille","lat":43.260314,"lon":5.375445,"is_reserved":false,"is_disabled":false,"rental_uris":{"android":"levelo://app?vid=eabf8e41-a27c-4d5b-84c1-d95bcff48f69","ios":"levelo://app?vid=eabf8e41-a27c-4d5b-84c1-d95bcff48f69"},"vehicle_type_id":"4","last_reported":1773909047,"current_range_meters":6400,"station_id":"ce4bhgh2rcd13ifvqfa0","pricing_plan_id":"cebpf4jnsgd1na2vs0mg"},{"bike_id":"1fdbd032-af28-4158-a02e-01bb107fd2a7","system_id":"levelo_inurba_marseille","lat":43.337444,"lon":5.374475,"is_reserved":false,"is_disabled":false,"rental_uris":{"android":"levelo://app?vid=1fdbd032-af28-4158-a02e-01bb107fd2a7","ios":"levelo://app?vid=1fdbd032-af28-4158-a02e-01bb107fd2a7"},"vehicle_type_id":"4","last_reported":1773909047,"current_range_meters":6400,"station_id":"","pricing_plan_id":"cebpf4jnsgd1na2vs0mg"},{"bike_id":"1c51670a-46e5-4a0c-9d9c-3c2806d077a8","system_id":"levelo_inurba_marseille","lat":43.29014,"lon":5.38146,"is_reserved":false,"is_disabled":true,"rental_uris":{"android":"levelo://app?vid=1c51670a-46e5-4a0c-9d9c-3c2806d077a8","ios":"levelo://app?vid=1c51670a-46e5-4a0c-9d9c-3c2806d077a8"},"vehicle_type_id":"4","last_reported":1773909047,"current_range_meters":6400,"station_id":"ce4bh4p2rcd13ifvqe1g","pricing_plan_id":"cebpf4jnsgd1na2vs0mg"},{"bike_id":"13ad50bf-7f2f-4ad1-a82f-209db682ff58","system_id":"levelo_inurba_marseille","lat":43.26575,"lon":5.39066,"is_reserved":false,"is_disabled":true,"rental_uris":{"android":"levelo://app?vid=13ad50bf-7f2f-4ad1-a82f-209db682ff58","ios":"levelo://app?vid=13ad50bf-7f2f-4ad1-a82f-209db682ff58"},"vehicle_type_id":"4","last_reported":1773909047,"current_range_meters":6400,"station_id":"","pricing_plan_id":"cebpf4jnsgd1na2vs0mg"},{"bike_id":"95d31319-d36d-403e-adf6-0b51cdaa5b1b","system_id":"levelo_inurba_marseille","lat":43.31431,"lon":5.39302,"is_reserved":false,"is_disabled":true,"rental_uris":{"android":"levelo://app?vid=95d31319-d36d-403e-adf6-0b51cdaa5b1b","ios":"levelo://app?vid=95d31319-d36d-403e-adf6-0b51cdaa5b1b"},"vehicle_type_id":"4","last_reported":1773909047,"current_range_meters":6400,"station_id":"","pricing_plan_id":"cebpf4jnsgd1na2vs0mg"},{"bike_id":"a83aae59-1f1b-4e11-8426-3c0cb08b5ec0","system_id":"levelo_inurba_marseille","lat":43.30902,"lon":5.36861,"is_reserved":false,"is_disabled":false,"rental_uris":{"android":"levelo://app?vid=a83aae59-1f1b-4e11-8426-3c0cb08b5ec0","ios":"levelo://app?vid=a83aae59-1f1b-4e11-8426-3c0cb08b5ec0"},"vehicle_type_id":"4","last_reported":1773909047,"current_range_meters":6400,"station_id":"ce4bgn92rcd13ifvqbvg","pricing_plan_id":"cebpf4jnsgd1na2vs0mg"},{"bike_id":"186f0339-3604-4244-b81d-a22a95d8718f","system_id":"levelo_inurba_marseille","lat":43.3091,"lon":5.36856,"is_reserved":false,"is_disabled":false,"rental_uris":{"android":"levelo://app?vid=186f0339-3604-4244-b81d-a22a95d8718f","ios":"levelo://app?vid=186f0339-3604-4244-b81d-a22a95d8718f"},"vehicle_type_id":"4","last_reported":1773909047,"current_range_meters":6400,"station_id":"ce4bgn92rcd13ifvqbvg","pricing_plan_id":"cebpf4jnsgd1na2vs0mg"},{"bike_id":"248ae9f2-92c3-41c7-87f6-f64fdc509cfd","system_id":"levelo_inurba_marseille","lat":43.260931,"lon":5.396508,"is_reserved":false,"is_disabled":false,"rental_uris":{"android":"levelo://app?vid=248ae9f2-92c3-41c7-87f6-f64fdc509cfd","ios":"levelo://app?vid=248ae9f2-92c3-41c7-87f6-f64fdc509cfd"},"vehicle_type_id":"4","last_reported":1773909047,"current_range_meters":6400,"station_id":"ce4bhl92rcd13ifvqghg","pricing_plan_id":"cebpf4jnsgd1na2vs0mg"},{"bike_id":"939a4612-6cef-42e1-913f-0911be20c747","system_id":"levelo_inurba_marseille","lat":43.29789,"lon":5.37103,"is_reserved":false,"is_disabled":false,"rental_uris":{"android":"levelo://app?vid=939a4612-6cef-42e1-913f-0911be20c747","ios":"levelo://app?vid=939a4612-6cef-42e1-913f-0911be20c747"},"vehicle_type_id":"4","last_reported":1773909047,"current_range_meters":6400,"station_id":"ce4bgop2rcd13ifvqc1g","pricing_plan_id":"cebpf4jnsgd1na2vs0mg"},{"bike_id":"07d60567-2528-4e84-9148-74d1d4501456","system_id":"levelo_inurba_marseille","lat":43.32088,"lon":5.41551,"is_reserved":false,"is_disabled":false,"rental_uris":{"android":"levelo://app?vid=07d60567-2528-4e84-9148-74d1d4501456","ios":"levelo://app?vid=07d60567-2528-4e84-9148-74d1d4501456"},"vehicle_type_id":"4","last_reported":1773909047,"current_range_meters":6400,"station_id":"ce4bhq92rcd13ifvqhkg","pricing_plan_id":"cebpf4jnsgd1na2vs0mg"},{"bike_id":"c5b4f8a5-5a6c-40ba-9197-52b134bfa2c4","system_id":"levelo_inurba_marseille","lat":43.30438,"lon":5.38976,"is_reserved":false,"is_disabled":false,"rental_uris":{"android":"levelo://app?vid=c5b4f8a5-5a6c-40ba-9197-52b134bfa2c4","ios":"levelo://app?vid=c5b4f8a5-5a6c-40ba-9197-52b134bfa2c4"},"vehicle_type_id":"4","last_reported":1773909047,"current_range_meters":6400,"station_id":"","pricing_plan_id":"cebpf4jnsgd1na2vs0mg"},{"bike_id":"dad8e642-31cf-42cb-9956-38b0d6be95d6","system_id":"levelo_inurba_marseille","lat":43.33563,"lon":5.37454,"is_reserved":false,"is_disabled":false,"rental_uris":{"android":"levelo://app?vid=dad8e642-31cf-42cb-9956-38b0d6be95d6","ios":"levelo://app?vid=dad8e642-31cf-42cb-9956-38b0d6be95d6"},"vehicle_type_id":"4","last_reported":1773909047,"current_range_meters":6400,"station_id":"st_d46tts09ee8s73dlu43g","pricing_plan_id":"cebpf4jnsgd1na2vs0mg"},{"bike_id":"d532de73-31b0-408e-96ce-6676e6435a22","system_id":"levelo_inurba_marseille","lat":43.21195,"lon":5.35075,"is_reserved":false,"is_disabled":false,"rental_uris":{"android":"levelo://app?vid=d532de73-31b0-408e-96ce-6676e6435a22","ios":"levelo://app?vid=d532de73-31b0-408e-96ce-6676e6435a22"},"vehicle_type_id":"4","last_reported":1773909047,"current_range_meters":6800,"station_id":"st_cvj6sg6p6f1abm77japg","pricing_plan_id":"cebpf4jnsgd1na2vs0mg"},{"bike_id":"a918d57a-c48c-4085-ac42-61882623bc55","system_id":"levelo_inurba_marseille","lat":43.24467,"lon":5.42536,"is_reserved":false,"is_disabled":false,"rental_uris":{"android":"levelo://app?vid=a918d57a-c48c-4085-ac42-61882623bc55","ios":"levelo://app?vid=a918d57a-c48c-4085-ac42-61882623bc55"},"vehicle_type_id":"4","last_reported":1773909047,"current_range_meters":6800,"station_id":"st_d4a3vfp97mjs738cd8kg","pricing_plan_id":"cebpf4jnsgd1na2vs0mg"},{"bike_id":"719e9861-af82-4022-a2ea-bd7d6f00ff5f","system_id":"levelo_inurba_marseille","lat":43.28737,"lon":5.42528,"is_reserved":false,"is_disabled":true,"rental_uris":{"android":"levelo://app?vid=719e9861-af82-4022-a2ea-bd7d6f00ff5f","ios":"levelo://app?vid=719e9861-af82-4022-a2ea-bd7d6f00ff5f"},"vehicle_type_id":"4","last_reported":1773909047,"current_range_meters":6800,"station_id":"","pricing_plan_id":"cebpf4jnsgd1na2vs0mg"},{"bike_id":"db8208d8-7471-4d51-bb93-62ac819aca03","system_id":"levelo_inurba_marseille","lat":43.30036,"lon":5.3861,"is_reserved":false,"is_disabled":false,"rental_uris":{"android":"levelo://app?vid=db8208d8-7471-4d51-bb93-62ac819aca03","ios":"levelo://app?vid=db8208d8-7471-4d51-bb93-62ac819aca03"},"vehicle_type_id":"4","last_reported":1773909047,"current_range_meters":6800,"station_id":"","pricing_plan_id":"cebpf4jnsgd1na2vs0mg"},{"bike_id":"d32cd58f-a467-461e-b247-17c622defb1a","system_id":"levelo_inurba_marseille","lat":43.23154,"lon":5.43706,"is_reserved":false,"is_disabled":false,"rental_uris":{"android":"levelo://app?vid=d32cd58f-a467-461e-b247-17c622defb1a","ios":"levelo://app?vid=d32cd58f-a467-461e-b247-17c622defb1a"},"vehicle_type_id":"4","last_reported":1773909047,"current_range_meters":6800,"station_id":"ce4bhmp2rcd13ifvqgog","pricing_plan_id":"cebpf4jnsgd1na2vs0mg"},{"bike_id":"506661fa-d7d4-473c-8038-c16d45410fe8","system_id":"levelo_inurba_marseille","lat":43.28869,"lon":5.42534,"is_reserved":false,"is_disabled":false,"rental_uris":{"android":"levelo://app?vid=506661fa-d7d4-473c-8038-c16d45410fe8","ios":"levelo://app?vid=506661fa-d7d4-473c-8038-c16d45410fe8"},"vehicle_type_id":"4","last_reported":1773909047,"current_range_meters":6800,"station_id":"","pricing_plan_id":"cebpf4jnsgd1na2vs0mg"},{"bike_id":"0ee4ce16-829f-49ee-9a2a-4b4670dfbc6f","system_id":"levelo_inurba_marseille","lat":43.28469,"lon":5.48401,"is_reserved":false,"is_disabled":false,"rental_uris":{"android":"levelo://app?vid=0ee4ce16-829f-49ee-9a2a-4b4670dfbc6f","ios":"levelo://app?vid=0ee4ce16-829f-49ee-9a2a-4b4670dfbc6f"},"vehicle_type_id":"4","last_reported":1773909047,"current_range_meters":6800,"station_id":"st_d3svhcjqgbts73a3dn0g","pricing_plan_id":"cebpf4jnsgd1na2vs0mg"},{"bike_id":"caf5e45c-f3f2-43eb-99a6-b11ec33451e8","system_id":"levelo_inurba_marseille","lat":43.23981,"lon":5.36621,"is_reserved":false,"is_disabled":false,"rental_uris":{"android":"levelo://app?vid=caf5e45c-f3f2-43eb-99a6-b11ec33451e8","ios":"levelo://app?vid=caf5e45c-f3f2-43eb-99a6-b11ec33451e8"},"vehicle_type_id":"4","last_reported":1773909047,"current_range_meters":6800,"station_id":"ce4bhi12rcd13ifvqfp0","pricing_plan_id":"cebpf4jnsgd1na2vs0mg"},{"bike_id":"c630e9fc-07eb-44fb-b665-baf3e779b83f","system_id":"levelo_inurba_marseille","lat":43.28518,"lon":5.4411,"is_reserved":false,"is_disabled":false,"rental_uris":{"android":"levelo://app?vid=c630e9fc-07eb-44fb-b665-baf3e779b83f","ios":"levelo://app?vid=c630e9fc-07eb-44fb-b665-baf3e779b83f"},"vehicle_type_id":"4","last_reported":1773909047,"current_range_meters":6800,"station_id":"st_d3j3df2ikq2c7380ej80","pricing_plan_id":"cebpf4jnsgd1na2vs0mg"},{"bike_id":"8101e18b-77e8-465f-aedf-9e3a128ab51b","system_id":"levelo_inurba_marseille","lat":43.27101,"lon":5.42283,"is_reserved":false,"is_disabled":false,"rental_uris":{"android":"levelo://app?vid=8101e18b-77e8-465f-aedf-9e3a128ab51b","ios":"levelo://app?vid=8101e18b-77e8-465f-aedf-9e3a128ab51b"},"vehicle_type_id":"4","last_reported":1773909047,"current_range_meters":6800,"station_id":"ce4bhk92rcd13ifvqgb0","pricing_plan_id":"cebpf4jnsgd1na2vs0mg"},{"bike_id":"a3cea0b6-ca56-4d82-9c12-88c6a5cb942b","system_id":"levelo_inurba_marseille","lat":43.26945,"lon":5.38641,"is_reserved":false,"is_disabled":false,"rental_uris":{"android":"levelo://app?vid=a3cea0b6-ca56-4d82-9c12-88c6a5cb942b","ios":"levelo://app?vid=a3cea0b6-ca56-4d82-9c12-88c6a5cb942b"},"vehicle_type_id":"4","last_reported":1773909047,"current_range_meters":6800,"station_id":"ce4bhh92rcd13ifvqfh0","pricing_plan_id":"cebpf4jnsgd1na2vs0mg"},{"bike_id":"4f063170-64cb-4f5d-9cb6-c37fe1121ba7","system_id":"levelo_inurba_marseille","lat":43.32495,"lon":5.36556,"is_reserved":false,"is_disabled":false,"rental_uris":{"android":"levelo://app?vid=4f063170-64cb-4f5d-9cb6-c37fe1121ba7","ios":"levelo://app?vid=4f063170-64cb-4f5d-9cb6-c37fe1121ba7"},"vehicle_type_id":"4","last_reported":1773909047,"current_range_meters":6800,"station_id":"ce4bhs12rcd13ifvqhvg","pricing_plan_id":"cebpf4jnsgd1na2vs0mg"},{"bike_id":"8ba05a32-429f-4cca-b0db-243fd3786856","system_id":"levelo_inurba_marseille","lat":43.28927,"lon":5.36637,"is_reserved":false,"is_disabled":false,"rental_uris":{"android":"levelo://app?vid=8ba05a32-429f-4cca-b0db-243fd3786856","ios":"levelo://app?vid=8ba05a32-429f-4cca-b0db-243fd3786856"},"vehicle_type_id":"4","last_reported":1773909047,"current_range_meters":6800,"station_id":"ce4bhap2rcd13ifvqek0","pricing_plan_id":"cebpf4jnsgd1na2vs0mg"},{"bike_id":"73e44213-1cd8-4593-a09e-a9c4a914a5d2","system_id":"levelo_inurba_marseille","lat":43.28476,"lon":5.48397,"is_reserved":false,"is_disabled":false,"rental_uris":{"android":"levelo://app?vid=73e44213-1cd8-4593-a09e-a9c4a914a5d2","ios":"levelo://app?vid=73e44213-1cd8-4593-a09e-a9c4a914a5d2"},"vehicle_type_id":"4","last_reported":1773909047,"current_range_meters":6800,"station_id":"","pricing_plan_id":"cebpf4jnsgd1na2vs0mg"},{"bike_id":"0f0f3f3e-0b16-46b6-a723-9cf6c82a3bfc","system_id":"levelo_inurba_marseille","lat":43.27476,"lon":5.41674,"is_reserved":false,"is_disabled":false,"rental_uris":{"android":"levelo://app?vid=0f0f3f3e-0b16-46b6-a723-9cf6c82a3bfc","ios":"levelo://app?vid=0f0f3f3e-0b16-46b6-a723-9cf6c82a3bfc"},"vehicle_type_id":"4","last_reported":1773909047,"current_range_meters":6800,"station_id":"st_d6im8g6chgec73a5pndg","pricing_plan_id":"cebpf4jnsgd1na2vs0mg"},{"bike_id":"dd8390c9-eed9-4b5d-95df-1b40250bc11f","system_id":"levelo_inurba_marseille","lat":43.21613,"lon":5.3455,"is_reserved":false,"is_disabled":false,"rental_uris":{"android":"levelo://app?vid=dd8390c9-eed9-4b5d-95df-1b40250bc11f","ios":"levelo://app?vid=dd8390c9-eed9-4b5d-95df-1b40250bc11f"},"vehicle_type_id":"4","last_reported":1773909047,"current_range_meters":6800,"station_id":"","pricing_plan_id":"cebpf4jnsgd1na2vs0mg"},{"bike_id":"d7cc9cd7-46ef-4981-92c7-f3a42c45e97c","system_id":"levelo_inurba_marseille","lat":43.25945,"lon":5.409,"is_reserved":false,"is_disabled":false,"rental_uris":{"android":"levelo://app?vid=d7cc9cd7-46ef-4981-92c7-f3a42c45e97c","ios":"levelo://app?vid=d7cc9cd7-46ef-4981-92c7-f3a42c45e97c"},"vehicle_type_id":"4","last_reported":1773909047,"current_range_meters":6800,"station_id":"ce4bhm92rcd13ifvqglg","pricing_plan_id":"cebpf4jnsgd1na2vs0mg"},{"bike_id":"0c506fac-9822-4d55-93b9-ec283cf22639","system_id":"levelo_inurba_marseille","lat":43.26858,"lon":5.40484,"is_reserved":false,"is_disabled":false,"rental_uris":{"android":"levelo://app?vid=0c506fac-9822-4d55-93b9-ec283cf22639","ios":"levelo://app?vid=0c506fac-9822-4d55-93b9-ec283cf22639"},"vehicle_type_id":"4","last_reported":1773909047,"current_range_meters":6800,"station_id":"","pricing_plan_id":"cebpf4jnsgd1na2vs0mg"},{"bike_id":"e48e6d48-d180-4130-952c-74c2f53a8488","system_id":"levelo_inurba_marseille","lat":43.28927,"lon":5.36426,"is_reserved":false,"is_disabled":false,"rental_uris":{"android":"levelo://app?vid=e48e6d48-d180-4130-952c-74c2f53a8488","ios":"levelo://app?vid=e48e6d48-d180-4130-952c-74c2f53a8488"},"vehicle_type_id":"4","last_reported":1773909047,"current_range_meters":7200,"station_id":"ce4bhc92rcd13ifvqetg","pricing_plan_id":"cebpf4jnsgd1na2vs0mg"},{"bike_id":"ce6d451a-6421-4bf2-b765-8bd8cabc8121","system_id":"levelo_inurba_marseille","lat":43.29225,"lon":5.36076,"is_reserved":false,"is_disabled":false,"rental_uris":{"android":"levelo://app?vid=ce6d451a-6421-4bf2-b765-8bd8cabc8121","ios":"levelo://app?vid=ce6d451a-6421-4bf2-b765-8bd8cabc8121"},"vehicle_type_id":"4","last_reported":1773909047,"current_range_meters":7200,"station_id":"ce4bhbh2rcd13ifvqeqg","pricing_plan_id":"cebpf4jnsgd1na2vs0mg"},{"bike_id":"e19c730d-a673-4302-9b78-2050168c95f1","system_id":"levelo_inurba_marseille","lat":43.25591,"lon":5.38227,"is_reserved":false,"is_disabled":false,"rental_uris":{"android":"levelo://app?vid=e19c730d-a673-4302-9b78-2050168c95f1","ios":"levelo://app?vid=e19c730d-a673-4302-9b78-2050168c95f1"},"vehicle_type_id":"4","last_reported":1773909047,"current_range_meters":7200,"station_id":"ce4bhih2rcd13ifvqfs0","pricing_plan_id":"cebpf4jnsgd1na2vs0mg"},{"bike_id":"a6e9d3cd-1b73-40fb-aa50-83d3cd885fa6","system_id":"levelo_inurba_marseille","lat":43.30467,"lon":5.37968,"is_reserved":false,"is_disabled":false,"rental_uris":{"android":"levelo://app?vid=a6e9d3cd-1b73-40fb-aa50-83d3cd885fa6","ios":"levelo://app?vid=a6e9d3cd-1b73-40fb-aa50-83d3cd885fa6"},"vehicle_type_id":"4","last_reported":1773909047,"current_range_meters":7200,"station_id":"","pricing_plan_id":"cebpf4jnsgd1na2vs0mg"},{"bike_id":"94f8f466-8e71-4f87-978f-df55f1bc6e54","system_id":"levelo_inurba_marseille","lat":43.21213,"lon":5.35076,"is_reserved":false,"is_disabled":false,"rental_uris":{"android":"levelo://app?vid=94f8f466-8e71-4f87-978f-df55f1bc6e54","ios":"levelo://app?vid=94f8f466-8e71-4f87-978f-df55f1bc6e54"},"vehicle_type_id":"4","last_reported":1773909047,"current_range_meters":7200,"station_id":"st_cvj6sg6p6f1abm77japg","pricing_plan_id":"cebpf4jnsgd1na2vs0mg"},{"bike_id":"69eb8448-c0e0-496f-831c-8ada77fd31e2","system_id":"levelo_inurba_marseille","lat":43.2306,"lon":5.35487,"is_reserved":false,"is_disabled":false,"rental_uris":{"android":"levelo://app?vid=69eb8448-c0e0-496f-831c-8ada77fd31e2","ios":"levelo://app?vid=69eb8448-c0e0-496f-831c-8ada77fd31e2"},"vehicle_type_id":"4","last_reported":1773909047,"current_range_meters":7200,"station_id":"cpo3342slgdg3j2ifvpg","pricing_plan_id":"cebpf4jnsgd1na2vs0mg"},{"bike_id":"8416a38b-1876-43fb-889a-b56394972d6d","system_id":"levelo_inurba_marseille","lat":43.261904,"lon":5.374492,"is_reserved":false,"is_disabled":false,"rental_uris":{"android":"levelo://app?vid=8416a38b-1876-43fb-889a-b56394972d6d","ios":"levelo://app?vid=8416a38b-1876-43fb-889a-b56394972d6d"},"vehicle_type_id":"4","last_reported":1773909047,"current_range_meters":7200,"station_id":"ce4bhgp2rcd13ifvqfc0","pricing_plan_id":"cebpf4jnsgd1na2vs0mg"},{"bike_id":"8c29270d-5d11-446e-a3f0-f5c56ae9c816","system_id":"levelo_inurba_marseille","lat":43.27557,"lon":5.43325,"is_reserved":false,"is_disabled":false,"rental_uris":{"android":"levelo://app?vid=8c29270d-5d11-446e-a3f0-f5c56ae9c816","ios":"levelo://app?vid=8c29270d-5d11-446e-a3f0-f5c56ae9c816"},"vehicle_type_id":"4","last_reported":1773909047,"current_range_meters":7200,"station_id":"","pricing_plan_id":"cebpf4jnsgd1na2vs0mg"},{"bike_id":"1ab1e486-d329-4dc0-9165-063f2abe9d7a","system_id":"levelo_inurba_marseille","lat":43.31113,"lon":5.37738,"is_reserved":false,"is_disabled":false,"rental_uris":{"android":"levelo://app?vid=1ab1e486-d329-4dc0-9165-063f2abe9d7a","ios":"levelo://app?vid=1ab1e486-d329-4dc0-9165-063f2abe9d7a"},"vehicle_type_id":"4","last_reported":1773909047,"current_range_meters":7200,"station_id":"ce4bgt92rcd13ifvqcg0","pricing_plan_id":"cebpf4jnsgd1na2vs0mg"},{"bike_id":"f9cbb5c0-15f3-4ddf-b4f4-fe1b0d0a2d4c","system_id":"levelo_inurba_marseille","lat":43.31181,"lon":5.38711,"is_reserved":false,"is_disabled":true,"rental_uris":{"android":"levelo://app?vid=f9cbb5c0-15f3-4ddf-b4f4-fe1b0d0a2d4c","ios":"levelo://app?vid=f9cbb5c0-15f3-4ddf-b4f4-fe1b0d0a2d4c"},"vehicle_type_id":"4","last_reported":1773909047,"current_range_meters":7200,"station_id":"ce4bgv12rcd13ifvqcp0","pricing_plan_id":"cebpf4jnsgd1na2vs0mg"},{"bike_id":"09c6bd8c-631e-428d-95ab-99a2c53a3ed5","system_id":"levelo_inurba_marseille","lat":43.27456,"lon":5.41709,"is_reserved":false,"is_disabled":false,"rental_uris":{"android":"levelo://app?vid=09c6bd8c-631e-428d-95ab-99a2c53a3ed5","ios":"levelo://app?vid=09c6bd8c-631e-428d-95ab-99a2c53a3ed5"},"vehicle_type_id":"4","last_reported":1773909047,"current_range_meters":7200,"station_id":"st_d6im8g6chgec73a5pndg","pricing_plan_id":"cebpf4jnsgd1na2vs0mg"},{"bike_id":"ebad1b91-ca3f-4330-bc6e-bfe593542e91","system_id":"levelo_inurba_marseille","lat":43.26564,"lon":5.40327,"is_reserved":false,"is_disabled":false,"rental_uris":{"android":"levelo://app?vid=ebad1b91-ca3f-4330-bc6e-bfe593542e91","ios":"levelo://app?vid=ebad1b91-ca3f-4330-bc6e-bfe593542e91"},"vehicle_type_id":"4","last_reported":1773909047,"current_range_meters":7200,"station_id":"ce4bhmp2rcd13ifvqgng","pricing_plan_id":"cebpf4jnsgd1na2vs0mg"},{"bike_id":"6b34691b-634c-45bb-ae86-7dac68151343","system_id":"levelo_inurba_marseille","lat":43.26729,"lon":5.38259,"is_reserved":false,"is_disabled":false,"rental_uris":{"android":"levelo://app?vid=6b34691b-634c-45bb-ae86-7dac68151343","ios":"levelo://app?vid=6b34691b-634c-45bb-ae86-7dac68151343"},"vehicle_type_id":"4","last_reported":1773909047,"current_range_meters":7200,"station_id":"","pricing_plan_id":"cebpf4jnsgd1na2vs0mg"},{"bike_id":"e26ba016-cb42-4f20-bde0-0b1322443780","system_id":"levelo_inurba_marseille","lat":43.25019,"lon":5.3893,"is_reserved":false,"is_disabled":false,"rental_uris":{"android":"levelo://app?vid=e26ba016-cb42-4f20-bde0-0b1322443780","ios":"levelo://app?vid=e26ba016-cb42-4f20-bde0-0b1322443780"},"vehicle_type_id":"4","last_reported":1773909047,"current_range_meters":7200,"station_id":"ce4bhgp2rcd13ifvqfd0","pricing_plan_id":"cebpf4jnsgd1na2vs0mg"},{"bike_id":"78c86868-a79f-4f2a-bb9a-961b0f22d36b","system_id":"levelo_inurba_marseille","lat":43.29962,"lon":5.38657,"is_reserved":false,"is_disabled":false,"rental_uris":{"android":"levelo://app?vid=78c86868-a79f-4f2a-bb9a-961b0f22d36b","ios":"levelo://app?vid=78c86868-a79f-4f2a-bb9a-961b0f22d36b"},"vehicle_type_id":"4","last_reported":1773909047,"current_range_meters":7200,"station_id":"","pricing_plan_id":"cebpf4jnsgd1na2vs0mg"},{"bike_id":"09d3388a-736e-4dce-bf48-da6541d7d30e","system_id":"levelo_inurba_marseille","lat":43.25933,"lon":5.40911,"is_reserved":false,"is_disabled":false,"rental_uris":{"android":"levelo://app?vid=09d3388a-736e-4dce-bf48-da6541d7d30e","ios":"levelo://app?vid=09d3388a-736e-4dce-bf48-da6541d7d30e"},"vehicle_type_id":"4","last_reported":1773909047,"current_range_meters":7200,"station_id":"ce4bhm92rcd13ifvqglg","pricing_plan_id":"cebpf4jnsgd1na2vs0mg"},{"bike_id":"344d3b45-6a4e-46db-8539-c801e972aaec","system_id":"levelo_inurba_marseille","lat":43.25113,"lon":5.40326,"is_reserved":false,"is_disabled":false,"rental_uris":{"android":"levelo://app?vid=344d3b45-6a4e-46db-8539-c801e972aaec","ios":"levelo://app?vid=344d3b45-6a4e-46db-8539-c801e972aaec"},"vehicle_type_id":"4","last_reported":1773909047,"current_range_meters":7200,"station_id":"ce4bhlh2rcd13ifvqgig","pricing_plan_id":"cebpf4jnsgd1na2vs0mg"},{"bike_id":"4c290b6b-9d1d-4bd7-8a4a-428b11c44941","system_id":"levelo_inurba_marseille","lat":43.28925,"lon":5.38402,"is_reserved":false,"is_disabled":false,"rental_uris":{"android":"levelo://app?vid=4c290b6b-9d1d-4bd7-8a4a-428b11c44941","ios":"levelo://app?vid=4c290b6b-9d1d-4bd7-8a4a-428b11c44941"},"vehicle_type_id":"4","last_reported":1773909047,"current_range_meters":8000,"station_id":"ce4bh612rcd13ifvqe6g","pricing_plan_id":"cebpf4jnsgd1na2vs0mg"},{"bike_id":"24dc1ce5-2db6-421b-869a-69d6f082b300","system_id":"levelo_inurba_marseille","lat":43.29827,"lon":5.36243,"is_reserved":false,"is_disabled":false,"rental_uris":{"android":"levelo://app?vid=24dc1ce5-2db6-421b-869a-69d6f082b300","ios":"levelo://app?vid=24dc1ce5-2db6-421b-869a-69d6f082b300"},"vehicle_type_id":"4","last_reported":1773909047,"current_range_meters":8000,"station_id":"ce4bgpp2rcd13ifvqc3g","pricing_plan_id":"cebpf4jnsgd1na2vs0mg"},{"bike_id":"04b3c352-6662-4d85-9cdb-e58baf38ee9f","system_id":"levelo_inurba_marseille","lat":43.33545,"lon":5.37479,"is_reserved":false,"is_disabled":false,"rental_uris":{"android":"levelo://app?vid=04b3c352-6662-4d85-9cdb-e58baf38ee9f","ios":"levelo://app?vid=04b3c352-6662-4d85-9cdb-e58baf38ee9f"},"vehicle_type_id":"4","last_reported":1773909047,"current_range_meters":8000,"station_id":"st_d46tts09ee8s73dlu43g","pricing_plan_id":"cebpf4jnsgd1na2vs0mg"},{"bike_id":"f7e79517-161a-451a-8a95-bb710b1b4d21","system_id":"levelo_inurba_marseille","lat":43.29844,"lon":5.37908,"is_reserved":false,"is_disabled":false,"rental_uris":{"android":"levelo://app?vid=f7e79517-161a-451a-8a95-bb710b1b4d21","ios":"levelo://app?vid=f7e79517-161a-451a-8a95-bb710b1b4d21"},"vehicle_type_id":"4","last_reported":1773909047,"current_range_meters":8000,"station_id":"","pricing_plan_id":"cebpf4jnsgd1na2vs0mg"},{"bike_id":"bd60a6ec-18d4-4476-ab1b-f354043c4b72","system_id":"levelo_inurba_marseille","lat":43.29798,"lon":5.4264,"is_reserved":false,"is_disabled":false,"rental_uris":{"android":"levelo://app?vid=bd60a6ec-18d4-4476-ab1b-f354043c4b72","ios":"levelo://app?vid=bd60a6ec-18d4-4476-ab1b-f354043c4b72"},"vehicle_type_id":"4","last_reported":1773909047,"current_range_meters":8000,"station_id":"","pricing_plan_id":"cebpf4jnsgd1na2vs0mg"},{"bike_id":"081a0881-89b6-4aec-8d87-38fd39de8439","system_id":"levelo_inurba_marseille","lat":43.2853,"lon":5.44115,"is_reserved":false,"is_disabled":false,"rental_uris":{"android":"levelo://app?vid=081a0881-89b6-4aec-8d87-38fd39de8439","ios":"levelo://app?vid=081a0881-89b6-4aec-8d87-38fd39de8439"},"vehicle_type_id":"4","last_reported":1773909047,"current_range_meters":8000,"station_id":"st_d3j3df2ikq2c7380ej80","pricing_plan_id":"cebpf4jnsgd1na2vs0mg"},{"bike_id":"ef4d97a8-b27e-4ee9-b1dd-4c9b85711d4a","system_id":"levelo_inurba_marseille","lat":43.24398,"lon":5.37065,"is_reserved":false,"is_disabled":false,"rental_uris":{"android":"levelo://app?vid=ef4d97a8-b27e-4ee9-b1dd-4c9b85711d4a","ios":"levelo://app?vid=ef4d97a8-b27e-4ee9-b1dd-4c9b85711d4a"},"vehicle_type_id":"4","last_reported":1773909047,"current_range_meters":8000,"station_id":"ce4bhhh2rcd13ifvqfk0","pricing_plan_id":"cebpf4jnsgd1na2vs0mg"},{"bike_id":"1eeb8fd8-3c0c-40ec-bab7-6b173acf9405","system_id":"levelo_inurba_marseille","lat":43.22933,"lon":5.3538,"is_reserved":false,"is_disabled":false,"rental_uris":{"android":"levelo://app?vid=1eeb8fd8-3c0c-40ec-bab7-6b173acf9405","ios":"levelo://app?vid=1eeb8fd8-3c0c-40ec-bab7-6b173acf9405"},"vehicle_type_id":"4","last_reported":1773909047,"current_range_meters":8000,"station_id":"cpo3532slgdg3j2ikp40","pricing_plan_id":"cebpf4jnsgd1na2vs0mg"},{"bike_id":"64e3a78f-4a19-4ac1-a459-c46b55cfebeb","system_id":"levelo_inurba_marseille","lat":43.26778,"lon":5.39423,"is_reserved":false,"is_disabled":false,"rental_uris":{"android":"levelo://app?vid=64e3a78f-4a19-4ac1-a459-c46b55cfebeb","ios":"levelo://app?vid=64e3a78f-4a19-4ac1-a459-c46b55cfebeb"},"vehicle_type_id":"4","last_reported":1773909047,"current_range_meters":8000,"station_id":"ce4bhh12rcd13ifvqfg0","pricing_plan_id":"cebpf4jnsgd1na2vs0mg"},{"bike_id":"737678df-7354-415c-b91b-24f80f347618","system_id":"levelo_inurba_marseille","lat":43.2721,"lon":5.39191,"is_reserved":false,"is_disabled":false,"rental_uris":{"android":"levelo://app?vid=737678df-7354-415c-b91b-24f80f347618","ios":"levelo://app?vid=737678df-7354-415c-b91b-24f80f347618"},"vehicle_type_id":"4","last_reported":1773909047,"current_range_meters":8000,"station_id":"ce4bhhp2rcd13ifvqfm0","pricing_plan_id":"cebpf4jnsgd1na2vs0mg"},{"bike_id":"0effcb86-530f-422c-9f0e-4d242751570e","system_id":"levelo_inurba_marseille","lat":43.30537,"lon":5.36711,"is_reserved":false,"is_disabled":false,"rental_uris":{"android":"levelo://app?vid=0effcb86-530f-422c-9f0e-4d242751570e","ios":"levelo://app?vid=0effcb86-530f-422c-9f0e-4d242751570e"},"vehicle_type_id":"4","last_reported":1773909047,"current_range_meters":8000,"station_id":"ce4bgrp2rcd13ifvqc9g","pricing_plan_id":"cebpf4jnsgd1na2vs0mg"},{"bike_id":"be4d6409-bfee-419e-808b-021c76cfecdb","system_id":"levelo_inurba_marseille","lat":43.31219,"lon":5.36855,"is_reserved":false,"is_disabled":false,"rental_uris":{"android":"levelo://app?vid=be4d6409-bfee-419e-808b-021c76cfecdb","ios":"levelo://app?vid=be4d6409-bfee-419e-808b-021c76cfecdb"},"vehicle_type_id":"4","last_reported":1773909047,"current_range_meters":8000,"station_id":"ce4bgl92rcd13ifvqbq0","pricing_plan_id":"cebpf4jnsgd1na2vs0mg"},{"bike_id":"c4a7c7b1-3352-4651-8271-b0b071e8a40f","system_id":"levelo_inurba_marseille","lat":43.27501,"lon":5.42468,"is_reserved":false,"is_disabled":false,"rental_uris":{"android":"levelo://app?vid=c4a7c7b1-3352-4651-8271-b0b071e8a40f","ios":"levelo://app?vid=c4a7c7b1-3352-4651-8271-b0b071e8a40f"},"vehicle_type_id":"4","last_reported":1773909047,"current_range_meters":8000,"station_id":"","pricing_plan_id":"cebpf4jnsgd1na2vs0mg"},{"bike_id":"58596bc9-7c88-4d27-9a38-0818d89ed137","system_id":"levelo_inurba_marseille","lat":43.30541,"lon":5.36701,"is_reserved":false,"is_disabled":false,"rental_uris":{"android":"levelo://app?vid=58596bc9-7c88-4d27-9a38-0818d89ed137","ios":"levelo://app?vid=58596bc9-7c88-4d27-9a38-0818d89ed137"},"vehicle_type_id":"4","last_reported":1773909047,"current_range_meters":8000,"station_id":"ce4bgrp2rcd13ifvqc9g","pricing_plan_id":"cebpf4jnsgd1na2vs0mg"},{"bike_id":"0f988d7c-199c-45b5-ba6e-7ba5bd7d524c","system_id":"levelo_inurba_marseille","lat":43.30777,"lon":5.37655,"is_reserved":false,"is_disabled":false,"rental_uris":{"android":"levelo://app?vid=0f988d7c-199c-45b5-ba6e-7ba5bd7d524c","ios":"levelo://app?vid=0f988d7c-199c-45b5-ba6e-7ba5bd7d524c"},"vehicle_type_id":"4","last_reported":1773909047,"current_range_meters":8000,"station_id":"ce4bgv92rcd13ifvqcq0","pricing_plan_id":"cebpf4jnsgd1na2vs0mg"},{"bike_id":"f4477818-8718-4705-af7a-f006a6cf5ebf","system_id":"levelo_inurba_marseille","lat":43.24384,"lon":5.37055,"is_reserved":false,"is_disabled":false,"rental_uris":{"android":"levelo://app?vid=f4477818-8718-4705-af7a-f006a6cf5ebf","ios":"levelo://app?vid=f4477818-8718-4705-af7a-f006a6cf5ebf"},"vehicle_type_id":"4","last_reported":1773909047,"current_range_meters":8000,"station_id":"ce4bhhh2rcd13ifvqfk0","pricing_plan_id":"cebpf4jnsgd1na2vs0mg"},{"bike_id":"0f42f4a8-e174-4f86-98bf-0bc52380dee9","system_id":"levelo_inurba_marseille","lat":43.261913,"lon":5.374488,"is_reserved":false,"is_disabled":false,"rental_uris":{"android":"levelo://app?vid=0f42f4a8-e174-4f86-98bf-0bc52380dee9","ios":"levelo://app?vid=0f42f4a8-e174-4f86-98bf-0bc52380dee9"},"vehicle_type_id":"4","last_reported":1773909047,"current_range_meters":8000,"station_id":"","pricing_plan_id":"cebpf4jnsgd1na2vs0mg"},{"bike_id":"a11c8cfa-453a-4892-a974-6a22bafa8290","system_id":"levelo_inurba_marseille","lat":43.23214,"lon":5.3556,"is_reserved":false,"is_disabled":false,"rental_uris":{"android":"levelo://app?vid=a11c8cfa-453a-4892-a974-6a22bafa8290","ios":"levelo://app?vid=a11c8cfa-453a-4892-a974-6a22bafa8290"},"vehicle_type_id":"4","last_reported":1773909047,"current_range_meters":8400,"station_id":"ce4bhu92rcd13ifvqi70","pricing_plan_id":"cebpf4jnsgd1na2vs0mg"},{"bike_id":"ea683fbd-1de1-4103-a9a8-98323e8b6ccc","system_id":"levelo_inurba_marseille","lat":43.23899,"lon":5.37454,"is_reserved":false,"is_disabled":false,"rental_uris":{"android":"levelo://app?vid=ea683fbd-1de1-4103-a9a8-98323e8b6ccc","ios":"levelo://app?vid=ea683fbd-1de1-4103-a9a8-98323e8b6ccc"},"vehicle_type_id":"4","last_reported":1773909047,"current_range_meters":8400,"station_id":"st_d6sm7csbq4hs73f8fpjg","pricing_plan_id":"cebpf4jnsgd1na2vs0mg"},{"bike_id":"7603f9a5-a91f-4dd4-884d-ad1569e71bd2","system_id":"levelo_inurba_marseille","lat":43.31026,"lon":5.37205,"is_reserved":false,"is_disabled":false,"rental_uris":{"android":"levelo://app?vid=7603f9a5-a91f-4dd4-884d-ad1569e71bd2","ios":"levelo://app?vid=7603f9a5-a91f-4dd4-884d-ad1569e71bd2"},"vehicle_type_id":"4","last_reported":1773909047,"current_range_meters":8400,"station_id":"st_d4kl2rp97mjs73e7tdfg","pricing_plan_id":"cebpf4jnsgd1na2vs0mg"},{"bike_id":"d0f50a6b-aa0d-4c35-bde4-ea58ce38721b","system_id":"levelo_inurba_marseille","lat":43.29989,"lon":5.37176,"is_reserved":false,"is_disabled":false,"rental_uris":{"android":"levelo://app?vid=d0f50a6b-aa0d-4c35-bde4-ea58ce38721b","ios":"levelo://app?vid=d0f50a6b-aa0d-4c35-bde4-ea58ce38721b"},"vehicle_type_id":"4","last_reported":1773909047,"current_range_meters":8400,"station_id":"ce4bgr92rcd13ifvqc7g","pricing_plan_id":"cebpf4jnsgd1na2vs0mg"},{"bike_id":"347a0133-45d3-4213-ae48-606f4453bbf3","system_id":"levelo_inurba_marseille","lat":43.23058,"lon":5.35494,"is_reserved":false,"is_disabled":false,"rental_uris":{"android":"levelo://app?vid=347a0133-45d3-4213-ae48-606f4453bbf3","ios":"levelo://app?vid=347a0133-45d3-4213-ae48-606f4453bbf3"},"vehicle_type_id":"4","last_reported":1773909047,"current_range_meters":8400,"station_id":"cpo3342slgdg3j2ifvpg","pricing_plan_id":"cebpf4jnsgd1na2vs0mg"},{"bike_id":"08fc3c5d-1001-4b26-87a3-2f0e44438f4d","system_id":"levelo_inurba_marseille","lat":43.24649,"lon":5.38177,"is_reserved":false,"is_disabled":false,"rental_uris":{"android":"levelo://app?vid=08fc3c5d-1001-4b26-87a3-2f0e44438f4d","ios":"levelo://app?vid=08fc3c5d-1001-4b26-87a3-2f0e44438f4d"},"vehicle_type_id":"4","last_reported":1773909047,"current_range_meters":8400,"station_id":"ce4bhih2rcd13ifvqfr0","pricing_plan_id":"cebpf4jnsgd1na2vs0mg"},{"bike_id":"baaeb2b2-9b00-4409-aebf-97133f4e4792","system_id":"levelo_inurba_marseille","lat":43.27948,"lon":5.41037,"is_reserved":false,"is_disabled":false,"rental_uris":{"android":"levelo://app?vid=baaeb2b2-9b00-4409-aebf-97133f4e4792","ios":"levelo://app?vid=baaeb2b2-9b00-4409-aebf-97133f4e4792"},"vehicle_type_id":"4","last_reported":1773909047,"current_range_meters":8400,"station_id":"ce4bhnp2rcd13ifvqh0g","pricing_plan_id":"cebpf4jnsgd1na2vs0mg"},{"bike_id":"459db0c9-829e-4eb8-969b-e2acd7f6eb85","system_id":"levelo_inurba_marseille","lat":43.2815,"lon":5.42647,"is_reserved":false,"is_disabled":false,"rental_uris":{"android":"levelo://app?vid=459db0c9-829e-4eb8-969b-e2acd7f6eb85","ios":"levelo://app?vid=459db0c9-829e-4eb8-969b-e2acd7f6eb85"},"vehicle_type_id":"4","last_reported":1773909047,"current_range_meters":8400,"station_id":"ce4bhnh2rcd13ifvqgug","pricing_plan_id":"cebpf4jnsgd1na2vs0mg"},{"bike_id":"f15a43b5-dd47-45ae-ae7d-e4490cd6b23e","system_id":"levelo_inurba_marseille","lat":43.30888,"lon":5.36843,"is_reserved":false,"is_disabled":false,"rental_uris":{"android":"levelo://app?vid=f15a43b5-dd47-45ae-ae7d-e4490cd6b23e","ios":"levelo://app?vid=f15a43b5-dd47-45ae-ae7d-e4490cd6b23e"},"vehicle_type_id":"4","last_reported":1773909047,"current_range_meters":8400,"station_id":"ce4bgn92rcd13ifvqbvg","pricing_plan_id":"cebpf4jnsgd1na2vs0mg"},{"bike_id":"6b218720-7d53-4c1e-b1c9-5dbfa513b086","system_id":"levelo_inurba_marseille","lat":43.23976,"lon":5.36618,"is_reserved":false,"is_disabled":false,"rental_uris":{"android":"levelo://app?vid=6b218720-7d53-4c1e-b1c9-5dbfa513b086","ios":"levelo://app?vid=6b218720-7d53-4c1e-b1c9-5dbfa513b086"},"vehicle_type_id":"4","last_reported":1773909047,"current_range_meters":8400,"station_id":"ce4bhi12rcd13ifvqfp0","pricing_plan_id":"cebpf4jnsgd1na2vs0mg"},{"bike_id":"dd10efc5-28b9-436a-be78-8011941e89fc","system_id":"levelo_inurba_marseille","lat":43.28473,"lon":5.48397,"is_reserved":false,"is_disabled":false,"rental_uris":{"android":"levelo://app?vid=dd10efc5-28b9-436a-be78-8011941e89fc","ios":"levelo://app?vid=dd10efc5-28b9-436a-be78-8011941e89fc"},"vehicle_type_id":"4","last_reported":1773909047,"current_range_meters":8400,"station_id":"st_d3svhcjqgbts73a3dn0g","pricing_plan_id":"cebpf4jnsgd1na2vs0mg"},{"bike_id":"6c1bba4a-dad8-40c3-a3c8-46d0efdfcbbe","system_id":"levelo_inurba_marseille","lat":43.23893,"lon":5.37464,"is_reserved":false,"is_disabled":false,"rental_uris":{"android":"levelo://app?vid=6c1bba4a-dad8-40c3-a3c8-46d0efdfcbbe","ios":"levelo://app?vid=6c1bba4a-dad8-40c3-a3c8-46d0efdfcbbe"},"vehicle_type_id":"4","last_reported":1773909047,"current_range_meters":8400,"station_id":"st_d6sm7csbq4hs73f8fpjg","pricing_plan_id":"cebpf4jnsgd1na2vs0mg"},{"bike_id":"418af4c3-f157-4896-8a1d-8f907cc6ce3f","system_id":"levelo_inurba_marseille","lat":43.29605,"lon":5.3773,"is_reserved":false,"is_disabled":false,"rental_uris":{"android":"levelo://app?vid=418af4c3-f157-4896-8a1d-8f907cc6ce3f","ios":"levelo://app?vid=418af4c3-f157-4896-8a1d-8f907cc6ce3f"},"vehicle_type_id":"4","last_reported":1773909047,"current_range_meters":8400,"station_id":"ce4bgi92rcd13ifvqb90","pricing_plan_id":"cebpf4jnsgd1na2vs0mg"},{"bike_id":"a7589a93-7e92-46e3-9adb-33c382fc7b2d","system_id":"levelo_inurba_marseille","lat":43.23972,"lon":5.36612,"is_reserved":false,"is_disabled":false,"rental_uris":{"android":"levelo://app?vid=a7589a93-7e92-46e3-9adb-33c382fc7b2d","ios":"levelo://app?vid=a7589a93-7e92-46e3-9adb-33c382fc7b2d"},"vehicle_type_id":"4","last_reported":1773909047,"current_range_meters":8400,"station_id":"ce4bhi12rcd13ifvqfp0","pricing_plan_id":"cebpf4jnsgd1na2vs0mg"},{"bike_id":"d51fe815-5335-4e1f-8e42-efe91c7e85aa","system_id":"levelo_inurba_marseille","lat":43.22931,"lon":5.3538,"is_reserved":false,"is_disabled":false,"rental_uris":{"android":"levelo://app?vid=d51fe815-5335-4e1f-8e42-efe91c7e85aa","ios":"levelo://app?vid=d51fe815-5335-4e1f-8e42-efe91c7e85aa"},"vehicle_type_id":"4","last_reported":1773909047,"current_range_meters":8400,"station_id":"cpo3532slgdg3j2ikp40","pricing_plan_id":"cebpf4jnsgd1na2vs0mg"},{"bike_id":"e84409cd-ab11-47ab-92ac-0bad50daf5c3","system_id":"levelo_inurba_marseille","lat":43.31935,"lon":5.3683,"is_reserved":false,"is_disabled":false,"rental_uris":{"android":"levelo://app?vid=e84409cd-ab11-47ab-92ac-0bad50daf5c3","ios":"levelo://app?vid=e84409cd-ab11-47ab-92ac-0bad50daf5c3"},"vehicle_type_id":"4","last_reported":1773909047,"current_range_meters":8400,"station_id":"","pricing_plan_id":"cebpf4jnsgd1na2vs0mg"},{"bike_id":"b7e87515-c3ea-478e-bf01-a70f86b2f092","system_id":"levelo_inurba_marseille","lat":43.24173,"lon":5.36404,"is_reserved":false,"is_disabled":false,"rental_uris":{"android":"levelo://app?vid=b7e87515-c3ea-478e-bf01-a70f86b2f092","ios":"levelo://app?vid=b7e87515-c3ea-478e-bf01-a70f86b2f092"},"vehicle_type_id":"4","last_reported":1773909047,"current_range_meters":8400,"station_id":"cpo36qri1sfpv3e86is0","pricing_plan_id":"cebpf4jnsgd1na2vs0mg"},{"bike_id":"591637eb-a256-445f-b11a-47e07652d095","system_id":"levelo_inurba_marseille","lat":43.28151,"lon":5.42673,"is_reserved":false,"is_disabled":false,"rental_uris":{"android":"levelo://app?vid=591637eb-a256-445f-b11a-47e07652d095","ios":"levelo://app?vid=591637eb-a256-445f-b11a-47e07652d095"},"vehicle_type_id":"4","last_reported":1773909047,"current_range_meters":8400,"station_id":"ce4bhnh2rcd13ifvqgug","pricing_plan_id":"cebpf4jnsgd1na2vs0mg"},{"bike_id":"1da057a6-7f5f-4ac2-969c-cb81ad5a7b1a","system_id":"levelo_inurba_marseille","lat":43.33151,"lon":5.37702,"is_reserved":false,"is_disabled":false,"rental_uris":{"android":"levelo://app?vid=1da057a6-7f5f-4ac2-969c-cb81ad5a7b1a","ios":"levelo://app?vid=1da057a6-7f5f-4ac2-969c-cb81ad5a7b1a"},"vehicle_type_id":"4","last_reported":1773909047,"current_range_meters":8400,"station_id":"st_d46cu089ee8s73dldbu0","pricing_plan_id":"cebpf4jnsgd1na2vs0mg"},{"bike_id":"7cacadd7-885c-4e0c-a558-6e1552bd37cd","system_id":"levelo_inurba_marseille","lat":43.32657,"lon":5.40991,"is_reserved":false,"is_disabled":false,"rental_uris":{"android":"levelo://app?vid=7cacadd7-885c-4e0c-a558-6e1552bd37cd","ios":"levelo://app?vid=7cacadd7-885c-4e0c-a558-6e1552bd37cd"},"vehicle_type_id":"4","last_reported":1773909047,"current_range_meters":8400,"station_id":"ce4bhpp2rcd13ifvqhgg","pricing_plan_id":"cebpf4jnsgd1na2vs0mg"},{"bike_id":"850e36ee-1e12-4ced-9f07-3ad6148fbad0","system_id":"levelo_inurba_marseille","lat":43.26366,"lon":5.41066,"is_reserved":false,"is_disabled":false,"rental_uris":{"android":"levelo://app?vid=850e36ee-1e12-4ced-9f07-3ad6148fbad0","ios":"levelo://app?vid=850e36ee-1e12-4ced-9f07-3ad6148fbad0"},"vehicle_type_id":"4","last_reported":1773909047,"current_range_meters":8800,"station_id":"st_d4e5ca6na9uc73bfl5fg","pricing_plan_id":"cebpf4jnsgd1na2vs0mg"},{"bike_id":"bdc3046c-93d8-48b4-b777-926c959277ad","system_id":"levelo_inurba_marseille","lat":43.33609,"lon":5.41011,"is_reserved":false,"is_disabled":false,"rental_uris":{"android":"levelo://app?vid=bdc3046c-93d8-48b4-b777-926c959277ad","ios":"levelo://app?vid=bdc3046c-93d8-48b4-b777-926c959277ad"},"vehicle_type_id":"4","last_reported":1773909047,"current_range_meters":8800,"station_id":"ce4bhqh2rcd13ifvqhmg","pricing_plan_id":"cebpf4jnsgd1na2vs0mg"},{"bike_id":"13ece891-29b9-4ae9-a4c4-ae3da55ec954","system_id":"levelo_inurba_marseille","lat":43.23241,"lon":5.35529,"is_reserved":false,"is_disabled":false,"rental_uris":{"android":"levelo://app?vid=13ece891-29b9-4ae9-a4c4-ae3da55ec954","ios":"levelo://app?vid=13ece891-29b9-4ae9-a4c4-ae3da55ec954"},"vehicle_type_id":"4","last_reported":1773909047,"current_range_meters":8800,"station_id":"","pricing_plan_id":"cebpf4jnsgd1na2vs0mg"},{"bike_id":"864f588c-6c9a-47f2-bf8a-559a5ddb02ea","system_id":"levelo_inurba_marseille","lat":43.32101,"lon":5.36795,"is_reserved":false,"is_disabled":false,"rental_uris":{"android":"levelo://app?vid=864f588c-6c9a-47f2-bf8a-559a5ddb02ea","ios":"levelo://app?vid=864f588c-6c9a-47f2-bf8a-559a5ddb02ea"},"vehicle_type_id":"4","last_reported":1773909047,"current_range_meters":8800,"station_id":"ce4bhrh2rcd13ifvqhug","pricing_plan_id":"cebpf4jnsgd1na2vs0mg"},{"bike_id":"b0aae7c9-1bd6-4f1c-a33d-9d6ff662c2a9","system_id":"levelo_inurba_marseille","lat":43.24919,"lon":5.37424,"is_reserved":false,"is_disabled":false,"rental_uris":{"android":"levelo://app?vid=b0aae7c9-1bd6-4f1c-a33d-9d6ff662c2a9","ios":"levelo://app?vid=b0aae7c9-1bd6-4f1c-a33d-9d6ff662c2a9"},"vehicle_type_id":"4","last_reported":1773909047,"current_range_meters":8800,"station_id":"","pricing_plan_id":"cebpf4jnsgd1na2vs0mg"},{"bike_id":"addd9e53-bfde-4c2f-8c89-4a891b6a7add","system_id":"levelo_inurba_marseille","lat":43.31352,"lon":5.37922,"is_reserved":false,"is_disabled":false,"rental_uris":{"android":"levelo://app?vid=addd9e53-bfde-4c2f-8c89-4a891b6a7add","ios":"levelo://app?vid=addd9e53-bfde-4c2f-8c89-4a891b6a7add"},"vehicle_type_id":"4","last_reported":1773909047,"current_range_meters":8800,"station_id":"","pricing_plan_id":"cebpf4jnsgd1na2vs0mg"},{"bike_id":"246116f5-3d79-44ba-8658-b8f1bbaeb3d6","system_id":"levelo_inurba_marseille","lat":43.299807,"lon":5.371855,"is_reserved":false,"is_disabled":true,"rental_uris":{"android":"levelo://app?vid=246116f5-3d79-44ba-8658-b8f1bbaeb3d6","ios":"levelo://app?vid=246116f5-3d79-44ba-8658-b8f1bbaeb3d6"},"vehicle_type_id":"4","last_reported":1773909047,"current_range_meters":8800,"station_id":"ce4bgr92rcd13ifvqc7g","pricing_plan_id":"cebpf4jnsgd1na2vs0mg"},{"bike_id":"52f6a6b9-7af9-4956-b458-baf5061e66bf","system_id":"levelo_inurba_marseille","lat":43.23359,"lon":5.44468,"is_reserved":false,"is_disabled":false,"rental_uris":{"android":"levelo://app?vid=52f6a6b9-7af9-4956-b458-baf5061e66bf","ios":"levelo://app?vid=52f6a6b9-7af9-4956-b458-baf5061e66bf"},"vehicle_type_id":"4","last_reported":1773909047,"current_range_meters":8800,"station_id":"","pricing_plan_id":"cebpf4jnsgd1na2vs0mg"},{"bike_id":"48d56448-be59-46a7-88f4-1b7e52e63b27","system_id":"levelo_inurba_marseille","lat":43.31043,"lon":5.37168,"is_reserved":false,"is_disabled":false,"rental_uris":{"android":"levelo://app?vid=48d56448-be59-46a7-88f4-1b7e52e63b27","ios":"levelo://app?vid=48d56448-be59-46a7-88f4-1b7e52e63b27"},"vehicle_type_id":"4","last_reported":1773909047,"current_range_meters":8800,"station_id":"st_d4kl2rp97mjs73e7tdfg","pricing_plan_id":"cebpf4jnsgd1na2vs0mg"},{"bike_id":"a28c166b-a5fe-420e-81da-77e5be97a8e5","system_id":"levelo_inurba_marseille","lat":43.29094,"lon":5.38141,"is_reserved":false,"is_disabled":true,"rental_uris":{"android":"levelo://app?vid=a28c166b-a5fe-420e-81da-77e5be97a8e5","ios":"levelo://app?vid=a28c166b-a5fe-420e-81da-77e5be97a8e5"},"vehicle_type_id":"4","last_reported":1773909047,"current_range_meters":8800,"station_id":"ce4bh512rcd13ifvqe2g","pricing_plan_id":"cebpf4jnsgd1na2vs0mg"},{"bike_id":"2c929730-8b8d-4228-907b-8f183d065f9c","system_id":"levelo_inurba_marseille","lat":43.24082,"lon":5.37684,"is_reserved":false,"is_disabled":false,"rental_uris":{"android":"levelo://app?vid=2c929730-8b8d-4228-907b-8f183d065f9c","ios":"levelo://app?vid=2c929730-8b8d-4228-907b-8f183d065f9c"},"vehicle_type_id":"4","last_reported":1773909047,"current_range_meters":8800,"station_id":"","pricing_plan_id":"cebpf4jnsgd1na2vs0mg"},{"bike_id":"789e3e3c-9d9d-4348-95e9-d7580b4010d1","system_id":"levelo_inurba_marseille","lat":43.30309,"lon":5.36919,"is_reserved":false,"is_disabled":false,"rental_uris":{"android":"levelo://app?vid=789e3e3c-9d9d-4348-95e9-d7580b4010d1","ios":"levelo://app?vid=789e3e3c-9d9d-4348-95e9-d7580b4010d1"},"vehicle_type_id":"4","last_reported":1773909047,"current_range_meters":8800,"station_id":"ce4bgqh2rcd13ifvqc5g","pricing_plan_id":"cebpf4jnsgd1na2vs0mg"},{"bike_id":"47b958a5-a9e9-4494-8472-abb0f760256b","system_id":"levelo_inurba_marseille","lat":43.23772,"lon":5.36632,"is_reserved":false,"is_disabled":false,"rental_uris":{"android":"levelo://app?vid=47b958a5-a9e9-4494-8472-abb0f760256b","ios":"levelo://app?vid=47b958a5-a9e9-4494-8472-abb0f760256b"},"vehicle_type_id":"4","last_reported":1773909047,"current_range_meters":8800,"station_id":"st_d3nk18o9ro0c73en2l3g","pricing_plan_id":"cebpf4jnsgd1na2vs0mg"},{"bike_id":"00dc1094-ab95-4b56-9796-2c944d98c0e7","system_id":"levelo_inurba_marseille","lat":43.30465,"lon":5.37901,"is_reserved":false,"is_disabled":false,"rental_uris":{"android":"levelo://app?vid=00dc1094-ab95-4b56-9796-2c944d98c0e7","ios":"levelo://app?vid=00dc1094-ab95-4b56-9796-2c944d98c0e7"},"vehicle_type_id":"4","last_reported":1773909047,"current_range_meters":8800,"station_id":"","pricing_plan_id":"cebpf4jnsgd1na2vs0mg"},{"bike_id":"2858b502-13ad-4133-aab5-28b9a7f9d95d","system_id":"levelo_inurba_marseille","lat":43.31077,"lon":5.36909,"is_reserved":false,"is_disabled":false,"rental_uris":{"android":"levelo://app?vid=2858b502-13ad-4133-aab5-28b9a7f9d95d","ios":"levelo://app?vid=2858b502-13ad-4133-aab5-28b9a7f9d95d"},"vehicle_type_id":"4","last_reported":1773909047,"current_range_meters":8800,"station_id":"","pricing_plan_id":"cebpf4jnsgd1na2vs0mg"},{"bike_id":"60ad09ea-2768-480c-b4b9-4ca12b474620","system_id":"levelo_inurba_marseille","lat":43.23782,"lon":5.36637,"is_reserved":false,"is_disabled":false,"rental_uris":{"android":"levelo://app?vid=60ad09ea-2768-480c-b4b9-4ca12b474620","ios":"levelo://app?vid=60ad09ea-2768-480c-b4b9-4ca12b474620"},"vehicle_type_id":"4","last_reported":1773909047,"current_range_meters":8800,"station_id":"st_d3nk18o9ro0c73en2l3g","pricing_plan_id":"cebpf4jnsgd1na2vs0mg"},{"bike_id":"1a35434d-c9e2-448e-ab11-b763a506a6ff","system_id":"levelo_inurba_marseille","lat":43.29928,"lon":5.38091,"is_reserved":false,"is_disabled":true,"rental_uris":{"android":"levelo://app?vid=1a35434d-c9e2-448e-ab11-b763a506a6ff","ios":"levelo://app?vid=1a35434d-c9e2-448e-ab11-b763a506a6ff"},"vehicle_type_id":"4","last_reported":1773909047,"current_range_meters":8800,"station_id":"","pricing_plan_id":"cebpf4jnsgd1na2vs0mg"},{"bike_id":"92331320-de6a-4a51-8ebb-f9d1b76d5747","system_id":"levelo_inurba_marseille","lat":43.30159,"lon":5.3809,"is_reserved":false,"is_disabled":false,"rental_uris":{"android":"levelo://app?vid=92331320-de6a-4a51-8ebb-f9d1b76d5747","ios":"levelo://app?vid=92331320-de6a-4a51-8ebb-f9d1b76d5747"},"vehicle_type_id":"4","last_reported":1773909047,"current_range_meters":8800,"station_id":"ce4bgjp2rcd13ifvqbh0","pricing_plan_id":"cebpf4jnsgd1na2vs0mg"},{"bike_id":"be523ae7-f0fc-4e2a-970b-30a3029fa717","system_id":"levelo_inurba_marseille","lat":43.28479,"lon":5.48392,"is_reserved":false,"is_disabled":false,"rental_uris":{"android":"levelo://app?vid=be523ae7-f0fc-4e2a-970b-30a3029fa717","ios":"levelo://app?vid=be523ae7-f0fc-4e2a-970b-30a3029fa717"},"vehicle_type_id":"4","last_reported":1773909047,"current_range_meters":8800,"station_id":"","pricing_plan_id":"cebpf4jnsgd1na2vs0mg"},{"bike_id":"15750178-4f9b-426f-bafa-493e04eb7e36","system_id":"levelo_inurba_marseille","lat":43.30814,"lon":5.40681,"is_reserved":false,"is_disabled":false,"rental_uris":{"android":"levelo://app?vid=15750178-4f9b-426f-bafa-493e04eb7e36","ios":"levelo://app?vid=15750178-4f9b-426f-bafa-493e04eb7e36"},"vehicle_type_id":"4","last_reported":1773909047,"current_range_meters":8800,"station_id":"","pricing_plan_id":"cebpf4jnsgd1na2vs0mg"},{"bike_id":"995be6d6-1522-4cd5-9330-6f4ca9c82ccf","system_id":"levelo_inurba_marseille","lat":43.28518,"lon":5.44102,"is_reserved":false,"is_disabled":false,"rental_uris":{"android":"levelo://app?vid=995be6d6-1522-4cd5-9330-6f4ca9c82ccf","ios":"levelo://app?vid=995be6d6-1522-4cd5-9330-6f4ca9c82ccf"},"vehicle_type_id":"4","last_reported":1773909047,"current_range_meters":8800,"station_id":"st_d3j3df2ikq2c7380ej80","pricing_plan_id":"cebpf4jnsgd1na2vs0mg"},{"bike_id":"6e312198-c530-414e-8f88-168b10974032","system_id":"levelo_inurba_marseille","lat":43.22588,"lon":5.41627,"is_reserved":false,"is_disabled":false,"rental_uris":{"android":"levelo://app?vid=6e312198-c530-414e-8f88-168b10974032","ios":"levelo://app?vid=6e312198-c530-414e-8f88-168b10974032"},"vehicle_type_id":"4","last_reported":1773909047,"current_range_meters":8800,"station_id":"st_d2o4gvlbi1j2169b742g","pricing_plan_id":"cebpf4jnsgd1na2vs0mg"},{"bike_id":"3bcd3f37-7909-4e8a-be03-a9562a2c0e45","system_id":"levelo_inurba_marseille","lat":43.28484,"lon":5.48391,"is_reserved":false,"is_disabled":false,"rental_uris":{"android":"levelo://app?vid=3bcd3f37-7909-4e8a-be03-a9562a2c0e45","ios":"levelo://app?vid=3bcd3f37-7909-4e8a-be03-a9562a2c0e45"},"vehicle_type_id":"4","last_reported":1773909047,"current_range_meters":9200,"station_id":"","pricing_plan_id":"cebpf4jnsgd1na2vs0mg"},{"bike_id":"65c78abf-f374-4680-a3ad-d08ecab171fd","system_id":"levelo_inurba_marseille","lat":43.30154,"lon":5.37402,"is_reserved":false,"is_disabled":false,"rental_uris":{"android":"levelo://app?vid=65c78abf-f374-4680-a3ad-d08ecab171fd","ios":"levelo://app?vid=65c78abf-f374-4680-a3ad-d08ecab171fd"},"vehicle_type_id":"4","last_reported":1773909047,"current_range_meters":9200,"station_id":"ce4bgs92rcd13ifvqcc0","pricing_plan_id":"cebpf4jnsgd1na2vs0mg"},{"bike_id":"b790cc6c-beda-4dcd-96dd-e541806c10fa","system_id":"levelo_inurba_marseille","lat":43.27469,"lon":5.41612,"is_reserved":false,"is_disabled":false,"rental_uris":{"android":"levelo://app?vid=b790cc6c-beda-4dcd-96dd-e541806c10fa","ios":"levelo://app?vid=b790cc6c-beda-4dcd-96dd-e541806c10fa"},"vehicle_type_id":"4","last_reported":1773909047,"current_range_meters":9200,"station_id":"st_d6im8g6chgec73a5pndg","pricing_plan_id":"cebpf4jnsgd1na2vs0mg"},{"bike_id":"81504fcd-b1a8-4689-8b51-229e0fdebee1","system_id":"levelo_inurba_marseille","lat":43.27709,"lon":5.39915,"is_reserved":false,"is_disabled":false,"rental_uris":{"android":"levelo://app?vid=81504fcd-b1a8-4689-8b51-229e0fdebee1","ios":"levelo://app?vid=81504fcd-b1a8-4689-8b51-229e0fdebee1"},"vehicle_type_id":"4","last_reported":1773909047,"current_range_meters":9200,"station_id":"","pricing_plan_id":"cebpf4jnsgd1na2vs0mg"},{"bike_id":"91754ca3-cd5e-47a5-b17b-b94faa181426","system_id":"levelo_inurba_marseille","lat":43.32131,"lon":5.36764,"is_reserved":false,"is_disabled":false,"rental_uris":{"android":"levelo://app?vid=91754ca3-cd5e-47a5-b17b-b94faa181426","ios":"levelo://app?vid=91754ca3-cd5e-47a5-b17b-b94faa181426"},"vehicle_type_id":"4","last_reported":1773909047,"current_range_meters":9200,"station_id":"ce4bhrh2rcd13ifvqhug","pricing_plan_id":"cebpf4jnsgd1na2vs0mg"},{"bike_id":"5b633a99-6e6c-40eb-b51a-c5e14db697a0","system_id":"levelo_inurba_marseille","lat":43.27064,"lon":5.42303,"is_reserved":false,"is_disabled":false,"rental_uris":{"android":"levelo://app?vid=5b633a99-6e6c-40eb-b51a-c5e14db697a0","ios":"levelo://app?vid=5b633a99-6e6c-40eb-b51a-c5e14db697a0"},"vehicle_type_id":"4","last_reported":1773909047,"current_range_meters":9200,"station_id":"ce4bhk92rcd13ifvqgb0","pricing_plan_id":"cebpf4jnsgd1na2vs0mg"},{"bike_id":"57d1ada9-1a9f-44a6-9752-b843732a3f40","system_id":"levelo_inurba_marseille","lat":43.29959,"lon":5.37142,"is_reserved":false,"is_disabled":false,"rental_uris":{"android":"levelo://app?vid=57d1ada9-1a9f-44a6-9752-b843732a3f40","ios":"levelo://app?vid=57d1ada9-1a9f-44a6-9752-b843732a3f40"},"vehicle_type_id":"4","last_reported":1773909047,"current_range_meters":9200,"station_id":"ce4bgr92rcd13ifvqc7g","pricing_plan_id":"cebpf4jnsgd1na2vs0mg"},{"bike_id":"b50e93c9-47b0-4fff-b4c5-42460e683cce","system_id":"levelo_inurba_marseille","lat":43.31354,"lon":5.36751,"is_reserved":false,"is_disabled":false,"rental_uris":{"android":"levelo://app?vid=b50e93c9-47b0-4fff-b4c5-42460e683cce","ios":"levelo://app?vid=b50e93c9-47b0-4fff-b4c5-42460e683cce"},"vehicle_type_id":"4","last_reported":1773909047,"current_range_meters":9200,"station_id":"ce4bgr92rcd13ifvqc6g","pricing_plan_id":"cebpf4jnsgd1na2vs0mg"},{"bike_id":"bf6a2167-7677-4dc4-a81c-f593ae047d82","system_id":"levelo_inurba_marseille","lat":43.26555,"lon":5.37323,"is_reserved":false,"is_disabled":false,"rental_uris":{"android":"levelo://app?vid=bf6a2167-7677-4dc4-a81c-f593ae047d82","ios":"levelo://app?vid=bf6a2167-7677-4dc4-a81c-f593ae047d82"},"vehicle_type_id":"4","last_reported":1773909047,"current_range_meters":9200,"station_id":"ce4bhg12rcd13ifvqf70","pricing_plan_id":"cebpf4jnsgd1na2vs0mg"},{"bike_id":"ea4af6cb-8db6-423a-94a5-7039e2704ff5","system_id":"levelo_inurba_marseille","lat":43.27079,"lon":5.42258,"is_reserved":false,"is_disabled":false,"rental_uris":{"android":"levelo://app?vid=ea4af6cb-8db6-423a-94a5-7039e2704ff5","ios":"levelo://app?vid=ea4af6cb-8db6-423a-94a5-7039e2704ff5"},"vehicle_type_id":"4","last_reported":1773909047,"current_range_meters":9200,"station_id":"ce4bhk92rcd13ifvqgb0","pricing_plan_id":"cebpf4jnsgd1na2vs0mg"},{"bike_id":"94c2774e-0e80-49a5-a48d-27354f95f394","system_id":"levelo_inurba_marseille","lat":43.2294,"lon":5.35377,"is_reserved":false,"is_disabled":false,"rental_uris":{"android":"levelo://app?vid=94c2774e-0e80-49a5-a48d-27354f95f394","ios":"levelo://app?vid=94c2774e-0e80-49a5-a48d-27354f95f394"},"vehicle_type_id":"4","last_reported":1773909047,"current_range_meters":9200,"station_id":"cpo3532slgdg3j2ikp40","pricing_plan_id":"cebpf4jnsgd1na2vs0mg"},{"bike_id":"de1198f2-86f7-4e4b-8f15-1d4752933303","system_id":"levelo_inurba_marseille","lat":43.23794,"lon":5.36631,"is_reserved":false,"is_disabled":false,"rental_uris":{"android":"levelo://app?vid=de1198f2-86f7-4e4b-8f15-1d4752933303","ios":"levelo://app?vid=de1198f2-86f7-4e4b-8f15-1d4752933303"},"vehicle_type_id":"4","last_reported":1773909047,"current_range_meters":9200,"station_id":"st_d3nk18o9ro0c73en2l3g","pricing_plan_id":"cebpf4jnsgd1na2vs0mg"},{"bike_id":"90183753-1953-46c9-b31f-f8e71d370711","system_id":"levelo_inurba_marseille","lat":43.26793,"lon":5.39436,"is_reserved":false,"is_disabled":false,"rental_uris":{"android":"levelo://app?vid=90183753-1953-46c9-b31f-f8e71d370711","ios":"levelo://app?vid=90183753-1953-46c9-b31f-f8e71d370711"},"vehicle_type_id":"4","last_reported":1773909047,"current_range_meters":9200,"station_id":"ce4bhh12rcd13ifvqfg0","pricing_plan_id":"cebpf4jnsgd1na2vs0mg"},{"bike_id":"d9e75218-a79e-4a06-9cf9-12988bef57d0","system_id":"levelo_inurba_marseille","lat":43.30963,"lon":5.39038,"is_reserved":false,"is_disabled":false,"rental_uris":{"android":"levelo://app?vid=d9e75218-a79e-4a06-9cf9-12988bef57d0","ios":"levelo://app?vid=d9e75218-a79e-4a06-9cf9-12988bef57d0"},"vehicle_type_id":"4","last_reported":1773909047,"current_range_meters":9200,"station_id":"ce4bgup2rcd13ifvqco0","pricing_plan_id":"cebpf4jnsgd1na2vs0mg"},{"bike_id":"78bb54cf-5275-4554-9f53-8437367c33f2","system_id":"levelo_inurba_marseille","lat":43.23209,"lon":5.35552,"is_reserved":false,"is_disabled":false,"rental_uris":{"android":"levelo://app?vid=78bb54cf-5275-4554-9f53-8437367c33f2","ios":"levelo://app?vid=78bb54cf-5275-4554-9f53-8437367c33f2"},"vehicle_type_id":"4","last_reported":1773909047,"current_range_meters":9200,"station_id":"ce4bhu92rcd13ifvqi70","pricing_plan_id":"cebpf4jnsgd1na2vs0mg"},{"bike_id":"77c0b298-0d59-4978-be71-c0ef63c7d17b","system_id":"levelo_inurba_marseille","lat":43.31688,"lon":5.40481,"is_reserved":false,"is_disabled":false,"rental_uris":{"android":"levelo://app?vid=77c0b298-0d59-4978-be71-c0ef63c7d17b","ios":"levelo://app?vid=77c0b298-0d59-4978-be71-c0ef63c7d17b"},"vehicle_type_id":"4","last_reported":1773909047,"current_range_meters":9200,"station_id":"ce4bh012rcd13ifvqd00","pricing_plan_id":"cebpf4jnsgd1na2vs0mg"},{"bike_id":"243cb08e-4227-45f9-a868-6ce9f3dd7339","system_id":"levelo_inurba_marseille","lat":43.26941,"lon":5.38641,"is_reserved":false,"is_disabled":false,"rental_uris":{"android":"levelo://app?vid=243cb08e-4227-45f9-a868-6ce9f3dd7339","ios":"levelo://app?vid=243cb08e-4227-45f9-a868-6ce9f3dd7339"},"vehicle_type_id":"4","last_reported":1773909047,"current_range_meters":9200,"station_id":"ce4bhh92rcd13ifvqfh0","pricing_plan_id":"cebpf4jnsgd1na2vs0mg"},{"bike_id":"91472141-3427-4a3c-8d44-aa322d033af6","system_id":"levelo_inurba_marseille","lat":43.29066,"lon":5.38325,"is_reserved":false,"is_disabled":false,"rental_uris":{"android":"levelo://app?vid=91472141-3427-4a3c-8d44-aa322d033af6","ios":"levelo://app?vid=91472141-3427-4a3c-8d44-aa322d033af6"},"vehicle_type_id":"4","last_reported":1773909047,"current_range_meters":9200,"station_id":"","pricing_plan_id":"cebpf4jnsgd1na2vs0mg"},{"bike_id":"faba9f56-2e6d-41db-abbd-d24651519368","system_id":"levelo_inurba_marseille","lat":43.26632,"lon":5.38301,"is_reserved":false,"is_disabled":false,"rental_uris":{"android":"levelo://app?vid=faba9f56-2e6d-41db-abbd-d24651519368","ios":"levelo://app?vid=faba9f56-2e6d-41db-abbd-d24651519368"},"vehicle_type_id":"4","last_reported":1773909047,"current_range_meters":9600,"station_id":"","pricing_plan_id":"cebpf4jnsgd1na2vs0mg"},{"bike_id":"be72fa37-50a5-4bcd-a2cb-ff4a02e7566d","system_id":"levelo_inurba_marseille","lat":43.26679,"lon":5.3827,"is_reserved":false,"is_disabled":false,"rental_uris":{"android":"levelo://app?vid=be72fa37-50a5-4bcd-a2cb-ff4a02e7566d","ios":"levelo://app?vid=be72fa37-50a5-4bcd-a2cb-ff4a02e7566d"},"vehicle_type_id":"4","last_reported":1773909047,"current_range_meters":9600,"station_id":"ce4bhg92rcd13ifvqf90","pricing_plan_id":"cebpf4jnsgd1na2vs0mg"},{"bike_id":"3072c2b7-499e-4858-9501-6070c7badbaf","system_id":"levelo_inurba_marseille","lat":43.23961,"lon":5.36625,"is_reserved":false,"is_disabled":false,"rental_uris":{"android":"levelo://app?vid=3072c2b7-499e-4858-9501-6070c7badbaf","ios":"levelo://app?vid=3072c2b7-499e-4858-9501-6070c7badbaf"},"vehicle_type_id":"4","last_reported":1773909047,"current_range_meters":9600,"station_id":"ce4bhi12rcd13ifvqfp0","pricing_plan_id":"cebpf4jnsgd1na2vs0mg"},{"bike_id":"6018d565-5c8a-4bab-ba5d-0061fbbaec08","system_id":"levelo_inurba_marseille","lat":43.22933,"lon":5.35376,"is_reserved":false,"is_disabled":false,"rental_uris":{"android":"levelo://app?vid=6018d565-5c8a-4bab-ba5d-0061fbbaec08","ios":"levelo://app?vid=6018d565-5c8a-4bab-ba5d-0061fbbaec08"},"vehicle_type_id":"4","last_reported":1773909047,"current_range_meters":9600,"station_id":"cpo3532slgdg3j2ikp40","pricing_plan_id":"cebpf4jnsgd1na2vs0mg"},{"bike_id":"0264288d-82fa-4432-8751-6c08c0e54bb7","system_id":"levelo_inurba_marseille","lat":43.30267,"lon":5.42479,"is_reserved":false,"is_disabled":false,"rental_uris":{"android":"levelo://app?vid=0264288d-82fa-4432-8751-6c08c0e54bb7","ios":"levelo://app?vid=0264288d-82fa-4432-8751-6c08c0e54bb7"},"vehicle_type_id":"4","last_reported":1773909047,"current_range_meters":9600,"station_id":"","pricing_plan_id":"cebpf4jnsgd1na2vs0mg"},{"bike_id":"70bc3c79-c3e5-47f5-9f17-0b27723a6d70","system_id":"levelo_inurba_marseille","lat":43.24079,"lon":5.37728,"is_reserved":false,"is_disabled":false,"rental_uris":{"android":"levelo://app?vid=70bc3c79-c3e5-47f5-9f17-0b27723a6d70","ios":"levelo://app?vid=70bc3c79-c3e5-47f5-9f17-0b27723a6d70"},"vehicle_type_id":"4","last_reported":1773909047,"current_range_meters":9600,"station_id":"ce4bhnp2rcd13ifvqgvg","pricing_plan_id":"cebpf4jnsgd1na2vs0mg"},{"bike_id":"ee0bf06e-fcac-4865-8ee8-f92f07285ef8","system_id":"levelo_inurba_marseille","lat":43.33759,"lon":5.37467,"is_reserved":false,"is_disabled":false,"rental_uris":{"android":"levelo://app?vid=ee0bf06e-fcac-4865-8ee8-f92f07285ef8","ios":"levelo://app?vid=ee0bf06e-fcac-4865-8ee8-f92f07285ef8"},"vehicle_type_id":"4","last_reported":1773909047,"current_range_meters":9600,"station_id":"","pricing_plan_id":"cebpf4jnsgd1na2vs0mg"},{"bike_id":"b78efe34-9c51-4bda-ac14-0652399b0549","system_id":"levelo_inurba_marseille","lat":43.26803,"lon":5.40259,"is_reserved":false,"is_disabled":false,"rental_uris":{"android":"levelo://app?vid=b78efe34-9c51-4bda-ac14-0652399b0549","ios":"levelo://app?vid=b78efe34-9c51-4bda-ac14-0652399b0549"},"vehicle_type_id":"4","last_reported":1773909047,"current_range_meters":9600,"station_id":"ce501612rcd8frsf0b60","pricing_plan_id":"cebpf4jnsgd1na2vs0mg"},{"bike_id":"73eb9938-ef34-4e78-991f-1cb2107e2274","system_id":"levelo_inurba_marseille","lat":43.27225,"lon":5.39184,"is_reserved":false,"is_disabled":false,"rental_uris":{"android":"levelo://app?vid=73eb9938-ef34-4e78-991f-1cb2107e2274","ios":"levelo://app?vid=73eb9938-ef34-4e78-991f-1cb2107e2274"},"vehicle_type_id":"4","last_reported":1773909047,"current_range_meters":9600,"station_id":"ce4bhhp2rcd13ifvqfm0","pricing_plan_id":"cebpf4jnsgd1na2vs0mg"},{"bike_id":"dd74091b-705a-4531-bc39-afff2195d9a1","system_id":"levelo_inurba_marseille","lat":43.24801,"lon":5.3746,"is_reserved":false,"is_disabled":false,"rental_uris":{"android":"levelo://app?vid=dd74091b-705a-4531-bc39-afff2195d9a1","ios":"levelo://app?vid=dd74091b-705a-4531-bc39-afff2195d9a1"},"vehicle_type_id":"4","last_reported":1773909047,"current_range_meters":9600,"station_id":"ce4bhgh2rcd13ifvqfb0","pricing_plan_id":"cebpf4jnsgd1na2vs0mg"},