{"last_updated":1731377259,"ttl":60,"version":"2.2","data":{"bikes":[{"bike_id":"2afb4c00-67cc-42f1-ae32-502f5aecb4b2","system_id":"levelo_inurba_marseille","lat":43.24073,"lon":5.37717,"is_reserved":false,"is_disabled":false,"rental_uris":{"android":"levelo://app?vid=2afb4c00-67cc-42f1-ae32-502f5aecb4b2","ios":"levelo://app?vid=2afb4c00-67cc-42f1-ae32-502f5aecb4b2"},"vehicle_type_id":"4","last_reported":1731377259,"current_range_meters":30800,"station_id":"ce4bhnp2rcd13ifvqgvg","pricing_plan_id":"cebpf4jnsgd1na2vs0mg"},{"bike_id":"55f338da-564d-4339-bcb5-5d0a4b68c4e6","system_id":"levelo_inurba_marseille","lat":43.31072,"lon":5.40092,"is_reserved":false,"is_disabled":false,"rental_uris":{"android":"levelo://app?vid=55f338da-564d-4339-bcb5-5d0a4b68c4e6","ios":"levelo://app?vid=55f338da-564d-4339-bcb5-5d0a4b68c4e6"},"vehicle_type_id":"4","last_reported":1731377259,"current_range_meters":4800,"station_id":"","pricing_plan_id":"cebpf4jnsgd1na2vs0mg"},{"bike_id":"7d263089-dc22-413a-b37a-45490641fd7e","system_id":"levelo_inurba_marseille","lat":43.29281,"lon":5.40125,"is_reserved":false,"is_disabled":false,"rental_uris":{"android":"levelo://app?vid=7d263089-dc22-413a-b37a-45490641fd7e","ios":"levelo://app?vid=7d263089-dc22-413a-b37a-45490641fd7e"},"vehicle_type_id":"4","last_reported":1731377259,"current_range_meters":38800,"station_id":"ce4bh312rcd13ifvqdk0","pricing_plan_id":"cebpf4jnsgd1na2vs0mg"},{"bike_id":"069aa614-dd1f-40e4-8bb2-ffcfb069572f","system_id":"levelo_inurba_marseille","lat":43.28614,"lon":5.37063,"is_reserved":false,"is_disabled":false,"rental_uris":{"android":"levelo://app?vid=069aa614-dd1f-40e4-8bb2-ffcfb069572f","ios":"levelo://app?vid=069aa614-dd1f-40e4-8bb2-ffcfb069572f"},"vehicle_type_id":"4","last_reported":1731377259,"current_range_meters":36800,"station_id":"ce4bht12rcd13ifvqi60","pricing_plan_id":"cebpf4jnsgd1na2vs0mg"},{"bike_id":"7cfe6e23-1bc9-4580-9cde-63420454d057","system_id":"levelo_inurba_marseille","lat":43.27997,"lon":5.39979,"is_reserved":false,"is_disabled":false,"rental_uris":{"android":"levelo://app?vid=7cfe6e23-1bc9-4580-9cde-63420454d057","ios":"levelo://app?vid=7cfe6e23-1bc9-4580-9cde-63420454d057"},"vehicle_type_id":"4","last_reported":1731377259,"current_range_meters":30800,"station_id":"ce4bho92rcd13ifvqh4g","pricing_plan_id":"cebpf4jnsgd1na2vs0mg"},{"bike_id":"a10cb60d-91b5-4173-bced-41641f7d5dc1","system_id":"levelo_inurba_marseille","lat":43.2899,"lon":5.39997,"is_reserved":false,"is_disabled":false,"rental_uris":{"android":"levelo://app?vid=a10cb60d-91b5-4173-bced-41641f7d5dc1","ios":"levelo://app?vid=a10cb60d-91b5-4173-bced-41641f7d5dc1"},"vehicle_type_id":"4","last_reported":1731377259,"current_range_meters":38800,"station_id":"ce4bh392rcd13ifvqdm0","pricing_plan_id":"cebpf4jnsgd1na2vs0mg"},{"bike_id":"2eceb2f4-769e-4e99-b9fa-40ec7b652382","system_id":"levelo_inurba_marseille","lat":43.26179,"lon":5.37901,"is_reserved":false,"is_disabled":false,"rental_uris":{"android":"levelo://app?vid=2eceb2f4-769e-4e99-b9fa-40ec7b652382","ios":"levelo://app?vid=2eceb2f4-769e-4e99-b9fa-40ec7b652382"},"vehicle_type_id":"4","last_reported":1731377259,"current_range_meters":28000,"station_id":"ce4bhjp2rcd13ifvqg90","pricing_plan_id":"cebpf4jnsgd1na2vs0mg"},{"bike_id":"2e21a847-6ba1-400f-a23d-9322a925cb91","system_id":"levelo_inurba_marseille","lat":43.2857,"lon":5.39472,"is_reserved":false,"is_disabled":false,"rental_uris":{"android":"levelo://app?vid=2e21a847-6ba1-400f-a23d-9322a925cb91","ios":"levelo://app?vid=2e21a847-6ba1-400f-a23d-9322a925cb91"},"vehicle_type_id":"4","last_reported":1731377259,"current_range_meters":36400,"station_id":"ce4bh292rcd13ifvqdg0","pricing_plan_id":"cebpf4jnsgd1na2vs0mg"},{"bike_id":"4168f567-a5e4-49ac-b248-24fb5a42d61e","system_id":"levelo_inurba_marseille","lat":43.30863,"lon":5.39616,"is_reserved":false,"is_disabled":false,"rental_uris":{"android":"levelo://app?vid=4168f567-a5e4-49ac-b248-24fb5a42d61e","ios":"levelo://app?vid=4168f567-a5e4-49ac-b248-24fb5a42d61e"},"vehicle_type_id":"4","last_reported":1731377259,"current_range_meters":38800,"station_id":"ce4bh012rcd13ifvqcv0","pricing_plan_id":"cebpf4jnsgd1na2vs0mg"},{"bike_id":"c1d4d46f-68bb-4094-ab1c-6d66217cdb82","system_id":"levelo_inurba_marseille","lat":43.31347,"lon":5.39717,"is_reserved":false,"is_disabled":false,"rental_uris":{"android":"levelo://app?vid=c1d4d46f-68bb-4094-ab1c-6d66217cdb82","ios":"levelo://app?vid=c1d4d46f-68bb-4094-ab1c-6d66217cdb82"},"vehicle_type_id":"4","last_reported":1731377259,"current_range_meters":21600,"station_id":"ce4bgvp2rcd13ifvqcu0","pricing_plan_id":"cebpf4jnsgd1na2vs0mg"},{"bike_id":"e8f6a345-613f-4d73-b3c6-ff7badec834d","system_id":"levelo_inurba_marseille","lat":43.29209,"lon":5.39321,"is_reserved":false,"is_disabled":false,"rental_uris":{"android":"levelo://app?vid=e8f6a345-613f-4d73-b3c6-ff7badec834d","ios":"levelo://app?vid=e8f6a345-613f-4d73-b3c6-ff7badec834d"},"vehicle_type_id":"4","last_reported":1731377259,"current_range_meters":34800,"station_id":"ce4bh192rcd13ifvqdd0","pricing_plan_id":"cebpf4jnsgd1na2vs0mg"},{"bike_id":"6bf6494e-2c22-47ab-a239-0d3ffefdcce6","system_id":"levelo_inurba_marseille","lat":43.2892,"lon":5.3836,"is_reserved":false,"is_disabled":false,"rental_uris":{"android":"levelo://app?vid=6bf6494e-2c22-47ab-a239-0d3ffefdcce6","ios":"levelo://app?vid=6bf6494e-2c22-47ab-a239-0d3ffefdcce6"},"vehicle_type_id":"4","last_reported":1731377259,"current_range_meters":6400,"station_id":"ce4bh612rcd13ifvqe6g","pricing_plan_id":"cebpf4jnsgd1na2vs0mg"},{"bike_id":"2970b8c0-0401-4bd0-a88e-3141032fc477","system_id":"levelo_inurba_marseille","lat":43.25104,"lon":5.40316,"is_reserved":false,"is_disabled":false,"rental_uris":{"android":"levelo://app?vid=2970b8c0-0401-4bd0-a88e-3141032fc477","ios":"levelo://app?vid=2970b8c0-0401-4bd0-a88e-3141032fc477"},"vehicle_type_id":"4","last_reported":1731377259,"current_range_meters":37600,"station_id":"ce4bhlh2rcd13ifvqgig","pricing_plan_id":"cebpf4jnsgd1na2vs0mg"},{"bike_id":"d55c2310-fff4-46f6-8c3d-bf3100f9edcb","system_id":"levelo_inurba_marseille","lat":43.30322,"lon":5.40445,"is_reserved":false,"is_disabled":false,"rental_uris":{"android":"levelo://app?vid=d55c2310-fff4-46f6-8c3d-bf3100f9edcb","ios":"levelo://app?vid=d55c2310-fff4-46f6-8c3d-bf3100f9edcb"},"vehicle_type_id":"4","last_reported":1731377259,"current_range_meters":36800,"station_id":"ce4bh012rcd13ifvqd10","pricing_plan_id":"cebpf4jnsgd1na2vs0mg"},{"bike_id":"5f671af9-34ec-4500-b1fd-c7f28d715cb9","system_id":"levelo_inurba_marseille","lat":43.28729,"lon":5.36082,"is_reserved":false,"is_disabled":false,"rental_uris":{"android":"levelo://app?vid=5f671af9-34ec-4500-b1fd-c7f28d715cb9","ios":"levelo://app?vid=5f671af9-34ec-4500-b1fd-c7f28d715cb9"},"vehicle_type_id":"4","last_reported":1731377259,"current_range_meters":38800,"station_id":"cki0cbj6b192h4jlfktg","pricing_plan_id":"cebpf4jnsgd1na2vs0mg"},{"bike_id":"9d1321dd-1fbe-408e-9e13-0e21e4e610ef","system_id":"levelo_inurba_marseille","lat":43.28037,"lon":5.36934,"is_reserved":false,"is_disabled":false,"rental_uris":{"android":"levelo://app?vid=9d1321dd-1fbe-408e-9e13-0e21e4e610ef","ios":"levelo://app?vid=9d1321dd-1fbe-408e-9e13-0e21e4e610ef"},"vehicle_type_id":"4","last_reported":1731377259,"current_range_meters":39200,"station_id":"ce4bha12rcd13ifvqef0","pricing_plan_id":"cebpf4jnsgd1na2vs0mg"},{"bike_id":"b5a0f60d-ed4f-4aae-8034-67433a67b848","system_id":"levelo_inurba_marseille","lat":43.29034,"lon":5.39957,"is_reserved":false,"is_disabled":false,"rental_uris":{"android":"levelo://app?vid=b5a0f60d-ed4f-4aae-8034-67433a67b848","ios":"levelo://app?vid=b5a0f60d-ed4f-4aae-8034-67433a67b848"},"vehicle_type_id":"4","last_reported":1731377259,"current_range_meters":39200,"station_id":"ce4bh392rcd13ifvqdm0","pricing_plan_id":"cebpf4jnsgd1na2vs0mg"},{"bike_id":"d58636f1-224d-48a3-ac68-59d52e30576f","system_id":"levelo_inurba_marseille","lat":43.32367,"lon":5.38882,"is_reserved":false,"is_disabled":false,"rental_uris":{"android":"levelo://app?vid=d58636f1-224d-48a3-ac68-59d52e30576f","ios":"levelo://app?vid=d58636f1-224d-48a3-ac68-59d52e30576f"},"vehicle_type_id":"4","last_reported":1731377259,"current_range_meters":33600,"station_id":"ce4bhqp2rcd13ifvqhog","pricing_plan_id":"cebpf4jnsgd1na2vs0mg"},{"bike_id":"00f7bd09-eb18-4ae0-9231-d3b4d0bbc19e","system_id":"levelo_inurba_marseille","lat":43.28413,"lon":5.37519,"is_reserved":false,"is_disabled":false,"rental_uris":{"android":"levelo://app?vid=00f7bd09-eb18-4ae0-9231-d3b4d0bbc19e","ios":"levelo://app?vid=00f7bd09-eb18-4ae0-9231-d3b4d0bbc19e"},"vehicle_type_id":"4","last_reported":1731377259,"current_range_meters":38400,"station_id":"ce4bh412rcd13ifvqds0","pricing_plan_id":"cebpf4jnsgd1na2vs0mg"},{"bike_id":"434cce1a-9eee-4e8b-8865-499812afcbe8","system_id":"levelo_inurba_marseille","lat":43.25817,"lon":5.3942,"is_reserved":false,"is_disabled":false,"rental_uris":{"android":"levelo://app?vid=434cce1a-9eee-4e8b-8865-499812afcbe8","ios":"levelo://app?vid=434cce1a-9eee-4e8b-8865-499812afcbe8"},"vehicle_type_id":"4","last_reported":1731377259,"current_range_meters":38000,"station_id":"ce4bhip2rcd13ifvqft0","pricing_plan_id":"cebpf4jnsgd1na2vs0mg"},{"bike_id":"b44abec3-41dd-4ca0-9892-41b999749fe3","system_id":"levelo_inurba_marseille","lat":43.31281,"lon":5.40177,"is_reserved":false,"is_disabled":false,"rental_uris":{"android":"levelo://app?vid=b44abec3-41dd-4ca0-9892-41b999749fe3","ios":"levelo://app?vid=b44abec3-41dd-4ca0-9892-41b999749fe3"},"vehicle_type_id":"4","last_reported":1731377259,"current_range_meters":25600,"station_id":"ce4bh092rcd13ifvqd30","pricing_plan_id":"cebpf4jnsgd1na2vs0mg"},{"bike_id":"45cbcec8-866a-410e-ac80-4597d326b6ff","system_id":"levelo_inurba_marseille","lat":43.29033,"lon":5.3866,"is_reserved":false,"is_disabled":false,"rental_uris":{"android":"levelo://app?vid=45cbcec8-866a-410e-ac80-4597d326b6ff","ios":"levelo://app?vid=45cbcec8-866a-410e-ac80-4597d326b6ff"},"vehicle_type_id":"4","last_reported":1731377259,"current_range_meters":34000,"station_id":"ce4bh4p2rcd13ifvqe0g","pricing_plan_id":"cebpf4jnsgd1na2vs0mg"},{"bike_id":"b3e9156c-7ae6-49e2-9b82-9b89f0e3e830","system_id":"levelo_inurba_marseille","lat":43.28619,"lon":5.35104,"is_reserved":false,"is_disabled":false,"rental_uris":{"android":"levelo://app?vid=b3e9156c-7ae6-49e2-9b82-9b89f0e3e830","ios":"levelo://app?vid=b3e9156c-7ae6-49e2-9b82-9b89f0e3e830"},"vehicle_type_id":"4","last_reported":1731377259,"current_range_meters":25200,"station_id":"ce4bhch2rcd13ifvqeug","pricing_plan_id":"cebpf4jnsgd1na2vs0mg"},{"bike_id":"6e62b74d-c3a1-441b-bf00-0e1651e4eb84","system_id":"levelo_inurba_marseille","lat":43.28275,"lon":5.35071,"is_reserved":false,"is_disabled":false,"rental_uris":{"android":"levelo://app?vid=6e62b74d-c3a1-441b-bf00-0e1651e4eb84","ios":"levelo://app?vid=6e62b74d-c3a1-441b-bf00-0e1651e4eb84"},"vehicle_type_id":"4","last_reported":1731377259,"current_range_meters":19200,"station_id":"ce4bhbp2rcd13ifvqerg","pricing_plan_id":"cebpf4jnsgd1na2vs0mg"},{"bike_id":"af4b16b2-2793-4fea-9648-ff15d2a07b3d","system_id":"levelo_inurba_marseille","lat":43.25089,"lon":5.39526,"is_reserved":false,"is_disabled":false,"rental_uris":{"android":"levelo://app?vid=af4b16b2-2793-4fea-9648-ff15d2a07b3d","ios":"levelo://app?vid=af4b16b2-2793-4fea-9648-ff15d2a07b3d"},"vehicle_type_id":"4","last_reported":1731377259,"current_range_meters":39200,"station_id":"ce4bhm12rcd13ifvqgkg","pricing_plan_id":"cebpf4jnsgd1na2vs0mg"},{"bike_id":"7b62d9a1-4410-4919-b265-e09aff197a53","system_id":"levelo_inurba_marseille","lat":43.27071,"lon":5.42275,"is_reserved":false,"is_disabled":false,"rental_uris":{"android":"levelo://app?vid=7b62d9a1-4410-4919-b265-e09aff197a53","ios":"levelo://app?vid=7b62d9a1-4410-4919-b265-e09aff197a53"},"vehicle_type_id":"4","last_reported":1731377259,"current_range_meters":38800,"station_id":"ce4bhk92rcd13ifvqgb0","pricing_plan_id":"cebpf4jnsgd1na2vs0mg"},{"bike_id":"ae6df8b6-b947-4982-b485-c1304b8fa66e","system_id":"levelo_inurba_marseille","lat":43.28731,"lon":5.36092,"is_reserved":false,"is_disabled":false,"rental_uris":{"android":"levelo://app?vid=ae6df8b6-b947-4982-b485-c1304b8fa66e","ios":"levelo://app?vid=ae6df8b6-b947-4982-b485-c1304b8fa66e"},"vehicle_type_id":"4","last_reported":1731377259,"current_range_meters":35600,"station_id":"cki0cbj6b192h4jlfktg","pricing_plan_id":"cebpf4jnsgd1na2vs0mg"},{"bike_id":"2bf17b7d-6c5d-4291-a5db-173f19a13335","system_id":"levelo_inurba_marseille","lat":43.2465,"lon":5.38908,"is_reserved":false,"is_disabled":false,"rental_uris":{"android":"levelo://app?vid=2bf17b7d-6c5d-4291-a5db-173f19a13335","ios":"levelo://app?vid=2bf17b7d-6c5d-4291-a5db-173f19a13335"},"vehicle_type_id":"4","last_reported":1731377259,"current_range_meters":33200,"station_id":"ce4bhg12rcd13ifvqf60","pricing_plan_id":"cebpf4jnsgd1na2vs0mg"},{"bike_id":"1ec31f50-d96c-47c6-9806-96f227089cd4","system_id":"levelo_inurba_marseille","lat":43.27494,"lon":5.42463,"is_reserved":false,"is_disabled":false,"rental_uris":{"android":"levelo://app?vid=1ec31f50-d96c-47c6-9806-96f227089cd4","ios":"levelo://app?vid=1ec31f50-d96c-47c6-9806-96f227089cd4"},"vehicle_type_id":"4","last_reported":1731377259,"current_range_meters":35200,"station_id":"ce4bhn92rcd13ifvqgrg","pricing_plan_id":"cebpf4jnsgd1na2vs0mg"},{"bike_id":"afc3c5b0-3896-4b74-beef-f6846cc7e6a4","system_id":"levelo_inurba_marseille","lat":43.31172,"lon":5.38711,"is_reserved":false,"is_disabled":false,"rental_uris":{"android":"levelo://app?vid=afc3c5b0-3896-4b74-beef-f6846cc7e6a4","ios":"levelo://app?vid=afc3c5b0-3896-4b74-beef-f6846cc7e6a4"},"vehicle_type_id":"4","last_reported":1731377259,"current_range_meters":39200,"station_id":"ce4bgv12rcd13ifvqcp0","pricing_plan_id":"cebpf4jnsgd1na2vs0mg"},{"bike_id":"ac6470e3-40ed-4af3-a282-515bdef8bca7","system_id":"levelo_inurba_marseille","lat":43.30777,"lon":5.37644,"is_reserved":false,"is_disabled":false,"rental_uris":{"android":"levelo://app?vid=ac6470e3-40ed-4af3-a282-515bdef8bca7","ios":"levelo://app?vid=ac6470e3-40ed-4af3-a282-515bdef8bca7"},"vehicle_type_id":"4","last_reported":1731377259,"current_range_meters":38000,"station_id":"ce4bgv92rcd13ifvqcq0","pricing_plan_id":"cebpf4jnsgd1na2vs0mg"},{"bike_id":"32f97dc1-ce31-40f8-b00d-0551dfc7143c","system_id":"levelo_inurba_marseille","lat":43.3095,"lon":5.39054,"is_reserved":false,"is_disabled":false,"rental_uris":{"android":"levelo://app?vid=32f97dc1-ce31-40f8-b00d-0551dfc7143c","ios":"levelo://app?vid=32f97dc1-ce31-40f8-b00d-0551dfc7143c"},"vehicle_type_id":"4","last_reported":1731377259,"current_range_meters":36000,"station_id":"ce4bgup2rcd13ifvqco0","pricing_plan_id":"cebpf4jnsgd1na2vs0mg"},{"bike_id":"86a1e8ec-924c-482f-a632-e7f0600dca6f","system_id":"levelo_inurba_marseille","lat":43.3363,"lon":5.41002,"is_reserved":false,"is_disabled":false,"rental_uris":{"android":"levelo://app?vid=86a1e8ec-924c-482f-a632-e7f0600dca6f","ios":"levelo://app?vid=86a1e8ec-924c-482f-a632-e7f0600dca6f"},"vehicle_type_id":"4","last_reported":1731377259,"current_range_meters":38800,"station_id":"ce4bhqh2rcd13ifvqhmg","pricing_plan_id":"cebpf4jnsgd1na2vs0mg"},{"bike_id":"c8f0f6c6-06bf-46f5-bd4b-05ae21e43eef","system_id":"levelo_inurba_marseille","lat":43.2807,"lon":5.39682,"is_reserved":false,"is_disabled":false,"rental_uris":{"android":"levelo://app?vid=c8f0f6c6-06bf-46f5-bd4b-05ae21e43eef","ios":"levelo://app?vid=c8f0f6c6-06bf-46f5-bd4b-05ae21e43eef"},"vehicle_type_id":"4","last_reported":1731377259,"current_range_meters":28800,"station_id":"ce4bho12rcd13ifvqh2g","pricing_plan_id":"cebpf4jnsgd1na2vs0mg"},{"bike_id":"8c293c15-001c-4036-a831-2f568ab3b08d","system_id":"levelo_inurba_marseille","lat":43.30274,"lon":5.37706,"is_reserved":false,"is_disabled":false,"rental_uris":{"android":"levelo://app?vid=8c293c15-001c-4036-a831-2f568ab3b08d","ios":"levelo://app?vid=8c293c15-001c-4036-a831-2f568ab3b08d"},"vehicle_type_id":"4","last_reported":1731377259,"current_range_meters":38000,"station_id":"ce4bguh2rcd13ifvqcj0","pricing_plan_id":"cebpf4jnsgd1na2vs0mg"},{"bike_id":"621b9599-71ec-4c56-8b3b-21f11173c704","system_id":"levelo_inurba_marseille","lat":43.30217,"lon":5.39477,"is_reserved":false,"is_disabled":false,"rental_uris":{"android":"levelo://app?vid=621b9599-71ec-4c56-8b3b-21f11173c704","ios":"levelo://app?vid=621b9599-71ec-4c56-8b3b-21f11173c704"},"vehicle_type_id":"4","last_reported":1731377259,"current_range_meters":37600,"station_id":"ce4bh0p2rcd13ifvqd70","pricing_plan_id":"cebpf4jnsgd1na2vs0mg"},{"bike_id":"a76dcffa-3fcf-4c4b-97c6-84d62e8f453f","system_id":"levelo_inurba_marseille","lat":43.28093,"lon":5.39659,"is_reserved":false,"is_disabled":false,"rental_uris":{"android":"levelo://app?vid=a76dcffa-3fcf-4c4b-97c6-84d62e8f453f","ios":"levelo://app?vid=a76dcffa-3fcf-4c4b-97c6-84d62e8f453f"},"vehicle_type_id":"4","last_reported":1731377259,"current_range_meters":35600,"station_id":"ce4bho12rcd13ifvqh2g","pricing_plan_id":"cebpf4jnsgd1na2vs0mg"},{"bike_id":"55f1a7c3-896e-434c-b890-0d70bff8f621","system_id":"levelo_inurba_marseille","lat":43.24652,"lon":5.38872,"is_reserved":false,"is_disabled":false,"rental_uris":{"android":"levelo://app?vid=55f1a7c3-896e-434c-b890-0d70bff8f621","ios":"levelo://app?vid=55f1a7c3-896e-434c-b890-0d70bff8f621"},"vehicle_type_id":"4","last_reported":1731377259,"current_range_meters":12400,"station_id":"ce4bhg12rcd13ifvqf60","pricing_plan_id":"cebpf4jnsgd1na2vs0mg"},{"bike_id":"4839c812-e2cb-432b-a0ef-e2817e346c52","system_id":"levelo_inurba_marseille","lat":43.2919,"lon":5.39319,"is_reserved":false,"is_disabled":false,"rental_uris":{"android":"levelo://app?vid=4839c812-e2cb-432b-a0ef-e2817e346c52","ios":"levelo://app?vid=4839c812-e2cb-432b-a0ef-e2817e346c52"},"vehicle_type_id":"4","last_reported":1731377259,"current_range_meters":36800,"station_id":"ce4bh192rcd13ifvqdd0","pricing_plan_id":"cebpf4jnsgd1na2vs0mg"},{"bike_id":"ddb46d32-a809-4e74-a10a-eb15b0ade389","system_id":"levelo_inurba_marseille","lat":43.32655,"lon":5.4098,"is_reserved":false,"is_disabled":false,"rental_uris":{"android":"levelo://app?vid=ddb46d32-a809-4e74-a10a-eb15b0ade389","ios":"levelo://app?vid=ddb46d32-a809-4e74-a10a-eb15b0ade389"},"vehicle_type_id":"4","last_reported":1731377259,"current_range_meters":33600,"station_id":"ce4bhpp2rcd13ifvqhgg","pricing_plan_id":"cebpf4jnsgd1na2vs0mg"},{"bike_id":"c36e09f6-da29-469f-96f7-c387a11a0e2b","system_id":"levelo_inurba_marseille","lat":43.30207,"lon":5.39472,"is_reserved":false,"is_disabled":false,"rental_uris":{"android":"levelo://app?vid=c36e09f6-da29-469f-96f7-c387a11a0e2b","ios":"levelo://app?vid=c36e09f6-da29-469f-96f7-c387a11a0e2b"},"vehicle_type_id":"4","last_reported":1731377259,"current_range_meters":25200,"station_id":"ce4bh0p2rcd13ifvqd70","pricing_plan_id":"cebpf4jnsgd1na2vs0mg"},{"bike_id":"a7d71a95-aff9-47f9-8c01-defabf3b40db","system_id":"levelo_inurba_marseille","lat":43.28148,"lon":5.42646,"is_reserved":false,"is_disabled":false,"rental_uris":{"android":"levelo://app?vid=a7d71a95-aff9-47f9-8c01-defabf3b40db","ios":"levelo://app?vid=a7d71a95-aff9-47f9-8c01-defabf3b40db"},"vehicle_type_id":"4","last_reported":1731377259,"current_range_meters":8400,"station_id":"ce4bhnh2rcd13ifvqgug","pricing_plan_id":"cebpf4jnsgd1na2vs0mg"},{"bike_id":"471e1f62-51e4-4556-bb48-2828e393c998","system_id":"levelo_inurba_marseille","lat":43.32,"lon":5.38149,"is_reserved":false,"is_disabled":false,"rental_uris":{"android":"levelo://app?vid=471e1f62-51e4-4556-bb48-2828e393c998","ios":"levelo://app?vid=471e1f62-51e4-4556-bb48-2828e393c998"},"vehicle_type_id":"4","last_reported":1731377259,"current_range_meters":38800,"station_id":"ce4bhr12rcd13ifvqhpg","pricing_plan_id":"cebpf4jnsgd1na2vs0mg"},{"bike_id":"30e18bba-f22a-4dbe-9837-4f97a1a00fad","system_id":"levelo_inurba_marseille","lat":43.3132,"lon":5.39699,"is_reserved":false,"is_disabled":false,"rental_uris":{"android":"levelo://app?vid=30e18bba-f22a-4dbe-9837-4f97a1a00fad","ios":"levelo://app?vid=30e18bba-f22a-4dbe-9837-4f97a1a00fad"},"vehicle_type_id":"4","last_reported":1731377259,"current_range_meters":38800,"station_id":"ce4bgvp2rcd13ifvqcu0","pricing_plan_id":"cebpf4jnsgd1na2vs0mg"},{"bike_id":"ee71311d-2126-4643-af97-c9cbb2c245b0","system_id":"levelo_inurba_marseille","lat":43.2925,"lon":5.40907,"is_reserved":false,"is_disabled":false,"rental_uris":{"android":"levelo://app?vid=ee71311d-2126-4643-af97-c9cbb2c245b0","ios":"levelo://app?vid=ee71311d-2126-4643-af97-c9cbb2c245b0"},"vehicle_type_id":"4","last_reported":1731377259,"current_range_meters":10800,"station_id":"ce4bh192rcd13ifvqdc0","pricing_plan_id":"cebpf4jnsgd1na2vs0mg"},{"bike_id":"ce71d16e-828d-465e-b8f9-c4f23825cc86","system_id":"levelo_inurba_marseille","lat":43.29265,"lon":5.40152,"is_reserved":false,"is_disabled":false,"rental_uris":{"android":"levelo://app?vid=ce71d16e-828d-465e-b8f9-c4f23825cc86","ios":"levelo://app?vid=ce71d16e-828d-465e-b8f9-c4f23825cc86"},"vehicle_type_id":"4","last_reported":1731377259,"current_range_meters":34000,"station_id":"ce4bh312rcd13ifvqdk0","pricing_plan_id":"cebpf4jnsgd1na2vs0mg"},{"bike_id":"db2427c1-db4e-4ce9-bdcb-63bb1fc9da9e","system_id":"levelo_inurba_marseille","lat":43.27435,"lon":5.39414,"is_reserved":false,"is_disabled":false,"rental_uris":{"android":"levelo://app?vid=db2427c1-db4e-4ce9-bdcb-63bb1fc9da9e","ios":"levelo://app?vid=db2427c1-db4e-4ce9-bdcb-63bb1fc9da9e"},"vehicle_type_id":"4","last_reported":1731377259,"current_range_meters":25200,"station_id":"ce4bhdp2rcd13ifvqf20","pricing_plan_id":"cebpf4jnsgd1na2vs0mg"},{"bike_id":"d6def4f4-d82d-4857-a542-c10ebf29be97","system_id":"levelo_inurba_marseille","lat":43.31322,"lon":5.39701,"is_reserved":false,"is_disabled":false,"rental_uris":{"android":"levelo://app?vid=d6def4f4-d82d-4857-a542-c10ebf29be97","ios":"levelo://app?vid=d6def4f4-d82d-4857-a542-c10ebf29be97"},"vehicle_type_id":"4","last_reported":1731377259,"current_range_meters":24000,"station_id":"ce4bgvp2rcd13ifvqcu0","pricing_plan_id":"cebpf4jnsgd1na2vs0mg"},{"bike_id":"4e2b7c15-cee1-4b47-b993-253838a34f52","system_id":"levelo_inurba_marseille","lat":43.29612,"lon":5.38117,"is_reserved":false,"is_disabled":false,"rental_uris":{"android":"levelo://app?vid=4e2b7c15-cee1-4b47-b993-253838a34f52","ios":"levelo://app?vid=4e2b7c15-cee1-4b47-b993-253838a34f52"},"vehicle_type_id":"4","last_reported":1731377259,"current_range_meters":38400,"station_id":"ce4bgl12rcd13ifvqbo0","pricing_plan_id":"cebpf4jnsgd1na2vs0mg"},{"bike_id":"d5ca3bf5-be80-474d-98e2-1cba03d2fa62","system_id":"levelo_inurba_marseille","lat":43.29061,"lon":5.35903,"is_reserved":false,"is_disabled":false,"rental_uris":{"android":"levelo://app?vid=d5ca3bf5-be80-474d-98e2-1cba03d2fa62","ios":"levelo://app?vid=d5ca3bf5-be80-474d-98e2-1cba03d2fa62"},"vehicle_type_id":"4","last_reported":1731377259,"current_range_meters":30000,"station_id":"ce4bha92rcd13ifvqeg0","pricing_plan_id":"cebpf4jnsgd1na2vs0mg"},{"bike_id":"213ebe40-36f1-4662-b159-1ff1ce218bf9","system_id":"levelo_inurba_marseille","lat":43.3171,"lon":5.3776,"is_reserved":false,"is_disabled":false,"rental_uris":{"android":"levelo://app?vid=213ebe40-36f1-4662-b159-1ff1ce218bf9","ios":"levelo://app?vid=213ebe40-36f1-4662-b159-1ff1ce218bf9"},"vehicle_type_id":"4","last_reported":1731377259,"current_range_meters":38400,"station_id":"ce4bgth2rcd13ifvqch0","pricing_plan_id":"cebpf4jnsgd1na2vs0mg"},{"bike_id":"d9a23c15-de1b-409c-a1bb-c645bf0c824f","system_id":"levelo_inurba_marseille","lat":43.28676,"lon":5.36358,"is_reserved":false,"is_disabled":false,"rental_uris":{"android":"levelo://app?vid=d9a23c15-de1b-409c-a1bb-c645bf0c824f","ios":"levelo://app?vid=d9a23c15-de1b-409c-a1bb-c645bf0c824f"},"vehicle_type_id":"4","last_reported":1731377259,"current_range_meters":39200,"station_id":"ce4bhah2rcd13ifvqej0","pricing_plan_id":"cebpf4jnsgd1na2vs0mg"},{"bike_id":"fa0311f8-b23f-406e-a708-49eae5db2178","system_id":"levelo_inurba_marseille","lat":43.25866,"lon":5.39901,"is_reserved":false,"is_disabled":false,"rental_uris":{"android":"levelo://app?vid=fa0311f8-b23f-406e-a708-49eae5db2178","ios":"levelo://app?vid=fa0311f8-b23f-406e-a708-49eae5db2178"},"vehicle_type_id":"4","last_reported":1731377259,"current_range_meters":38800,"station_id":"ce4bhl92rcd13ifvqghg","pricing_plan_id":"cebpf4jnsgd1na2vs0mg"},{"bike_id":"4ac6b1cf-2d2f-4fc6-ba18-aadcce5b71dc","system_id":"levelo_inurba_marseille","lat":43.2417,"lon":5.39734,"is_reserved":false,"is_disabled":false,"rental_uris":{"android":"levelo://app?vid=4ac6b1cf-2d2f-4fc6-ba18-aadcce5b71dc","ios":"levelo://app?vid=4ac6b1cf-2d2f-4fc6-ba18-aadcce5b71dc"},"vehicle_type_id":"4","last_reported":1731377259,"current_range_meters":38800,"station_id":"ce4bhn12rcd13ifvqgpg","pricing_plan_id":"cebpf4jnsgd1na2vs0mg"},{"bike_id":"0dea3daa-f01b-4527-888d-2b6232c8f80b","system_id":"levelo_inurba_marseille","lat":43.3009,"lon":5.39084,"is_reserved":false,"is_disabled":false,"rental_uris":{"android":"levelo://app?vid=0dea3daa-f01b-4527-888d-2b6232c8f80b","ios":"levelo://app?vid=0dea3daa-f01b-4527-888d-2b6232c8f80b"},"vehicle_type_id":"4","last_reported":1731377259,"current_range_meters":38400,"station_id":"ce4bh192rcd13ifvqdb0","pricing_plan_id":"cebpf4jnsgd1na2vs0mg"},{"bike_id":"639e350b-e8f2-4cb1-be79-9adcdba8f7fa","system_id":"levelo_inurba_marseille","lat":43.2848,"lon":5.38445,"is_reserved":false,"is_disabled":false,"rental_uris":{"android":"levelo://app?vid=639e350b-e8f2-4cb1-be79-9adcdba8f7fa","ios":"levelo://app?vid=639e350b-e8f2-4cb1-be79-9adcdba8f7fa"},"vehicle_type_id":"4","last_reported":1731377259,"current_range_meters":38800,"station_id":"ce4bh512rcd13ifvqe3g","pricing_plan_id":"cebpf4jnsgd1na2vs0mg"},{"bike_id":"46e00f9b-6591-48d5-b1d3-dbeb150c13ea","system_id":"levelo_inurba_marseille","lat":43.27828,"lon":5.39211,"is_reserved":false,"is_disabled":false,"rental_uris":{"android":"levelo://app?vid=46e00f9b-6591-48d5-b1d3-dbeb150c13ea","ios":"levelo://app?vid=46e00f9b-6591-48d5-b1d3-dbeb150c13ea"},"vehicle_type_id":"4","last_reported":1731377259,"current_range_meters":37600,"station_id":"ce4bhjp2rcd13ifvqga0","pricing_plan_id":"cebpf4jnsgd1na2vs0mg"},{"bike_id":"047fda03-fe7d-4b79-a357-2b6fc387f4c3","system_id":"levelo_inurba_marseille","lat":43.31321,"lon":5.39709,"is_reserved":false,"is_disabled":false,"rental_uris":{"android":"levelo://app?vid=047fda03-fe7d-4b79-a357-2b6fc387f4c3","ios":"levelo://app?vid=047fda03-fe7d-4b79-a357-2b6fc387f4c3"},"vehicle_type_id":"4","last_reported":1731377259,"current_range_meters":39200,"station_id":"ce4bgvp2rcd13ifvqcu0","pricing_plan_id":"cebpf4jnsgd1na2vs0mg"},{"bike_id":"c976cdde-0993-47a0-9228-5a2ed120aff4","system_id":"levelo_inurba_marseille","lat":43.27561,"lon":5.38404,"is_reserved":false,"is_disabled":false,"rental_uris":{"android":"levelo://app?vid=c976cdde-0993-47a0-9228-5a2ed120aff4","ios":"levelo://app?vid=c976cdde-0993-47a0-9228-5a2ed120aff4"},"vehicle_type_id":"4","last_reported":1731377259,"current_range_meters":8000,"station_id":"ce4bhh92rcd13ifvqfi0","pricing_plan_id":"cebpf4jnsgd1na2vs0mg"},{"bike_id":"2972f759-c98e-4fe7-9758-85d215895273","system_id":"levelo_inurba_marseille","lat":43.23949,"lon":5.36632,"is_reserved":false,"is_disabled":false,"rental_uris":{"android":"levelo://app?vid=2972f759-c98e-4fe7-9758-85d215895273","ios":"levelo://app?vid=2972f759-c98e-4fe7-9758-85d215895273"},"vehicle_type_id":"4","last_reported":1731377259,"current_range_meters":28000,"station_id":"ce4bhi12rcd13ifvqfp0","pricing_plan_id":"cebpf4jnsgd1na2vs0mg"},{"bike_id":"d0ef08cf-1a61-4d5a-9612-ccfee90a1e32","system_id":"levelo_inurba_marseille","lat":43.24814,"lon":5.37459,"is_reserved":false,"is_disabled":false,"rental_uris":{"android":"levelo://app?vid=d0ef08cf-1a61-4d5a-9612-ccfee90a1e32","ios":"levelo://app?vid=d0ef08cf-1a61-4d5a-9612-ccfee90a1e32"},"vehicle_type_id":"4","last_reported":1731377259,"current_range_meters":38000,"station_id":"ce4bhgh2rcd13ifvqfb0","pricing_plan_id":"cebpf4jnsgd1na2vs0mg"},{"bike_id":"bfe87780-41be-4894-a9b5-f1b5b222f115","system_id":"levelo_inurba_marseille","lat":43.30659,"lon":5.40066,"is_reserved":false,"is_disabled":false,"rental_uris":{"android":"levelo://app?vid=bfe87780-41be-4894-a9b5-f1b5b222f115","ios":"levelo://app?vid=bfe87780-41be-4894-a9b5-f1b5b222f115"},"vehicle_type_id":"4","last_reported":1731377259,"current_range_meters":32000,"station_id":"ce4bh112rcd13ifvqda0","pricing_plan_id":"cebpf4jnsgd1na2vs0mg"},{"bike_id":"cc849dc6-c1c3-477a-ad2b-2f8888b16a17","system_id":"levelo_inurba_marseille","lat":43.29541,"lon":5.42275,"is_reserved":false,"is_disabled":false,"rental_uris":{"android":"levelo://app?vid=cc849dc6-c1c3-477a-ad2b-2f8888b16a17","ios":"levelo://app?vid=cc849dc6-c1c3-477a-ad2b-2f8888b16a17"},"vehicle_type_id":"4","last_reported":1731377259,"current_range_meters":30000,"station_id":"ce4bhph2rcd13ifvqhdg","pricing_plan_id":"cebpf4jnsgd1na2vs0mg"},{"bike_id":"718e2470-3b0b-4748-985e-dfeeef0c4b3b","system_id":"levelo_inurba_marseille","lat":43.29254,"lon":5.40908,"is_reserved":false,"is_disabled":false,"rental_uris":{"android":"levelo://app?vid=718e2470-3b0b-4748-985e-dfeeef0c4b3b","ios":"levelo://app?vid=718e2470-3b0b-4748-985e-dfeeef0c4b3b"},"vehicle_type_id":"4","last_reported":1731377259,"current_range_meters":38800,"station_id":"ce4bh192rcd13ifvqdc0","pricing_plan_id":"cebpf4jnsgd1na2vs0mg"},{"bike_id":"3028cdff-ede0-4f42-bdc9-11c7c92f380c","system_id":"levelo_inurba_marseille","lat":43.30422,"lon":5.39763,"is_reserved":false,"is_disabled":false,"rental_uris":{"android":"levelo://app?vid=3028cdff-ede0-4f42-bdc9-11c7c92f380c","ios":"levelo://app?vid=3028cdff-ede0-4f42-bdc9-11c7c92f380c"},"vehicle_type_id":"4","last_reported":1731377259,"current_range_meters":37600,"station_id":"ce4bh092rcd13ifvqd20","pricing_plan_id":"cebpf4jnsgd1na2vs0mg"},{"bike_id":"b819a652-8368-4390-b80a-73f224bb04bf","system_id":"levelo_inurba_marseille","lat":43.23193,"lon":5.3999,"is_reserved":false,"is_disabled":false,"rental_uris":{"android":"levelo://app?vid=b819a652-8368-4390-b80a-73f224bb04bf","ios":"levelo://app?vid=b819a652-8368-4390-b80a-73f224bb04bf"},"vehicle_type_id":"4","last_reported":1731377259,"current_range_meters":38800,"station_id":"ce4bhn12rcd13ifvqgqg","pricing_plan_id":"cebpf4jnsgd1na2vs0mg"},{"bike_id":"f1b68bd2-269f-4a84-b7e7-b5b02ae64077","system_id":"levelo_inurba_marseille","lat":43.2743,"lon":5.39413,"is_reserved":false,"is_disabled":false,"rental_uris":{"android":"levelo://app?vid=f1b68bd2-269f-4a84-b7e7-b5b02ae64077","ios":"levelo://app?vid=f1b68bd2-269f-4a84-b7e7-b5b02ae64077"},"vehicle_type_id":"4","last_reported":1731377259,"current_range_meters":38800,"station_id":"ce4bhdp2rcd13ifvqf20","pricing_plan_id":"cebpf4jnsgd1na2vs0mg"},{"bike_id":"0c0c226c-4311-40bc-966e-4d8a46b2c5c4","system_id":"levelo_inurba_marseille","lat":43.24076,"lon":5.37756,"is_reserved":false,"is_disabled":false,"rental_uris":{"android":"levelo://app?vid=0c0c226c-4311-40bc-966e-4d8a46b2c5c4","ios":"levelo://app?vid=0c0c226c-4311-40bc-966e-4d8a46b2c5c4"},"vehicle_type_id":"4","last_reported":1731377259,"current_range_meters":19200,"station_id":"ce4bhnp2rcd13ifvqgvg","pricing_plan_id":"cebpf4jnsgd1na2vs0mg"},{"bike_id":"fa0d82bf-057b-4d7f-b2a1-c89372f016b9","system_id":"levelo_inurba_marseille","lat":43.30641,"lon":5.40063,"is_reserved":false,"is_disabled":false,"rental_uris":{"android":"levelo://app?vid=fa0d82bf-057b-4d7f-b2a1-c89372f016b9","ios":"levelo://app?vid=fa0d82bf-057b-4d7f-b2a1-c89372f016b9"},"vehicle_type_id":"4","last_reported":1731377259,"current_range_meters":32000,"station_id":"ce4bh112rcd13ifvqda0","pricing_plan_id":"cebpf4jnsgd1na2vs0mg"},{"bike_id":"0c1089e0-7705-469b-8de3-396ec22a316b","system_id":"levelo_inurba_marseille","lat":43.25859,"lon":5.39911,"is_reserved":false,"is_disabled":false,"rental_uris":{"android":"levelo://app?vid=0c1089e0-7705-469b-8de3-396ec22a316b","ios":"levelo://app?vid=0c1089e0-7705-469b-8de3-396ec22a316b"},"vehicle_type_id":"4","last_reported":1731377259,"current_range_meters":38800,"station_id":"ce4bhl92rcd13ifvqghg","pricing_plan_id":"cebpf4jnsgd1na2vs0mg"},{"bike_id":"5e9d5102-121e-4308-b944-5a3c7f522229","system_id":"levelo_inurba_marseille","lat":43.32651,"lon":5.40998,"is_reserved":false,"is_disabled":false,"rental_uris":{"android":"levelo://app?vid=5e9d5102-121e-4308-b944-5a3c7f522229","ios":"levelo://app?vid=5e9d5102-121e-4308-b944-5a3c7f522229"},"vehicle_type_id":"4","last_reported":1731377259,"current_range_meters":38400,"station_id":"ce4bhpp2rcd13ifvqhgg","pricing_plan_id":"cebpf4jnsgd1na2vs0mg"},{"bike_id":"a54a1cc6-fb75-4d65-b6c0-1c9b0e3a2320","system_id":"levelo_inurba_marseille","lat":43.31169,"lon":5.3872,"is_reserved":false,"is_disabled":false,"rental_uris":{"android":"levelo://app?vid=a54a1cc6-fb75-4d65-b6c0-1c9b0e3a2320","ios":"levelo://app?vid=a54a1cc6-fb75-4d65-b6c0-1c9b0e3a2320"},"vehicle_type_id":"4","last_reported":1731377259,"current_range_meters":38000,"station_id":"ce4bgv12rcd13ifvqcp0","pricing_plan_id":"cebpf4jnsgd1na2vs0mg"},{"bike_id":"158b97eb-d890-4f70-b418-2a911b1da1d2","system_id":"levelo_inurba_marseille","lat":43.27947,"lon":5.41052,"is_reserved":false,"is_disabled":false,"rental_uris":{"android":"levelo://app?vid=158b97eb-d890-4f70-b418-2a911b1da1d2","ios":"levelo://app?vid=158b97eb-d890-4f70-b418-2a911b1da1d2"},"vehicle_type_id":"4","last_reported":1731377259,"current_range_meters":38400,"station_id":"ce4bhnp2rcd13ifvqh0g","pricing_plan_id":"cebpf4jnsgd1na2vs0mg"},{"bike_id":"f034f203-03ea-4fdf-93aa-a3635747d7f6","system_id":"levelo_inurba_marseille","lat":43.27611,"lon":5.36118,"is_reserved":false,"is_disabled":false,"rental_uris":{"android":"levelo://app?vid=f034f203-03ea-4fdf-93aa-a3635747d7f6","ios":"levelo://app?vid=f034f203-03ea-4fdf-93aa-a3635747d7f6"},"vehicle_type_id":"4","last_reported":1731377259,"current_range_meters":38000,"station_id":"ce4bgj92rcd13ifvqbe0","pricing_plan_id":"cebpf4jnsgd1na2vs0mg"},{"bike_id":"c2c0c158-e994-4346-894a-aa2c5884f6bb","system_id":"levelo_inurba_marseille","lat":43.25481,"lon":5.37643,"is_reserved":false,"is_disabled":false,"rental_uris":{"android":"levelo://app?vid=c2c0c158-e994-4346-894a-aa2c5884f6bb","ios":"levelo://app?vid=c2c0c158-e994-4346-894a-aa2c5884f6bb"},"vehicle_type_id":"4","last_reported":1731377259,"current_range_meters":38000,"station_id":"ce4bhh12rcd13ifvqff0","pricing_plan_id":"cebpf4jnsgd1na2vs0mg"},{"bike_id":"3260cc4a-31ee-4f29-b1d9-1f2c1c8e2cb4","system_id":"levelo_inurba_marseille","lat":43.25733,"lon":5.411,"is_reserved":false,"is_disabled":false,"rental_uris":{"android":"levelo://app?vid=3260cc4a-31ee-4f29-b1d9-1f2c1c8e2cb4","ios":"levelo://app?vid=3260cc4a-31ee-4f29-b1d9-1f2c1c8e2cb4"},"vehicle_type_id":"4","last_reported":1731377259,"current_range_meters":38800,"station_id":"ce4bhkp2rcd13ifvqgd0","pricing_plan_id":"cebpf4jnsgd1na2vs0mg"},{"bike_id":"ee5ad2cd-7dcc-4d23-91f3-8c15ad1d383a","system_id":"levelo_inurba_marseille","lat":43.27827,"lon":5.39208,"is_reserved":false,"is_disabled":false,"rental_uris":{"android":"levelo://app?vid=ee5ad2cd-7dcc-4d23-91f3-8c15ad1d383a","ios":"levelo://app?vid=ee5ad2cd-7dcc-4d23-91f3-8c15ad1d383a"},"vehicle_type_id":"4","last_reported":1731377259,"current_range_meters":38000,"station_id":"ce4bhjp2rcd13ifvqga0","pricing_plan_id":"cebpf4jnsgd1na2vs0mg"},{"bike_id":"31f7560b-0f52-4d6b-ac39-46cf0a6c1468","system_id":"levelo_inurba_marseille","lat":43.24399,"lon":5.37081,"is_reserved":false,"is_disabled":false,"rental_uris":{"android":"levelo://app?vid=31f7560b-0f52-4d6b-ac39-46cf0a6c1468","ios":"levelo://app?vid=31f7560b-0f52-4d6b-ac39-46cf0a6c1468"},"vehicle_type_id":"4","last_reported":1731377259,"current_range_meters":38800,"station_id":"ce4bhhh2rcd13ifvqfk0","pricing_plan_id":"cebpf4jnsgd1na2vs0mg"},{"bike_id":"40292f36-b783-475a-a909-db6db3fc2686","system_id":"levelo_inurba_marseille","lat":43.29248,"lon":5.40173,"is_reserved":false,"is_disabled":false,"rental_uris":{"android":"levelo://app?vid=40292f36-b783-475a-a909-db6db3fc2686","ios":"levelo://app?vid=40292f36-b783-475a-a909-db6db3fc2686"},"vehicle_type_id":"4","last_reported":1731377259,"current_range_meters":36400,"station_id":"ce4bh312rcd13ifvqdk0","pricing_plan_id":"cebpf4jnsgd1na2vs0mg"},{"bike_id":"c9fa5281-4222-4ac9-beb0-46ec80e63e7c","system_id":"levelo_inurba_marseille","lat":43.28081,"lon":5.39645,"is_reserved":false,"is_disabled":false,"rental_uris":{"android":"levelo://app?vid=c9fa5281-4222-4ac9-beb0-46ec80e63e7c","ios":"levelo://app?vid=c9fa5281-4222-4ac9-beb0-46ec80e63e7c"},"vehicle_type_id":"4","last_reported":1731377259,"current_range_meters":26000,"station_id":"ce4bho12rcd13ifvqh2g","pricing_plan_id":"cebpf4jnsgd1na2vs0mg"},{"bike_id":"dd2b8768-f22e-480b-8778-9d9e6cf2b8b7","system_id":"levelo_inurba_marseille","lat":43.27442,"lon":5.39403,"is_reserved":false,"is_disabled":false,"rental_uris":{"android":"levelo://app?vid=dd2b8768-f22e-480b-8778-9d9e6cf2b8b7","ios":"levelo://app?vid=dd2b8768-f22e-480b-8778-9d9e6cf2b8b7"},"vehicle_type_id":"4","last_reported":1731377259,"current_range_meters":32400,"station_id":"ce4bhdp2rcd13ifvqf20","pricing_plan_id":"cebpf4jnsgd1na2vs0mg"},{"bike_id":"f3d38261-a20c-4abf-bd9c-4639d1d0adb0","system_id":"levelo_inurba_marseille","lat":43.33605,"lon":5.41014,"is_reserved":false,"is_disabled":false,"rental_uris":{"android":"levelo://app?vid=f3d38261-a20c-4abf-bd9c-4639d1d0adb0","ios":"levelo://app?vid=f3d38261-a20c-4abf-bd9c-4639d1d0adb0"},"vehicle_type_id":"4","last_reported":1731377259,"current_range_meters":25200,"station_id":"ce4bhqh2rcd13ifvqhmg","pricing_plan_id":"cebpf4jnsgd1na2vs0mg"},{"bike_id":"d64c790a-1100-4ff9-bdfd-7e142e7e79dd","system_id":"levelo_inurba_marseille","lat":43.26683,"lon":5.38267,"is_reserved":false,"is_disabled":false,"rental_uris":{"android":"levelo://app?vid=d64c790a-1100-4ff9-bdfd-7e142e7e79dd","ios":"levelo://app?vid=d64c790a-1100-4ff9-bdfd-7e142e7e79dd"},"vehicle_type_id":"4","last_reported":1731377259,"current_range_meters":38400,"station_id":"ce4bhg92rcd13ifvqf90","pricing_plan_id":"cebpf4jnsgd1na2vs0mg"},{"bike_id":"424b6081-a72a-45b9-a6ee-2b8b823caf15","system_id":"levelo_inurba_marseille","lat":43.2988,"lon":5.3892,"is_reserved":false,"is_disabled":false,"rental_uris":{"android":"levelo://app?vid=424b6081-a72a-45b9-a6ee-2b8b823caf15","ios":"levelo://app?vid=424b6081-a72a-45b9-a6ee-2b8b823caf15"},"vehicle_type_id":"4","last_reported":1731377259,"current_range_meters":24000,"station_id":"ce4bh392rcd13ifvqdl0","pricing_plan_id":"cebpf4jnsgd1na2vs0mg"},{"bike_id":"40602ef5-4375-4188-9687-44d354e3dbc4","system_id":"levelo_inurba_marseille","lat":43.25718,"lon":5.41108,"is_reserved":false,"is_disabled":false,"rental_uris":{"android":"levelo://app?vid=40602ef5-4375-4188-9687-44d354e3dbc4","ios":"levelo://app?vid=40602ef5-4375-4188-9687-44d354e3dbc4"},"vehicle_type_id":"4","last_reported":1731377259,"current_range_meters":38800,"station_id":"ce4bhkp2rcd13ifvqgd0","pricing_plan_id":"cebpf4jnsgd1na2vs0mg"},{"bike_id":"501670a7-fdc9-4157-ad22-44375376fad0","system_id":"levelo_inurba_marseille","lat":43.29019,"lon":5.38134,"is_reserved":false,"is_disabled":false,"rental_uris":{"android":"levelo://app?vid=501670a7-fdc9-4157-ad22-44375376fad0","ios":"levelo://app?vid=501670a7-fdc9-4157-ad22-44375376fad0"},"vehicle_type_id":"4","last_reported":1731377259,"current_range_meters":36400,"station_id":"ce4bh4p2rcd13ifvqe1g","pricing_plan_id":"cebpf4jnsgd1na2vs0mg"},{"bike_id":"f5f7adb1-08a0-41e5-84f8-4eacbb87fa6f","system_id":"levelo_inurba_marseille","lat":43.23957,"lon":5.36648,"is_reserved":false,"is_disabled":false,"rental_uris":{"android":"levelo://app?vid=f5f7adb1-08a0-41e5-84f8-4eacbb87fa6f","ios":"levelo://app?vid=f5f7adb1-08a0-41e5-84f8-4eacbb87fa6f"},"vehicle_type_id":"4","last_reported":1731377259,"current_range_meters":36800,"station_id":"ce4bhi12rcd13ifvqfp0","pricing_plan_id":"cebpf4jnsgd1na2vs0mg"},{"bike_id":"cd3763b4-c6c9-439a-8c88-6b6d78464d6e","system_id":"levelo_inurba_marseille","lat":43.337444,"lon":5.374475,"is_reserved":false,"is_disabled":false,"rental_uris":{"android":"levelo://app?vid=cd3763b4-c6c9-439a-8c88-6b6d78464d6e","ios":"levelo://app?vid=cd3763b4-c6c9-439a-8c88-6b6d78464d6e"},"vehicle_type_id":"4","last_reported":1731377259,"current_range_meters":34000,"station_id":"","pricing_plan_id":"cebpf4jnsgd1na2vs0mg"},{"bike_id":"a64e486f-ab51-45e7-ae26-9bf3a4451217","system_id":"levelo_inurba_marseille","lat":43.31992,"lon":5.38132,"is_reserved":false,"is_disabled":false,"rental_uris":{"android":"levelo://app?vid=a64e486f-ab51-45e7-ae26-9bf3a4451217","ios":"levelo://app?vid=a64e486f-ab51-45e7-ae26-9bf3a4451217"},"vehicle_type_id":"4","last_reported":1731377259,"current_range_meters":38800,"station_id":"ce4bhr12rcd13ifvqhpg","pricing_plan_id":"cebpf4jnsgd1na2vs0mg"},{"bike_id":"278e7ea9-a4f9-400f-9029-ec10e70e6e2f","system_id":"levelo_inurba_marseille","lat":43.30599,"lon":5.39346,"is_reserved":false,"is_disabled":false,"rental_uris":{"android":"levelo://app?vid=278e7ea9-a4f9-400f-9029-ec10e70e6e2f","ios":"levelo://app?vid=278e7ea9-a4f9-400f-9029-ec10e70e6e2f"},"vehicle_type_id":"4","last_reported":1731377259,"current_range_meters":36400,"station_id":"ce4bh0p2rcd13ifvqd80","pricing_plan_id":"cebpf4jnsgd1na2vs0mg"},{"bike_id":"fa012431-6b51-4c1a-9703-6517b7a85415","system_id":"levelo_inurba_marseille","lat":43.3111,"lon":5.38278,"is_reserved":false,"is_disabled":false,"rental_uris":{"android":"levelo://app?vid=fa012431-6b51-4c1a-9703-6517b7a85415","ios":"levelo://app?vid=fa012431-6b51-4c1a-9703-6517b7a85415"},"vehicle_type_id":"4","last_reported":1731377259,"current_range_meters":8000,"station_id":"ce4bh2h2rcd13ifvqdh0","pricing_plan_id":"cebpf4jnsgd1na2vs0mg"},{"bike_id":"29fd9c8f-5a7f-4c1f-9c19-eea4917c0fc8","system_id":"levelo_inurba_marseille","lat":43.25492,"lon":5.37658,"is_reserved":false,"is_disabled":false,"rental_uris":{"android":"levelo://app?vid=29fd9c8f-5a7f-4c1f-9c19-eea4917c0fc8","ios":"levelo://app?vid=29fd9c8f-5a7f-4c1f-9c19-eea4917c0fc8"},"vehicle_type_id":"4","last_reported":1731377259,"current_range_meters":38000,"station_id":"ce4bhh12rcd13ifvqff0","pricing_plan_id":"cebpf4jnsgd1na2vs0mg"},{"bike_id":"011e63d3-05b7-45e9-9aaa-fdfc6f62c27e","system_id":"levelo_inurba_marseille","lat":43.28699,"lon":5.37897,"is_reserved":false,"is_disabled":false,"rental_uris":{"android":"levelo://app?vid=011e63d3-05b7-45e9-9aaa-fdfc6f62c27e","ios":"levelo://app?vid=011e63d3-05b7-45e9-9aaa-fdfc6f62c27e"},"vehicle_type_id":"4","last_reported":1731377259,"current_range_meters":38800,"station_id":"ce4bh9p2rcd13ifvqec0","pricing_plan_id":"cebpf4jnsgd1na2vs0mg"},{"bike_id":"c85c23ca-d019-4d10-b7f8-59940ca10fe8","system_id":"levelo_inurba_marseille","lat":43.32343,"lon":5.40611,"is_reserved":false,"is_disabled":false,"rental_uris":{"android":"levelo://app?vid=c85c23ca-d019-4d10-b7f8-59940ca10fe8","ios":"levelo://app?vid=c85c23ca-d019-4d10-b7f8-59940ca10fe8"},"vehicle_type_id":"4","last_reported":1731377259,"current_range_meters":32400,"station_id":"ce4bhq92rcd13ifvqhjg","pricing_plan_id":"cebpf4jnsgd1na2vs0mg"},{"bike_id":"34d10464-eefe-40b0-9952-b9f7391e087f","system_id":"levelo_inurba_marseille","lat":43.34123,"lon":5.40922,"is_reserved":false,"is_disabled":false,"rental_uris":{"android":"levelo://app?vid=34d10464-eefe-40b0-9952-b9f7391e087f","ios":"levelo://app?vid=34d10464-eefe-40b0-9952-b9f7391e087f"},"vehicle_type_id":"4","last_reported":1731377259,"current_range_meters":38800,"station_id":"ce4bhqh2rcd13ifvqhlg","pricing_plan_id":"cebpf4jnsgd1na2vs0mg"},{"bike_id":"34c4e5fd-d09b-481c-889a-20f2df0a03b0","system_id":"levelo_inurba_marseille","lat":43.28154,"lon":5.42644,"is_reserved":false,"is_disabled":false,"rental_uris":{"android":"levelo://app?vid=34c4e5fd-d09b-481c-889a-20f2df0a03b0","ios":"levelo://app?vid=34c4e5fd-d09b-481c-889a-20f2df0a03b0"},"vehicle_type_id":"4","last_reported":1731377259,"current_range_meters":38800,"station_id":"ce4bhnh2rcd13ifvqgug","pricing_plan_id":"cebpf4jnsgd1na2vs0mg"},{"bike_id":"013eef84-722d-41db-b134-d56b32da95cf","system_id":"levelo_inurba_marseille","lat":43.29708,"lon":5.37296,"is_reserved":false,"is_disabled":false,"rental_uris":{"android":"levelo://app?vid=013eef84-722d-41db-b134-d56b32da95cf","ios":"levelo://app?vid=013eef84-722d-41db-b134-d56b32da95cf"},"vehicle_type_id":"4","last_reported":1731377259,"current_range_meters":37600,"station_id":"ce4bgk12rcd13ifvqbj0","pricing_plan_id":"cebpf4jnsgd1na2vs0mg"},{"bike_id":"b6e7a88b-4aa5-49c1-8146-a5de890828cf","system_id":"levelo_inurba_marseille","lat":43.2927,"lon":5.40143,"is_reserved":false,"is_disabled":false,"rental_uris":{"android":"levelo://app?vid=b6e7a88b-4aa5-49c1-8146-a5de890828cf","ios":"levelo://app?vid=b6e7a88b-4aa5-49c1-8146-a5de890828cf"},"vehicle_type_id":"4","last_reported":1731377259,"current_range_meters":37600,"station_id":"ce4bh312rcd13ifvqdk0","pricing_plan_id":"cebpf4jnsgd1na2vs0mg"},{"bike_id":"00df0da5-e326-4e92-bd9c-a0b3df25d56d","system_id":"levelo_inurba_marseille","lat":43.28388,"lon":5.37525,"is_reserved":false,"is_disabled":false,"rental_uris":{"android":"levelo://app?vid=00df0da5-e326-4e92-bd9c-a0b3df25d56d","ios":"levelo://app?vid=00df0da5-e326-4e92-bd9c-a0b3df25d56d"},"vehicle_type_id":"4","last_reported":1731377259,"current_range_meters":8000,"station_id":"ce4bh412rcd13ifvqds0","pricing_plan_id":"cebpf4jnsgd1na2vs0mg"},{"bike_id":"0d65accf-821c-4de6-8394-38c17b73e2e4","system_id":"levelo_inurba_marseille","lat":43.28725,"lon":5.36079,"is_reserved":false,"is_disabled":false,"rental_uris":{"android":"levelo://app?vid=0d65accf-821c-4de6-8394-38c17b73e2e4","ios":"levelo://app?vid=0d65accf-821c-4de6-8394-38c17b73e2e4"},"vehicle_type_id":"4","last_reported":1731377259,"current_range_meters":38800,"station_id":"cki0cbj6b192h4jlfktg","pricing_plan_id":"cebpf4jnsgd1na2vs0mg"},{"bike_id":"3a116df4-68e7-46d8-822d-162cfd330753","system_id":"levelo_inurba_marseille","lat":43.31058,"lon":5.38343,"is_reserved":false,"is_disabled":false,"rental_uris":{"android":"levelo://app?vid=3a116df4-68e7-46d8-822d-162cfd330753","ios":"levelo://app?vid=3a116df4-68e7-46d8-822d-162cfd330753"},"vehicle_type_id":"4","last_reported":1731377259,"current_range_meters":38400,"station_id":"ce4bgv92rcd13ifvqcr0","pricing_plan_id":"cebpf4jnsgd1na2vs0mg"},{"bike_id":"8b9e4e50-0d25-44d1-a11c-181613e63edd","system_id":"levelo_inurba_marseille","lat":43.28665,"lon":5.36377,"is_reserved":false,"is_disabled":false,"rental_uris":{"android":"levelo://app?vid=8b9e4e50-0d25-44d1-a11c-181613e63edd","ios":"levelo://app?vid=8b9e4e50-0d25-44d1-a11c-181613e63edd"},"vehicle_type_id":"4","last_reported":1731377259,"current_range_meters":35200,"station_id":"ce4bhah2rcd13ifvqej0","pricing_plan_id":"cebpf4jnsgd1na2vs0mg"},{"bike_id":"3d29209f-3f0e-431c-8fe8-54d40848cfc4","system_id":"levelo_inurba_marseille","lat":43.26515,"lon":5.39558,"is_reserved":false,"is_disabled":false,"rental_uris":{"android":"levelo://app?vid=3d29209f-3f0e-431c-8fe8-54d40848cfc4","ios":"levelo://app?vid=3d29209f-3f0e-431c-8fe8-54d40848cfc4"},"vehicle_type_id":"4","last_reported":1731377259,"current_range_meters":38800,"station_id":"ce4bhi12rcd13ifvqfq0","pricing_plan_id":"cebpf4jnsgd1na2vs0mg"},{"bike_id":"be92b951-fa38-407d-9b1f-c24eba11f49b","system_id":"levelo_inurba_marseille","lat":43.2884,"lon":5.35825,"is_reserved":false,"is_disabled":false,"rental_uris":{"android":"levelo://app?vid=be92b951-fa38-407d-9b1f-c24eba11f49b","ios":"levelo://app?vid=be92b951-fa38-407d-9b1f-c24eba11f49b"},"vehicle_type_id":"4","last_reported":1731377259,"current_range_meters":36000,"station_id":"ce4bhb12rcd13ifvqem0","pricing_plan_id":"cebpf4jnsgd1na2vs0mg"},{"bike_id":"37010a4f-ba42-44a3-8f03-5e4ffb819f09","system_id":"levelo_inurba_marseille","lat":43.31172,"lon":5.38707,"is_reserved":false,"is_disabled":false,"rental_uris":{"android":"levelo://app?vid=37010a4f-ba42-44a3-8f03-5e4ffb819f09","ios":"levelo://app?vid=37010a4f-ba42-44a3-8f03-5e4ffb819f09"},"vehicle_type_id":"4","last_reported":1731377259,"current_range_meters":23200,"station_id":"ce4bgv12rcd13ifvqcp0","pricing_plan_id":"cebpf4jnsgd1na2vs0mg"},{"bike_id":"b6649fd5-6529-4736-962c-37237ff042d4","system_id":"levelo_inurba_marseille","lat":43.26567,"lon":5.39007,"is_reserved":false,"is_disabled":false,"rental_uris":{"android":"levelo://app?vid=b6649fd5-6529-4736-962c-37237ff042d4","ios":"levelo://app?vid=b6649fd5-6529-4736-962c-37237ff042d4"},"vehicle_type_id":"4","last_reported":1731377259,"current_range_meters":38400,"station_id":"ce4bhe12rcd13ifvqf30","pricing_plan_id":"cebpf4jnsgd1na2vs0mg"},{"bike_id":"fc6fb18f-655f-44c3-9d33-3f6e0d2e6373","system_id":"levelo_inurba_marseille","lat":43.30124,"lon":5.39854,"is_reserved":false,"is_disabled":false,"rental_uris":{"android":"levelo://app?vid=fc6fb18f-655f-44c3-9d33-3f6e0d2e6373","ios":"levelo://app?vid=fc6fb18f-655f-44c3-9d33-3f6e0d2e6373"},"vehicle_type_id":"4","last_reported":1731377259,"current_range_meters":28800,"station_id":"ce4bh0h2rcd13ifvqd40","pricing_plan_id":"cebpf4jnsgd1na2vs0mg"},{"bike_id":"5847243e-3d84-47dc-98d1-c8e94c4067b9","system_id":"levelo_inurba_marseille","lat":43.27566,"lon":5.38439,"is_reserved":false,"is_disabled":false,"rental_uris":{"android":"levelo://app?vid=5847243e-3d84-47dc-98d1-c8e94c4067b9","ios":"levelo://app?vid=5847243e-3d84-47dc-98d1-c8e94c4067b9"},"vehicle_type_id":"4","last_reported":1731377259,"current_range_meters":38800,"station_id":"ce4bhh92rcd13ifvqfi0","pricing_plan_id":"cebpf4jnsgd1na2vs0mg"},{"bike_id":"2b46dcf1-83c7-4d4c-a851-d7211ef98abe","system_id":"levelo_inurba_marseille","lat":43.29244,"lon":5.40905,"is_reserved":false,"is_disabled":false,"rental_uris":{"android":"levelo://app?vid=2b46dcf1-83c7-4d4c-a851-d7211ef98abe","ios":"levelo://app?vid=2b46dcf1-83c7-4d4c-a851-d7211ef98abe"},"vehicle_type_id":"4","last_reported":1731377259,"current_range_meters":18800,"station_id":"ce4bh192rcd13ifvqdc0","pricing_plan_id":"cebpf4jnsgd1na2vs0mg"},{"bike_id":"b6fb0d0d-4fe7-44bf-8a25-4a4b216fe62f","system_id":"levelo_inurba_marseille","lat":43.30811,"lon":5.38165,"is_reserved":false,"is_disabled":false,"rental_uris":{"android":"levelo://app?vid=b6fb0d0d-4fe7-44bf-8a25-4a4b216fe62f","ios":"levelo://app?vid=b6fb0d0d-4fe7-44bf-8a25-4a4b216fe62f"},"vehicle_type_id":"4","last_reported":1731377259,"current_range_meters":38800,"station_id":"ce4bgt12rcd13ifvqce0","pricing_plan_id":"cebpf4jnsgd1na2vs0mg"},{"bike_id":"22a2914a-6d99-4b9f-a055-86e657c3c38f","system_id":"levelo_inurba_marseille","lat":43.32016,"lon":5.38164,"is_reserved":false,"is_disabled":false,"rental_uris":{"android":"levelo://app?vid=22a2914a-6d99-4b9f-a055-86e657c3c38f","ios":"levelo://app?vid=22a2914a-6d99-4b9f-a055-86e657c3c38f"},"vehicle_type_id":"4","last_reported":1731377259,"current_range_meters":6400,"station_id":"ce4bhr12rcd13ifvqhpg","pricing_plan_id":"cebpf4jnsgd1na2vs0mg"},{"bike_id":"1d75d4ce-da07-47a0-83ad-027ef32b7b53","system_id":"levelo_inurba_marseille","lat":43.27407,"lon":5.38944,"is_reserved":false,"is_disabled":false,"rental_uris":{"android":"levelo://app?vid=1d75d4ce-da07-47a0-83ad-027ef32b7b53","ios":"levelo://app?vid=1d75d4ce-da07-47a0-83ad-027ef32b7b53"},"vehicle_type_id":"4","last_reported":1731377259,"current_range_meters":19200,"station_id":"","pricing_plan_id":"cebpf4jnsgd1na2vs0mg"},{"bike_id":"94da1138-977c-4b77-87c1-3bd96a6839cd","system_id":"levelo_inurba_marseille","lat":43.28696,"lon":5.39958,"is_reserved":false,"is_disabled":false,"rental_uris":{"android":"levelo://app?vid=94da1138-977c-4b77-87c1-3bd96a6839cd","ios":"levelo://app?vid=94da1138-977c-4b77-87c1-3bd96a6839cd"},"vehicle_type_id":"4","last_reported":1731377259,"current_range_meters":8000,"station_id":"ce4bho92rcd13ifvqh3g","pricing_plan_id":"cebpf4jnsgd1na2vs0mg"},{"bike_id":"59c35e8b-3fa6-4e43-bbd3-8ded488b910a","system_id":"levelo_inurba_marseille","lat":43.30935,"lon":5.40144,"is_reserved":false,"is_disabled":false,"rental_uris":{"android":"levelo://app?vid=59c35e8b-3fa6-4e43-bbd3-8ded488b910a","ios":"levelo://app?vid=59c35e8b-3fa6-4e43-bbd3-8ded488b910a"},"vehicle_type_id":"4","last_reported":1731377259,"current_range_meters":39200,"station_id":"ce4bgvp2rcd13ifvqct0","pricing_plan_id":"cebpf4jnsgd1na2vs0mg"},{"bike_id":"d0e37548-cdf5-4239-82bb-09d0afd028d8","system_id":"levelo_inurba_marseille","lat":43.27197,"lon":5.40984,"is_reserved":false,"is_disabled":false,"rental_uris":{"android":"levelo://app?vid=d0e37548-cdf5-4239-82bb-09d0afd028d8","ios":"levelo://app?vid=d0e37548-cdf5-4239-82bb-09d0afd028d8"},"vehicle_type_id":"4","last_reported":1731377259,"current_range_meters":38800,"station_id":"ce4bhl12rcd13ifvqgf0","pricing_plan_id":"cebpf4jnsgd1na2vs0mg"},{"bike_id":"d881a04b-7487-46c8-bcc3-e9689650446f","system_id":"levelo_inurba_marseille","lat":43.26192,"lon":5.37453,"is_reserved":false,"is_disabled":false,"rental_uris":{"android":"levelo://app?vid=d881a04b-7487-46c8-bcc3-e9689650446f","ios":"levelo://app?vid=d881a04b-7487-46c8-bcc3-e9689650446f"},"vehicle_type_id":"4","last_reported":1731377259,"current_range_meters":38400,"station_id":"ce4bhgp2rcd13ifvqfc0","pricing_plan_id":"cebpf4jnsgd1na2vs0mg"},{"bike_id":"58632566-7516-4af8-a200-57259a4e228c","system_id":"levelo_inurba_marseille","lat":43.31358,"lon":5.38496,"is_reserved":false,"is_disabled":false,"rental_uris":{"android":"levelo://app?vid=58632566-7516-4af8-a200-57259a4e228c","ios":"levelo://app?vid=58632566-7516-4af8-a200-57259a4e228c"},"vehicle_type_id":"4","last_reported":1731377259,"current_range_meters":38400,"station_id":"ce4bgt92rcd13ifvqcf0","pricing_plan_id":"cebpf4jnsgd1na2vs0mg"},{"bike_id":"4be7edbe-5982-45b2-a3b1-2e4ca0a06526","system_id":"levelo_inurba_marseille","lat":43.24062,"lon":5.37751,"is_reserved":false,"is_disabled":false,"rental_uris":{"android":"levelo://app?vid=4be7edbe-5982-45b2-a3b1-2e4ca0a06526","ios":"levelo://app?vid=4be7edbe-5982-45b2-a3b1-2e4ca0a06526"},"vehicle_type_id":"4","last_reported":1731377259,"current_range_meters":39200,"station_id":"ce4bhnp2rcd13ifvqgvg","pricing_plan_id":"cebpf4jnsgd1na2vs0mg"},{"bike_id":"58619a3d-722c-4d96-a931-d2f898b47aef","system_id":"levelo_inurba_marseille","lat":43.28679,"lon":5.38647,"is_reserved":false,"is_disabled":false,"rental_uris":{"android":"levelo://app?vid=58619a3d-722c-4d96-a931-d2f898b47aef","ios":"levelo://app?vid=58619a3d-722c-4d96-a931-d2f898b47aef"},"vehicle_type_id":"4","last_reported":1731377259,"current_range_meters":32000,"station_id":"ce4bh492rcd13ifvqdug","pricing_plan_id":"cebpf4jnsgd1na2vs0mg"},{"bike_id":"a63bf761-b669-40d4-a0c6-33f8c1f62671","system_id":"levelo_inurba_marseille","lat":43.28488,"lon":5.38536,"is_reserved":false,"is_disabled":false,"rental_uris":{"android":"levelo://app?vid=a63bf761-b669-40d4-a0c6-33f8c1f62671","ios":"levelo://app?vid=a63bf761-b669-40d4-a0c6-33f8c1f62671"},"vehicle_type_id":"4","last_reported":1731377259,"current_range_meters":38800,"station_id":"ce4bh8p2rcd13ifvqeb0","pricing_plan_id":"cebpf4jnsgd1na2vs0mg"},{"bike_id":"576a9fab-e31f-434f-aaae-e4a672ea42f2","system_id":"levelo_inurba_marseille","lat":43.28144,"lon":5.42627,"is_reserved":false,"is_disabled":false,"rental_uris":{"android":"levelo://app?vid=576a9fab-e31f-434f-aaae-e4a672ea42f2","ios":"levelo://app?vid=576a9fab-e31f-434f-aaae-e4a672ea42f2"},"vehicle_type_id":"4","last_reported":1731377259,"current_range_meters":38400,"station_id":"ce4bhnh2rcd13ifvqgug","pricing_plan_id":"cebpf4jnsgd1na2vs0mg"},{"bike_id":"ca0e2a16-32dc-46e0-aefd-c26276db1088","system_id":"levelo_inurba_marseille","lat":43.24647,"lon":5.38891,"is_reserved":false,"is_disabled":false,"rental_uris":{"android":"levelo://app?vid=ca0e2a16-32dc-46e0-aefd-c26276db1088","ios":"levelo://app?vid=ca0e2a16-32dc-46e0-aefd-c26276db1088"},"vehicle_type_id":"4","last_reported":1731377259,"current_range_meters":38800,"station_id":"ce4bhg12rcd13ifvqf60","pricing_plan_id":"cebpf4jnsgd1na2vs0mg"},{"bike_id":"053b604b-8b91-4de0-bb66-85b19d20c972","system_id":"levelo_inurba_marseille","lat":43.30948,"lon":5.39047,"is_reserved":false,"is_disabled":false,"rental_uris":{"android":"levelo://app?vid=053b604b-8b91-4de0-bb66-85b19d20c972","ios":"levelo://app?vid=053b604b-8b91-4de0-bb66-85b19d20c972"},"vehicle_type_id":"4","last_reported":1731377259,"current_range_meters":40000,"station_id":"ce4bgup2rcd13ifvqco0","pricing_plan_id":"cebpf4jnsgd1na2vs0mg"},{"bike_id":"bc2354e1-2a50-4b5c-93e6-2616e25c5e1b","system_id":"levelo_inurba_marseille","lat":43.24811,"lon":5.37464,"is_reserved":false,"is_disabled":false,"rental_uris":{"android":"levelo://app?vid=bc2354e1-2a50-4b5c-93e6-2616e25c5e1b","ios":"levelo://app?vid=bc2354e1-2a50-4b5c-93e6-2616e25c5e1b"},"vehicle_type_id":"4","last_reported":1731377259,"current_range_meters":38000,"station_id":"ce4bhgh2rcd13ifvqfb0","pricing_plan_id":"cebpf4jnsgd1na2vs0mg"},{"bike_id":"d5e6a2f8-7fd7-4cd3-be5b-3fd74cb9dc2f","system_id":"levelo_inurba_marseille","lat":43.28106,"lon":5.37838,"is_reserved":false,"is_disabled":false,"rental_uris":{"android":"levelo://app?vid=d5e6a2f8-7fd7-4cd3-be5b-3fd74cb9dc2f","ios":"levelo://app?vid=d5e6a2f8-7fd7-4cd3-be5b-3fd74cb9dc2f"},"vehicle_type_id":"4","last_reported":1731377259,"current_range_meters":39200,"station_id":"ce4bha12rcd13ifvqee0","pricing_plan_id":"cebpf4jnsgd1na2vs0mg"},{"bike_id":"28ad4f00-1184-4f40-a4f0-20a53a31b967","system_id":"levelo_inurba_marseille","lat":43.26805,"lon":5.40261,"is_reserved":false,"is_disabled":false,"rental_uris":{"android":"levelo://app?vid=28ad4f00-1184-4f40-a4f0-20a53a31b967","ios":"levelo://app?vid=28ad4f00-1184-4f40-a4f0-20a53a31b967"},"vehicle_type_id":"4","last_reported":1731377259,"current_range_meters":38000,"station_id":"ce501612rcd8frsf0b60","pricing_plan_id":"cebpf4jnsgd1na2vs0mg"},{"bike_id":"c4deb4cc-b275-4266-9b30-a0a2f4b844b9","system_id":"levelo_inurba_marseille","lat":43.31168,"lon":5.38712,"is_reserved":false,"is_disabled":false,"rental_uris":{"android":"levelo://app?vid=c4deb4cc-b275-4266-9b30-a0a2f4b844b9","ios":"levelo://app?vid=c4deb4cc-b275-4266-9b30-a0a2f4b844b9"},"vehicle_type_id":"4","last_reported":1731377259,"current_range_meters":39200,"station_id":"ce4bgv12rcd13ifvqcp0","pricing_plan_id":"cebpf4jnsgd1na2vs0mg"},{"bike_id":"ff1b3a69-eee0-41f1-ab61-17424914ea54","system_id":"levelo_inurba_marseille","lat":43.27984,"lon":5.41664,"is_reserved":false,"is_disabled":false,"rental_uris":{"android":"levelo://app?vid=ff1b3a69-eee0-41f1-ab61-17424914ea54","ios":"levelo://app?vid=ff1b3a69-eee0-41f1-ab61-17424914ea54"},"vehicle_type_id":"4","last_reported":1731377259,"current_range_meters":3200,"station_id":"ce4bho12rcd13ifvqh1g","pricing_plan_id":"cebpf4jnsgd1na2vs0mg"},{"bike_id":"53814902-db69-4cb1-9da1-d97c24cc8dff","system_id":"levelo_inurba_marseille","lat":43.28717,"lon":5.36065,"is_reserved":false,"is_disabled":false,"rental_uris":{"android":"levelo://app?vid=53814902-db69-4cb1-9da1-d97c24cc8dff","ios":"levelo://app?vid=53814902-db69-4cb1-9da1-d97c24cc8dff"},"vehicle_type_id":"4","last_reported":1731377259,"current_range_meters":38800,"station_id":"cki0cbj6b192h4jlfktg","pricing_plan_id":"cebpf4jnsgd1na2vs0mg"},{"bike_id":"784616cb-3dcc-4a17-ae25-f5786a0d223a","system_id":"levelo_inurba_marseille","lat":43.337444,"lon":5.374475,"is_reserved":false,"is_disabled":false,"rental_uris":{"android":"levelo://app?vid=784616cb-3dcc-4a17-ae25-f5786a0d223a","ios":"levelo://app?vid=784616cb-3dcc-4a17-ae25-f5786a0d223a"},"vehicle_type_id":"4","last_reported":1731377259,"current_range_meters":34800,"station_id":"","pricing_plan_id":"cebpf4jnsgd1na2vs0mg"},{"bike_id":"c9e1ccaf-93e0-42a0-8847-25269c17c325","system_id":"levelo_inurba_marseille","lat":43.24391,"lon":5.37045,"is_reserved":false,"is_disabled":false,"rental_uris":{"android":"levelo://app?vid=c9e1ccaf-93e0-42a0-8847-25269c17c325","ios":"levelo://app?vid=c9e1ccaf-93e0-42a0-8847-25269c17c325"},"vehicle_type_id":"4","last_reported":1731377259,"current_range_meters":38400,"station_id":"ce4bhhh2rcd13ifvqfk0","pricing_plan_id":"cebpf4jnsgd1na2vs0mg"},{"bike_id":"bbfcbce8-7188-4bb5-8aac-7d52bbdbdcf7","system_id":"levelo_inurba_marseille","lat":43.26026,"lon":5.37558,"is_reserved":false,"is_disabled":false,"rental_uris":{"android":"levelo://app?vid=bbfcbce8-7188-4bb5-8aac-7d52bbdbdcf7","ios":"levelo://app?vid=bbfcbce8-7188-4bb5-8aac-7d52bbdbdcf7"},"vehicle_type_id":"4","last_reported":1731377259,"current_range_meters":26000,"station_id":"ce4bhgh2rcd13ifvqfa0","pricing_plan_id":"cebpf4jnsgd1na2vs0mg"},{"bike_id":"0f680548-73ca-42b9-993a-8c4145e99092","system_id":"levelo_inurba_marseille","lat":43.28722,"lon":5.36085,"is_reserved":false,"is_disabled":false,"rental_uris":{"android":"levelo://app?vid=0f680548-73ca-42b9-993a-8c4145e99092","ios":"levelo://app?vid=0f680548-73ca-42b9-993a-8c4145e99092"},"vehicle_type_id":"4","last_reported":1731377259,"current_range_meters":8000,"station_id":"cki0cbj6b192h4jlfktg","pricing_plan_id":"cebpf4jnsgd1na2vs0mg"},{"bike_id":"a981cddb-35b3-4b69-a3bf-cfde7e96370a","system_id":"levelo_inurba_marseille","lat":43.23153,"lon":5.43722,"is_reserved":false,"is_disabled":false,"rental_uris":{"android":"levelo://app?vid=a981cddb-35b3-4b69-a3bf-cfde7e96370a","ios":"levelo://app?vid=a981cddb-35b3-4b69-a3bf-cfde7e96370a"},"vehicle_type_id":"4","last_reported":1731377259,"current_range_meters":38800,"station_id":"ce4bhmp2rcd13ifvqgog","pricing_plan_id":"cebpf4jnsgd1na2vs0mg"},{"bike_id":"86cf46ef-a2fc-4fbb-8052-23fdfb3f2282","system_id":"levelo_inurba_marseille","lat":43.27929,"lon":5.38027,"is_reserved":false,"is_disabled":false,"rental_uris":{"android":"levelo://app?vid=86cf46ef-a2fc-4fbb-8052-23fdfb3f2282","ios":"levelo://app?vid=86cf46ef-a2fc-4fbb-8052-23fdfb3f2282"},"vehicle_type_id":"4","last_reported":1731377259,"current_range_meters":23200,"station_id":"ce4bhf92rcd13ifvqf50","pricing_plan_id":"cebpf4jnsgd1na2vs0mg"},{"bike_id":"38494b26-732c-4693-af81-a3cf4c4e1902","system_id":"levelo_inurba_marseille","lat":43.31368,"lon":5.37446,"is_reserved":false,"is_disabled":false,"rental_uris":{"android":"levelo://app?vid=38494b26-732c-4693-af81-a3cf4c4e1902","ios":"levelo://app?vid=38494b26-732c-4693-af81-a3cf4c4e1902"},"vehicle_type_id":"4","last_reported":1731377259,"current_range_meters":11200,"station_id":"","pricing_plan_id":"cebpf4jnsgd1na2vs0mg"},{"bike_id":"d27197eb-d1ae-4933-98ff-9829770189ae","system_id":"levelo_inurba_marseille","lat":43.30596,"lon":5.39352,"is_reserved":false,"is_disabled":false,"rental_uris":{"android":"levelo://app?vid=d27197eb-d1ae-4933-98ff-9829770189ae","ios":"levelo://app?vid=d27197eb-d1ae-4933-98ff-9829770189ae"},"vehicle_type_id":"4","last_reported":1731377259,"current_range_meters":26000,"station_id":"ce4bh0p2rcd13ifvqd80","pricing_plan_id":"cebpf4jnsgd1na2vs0mg"},{"bike_id":"01fccc49-ac40-4cc9-90fc-950d9c6dd4ba","system_id":"levelo_inurba_marseille","lat":43.30596,"lon":5.39347,"is_reserved":false,"is_disabled":false,"rental_uris":{"android":"levelo://app?vid=01fccc49-ac40-4cc9-90fc-950d9c6dd4ba","ios":"levelo://app?vid=01fccc49-ac40-4cc9-90fc-950d9c6dd4ba"},"vehicle_type_id":"4","last_reported":1731377259,"current_range_meters":28800,"station_id":"ce4bh0p2rcd13ifvqd80","pricing_plan_id":"cebpf4jnsgd1na2vs0mg"},{"bike_id":"181fa628-fd06-4339-88f4-5d411c857699","system_id":"levelo_inurba_marseille","lat":43.27069,"lon":5.4229,"is_reserved":false,"is_disabled":false,"rental_uris":{"android":"levelo://app?vid=181fa628-fd06-4339-88f4-5d411c857699","ios":"levelo://app?vid=181fa628-fd06-4339-88f4-5d411c857699"},"vehicle_type_id":"4","last_reported":1731377259,"current_range_meters":34000,"station_id":"ce4bhk92rcd13ifvqgb0","pricing_plan_id":"cebpf4jnsgd1na2vs0mg"},{"bike_id":"f78d5976-a055-4d0c-afdb-4cc2a4b79214","system_id":"levelo_inurba_marseille","lat":43.31172,"lon":5.38707,"is_reserved":false,"is_disabled":false,"rental_uris":{"android":"levelo://app?vid=f78d5976-a055-4d0c-afdb-4cc2a4b79214","ios":"levelo://app?vid=f78d5976-a055-4d0c-afdb-4cc2a4b79214"},"vehicle_type_id":"4","last_reported":1731377259,"current_range_meters":39200,"station_id":"ce4bgv12rcd13ifvqcp0","pricing_plan_id":"cebpf4jnsgd1na2vs0mg"},{"bike_id":"58b0c114-eed4-4504-a004-75b4eaa2da17","system_id":"levelo_inurba_marseille","lat":43.29985,"lon":5.3718,"is_reserved":false,"is_disabled":false,"rental_uris":{"android":"levelo://app?vid=58b0c114-eed4-4504-a004-75b4eaa2da17","ios":"levelo://app?vid=58b0c114-eed4-4504-a004-75b4eaa2da17"},"vehicle_type_id":"4","last_reported":1731377259,"current_range_meters":38000,"station_id":"ce4bgr92rcd13ifvqc7g","pricing_plan_id":"cebpf4jnsgd1na2vs0mg"},{"bike_id":"fe88881f-4d0d-4590-a9c4-154cbfd945b3","system_id":"levelo_inurba_marseille","lat":43.26209,"lon":5.37429,"is_reserved":false,"is_disabled":false,"rental_uris":{"android":"levelo://app?vid=fe88881f-4d0d-4590-a9c4-154cbfd945b3","ios":"levelo://app?vid=fe88881f-4d0d-4590-a9c4-154cbfd945b3"},"vehicle_type_id":"4","last_reported":1731377259,"current_range_meters":16400,"station_id":"ce4bhgp2rcd13ifvqfc0","pricing_plan_id":"cebpf4jnsgd1na2vs0mg"},{"bike_id":"8046cf83-800a-4fbc-ad87-b439893e0919","system_id":"levelo_inurba_marseille","lat":43.29205,"lon":5.39321,"is_reserved":false,"is_disabled":false,"rental_uris":{"android":"levelo://app?vid=8046cf83-800a-4fbc-ad87-b439893e0919","ios":"levelo://app?vid=8046cf83-800a-4fbc-ad87-b439893e0919"},"vehicle_type_id":"4","last_reported":1731377259,"current_range_meters":8800,"station_id":"ce4bh192rcd13ifvqdd0","pricing_plan_id":"cebpf4jnsgd1na2vs0mg"},{"bike_id":"38befafa-005a-48da-b8a2-6e79b9913cfd","system_id":"levelo_inurba_marseille","lat":43.30443,"lon":5.42551,"is_reserved":false,"is_disabled":false,"rental_uris":{"android":"levelo://app?vid=38befafa-005a-48da-b8a2-6e79b9913cfd","ios":"levelo://app?vid=38befafa-005a-48da-b8a2-6e79b9913cfd"},"vehicle_type_id":"4","last_reported":1731377259,"current_range_meters":6400,"station_id":"","pricing_plan_id":"cebpf4jnsgd1na2vs0mg"},{"bike_id":"d5e45547-3c6c-49d3-a9e5-782864bb2d0e","system_id":"levelo_inurba_marseille","lat":43.28477,"lon":5.35856,"is_reserved":false,"is_disabled":false,"rental_uris":{"android":"levelo://app?vid=d5e45547-3c6c-49d3-a9e5-782864bb2d0e","ios":"levelo://app?vid=d5e45547-3c6c-49d3-a9e5-782864bb2d0e"},"vehicle_type_id":"4","last_reported":1731377259,"current_range_meters":37600,"station_id":"ce4bhah2rcd13ifvqei0","pricing_plan_id":"cebpf4jnsgd1na2vs0mg"},{"bike_id":"941ea951-b8b2-41e8-9dc6-73721a59ab36","system_id":"levelo_inurba_marseille","lat":43.28075,"lon":5.39654,"is_reserved":false,"is_disabled":false,"rental_uris":{"android":"levelo://app?vid=941ea951-b8b2-41e8-9dc6-73721a59ab36","ios":"levelo://app?vid=941ea951-b8b2-41e8-9dc6-73721a59ab36"},"vehicle_type_id":"4","last_reported":1731377259,"current_range_meters":38800,"station_id":"ce4bho12rcd13ifvqh2g","pricing_plan_id":"cebpf4jnsgd1na2vs0mg"},{"bike_id":"e0dd5ad8-53cf-4379-b894-58b137568b15","system_id":"levelo_inurba_marseille","lat":43.229417,"lon":5.353451,"is_reserved":false,"is_disabled":false,"rental_uris":{"android":"levelo://app?vid=e0dd5ad8-53cf-4379-b894-58b137568b15","ios":"levelo://app?vid=e0dd5ad8-53cf-4379-b894-58b137568b15"},"vehicle_type_id":"4","last_reported":1731377259,"current_range_meters":38000,"station_id":"cpo3532slgdg3j2ikp40","pricing_plan_id":"cebpf4jnsgd1na2vs0mg"},{"bike_id":"c8035b49-1282-4835-acf2-b33647f9510b","system_id":"levelo_inurba_marseille","lat":43.31114,"lon":5.37767,"is_reserved":false,"is_disabled":false,"rental_uris":{"android":"levelo://app?vid=c8035b49-1282-4835-acf2-b33647f9510b","ios":"levelo://app?vid=c8035b49-1282-4835-acf2-b33647f9510b"},"vehicle_type_id":"4","last_reported":1731377259,"current_range_meters":38800,"station_id":"ce4bgt92rcd13ifvqcg0","pricing_plan_id":"cebpf4jnsgd1na2vs0mg"},{"bike_id":"0ff30c97-d032-4bd2-b806-0ba1b23f1458","system_id":"levelo_inurba_marseille","lat":43.2989,"lon":5.4366,"is_reserved":false,"is_disabled":false,"rental_uris":{"android":"levelo://app?vid=0ff30c97-d032-4bd2-b806-0ba1b23f1458","ios":"levelo://app?vid=0ff30c97-d032-4bd2-b806-0ba1b23f1458"},"vehicle_type_id":"4","last_reported":1731377259,"current_range_meters":39200,"station_id":"ce4bhpp2rcd13ifvqhfg","pricing_plan_id":"cebpf4jnsgd1na2vs0mg"},{"bike_id":"81bbffab-2294-4802-a46f-42950b37b5d6","system_id":"levelo_inurba_marseille","lat":43.23959,"lon":5.36612,"is_reserved":false,"is_disabled":false,"rental_uris":{"android":"levelo://app?vid=81bbffab-2294-4802-a46f-42950b37b5d6","ios":"levelo://app?vid=81bbffab-2294-4802-a46f-42950b37b5d6"},"vehicle_type_id":"4","last_reported":1731377259,"current_range_meters":38000,"station_id":"ce4bhi12rcd13ifvqfp0","pricing_plan_id":"cebpf4jnsgd1na2vs0mg"},{"bike_id":"b6459786-f7ad-4308-8fc7-9d430346d23e","system_id":"levelo_inurba_marseille","lat":43.28344,"lon":5.38113,"is_reserved":false,"is_disabled":false,"rental_uris":{"android":"levelo://app?vid=b6459786-f7ad-4308-8fc7-9d430346d23e","ios":"levelo://app?vid=b6459786-f7ad-4308-8fc7-9d430346d23e"},"vehicle_type_id":"4","last_reported":1731377259,"current_range_meters":38400,"station_id":"ce4bh412rcd13ifvqdr0","pricing_plan_id":"cebpf4jnsgd1na2vs0mg"},{"bike_id":"647db640-e6dc-4daa-9749-1b2ec76d71b3","system_id":"levelo_inurba_marseille","lat":43.27068,"lon":5.42268,"is_reserved":false,"is_disabled":false,"rental_uris":{"android":"levelo://app?vid=647db640-e6dc-4daa-9749-1b2ec76d71b3","ios":"levelo://app?vid=647db640-e6dc-4daa-9749-1b2ec76d71b3"},"vehicle_type_id":"4","last_reported":1731377259,"current_range_meters":38800,"station_id":"ce4bhk92rcd13ifvqgb0","pricing_plan_id":"cebpf4jnsgd1na2vs0mg"},{"bike_id":"88a7325a-e421-4e7d-8495-b42a2ef41c7b","system_id":"levelo_inurba_marseille","lat":43.24814,"lon":5.37455,"is_reserved":false,"is_disabled":false,"rental_uris":{"android":"levelo://app?vid=88a7325a-e421-4e7d-8495-b42a2ef41c7b","ios":"levelo://app?vid=88a7325a-e421-4e7d-8495-b42a2ef41c7b"},"vehicle_type_id":"4","last_reported":1731377259,"current_range_meters":38000,"station_id":"ce4bhgh2rcd13ifvqfb0","pricing_plan_id":"cebpf4jnsgd1na2vs0mg"},{"bike_id":"c93e58e1-1ffa-4103-834a-d45d32cec571","system_id":"levelo_inurba_marseille","lat":43.26562,"lon":5.37287,"is_reserved":false,"is_disabled":false,"rental_uris":{"android":"levelo://app?vid=c93e58e1-1ffa-4103-834a-d45d32cec571","ios":"levelo://app?vid=c93e58e1-1ffa-4103-834a-d45d32cec571"},"vehicle_type_id":"4","last_reported":1731377259,"current_range_meters":20800,"station_id":"ce4bhg12rcd13ifvqf70","pricing_plan_id":"cebpf4jnsgd1na2vs0mg"},{"bike_id":"4e66a56d-9be8-4549-8e96-74abaa4f7a6d","system_id":"levelo_inurba_marseille","lat":43.28154,"lon":5.4265,"is_reserved":false,"is_disabled":false,"rental_uris":{"android":"levelo://app?vid=4e66a56d-9be8-4549-8e96-74abaa4f7a6d","ios":"levelo://app?vid=4e66a56d-9be8-4549-8e96-74abaa4f7a6d"},"vehicle_type_id":"4","last_reported":1731377259,"current_range_meters":38800,"station_id":"ce4bhnh2rcd13ifvqgug","pricing_plan_id":"cebpf4jnsgd1na2vs0mg"},{"bike_id":"a0bfc5a0-e8d8-49ee-a67b-49ddf3cd60be","system_id":"levelo_inurba_marseille","lat":43.25485,"lon":5.37666,"is_reserved":false,"is_disabled":false,"rental_uris":{"android":"levelo://app?vid=a0bfc5a0-e8d8-49ee-a67b-49ddf3cd60be","ios":"levelo://app?vid=a0bfc5a0-e8d8-49ee-a67b-49ddf3cd60be"},"vehicle_type_id":"4","last_reported":1731377259,"current_range_meters":38400,"station_id":"ce4bhh12rcd13ifvqff0","pricing_plan_id":"cebpf4jnsgd1na2vs0mg"},{"bike_id":"fc01d943-4616-4d37-8e17-5947c751d06c","system_id":"levelo_inurba_marseille","lat":43.28102,"lon":5.3784,"is_reserved":false,"is_disabled":false,"rental_uris":{"android":"levelo://app?vid=fc01d943-4616-4d37-8e17-5947c751d06c","ios":"levelo://app?vid=fc01d943-4616-4d37-8e17-5947c751d06c"},"vehicle_type_id":"4","last_reported":1731377259,"current_range_meters":39200,"station_id":"ce4bha12rcd13ifvqee0","pricing_plan_id":"cebpf4jnsgd1na2vs0mg"},{"bike_id":"67cc3770-a002-43cd-b570-cbc91ec2f8f0","system_id":"levelo_inurba_marseille","lat":43.23959,"lon":5.36648,"is_reserved":false,"is_disabled":false,"rental_uris":{"android":"levelo://app?vid=67cc3770-a002-43cd-b570-cbc91ec2f8f0","ios":"levelo://app?vid=67cc3770-a002-43cd-b570-cbc91ec2f8f0"},"vehicle_type_id":"4","last_reported":1731377259,"current_range_meters":21600,"station_id":"ce4bhi12rcd13ifvqfp0","pricing_plan_id":"cebpf4jnsgd1na2vs0mg"},{"bike_id":"abd60e21-aebf-48b2-8331-8e8d6f687586","system_id":"levelo_inurba_marseille","lat":43.30794,"lon":5.37656,"is_reserved":false,"is_disabled":false,"rental_uris":{"android":"levelo://app?vid=abd60e21-aebf-48b2-8331-8e8d6f687586","ios":"levelo://app?vid=abd60e21-aebf-48b2-8331-8e8d6f687586"},"vehicle_type_id":"4","last_reported":1731377259,"current_range_meters":32400,"station_id":"ce4bgv92rcd13ifvqcq0","pricing_plan_id":"cebpf4jnsgd1na2vs0mg"},{"bike_id":"8c71565c-3191-4fa4-8159-7408236d6330","system_id":"levelo_inurba_marseille","lat":43.287151,"lon":5.379353,"is_reserved":false,"is_disabled":false,"rental_uris":{"android":"levelo://app?vid=8c71565c-3191-4fa4-8159-7408236d6330","ios":"levelo://app?vid=8c71565c-3191-4fa4-8159-7408236d6330"},"vehicle_type_id":"4","last_reported":1731377259,"current_range_meters":38000,"station_id":"ce4bhkp2rcd13ifvqgd0","pricing_plan_id":"cebpf4jnsgd1na2vs0mg"},{"bike_id":"64c3e9c6-c3fc-4058-9a43-212bf2779561","system_id":"levelo_inurba_marseille","lat":43.30262,"lon":5.36888,"is_reserved":false,"is_disabled":false,"rental_uris":{"android":"levelo://app?vid=64c3e9c6-c3fc-4058-9a43-212bf2779561","ios":"levelo://app?vid=64c3e9c6-c3fc-4058-9a43-212bf2779561"},"vehicle_type_id":"4","last_reported":1731377259,"current_range_meters":37600,"station_id":"ce4bgqh2rcd13ifvqc5g","pricing_plan_id":"cebpf4jnsgd1na2vs0mg"},{"bike_id":"c0434846-aad1-4a93-9112-01c1b18f6481","system_id":"levelo_inurba_marseille","lat":43.29515,"lon":5.3941,"is_reserved":false,"is_disabled":false,"rental_uris":{"android":"levelo://app?vid=c0434846-aad1-4a93-9112-01c1b18f6481","ios":"levelo://app?vid=c0434846-aad1-4a93-9112-01c1b18f6481"},"vehicle_type_id":"4","last_reported":1731377259,"current_range_meters":38800,"station_id":"ce4bh292rcd13ifvqdf0","pricing_plan_id":"cebpf4jnsgd1na2vs0mg"},{"bike_id":"3e50a673-a70a-4e99-8474-4a8234c1885d","system_id":"levelo_inurba_marseille","lat":43.31274,"lon":5.40168,"is_reserved":false,"is_disabled":false,"rental_uris":{"android":"levelo://app?vid=3e50a673-a70a-4e99-8474-4a8234c1885d","ios":"levelo://app?vid=3e50a673-a70a-4e99-8474-4a8234c1885d"},"vehicle_type_id":"4","last_reported":1731377259,"current_range_meters":37600,"station_id":"ce4bh092rcd13ifvqd30","pricing_plan_id":"cebpf4jnsgd1na2vs0mg"},{"bike_id":"ca470591-2acf-4dcf-8a9b-56688197c9a2","system_id":"levelo_inurba_marseille","lat":43.28655,"lon":5.36385,"is_reserved":false,"is_disabled":false,"rental_uris":{"android":"levelo://app?vid=ca470591-2acf-4dcf-8a9b-56688197c9a2","ios":"levelo://app?vid=ca470591-2acf-4dcf-8a9b-56688197c9a2"},"vehicle_type_id":"4","last_reported":1731377259,"current_range_meters":33600,"station_id":"ce4bhah2rcd13ifvqej0","pricing_plan_id":"cebpf4jnsgd1na2vs0mg"},{"bike_id":"eddb7f22-fd02-444f-86e9-92250a8d8b7c","system_id":"levelo_inurba_marseille","lat":43.26491,"lon":5.39546,"is_reserved":false,"is_disabled":false,"rental_uris":{"android":"levelo://app?vid=eddb7f22-fd02-444f-86e9-92250a8d8b7c","ios":"levelo://app?vid=eddb7f22-fd02-444f-86e9-92250a8d8b7c"},"vehicle_type_id":"4","last_reported":1731377259,"current_range_meters":38400,"station_id":"ce4bhi12rcd13ifvqfq0","pricing_plan_id":"cebpf4jnsgd1na2vs0mg"},{"bike_id":"a875991b-6091-43df-8026-3e7fab422ca5","system_id":"levelo_inurba_marseille","lat":43.31289,"lon":5.40176,"is_reserved":false,"is_disabled":false,"rental_uris":{"android":"levelo://app?vid=a875991b-6091-43df-8026-3e7fab422ca5","ios":"levelo://app?vid=a875991b-6091-43df-8026-3e7fab422ca5"},"vehicle_type_id":"4","last_reported":1731377259,"current_range_meters":39200,"station_id":"ce4bh092rcd13ifvqd30","pricing_plan_id":"cebpf4jnsgd1na2vs0mg"},{"bike_id":"b7fee71f-fba8-498a-aa2a-878f5bb4c213","system_id":"levelo_inurba_marseille","lat":43.28349,"lon":5.38126,"is_reserved":false,"is_disabled":false,"rental_uris":{"android":"levelo://app?vid=b7fee71f-fba8-498a-aa2a-878f5bb4c213","ios":"levelo://app?vid=b7fee71f-fba8-498a-aa2a-878f5bb4c213"},"vehicle_type_id":"4","last_reported":1731377259,"current_range_meters":6400,"station_id":"ce4bh412rcd13ifvqdr0","pricing_plan_id":"cebpf4jnsgd1na2vs0mg"},{"bike_id":"47a9dfac-a295-4def-bc34-d3e129855485","system_id":"levelo_inurba_marseille","lat":43.32365,"lon":5.3888,"is_reserved":false,"is_disabled":false,"rental_uris":{"android":"levelo://app?vid=47a9dfac-a295-4def-bc34-d3e129855485","ios":"levelo://app?vid=47a9dfac-a295-4def-bc34-d3e129855485"},"vehicle_type_id":"4","last_reported":1731377259,"current_range_meters":36400,"station_id":"ce4bhqp2rcd13ifvqhog","pricing_plan_id":"cebpf4jnsgd1na2vs0mg"},{"bike_id":"9efc3f96-f8de-4885-9ec6-bfdcfe63dbb0","system_id":"levelo_inurba_marseille","lat":43.2847,"lon":5.3588,"is_reserved":false,"is_disabled":false,"rental_uris":{"android":"levelo://app?vid=9efc3f96-f8de-4885-9ec6-bfdcfe63dbb0","ios":"levelo://app?vid=9efc3f96-f8de-4885-9ec6-bfdcfe63dbb0"},"vehicle_type_id":"4","last_reported":1731377259,"current_range_meters":37600,"station_id":"ce4bhah2rcd13ifvqei0","pricing_plan_id":"cebpf4jnsgd1na2vs0mg"},{"bike_id":"8387641c-d2fc-46f9-9d28-2dcd2937657e","system_id":"levelo_inurba_marseille","lat":43.25107,"lon":5.40329,"is_reserved":false,"is_disabled":false,"rental_uris":{"android":"levelo://app?vid=8387641c-d2fc-46f9-9d28-2dcd2937657e","ios":"levelo://app?vid=8387641c-d2fc-46f9-9d28-2dcd2937657e"},"vehicle_type_id":"4","last_reported":1731377259,"current_range_meters":37600,"station_id":"ce4bhlh2rcd13ifvqgig","pricing_plan_id":"cebpf4jnsgd1na2vs0mg"},{"bike_id":"1bad3b27-c741-48c4-8cdf-a29a0bb8215c","system_id":"levelo_inurba_marseille","lat":43.33633,"lon":5.40989,"is_reserved":false,"is_disabled":false,"rental_uris":{"android":"levelo://app?vid=1bad3b27-c741-48c4-8cdf-a29a0bb8215c","ios":"levelo://app?vid=1bad3b27-c741-48c4-8cdf-a29a0bb8215c"},"vehicle_type_id":"4","last_reported":1731377259,"current_range_meters":20400,"station_id":"ce4bhqh2rcd13ifvqhmg","pricing_plan_id":"cebpf4jnsgd1na2vs0mg"},{"bike_id":"1c7a0b1e-7f48-49e4-84dc-2d3653ce3165","system_id":"levelo_inurba_marseille","lat":43.26949,"lon":5.38634,"is_reserved":false,"is_disabled":false,"rental_uris":{"android":"levelo://app?vid=1c7a0b1e-7f48-49e4-84dc-2d3653ce3165","ios":"levelo://app?vid=1c7a0b1e-7f48-49e4-84dc-2d3653ce3165"},"vehicle_type_id":"4","last_reported":1731377259,"current_range_meters":35200,"station_id":"ce4bhh92rcd13ifvqfh0","pricing_plan_id":"cebpf4jnsgd1na2vs0mg"},{"bike_id":"fd1030fc-e8a0-452e-b7b8-fa801f8ab4b6","system_id":"levelo_inurba_marseille","lat":43.27807,"lon":5.40695,"is_reserved":false,"is_disabled":false,"rental_uris":{"android":"levelo://app?vid=fd1030fc-e8a0-452e-b7b8-fa801f8ab4b6","ios":"levelo://app?vid=fd1030fc-e8a0-452e-b7b8-fa801f8ab4b6"},"vehicle_type_id":"4","last_reported":1731377259,"current_range_meters":38800,"station_id":"ce4bhnh2rcd13ifvqgtg","pricing_plan_id":"cebpf4jnsgd1na2vs0mg"},{"bike_id":"0389f6ba-9b11-4bae-aa59-6c887bee55e5","system_id":"levelo_inurba_marseille","lat":43.32193,"lon":5.38714,"is_reserved":false,"is_disabled":false,"rental_uris":{"android":"levelo://app?vid=0389f6ba-9b11-4bae-aa59-6c887bee55e5","ios":"levelo://app?vid=0389f6ba-9b11-4bae-aa59-6c887bee55e5"},"vehicle_type_id":"4","last_reported":1731377259,"current_range_meters":30400,"station_id":"","pricing_plan_id":"cebpf4jnsgd1na2vs0mg"},{"bike_id":"835fa522-c4fa-49b1-9060-16512c31e15b","system_id":"levelo_inurba_marseille","lat":43.27196,"lon":5.40987,"is_reserved":false,"is_disabled":false,"rental_uris":{"android":"levelo://app?vid=835fa522-c4fa-49b1-9060-16512c31e15b","ios":"levelo://app?vid=835fa522-c4fa-49b1-9060-16512c31e15b"},"vehicle_type_id":"4","last_reported":1731377259,"current_range_meters":6400,"station_id":"ce4bhl12rcd13ifvqgf0","pricing_plan_id":"cebpf4jnsgd1na2vs0mg"},{"bike_id":"8e9bf724-6982-4dfb-96ee-5f3b35d93850","system_id":"levelo_inurba_marseille","lat":43.29056,"lon":5.35904,"is_reserved":false,"is_disabled":false,"rental_uris":{"android":"levelo://app?vid=8e9bf724-6982-4dfb-96ee-5f3b35d93850","ios":"levelo://app?vid=8e9bf724-6982-4dfb-96ee-5f3b35d93850"},"vehicle_type_id":"4","last_reported":1731377259,"current_range_meters":38800,"station_id":"ce4bha92rcd13ifvqeg0","pricing_plan_id":"cebpf4jnsgd1na2vs0mg"},{"bike_id":"43d89267-21f4-44a8-ad0d-6c58963bd3f5","system_id":"levelo_inurba_marseille","lat":43.31071,"lon":5.38336,"is_reserved":false,"is_disabled":false,"rental_uris":{"android":"levelo://app?vid=43d89267-21f4-44a8-ad0d-6c58963bd3f5","ios":"levelo://app?vid=43d89267-21f4-44a8-ad0d-6c58963bd3f5"},"vehicle_type_id":"4","last_reported":1731377259,"current_range_meters":36400,"station_id":"ce4bgv92rcd13ifvqcr0","pricing_plan_id":"cebpf4jnsgd1na2vs0mg"},{"bike_id":"93323a0d-c43d-4459-a1e2-fa128b85a9cb","system_id":"levelo_inurba_marseille","lat":43.27913,"lon":5.39573,"is_reserved":false,"is_disabled":false,"rental_uris":{"android":"levelo://app?vid=93323a0d-c43d-4459-a1e2-fa128b85a9cb","ios":"levelo://app?vid=93323a0d-c43d-4459-a1e2-fa128b85a9cb"},"vehicle_type_id":"4","last_reported":1731377259,"current_range_meters":38000,"station_id":"ce4bhf92rcd13ifvqf40","pricing_plan_id":"cebpf4jnsgd1na2vs0mg"},{"bike_id":"7c250980-a104-4e7b-a9ea-744c01d86d65","system_id":"levelo_inurba_marseille","lat":43.32655,"lon":5.40983,"is_reserved":false,"is_disabled":false,"rental_uris":{"android":"levelo://app?vid=7c250980-a104-4e7b-a9ea-744c01d86d65","ios":"levelo://app?vid=7c250980-a104-4e7b-a9ea-744c01d86d65"},"vehicle_type_id":"4","last_reported":1731377259,"current_range_meters":38800,"station_id":"ce4bhpp2rcd13ifvqhgg","pricing_plan_id":"cebpf4jnsgd1na2vs0mg"},{"bike_id":"f1b36498-72c0-42d7-a388-70ecab90f907","system_id":"levelo_inurba_marseille","lat":43.29502,"lon":5.3904,"is_reserved":false,"is_disabled":false,"rental_uris":{"android":"levelo://app?vid=f1b36498-72c0-42d7-a388-70ecab90f907","ios":"levelo://app?vid=f1b36498-72c0-42d7-a388-70ecab90f907"},"vehicle_type_id":"4","last_reported":1731377259,"current_range_meters":33600,"station_id":"ce4bh3p2rcd13ifvqdp0","pricing_plan_id":"cebpf4jnsgd1na2vs0mg"},{"bike_id":"ac5941e1-3fd0-4a36-b1af-70a3352289e4","system_id":"levelo_inurba_marseille","lat":43.28029,"lon":5.36949,"is_reserved":false,"is_disabled":false,"rental_uris":{"android":"levelo://app?vid=ac5941e1-3fd0-4a36-b1af-70a3352289e4","ios":"levelo://app?vid=ac5941e1-3fd0-4a36-b1af-70a3352289e4"},"vehicle_type_id":"4","last_reported":1731377259,"current_range_meters":38800,"station_id":"ce4bha12rcd13ifvqef0","pricing_plan_id":"cebpf4jnsgd1na2vs0mg"},{"bike_id":"87560b99-eb6a-40f4-9edc-fe0557ad2c24","system_id":"levelo_inurba_marseille","lat":43.27534,"lon":5.42792,"is_reserved":false,"is_disabled":false,"rental_uris":{"android":"levelo://app?vid=87560b99-eb6a-40f4-9edc-fe0557ad2c24","ios":"levelo://app?vid=87560b99-eb6a-40f4-9edc-fe0557ad2c24"},"vehicle_type_id":"4","last_reported":1731377259,"current_range_meters":24000,"station_id":"ce4bgvh2rcd13ifvqcs0","pricing_plan_id":"cebpf4jnsgd1na2vs0mg"},{"bike_id":"47aea41a-bbe0-424b-9b57-bc3ae1f79104","system_id":"levelo_inurba_marseille","lat":43.2835,"lon":5.38114,"is_reserved":false,"is_disabled":false,"rental_uris":{"android":"levelo://app?vid=47aea41a-bbe0-424b-9b57-bc3ae1f79104","ios":"levelo://app?vid=47aea41a-bbe0-424b-9b57-bc3ae1f79104"},"vehicle_type_id":"4","last_reported":1731377259,"current_range_meters":22800,"station_id":"ce4bh412rcd13ifvqdr0","pricing_plan_id":"cebpf4jnsgd1na2vs0mg"},{"bike_id":"12912c0c-de93-400c-aa24-7610028721b8","system_id":"levelo_inurba_marseille","lat":43.26508,"lon":5.39532,"is_reserved":false,"is_disabled":false,"rental_uris":{"android":"levelo://app?vid=12912c0c-de93-400c-aa24-7610028721b8","ios":"levelo://app?vid=12912c0c-de93-400c-aa24-7610028721b8"},"vehicle_type_id":"4","last_reported":1731377259,"current_range_meters":37600,"station_id":"ce4bhi12rcd13ifvqfq0","pricing_plan_id":"cebpf4jnsgd1na2vs0mg"},{"bike_id":"dea8e24b-36b5-4c6f-a7a1-18720dbf8f12","system_id":"levelo_inurba_marseille","lat":43.32464,"lon":5.3661,"is_reserved":false,"is_disabled":false,"rental_uris":{"android":"levelo://app?vid=dea8e24b-36b5-4c6f-a7a1-18720dbf8f12","ios":"levelo://app?vid=dea8e24b-36b5-4c6f-a7a1-18720dbf8f12"},"vehicle_type_id":"4","last_reported":1731377259,"current_range_meters":38800,"station_id":"ce4bhs12rcd13ifvqhvg","pricing_plan_id":"cebpf4jnsgd1na2vs0mg"},{"bike_id":"141c2232-cbe0-4185-ad79-d7c5f01972be","system_id":"levelo_inurba_marseille","lat":43.28675,"lon":5.36327,"is_reserved":false,"is_disabled":false,"rental_uris":{"android":"levelo://app?vid=141c2232-cbe0-4185-ad79-d7c5f01972be","ios":"levelo://app?vid=141c2232-cbe0-4185-ad79-d7c5f01972be"},"vehicle_type_id":"4","last_reported":1731377259,"current_range_meters":19600,"station_id":"ce4bhah2rcd13ifvqej0","pricing_plan_id":"cebpf4jnsgd1na2vs0mg"},{"bike_id":"68ce2da4-cc01-46ce-a70e-a8b20aa5a816","system_id":"levelo_inurba_marseille","lat":43.2884,"lon":5.3585,"is_reserved":false,"is_disabled":false,"rental_uris":{"android":"levelo://app?vid=68ce2da4-cc01-46ce-a70e-a8b20aa5a816","ios":"levelo://app?vid=68ce2da4-cc01-46ce-a70e-a8b20aa5a816"},"vehicle_type_id":"4","last_reported":1731377259,"current_range_meters":38000,"station_id":"ce4bhb12rcd13ifvqem0","pricing_plan_id":"cebpf4jnsgd1na2vs0mg"},{"bike_id":"d36d2d16-7cbd-4f56-a381-5c3e5fc20d4e","system_id":"levelo_inurba_marseille","lat":43.29246,"lon":5.4091,"is_reserved":false,"is_disabled":false,"rental_uris":{"android":"levelo://app?vid=d36d2d16-7cbd-4f56-a381-5c3e5fc20d4e","ios":"levelo://app?vid=d36d2d16-7cbd-4f56-a381-5c3e5fc20d4e"},"vehicle_type_id":"4","last_reported":1731377259,"current_range_meters":21600,"station_id":"ce4bh192rcd13ifvqdc0","pricing_plan_id":"cebpf4jnsgd1na2vs0mg"},{"bike_id":"ffcbc9d9-cb5d-47d4-b2a5-213a9ce94689","system_id":"levelo_inurba_marseille","lat":43.29038,"lon":5.40034,"is_reserved":false,"is_disabled":false,"rental_uris":{"android":"levelo://app?vid=ffcbc9d9-cb5d-47d4-b2a5-213a9ce94689","ios":"levelo://app?vid=ffcbc9d9-cb5d-47d4-b2a5-213a9ce94689"},"vehicle_type_id":"4","last_reported":1731377259,"current_range_meters":37600,"station_id":"ce4bh392rcd13ifvqdm0","pricing_plan_id":"cebpf4jnsgd1na2vs0mg"},{"bike_id":"9cdf241a-0412-4444-a8e2-174ae54fb3df","system_id":"levelo_inurba_marseille","lat":43.2928,"lon":5.3842,"is_reserved":false,"is_disabled":false,"rental_uris":{"android":"levelo://app?vid=9cdf241a-0412-4444-a8e2-174ae54fb3df","ios":"levelo://app?vid=9cdf241a-0412-4444-a8e2-174ae54fb3df"},"vehicle_type_id":"4","last_reported":1731377259,"current_range_meters":37600,"station_id":"ce4bh692rcd13ifvqea0","pricing_plan_id":"cebpf4jnsgd1na2vs0mg"},{"bike_id":"b7b48514-bd7c-4a55-aac5-a49d2184592f","system_id":"levelo_inurba_marseille","lat":43.30659,"lon":5.40036,"is_reserved":false,"is_disabled":false,"rental_uris":{"android":"levelo://app?vid=b7b48514-bd7c-4a55-aac5-a49d2184592f","ios":"levelo://app?vid=b7b48514-bd7c-4a55-aac5-a49d2184592f"},"vehicle_type_id":"4","last_reported":1731377259,"current_range_meters":36000,"station_id":"","pricing_plan_id":"cebpf4jnsgd1na2vs0mg"},{"bike_id":"cfdc9915-a683-418d-b0c6-c97e9fa3083e","system_id":"levelo_inurba_marseille","lat":43.3093,"lon":5.4014,"is_reserved":false,"is_disabled":false,"rental_uris":{"android":"levelo://app?vid=cfdc9915-a683-418d-b0c6-c97e9fa3083e","ios":"levelo://app?vid=cfdc9915-a683-418d-b0c6-c97e9fa3083e"},"vehicle_type_id":"4","last_reported":1731377259,"current_range_meters":30000,"station_id":"ce4bgvp2rcd13ifvqct0","pricing_plan_id":"cebpf4jnsgd1na2vs0mg"},{"bike_id":"3b53d2c1-4997-47eb-afa8-687d16817ff8","system_id":"levelo_inurba_marseille","lat":43.30211,"lon":5.39469,"is_reserved":false,"is_disabled":false,"rental_uris":{"android":"levelo://app?vid=3b53d2c1-4997-47eb-afa8-687d16817ff8","ios":"levelo://app?vid=3b53d2c1-4997-47eb-afa8-687d16817ff8"},"vehicle_type_id":"4","last_reported":1731377259,"current_range_meters":37600,"station_id":"ce4bh0p2rcd13ifvqd70","pricing_plan_id":"cebpf4jnsgd1na2vs0mg"},{"bike_id":"9e22c680-5ff4-4adf-87bd-063d6a5c4995","system_id":"levelo_inurba_marseille","lat":43.27816,"lon":5.40712,"is_reserved":false,"is_disabled":false,"rental_uris":{"android":"levelo://app?vid=9e22c680-5ff4-4adf-87bd-063d6a5c4995","ios":"levelo://app?vid=9e22c680-5ff4-4adf-87bd-063d6a5c4995"},"vehicle_type_id":"4","last_reported":1731377259,"current_range_meters":29600,"station_id":"ce4bhnh2rcd13ifvqgtg","pricing_plan_id":"cebpf4jnsgd1na2vs0mg"},{"bike_id":"15ad8b44-55c9-4572-a02b-d7c6605dd1a3","system_id":"levelo_inurba_marseille","lat":43.25823,"lon":5.39425,"is_reserved":false,"is_disabled":false,"rental_uris":{"android":"levelo://app?vid=15ad8b44-55c9-4572-a02b-d7c6605dd1a3","ios":"levelo://app?vid=15ad8b44-55c9-4572-a02b-d7c6605dd1a3"},"vehicle_type_id":"4","last_reported":1731377259,"current_range_meters":32800,"station_id":"ce4bhip2rcd13ifvqft0","pricing_plan_id":"cebpf4jnsgd1na2vs0mg"},{"bike_id":"3731c9a3-566c-45fb-94bb-7f64fee6fcd7","system_id":"levelo_inurba_marseille","lat":43.28699,"lon":5.39975,"is_reserved":false,"is_disabled":false,"rental_uris":{"android":"levelo://app?vid=3731c9a3-566c-45fb-94bb-7f64fee6fcd7","ios":"levelo://app?vid=3731c9a3-566c-45fb-94bb-7f64fee6fcd7"},"vehicle_type_id":"4","last_reported":1731377259,"current_range_meters":24000,"station_id":"ce4bho92rcd13ifvqh3g","pricing_plan_id":"cebpf4jnsgd1na2vs0mg"},{"bike_id":"6551d46d-6bf3-4c7e-9fae-1492acb6e8e7","system_id":"levelo_inurba_marseille","lat":43.31726,"lon":5.42407,"is_reserved":false,"is_disabled":false,"rental_uris":{"android":"levelo://app?vid=6551d46d-6bf3-4c7e-9fae-1492acb6e8e7","ios":"levelo://app?vid=6551d46d-6bf3-4c7e-9fae-1492acb6e8e7"},"vehicle_type_id":"4","last_reported":1731377259,"current_range_meters":37600,"station_id":"ce4bhp92rcd13ifvqhbg","pricing_plan_id":"cebpf4jnsgd1na2vs0mg"},{"bike_id":"85a47318-0b48-4ac4-9075-2df1aeacaa9d","system_id":"levelo_inurba_marseille","lat":43.2869,"lon":5.37405,"is_reserved":false,"is_disabled":false,"rental_uris":{"android":"levelo://app?vid=85a47318-0b48-4ac4-9075-2df1aeacaa9d","ios":"levelo://app?vid=85a47318-0b48-4ac4-9075-2df1aeacaa9d"},"vehicle_type_id":"4","last_reported":1731377259,"current_range_meters":37600,"station_id":"ce4bh3p2rcd13ifvqdq0","pricing_plan_id":"cebpf4jnsgd1na2vs0mg"},{"bike_id":"8c0d0ab1-f28b-4b96-bdef-3496d20980e0","system_id":"levelo_inurba_marseille","lat":43.31168,"lon":5.38713,"is_reserved":false,"is_disabled":false,"rental_uris":{"android":"levelo://app?vid=8c0d0ab1-f28b-4b96-bdef-3496d20980e0","ios":"levelo://app?vid=8c0d0ab1-f28b-4b96-bdef-3496d20980e0"},"vehicle_type_id":"4","last_reported":1731377259,"current_range_meters":31200,"station_id":"ce4bgv12rcd13ifvqcp0","pricing_plan_id":"cebpf4jnsgd1na2vs0mg"},{"bike_id":"3a380d17-df8f-4b0b-9249-c031a1e66b20","system_id":"levelo_inurba_marseille","lat":43.25583,"lon":5.38224,"is_reserved":false,"is_disabled":false,"rental_uris":{"android":"levelo://app?vid=3a380d17-df8f-4b0b-9249-c031a1e66b20","ios":"levelo://app?vid=3a380d17-df8f-4b0b-9249-c031a1e66b20"},"vehicle_type_id":"4","last_reported":1731377259,"current_range_meters":35600,"station_id":"ce4bhih2rcd13ifvqfs0","pricing_plan_id":"cebpf4jnsgd1na2vs0mg"},{"bike_id":"24075d52-b22d-4189-acbb-f6fcf055ed5d","system_id":"levelo_inurba_marseille","lat":43.31887,"lon":5.40728,"is_reserved":false,"is_disabled":false,"rental_uris":{"android":"levelo://app?vid=24075d52-b22d-4189-acbb-f6fcf055ed5d","ios":"levelo://app?vid=24075d52-b22d-4189-acbb-f6fcf055ed5d"},"vehicle_type_id":"4","last_reported":1731377259,"current_range_meters":38000,"station_id":"ce4bhq12rcd13ifvqhig","pricing_plan_id":"cebpf4jnsgd1na2vs0mg"},{"bike_id":"0392daae-51fc-48e0-b3de-420a3af25192","system_id":"levelo_inurba_marseille","lat":43.28092,"lon":5.39639,"is_reserved":false,"is_disabled":false,"rental_uris":{"android":"levelo://app?vid=0392daae-51fc-48e0-b3de-420a3af25192","ios":"levelo://app?vid=0392daae-51fc-48e0-b3de-420a3af25192"},"vehicle_type_id":"4","last_reported":1731377259,"current_range_meters":32800,"station_id":"ce4bho12rcd13ifvqh2g","pricing_plan_id":"cebpf4jnsgd1na2vs0mg"},{"bike_id":"4c88044d-18dd-4d7b-a66b-04d4050242b5","system_id":"levelo_inurba_marseille","lat":43.27436,"lon":5.39406,"is_reserved":false,"is_disabled":false,"rental_uris":{"android":"levelo://app?vid=4c88044d-18dd-4d7b-a66b-04d4050242b5","ios":"levelo://app?vid=4c88044d-18dd-4d7b-a66b-04d4050242b5"},"vehicle_type_id":"4","last_reported":1731377259,"current_range_meters":36000,"station_id":"ce4bhdp2rcd13ifvqf20","pricing_plan_id":"cebpf4jnsgd1na2vs0mg"},{"bike_id":"987b6866-ee94-4904-82cd-c039be44a38b","system_id":"levelo_inurba_marseille","lat":43.2884,"lon":5.35857,"is_reserved":false,"is_disabled":false,"rental_uris":{"android":"levelo://app?vid=987b6866-ee94-4904-82cd-c039be44a38b","ios":"levelo://app?vid=987b6866-ee94-4904-82cd-c039be44a38b"},"vehicle_type_id":"4","last_reported":1731377259,"current_range_meters":22000,"station_id":"ce4bhb12rcd13ifvqem0","pricing_plan_id":"cebpf4jnsgd1na2vs0mg"},{"bike_id":"dae78a48-3da0-45bb-bd43-1861b1847e12","system_id":"levelo_inurba_marseille","lat":43.28357,"lon":5.38107,"is_reserved":false,"is_disabled":false,"rental_uris":{"android":"levelo://app?vid=dae78a48-3da0-45bb-bd43-1861b1847e12","ios":"levelo://app?vid=dae78a48-3da0-45bb-bd43-1861b1847e12"},"vehicle_type_id":"4","last_reported":1731377259,"current_range_meters":38400,"station_id":"ce4bh412rcd13ifvqdr0","pricing_plan_id":"cebpf4jnsgd1na2vs0mg"},{"bike_id":"f7403d44-18bb-4fcd-a284-5d8276d25914","system_id":"levelo_inurba_marseille","lat":43.24665,"lon":5.38162,"is_reserved":false,"is_disabled":false,"rental_uris":{"android":"levelo://app?vid=f7403d44-18bb-4fcd-a284-5d8276d25914","ios":"levelo://app?vid=f7403d44-18bb-4fcd-a284-5d8276d25914"},"vehicle_type_id":"4","last_reported":1731377259,"current_range_meters":38800,"station_id":"ce4bhih2rcd13ifvqfr0","pricing_plan_id":"cebpf4jnsgd1na2vs0mg"},{"bike_id":"307f472c-576c-4d90-a06d-9ae8a20dafea","system_id":"levelo_inurba_marseille","lat":43.31423,"lon":5.36731,"is_reserved":false,"is_disabled":false,"rental_uris":{"android":"levelo://app?vid=307f472c-576c-4d90-a06d-9ae8a20dafea","ios":"levelo://app?vid=307f472c-576c-4d90-a06d-9ae8a20dafea"},"vehicle_type_id":"4","last_reported":1731377259,"current_range_meters":37600,"station_id":"","pricing_plan_id":"cebpf4jnsgd1na2vs0mg"},{"bike_id":"a8e8c894-6c95-4028-8c3c-5e0aa80de26a","system_id":"levelo_inurba_marseille","lat":43.28712,"lon":5.37917,"is_reserved":false,"is_disabled":false,"rental_uris":{"android":"levelo://app?vid=a8e8c894-6c95-4028-8c3c-5e0aa80de26a","ios":"levelo://app?vid=a8e8c894-6c95-4028-8c3c-5e0aa80de26a"},"vehicle_type_id":"4","last_reported":1731377259,"current_range_meters":37600,"station_id":"ce4bh9p2rcd13ifvqec0","pricing_plan_id":"cebpf4jnsgd1na2vs0mg"},{"bike_id":"da4ee9a2-7d5a-4a76-9358-e8bc42011f15","system_id":"levelo_inurba_marseille","lat":43.33603,"lon":5.41049,"is_reserved":false,"is_disabled":false,"rental_uris":{"android":"levelo://app?vid=da4ee9a2-7d5a-4a76-9358-e8bc42011f15","ios":"levelo://app?vid=da4ee9a2-7d5a-4a76-9358-e8bc42011f15"},"vehicle_type_id":"4","last_reported":1731377259,"current_range_meters":37600,"station_id":"ce4bhqh2rcd13ifvqhmg","pricing_plan_id":"cebpf4jnsgd1na2vs0mg"},{"bike_id":"b2f3adca-b446-441d-a1ab-5903c30fd432","system_id":"levelo_inurba_marseille","lat":43.33772,"lon":5.37447,"is_reserved":false,"is_disabled":false,"rental_uris":{"android":"levelo://app?vid=b2f3adca-b446-441d-a1ab-5903c30fd432","ios":"levelo://app?vid=b2f3adca-b446-441d-a1ab-5903c30fd432"},"vehicle_type_id":"4","last_reported":1731377259,"current_range_meters":8400,"station_id":"","pricing_plan_id":"cebpf4jnsgd1na2vs0mg"},{"bike_id":"3772b6dd-11d7-47bd-9c13-b2f385717191","system_id":"levelo_inurba_marseille","lat":43.28036,"lon":5.36948,"is_reserved":false,"is_disabled":false,"rental_uris":{"android":"levelo://app?vid=3772b6dd-11d7-47bd-9c13-b2f385717191","ios":"levelo://app?vid=3772b6dd-11d7-47bd-9c13-b2f385717191"},"vehicle_type_id":"4","last_reported":1731377259,"current_range_meters":38800,"station_id":"ce4bha12rcd13ifvqef0","pricing_plan_id":"cebpf4jnsgd1na2vs0mg"},{"bike_id":"fe8b1da5-79c3-4d58-9684-d27bbb89f935","system_id":"levelo_inurba_marseille","lat":43.290344,"lon":5.386558,"is_reserved":false,"is_disabled":false,"rental_uris":{"android":"levelo://app?vid=fe8b1da5-79c3-4d58-9684-d27bbb89f935","ios":"levelo://app?vid=fe8b1da5-79c3-4d58-9684-d27bbb89f935"},"vehicle_type_id":"4","last_reported":1731377259,"current_range_meters":35600,"station_id":"ce4bh5p2rcd13ifvqe4g","pricing_plan_id":"cebpf4jnsgd1na2vs0mg"},{"bike_id":"ca5db060-c02c-4c9c-85b8-fa89c45fc361","system_id":"levelo_inurba_marseille","lat":43.28151,"lon":5.42642,"is_reserved":false,"is_disabled":false,"rental_uris":{"android":"levelo://app?vid=ca5db060-c02c-4c9c-85b8-fa89c45fc361","ios":"levelo://app?vid=ca5db060-c02c-4c9c-85b8-fa89c45fc361"},"vehicle_type_id":"4","last_reported":1731377259,"current_range_meters":38800,"station_id":"ce4bhnh2rcd13ifvqgug","pricing_plan_id":"cebpf4jnsgd1na2vs0mg"},{"bike_id":"b8c092b1-a5de-4f73-ab7a-241055e65cf8","system_id":"levelo_inurba_marseille","lat":43.2594,"lon":5.40913,"is_reserved":false,"is_disabled":false,"rental_uris":{"android":"levelo://app?vid=b8c092b1-a5de-4f73-ab7a-241055e65cf8","ios":"levelo://app?vid=b8c092b1-a5de-4f73-ab7a-241055e65cf8"},"vehicle_type_id":"4","last_reported":1731377259,"current_range_meters":38400,"station_id":"ce4bhm92rcd13ifvqglg","pricing_plan_id":"cebpf4jnsgd1na2vs0mg"},{"bike_id":"d52e8493-76de-4e92-96df-12a00039b59b","system_id":"levelo_inurba_marseille","lat":43.25499,"lon":5.37653,"is_reserved":false,"is_disabled":false,"rental_uris":{"android":"levelo://app?vid=d52e8493-76de-4e92-96df-12a00039b59b","ios":"levelo://app?vid=d52e8493-76de-4e92-96df-12a00039b59b"},"vehicle_type_id":"4","last_reported":1731377259,"current_range_meters":38800,"station_id":"ce4bhh12rcd13ifvqff0","pricing_plan_id":"cebpf4jnsgd1na2vs0mg"},{"bike_id":"7939ff86-df17-497c-b899-5306c392b0d3","system_id":"levelo_inurba_marseille","lat":43.281052,"lon":5.378316,"is_reserved":false,"is_disabled":false,"rental_uris":{"android":"levelo://app?vid=7939ff86-df17-497c-b899-5306c392b0d3","ios":"levelo://app?vid=7939ff86-df17-497c-b899-5306c392b0d3"},"vehicle_type_id":"4","last_reported":1731377259,"current_range_meters":4800,"station_id":"ce4bha12rcd13ifvqee0","pricing_plan_id":"cebpf4jnsgd1na2vs0mg"},{"bike_id":"3c8d9402-5602-453f-a44f-c2080c1431b8","system_id":"levelo_inurba_marseille","lat":43.27501,"lon":5.4246,"is_reserved":false,"is_disabled":false,"rental_uris":{"android":"levelo://app?vid=3c8d9402-5602-453f-a44f-c2080c1431b8","ios":"levelo://app?vid=3c8d9402-5602-453f-a44f-c2080c1431b8"},"vehicle_type_id":"4","last_reported":1731377259,"current_range_meters":38800,"station_id":"ce4bhn92rcd13ifvqgrg","pricing_plan_id":"cebpf4jnsgd1na2vs0mg"},{"bike_id":"82323c86-9e09-49a0-90c5-d2ba6154b9cb","system_id":"levelo_inurba_marseille","lat":43.27994,"lon":5.40011,"is_reserved":false,"is_disabled":false,"rental_uris":{"android":"levelo://app?vid=82323c86-9e09-49a0-90c5-d2ba6154b9cb","ios":"levelo://app?vid=82323c86-9e09-49a0-90c5-d2ba6154b9cb"},"vehicle_type_id":"4","last_reported":1731377259,"current_range_meters":35600,"station_id":"ce4bho92rcd13ifvqh4g","pricing_plan_id":"cebpf4jnsgd1na2vs0mg"},{"bike_id":"1c573e10-0a6c-409b-818c-7f7e8d274c59","system_id":"levelo_inurba_marseille","lat":43.23202,"lon":5.40007,"is_reserved":false,"is_disabled":false,"rental_uris":{"android":"levelo://app?vid=1c573e10-0a6c-409b-818c-7f7e8d274c59","ios":"levelo://app?vid=1c573e10-0a6c-409b-818c-7f7e8d274c59"},"vehicle_type_id":"4","last_reported":1731377259,"current_range_meters":20000,"station_id":"ce4bhn12rcd13ifvqgqg","pricing_plan_id":"cebpf4jnsgd1na2vs0mg"},