{"last_updated":1713459974,"ttl":30,"version":"2.2","data":{"bikes":[{"bike_id":"0b8da7aa-82c3-4b79-ab93-e05baf23b804","system_id":"levelo_inurba_marseille","lat":43.31247,"lon":5.36743,"is_reserved":false,"is_disabled":false,"rental_uris":{"android":"levelo://app?vid=0b8da7aa-82c3-4b79-ab93-e05baf23b804","ios":"levelo://app?vid=0b8da7aa-82c3-4b79-ab93-e05baf23b804"},"vehicle_type_id":"4","last_reported":1713459974,"current_range_meters":0,"station_id":"","pricing_plan_id":"cebpf4jnsgd1na2vs0mg"},{"bike_id":"967f2686-a528-4e60-84fa-a0788591f8a3","system_id":"levelo_inurba_marseille","lat":43.31332,"lon":5.36716,"is_reserved":false,"is_disabled":false,"rental_uris":{"android":"levelo://app?vid=967f2686-a528-4e60-84fa-a0788591f8a3","ios":"levelo://app?vid=967f2686-a528-4e60-84fa-a0788591f8a3"},"vehicle_type_id":"4","last_reported":1713459974,"current_range_meters":4800,"station_id":"ce4bgr92rcd13ifvqc6g","pricing_plan_id":"cebpf4jnsgd1na2vs0mg"},{"bike_id":"f6e8a005-2302-49d3-b7b8-c0590b3d30ec","system_id":"levelo_inurba_marseille","lat":43.31345,"lon":5.36731,"is_reserved":false,"is_disabled":false,"rental_uris":{"android":"levelo://app?vid=f6e8a005-2302-49d3-b7b8-c0590b3d30ec","ios":"levelo://app?vid=f6e8a005-2302-49d3-b7b8-c0590b3d30ec"},"vehicle_type_id":"4","last_reported":1713459974,"current_range_meters":7200,"station_id":"ce4bgr92rcd13ifvqc6g","pricing_plan_id":"cebpf4jnsgd1na2vs0mg"},{"bike_id":"76f442a1-cd3c-48bb-8d8d-2c76dadf1ae4","system_id":"levelo_inurba_marseille","lat":43.313391,"lon":5.36706,"is_reserved":false,"is_disabled":false,"rental_uris":{"android":"levelo://app?vid=76f442a1-cd3c-48bb-8d8d-2c76dadf1ae4","ios":"levelo://app?vid=76f442a1-cd3c-48bb-8d8d-2c76dadf1ae4"},"vehicle_type_id":"4","last_reported":1713459974,"current_range_meters":16800,"station_id":"ce4bgr92rcd13ifvqc6g","pricing_plan_id":"cebpf4jnsgd1na2vs0mg"},{"bike_id":"8c198c93-47be-4ed1-9222-7aa2864e0bbb","system_id":"levelo_inurba_marseille","lat":43.31227,"lon":5.36846,"is_reserved":false,"is_disabled":false,"rental_uris":{"android":"levelo://app?vid=8c198c93-47be-4ed1-9222-7aa2864e0bbb","ios":"levelo://app?vid=8c198c93-47be-4ed1-9222-7aa2864e0bbb"},"vehicle_type_id":"4","last_reported":1713459974,"current_range_meters":10800,"station_id":"ce4bgl92rcd13ifvqbq0","pricing_plan_id":"cebpf4jnsgd1na2vs0mg"},{"bike_id":"e1f68937-08a5-493d-b05f-fb61e28b5308","system_id":"levelo_inurba_marseille","lat":43.312323,"lon":5.368587,"is_reserved":false,"is_disabled":false,"rental_uris":{"android":"levelo://app?vid=e1f68937-08a5-493d-b05f-fb61e28b5308","ios":"levelo://app?vid=e1f68937-08a5-493d-b05f-fb61e28b5308"},"vehicle_type_id":"4","last_reported":1713459974,"current_range_meters":31200,"station_id":"ce4bgl92rcd13ifvqbq0","pricing_plan_id":"cebpf4jnsgd1na2vs0mg"},{"bike_id":"a7a821df-9106-4876-bcbb-9fdb00920793","system_id":"levelo_inurba_marseille","lat":43.317075,"lon":5.377367,"is_reserved":false,"is_disabled":false,"rental_uris":{"android":"levelo://app?vid=a7a821df-9106-4876-bcbb-9fdb00920793","ios":"levelo://app?vid=a7a821df-9106-4876-bcbb-9fdb00920793"},"vehicle_type_id":"4","last_reported":1713459974,"current_range_meters":4000,"station_id":"ce4bgth2rcd13ifvqch0","pricing_plan_id":"cebpf4jnsgd1na2vs0mg"},{"bike_id":"1f40831b-dea4-472b-b116-ef6071e74c6c","system_id":"levelo_inurba_marseille","lat":43.31225,"lon":5.36859,"is_reserved":false,"is_disabled":false,"rental_uris":{"android":"levelo://app?vid=1f40831b-dea4-472b-b116-ef6071e74c6c","ios":"levelo://app?vid=1f40831b-dea4-472b-b116-ef6071e74c6c"},"vehicle_type_id":"4","last_reported":1713459974,"current_range_meters":800,"station_id":"ce4bgl92rcd13ifvqbq0","pricing_plan_id":"cebpf4jnsgd1na2vs0mg"},{"bike_id":"c1a2c758-f208-4d66-9ae6-ccebf608327c","system_id":"levelo_inurba_marseille","lat":43.312239,"lon":5.368562,"is_reserved":false,"is_disabled":false,"rental_uris":{"android":"levelo://app?vid=c1a2c758-f208-4d66-9ae6-ccebf608327c","ios":"levelo://app?vid=c1a2c758-f208-4d66-9ae6-ccebf608327c"},"vehicle_type_id":"4","last_reported":1713459974,"current_range_meters":18000,"station_id":"ce4bgl92rcd13ifvqbq0","pricing_plan_id":"cebpf4jnsgd1na2vs0mg"},{"bike_id":"d720dcc6-50c0-4c99-99a7-4d9113cb1cd0","system_id":"levelo_inurba_marseille","lat":43.309076,"lon":5.368465,"is_reserved":false,"is_disabled":false,"rental_uris":{"android":"levelo://app?vid=d720dcc6-50c0-4c99-99a7-4d9113cb1cd0","ios":"levelo://app?vid=d720dcc6-50c0-4c99-99a7-4d9113cb1cd0"},"vehicle_type_id":"4","last_reported":1713459974,"current_range_meters":21200,"station_id":"ce4bgn92rcd13ifvqbvg","pricing_plan_id":"cebpf4jnsgd1na2vs0mg"},{"bike_id":"d50471dd-bf8e-4c73-ac40-be13e8913965","system_id":"levelo_inurba_marseille","lat":43.309076,"lon":5.368465,"is_reserved":false,"is_disabled":false,"rental_uris":{"android":"levelo://app?vid=d50471dd-bf8e-4c73-ac40-be13e8913965","ios":"levelo://app?vid=d50471dd-bf8e-4c73-ac40-be13e8913965"},"vehicle_type_id":"4","last_reported":1713459974,"current_range_meters":10800,"station_id":"ce4bgn92rcd13ifvqbvg","pricing_plan_id":"cebpf4jnsgd1na2vs0mg"},{"bike_id":"7a76ac97-9ab4-48ee-a466-9be8d7b9f7b6","system_id":"levelo_inurba_marseille","lat":43.31322,"lon":5.37245,"is_reserved":false,"is_disabled":false,"rental_uris":{"android":"levelo://app?vid=7a76ac97-9ab4-48ee-a466-9be8d7b9f7b6","ios":"levelo://app?vid=7a76ac97-9ab4-48ee-a466-9be8d7b9f7b6"},"vehicle_type_id":"4","last_reported":1713459974,"current_range_meters":10400,"station_id":"","pricing_plan_id":"cebpf4jnsgd1na2vs0mg"},{"bike_id":"fa4ec21c-7a72-420b-9c92-a7661138f74e","system_id":"levelo_inurba_marseille","lat":43.314811,"lon":5.373103,"is_reserved":false,"is_disabled":false,"rental_uris":{"android":"levelo://app?vid=fa4ec21c-7a72-420b-9c92-a7661138f74e","ios":"levelo://app?vid=fa4ec21c-7a72-420b-9c92-a7661138f74e"},"vehicle_type_id":"4","last_reported":1713459974,"current_range_meters":17600,"station_id":"ce4bgt12rcd13ifvqcd0","pricing_plan_id":"cebpf4jnsgd1na2vs0mg"},{"bike_id":"c4d8d555-e522-4b64-b8e5-1f3715cf775c","system_id":"levelo_inurba_marseille","lat":43.314811,"lon":5.373103,"is_reserved":false,"is_disabled":false,"rental_uris":{"android":"levelo://app?vid=c4d8d555-e522-4b64-b8e5-1f3715cf775c","ios":"levelo://app?vid=c4d8d555-e522-4b64-b8e5-1f3715cf775c"},"vehicle_type_id":"4","last_reported":1713459974,"current_range_meters":0,"station_id":"ce4bgt12rcd13ifvqcd0","pricing_plan_id":"cebpf4jnsgd1na2vs0mg"},{"bike_id":"f47233b4-c4a2-47c3-abab-1b5e7c341b21","system_id":"levelo_inurba_marseille","lat":43.309039,"lon":5.371797,"is_reserved":false,"is_disabled":false,"rental_uris":{"android":"levelo://app?vid=f47233b4-c4a2-47c3-abab-1b5e7c341b21","ios":"levelo://app?vid=f47233b4-c4a2-47c3-abab-1b5e7c341b21"},"vehicle_type_id":"4","last_reported":1713459974,"current_range_meters":3200,"station_id":"ce4bguh2rcd13ifvqckg","pricing_plan_id":"cebpf4jnsgd1na2vs0mg"},{"bike_id":"52f22b5a-486d-4c62-a4ac-137bfb2f235e","system_id":"levelo_inurba_marseille","lat":43.30554,"lon":5.36534,"is_reserved":false,"is_disabled":false,"rental_uris":{"android":"levelo://app?vid=52f22b5a-486d-4c62-a4ac-137bfb2f235e","ios":"levelo://app?vid=52f22b5a-486d-4c62-a4ac-137bfb2f235e"},"vehicle_type_id":"4","last_reported":1713459974,"current_range_meters":28800,"station_id":"","pricing_plan_id":"cebpf4jnsgd1na2vs0mg"},{"bike_id":"3cacaff5-52fe-450a-a418-713dd7abcb2c","system_id":"levelo_inurba_marseille","lat":43.3054,"lon":5.36559,"is_reserved":false,"is_disabled":false,"rental_uris":{"android":"levelo://app?vid=3cacaff5-52fe-450a-a418-713dd7abcb2c","ios":"levelo://app?vid=3cacaff5-52fe-450a-a418-713dd7abcb2c"},"vehicle_type_id":"4","last_reported":1713459974,"current_range_meters":400,"station_id":"ce4bgs12rcd13ifvqcag","pricing_plan_id":"cebpf4jnsgd1na2vs0mg"},{"bike_id":"af6ff776-57d4-429a-9ea5-49281fa957f2","system_id":"levelo_inurba_marseille","lat":43.30505,"lon":5.3671,"is_reserved":false,"is_disabled":false,"rental_uris":{"android":"levelo://app?vid=af6ff776-57d4-429a-9ea5-49281fa957f2","ios":"levelo://app?vid=af6ff776-57d4-429a-9ea5-49281fa957f2"},"vehicle_type_id":"4","last_reported":1713459974,"current_range_meters":0,"station_id":"ce4bgrp2rcd13ifvqc9g","pricing_plan_id":"cebpf4jnsgd1na2vs0mg"},{"bike_id":"611c2969-770c-4050-81c2-f648ba0d416d","system_id":"levelo_inurba_marseille","lat":43.305989,"lon":5.37225,"is_reserved":false,"is_disabled":false,"rental_uris":{"android":"levelo://app?vid=611c2969-770c-4050-81c2-f648ba0d416d","ios":"levelo://app?vid=611c2969-770c-4050-81c2-f648ba0d416d"},"vehicle_type_id":"4","last_reported":1713459974,"current_range_meters":400,"station_id":"ce4bgqh2rcd13ifvqc4g","pricing_plan_id":"cebpf4jnsgd1na2vs0mg"},{"bike_id":"3aff1197-ea90-4311-a89a-f037fc9e3534","system_id":"levelo_inurba_marseille","lat":43.311125,"lon":5.377624,"is_reserved":false,"is_disabled":false,"rental_uris":{"android":"levelo://app?vid=3aff1197-ea90-4311-a89a-f037fc9e3534","ios":"levelo://app?vid=3aff1197-ea90-4311-a89a-f037fc9e3534"},"vehicle_type_id":"4","last_reported":1713459974,"current_range_meters":21600,"station_id":"ce4bgt92rcd13ifvqcg0","pricing_plan_id":"cebpf4jnsgd1na2vs0mg"},{"bike_id":"a3393386-6c70-49b7-b00d-d175090e4ee4","system_id":"levelo_inurba_marseille","lat":43.311125,"lon":5.377624,"is_reserved":false,"is_disabled":false,"rental_uris":{"android":"levelo://app?vid=a3393386-6c70-49b7-b00d-d175090e4ee4","ios":"levelo://app?vid=a3393386-6c70-49b7-b00d-d175090e4ee4"},"vehicle_type_id":"4","last_reported":1713459974,"current_range_meters":12400,"station_id":"ce4bgt92rcd13ifvqcg0","pricing_plan_id":"cebpf4jnsgd1na2vs0mg"},{"bike_id":"24dc1101-0167-45b6-877f-9d78fbe2cee5","system_id":"levelo_inurba_marseille","lat":43.311131,"lon":5.377651,"is_reserved":false,"is_disabled":false,"rental_uris":{"android":"levelo://app?vid=24dc1101-0167-45b6-877f-9d78fbe2cee5","ios":"levelo://app?vid=24dc1101-0167-45b6-877f-9d78fbe2cee5"},"vehicle_type_id":"4","last_reported":1713459974,"current_range_meters":24800,"station_id":"ce4bgt92rcd13ifvqcg0","pricing_plan_id":"cebpf4jnsgd1na2vs0mg"},{"bike_id":"c202e425-f3e9-461f-9844-a8a755f221b9","system_id":"levelo_inurba_marseille","lat":43.307945,"lon":5.376487,"is_reserved":false,"is_disabled":false,"rental_uris":{"android":"levelo://app?vid=c202e425-f3e9-461f-9844-a8a755f221b9","ios":"levelo://app?vid=c202e425-f3e9-461f-9844-a8a755f221b9"},"vehicle_type_id":"4","last_reported":1713459974,"current_range_meters":24000,"station_id":"ce4bgv92rcd13ifvqcq0","pricing_plan_id":"cebpf4jnsgd1na2vs0mg"},{"bike_id":"f2d0ad17-b2ec-48b8-bfff-ec1f08ce4473","system_id":"levelo_inurba_marseille","lat":43.307945,"lon":5.376487,"is_reserved":false,"is_disabled":false,"rental_uris":{"android":"levelo://app?vid=f2d0ad17-b2ec-48b8-bfff-ec1f08ce4473","ios":"levelo://app?vid=f2d0ad17-b2ec-48b8-bfff-ec1f08ce4473"},"vehicle_type_id":"4","last_reported":1713459974,"current_range_meters":18000,"station_id":"ce4bgv92rcd13ifvqcq0","pricing_plan_id":"cebpf4jnsgd1na2vs0mg"},{"bike_id":"49aa3276-fb3c-40f3-9d41-112596a6cfab","system_id":"levelo_inurba_marseille","lat":43.307945,"lon":5.376487,"is_reserved":false,"is_disabled":false,"rental_uris":{"android":"levelo://app?vid=49aa3276-fb3c-40f3-9d41-112596a6cfab","ios":"levelo://app?vid=49aa3276-fb3c-40f3-9d41-112596a6cfab"},"vehicle_type_id":"4","last_reported":1713459974,"current_range_meters":4400,"station_id":"ce4bgv92rcd13ifvqcq0","pricing_plan_id":"cebpf4jnsgd1na2vs0mg"},{"bike_id":"a920a259-171b-49e4-9022-00afafd1bf83","system_id":"levelo_inurba_marseille","lat":43.307945,"lon":5.376487,"is_reserved":false,"is_disabled":false,"rental_uris":{"android":"levelo://app?vid=a920a259-171b-49e4-9022-00afafd1bf83","ios":"levelo://app?vid=a920a259-171b-49e4-9022-00afafd1bf83"},"vehicle_type_id":"4","last_reported":1713459974,"current_range_meters":11200,"station_id":"ce4bgv92rcd13ifvqcq0","pricing_plan_id":"cebpf4jnsgd1na2vs0mg"},{"bike_id":"34ecc14e-9ec6-4d8a-a7cb-203733287578","system_id":"levelo_inurba_marseille","lat":43.307945,"lon":5.376487,"is_reserved":false,"is_disabled":false,"rental_uris":{"android":"levelo://app?vid=34ecc14e-9ec6-4d8a-a7cb-203733287578","ios":"levelo://app?vid=34ecc14e-9ec6-4d8a-a7cb-203733287578"},"vehicle_type_id":"4","last_reported":1713459974,"current_range_meters":800,"station_id":"ce4bgv92rcd13ifvqcq0","pricing_plan_id":"cebpf4jnsgd1na2vs0mg"},{"bike_id":"1547f2ba-18d8-48ad-ae23-0af1273cd2d3","system_id":"levelo_inurba_marseille","lat":43.307822,"lon":5.376503,"is_reserved":false,"is_disabled":false,"rental_uris":{"android":"levelo://app?vid=1547f2ba-18d8-48ad-ae23-0af1273cd2d3","ios":"levelo://app?vid=1547f2ba-18d8-48ad-ae23-0af1273cd2d3"},"vehicle_type_id":"4","last_reported":1713459974,"current_range_meters":16000,"station_id":"","pricing_plan_id":"cebpf4jnsgd1na2vs0mg"},{"bike_id":"390ab613-fe94-4672-b09b-d6baad56818d","system_id":"levelo_inurba_marseille","lat":43.307945,"lon":5.376487,"is_reserved":false,"is_disabled":false,"rental_uris":{"android":"levelo://app?vid=390ab613-fe94-4672-b09b-d6baad56818d","ios":"levelo://app?vid=390ab613-fe94-4672-b09b-d6baad56818d"},"vehicle_type_id":"4","last_reported":1713459974,"current_range_meters":14000,"station_id":"ce4bgv92rcd13ifvqcq0","pricing_plan_id":"cebpf4jnsgd1na2vs0mg"},{"bike_id":"f84f7f9d-bf51-4daf-b6d3-a12567a9bc5f","system_id":"levelo_inurba_marseille","lat":43.307945,"lon":5.376487,"is_reserved":false,"is_disabled":false,"rental_uris":{"android":"levelo://app?vid=f84f7f9d-bf51-4daf-b6d3-a12567a9bc5f","ios":"levelo://app?vid=f84f7f9d-bf51-4daf-b6d3-a12567a9bc5f"},"vehicle_type_id":"4","last_reported":1713459974,"current_range_meters":27600,"station_id":"ce4bgv92rcd13ifvqcq0","pricing_plan_id":"cebpf4jnsgd1na2vs0mg"},{"bike_id":"d4ee87a1-318c-48ae-bb8d-93e194f338a1","system_id":"levelo_inurba_marseille","lat":43.307945,"lon":5.376487,"is_reserved":false,"is_disabled":false,"rental_uris":{"android":"levelo://app?vid=d4ee87a1-318c-48ae-bb8d-93e194f338a1","ios":"levelo://app?vid=d4ee87a1-318c-48ae-bb8d-93e194f338a1"},"vehicle_type_id":"4","last_reported":1713459974,"current_range_meters":16800,"station_id":"ce4bgv92rcd13ifvqcq0","pricing_plan_id":"cebpf4jnsgd1na2vs0mg"},{"bike_id":"5c749597-446a-4734-bd01-5902e2dc9fc4","system_id":"levelo_inurba_marseille","lat":43.307945,"lon":5.376487,"is_reserved":false,"is_disabled":false,"rental_uris":{"android":"levelo://app?vid=5c749597-446a-4734-bd01-5902e2dc9fc4","ios":"levelo://app?vid=5c749597-446a-4734-bd01-5902e2dc9fc4"},"vehicle_type_id":"4","last_reported":1713459974,"current_range_meters":15600,"station_id":"ce4bgv92rcd13ifvqcq0","pricing_plan_id":"cebpf4jnsgd1na2vs0mg"},{"bike_id":"45184e26-6ab0-4790-8672-f60d9a46e93f","system_id":"levelo_inurba_marseille","lat":43.311131,"lon":5.377651,"is_reserved":false,"is_disabled":false,"rental_uris":{"android":"levelo://app?vid=45184e26-6ab0-4790-8672-f60d9a46e93f","ios":"levelo://app?vid=45184e26-6ab0-4790-8672-f60d9a46e93f"},"vehicle_type_id":"4","last_reported":1713459974,"current_range_meters":2400,"station_id":"ce4bgt92rcd13ifvqcg0","pricing_plan_id":"cebpf4jnsgd1na2vs0mg"},{"bike_id":"615dc05e-3c2d-4538-ad4e-e32bf398cc39","system_id":"levelo_inurba_marseille","lat":43.317062,"lon":5.377564,"is_reserved":false,"is_disabled":false,"rental_uris":{"android":"levelo://app?vid=615dc05e-3c2d-4538-ad4e-e32bf398cc39","ios":"levelo://app?vid=615dc05e-3c2d-4538-ad4e-e32bf398cc39"},"vehicle_type_id":"4","last_reported":1713459974,"current_range_meters":4800,"station_id":"ce4bgth2rcd13ifvqch0","pricing_plan_id":"cebpf4jnsgd1na2vs0mg"},{"bike_id":"8217ad22-9b72-431d-af24-0f02258dec86","system_id":"levelo_inurba_marseille","lat":43.274099,"lon":5.394019,"is_reserved":false,"is_disabled":false,"rental_uris":{"android":"levelo://app?vid=8217ad22-9b72-431d-af24-0f02258dec86","ios":"levelo://app?vid=8217ad22-9b72-431d-af24-0f02258dec86"},"vehicle_type_id":"4","last_reported":1713459974,"current_range_meters":18000,"station_id":"ce4bhdp2rcd13ifvqf20","pricing_plan_id":"cebpf4jnsgd1na2vs0mg"},{"bike_id":"37f6df28-3593-4a9f-9399-a0e5a89fbc9a","system_id":"levelo_inurba_marseille","lat":43.301939,"lon":5.366286,"is_reserved":false,"is_disabled":false,"rental_uris":{"android":"levelo://app?vid=37f6df28-3593-4a9f-9399-a0e5a89fbc9a","ios":"levelo://app?vid=37f6df28-3593-4a9f-9399-a0e5a89fbc9a"},"vehicle_type_id":"4","last_reported":1713459974,"current_range_meters":8000,"station_id":"ce4bgrh2rcd13ifvqc8g","pricing_plan_id":"cebpf4jnsgd1na2vs0mg"},{"bike_id":"bbd98522-eb27-47ee-b191-600d5a2bc1ce","system_id":"levelo_inurba_marseille","lat":43.30196,"lon":5.36624,"is_reserved":false,"is_disabled":false,"rental_uris":{"android":"levelo://app?vid=bbd98522-eb27-47ee-b191-600d5a2bc1ce","ios":"levelo://app?vid=bbd98522-eb27-47ee-b191-600d5a2bc1ce"},"vehicle_type_id":"4","last_reported":1713459974,"current_range_meters":9200,"station_id":"ce4bgrh2rcd13ifvqc8g","pricing_plan_id":"cebpf4jnsgd1na2vs0mg"},{"bike_id":"17e098b2-ddbe-4a26-ac78-129525da1e9e","system_id":"levelo_inurba_marseille","lat":43.301939,"lon":5.366286,"is_reserved":false,"is_disabled":false,"rental_uris":{"android":"levelo://app?vid=17e098b2-ddbe-4a26-ac78-129525da1e9e","ios":"levelo://app?vid=17e098b2-ddbe-4a26-ac78-129525da1e9e"},"vehicle_type_id":"4","last_reported":1713459974,"current_range_meters":14800,"station_id":"ce4bgrh2rcd13ifvqc8g","pricing_plan_id":"cebpf4jnsgd1na2vs0mg"},{"bike_id":"fc7e2fac-e92b-45e2-a130-38c45b70de51","system_id":"levelo_inurba_marseille","lat":43.308012,"lon":5.381511,"is_reserved":false,"is_disabled":false,"rental_uris":{"android":"levelo://app?vid=fc7e2fac-e92b-45e2-a130-38c45b70de51","ios":"levelo://app?vid=fc7e2fac-e92b-45e2-a130-38c45b70de51"},"vehicle_type_id":"4","last_reported":1713459974,"current_range_meters":0,"station_id":"ce4bgt12rcd13ifvqce0","pricing_plan_id":"cebpf4jnsgd1na2vs0mg"},{"bike_id":"317cfddd-64dc-45bb-b8a5-a01d11ccb762","system_id":"levelo_inurba_marseille","lat":43.304706,"lon":5.379223,"is_reserved":false,"is_disabled":false,"rental_uris":{"android":"levelo://app?vid=317cfddd-64dc-45bb-b8a5-a01d11ccb762","ios":"levelo://app?vid=317cfddd-64dc-45bb-b8a5-a01d11ccb762"},"vehicle_type_id":"4","last_reported":1713459974,"current_range_meters":6400,"station_id":"","pricing_plan_id":"cebpf4jnsgd1na2vs0mg"},{"bike_id":"c18daffc-6697-4326-93b9-38eb8980f6d5","system_id":"levelo_inurba_marseille","lat":43.324771,"lon":5.36557,"is_reserved":false,"is_disabled":false,"rental_uris":{"android":"levelo://app?vid=c18daffc-6697-4326-93b9-38eb8980f6d5","ios":"levelo://app?vid=c18daffc-6697-4326-93b9-38eb8980f6d5"},"vehicle_type_id":"4","last_reported":1713459974,"current_range_meters":25600,"station_id":"ce4bhs12rcd13ifvqhvg","pricing_plan_id":"cebpf4jnsgd1na2vs0mg"},{"bike_id":"24e22f87-f69b-4ec1-a607-190bea6d9bdf","system_id":"levelo_inurba_marseille","lat":43.324771,"lon":5.36557,"is_reserved":false,"is_disabled":false,"rental_uris":{"android":"levelo://app?vid=24e22f87-f69b-4ec1-a607-190bea6d9bdf","ios":"levelo://app?vid=24e22f87-f69b-4ec1-a607-190bea6d9bdf"},"vehicle_type_id":"4","last_reported":1713459974,"current_range_meters":30400,"station_id":"ce4bhs12rcd13ifvqhvg","pricing_plan_id":"cebpf4jnsgd1na2vs0mg"},{"bike_id":"04f16c0d-5949-4d28-8769-9c956df36b46","system_id":"levelo_inurba_marseille","lat":43.324771,"lon":5.36557,"is_reserved":false,"is_disabled":false,"rental_uris":{"android":"levelo://app?vid=04f16c0d-5949-4d28-8769-9c956df36b46","ios":"levelo://app?vid=04f16c0d-5949-4d28-8769-9c956df36b46"},"vehicle_type_id":"4","last_reported":1713459974,"current_range_meters":10800,"station_id":"ce4bhs12rcd13ifvqhvg","pricing_plan_id":"cebpf4jnsgd1na2vs0mg"},{"bike_id":"55025c88-7430-4100-b656-17b5466ee865","system_id":"levelo_inurba_marseille","lat":43.31072,"lon":5.38355,"is_reserved":false,"is_disabled":false,"rental_uris":{"android":"levelo://app?vid=55025c88-7430-4100-b656-17b5466ee865","ios":"levelo://app?vid=55025c88-7430-4100-b656-17b5466ee865"},"vehicle_type_id":"4","last_reported":1713459974,"current_range_meters":0,"station_id":"ce4bgv92rcd13ifvqcr0","pricing_plan_id":"cebpf4jnsgd1na2vs0mg"},{"bike_id":"1383203e-8f85-43f7-954a-d2dd6d33ed3a","system_id":"levelo_inurba_marseille","lat":43.310804,"lon":5.38359,"is_reserved":false,"is_disabled":false,"rental_uris":{"android":"levelo://app?vid=1383203e-8f85-43f7-954a-d2dd6d33ed3a","ios":"levelo://app?vid=1383203e-8f85-43f7-954a-d2dd6d33ed3a"},"vehicle_type_id":"4","last_reported":1713459974,"current_range_meters":2400,"station_id":"ce4bgv92rcd13ifvqcr0","pricing_plan_id":"cebpf4jnsgd1na2vs0mg"},{"bike_id":"015b90d7-8ad3-4776-8d80-624d35694bcb","system_id":"levelo_inurba_marseille","lat":43.310804,"lon":5.38359,"is_reserved":false,"is_disabled":false,"rental_uris":{"android":"levelo://app?vid=015b90d7-8ad3-4776-8d80-624d35694bcb","ios":"levelo://app?vid=015b90d7-8ad3-4776-8d80-624d35694bcb"},"vehicle_type_id":"4","last_reported":1713459974,"current_range_meters":15200,"station_id":"ce4bgv92rcd13ifvqcr0","pricing_plan_id":"cebpf4jnsgd1na2vs0mg"},{"bike_id":"5e0422c4-4db2-4cd5-8ec6-f1a5f73617e2","system_id":"levelo_inurba_marseille","lat":43.305523,"lon":5.38105,"is_reserved":false,"is_disabled":false,"rental_uris":{"android":"levelo://app?vid=5e0422c4-4db2-4cd5-8ec6-f1a5f73617e2","ios":"levelo://app?vid=5e0422c4-4db2-4cd5-8ec6-f1a5f73617e2"},"vehicle_type_id":"4","last_reported":1713459974,"current_range_meters":14000,"station_id":"","pricing_plan_id":"cebpf4jnsgd1na2vs0mg"},{"bike_id":"334e3407-4f9b-4b57-a5ef-39033f25d948","system_id":"levelo_inurba_marseille","lat":43.319935,"lon":5.381699,"is_reserved":false,"is_disabled":false,"rental_uris":{"android":"levelo://app?vid=334e3407-4f9b-4b57-a5ef-39033f25d948","ios":"levelo://app?vid=334e3407-4f9b-4b57-a5ef-39033f25d948"},"vehicle_type_id":"4","last_reported":1713459974,"current_range_meters":16000,"station_id":"ce4bhr12rcd13ifvqhpg","pricing_plan_id":"cebpf4jnsgd1na2vs0mg"},{"bike_id":"3f91c933-99fb-4f26-856f-4a99a9b465e5","system_id":"levelo_inurba_marseille","lat":43.319935,"lon":5.381699,"is_reserved":false,"is_disabled":false,"rental_uris":{"android":"levelo://app?vid=3f91c933-99fb-4f26-856f-4a99a9b465e5","ios":"levelo://app?vid=3f91c933-99fb-4f26-856f-4a99a9b465e5"},"vehicle_type_id":"4","last_reported":1713459974,"current_range_meters":13200,"station_id":"ce4bhr12rcd13ifvqhpg","pricing_plan_id":"cebpf4jnsgd1na2vs0mg"},{"bike_id":"d212c281-3522-420a-b06f-b80966290c73","system_id":"levelo_inurba_marseille","lat":43.319935,"lon":5.381699,"is_reserved":false,"is_disabled":false,"rental_uris":{"android":"levelo://app?vid=d212c281-3522-420a-b06f-b80966290c73","ios":"levelo://app?vid=d212c281-3522-420a-b06f-b80966290c73"},"vehicle_type_id":"4","last_reported":1713459974,"current_range_meters":19600,"station_id":"ce4bhr12rcd13ifvqhpg","pricing_plan_id":"cebpf4jnsgd1na2vs0mg"},{"bike_id":"3d2d6d9b-bac4-4cbc-b1a0-ff655824f638","system_id":"levelo_inurba_marseille","lat":43.319935,"lon":5.381699,"is_reserved":false,"is_disabled":false,"rental_uris":{"android":"levelo://app?vid=3d2d6d9b-bac4-4cbc-b1a0-ff655824f638","ios":"levelo://app?vid=3d2d6d9b-bac4-4cbc-b1a0-ff655824f638"},"vehicle_type_id":"4","last_reported":1713459974,"current_range_meters":0,"station_id":"ce4bhr12rcd13ifvqhpg","pricing_plan_id":"cebpf4jnsgd1na2vs0mg"},{"bike_id":"b81b1e3e-2172-4dfd-8720-aafb0057bf12","system_id":"levelo_inurba_marseille","lat":43.319935,"lon":5.381699,"is_reserved":false,"is_disabled":false,"rental_uris":{"android":"levelo://app?vid=b81b1e3e-2172-4dfd-8720-aafb0057bf12","ios":"levelo://app?vid=b81b1e3e-2172-4dfd-8720-aafb0057bf12"},"vehicle_type_id":"4","last_reported":1713459974,"current_range_meters":26800,"station_id":"ce4bhr12rcd13ifvqhpg","pricing_plan_id":"cebpf4jnsgd1na2vs0mg"},{"bike_id":"ce7fa476-bb4f-43d3-8318-023d7f9567ab","system_id":"levelo_inurba_marseille","lat":43.319935,"lon":5.381699,"is_reserved":false,"is_disabled":false,"rental_uris":{"android":"levelo://app?vid=ce7fa476-bb4f-43d3-8318-023d7f9567ab","ios":"levelo://app?vid=ce7fa476-bb4f-43d3-8318-023d7f9567ab"},"vehicle_type_id":"4","last_reported":1713459974,"current_range_meters":15200,"station_id":"ce4bhr12rcd13ifvqhpg","pricing_plan_id":"cebpf4jnsgd1na2vs0mg"},{"bike_id":"0e84f681-fb56-442b-9379-776ed0988804","system_id":"levelo_inurba_marseille","lat":43.31997,"lon":5.38161,"is_reserved":false,"is_disabled":false,"rental_uris":{"android":"levelo://app?vid=0e84f681-fb56-442b-9379-776ed0988804","ios":"levelo://app?vid=0e84f681-fb56-442b-9379-776ed0988804"},"vehicle_type_id":"4","last_reported":1713459974,"current_range_meters":20400,"station_id":"ce4bhr12rcd13ifvqhpg","pricing_plan_id":"cebpf4jnsgd1na2vs0mg"},{"bike_id":"56798afc-50c8-4e82-9e62-42871ef1f247","system_id":"levelo_inurba_marseille","lat":43.292644,"lon":5.384257,"is_reserved":false,"is_disabled":false,"rental_uris":{"android":"levelo://app?vid=56798afc-50c8-4e82-9e62-42871ef1f247","ios":"levelo://app?vid=56798afc-50c8-4e82-9e62-42871ef1f247"},"vehicle_type_id":"4","last_reported":1713459974,"current_range_meters":2800,"station_id":"ce4bh692rcd13ifvqea0","pricing_plan_id":"cebpf4jnsgd1na2vs0mg"},{"bike_id":"d2214101-6430-4f99-9840-08cacb9ebf4b","system_id":"levelo_inurba_marseille","lat":43.313599,"lon":5.384861,"is_reserved":false,"is_disabled":false,"rental_uris":{"android":"levelo://app?vid=d2214101-6430-4f99-9840-08cacb9ebf4b","ios":"levelo://app?vid=d2214101-6430-4f99-9840-08cacb9ebf4b"},"vehicle_type_id":"4","last_reported":1713459974,"current_range_meters":29600,"station_id":"ce4bgt92rcd13ifvqcf0","pricing_plan_id":"cebpf4jnsgd1na2vs0mg"},{"bike_id":"488b5e9b-2c26-4005-965e-547350c22a41","system_id":"levelo_inurba_marseille","lat":43.313571,"lon":5.384829,"is_reserved":false,"is_disabled":false,"rental_uris":{"android":"levelo://app?vid=488b5e9b-2c26-4005-965e-547350c22a41","ios":"levelo://app?vid=488b5e9b-2c26-4005-965e-547350c22a41"},"vehicle_type_id":"4","last_reported":1713459974,"current_range_meters":1600,"station_id":"ce4bgt92rcd13ifvqcf0","pricing_plan_id":"cebpf4jnsgd1na2vs0mg"},{"bike_id":"3fa97441-e8cc-4449-8698-1ab8d6beef90","system_id":"levelo_inurba_marseille","lat":43.313571,"lon":5.384829,"is_reserved":false,"is_disabled":false,"rental_uris":{"android":"levelo://app?vid=3fa97441-e8cc-4449-8698-1ab8d6beef90","ios":"levelo://app?vid=3fa97441-e8cc-4449-8698-1ab8d6beef90"},"vehicle_type_id":"4","last_reported":1713459974,"current_range_meters":5200,"station_id":"ce4bgt92rcd13ifvqcf0","pricing_plan_id":"cebpf4jnsgd1na2vs0mg"},{"bike_id":"f0ddd431-1d17-4159-bec8-4675a720a8f2","system_id":"levelo_inurba_marseille","lat":43.31367,"lon":5.38492,"is_reserved":false,"is_disabled":false,"rental_uris":{"android":"levelo://app?vid=f0ddd431-1d17-4159-bec8-4675a720a8f2","ios":"levelo://app?vid=f0ddd431-1d17-4159-bec8-4675a720a8f2"},"vehicle_type_id":"4","last_reported":1713459974,"current_range_meters":1600,"station_id":"ce4bgt92rcd13ifvqcf0","pricing_plan_id":"cebpf4jnsgd1na2vs0mg"},{"bike_id":"207bc309-3685-40ea-a0f3-18f09abfa5ce","system_id":"levelo_inurba_marseille","lat":43.31377,"lon":5.38495,"is_reserved":false,"is_disabled":false,"rental_uris":{"android":"levelo://app?vid=207bc309-3685-40ea-a0f3-18f09abfa5ce","ios":"levelo://app?vid=207bc309-3685-40ea-a0f3-18f09abfa5ce"},"vehicle_type_id":"4","last_reported":1713459974,"current_range_meters":16800,"station_id":"ce4bgt92rcd13ifvqcf0","pricing_plan_id":"cebpf4jnsgd1na2vs0mg"},{"bike_id":"bbe4c8b9-7c33-4fc2-b472-3e3778183456","system_id":"levelo_inurba_marseille","lat":43.299222,"lon":5.365554,"is_reserved":false,"is_disabled":false,"rental_uris":{"android":"levelo://app?vid=bbe4c8b9-7c33-4fc2-b472-3e3778183456","ios":"levelo://app?vid=bbe4c8b9-7c33-4fc2-b472-3e3778183456"},"vehicle_type_id":"4","last_reported":1713459974,"current_range_meters":8000,"station_id":"ce4bgm92rcd13ifvqbr0","pricing_plan_id":"cebpf4jnsgd1na2vs0mg"},{"bike_id":"afa9671a-bfa0-4f3e-b6c5-abf6debf879d","system_id":"levelo_inurba_marseille","lat":43.299222,"lon":5.365554,"is_reserved":false,"is_disabled":false,"rental_uris":{"android":"levelo://app?vid=afa9671a-bfa0-4f3e-b6c5-abf6debf879d","ios":"levelo://app?vid=afa9671a-bfa0-4f3e-b6c5-abf6debf879d"},"vehicle_type_id":"4","last_reported":1713459974,"current_range_meters":12000,"station_id":"ce4bgm92rcd13ifvqbr0","pricing_plan_id":"cebpf4jnsgd1na2vs0mg"},{"bike_id":"7241e6b7-fb0d-4d73-8c3d-f08cf8b95f48","system_id":"levelo_inurba_marseille","lat":43.299222,"lon":5.365554,"is_reserved":false,"is_disabled":false,"rental_uris":{"android":"levelo://app?vid=7241e6b7-fb0d-4d73-8c3d-f08cf8b95f48","ios":"levelo://app?vid=7241e6b7-fb0d-4d73-8c3d-f08cf8b95f48"},"vehicle_type_id":"4","last_reported":1713459974,"current_range_meters":23600,"station_id":"ce4bgm92rcd13ifvqbr0","pricing_plan_id":"cebpf4jnsgd1na2vs0mg"},{"bike_id":"79b1484c-7ca2-4a8d-b15b-2987062d3cb2","system_id":"levelo_inurba_marseille","lat":43.300198,"lon":5.376579,"is_reserved":false,"is_disabled":false,"rental_uris":{"android":"levelo://app?vid=79b1484c-7ca2-4a8d-b15b-2987062d3cb2","ios":"levelo://app?vid=79b1484c-7ca2-4a8d-b15b-2987062d3cb2"},"vehicle_type_id":"4","last_reported":1713459974,"current_range_meters":20000,"station_id":"","pricing_plan_id":"cebpf4jnsgd1na2vs0mg"},{"bike_id":"17d5b48b-b2bb-4683-bb8c-08bb8d7c7505","system_id":"levelo_inurba_marseille","lat":43.29856,"lon":5.36282,"is_reserved":false,"is_disabled":false,"rental_uris":{"android":"levelo://app?vid=17d5b48b-b2bb-4683-bb8c-08bb8d7c7505","ios":"levelo://app?vid=17d5b48b-b2bb-4683-bb8c-08bb8d7c7505"},"vehicle_type_id":"4","last_reported":1713459974,"current_range_meters":0,"station_id":"ce4bgpp2rcd13ifvqc3g","pricing_plan_id":"cebpf4jnsgd1na2vs0mg"},{"bike_id":"07ca4f98-d887-4f53-8e77-a1130fede290","system_id":"levelo_inurba_marseille","lat":43.298433,"lon":5.362774,"is_reserved":false,"is_disabled":false,"rental_uris":{"android":"levelo://app?vid=07ca4f98-d887-4f53-8e77-a1130fede290","ios":"levelo://app?vid=07ca4f98-d887-4f53-8e77-a1130fede290"},"vehicle_type_id":"4","last_reported":1713459974,"current_range_meters":31200,"station_id":"ce4bgpp2rcd13ifvqc3g","pricing_plan_id":"cebpf4jnsgd1na2vs0mg"},{"bike_id":"f07a1b5e-1167-4a4f-9d64-987142b04aec","system_id":"levelo_inurba_marseille","lat":43.298433,"lon":5.362774,"is_reserved":false,"is_disabled":false,"rental_uris":{"android":"levelo://app?vid=f07a1b5e-1167-4a4f-9d64-987142b04aec","ios":"levelo://app?vid=f07a1b5e-1167-4a4f-9d64-987142b04aec"},"vehicle_type_id":"4","last_reported":1713459974,"current_range_meters":27200,"station_id":"ce4bgpp2rcd13ifvqc3g","pricing_plan_id":"cebpf4jnsgd1na2vs0mg"},{"bike_id":"151eb08b-59a4-4b71-8964-77e02cc9b851","system_id":"levelo_inurba_marseille","lat":43.298433,"lon":5.362774,"is_reserved":false,"is_disabled":false,"rental_uris":{"android":"levelo://app?vid=151eb08b-59a4-4b71-8964-77e02cc9b851","ios":"levelo://app?vid=151eb08b-59a4-4b71-8964-77e02cc9b851"},"vehicle_type_id":"4","last_reported":1713459974,"current_range_meters":17200,"station_id":"ce4bgpp2rcd13ifvqc3g","pricing_plan_id":"cebpf4jnsgd1na2vs0mg"},{"bike_id":"ba69a1ca-016c-4a17-85fc-ef971e7dd9a4","system_id":"levelo_inurba_marseille","lat":43.298433,"lon":5.362774,"is_reserved":false,"is_disabled":false,"rental_uris":{"android":"levelo://app?vid=ba69a1ca-016c-4a17-85fc-ef971e7dd9a4","ios":"levelo://app?vid=ba69a1ca-016c-4a17-85fc-ef971e7dd9a4"},"vehicle_type_id":"4","last_reported":1713459974,"current_range_meters":31200,"station_id":"ce4bgpp2rcd13ifvqc3g","pricing_plan_id":"cebpf4jnsgd1na2vs0mg"},{"bike_id":"89f5b1fd-7d40-4d1d-9489-01d65ea4f582","system_id":"levelo_inurba_marseille","lat":43.298433,"lon":5.362774,"is_reserved":false,"is_disabled":false,"rental_uris":{"android":"levelo://app?vid=89f5b1fd-7d40-4d1d-9489-01d65ea4f582","ios":"levelo://app?vid=89f5b1fd-7d40-4d1d-9489-01d65ea4f582"},"vehicle_type_id":"4","last_reported":1713459974,"current_range_meters":28800,"station_id":"ce4bgpp2rcd13ifvqc3g","pricing_plan_id":"cebpf4jnsgd1na2vs0mg"},{"bike_id":"adf95ea1-edb6-41d0-b18f-d861e28b9853","system_id":"levelo_inurba_marseille","lat":43.298433,"lon":5.362774,"is_reserved":false,"is_disabled":false,"rental_uris":{"android":"levelo://app?vid=adf95ea1-edb6-41d0-b18f-d861e28b9853","ios":"levelo://app?vid=adf95ea1-edb6-41d0-b18f-d861e28b9853"},"vehicle_type_id":"4","last_reported":1713459974,"current_range_meters":800,"station_id":"ce4bgpp2rcd13ifvqc3g","pricing_plan_id":"cebpf4jnsgd1na2vs0mg"},{"bike_id":"03c79b3f-fc4b-4513-878b-810fb2ad1592","system_id":"levelo_inurba_marseille","lat":43.29842,"lon":5.36259,"is_reserved":false,"is_disabled":false,"rental_uris":{"android":"levelo://app?vid=03c79b3f-fc4b-4513-878b-810fb2ad1592","ios":"levelo://app?vid=03c79b3f-fc4b-4513-878b-810fb2ad1592"},"vehicle_type_id":"4","last_reported":1713459974,"current_range_meters":30800,"station_id":"ce4bgpp2rcd13ifvqc3g","pricing_plan_id":"cebpf4jnsgd1na2vs0mg"},{"bike_id":"6f7a157b-be30-4c90-82cd-2e2767acb879","system_id":"levelo_inurba_marseille","lat":43.31185,"lon":5.38707,"is_reserved":false,"is_disabled":false,"rental_uris":{"android":"levelo://app?vid=6f7a157b-be30-4c90-82cd-2e2767acb879","ios":"levelo://app?vid=6f7a157b-be30-4c90-82cd-2e2767acb879"},"vehicle_type_id":"4","last_reported":1713459974,"current_range_meters":0,"station_id":"ce4bgv12rcd13ifvqcp0","pricing_plan_id":"cebpf4jnsgd1na2vs0mg"},{"bike_id":"f8f4cac6-d521-4348-91ca-bba70738af46","system_id":"levelo_inurba_marseille","lat":43.297794,"lon":5.370888,"is_reserved":false,"is_disabled":false,"rental_uris":{"android":"levelo://app?vid=f8f4cac6-d521-4348-91ca-bba70738af46","ios":"levelo://app?vid=f8f4cac6-d521-4348-91ca-bba70738af46"},"vehicle_type_id":"4","last_reported":1713459974,"current_range_meters":14400,"station_id":"ce4bgop2rcd13ifvqc1g","pricing_plan_id":"cebpf4jnsgd1na2vs0mg"},{"bike_id":"d99e29d2-84b5-4bef-a4f5-602b1a953406","system_id":"levelo_inurba_marseille","lat":43.297794,"lon":5.370888,"is_reserved":false,"is_disabled":false,"rental_uris":{"android":"levelo://app?vid=d99e29d2-84b5-4bef-a4f5-602b1a953406","ios":"levelo://app?vid=d99e29d2-84b5-4bef-a4f5-602b1a953406"},"vehicle_type_id":"4","last_reported":1713459974,"current_range_meters":18000,"station_id":"ce4bgop2rcd13ifvqc1g","pricing_plan_id":"cebpf4jnsgd1na2vs0mg"},{"bike_id":"aa38acc2-91cb-407c-ac8c-05b08cc96e3e","system_id":"levelo_inurba_marseille","lat":43.32287,"lon":5.3827,"is_reserved":false,"is_disabled":false,"rental_uris":{"android":"levelo://app?vid=aa38acc2-91cb-407c-ac8c-05b08cc96e3e","ios":"levelo://app?vid=aa38acc2-91cb-407c-ac8c-05b08cc96e3e"},"vehicle_type_id":"4","last_reported":1713459974,"current_range_meters":26000,"station_id":"ce4bhr12rcd13ifvqhqg","pricing_plan_id":"cebpf4jnsgd1na2vs0mg"},{"bike_id":"6508018a-9d73-4e78-89d3-241c1f2e000f","system_id":"levelo_inurba_marseille","lat":43.322872,"lon":5.382756,"is_reserved":false,"is_disabled":false,"rental_uris":{"android":"levelo://app?vid=6508018a-9d73-4e78-89d3-241c1f2e000f","ios":"levelo://app?vid=6508018a-9d73-4e78-89d3-241c1f2e000f"},"vehicle_type_id":"4","last_reported":1713459974,"current_range_meters":15200,"station_id":"ce4bhr12rcd13ifvqhqg","pricing_plan_id":"cebpf4jnsgd1na2vs0mg"},{"bike_id":"1208d178-43b0-4388-b3b9-44ebaafe1af7","system_id":"levelo_inurba_marseille","lat":43.322872,"lon":5.382756,"is_reserved":false,"is_disabled":false,"rental_uris":{"android":"levelo://app?vid=1208d178-43b0-4388-b3b9-44ebaafe1af7","ios":"levelo://app?vid=1208d178-43b0-4388-b3b9-44ebaafe1af7"},"vehicle_type_id":"4","last_reported":1713459974,"current_range_meters":12400,"station_id":"ce4bhr12rcd13ifvqhqg","pricing_plan_id":"cebpf4jnsgd1na2vs0mg"},{"bike_id":"3a777aae-0d2a-4638-8c09-6f1de81534e0","system_id":"levelo_inurba_marseille","lat":43.322872,"lon":5.382756,"is_reserved":false,"is_disabled":false,"rental_uris":{"android":"levelo://app?vid=3a777aae-0d2a-4638-8c09-6f1de81534e0","ios":"levelo://app?vid=3a777aae-0d2a-4638-8c09-6f1de81534e0"},"vehicle_type_id":"4","last_reported":1713459974,"current_range_meters":28000,"station_id":"ce4bhr12rcd13ifvqhqg","pricing_plan_id":"cebpf4jnsgd1na2vs0mg"},{"bike_id":"586ef84e-77ec-450c-b293-231ee6e8849b","system_id":"levelo_inurba_marseille","lat":43.2971,"lon":5.3661,"is_reserved":false,"is_disabled":false,"rental_uris":{"android":"levelo://app?vid=586ef84e-77ec-450c-b293-231ee6e8849b","ios":"levelo://app?vid=586ef84e-77ec-450c-b293-231ee6e8849b"},"vehicle_type_id":"4","last_reported":1713459974,"current_range_meters":1600,"station_id":"ce4bgn12rcd13ifvqbt0","pricing_plan_id":"cebpf4jnsgd1na2vs0mg"},{"bike_id":"67212426-a995-4cf2-af18-7cc02571b3b8","system_id":"levelo_inurba_marseille","lat":43.2971,"lon":5.36605,"is_reserved":false,"is_disabled":false,"rental_uris":{"android":"levelo://app?vid=67212426-a995-4cf2-af18-7cc02571b3b8","ios":"levelo://app?vid=67212426-a995-4cf2-af18-7cc02571b3b8"},"vehicle_type_id":"4","last_reported":1713459974,"current_range_meters":7600,"station_id":"ce4bgn12rcd13ifvqbt0","pricing_plan_id":"cebpf4jnsgd1na2vs0mg"},{"bike_id":"e74a1d82-3832-4a68-b6ab-56382d9132df","system_id":"levelo_inurba_marseille","lat":43.297163,"lon":5.365866,"is_reserved":false,"is_disabled":false,"rental_uris":{"android":"levelo://app?vid=e74a1d82-3832-4a68-b6ab-56382d9132df","ios":"levelo://app?vid=e74a1d82-3832-4a68-b6ab-56382d9132df"},"vehicle_type_id":"4","last_reported":1713459974,"current_range_meters":22400,"station_id":"ce4bgn12rcd13ifvqbt0","pricing_plan_id":"cebpf4jnsgd1na2vs0mg"},{"bike_id":"b63a75d0-cad3-487b-abbb-ce0d4fdeab20","system_id":"levelo_inurba_marseille","lat":43.297163,"lon":5.365866,"is_reserved":false,"is_disabled":false,"rental_uris":{"android":"levelo://app?vid=b63a75d0-cad3-487b-abbb-ce0d4fdeab20","ios":"levelo://app?vid=b63a75d0-cad3-487b-abbb-ce0d4fdeab20"},"vehicle_type_id":"4","last_reported":1713459974,"current_range_meters":14000,"station_id":"ce4bgn12rcd13ifvqbt0","pricing_plan_id":"cebpf4jnsgd1na2vs0mg"},{"bike_id":"e6ea318e-72f7-45bc-b89f-b6ab1face28a","system_id":"levelo_inurba_marseille","lat":43.2968,"lon":5.37291,"is_reserved":false,"is_disabled":false,"rental_uris":{"android":"levelo://app?vid=e6ea318e-72f7-45bc-b89f-b6ab1face28a","ios":"levelo://app?vid=e6ea318e-72f7-45bc-b89f-b6ab1face28a"},"vehicle_type_id":"4","last_reported":1713459974,"current_range_meters":4800,"station_id":"ce4bgk12rcd13ifvqbj0","pricing_plan_id":"cebpf4jnsgd1na2vs0mg"},{"bike_id":"6a910fde-d1eb-40b5-adc2-57269278e1ad","system_id":"levelo_inurba_marseille","lat":43.292311,"lon":5.360731,"is_reserved":false,"is_disabled":false,"rental_uris":{"android":"levelo://app?vid=6a910fde-d1eb-40b5-adc2-57269278e1ad","ios":"levelo://app?vid=6a910fde-d1eb-40b5-adc2-57269278e1ad"},"vehicle_type_id":"4","last_reported":1713459974,"current_range_meters":14800,"station_id":"ce4bhbh2rcd13ifvqeqg","pricing_plan_id":"cebpf4jnsgd1na2vs0mg"},{"bike_id":"9d5ee2f8-c872-4c4a-aa47-d6853b9a73fb","system_id":"levelo_inurba_marseille","lat":43.296131,"lon":5.370773,"is_reserved":false,"is_disabled":false,"rental_uris":{"android":"levelo://app?vid=9d5ee2f8-c872-4c4a-aa47-d6853b9a73fb","ios":"levelo://app?vid=9d5ee2f8-c872-4c4a-aa47-d6853b9a73fb"},"vehicle_type_id":"4","last_reported":1713459974,"current_range_meters":29600,"station_id":"ce4bgnh2rcd13ifvqc0g","pricing_plan_id":"cebpf4jnsgd1na2vs0mg"},{"bike_id":"183a319a-4021-47d1-8434-39e378b00dfe","system_id":"levelo_inurba_marseille","lat":43.296129,"lon":5.370777,"is_reserved":false,"is_disabled":false,"rental_uris":{"android":"levelo://app?vid=183a319a-4021-47d1-8434-39e378b00dfe","ios":"levelo://app?vid=183a319a-4021-47d1-8434-39e378b00dfe"},"vehicle_type_id":"4","last_reported":1713459974,"current_range_meters":14000,"station_id":"ce4bgnh2rcd13ifvqc0g","pricing_plan_id":"cebpf4jnsgd1na2vs0mg"},{"bike_id":"fe35f42d-ff27-400a-95a4-aed4cade2dd0","system_id":"levelo_inurba_marseille","lat":43.29573,"lon":5.367355,"is_reserved":false,"is_disabled":false,"rental_uris":{"android":"levelo://app?vid=fe35f42d-ff27-400a-95a4-aed4cade2dd0","ios":"levelo://app?vid=fe35f42d-ff27-400a-95a4-aed4cade2dd0"},"vehicle_type_id":"4","last_reported":1713459974,"current_range_meters":25200,"station_id":"ce4bgph2rcd13ifvqc2g","pricing_plan_id":"cebpf4jnsgd1na2vs0mg"},{"bike_id":"e6818c46-a26f-45bc-99da-9211c697f366","system_id":"levelo_inurba_marseille","lat":43.29714,"lon":5.37688,"is_reserved":false,"is_disabled":false,"rental_uris":{"android":"levelo://app?vid=e6818c46-a26f-45bc-99da-9211c697f366","ios":"levelo://app?vid=e6818c46-a26f-45bc-99da-9211c697f366"},"vehicle_type_id":"4","last_reported":1713459974,"current_range_meters":800,"station_id":"ce4bgkh2rcd13ifvqbl0","pricing_plan_id":"cebpf4jnsgd1na2vs0mg"},{"bike_id":"a090ec58-2eda-4ff9-b2d5-3cc49147d165","system_id":"levelo_inurba_marseille","lat":43.298869,"lon":5.380995,"is_reserved":false,"is_disabled":false,"rental_uris":{"android":"levelo://app?vid=a090ec58-2eda-4ff9-b2d5-3cc49147d165","ios":"levelo://app?vid=a090ec58-2eda-4ff9-b2d5-3cc49147d165"},"vehicle_type_id":"4","last_reported":1713459974,"current_range_meters":16400,"station_id":"ce4bgj12rcd13ifvqbc0","pricing_plan_id":"cebpf4jnsgd1na2vs0mg"},{"bike_id":"820c3ad1-0a6c-40c5-b25a-d2af2250b55d","system_id":"levelo_inurba_marseille","lat":43.296935,"lon":5.376544,"is_reserved":false,"is_disabled":false,"rental_uris":{"android":"levelo://app?vid=820c3ad1-0a6c-40c5-b25a-d2af2250b55d","ios":"levelo://app?vid=820c3ad1-0a6c-40c5-b25a-d2af2250b55d"},"vehicle_type_id":"4","last_reported":1713459974,"current_range_meters":2000,"station_id":"ce4bgkh2rcd13ifvqbl0","pricing_plan_id":"cebpf4jnsgd1na2vs0mg"},{"bike_id":"9ec199bf-860a-44a8-8db4-6b933cdfea29","system_id":"levelo_inurba_marseille","lat":43.299028,"lon":5.381509,"is_reserved":false,"is_disabled":false,"rental_uris":{"android":"levelo://app?vid=9ec199bf-860a-44a8-8db4-6b933cdfea29","ios":"levelo://app?vid=9ec199bf-860a-44a8-8db4-6b933cdfea29"},"vehicle_type_id":"4","last_reported":1713459974,"current_range_meters":30000,"station_id":"ce4bgj12rcd13ifvqbc0","pricing_plan_id":"cebpf4jnsgd1na2vs0mg"},{"bike_id":"5d7caf0b-84c4-4582-a11f-604b62a3cb3e","system_id":"levelo_inurba_marseille","lat":43.299028,"lon":5.381509,"is_reserved":false,"is_disabled":false,"rental_uris":{"android":"levelo://app?vid=5d7caf0b-84c4-4582-a11f-604b62a3cb3e","ios":"levelo://app?vid=5d7caf0b-84c4-4582-a11f-604b62a3cb3e"},"vehicle_type_id":"4","last_reported":1713459974,"current_range_meters":0,"station_id":"ce4bgj12rcd13ifvqbc0","pricing_plan_id":"cebpf4jnsgd1na2vs0mg"},{"bike_id":"89466847-98ac-4389-a76f-77515e9ec65a","system_id":"levelo_inurba_marseille","lat":43.296935,"lon":5.376544,"is_reserved":false,"is_disabled":false,"rental_uris":{"android":"levelo://app?vid=89466847-98ac-4389-a76f-77515e9ec65a","ios":"levelo://app?vid=89466847-98ac-4389-a76f-77515e9ec65a"},"vehicle_type_id":"4","last_reported":1713459974,"current_range_meters":13600,"station_id":"ce4bgkh2rcd13ifvqbl0","pricing_plan_id":"cebpf4jnsgd1na2vs0mg"},{"bike_id":"aaa93f59-5c6d-4ee0-b99c-0d931c0c236b","system_id":"levelo_inurba_marseille","lat":43.29702,"lon":5.37693,"is_reserved":false,"is_disabled":false,"rental_uris":{"android":"levelo://app?vid=aaa93f59-5c6d-4ee0-b99c-0d931c0c236b","ios":"levelo://app?vid=aaa93f59-5c6d-4ee0-b99c-0d931c0c236b"},"vehicle_type_id":"4","last_reported":1713459974,"current_range_meters":0,"station_id":"ce4bgkh2rcd13ifvqbl0","pricing_plan_id":"cebpf4jnsgd1na2vs0mg"},{"bike_id":"50e192eb-8d14-4112-904b-8bfad8c453a7","system_id":"levelo_inurba_marseille","lat":43.3095,"lon":5.39033,"is_reserved":false,"is_disabled":false,"rental_uris":{"android":"levelo://app?vid=50e192eb-8d14-4112-904b-8bfad8c453a7","ios":"levelo://app?vid=50e192eb-8d14-4112-904b-8bfad8c453a7"},"vehicle_type_id":"4","last_reported":1713459974,"current_range_meters":400,"station_id":"","pricing_plan_id":"cebpf4jnsgd1na2vs0mg"},{"bike_id":"4aafa487-d854-4542-b307-d5a2406371b6","system_id":"levelo_inurba_marseille","lat":43.309589,"lon":5.390258,"is_reserved":false,"is_disabled":false,"rental_uris":{"android":"levelo://app?vid=4aafa487-d854-4542-b307-d5a2406371b6","ios":"levelo://app?vid=4aafa487-d854-4542-b307-d5a2406371b6"},"vehicle_type_id":"4","last_reported":1713459974,"current_range_meters":16000,"station_id":"ce4bgup2rcd13ifvqco0","pricing_plan_id":"cebpf4jnsgd1na2vs0mg"},{"bike_id":"8d1bda4e-e766-47b5-947c-c38e9914228f","system_id":"levelo_inurba_marseille","lat":43.309589,"lon":5.390258,"is_reserved":false,"is_disabled":false,"rental_uris":{"android":"levelo://app?vid=8d1bda4e-e766-47b5-947c-c38e9914228f","ios":"levelo://app?vid=8d1bda4e-e766-47b5-947c-c38e9914228f"},"vehicle_type_id":"4","last_reported":1713459974,"current_range_meters":7200,"station_id":"ce4bgup2rcd13ifvqco0","pricing_plan_id":"cebpf4jnsgd1na2vs0mg"},{"bike_id":"de7353cf-ef18-4032-99ab-d101f5c16730","system_id":"levelo_inurba_marseille","lat":43.31759,"lon":5.38998,"is_reserved":false,"is_disabled":false,"rental_uris":{"android":"levelo://app?vid=de7353cf-ef18-4032-99ab-d101f5c16730","ios":"levelo://app?vid=de7353cf-ef18-4032-99ab-d101f5c16730"},"vehicle_type_id":"4","last_reported":1713459974,"current_range_meters":25600,"station_id":"ce4bhqp2rcd13ifvqhng","pricing_plan_id":"cebpf4jnsgd1na2vs0mg"},{"bike_id":"2e0b5580-d80b-493c-ac08-60192211a055","system_id":"levelo_inurba_marseille","lat":43.317557,"lon":5.390173,"is_reserved":false,"is_disabled":false,"rental_uris":{"android":"levelo://app?vid=2e0b5580-d80b-493c-ac08-60192211a055","ios":"levelo://app?vid=2e0b5580-d80b-493c-ac08-60192211a055"},"vehicle_type_id":"4","last_reported":1713459974,"current_range_meters":26400,"station_id":"ce4bhqp2rcd13ifvqhng","pricing_plan_id":"cebpf4jnsgd1na2vs0mg"},{"bike_id":"5af6b9aa-6111-42ae-b475-42075397e0aa","system_id":"levelo_inurba_marseille","lat":43.31757,"lon":5.39014,"is_reserved":false,"is_disabled":false,"rental_uris":{"android":"levelo://app?vid=5af6b9aa-6111-42ae-b475-42075397e0aa","ios":"levelo://app?vid=5af6b9aa-6111-42ae-b475-42075397e0aa"},"vehicle_type_id":"4","last_reported":1713459974,"current_range_meters":2400,"station_id":"ce4bhqp2rcd13ifvqhng","pricing_plan_id":"cebpf4jnsgd1na2vs0mg"},{"bike_id":"ffb2ec80-b00c-4aa8-9175-31f4df436023","system_id":"levelo_inurba_marseille","lat":43.317557,"lon":5.390173,"is_reserved":false,"is_disabled":false,"rental_uris":{"android":"levelo://app?vid=ffb2ec80-b00c-4aa8-9175-31f4df436023","ios":"levelo://app?vid=ffb2ec80-b00c-4aa8-9175-31f4df436023"},"vehicle_type_id":"4","last_reported":1713459974,"current_range_meters":31600,"station_id":"ce4bhqp2rcd13ifvqhng","pricing_plan_id":"cebpf4jnsgd1na2vs0mg"},{"bike_id":"1f2e51d8-c58c-4937-9cd8-f3cb5a8f76fa","system_id":"levelo_inurba_marseille","lat":43.317557,"lon":5.390173,"is_reserved":false,"is_disabled":false,"rental_uris":{"android":"levelo://app?vid=1f2e51d8-c58c-4937-9cd8-f3cb5a8f76fa","ios":"levelo://app?vid=1f2e51d8-c58c-4937-9cd8-f3cb5a8f76fa"},"vehicle_type_id":"4","last_reported":1713459974,"current_range_meters":4800,"station_id":"ce4bhqp2rcd13ifvqhng","pricing_plan_id":"cebpf4jnsgd1na2vs0mg"},{"bike_id":"85c81708-42b0-4169-8ac7-ebfe586be964","system_id":"levelo_inurba_marseille","lat":43.317557,"lon":5.390173,"is_reserved":false,"is_disabled":false,"rental_uris":{"android":"levelo://app?vid=85c81708-42b0-4169-8ac7-ebfe586be964","ios":"levelo://app?vid=85c81708-42b0-4169-8ac7-ebfe586be964"},"vehicle_type_id":"4","last_reported":1713459974,"current_range_meters":21200,"station_id":"ce4bhqp2rcd13ifvqhng","pricing_plan_id":"cebpf4jnsgd1na2vs0mg"},{"bike_id":"acb7230b-4070-4e93-acec-290f09ceaf9f","system_id":"levelo_inurba_marseille","lat":43.317075,"lon":5.377367,"is_reserved":false,"is_disabled":false,"rental_uris":{"android":"levelo://app?vid=acb7230b-4070-4e93-acec-290f09ceaf9f","ios":"levelo://app?vid=acb7230b-4070-4e93-acec-290f09ceaf9f"},"vehicle_type_id":"4","last_reported":1713459974,"current_range_meters":8000,"station_id":"ce4bgth2rcd13ifvqch0","pricing_plan_id":"cebpf4jnsgd1na2vs0mg"},{"bike_id":"8966c4c4-a34e-46d9-ba66-ba1a3b3c03ea","system_id":"levelo_inurba_marseille","lat":43.298004,"lon":5.380912,"is_reserved":false,"is_disabled":false,"rental_uris":{"android":"levelo://app?vid=8966c4c4-a34e-46d9-ba66-ba1a3b3c03ea","ios":"levelo://app?vid=8966c4c4-a34e-46d9-ba66-ba1a3b3c03ea"},"vehicle_type_id":"4","last_reported":1713459974,"current_range_meters":400,"station_id":"ce4bgip2rcd13ifvqbb0","pricing_plan_id":"cebpf4jnsgd1na2vs0mg"},{"bike_id":"c01fa423-82ab-4020-862d-615e3ec9a3c7","system_id":"levelo_inurba_marseille","lat":43.298037,"lon":5.381066,"is_reserved":false,"is_disabled":false,"rental_uris":{"android":"levelo://app?vid=c01fa423-82ab-4020-862d-615e3ec9a3c7","ios":"levelo://app?vid=c01fa423-82ab-4020-862d-615e3ec9a3c7"},"vehicle_type_id":"4","last_reported":1713459974,"current_range_meters":16400,"station_id":"ce4bgip2rcd13ifvqbb0","pricing_plan_id":"cebpf4jnsgd1na2vs0mg"},{"bike_id":"6fadd446-16c2-4fcc-bbac-47e43c9e6682","system_id":"levelo_inurba_marseille","lat":43.298037,"lon":5.381066,"is_reserved":false,"is_disabled":false,"rental_uris":{"android":"levelo://app?vid=6fadd446-16c2-4fcc-bbac-47e43c9e6682","ios":"levelo://app?vid=6fadd446-16c2-4fcc-bbac-47e43c9e6682"},"vehicle_type_id":"4","last_reported":1713459974,"current_range_meters":18000,"station_id":"ce4bgip2rcd13ifvqbb0","pricing_plan_id":"cebpf4jnsgd1na2vs0mg"},{"bike_id":"89ab6b59-0634-4315-b3cb-39fccb865ad2","system_id":"levelo_inurba_marseille","lat":43.304274,"lon":5.388873,"is_reserved":false,"is_disabled":false,"rental_uris":{"android":"levelo://app?vid=89ab6b59-0634-4315-b3cb-39fccb865ad2","ios":"levelo://app?vid=89ab6b59-0634-4315-b3cb-39fccb865ad2"},"vehicle_type_id":"4","last_reported":1713459974,"current_range_meters":1200,"station_id":"ce4bgk12rcd13ifvqbi0","pricing_plan_id":"cebpf4jnsgd1na2vs0mg"},{"bike_id":"f9ab4590-2fc2-4289-a8d0-da14688ebeda","system_id":"levelo_inurba_marseille","lat":43.295748,"lon":5.37522,"is_reserved":false,"is_disabled":false,"rental_uris":{"android":"levelo://app?vid=f9ab4590-2fc2-4289-a8d0-da14688ebeda","ios":"levelo://app?vid=f9ab4590-2fc2-4289-a8d0-da14688ebeda"},"vehicle_type_id":"4","last_reported":1713459974,"current_range_meters":16000,"station_id":"ce4bgh92rcd13ifvqb50","pricing_plan_id":"cebpf4jnsgd1na2vs0mg"},{"bike_id":"6f611bed-2d7b-4030-9c8e-efa4f5eb9069","system_id":"levelo_inurba_marseille","lat":43.296263,"lon":5.377094,"is_reserved":false,"is_disabled":false,"rental_uris":{"android":"levelo://app?vid=6f611bed-2d7b-4030-9c8e-efa4f5eb9069","ios":"levelo://app?vid=6f611bed-2d7b-4030-9c8e-efa4f5eb9069"},"vehicle_type_id":"4","last_reported":1713459974,"current_range_meters":26800,"station_id":"ce4bgi92rcd13ifvqb90","pricing_plan_id":"cebpf4jnsgd1na2vs0mg"},{"bike_id":"0f51b74f-459e-4803-a43a-fd00b8c1120d","system_id":"levelo_inurba_marseille","lat":43.295279,"lon":5.375048,"is_reserved":false,"is_disabled":false,"rental_uris":{"android":"levelo://app?vid=0f51b74f-459e-4803-a43a-fd00b8c1120d","ios":"levelo://app?vid=0f51b74f-459e-4803-a43a-fd00b8c1120d"},"vehicle_type_id":"4","last_reported":1713459974,"current_range_meters":10000,"station_id":"ce4bgkp2rcd13ifvqbmg","pricing_plan_id":"cebpf4jnsgd1na2vs0mg"},{"bike_id":"27815258-fcc9-4619-9b0f-cb350137c71e","system_id":"levelo_inurba_marseille","lat":43.299707,"lon":5.384859,"is_reserved":false,"is_disabled":false,"rental_uris":{"android":"levelo://app?vid=27815258-fcc9-4619-9b0f-cb350137c71e","ios":"levelo://app?vid=27815258-fcc9-4619-9b0f-cb350137c71e"},"vehicle_type_id":"4","last_reported":1713459974,"current_range_meters":400,"station_id":"ce4bgj92rcd13ifvqbd0","pricing_plan_id":"cebpf4jnsgd1na2vs0mg"},{"bike_id":"b6a38318-c404-4734-b963-f8e5329c71c7","system_id":"levelo_inurba_marseille","lat":43.299707,"lon":5.384859,"is_reserved":false,"is_disabled":false,"rental_uris":{"android":"levelo://app?vid=b6a38318-c404-4734-b963-f8e5329c71c7","ios":"levelo://app?vid=b6a38318-c404-4734-b963-f8e5329c71c7"},"vehicle_type_id":"4","last_reported":1713459974,"current_range_meters":9600,"station_id":"ce4bgj92rcd13ifvqbd0","pricing_plan_id":"cebpf4jnsgd1na2vs0mg"},{"bike_id":"28277a9c-ca58-4a74-9649-c3c3cbcbf9ee","system_id":"levelo_inurba_marseille","lat":43.295279,"lon":5.375048,"is_reserved":false,"is_disabled":false,"rental_uris":{"android":"levelo://app?vid=28277a9c-ca58-4a74-9649-c3c3cbcbf9ee","ios":"levelo://app?vid=28277a9c-ca58-4a74-9649-c3c3cbcbf9ee"},"vehicle_type_id":"4","last_reported":1713459974,"current_range_meters":4400,"station_id":"ce4bgkp2rcd13ifvqbmg","pricing_plan_id":"cebpf4jnsgd1na2vs0mg"},{"bike_id":"144aec96-7630-4f24-8813-e93c7284fac3","system_id":"levelo_inurba_marseille","lat":43.299724,"lon":5.384848,"is_reserved":false,"is_disabled":false,"rental_uris":{"android":"levelo://app?vid=144aec96-7630-4f24-8813-e93c7284fac3","ios":"levelo://app?vid=144aec96-7630-4f24-8813-e93c7284fac3"},"vehicle_type_id":"4","last_reported":1713459974,"current_range_meters":16400,"station_id":"ce4bgj92rcd13ifvqbd0","pricing_plan_id":"cebpf4jnsgd1na2vs0mg"},{"bike_id":"f912ccf0-ff83-4849-b28a-b486ba7266e3","system_id":"levelo_inurba_marseille","lat":43.299724,"lon":5.384848,"is_reserved":false,"is_disabled":false,"rental_uris":{"android":"levelo://app?vid=f912ccf0-ff83-4849-b28a-b486ba7266e3","ios":"levelo://app?vid=f912ccf0-ff83-4849-b28a-b486ba7266e3"},"vehicle_type_id":"4","last_reported":1713459974,"current_range_meters":12000,"station_id":"ce4bgj92rcd13ifvqbd0","pricing_plan_id":"cebpf4jnsgd1na2vs0mg"},{"bike_id":"782002cb-5def-4e2a-9c41-655a79d3a3ce","system_id":"levelo_inurba_marseille","lat":43.299724,"lon":5.384848,"is_reserved":false,"is_disabled":false,"rental_uris":{"android":"levelo://app?vid=782002cb-5def-4e2a-9c41-655a79d3a3ce","ios":"levelo://app?vid=782002cb-5def-4e2a-9c41-655a79d3a3ce"},"vehicle_type_id":"4","last_reported":1713459974,"current_range_meters":6400,"station_id":"ce4bgj92rcd13ifvqbd0","pricing_plan_id":"cebpf4jnsgd1na2vs0mg"},{"bike_id":"4dae3386-0a20-4609-803d-bb2269685de2","system_id":"levelo_inurba_marseille","lat":43.295279,"lon":5.375048,"is_reserved":false,"is_disabled":false,"rental_uris":{"android":"levelo://app?vid=4dae3386-0a20-4609-803d-bb2269685de2","ios":"levelo://app?vid=4dae3386-0a20-4609-803d-bb2269685de2"},"vehicle_type_id":"4","last_reported":1713459974,"current_range_meters":24000,"station_id":"ce4bgkp2rcd13ifvqbmg","pricing_plan_id":"cebpf4jnsgd1na2vs0mg"},{"bike_id":"90d0a06b-a19d-4e16-a4fb-5f0796a39506","system_id":"levelo_inurba_marseille","lat":43.309371,"lon":5.401449,"is_reserved":false,"is_disabled":false,"rental_uris":{"android":"levelo://app?vid=90d0a06b-a19d-4e16-a4fb-5f0796a39506","ios":"levelo://app?vid=90d0a06b-a19d-4e16-a4fb-5f0796a39506"},"vehicle_type_id":"4","last_reported":1713459974,"current_range_meters":0,"station_id":"ce4bgvp2rcd13ifvqct0","pricing_plan_id":"cebpf4jnsgd1na2vs0mg"},{"bike_id":"144fef58-d10f-45bb-aa6f-e051c1c7686f","system_id":"levelo_inurba_marseille","lat":43.323605,"lon":5.388774,"is_reserved":false,"is_disabled":false,"rental_uris":{"android":"levelo://app?vid=144fef58-d10f-45bb-aa6f-e051c1c7686f","ios":"levelo://app?vid=144fef58-d10f-45bb-aa6f-e051c1c7686f"},"vehicle_type_id":"4","last_reported":1713459974,"current_range_meters":20800,"station_id":"ce4bhqp2rcd13ifvqhog","pricing_plan_id":"cebpf4jnsgd1na2vs0mg"},{"bike_id":"0a1db4f6-8f65-4e89-abc0-7e2a1d6bc918","system_id":"levelo_inurba_marseille","lat":43.32368,"lon":5.38876,"is_reserved":false,"is_disabled":false,"rental_uris":{"android":"levelo://app?vid=0a1db4f6-8f65-4e89-abc0-7e2a1d6bc918","ios":"levelo://app?vid=0a1db4f6-8f65-4e89-abc0-7e2a1d6bc918"},"vehicle_type_id":"4","last_reported":1713459974,"current_range_meters":18400,"station_id":"ce4bhqp2rcd13ifvqhog","pricing_plan_id":"cebpf4jnsgd1na2vs0mg"},{"bike_id":"62664093-5621-4a64-8035-912e8aa6d650","system_id":"levelo_inurba_marseille","lat":43.32366,"lon":5.38878,"is_reserved":false,"is_disabled":false,"rental_uris":{"android":"levelo://app?vid=62664093-5621-4a64-8035-912e8aa6d650","ios":"levelo://app?vid=62664093-5621-4a64-8035-912e8aa6d650"},"vehicle_type_id":"4","last_reported":1713459974,"current_range_meters":16400,"station_id":"ce4bhqp2rcd13ifvqhog","pricing_plan_id":"cebpf4jnsgd1na2vs0mg"},{"bike_id":"d5e2c2be-0e81-4de5-a72b-de510e6c7980","system_id":"levelo_inurba_marseille","lat":43.32364,"lon":5.38883,"is_reserved":false,"is_disabled":false,"rental_uris":{"android":"levelo://app?vid=d5e2c2be-0e81-4de5-a72b-de510e6c7980","ios":"levelo://app?vid=d5e2c2be-0e81-4de5-a72b-de510e6c7980"},"vehicle_type_id":"4","last_reported":1713459974,"current_range_meters":14800,"station_id":"ce4bhqp2rcd13ifvqhog","pricing_plan_id":"cebpf4jnsgd1na2vs0mg"},{"bike_id":"ababb836-a1ff-4815-bf17-4cd8d3a35d8b","system_id":"levelo_inurba_marseille","lat":43.32364,"lon":5.38883,"is_reserved":false,"is_disabled":false,"rental_uris":{"android":"levelo://app?vid=ababb836-a1ff-4815-bf17-4cd8d3a35d8b","ios":"levelo://app?vid=ababb836-a1ff-4815-bf17-4cd8d3a35d8b"},"vehicle_type_id":"4","last_reported":1713459974,"current_range_meters":3200,"station_id":"ce4bhqp2rcd13ifvqhog","pricing_plan_id":"cebpf4jnsgd1na2vs0mg"},{"bike_id":"ec3b84dd-a863-4f78-aeb0-dee9498f4259","system_id":"levelo_inurba_marseille","lat":43.32367,"lon":5.388836,"is_reserved":false,"is_disabled":false,"rental_uris":{"android":"levelo://app?vid=ec3b84dd-a863-4f78-aeb0-dee9498f4259","ios":"levelo://app?vid=ec3b84dd-a863-4f78-aeb0-dee9498f4259"},"vehicle_type_id":"4","last_reported":1713459974,"current_range_meters":21200,"station_id":"ce4bhqp2rcd13ifvqhog","pricing_plan_id":"cebpf4jnsgd1na2vs0mg"},{"bike_id":"d97efb0a-8b7a-4a13-8d65-3a82f11b15bd","system_id":"levelo_inurba_marseille","lat":43.32366,"lon":5.38884,"is_reserved":false,"is_disabled":false,"rental_uris":{"android":"levelo://app?vid=d97efb0a-8b7a-4a13-8d65-3a82f11b15bd","ios":"levelo://app?vid=d97efb0a-8b7a-4a13-8d65-3a82f11b15bd"},"vehicle_type_id":"4","last_reported":1713459974,"current_range_meters":0,"station_id":"ce4bhqp2rcd13ifvqhog","pricing_plan_id":"cebpf4jnsgd1na2vs0mg"},{"bike_id":"a1f96ab2-155f-4570-a523-c6a5e9cdceea","system_id":"levelo_inurba_marseille","lat":43.32368,"lon":5.38883,"is_reserved":false,"is_disabled":false,"rental_uris":{"android":"levelo://app?vid=a1f96ab2-155f-4570-a523-c6a5e9cdceea","ios":"levelo://app?vid=a1f96ab2-155f-4570-a523-c6a5e9cdceea"},"vehicle_type_id":"4","last_reported":1713459974,"current_range_meters":31200,"station_id":"ce4bhqp2rcd13ifvqhog","pricing_plan_id":"cebpf4jnsgd1na2vs0mg"},{"bike_id":"2955d361-97c2-437c-b944-77bd6392813f","system_id":"levelo_inurba_marseille","lat":43.323671,"lon":5.388844,"is_reserved":false,"is_disabled":false,"rental_uris":{"android":"levelo://app?vid=2955d361-97c2-437c-b944-77bd6392813f","ios":"levelo://app?vid=2955d361-97c2-437c-b944-77bd6392813f"},"vehicle_type_id":"4","last_reported":1713459974,"current_range_meters":20800,"station_id":"ce4bhqp2rcd13ifvqhog","pricing_plan_id":"cebpf4jnsgd1na2vs0mg"},{"bike_id":"87f904c2-1b92-4028-b97c-fbb23b9de731","system_id":"levelo_inurba_marseille","lat":43.32371,"lon":5.38882,"is_reserved":false,"is_disabled":false,"rental_uris":{"android":"levelo://app?vid=87f904c2-1b92-4028-b97c-fbb23b9de731","ios":"levelo://app?vid=87f904c2-1b92-4028-b97c-fbb23b9de731"},"vehicle_type_id":"4","last_reported":1713459974,"current_range_meters":21600,"station_id":"ce4bhqp2rcd13ifvqhog","pricing_plan_id":"cebpf4jnsgd1na2vs0mg"},{"bike_id":"a756a2af-ef40-40b9-9a04-414cadbe392e","system_id":"levelo_inurba_marseille","lat":43.32368,"lon":5.38885,"is_reserved":false,"is_disabled":false,"rental_uris":{"android":"levelo://app?vid=a756a2af-ef40-40b9-9a04-414cadbe392e","ios":"levelo://app?vid=a756a2af-ef40-40b9-9a04-414cadbe392e"},"vehicle_type_id":"4","last_reported":1713459974,"current_range_meters":28000,"station_id":"ce4bhqp2rcd13ifvqhog","pricing_plan_id":"cebpf4jnsgd1na2vs0mg"},{"bike_id":"e12e816d-876d-4b5c-8978-1c8160de6ac5","system_id":"levelo_inurba_marseille","lat":43.32367,"lon":5.38886,"is_reserved":false,"is_disabled":false,"rental_uris":{"android":"levelo://app?vid=e12e816d-876d-4b5c-8978-1c8160de6ac5","ios":"levelo://app?vid=e12e816d-876d-4b5c-8978-1c8160de6ac5"},"vehicle_type_id":"4","last_reported":1713459974,"current_range_meters":26400,"station_id":"ce4bhqp2rcd13ifvqhog","pricing_plan_id":"cebpf4jnsgd1na2vs0mg"},{"bike_id":"18932b7c-40de-4059-87ad-d2ba24c06a76","system_id":"levelo_inurba_marseille","lat":43.32366,"lon":5.38889,"is_reserved":false,"is_disabled":false,"rental_uris":{"android":"levelo://app?vid=18932b7c-40de-4059-87ad-d2ba24c06a76","ios":"levelo://app?vid=18932b7c-40de-4059-87ad-d2ba24c06a76"},"vehicle_type_id":"4","last_reported":1713459974,"current_range_meters":12400,"station_id":"ce4bhqp2rcd13ifvqhog","pricing_plan_id":"cebpf4jnsgd1na2vs0mg"},{"bike_id":"0453ada7-02b3-4083-b15b-b757527ff5f8","system_id":"levelo_inurba_marseille","lat":43.32385,"lon":5.38924,"is_reserved":false,"is_disabled":false,"rental_uris":{"android":"levelo://app?vid=0453ada7-02b3-4083-b15b-b757527ff5f8","ios":"levelo://app?vid=0453ada7-02b3-4083-b15b-b757527ff5f8"},"vehicle_type_id":"4","last_reported":1713459974,"current_range_meters":14800,"station_id":"ce4bhqp2rcd13ifvqhog","pricing_plan_id":"cebpf4jnsgd1na2vs0mg"},{"bike_id":"5f700ff8-ea94-4a24-a459-84c85d859c02","system_id":"levelo_inurba_marseille","lat":43.293259,"lon":5.371586,"is_reserved":false,"is_disabled":false,"rental_uris":{"android":"levelo://app?vid=5f700ff8-ea94-4a24-a459-84c85d859c02","ios":"levelo://app?vid=5f700ff8-ea94-4a24-a459-84c85d859c02"},"vehicle_type_id":"4","last_reported":1713459974,"current_range_meters":4800,"station_id":"ce4bgh92rcd13ifvqb40","pricing_plan_id":"cebpf4jnsgd1na2vs0mg"},{"bike_id":"11eab108-4efa-4bce-940c-352c32da95a0","system_id":"levelo_inurba_marseille","lat":43.292749,"lon":5.368402,"is_reserved":false,"is_disabled":false,"rental_uris":{"android":"levelo://app?vid=11eab108-4efa-4bce-940c-352c32da95a0","ios":"levelo://app?vid=11eab108-4efa-4bce-940c-352c32da95a0"},"vehicle_type_id":"4","last_reported":1713459974,"current_range_meters":800,"station_id":"ce4bhbp2rcd13ifvqesg","pricing_plan_id":"cebpf4jnsgd1na2vs0mg"},{"bike_id":"ed9d96e5-0157-4a97-9993-e3225ff70748","system_id":"levelo_inurba_marseille","lat":43.312239,"lon":5.368562,"is_reserved":false,"is_disabled":false,"rental_uris":{"android":"levelo://app?vid=ed9d96e5-0157-4a97-9993-e3225ff70748","ios":"levelo://app?vid=ed9d96e5-0157-4a97-9993-e3225ff70748"},"vehicle_type_id":"4","last_reported":1713459974,"current_range_meters":3600,"station_id":"ce4bgl92rcd13ifvqbq0","pricing_plan_id":"cebpf4jnsgd1na2vs0mg"},{"bike_id":"5ab1d84b-2f3d-437a-a8a2-5b1152c036b9","system_id":"levelo_inurba_marseille","lat":43.323898,"lon":5.389934,"is_reserved":false,"is_disabled":false,"rental_uris":{"android":"levelo://app?vid=5ab1d84b-2f3d-437a-a8a2-5b1152c036b9","ios":"levelo://app?vid=5ab1d84b-2f3d-437a-a8a2-5b1152c036b9"},"vehicle_type_id":"4","last_reported":1713459974,"current_range_meters":19600,"station_id":"","pricing_plan_id":"cebpf4jnsgd1na2vs0mg"},{"bike_id":"60299ac7-8834-48f8-8e13-4ad60e50b1b9","system_id":"levelo_inurba_marseille","lat":43.309589,"lon":5.390258,"is_reserved":false,"is_disabled":false,"rental_uris":{"android":"levelo://app?vid=60299ac7-8834-48f8-8e13-4ad60e50b1b9","ios":"levelo://app?vid=60299ac7-8834-48f8-8e13-4ad60e50b1b9"},"vehicle_type_id":"4","last_reported":1713459974,"current_range_meters":1200,"station_id":"ce4bgup2rcd13ifvqco0","pricing_plan_id":"cebpf4jnsgd1na2vs0mg"},{"bike_id":"ab4ee201-b1d5-4bb5-a2e1-8c13653a7395","system_id":"levelo_inurba_marseille","lat":43.293795,"lon":5.378514,"is_reserved":false,"is_disabled":false,"rental_uris":{"android":"levelo://app?vid=ab4ee201-b1d5-4bb5-a2e1-8c13653a7395","ios":"levelo://app?vid=ab4ee201-b1d5-4bb5-a2e1-8c13653a7395"},"vehicle_type_id":"4","last_reported":1713459974,"current_range_meters":0,"station_id":"","pricing_plan_id":"cebpf4jnsgd1na2vs0mg"},{"bike_id":"ee85350e-b765-417b-adcd-40222e671abc","system_id":"levelo_inurba_marseille","lat":43.2936,"lon":5.37835,"is_reserved":false,"is_disabled":false,"rental_uris":{"android":"levelo://app?vid=ee85350e-b765-417b-adcd-40222e671abc","ios":"levelo://app?vid=ee85350e-b765-417b-adcd-40222e671abc"},"vehicle_type_id":"4","last_reported":1713459974,"current_range_meters":0,"station_id":"ce4bgjh2rcd13ifvqbf0","pricing_plan_id":"cebpf4jnsgd1na2vs0mg"},{"bike_id":"c7efc490-d670-43df-ab2a-b9b245af8080","system_id":"levelo_inurba_marseille","lat":43.302992,"lon":5.392136,"is_reserved":false,"is_disabled":false,"rental_uris":{"android":"levelo://app?vid=c7efc490-d670-43df-ab2a-b9b245af8080","ios":"levelo://app?vid=c7efc490-d670-43df-ab2a-b9b245af8080"},"vehicle_type_id":"4","last_reported":1713459974,"current_range_meters":7600,"station_id":"ce4bgkh2rcd13ifvqbk0","pricing_plan_id":"cebpf4jnsgd1na2vs0mg"},{"bike_id":"28aa40ca-e76c-4bf6-b2a6-2643f86adf48","system_id":"levelo_inurba_marseille","lat":43.292005,"lon":5.357875,"is_reserved":false,"is_disabled":false,"rental_uris":{"android":"levelo://app?vid=28aa40ca-e76c-4bf6-b2a6-2643f86adf48","ios":"levelo://app?vid=28aa40ca-e76c-4bf6-b2a6-2643f86adf48"},"vehicle_type_id":"4","last_reported":1713459974,"current_range_meters":6400,"station_id":"ce4bhb12rcd13ifvqel0","pricing_plan_id":"cebpf4jnsgd1na2vs0mg"},{"bike_id":"e46aaa22-eb11-4ea7-a554-139deb5e0ccb","system_id":"levelo_inurba_marseille","lat":43.291994,"lon":5.357886,"is_reserved":false,"is_disabled":false,"rental_uris":{"android":"levelo://app?vid=e46aaa22-eb11-4ea7-a554-139deb5e0ccb","ios":"levelo://app?vid=e46aaa22-eb11-4ea7-a554-139deb5e0ccb"},"vehicle_type_id":"4","last_reported":1713459974,"current_range_meters":17600,"station_id":"ce4bhb12rcd13ifvqel0","pricing_plan_id":"cebpf4jnsgd1na2vs0mg"},{"bike_id":"d7da87e9-3113-475f-97b7-035826f5f0d6","system_id":"levelo_inurba_marseille","lat":43.298037,"lon":5.381066,"is_reserved":false,"is_disabled":false,"rental_uris":{"android":"levelo://app?vid=d7da87e9-3113-475f-97b7-035826f5f0d6","ios":"levelo://app?vid=d7da87e9-3113-475f-97b7-035826f5f0d6"},"vehicle_type_id":"4","last_reported":1713459974,"current_range_meters":15200,"station_id":"ce4bgip2rcd13ifvqbb0","pricing_plan_id":"cebpf4jnsgd1na2vs0mg"},{"bike_id":"e4baa3f4-b373-4551-8eab-d5c02f692175","system_id":"levelo_inurba_marseille","lat":43.292668,"lon":5.376218,"is_reserved":false,"is_disabled":false,"rental_uris":{"android":"levelo://app?vid=e4baa3f4-b373-4551-8eab-d5c02f692175","ios":"levelo://app?vid=e4baa3f4-b373-4551-8eab-d5c02f692175"},"vehicle_type_id":"4","last_reported":1713459974,"current_range_meters":17600,"station_id":"ce4bgi12rcd13ifvqb70","pricing_plan_id":"cebpf4jnsgd1na2vs0mg"},{"bike_id":"d237b247-3629-42c3-bcdd-a5b52394d9ef","system_id":"levelo_inurba_marseille","lat":43.298764,"lon":5.388973,"is_reserved":false,"is_disabled":false,"rental_uris":{"android":"levelo://app?vid=d237b247-3629-42c3-bcdd-a5b52394d9ef","ios":"levelo://app?vid=d237b247-3629-42c3-bcdd-a5b52394d9ef"},"vehicle_type_id":"4","last_reported":1713459974,"current_range_meters":19200,"station_id":"ce4bh392rcd13ifvqdl0","pricing_plan_id":"cebpf4jnsgd1na2vs0mg"},{"bike_id":"b38e6469-dad3-482b-8196-dee5fb168f26","system_id":"levelo_inurba_marseille","lat":43.298764,"lon":5.388973,"is_reserved":false,"is_disabled":false,"rental_uris":{"android":"levelo://app?vid=b38e6469-dad3-482b-8196-dee5fb168f26","ios":"levelo://app?vid=b38e6469-dad3-482b-8196-dee5fb168f26"},"vehicle_type_id":"4","last_reported":1713459974,"current_range_meters":0,"station_id":"ce4bh392rcd13ifvqdl0","pricing_plan_id":"cebpf4jnsgd1na2vs0mg"},{"bike_id":"a0a4594c-159b-4966-b7be-0d7e550fad8d","system_id":"levelo_inurba_marseille","lat":43.29167,"lon":5.37155,"is_reserved":false,"is_disabled":false,"rental_uris":{"android":"levelo://app?vid=a0a4594c-159b-4966-b7be-0d7e550fad8d","ios":"levelo://app?vid=a0a4594c-159b-4966-b7be-0d7e550fad8d"},"vehicle_type_id":"4","last_reported":1713459974,"current_range_meters":0,"station_id":"ce4bha92rcd13ifvqeh0","pricing_plan_id":"cebpf4jnsgd1na2vs0mg"},{"bike_id":"ae4e78b4-0f6e-4479-8f6a-4d009608773e","system_id":"levelo_inurba_marseille","lat":43.29162,"lon":5.37166,"is_reserved":false,"is_disabled":false,"rental_uris":{"android":"levelo://app?vid=ae4e78b4-0f6e-4479-8f6a-4d009608773e","ios":"levelo://app?vid=ae4e78b4-0f6e-4479-8f6a-4d009608773e"},"vehicle_type_id":"4","last_reported":1713459974,"current_range_meters":0,"station_id":"ce4bha92rcd13ifvqeh0","pricing_plan_id":"cebpf4jnsgd1na2vs0mg"},{"bike_id":"8d61b0c7-b802-4242-add7-5daebf547de8","system_id":"levelo_inurba_marseille","lat":43.298764,"lon":5.388973,"is_reserved":false,"is_disabled":false,"rental_uris":{"android":"levelo://app?vid=8d61b0c7-b802-4242-add7-5daebf547de8","ios":"levelo://app?vid=8d61b0c7-b802-4242-add7-5daebf547de8"},"vehicle_type_id":"4","last_reported":1713459974,"current_range_meters":14400,"station_id":"ce4bh392rcd13ifvqdl0","pricing_plan_id":"cebpf4jnsgd1na2vs0mg"},{"bike_id":"eb4c6ef4-1688-423a-aea2-92a75a21f706","system_id":"levelo_inurba_marseille","lat":43.313291,"lon":5.396838,"is_reserved":false,"is_disabled":false,"rental_uris":{"android":"levelo://app?vid=eb4c6ef4-1688-423a-aea2-92a75a21f706","ios":"levelo://app?vid=eb4c6ef4-1688-423a-aea2-92a75a21f706"},"vehicle_type_id":"4","last_reported":1713459974,"current_range_meters":28000,"station_id":"ce4bgvp2rcd13ifvqcu0","pricing_plan_id":"cebpf4jnsgd1na2vs0mg"},{"bike_id":"02d5ede8-e224-4846-8faf-fb26748cf005","system_id":"levelo_inurba_marseille","lat":43.309341,"lon":5.396398,"is_reserved":false,"is_disabled":false,"rental_uris":{"android":"levelo://app?vid=02d5ede8-e224-4846-8faf-fb26748cf005","ios":"levelo://app?vid=02d5ede8-e224-4846-8faf-fb26748cf005"},"vehicle_type_id":"4","last_reported":1713459974,"current_range_meters":4400,"station_id":"ce4bh012rcd13ifvqcv0","pricing_plan_id":"cebpf4jnsgd1na2vs0mg"},{"bike_id":"7525af45-f9f4-4900-893b-b7f1a4a4f300","system_id":"levelo_inurba_marseille","lat":43.309038,"lon":5.396546,"is_reserved":false,"is_disabled":false,"rental_uris":{"android":"levelo://app?vid=7525af45-f9f4-4900-893b-b7f1a4a4f300","ios":"levelo://app?vid=7525af45-f9f4-4900-893b-b7f1a4a4f300"},"vehicle_type_id":"4","last_reported":1713459974,"current_range_meters":0,"station_id":"ce4bh012rcd13ifvqcv0","pricing_plan_id":"cebpf4jnsgd1na2vs0mg"},{"bike_id":"4ca63c23-bc70-4bd6-ab21-f2d0370343d0","system_id":"levelo_inurba_marseille","lat":43.292005,"lon":5.357875,"is_reserved":false,"is_disabled":false,"rental_uris":{"android":"levelo://app?vid=4ca63c23-bc70-4bd6-ab21-f2d0370343d0","ios":"levelo://app?vid=4ca63c23-bc70-4bd6-ab21-f2d0370343d0"},"vehicle_type_id":"4","last_reported":1713459974,"current_range_meters":12800,"station_id":"ce4bhb12rcd13ifvqel0","pricing_plan_id":"cebpf4jnsgd1na2vs0mg"},{"bike_id":"ee231d32-529c-4464-9340-52c94e5bcf4e","system_id":"levelo_inurba_marseille","lat":43.292005,"lon":5.357875,"is_reserved":false,"is_disabled":false,"rental_uris":{"android":"levelo://app?vid=ee231d32-529c-4464-9340-52c94e5bcf4e","ios":"levelo://app?vid=ee231d32-529c-4464-9340-52c94e5bcf4e"},"vehicle_type_id":"4","last_reported":1713459974,"current_range_meters":20400,"station_id":"ce4bhb12rcd13ifvqel0","pricing_plan_id":"cebpf4jnsgd1na2vs0mg"},{"bike_id":"ae58c5d2-3450-454d-8ec5-902729147914","system_id":"levelo_inurba_marseille","lat":43.313291,"lon":5.396838,"is_reserved":false,"is_disabled":false,"rental_uris":{"android":"levelo://app?vid=ae58c5d2-3450-454d-8ec5-902729147914","ios":"levelo://app?vid=ae58c5d2-3450-454d-8ec5-902729147914"},"vehicle_type_id":"4","last_reported":1713459974,"current_range_meters":11200,"station_id":"ce4bgvp2rcd13ifvqcu0","pricing_plan_id":"cebpf4jnsgd1na2vs0mg"},{"bike_id":"51240fe1-57cd-4745-b8d0-8cf874f0e5ae","system_id":"levelo_inurba_marseille","lat":43.292005,"lon":5.357875,"is_reserved":false,"is_disabled":false,"rental_uris":{"android":"levelo://app?vid=51240fe1-57cd-4745-b8d0-8cf874f0e5ae","ios":"levelo://app?vid=51240fe1-57cd-4745-b8d0-8cf874f0e5ae"},"vehicle_type_id":"4","last_reported":1713459974,"current_range_meters":25200,"station_id":"ce4bhb12rcd13ifvqel0","pricing_plan_id":"cebpf4jnsgd1na2vs0mg"},{"bike_id":"65d17087-c436-434e-b527-add307e8c006","system_id":"levelo_inurba_marseille","lat":43.313291,"lon":5.396838,"is_reserved":false,"is_disabled":false,"rental_uris":{"android":"levelo://app?vid=65d17087-c436-434e-b527-add307e8c006","ios":"levelo://app?vid=65d17087-c436-434e-b527-add307e8c006"},"vehicle_type_id":"4","last_reported":1713459974,"current_range_meters":14000,"station_id":"ce4bgvp2rcd13ifvqcu0","pricing_plan_id":"cebpf4jnsgd1na2vs0mg"},{"bike_id":"72febdfe-8702-4233-84a1-4e4d87770f41","system_id":"levelo_inurba_marseille","lat":43.313291,"lon":5.396838,"is_reserved":false,"is_disabled":false,"rental_uris":{"android":"levelo://app?vid=72febdfe-8702-4233-84a1-4e4d87770f41","ios":"levelo://app?vid=72febdfe-8702-4233-84a1-4e4d87770f41"},"vehicle_type_id":"4","last_reported":1713459974,"current_range_meters":26000,"station_id":"ce4bgvp2rcd13ifvqcu0","pricing_plan_id":"cebpf4jnsgd1na2vs0mg"},{"bike_id":"b50f3f15-d6bb-4c72-9b18-830f1587e55a","system_id":"levelo_inurba_marseille","lat":43.313291,"lon":5.396838,"is_reserved":false,"is_disabled":false,"rental_uris":{"android":"levelo://app?vid=b50f3f15-d6bb-4c72-9b18-830f1587e55a","ios":"levelo://app?vid=b50f3f15-d6bb-4c72-9b18-830f1587e55a"},"vehicle_type_id":"4","last_reported":1713459974,"current_range_meters":21200,"station_id":"ce4bgvp2rcd13ifvqcu0","pricing_plan_id":"cebpf4jnsgd1na2vs0mg"},{"bike_id":"ae8bdbc1-9772-448d-bad5-5bb87de0da5c","system_id":"levelo_inurba_marseille","lat":43.313276,"lon":5.396921,"is_reserved":false,"is_disabled":false,"rental_uris":{"android":"levelo://app?vid=ae8bdbc1-9772-448d-bad5-5bb87de0da5c","ios":"levelo://app?vid=ae8bdbc1-9772-448d-bad5-5bb87de0da5c"},"vehicle_type_id":"4","last_reported":1713459974,"current_range_meters":31200,"station_id":"ce4bgvp2rcd13ifvqcu0","pricing_plan_id":"cebpf4jnsgd1na2vs0mg"},{"bike_id":"5c1f3ee9-8a98-4032-9c91-d247258c8597","system_id":"levelo_inurba_marseille","lat":43.298764,"lon":5.388973,"is_reserved":false,"is_disabled":false,"rental_uris":{"android":"levelo://app?vid=5c1f3ee9-8a98-4032-9c91-d247258c8597","ios":"levelo://app?vid=5c1f3ee9-8a98-4032-9c91-d247258c8597"},"vehicle_type_id":"4","last_reported":1713459974,"current_range_meters":400,"station_id":"ce4bh392rcd13ifvqdl0","pricing_plan_id":"cebpf4jnsgd1na2vs0mg"},{"bike_id":"b465139a-e7eb-4975-9e56-14158237f8cb","system_id":"levelo_inurba_marseille","lat":43.313291,"lon":5.396838,"is_reserved":false,"is_disabled":false,"rental_uris":{"android":"levelo://app?vid=b465139a-e7eb-4975-9e56-14158237f8cb","ios":"levelo://app?vid=b465139a-e7eb-4975-9e56-14158237f8cb"},"vehicle_type_id":"4","last_reported":1713459974,"current_range_meters":13600,"station_id":"ce4bgvp2rcd13ifvqcu0","pricing_plan_id":"cebpf4jnsgd1na2vs0mg"},{"bike_id":"2eeab6c9-530c-49a7-8714-8dc9dd1293bf","system_id":"levelo_inurba_marseille","lat":43.309047,"lon":5.396551,"is_reserved":false,"is_disabled":false,"rental_uris":{"android":"levelo://app?vid=2eeab6c9-530c-49a7-8714-8dc9dd1293bf","ios":"levelo://app?vid=2eeab6c9-530c-49a7-8714-8dc9dd1293bf"},"vehicle_type_id":"4","last_reported":1713459974,"current_range_meters":26800,"station_id":"ce4bh012rcd13ifvqcv0","pricing_plan_id":"cebpf4jnsgd1na2vs0mg"},{"bike_id":"28b48e43-dd4c-484d-9eab-dde8774aa8a6","system_id":"levelo_inurba_marseille","lat":43.29529,"lon":5.385581,"is_reserved":false,"is_disabled":false,"rental_uris":{"android":"levelo://app?vid=28b48e43-dd4c-484d-9eab-dde8774aa8a6","ios":"levelo://app?vid=28b48e43-dd4c-484d-9eab-dde8774aa8a6"},"vehicle_type_id":"4","last_reported":1713459974,"current_range_meters":4800,"station_id":"ce4bgih2rcd13ifvqba0","pricing_plan_id":"cebpf4jnsgd1na2vs0mg"},{"bike_id":"d4b928ba-1c91-4e57-908c-ece4da5c70ce","system_id":"levelo_inurba_marseille","lat":43.29529,"lon":5.385581,"is_reserved":false,"is_disabled":false,"rental_uris":{"android":"levelo://app?vid=d4b928ba-1c91-4e57-908c-ece4da5c70ce","ios":"levelo://app?vid=d4b928ba-1c91-4e57-908c-ece4da5c70ce"},"vehicle_type_id":"4","last_reported":1713459974,"current_range_meters":4400,"station_id":"ce4bgih2rcd13ifvqba0","pricing_plan_id":"cebpf4jnsgd1na2vs0mg"},{"bike_id":"106d9b28-41f9-41f5-b812-98bba918ebcf","system_id":"levelo_inurba_marseille","lat":43.29529,"lon":5.385581,"is_reserved":false,"is_disabled":false,"rental_uris":{"android":"levelo://app?vid=106d9b28-41f9-41f5-b812-98bba918ebcf","ios":"levelo://app?vid=106d9b28-41f9-41f5-b812-98bba918ebcf"},"vehicle_type_id":"4","last_reported":1713459974,"current_range_meters":0,"station_id":"ce4bgih2rcd13ifvqba0","pricing_plan_id":"cebpf4jnsgd1na2vs0mg"},{"bike_id":"6c764037-3a9c-4365-a8db-019efcd28323","system_id":"levelo_inurba_marseille","lat":43.29529,"lon":5.385581,"is_reserved":false,"is_disabled":false,"rental_uris":{"android":"levelo://app?vid=6c764037-3a9c-4365-a8db-019efcd28323","ios":"levelo://app?vid=6c764037-3a9c-4365-a8db-019efcd28323"},"vehicle_type_id":"4","last_reported":1713459974,"current_range_meters":19600,"station_id":"ce4bgih2rcd13ifvqba0","pricing_plan_id":"cebpf4jnsgd1na2vs0mg"},{"bike_id":"41b5f176-9934-4452-b2dd-08a09e97c08f","system_id":"levelo_inurba_marseille","lat":43.295318,"lon":5.385545,"is_reserved":false,"is_disabled":false,"rental_uris":{"android":"levelo://app?vid=41b5f176-9934-4452-b2dd-08a09e97c08f","ios":"levelo://app?vid=41b5f176-9934-4452-b2dd-08a09e97c08f"},"vehicle_type_id":"4","last_reported":1713459974,"current_range_meters":4400,"station_id":"ce4bgih2rcd13ifvqba0","pricing_plan_id":"cebpf4jnsgd1na2vs0mg"},{"bike_id":"195dfea0-44cb-44e1-a174-c6aac9b948ab","system_id":"levelo_inurba_marseille","lat":43.302008,"lon":5.394694,"is_reserved":false,"is_disabled":false,"rental_uris":{"android":"levelo://app?vid=195dfea0-44cb-44e1-a174-c6aac9b948ab","ios":"levelo://app?vid=195dfea0-44cb-44e1-a174-c6aac9b948ab"},"vehicle_type_id":"4","last_reported":1713459974,"current_range_meters":1200,"station_id":"ce4bh0p2rcd13ifvqd70","pricing_plan_id":"cebpf4jnsgd1na2vs0mg"},{"bike_id":"2038854d-084d-4478-b675-2f3bae4dadcb","system_id":"levelo_inurba_marseille","lat":43.302008,"lon":5.394694,"is_reserved":false,"is_disabled":false,"rental_uris":{"android":"levelo://app?vid=2038854d-084d-4478-b675-2f3bae4dadcb","ios":"levelo://app?vid=2038854d-084d-4478-b675-2f3bae4dadcb"},"vehicle_type_id":"4","last_reported":1713459974,"current_range_meters":3200,"station_id":"ce4bh0p2rcd13ifvqd70","pricing_plan_id":"cebpf4jnsgd1na2vs0mg"},{"bike_id":"1dccf09a-3ef6-42c7-babb-f189a26f402a","system_id":"levelo_inurba_marseille","lat":43.299724,"lon":5.384848,"is_reserved":false,"is_disabled":false,"rental_uris":{"android":"levelo://app?vid=1dccf09a-3ef6-42c7-babb-f189a26f402a","ios":"levelo://app?vid=1dccf09a-3ef6-42c7-babb-f189a26f402a"},"vehicle_type_id":"4","last_reported":1713459974,"current_range_meters":3200,"station_id":"ce4bgj92rcd13ifvqbd0","pricing_plan_id":"cebpf4jnsgd1na2vs0mg"},{"bike_id":"8064fffa-db0f-4701-a889-ad444e4fabcc","system_id":"levelo_inurba_marseille","lat":43.302158,"lon":5.394689,"is_reserved":false,"is_disabled":false,"rental_uris":{"android":"levelo://app?vid=8064fffa-db0f-4701-a889-ad444e4fabcc","ios":"levelo://app?vid=8064fffa-db0f-4701-a889-ad444e4fabcc"},"vehicle_type_id":"4","last_reported":1713459974,"current_range_meters":28000,"station_id":"ce4bh0p2rcd13ifvqd70","pricing_plan_id":"cebpf4jnsgd1na2vs0mg"},{"bike_id":"9a403203-f31b-4a86-911d-df7a928e1983","system_id":"levelo_inurba_marseille","lat":43.293259,"lon":5.371586,"is_reserved":false,"is_disabled":false,"rental_uris":{"android":"levelo://app?vid=9a403203-f31b-4a86-911d-df7a928e1983","ios":"levelo://app?vid=9a403203-f31b-4a86-911d-df7a928e1983"},"vehicle_type_id":"4","last_reported":1713459974,"current_range_meters":15200,"station_id":"ce4bgh92rcd13ifvqb40","pricing_plan_id":"cebpf4jnsgd1na2vs0mg"},{"bike_id":"c5017abc-87fc-4f7d-b57c-c1f233cd6620","system_id":"levelo_inurba_marseille","lat":43.294153,"lon":5.386305,"is_reserved":false,"is_disabled":false,"rental_uris":{"android":"levelo://app?vid=c5017abc-87fc-4f7d-b57c-c1f233cd6620","ios":"levelo://app?vid=c5017abc-87fc-4f7d-b57c-c1f233cd6620"},"vehicle_type_id":"4","last_reported":1713459974,"current_range_meters":19200,"station_id":"ce4bh2h2rcd13ifvqdh0","pricing_plan_id":"cebpf4jnsgd1na2vs0mg"},{"bike_id":"51dbc464-27e7-414e-bdd2-82c9ffa0f95c","system_id":"levelo_inurba_marseille","lat":43.294153,"lon":5.386305,"is_reserved":false,"is_disabled":false,"rental_uris":{"android":"levelo://app?vid=51dbc464-27e7-414e-bdd2-82c9ffa0f95c","ios":"levelo://app?vid=51dbc464-27e7-414e-bdd2-82c9ffa0f95c"},"vehicle_type_id":"4","last_reported":1713459974,"current_range_meters":17200,"station_id":"ce4bh2h2rcd13ifvqdh0","pricing_plan_id":"cebpf4jnsgd1na2vs0mg"},{"bike_id":"ee3345c8-0df2-4f1f-b5b6-0f7311c81a6c","system_id":"levelo_inurba_marseille","lat":43.294162,"lon":5.386292,"is_reserved":false,"is_disabled":false,"rental_uris":{"android":"levelo://app?vid=ee3345c8-0df2-4f1f-b5b6-0f7311c81a6c","ios":"levelo://app?vid=ee3345c8-0df2-4f1f-b5b6-0f7311c81a6c"},"vehicle_type_id":"4","last_reported":1713459974,"current_range_meters":6800,"station_id":"ce4bh2h2rcd13ifvqdh0","pricing_plan_id":"cebpf4jnsgd1na2vs0mg"},{"bike_id":"d0a49e24-79d2-4f90-9102-f343fff7cc4d","system_id":"levelo_inurba_marseille","lat":43.288497,"lon":5.393089,"is_reserved":false,"is_disabled":false,"rental_uris":{"android":"levelo://app?vid=d0a49e24-79d2-4f90-9102-f343fff7cc4d","ios":"levelo://app?vid=d0a49e24-79d2-4f90-9102-f343fff7cc4d"},"vehicle_type_id":"4","last_reported":1713459974,"current_range_meters":14000,"station_id":"ce4bh2p2rcd13ifvqdi0","pricing_plan_id":"cebpf4jnsgd1na2vs0mg"},{"bike_id":"307d0568-4d91-4a60-b511-78660bc48684","system_id":"levelo_inurba_marseille","lat":43.298764,"lon":5.388973,"is_reserved":false,"is_disabled":false,"rental_uris":{"android":"levelo://app?vid=307d0568-4d91-4a60-b511-78660bc48684","ios":"levelo://app?vid=307d0568-4d91-4a60-b511-78660bc48684"},"vehicle_type_id":"4","last_reported":1713459974,"current_range_meters":12000,"station_id":"ce4bh392rcd13ifvqdl0","pricing_plan_id":"cebpf4jnsgd1na2vs0mg"},{"bike_id":"9e222a1c-673c-40dd-95ff-b710452f9ea7","system_id":"levelo_inurba_marseille","lat":43.294162,"lon":5.386292,"is_reserved":false,"is_disabled":false,"rental_uris":{"android":"levelo://app?vid=9e222a1c-673c-40dd-95ff-b710452f9ea7","ios":"levelo://app?vid=9e222a1c-673c-40dd-95ff-b710452f9ea7"},"vehicle_type_id":"4","last_reported":1713459974,"current_range_meters":2800,"station_id":"ce4bh2h2rcd13ifvqdh0","pricing_plan_id":"cebpf4jnsgd1na2vs0mg"},{"bike_id":"91474040-d552-4fb3-b039-051283b6aa55","system_id":"levelo_inurba_marseille","lat":43.305994,"lon":5.393687,"is_reserved":false,"is_disabled":false,"rental_uris":{"android":"levelo://app?vid=91474040-d552-4fb3-b039-051283b6aa55","ios":"levelo://app?vid=91474040-d552-4fb3-b039-051283b6aa55"},"vehicle_type_id":"4","last_reported":1713459974,"current_range_meters":8800,"station_id":"ce4bh0p2rcd13ifvqd80","pricing_plan_id":"cebpf4jnsgd1na2vs0mg"},{"bike_id":"8716df49-e09d-4ecd-a9df-824f9b7c8018","system_id":"levelo_inurba_marseille","lat":43.294162,"lon":5.386292,"is_reserved":false,"is_disabled":false,"rental_uris":{"android":"levelo://app?vid=8716df49-e09d-4ecd-a9df-824f9b7c8018","ios":"levelo://app?vid=8716df49-e09d-4ecd-a9df-824f9b7c8018"},"vehicle_type_id":"4","last_reported":1713459974,"current_range_meters":0,"station_id":"ce4bh2h2rcd13ifvqdh0","pricing_plan_id":"cebpf4jnsgd1na2vs0mg"},{"bike_id":"e8637739-789a-41eb-80c4-78bbeb8642e3","system_id":"levelo_inurba_marseille","lat":43.294153,"lon":5.386305,"is_reserved":false,"is_disabled":false,"rental_uris":{"android":"levelo://app?vid=e8637739-789a-41eb-80c4-78bbeb8642e3","ios":"levelo://app?vid=e8637739-789a-41eb-80c4-78bbeb8642e3"},"vehicle_type_id":"4","last_reported":1713459974,"current_range_meters":20800,"station_id":"ce4bh2h2rcd13ifvqdh0","pricing_plan_id":"cebpf4jnsgd1na2vs0mg"},{"bike_id":"f67f1c99-f4d8-4cc6-a336-054577687b08","system_id":"levelo_inurba_marseille","lat":43.294162,"lon":5.386292,"is_reserved":false,"is_disabled":false,"rental_uris":{"android":"levelo://app?vid=f67f1c99-f4d8-4cc6-a336-054577687b08","ios":"levelo://app?vid=f67f1c99-f4d8-4cc6-a336-054577687b08"},"vehicle_type_id":"4","last_reported":1713459974,"current_range_meters":12800,"station_id":"ce4bh2h2rcd13ifvqdh0","pricing_plan_id":"cebpf4jnsgd1na2vs0mg"},{"bike_id":"46ccf833-faa5-4560-b41d-3a52e27b933e","system_id":"levelo_inurba_marseille","lat":43.2903,"lon":5.37545,"is_reserved":false,"is_disabled":false,"rental_uris":{"android":"levelo://app?vid=46ccf833-faa5-4560-b41d-3a52e27b933e","ios":"levelo://app?vid=46ccf833-faa5-4560-b41d-3a52e27b933e"},"vehicle_type_id":"4","last_reported":1713459974,"current_range_meters":24000,"station_id":"ce4bh692rcd13ifvqe90","pricing_plan_id":"cebpf4jnsgd1na2vs0mg"},{"bike_id":"21c5da8b-541e-42ec-8e1b-ea80ff01dfd3","system_id":"levelo_inurba_marseille","lat":43.294162,"lon":5.386292,"is_reserved":false,"is_disabled":false,"rental_uris":{"android":"levelo://app?vid=21c5da8b-541e-42ec-8e1b-ea80ff01dfd3","ios":"levelo://app?vid=21c5da8b-541e-42ec-8e1b-ea80ff01dfd3"},"vehicle_type_id":"4","last_reported":1713459974,"current_range_meters":3600,"station_id":"ce4bh2h2rcd13ifvqdh0","pricing_plan_id":"cebpf4jnsgd1na2vs0mg"},{"bike_id":"be9aaae7-3e9e-4c86-bbba-d0e8edc86421","system_id":"levelo_inurba_marseille","lat":43.294153,"lon":5.386305,"is_reserved":false,"is_disabled":false,"rental_uris":{"android":"levelo://app?vid=be9aaae7-3e9e-4c86-bbba-d0e8edc86421","ios":"levelo://app?vid=be9aaae7-3e9e-4c86-bbba-d0e8edc86421"},"vehicle_type_id":"4","last_reported":1713459974,"current_range_meters":0,"station_id":"ce4bh2h2rcd13ifvqdh0","pricing_plan_id":"cebpf4jnsgd1na2vs0mg"},{"bike_id":"241b1616-496b-46c9-93fe-7bfb4fca0f9e","system_id":"levelo_inurba_marseille","lat":43.289184,"lon":5.366408,"is_reserved":false,"is_disabled":false,"rental_uris":{"android":"levelo://app?vid=241b1616-496b-46c9-93fe-7bfb4fca0f9e","ios":"levelo://app?vid=241b1616-496b-46c9-93fe-7bfb4fca0f9e"},"vehicle_type_id":"4","last_reported":1713459974,"current_range_meters":27200,"station_id":"ce4bhap2rcd13ifvqek0","pricing_plan_id":"cebpf4jnsgd1na2vs0mg"},{"bike_id":"57be7b0b-096b-4e49-91e8-2d4aaf88dc93","system_id":"levelo_inurba_marseille","lat":43.294162,"lon":5.386292,"is_reserved":false,"is_disabled":false,"rental_uris":{"android":"levelo://app?vid=57be7b0b-096b-4e49-91e8-2d4aaf88dc93","ios":"levelo://app?vid=57be7b0b-096b-4e49-91e8-2d4aaf88dc93"},"vehicle_type_id":"4","last_reported":1713459974,"current_range_meters":14000,"station_id":"ce4bh2h2rcd13ifvqdh0","pricing_plan_id":"cebpf4jnsgd1na2vs0mg"},{"bike_id":"ff10c61c-90b0-4c3f-8a29-ff2d3cb355ca","system_id":"levelo_inurba_marseille","lat":43.294162,"lon":5.386292,"is_reserved":false,"is_disabled":false,"rental_uris":{"android":"levelo://app?vid=ff10c61c-90b0-4c3f-8a29-ff2d3cb355ca","ios":"levelo://app?vid=ff10c61c-90b0-4c3f-8a29-ff2d3cb355ca"},"vehicle_type_id":"4","last_reported":1713459974,"current_range_meters":14400,"station_id":"ce4bh2h2rcd13ifvqdh0","pricing_plan_id":"cebpf4jnsgd1na2vs0mg"},{"bike_id":"0f8edc1f-1abf-43f2-9c4e-bf5bc8f7b789","system_id":"levelo_inurba_marseille","lat":43.294162,"lon":5.386292,"is_reserved":false,"is_disabled":false,"rental_uris":{"android":"levelo://app?vid=0f8edc1f-1abf-43f2-9c4e-bf5bc8f7b789","ios":"levelo://app?vid=0f8edc1f-1abf-43f2-9c4e-bf5bc8f7b789"},"vehicle_type_id":"4","last_reported":1713459974,"current_range_meters":16400,"station_id":"ce4bh2h2rcd13ifvqdh0","pricing_plan_id":"cebpf4jnsgd1na2vs0mg"},{"bike_id":"9afd4b76-9127-4d8e-93bc-28543ea72633","system_id":"levelo_inurba_marseille","lat":43.294162,"lon":5.386292,"is_reserved":false,"is_disabled":false,"rental_uris":{"android":"levelo://app?vid=9afd4b76-9127-4d8e-93bc-28543ea72633","ios":"levelo://app?vid=9afd4b76-9127-4d8e-93bc-28543ea72633"},"vehicle_type_id":"4","last_reported":1713459974,"current_range_meters":3200,"station_id":"ce4bh2h2rcd13ifvqdh0","pricing_plan_id":"cebpf4jnsgd1na2vs0mg"},{"bike_id":"772658ef-e337-410e-b6ce-a9b64314e1bf","system_id":"levelo_inurba_marseille","lat":43.29026,"lon":5.37555,"is_reserved":false,"is_disabled":false,"rental_uris":{"android":"levelo://app?vid=772658ef-e337-410e-b6ce-a9b64314e1bf","ios":"levelo://app?vid=772658ef-e337-410e-b6ce-a9b64314e1bf"},"vehicle_type_id":"4","last_reported":1713459974,"current_range_meters":3600,"station_id":"ce4bh692rcd13ifvqe90","pricing_plan_id":"cebpf4jnsgd1na2vs0mg"},{"bike_id":"81beb6f3-cb08-4a42-901a-76eff11f42b1","system_id":"levelo_inurba_marseille","lat":43.289184,"lon":5.366408,"is_reserved":false,"is_disabled":false,"rental_uris":{"android":"levelo://app?vid=81beb6f3-cb08-4a42-901a-76eff11f42b1","ios":"levelo://app?vid=81beb6f3-cb08-4a42-901a-76eff11f42b1"},"vehicle_type_id":"4","last_reported":1713459974,"current_range_meters":16800,"station_id":"ce4bhap2rcd13ifvqek0","pricing_plan_id":"cebpf4jnsgd1na2vs0mg"},{"bike_id":"3834cd24-39a1-46a7-904f-f173f53050eb","system_id":"levelo_inurba_marseille","lat":43.294162,"lon":5.386292,"is_reserved":false,"is_disabled":false,"rental_uris":{"android":"levelo://app?vid=3834cd24-39a1-46a7-904f-f173f53050eb","ios":"levelo://app?vid=3834cd24-39a1-46a7-904f-f173f53050eb"},"vehicle_type_id":"4","last_reported":1713459974,"current_range_meters":20400,"station_id":"ce4bh2h2rcd13ifvqdh0","pricing_plan_id":"cebpf4jnsgd1na2vs0mg"},{"bike_id":"067e8459-3549-4755-a624-e5ef1f4fd001","system_id":"levelo_inurba_marseille","lat":43.289468,"lon":5.363719,"is_reserved":false,"is_disabled":false,"rental_uris":{"android":"levelo://app?vid=067e8459-3549-4755-a624-e5ef1f4fd001","ios":"levelo://app?vid=067e8459-3549-4755-a624-e5ef1f4fd001"},"vehicle_type_id":"4","last_reported":1713459974,"current_range_meters":800,"station_id":"ce4bhc92rcd13ifvqetg","pricing_plan_id":"cebpf4jnsgd1na2vs0mg"},{"bike_id":"792ec176-4182-49f2-9271-24577b3181c4","system_id":"levelo_inurba_marseille","lat":43.289468,"lon":5.363719,"is_reserved":false,"is_disabled":false,"rental_uris":{"android":"levelo://app?vid=792ec176-4182-49f2-9271-24577b3181c4","ios":"levelo://app?vid=792ec176-4182-49f2-9271-24577b3181c4"},"vehicle_type_id":"4","last_reported":1713459974,"current_range_meters":4800,"station_id":"ce4bhc92rcd13ifvqetg","pricing_plan_id":"cebpf4jnsgd1na2vs0mg"},{"bike_id":"5536bd87-f1d4-43c1-9fed-95433b33acb6","system_id":"levelo_inurba_marseille","lat":43.289468,"lon":5.363719,"is_reserved":false,"is_disabled":false,"rental_uris":{"android":"levelo://app?vid=5536bd87-f1d4-43c1-9fed-95433b33acb6","ios":"levelo://app?vid=5536bd87-f1d4-43c1-9fed-95433b33acb6"},"vehicle_type_id":"4","last_reported":1713459974,"current_range_meters":26400,"station_id":"ce4bhc92rcd13ifvqetg","pricing_plan_id":"cebpf4jnsgd1na2vs0mg"},{"bike_id":"2be5d572-1d74-43d9-9cbb-73706bef8b85","system_id":"levelo_inurba_marseille","lat":43.289184,"lon":5.366408,"is_reserved":false,"is_disabled":false,"rental_uris":{"android":"levelo://app?vid=2be5d572-1d74-43d9-9cbb-73706bef8b85","ios":"levelo://app?vid=2be5d572-1d74-43d9-9cbb-73706bef8b85"},"vehicle_type_id":"4","last_reported":1713459974,"current_range_meters":800,"station_id":"ce4bhap2rcd13ifvqek0","pricing_plan_id":"cebpf4jnsgd1na2vs0mg"},{"bike_id":"7745361c-0877-4a52-9a2e-67c0e1195ada","system_id":"levelo_inurba_marseille","lat":43.289184,"lon":5.366408,"is_reserved":false,"is_disabled":false,"rental_uris":{"android":"levelo://app?vid=7745361c-0877-4a52-9a2e-67c0e1195ada","ios":"levelo://app?vid=7745361c-0877-4a52-9a2e-67c0e1195ada"},"vehicle_type_id":"4","last_reported":1713459974,"current_range_meters":10400,"station_id":"ce4bhap2rcd13ifvqek0","pricing_plan_id":"cebpf4jnsgd1na2vs0mg"},{"bike_id":"9fb58898-0132-4a96-aa2e-a4111ccb64cc","system_id":"levelo_inurba_marseille","lat":43.289468,"lon":5.363719,"is_reserved":false,"is_disabled":false,"rental_uris":{"android":"levelo://app?vid=9fb58898-0132-4a96-aa2e-a4111ccb64cc","ios":"levelo://app?vid=9fb58898-0132-4a96-aa2e-a4111ccb64cc"},"vehicle_type_id":"4","last_reported":1713459974,"current_range_meters":18000,"station_id":"ce4bhc92rcd13ifvqetg","pricing_plan_id":"cebpf4jnsgd1na2vs0mg"},{"bike_id":"ec3eff07-dc89-4c36-b255-17830164f968","system_id":"levelo_inurba_marseille","lat":43.294166,"lon":5.386695,"is_reserved":false,"is_disabled":false,"rental_uris":{"android":"levelo://app?vid=ec3eff07-dc89-4c36-b255-17830164f968","ios":"levelo://app?vid=ec3eff07-dc89-4c36-b255-17830164f968"},"vehicle_type_id":"4","last_reported":1713459974,"current_range_meters":1600,"station_id":"ce4bh2h2rcd13ifvqdh0","pricing_plan_id":"cebpf4jnsgd1na2vs0mg"},{"bike_id":"fb67380a-5881-4d0c-a7f6-000567f3b6f5","system_id":"levelo_inurba_marseille","lat":43.290345,"lon":5.38646,"is_reserved":false,"is_disabled":false,"rental_uris":{"android":"levelo://app?vid=fb67380a-5881-4d0c-a7f6-000567f3b6f5","ios":"levelo://app?vid=fb67380a-5881-4d0c-a7f6-000567f3b6f5"},"vehicle_type_id":"4","last_reported":1713459974,"current_range_meters":0,"station_id":"ce4bh4p2rcd13ifvqe0g","pricing_plan_id":"cebpf4jnsgd1na2vs0mg"},{"bike_id":"0e518363-bade-4d9c-8d5f-0651429e4f1f","system_id":"levelo_inurba_marseille","lat":43.292644,"lon":5.384257,"is_reserved":false,"is_disabled":false,"rental_uris":{"android":"levelo://app?vid=0e518363-bade-4d9c-8d5f-0651429e4f1f","ios":"levelo://app?vid=0e518363-bade-4d9c-8d5f-0651429e4f1f"},"vehicle_type_id":"4","last_reported":1713459974,"current_range_meters":18800,"station_id":"ce4bh692rcd13ifvqea0","pricing_plan_id":"cebpf4jnsgd1na2vs0mg"},{"bike_id":"edc83230-8c12-4ef7-af70-1807fa46ade7","system_id":"levelo_inurba_marseille","lat":43.292644,"lon":5.384257,"is_reserved":false,"is_disabled":false,"rental_uris":{"android":"levelo://app?vid=edc83230-8c12-4ef7-af70-1807fa46ade7","ios":"levelo://app?vid=edc83230-8c12-4ef7-af70-1807fa46ade7"},"vehicle_type_id":"4","last_reported":1713459974,"current_range_meters":1200,"station_id":"ce4bh692rcd13ifvqea0","pricing_plan_id":"cebpf4jnsgd1na2vs0mg"},{"bike_id":"d870458b-83a1-44c4-a4f4-287aba203d01","system_id":"levelo_inurba_marseille","lat":43.292644,"lon":5.384257,"is_reserved":false,"is_disabled":false,"rental_uris":{"android":"levelo://app?vid=d870458b-83a1-44c4-a4f4-287aba203d01","ios":"levelo://app?vid=d870458b-83a1-44c4-a4f4-287aba203d01"},"vehicle_type_id":"4","last_reported":1713459974,"current_range_meters":21600,"station_id":"ce4bh692rcd13ifvqea0","pricing_plan_id":"cebpf4jnsgd1na2vs0mg"},{"bike_id":"d305de67-2b9a-4fb8-898f-5c3721915aa9","system_id":"levelo_inurba_marseille","lat":43.292644,"lon":5.384257,"is_reserved":false,"is_disabled":false,"rental_uris":{"android":"levelo://app?vid=d305de67-2b9a-4fb8-898f-5c3721915aa9","ios":"levelo://app?vid=d305de67-2b9a-4fb8-898f-5c3721915aa9"},"vehicle_type_id":"4","last_reported":1713459974,"current_range_meters":4400,"station_id":"ce4bh692rcd13ifvqea0","pricing_plan_id":"cebpf4jnsgd1na2vs0mg"},{"bike_id":"13da95a8-0e24-4710-9d24-0fa10fffd71f","system_id":"levelo_inurba_marseille","lat":43.292736,"lon":5.384481,"is_reserved":false,"is_disabled":false,"rental_uris":{"android":"levelo://app?vid=13da95a8-0e24-4710-9d24-0fa10fffd71f","ios":"levelo://app?vid=13da95a8-0e24-4710-9d24-0fa10fffd71f"},"vehicle_type_id":"4","last_reported":1713459974,"current_range_meters":8800,"station_id":"","pricing_plan_id":"cebpf4jnsgd1na2vs0mg"},{"bike_id":"8a8b9ee1-21f4-4b3b-b867-d6d1be7f4098","system_id":"levelo_inurba_marseille","lat":43.30433,"lon":5.39744,"is_reserved":false,"is_disabled":false,"rental_uris":{"android":"levelo://app?vid=8a8b9ee1-21f4-4b3b-b867-d6d1be7f4098","ios":"levelo://app?vid=8a8b9ee1-21f4-4b3b-b867-d6d1be7f4098"},"vehicle_type_id":"4","last_reported":1713459974,"current_range_meters":400,"station_id":"ce4bh092rcd13ifvqd20","pricing_plan_id":"cebpf4jnsgd1na2vs0mg"},{"bike_id":"d9bda510-db00-42fe-8c2d-8a9519cc463c","system_id":"levelo_inurba_marseille","lat":43.292644,"lon":5.384257,"is_reserved":false,"is_disabled":false,"rental_uris":{"android":"levelo://app?vid=d9bda510-db00-42fe-8c2d-8a9519cc463c","ios":"levelo://app?vid=d9bda510-db00-42fe-8c2d-8a9519cc463c"},"vehicle_type_id":"4","last_reported":1713459974,"current_range_meters":8000,"station_id":"ce4bh692rcd13ifvqea0","pricing_plan_id":"cebpf4jnsgd1na2vs0mg"},{"bike_id":"359efa4e-5103-4b39-a741-ffc25a107db5","system_id":"levelo_inurba_marseille","lat":43.292644,"lon":5.384257,"is_reserved":false,"is_disabled":false,"rental_uris":{"android":"levelo://app?vid=359efa4e-5103-4b39-a741-ffc25a107db5","ios":"levelo://app?vid=359efa4e-5103-4b39-a741-ffc25a107db5"},"vehicle_type_id":"4","last_reported":1713459974,"current_range_meters":26800,"station_id":"ce4bh692rcd13ifvqea0","pricing_plan_id":"cebpf4jnsgd1na2vs0mg"},{"bike_id":"10f8d251-d608-47fd-999e-3efa8a34695c","system_id":"levelo_inurba_marseille","lat":43.292644,"lon":5.384257,"is_reserved":false,"is_disabled":false,"rental_uris":{"android":"levelo://app?vid=10f8d251-d608-47fd-999e-3efa8a34695c","ios":"levelo://app?vid=10f8d251-d608-47fd-999e-3efa8a34695c"},"vehicle_type_id":"4","last_reported":1713459974,"current_range_meters":25200,"station_id":"ce4bh692rcd13ifvqea0","pricing_plan_id":"cebpf4jnsgd1na2vs0mg"},{"bike_id":"9ec2eaee-a9b4-49bb-8968-0be0e56f0d0b","system_id":"levelo_inurba_marseille","lat":43.292644,"lon":5.384257,"is_reserved":false,"is_disabled":false,"rental_uris":{"android":"levelo://app?vid=9ec2eaee-a9b4-49bb-8968-0be0e56f0d0b","ios":"levelo://app?vid=9ec2eaee-a9b4-49bb-8968-0be0e56f0d0b"},"vehicle_type_id":"4","last_reported":1713459974,"current_range_meters":7600,"station_id":"ce4bh692rcd13ifvqea0","pricing_plan_id":"cebpf4jnsgd1na2vs0mg"},{"bike_id":"b86b7fbf-f253-433f-bc57-714e4b1df1d0","system_id":"levelo_inurba_marseille","lat":43.292644,"lon":5.384257,"is_reserved":false,"is_disabled":false,"rental_uris":{"android":"levelo://app?vid=b86b7fbf-f253-433f-bc57-714e4b1df1d0","ios":"levelo://app?vid=b86b7fbf-f253-433f-bc57-714e4b1df1d0"},"vehicle_type_id":"4","last_reported":1713459974,"current_range_meters":22400,"station_id":"ce4bh692rcd13ifvqea0","pricing_plan_id":"cebpf4jnsgd1na2vs0mg"},{"bike_id":"942d63ab-2088-407c-97fb-ee847274f7f3","system_id":"levelo_inurba_marseille","lat":43.29261,"lon":5.384362,"is_reserved":false,"is_disabled":false,"rental_uris":{"android":"levelo://app?vid=942d63ab-2088-407c-97fb-ee847274f7f3","ios":"levelo://app?vid=942d63ab-2088-407c-97fb-ee847274f7f3"},"vehicle_type_id":"4","last_reported":1713459974,"current_range_meters":0,"station_id":"ce4bh692rcd13ifvqea0","pricing_plan_id":"cebpf4jnsgd1na2vs0mg"},{"bike_id":"b7a5d361-4f66-49d2-9cd8-d063ab58879e","system_id":"levelo_inurba_marseille","lat":43.292644,"lon":5.384257,"is_reserved":false,"is_disabled":false,"rental_uris":{"android":"levelo://app?vid=b7a5d361-4f66-49d2-9cd8-d063ab58879e","ios":"levelo://app?vid=b7a5d361-4f66-49d2-9cd8-d063ab58879e"},"vehicle_type_id":"4","last_reported":1713459974,"current_range_meters":25200,"station_id":"ce4bh692rcd13ifvqea0","pricing_plan_id":"cebpf4jnsgd1na2vs0mg"},{"bike_id":"59f54050-5fd6-46f5-b0c6-2956ca40ef91","system_id":"levelo_inurba_marseille","lat":43.290104,"lon":5.356111,"is_reserved":false,"is_disabled":false,"rental_uris":{"android":"levelo://app?vid=59f54050-5fd6-46f5-b0c6-2956ca40ef91","ios":"levelo://app?vid=59f54050-5fd6-46f5-b0c6-2956ca40ef91"},"vehicle_type_id":"4","last_reported":1713459974,"current_range_meters":31200,"station_id":"ce4bhb92rcd13ifvqen0","pricing_plan_id":"cebpf4jnsgd1na2vs0mg"},{"bike_id":"cd038b0d-77c9-47d6-8097-6b3ecdca7339","system_id":"levelo_inurba_marseille","lat":43.292005,"lon":5.357875,"is_reserved":false,"is_disabled":false,"rental_uris":{"android":"levelo://app?vid=cd038b0d-77c9-47d6-8097-6b3ecdca7339","ios":"levelo://app?vid=cd038b0d-77c9-47d6-8097-6b3ecdca7339"},