{"last_updated":1761030678,"ttl":60,"version":"2.2","data":{"bikes":[{"bike_id":"ac6d2c4d-74a8-443d-a9f9-0d9807feacda","system_id":"levelo_inurba_marseille","lat":43.33772,"lon":5.37469,"is_reserved":false,"is_disabled":false,"rental_uris":{"android":"levelo://app?vid=ac6d2c4d-74a8-443d-a9f9-0d9807feacda","ios":"levelo://app?vid=ac6d2c4d-74a8-443d-a9f9-0d9807feacda"},"vehicle_type_id":"4","last_reported":1761030679,"current_range_meters":2800,"station_id":"","pricing_plan_id":"cebpf4jnsgd1na2vs0mg"},{"bike_id":"0f2fb2f9-fc2f-49d3-85cc-14d8a1810100","system_id":"levelo_inurba_marseille","lat":43.23963,"lon":5.3663,"is_reserved":false,"is_disabled":false,"rental_uris":{"android":"levelo://app?vid=0f2fb2f9-fc2f-49d3-85cc-14d8a1810100","ios":"levelo://app?vid=0f2fb2f9-fc2f-49d3-85cc-14d8a1810100"},"vehicle_type_id":"4","last_reported":1761030679,"current_range_meters":2800,"station_id":"ce4bhi12rcd13ifvqfp0","pricing_plan_id":"cebpf4jnsgd1na2vs0mg"},{"bike_id":"a57c8913-d200-4ae3-82c2-e98ed8d45036","system_id":"levelo_inurba_marseille","lat":43.282196,"lon":5.390485,"is_reserved":false,"is_disabled":false,"rental_uris":{"android":"levelo://app?vid=a57c8913-d200-4ae3-82c2-e98ed8d45036","ios":"levelo://app?vid=a57c8913-d200-4ae3-82c2-e98ed8d45036"},"vehicle_type_id":"4","last_reported":1761030679,"current_range_meters":2800,"station_id":"ce4bhn92rcd13ifvqgsg","pricing_plan_id":"cebpf4jnsgd1na2vs0mg"},{"bike_id":"e5ee940a-0702-40af-828e-cbe074ea4290","system_id":"levelo_inurba_marseille","lat":43.27653,"lon":5.38933,"is_reserved":false,"is_disabled":false,"rental_uris":{"android":"levelo://app?vid=e5ee940a-0702-40af-828e-cbe074ea4290","ios":"levelo://app?vid=e5ee940a-0702-40af-828e-cbe074ea4290"},"vehicle_type_id":"4","last_reported":1761030679,"current_range_meters":2800,"station_id":"ce4bhi12rcd13ifvqfo0","pricing_plan_id":"cebpf4jnsgd1na2vs0mg"},{"bike_id":"365b1110-8604-4b2d-ad9b-3263b8a258f2","system_id":"levelo_inurba_marseille","lat":43.28655,"lon":5.3634,"is_reserved":false,"is_disabled":false,"rental_uris":{"android":"levelo://app?vid=365b1110-8604-4b2d-ad9b-3263b8a258f2","ios":"levelo://app?vid=365b1110-8604-4b2d-ad9b-3263b8a258f2"},"vehicle_type_id":"4","last_reported":1761030679,"current_range_meters":3200,"station_id":"ce4bhah2rcd13ifvqej0","pricing_plan_id":"cebpf4jnsgd1na2vs0mg"},{"bike_id":"1a7525a2-39ed-4f59-9275-977f5eb68158","system_id":"levelo_inurba_marseille","lat":43.262027,"lon":5.37927,"is_reserved":false,"is_disabled":false,"rental_uris":{"android":"levelo://app?vid=1a7525a2-39ed-4f59-9275-977f5eb68158","ios":"levelo://app?vid=1a7525a2-39ed-4f59-9275-977f5eb68158"},"vehicle_type_id":"4","last_reported":1761030679,"current_range_meters":3200,"station_id":"ce4bhjp2rcd13ifvqg90","pricing_plan_id":"cebpf4jnsgd1na2vs0mg"},{"bike_id":"200b4708-5b01-4425-b02a-e1ecccef9ba2","system_id":"levelo_inurba_marseille","lat":43.21747,"lon":5.34589,"is_reserved":false,"is_disabled":true,"rental_uris":{"android":"levelo://app?vid=200b4708-5b01-4425-b02a-e1ecccef9ba2","ios":"levelo://app?vid=200b4708-5b01-4425-b02a-e1ecccef9ba2"},"vehicle_type_id":"4","last_reported":1761030679,"current_range_meters":3200,"station_id":"st_cvj6r9ubvosntc0bgbag","pricing_plan_id":"cebpf4jnsgd1na2vs0mg"},{"bike_id":"894411a4-068c-4937-b21c-a36a9cab1035","system_id":"levelo_inurba_marseille","lat":43.33605,"lon":5.4103,"is_reserved":false,"is_disabled":false,"rental_uris":{"android":"levelo://app?vid=894411a4-068c-4937-b21c-a36a9cab1035","ios":"levelo://app?vid=894411a4-068c-4937-b21c-a36a9cab1035"},"vehicle_type_id":"4","last_reported":1761030679,"current_range_meters":3200,"station_id":"ce4bhqh2rcd13ifvqhmg","pricing_plan_id":"cebpf4jnsgd1na2vs0mg"},{"bike_id":"b9f4c452-f1a0-4b31-854c-2325a5b73556","system_id":"levelo_inurba_marseille","lat":43.21461,"lon":5.34323,"is_reserved":false,"is_disabled":false,"rental_uris":{"android":"levelo://app?vid=b9f4c452-f1a0-4b31-854c-2325a5b73556","ios":"levelo://app?vid=b9f4c452-f1a0-4b31-854c-2325a5b73556"},"vehicle_type_id":"4","last_reported":1761030679,"current_range_meters":3200,"station_id":"","pricing_plan_id":"cebpf4jnsgd1na2vs0mg"},{"bike_id":"c0f6fc92-cb19-47ab-b0b2-99e15657d9b7","system_id":"levelo_inurba_marseille","lat":43.30933,"lon":5.36827,"is_reserved":false,"is_disabled":false,"rental_uris":{"android":"levelo://app?vid=c0f6fc92-cb19-47ab-b0b2-99e15657d9b7","ios":"levelo://app?vid=c0f6fc92-cb19-47ab-b0b2-99e15657d9b7"},"vehicle_type_id":"4","last_reported":1761030679,"current_range_meters":3200,"station_id":"ce4bgn92rcd13ifvqbvg","pricing_plan_id":"cebpf4jnsgd1na2vs0mg"},{"bike_id":"4c69b976-f299-4b26-a554-f720fd98f5f7","system_id":"levelo_inurba_marseille","lat":43.29018,"lon":5.38146,"is_reserved":false,"is_disabled":false,"rental_uris":{"android":"levelo://app?vid=4c69b976-f299-4b26-a554-f720fd98f5f7","ios":"levelo://app?vid=4c69b976-f299-4b26-a554-f720fd98f5f7"},"vehicle_type_id":"4","last_reported":1761030679,"current_range_meters":3600,"station_id":"ce4bh4p2rcd13ifvqe1g","pricing_plan_id":"cebpf4jnsgd1na2vs0mg"},{"bike_id":"15420d38-a7a6-4ef1-a6fb-d9427abf4333","system_id":"levelo_inurba_marseille","lat":43.304683,"lon":5.40104,"is_reserved":false,"is_disabled":true,"rental_uris":{"android":"levelo://app?vid=15420d38-a7a6-4ef1-a6fb-d9427abf4333","ios":"levelo://app?vid=15420d38-a7a6-4ef1-a6fb-d9427abf4333"},"vehicle_type_id":"4","last_reported":1761030679,"current_range_meters":4000,"station_id":"","pricing_plan_id":"cebpf4jnsgd1na2vs0mg"},{"bike_id":"6eeb2493-02ad-4ab5-8a33-ad7483f37515","system_id":"levelo_inurba_marseille","lat":43.29068,"lon":5.37163,"is_reserved":false,"is_disabled":false,"rental_uris":{"android":"levelo://app?vid=6eeb2493-02ad-4ab5-8a33-ad7483f37515","ios":"levelo://app?vid=6eeb2493-02ad-4ab5-8a33-ad7483f37515"},"vehicle_type_id":"4","last_reported":1761030679,"current_range_meters":4000,"station_id":"ce4bh5p2rcd13ifvqe4g","pricing_plan_id":"cebpf4jnsgd1na2vs0mg"},{"bike_id":"0fe5f988-499b-40e5-a930-cd6431a1b2ca","system_id":"levelo_inurba_marseille","lat":43.28342,"lon":5.398143,"is_reserved":false,"is_disabled":false,"rental_uris":{"android":"levelo://app?vid=0fe5f988-499b-40e5-a930-cd6431a1b2ca","ios":"levelo://app?vid=0fe5f988-499b-40e5-a930-cd6431a1b2ca"},"vehicle_type_id":"4","last_reported":1761030679,"current_range_meters":4000,"station_id":"","pricing_plan_id":"cebpf4jnsgd1na2vs0mg"},{"bike_id":"7ddbc75e-0652-4b6b-94ba-6105afb6e1ae","system_id":"levelo_inurba_marseille","lat":43.29786,"lon":5.38086,"is_reserved":false,"is_disabled":false,"rental_uris":{"android":"levelo://app?vid=7ddbc75e-0652-4b6b-94ba-6105afb6e1ae","ios":"levelo://app?vid=7ddbc75e-0652-4b6b-94ba-6105afb6e1ae"},"vehicle_type_id":"4","last_reported":1761030679,"current_range_meters":4400,"station_id":"ce4bgip2rcd13ifvqbb0","pricing_plan_id":"cebpf4jnsgd1na2vs0mg"},{"bike_id":"219ddcc4-331d-477d-85ac-fa018d3a3c47","system_id":"levelo_inurba_marseille","lat":43.25081,"lon":5.39522,"is_reserved":false,"is_disabled":false,"rental_uris":{"android":"levelo://app?vid=219ddcc4-331d-477d-85ac-fa018d3a3c47","ios":"levelo://app?vid=219ddcc4-331d-477d-85ac-fa018d3a3c47"},"vehicle_type_id":"4","last_reported":1761030679,"current_range_meters":4800,"station_id":"ce4bhm12rcd13ifvqgkg","pricing_plan_id":"cebpf4jnsgd1na2vs0mg"},{"bike_id":"8cd818e3-a9e2-4f48-92b2-26306f507696","system_id":"levelo_inurba_marseille","lat":43.31349,"lon":5.37913,"is_reserved":false,"is_disabled":false,"rental_uris":{"android":"levelo://app?vid=8cd818e3-a9e2-4f48-92b2-26306f507696","ios":"levelo://app?vid=8cd818e3-a9e2-4f48-92b2-26306f507696"},"vehicle_type_id":"4","last_reported":1761030679,"current_range_meters":4800,"station_id":"","pricing_plan_id":"cebpf4jnsgd1na2vs0mg"},{"bike_id":"2ccf3412-a433-43d6-94e2-5b7c5d6f19c4","system_id":"levelo_inurba_marseille","lat":43.246273,"lon":5.431786,"is_reserved":false,"is_disabled":false,"rental_uris":{"android":"levelo://app?vid=2ccf3412-a433-43d6-94e2-5b7c5d6f19c4","ios":"levelo://app?vid=2ccf3412-a433-43d6-94e2-5b7c5d6f19c4"},"vehicle_type_id":"4","last_reported":1761030679,"current_range_meters":4800,"station_id":"st_d2m6c4gdas8pm72e190g","pricing_plan_id":"cebpf4jnsgd1na2vs0mg"},{"bike_id":"adc56cc3-0814-4488-9a27-1aa08945f7f5","system_id":"levelo_inurba_marseille","lat":43.26679,"lon":5.38267,"is_reserved":false,"is_disabled":false,"rental_uris":{"android":"levelo://app?vid=adc56cc3-0814-4488-9a27-1aa08945f7f5","ios":"levelo://app?vid=adc56cc3-0814-4488-9a27-1aa08945f7f5"},"vehicle_type_id":"4","last_reported":1761030679,"current_range_meters":4800,"station_id":"ce4bhg92rcd13ifvqf90","pricing_plan_id":"cebpf4jnsgd1na2vs0mg"},{"bike_id":"286d8a93-dc48-42bf-af12-7071769996c5","system_id":"levelo_inurba_marseille","lat":43.24994,"lon":5.38935,"is_reserved":false,"is_disabled":false,"rental_uris":{"android":"levelo://app?vid=286d8a93-dc48-42bf-af12-7071769996c5","ios":"levelo://app?vid=286d8a93-dc48-42bf-af12-7071769996c5"},"vehicle_type_id":"4","last_reported":1761030679,"current_range_meters":5600,"station_id":"ce4bhgp2rcd13ifvqfd0","pricing_plan_id":"cebpf4jnsgd1na2vs0mg"},{"bike_id":"0a950a0d-01ce-40b2-be0e-ad7894fd72f2","system_id":"levelo_inurba_marseille","lat":43.32096,"lon":5.36772,"is_reserved":false,"is_disabled":true,"rental_uris":{"android":"levelo://app?vid=0a950a0d-01ce-40b2-be0e-ad7894fd72f2","ios":"levelo://app?vid=0a950a0d-01ce-40b2-be0e-ad7894fd72f2"},"vehicle_type_id":"4","last_reported":1761030679,"current_range_meters":5600,"station_id":"ce4bhrh2rcd13ifvqhug","pricing_plan_id":"cebpf4jnsgd1na2vs0mg"},{"bike_id":"c5a817a5-80b6-4911-b784-a32057ec6a82","system_id":"levelo_inurba_marseille","lat":43.29019,"lon":5.38126,"is_reserved":false,"is_disabled":false,"rental_uris":{"android":"levelo://app?vid=c5a817a5-80b6-4911-b784-a32057ec6a82","ios":"levelo://app?vid=c5a817a5-80b6-4911-b784-a32057ec6a82"},"vehicle_type_id":"4","last_reported":1761030679,"current_range_meters":5600,"station_id":"ce4bh4p2rcd13ifvqe1g","pricing_plan_id":"cebpf4jnsgd1na2vs0mg"},{"bike_id":"60f639a3-dc34-4e20-a666-a28d5bba3f59","system_id":"levelo_inurba_marseille","lat":43.31363,"lon":5.36691,"is_reserved":false,"is_disabled":false,"rental_uris":{"android":"levelo://app?vid=60f639a3-dc34-4e20-a666-a28d5bba3f59","ios":"levelo://app?vid=60f639a3-dc34-4e20-a666-a28d5bba3f59"},"vehicle_type_id":"4","last_reported":1761030679,"current_range_meters":5600,"station_id":"ce4bgr92rcd13ifvqc6g","pricing_plan_id":"cebpf4jnsgd1na2vs0mg"},{"bike_id":"add221cc-0584-4702-a99d-dc9e44dcaa17","system_id":"levelo_inurba_marseille","lat":43.26774,"lon":5.39412,"is_reserved":false,"is_disabled":false,"rental_uris":{"android":"levelo://app?vid=add221cc-0584-4702-a99d-dc9e44dcaa17","ios":"levelo://app?vid=add221cc-0584-4702-a99d-dc9e44dcaa17"},"vehicle_type_id":"4","last_reported":1761030679,"current_range_meters":6000,"station_id":"ce4bhh12rcd13ifvqfg0","pricing_plan_id":"cebpf4jnsgd1na2vs0mg"},{"bike_id":"7fd36eea-805d-4dce-89b5-46f277eaf158","system_id":"levelo_inurba_marseille","lat":43.305097,"lon":5.366695,"is_reserved":false,"is_disabled":false,"rental_uris":{"android":"levelo://app?vid=7fd36eea-805d-4dce-89b5-46f277eaf158","ios":"levelo://app?vid=7fd36eea-805d-4dce-89b5-46f277eaf158"},"vehicle_type_id":"4","last_reported":1761030679,"current_range_meters":6000,"station_id":"","pricing_plan_id":"cebpf4jnsgd1na2vs0mg"},{"bike_id":"86ce52f8-f590-4694-90e1-216ddc477b29","system_id":"levelo_inurba_marseille","lat":43.30968,"lon":5.3812,"is_reserved":false,"is_disabled":false,"rental_uris":{"android":"levelo://app?vid=86ce52f8-f590-4694-90e1-216ddc477b29","ios":"levelo://app?vid=86ce52f8-f590-4694-90e1-216ddc477b29"},"vehicle_type_id":"4","last_reported":1761030679,"current_range_meters":6000,"station_id":"","pricing_plan_id":"cebpf4jnsgd1na2vs0mg"},{"bike_id":"997bdd21-bc86-48e6-b3f9-ec9b554b6670","system_id":"levelo_inurba_marseille","lat":43.255844,"lon":5.382294,"is_reserved":false,"is_disabled":false,"rental_uris":{"android":"levelo://app?vid=997bdd21-bc86-48e6-b3f9-ec9b554b6670","ios":"levelo://app?vid=997bdd21-bc86-48e6-b3f9-ec9b554b6670"},"vehicle_type_id":"4","last_reported":1761030679,"current_range_meters":6000,"station_id":"ce4bhih2rcd13ifvqfs0","pricing_plan_id":"cebpf4jnsgd1na2vs0mg"},{"bike_id":"63af7f75-ae37-4bd3-9613-127db36eb0c3","system_id":"levelo_inurba_marseille","lat":43.288608,"lon":5.425234,"is_reserved":false,"is_disabled":false,"rental_uris":{"android":"levelo://app?vid=63af7f75-ae37-4bd3-9613-127db36eb0c3","ios":"levelo://app?vid=63af7f75-ae37-4bd3-9613-127db36eb0c3"},"vehicle_type_id":"4","last_reported":1761030679,"current_range_meters":6000,"station_id":"st_d3b462108ojc7389ooeg","pricing_plan_id":"cebpf4jnsgd1na2vs0mg"},{"bike_id":"e6047831-e44d-4822-8e40-3080702f93ea","system_id":"levelo_inurba_marseille","lat":43.30545,"lon":5.36683,"is_reserved":false,"is_disabled":false,"rental_uris":{"android":"levelo://app?vid=e6047831-e44d-4822-8e40-3080702f93ea","ios":"levelo://app?vid=e6047831-e44d-4822-8e40-3080702f93ea"},"vehicle_type_id":"4","last_reported":1761030679,"current_range_meters":6000,"station_id":"ce4bgrp2rcd13ifvqc9g","pricing_plan_id":"cebpf4jnsgd1na2vs0mg"},{"bike_id":"b6c96865-3542-4e09-a1b0-283e97502d96","system_id":"levelo_inurba_marseille","lat":43.293039,"lon":5.374623,"is_reserved":false,"is_disabled":false,"rental_uris":{"android":"levelo://app?vid=b6c96865-3542-4e09-a1b0-283e97502d96","ios":"levelo://app?vid=b6c96865-3542-4e09-a1b0-283e97502d96"},"vehicle_type_id":"4","last_reported":1761030679,"current_range_meters":6000,"station_id":"ce4bgh92rcd13ifvqb50","pricing_plan_id":"cebpf4jnsgd1na2vs0mg"},{"bike_id":"c7fe4dfe-9fa3-4d1f-af74-bbfa9e6dfe1f","system_id":"levelo_inurba_marseille","lat":43.27205,"lon":5.39177,"is_reserved":false,"is_disabled":false,"rental_uris":{"android":"levelo://app?vid=c7fe4dfe-9fa3-4d1f-af74-bbfa9e6dfe1f","ios":"levelo://app?vid=c7fe4dfe-9fa3-4d1f-af74-bbfa9e6dfe1f"},"vehicle_type_id":"4","last_reported":1761030679,"current_range_meters":6000,"station_id":"ce4bhhp2rcd13ifvqfm0","pricing_plan_id":"cebpf4jnsgd1na2vs0mg"},{"bike_id":"7a8ac50b-c3a4-490a-8f96-9c005f89ed5d","system_id":"levelo_inurba_marseille","lat":43.26521,"lon":5.39049,"is_reserved":false,"is_disabled":false,"rental_uris":{"android":"levelo://app?vid=7a8ac50b-c3a4-490a-8f96-9c005f89ed5d","ios":"levelo://app?vid=7a8ac50b-c3a4-490a-8f96-9c005f89ed5d"},"vehicle_type_id":"4","last_reported":1761030679,"current_range_meters":6400,"station_id":"","pricing_plan_id":"cebpf4jnsgd1na2vs0mg"},{"bike_id":"716a0cd9-2f3e-47cc-839c-b696b66948ce","system_id":"levelo_inurba_marseille","lat":43.29486,"lon":5.43305,"is_reserved":false,"is_disabled":false,"rental_uris":{"android":"levelo://app?vid=716a0cd9-2f3e-47cc-839c-b696b66948ce","ios":"levelo://app?vid=716a0cd9-2f3e-47cc-839c-b696b66948ce"},"vehicle_type_id":"4","last_reported":1761030679,"current_range_meters":6400,"station_id":"st_d3j5ugp08ojc73fj9d10","pricing_plan_id":"cebpf4jnsgd1na2vs0mg"},{"bike_id":"8785b6fd-8e90-43f4-824c-e3eee071f4ea","system_id":"levelo_inurba_marseille","lat":43.337189,"lon":5.391811,"is_reserved":false,"is_disabled":false,"rental_uris":{"android":"levelo://app?vid=8785b6fd-8e90-43f4-824c-e3eee071f4ea","ios":"levelo://app?vid=8785b6fd-8e90-43f4-824c-e3eee071f4ea"},"vehicle_type_id":"4","last_reported":1761030679,"current_range_meters":6400,"station_id":"ce4bhr92rcd13ifvqhsg","pricing_plan_id":"cebpf4jnsgd1na2vs0mg"},{"bike_id":"679c3c1f-72e8-4456-b0d9-4c2ad9c70dd9","system_id":"levelo_inurba_marseille","lat":43.21173,"lon":5.35072,"is_reserved":false,"is_disabled":false,"rental_uris":{"android":"levelo://app?vid=679c3c1f-72e8-4456-b0d9-4c2ad9c70dd9","ios":"levelo://app?vid=679c3c1f-72e8-4456-b0d9-4c2ad9c70dd9"},"vehicle_type_id":"4","last_reported":1761030679,"current_range_meters":6400,"station_id":"st_cvj6sg6p6f1abm77japg","pricing_plan_id":"cebpf4jnsgd1na2vs0mg"},{"bike_id":"0d1c5ab2-0a7d-48e7-bcfe-1c9dad672216","system_id":"levelo_inurba_marseille","lat":43.29026,"lon":5.39965,"is_reserved":false,"is_disabled":false,"rental_uris":{"android":"levelo://app?vid=0d1c5ab2-0a7d-48e7-bcfe-1c9dad672216","ios":"levelo://app?vid=0d1c5ab2-0a7d-48e7-bcfe-1c9dad672216"},"vehicle_type_id":"4","last_reported":1761030679,"current_range_meters":6400,"station_id":"ce4bh392rcd13ifvqdm0","pricing_plan_id":"cebpf4jnsgd1na2vs0mg"},{"bike_id":"8758806c-a775-4e20-b8bd-1fb9bd76f1c5","system_id":"levelo_inurba_marseille","lat":43.27881,"lon":5.40943,"is_reserved":false,"is_disabled":false,"rental_uris":{"android":"levelo://app?vid=8758806c-a775-4e20-b8bd-1fb9bd76f1c5","ios":"levelo://app?vid=8758806c-a775-4e20-b8bd-1fb9bd76f1c5"},"vehicle_type_id":"4","last_reported":1761030679,"current_range_meters":6400,"station_id":"","pricing_plan_id":"cebpf4jnsgd1na2vs0mg"},{"bike_id":"9b9668a7-2bf7-4639-92b9-181728e8a9ba","system_id":"levelo_inurba_marseille","lat":43.24648,"lon":5.38893,"is_reserved":false,"is_disabled":false,"rental_uris":{"android":"levelo://app?vid=9b9668a7-2bf7-4639-92b9-181728e8a9ba","ios":"levelo://app?vid=9b9668a7-2bf7-4639-92b9-181728e8a9ba"},"vehicle_type_id":"4","last_reported":1761030679,"current_range_meters":6400,"station_id":"ce4bhg12rcd13ifvqf60","pricing_plan_id":"cebpf4jnsgd1na2vs0mg"},{"bike_id":"facc447d-398d-4f46-8545-3e6719f71657","system_id":"levelo_inurba_marseille","lat":43.2742,"lon":5.39412,"is_reserved":false,"is_disabled":false,"rental_uris":{"android":"levelo://app?vid=facc447d-398d-4f46-8545-3e6719f71657","ios":"levelo://app?vid=facc447d-398d-4f46-8545-3e6719f71657"},"vehicle_type_id":"4","last_reported":1761030679,"current_range_meters":6400,"station_id":"ce4bhdp2rcd13ifvqf20","pricing_plan_id":"cebpf4jnsgd1na2vs0mg"},{"bike_id":"99052f74-d507-480a-b885-f26ed2f30873","system_id":"levelo_inurba_marseille","lat":43.30131,"lon":5.3743,"is_reserved":false,"is_disabled":false,"rental_uris":{"android":"levelo://app?vid=99052f74-d507-480a-b885-f26ed2f30873","ios":"levelo://app?vid=99052f74-d507-480a-b885-f26ed2f30873"},"vehicle_type_id":"4","last_reported":1761030679,"current_range_meters":6400,"station_id":"ce4bgs92rcd13ifvqcc0","pricing_plan_id":"cebpf4jnsgd1na2vs0mg"},{"bike_id":"245a030c-0c43-41f8-a4cc-088d55252b06","system_id":"levelo_inurba_marseille","lat":43.244768,"lon":5.369377,"is_reserved":false,"is_disabled":false,"rental_uris":{"android":"levelo://app?vid=245a030c-0c43-41f8-a4cc-088d55252b06","ios":"levelo://app?vid=245a030c-0c43-41f8-a4cc-088d55252b06"},"vehicle_type_id":"4","last_reported":1761030679,"current_range_meters":6800,"station_id":"","pricing_plan_id":"cebpf4jnsgd1na2vs0mg"},{"bike_id":"676d88a8-f06e-4192-886d-e52926318b91","system_id":"levelo_inurba_marseille","lat":43.21199,"lon":5.35068,"is_reserved":false,"is_disabled":false,"rental_uris":{"android":"levelo://app?vid=676d88a8-f06e-4192-886d-e52926318b91","ios":"levelo://app?vid=676d88a8-f06e-4192-886d-e52926318b91"},"vehicle_type_id":"4","last_reported":1761030679,"current_range_meters":6800,"station_id":"st_cvj6sg6p6f1abm77japg","pricing_plan_id":"cebpf4jnsgd1na2vs0mg"},{"bike_id":"94a0abe7-65c1-4846-9270-306013f40d95","system_id":"levelo_inurba_marseille","lat":43.26679,"lon":5.38275,"is_reserved":false,"is_disabled":false,"rental_uris":{"android":"levelo://app?vid=94a0abe7-65c1-4846-9270-306013f40d95","ios":"levelo://app?vid=94a0abe7-65c1-4846-9270-306013f40d95"},"vehicle_type_id":"4","last_reported":1761030679,"current_range_meters":6800,"station_id":"ce4bhg92rcd13ifvqf90","pricing_plan_id":"cebpf4jnsgd1na2vs0mg"},{"bike_id":"226d8ad2-b1af-40bd-9c83-c98e95e888e3","system_id":"levelo_inurba_marseille","lat":43.284862,"lon":5.390844,"is_reserved":false,"is_disabled":false,"rental_uris":{"android":"levelo://app?vid=226d8ad2-b1af-40bd-9c83-c98e95e888e3","ios":"levelo://app?vid=226d8ad2-b1af-40bd-9c83-c98e95e888e3"},"vehicle_type_id":"4","last_reported":1761030679,"current_range_meters":6800,"station_id":"ce4bhoh2rcd13ifvqh5g","pricing_plan_id":"cebpf4jnsgd1na2vs0mg"},{"bike_id":"5103cd34-1e67-4629-ae9c-4122a30da4e1","system_id":"levelo_inurba_marseille","lat":43.30937,"lon":5.36868,"is_reserved":false,"is_disabled":false,"rental_uris":{"android":"levelo://app?vid=5103cd34-1e67-4629-ae9c-4122a30da4e1","ios":"levelo://app?vid=5103cd34-1e67-4629-ae9c-4122a30da4e1"},"vehicle_type_id":"4","last_reported":1761030679,"current_range_meters":6800,"station_id":"ce4bgn92rcd13ifvqbvg","pricing_plan_id":"cebpf4jnsgd1na2vs0mg"},{"bike_id":"e015a312-f4e2-4fa5-962c-4dc7593461dd","system_id":"levelo_inurba_marseille","lat":43.30016,"lon":5.37382,"is_reserved":false,"is_disabled":false,"rental_uris":{"android":"levelo://app?vid=e015a312-f4e2-4fa5-962c-4dc7593461dd","ios":"levelo://app?vid=e015a312-f4e2-4fa5-962c-4dc7593461dd"},"vehicle_type_id":"4","last_reported":1761030679,"current_range_meters":7200,"station_id":"","pricing_plan_id":"cebpf4jnsgd1na2vs0mg"},{"bike_id":"4bbd6801-e86f-4670-a08c-5a08e1dabb92","system_id":"levelo_inurba_marseille","lat":43.2922,"lon":5.38082,"is_reserved":false,"is_disabled":false,"rental_uris":{"android":"levelo://app?vid=4bbd6801-e86f-4670-a08c-5a08e1dabb92","ios":"levelo://app?vid=4bbd6801-e86f-4670-a08c-5a08e1dabb92"},"vehicle_type_id":"4","last_reported":1761030679,"current_range_meters":7200,"station_id":"","pricing_plan_id":"cebpf4jnsgd1na2vs0mg"},{"bike_id":"9652283e-21f4-4490-ac9e-ffa9429f0005","system_id":"levelo_inurba_marseille","lat":43.29031,"lon":5.4049,"is_reserved":false,"is_disabled":false,"rental_uris":{"android":"levelo://app?vid=9652283e-21f4-4490-ac9e-ffa9429f0005","ios":"levelo://app?vid=9652283e-21f4-4490-ac9e-ffa9429f0005"},"vehicle_type_id":"4","last_reported":1761030679,"current_range_meters":7200,"station_id":"","pricing_plan_id":"cebpf4jnsgd1na2vs0mg"},{"bike_id":"1b7fbba9-edc4-4526-ad57-b6fe3ba4bf93","system_id":"levelo_inurba_marseille","lat":43.217507,"lon":5.346044,"is_reserved":false,"is_disabled":false,"rental_uris":{"android":"levelo://app?vid=1b7fbba9-edc4-4526-ad57-b6fe3ba4bf93","ios":"levelo://app?vid=1b7fbba9-edc4-4526-ad57-b6fe3ba4bf93"},"vehicle_type_id":"4","last_reported":1761030679,"current_range_meters":7200,"station_id":"st_cvj6r9ubvosntc0bgbag","pricing_plan_id":"cebpf4jnsgd1na2vs0mg"},{"bike_id":"2db92e81-2da1-437b-b70c-99c84611f332","system_id":"levelo_inurba_marseille","lat":43.317326,"lon":5.367383,"is_reserved":false,"is_disabled":false,"rental_uris":{"android":"levelo://app?vid=2db92e81-2da1-437b-b70c-99c84611f332","ios":"levelo://app?vid=2db92e81-2da1-437b-b70c-99c84611f332"},"vehicle_type_id":"4","last_reported":1761030679,"current_range_meters":7200,"station_id":"ce4bhs12rcd13ifvqhvg","pricing_plan_id":"cebpf4jnsgd1na2vs0mg"},{"bike_id":"635fd3a1-85d8-4f80-af48-1fc5bacf61a3","system_id":"levelo_inurba_marseille","lat":43.30936,"lon":5.3683,"is_reserved":false,"is_disabled":false,"rental_uris":{"android":"levelo://app?vid=635fd3a1-85d8-4f80-af48-1fc5bacf61a3","ios":"levelo://app?vid=635fd3a1-85d8-4f80-af48-1fc5bacf61a3"},"vehicle_type_id":"4","last_reported":1761030679,"current_range_meters":7200,"station_id":"ce4bgn92rcd13ifvqbvg","pricing_plan_id":"cebpf4jnsgd1na2vs0mg"},{"bike_id":"36e7eef0-ba76-4a81-8944-d078f8639f75","system_id":"levelo_inurba_marseille","lat":43.25011,"lon":5.38931,"is_reserved":false,"is_disabled":false,"rental_uris":{"android":"levelo://app?vid=36e7eef0-ba76-4a81-8944-d078f8639f75","ios":"levelo://app?vid=36e7eef0-ba76-4a81-8944-d078f8639f75"},"vehicle_type_id":"4","last_reported":1761030679,"current_range_meters":8000,"station_id":"ce4bhgp2rcd13ifvqfd0","pricing_plan_id":"cebpf4jnsgd1na2vs0mg"},{"bike_id":"51341e1c-ac66-484d-ace2-69ebcf717082","system_id":"levelo_inurba_marseille","lat":43.30946,"lon":5.39024,"is_reserved":false,"is_disabled":false,"rental_uris":{"android":"levelo://app?vid=51341e1c-ac66-484d-ace2-69ebcf717082","ios":"levelo://app?vid=51341e1c-ac66-484d-ace2-69ebcf717082"},"vehicle_type_id":"4","last_reported":1761030679,"current_range_meters":8000,"station_id":"ce4bgup2rcd13ifvqco0","pricing_plan_id":"cebpf4jnsgd1na2vs0mg"},{"bike_id":"a06542cd-14ab-4929-9192-188c841cfa33","system_id":"levelo_inurba_marseille","lat":43.287034,"lon":5.382478,"is_reserved":false,"is_disabled":false,"rental_uris":{"android":"levelo://app?vid=a06542cd-14ab-4929-9192-188c841cfa33","ios":"levelo://app?vid=a06542cd-14ab-4929-9192-188c841cfa33"},"vehicle_type_id":"4","last_reported":1761030679,"current_range_meters":8000,"station_id":"ce4bh9p2rcd13ifvqec0","pricing_plan_id":"cebpf4jnsgd1na2vs0mg"},{"bike_id":"0f787efd-37ca-4060-a03d-15d3c3ce389f","system_id":"levelo_inurba_marseille","lat":43.30019,"lon":5.3736,"is_reserved":false,"is_disabled":false,"rental_uris":{"android":"levelo://app?vid=0f787efd-37ca-4060-a03d-15d3c3ce389f","ios":"levelo://app?vid=0f787efd-37ca-4060-a03d-15d3c3ce389f"},"vehicle_type_id":"4","last_reported":1761030679,"current_range_meters":8000,"station_id":"","pricing_plan_id":"cebpf4jnsgd1na2vs0mg"},{"bike_id":"b795dcee-745f-4569-9cc0-ecc3631ffb10","system_id":"levelo_inurba_marseille","lat":43.301582,"lon":5.372206,"is_reserved":false,"is_disabled":false,"rental_uris":{"android":"levelo://app?vid=b795dcee-745f-4569-9cc0-ecc3631ffb10","ios":"levelo://app?vid=b795dcee-745f-4569-9cc0-ecc3631ffb10"},"vehicle_type_id":"4","last_reported":1761030679,"current_range_meters":8400,"station_id":"","pricing_plan_id":"cebpf4jnsgd1na2vs0mg"},{"bike_id":"78fe83c7-5376-41e5-afa1-483e220954a6","system_id":"levelo_inurba_marseille","lat":43.29167,"lon":5.37066,"is_reserved":false,"is_disabled":false,"rental_uris":{"android":"levelo://app?vid=78fe83c7-5376-41e5-afa1-483e220954a6","ios":"levelo://app?vid=78fe83c7-5376-41e5-afa1-483e220954a6"},"vehicle_type_id":"4","last_reported":1761030679,"current_range_meters":8400,"station_id":"","pricing_plan_id":"cebpf4jnsgd1na2vs0mg"},{"bike_id":"1239b4eb-3504-468f-a017-bf0f143133e4","system_id":"levelo_inurba_marseille","lat":43.3302,"lon":5.39044,"is_reserved":false,"is_disabled":true,"rental_uris":{"android":"levelo://app?vid=1239b4eb-3504-468f-a017-bf0f143133e4","ios":"levelo://app?vid=1239b4eb-3504-468f-a017-bf0f143133e4"},"vehicle_type_id":"4","last_reported":1761030679,"current_range_meters":8400,"station_id":"ce4bhr92rcd13ifvqhrg","pricing_plan_id":"cebpf4jnsgd1na2vs0mg"},{"bike_id":"b64f5a90-0c5f-4ae5-b1e4-8d412cb049d3","system_id":"levelo_inurba_marseille","lat":43.27348,"lon":5.41523,"is_reserved":false,"is_disabled":false,"rental_uris":{"android":"levelo://app?vid=b64f5a90-0c5f-4ae5-b1e4-8d412cb049d3","ios":"levelo://app?vid=b64f5a90-0c5f-4ae5-b1e4-8d412cb049d3"},"vehicle_type_id":"4","last_reported":1761030679,"current_range_meters":8400,"station_id":"","pricing_plan_id":"cebpf4jnsgd1na2vs0mg"},{"bike_id":"0e22d8e9-4ac7-4e8d-a9a7-bc5b6cfd9d13","system_id":"levelo_inurba_marseille","lat":43.29567,"lon":5.37522,"is_reserved":false,"is_disabled":false,"rental_uris":{"android":"levelo://app?vid=0e22d8e9-4ac7-4e8d-a9a7-bc5b6cfd9d13","ios":"levelo://app?vid=0e22d8e9-4ac7-4e8d-a9a7-bc5b6cfd9d13"},"vehicle_type_id":"4","last_reported":1761030679,"current_range_meters":8400,"station_id":"ce4bgh92rcd13ifvqb50","pricing_plan_id":"cebpf4jnsgd1na2vs0mg"},{"bike_id":"599c01b3-22df-4a9a-9d4e-358da650153e","system_id":"levelo_inurba_marseille","lat":43.337444,"lon":5.374475,"is_reserved":false,"is_disabled":true,"rental_uris":{"android":"levelo://app?vid=599c01b3-22df-4a9a-9d4e-358da650153e","ios":"levelo://app?vid=599c01b3-22df-4a9a-9d4e-358da650153e"},"vehicle_type_id":"4","last_reported":1761030679,"current_range_meters":8400,"station_id":"","pricing_plan_id":"cebpf4jnsgd1na2vs0mg"},{"bike_id":"55c16258-98ec-45db-b9a1-620062bd5e90","system_id":"levelo_inurba_marseille","lat":43.30149,"lon":5.38085,"is_reserved":false,"is_disabled":false,"rental_uris":{"android":"levelo://app?vid=55c16258-98ec-45db-b9a1-620062bd5e90","ios":"levelo://app?vid=55c16258-98ec-45db-b9a1-620062bd5e90"},"vehicle_type_id":"4","last_reported":1761030679,"current_range_meters":8400,"station_id":"ce4bgjp2rcd13ifvqbh0","pricing_plan_id":"cebpf4jnsgd1na2vs0mg"},{"bike_id":"793bd619-12af-4bc1-a674-b70d86b415bd","system_id":"levelo_inurba_marseille","lat":43.33131,"lon":5.39153,"is_reserved":false,"is_disabled":false,"rental_uris":{"android":"levelo://app?vid=793bd619-12af-4bc1-a674-b70d86b415bd","ios":"levelo://app?vid=793bd619-12af-4bc1-a674-b70d86b415bd"},"vehicle_type_id":"4","last_reported":1761030679,"current_range_meters":8400,"station_id":"","pricing_plan_id":"cebpf4jnsgd1na2vs0mg"},{"bike_id":"2010d1c0-54eb-4cf9-b5e7-d1f1f50ca71a","system_id":"levelo_inurba_marseille","lat":43.25411,"lon":5.42184,"is_reserved":false,"is_disabled":false,"rental_uris":{"android":"levelo://app?vid=2010d1c0-54eb-4cf9-b5e7-d1f1f50ca71a","ios":"levelo://app?vid=2010d1c0-54eb-4cf9-b5e7-d1f1f50ca71a"},"vehicle_type_id":"4","last_reported":1761030679,"current_range_meters":8800,"station_id":"","pricing_plan_id":"cebpf4jnsgd1na2vs0mg"},{"bike_id":"c530e950-50a8-4b2f-81e6-a5f7e6f752e8","system_id":"levelo_inurba_marseille","lat":43.33759,"lon":5.37473,"is_reserved":false,"is_disabled":false,"rental_uris":{"android":"levelo://app?vid=c530e950-50a8-4b2f-81e6-a5f7e6f752e8","ios":"levelo://app?vid=c530e950-50a8-4b2f-81e6-a5f7e6f752e8"},"vehicle_type_id":"4","last_reported":1761030679,"current_range_meters":8800,"station_id":"","pricing_plan_id":"cebpf4jnsgd1na2vs0mg"},{"bike_id":"dde75b88-ae6b-435b-a57e-449367fe22d5","system_id":"levelo_inurba_marseille","lat":43.24672,"lon":5.38157,"is_reserved":false,"is_disabled":true,"rental_uris":{"android":"levelo://app?vid=dde75b88-ae6b-435b-a57e-449367fe22d5","ios":"levelo://app?vid=dde75b88-ae6b-435b-a57e-449367fe22d5"},"vehicle_type_id":"4","last_reported":1761030679,"current_range_meters":8800,"station_id":"ce4bhih2rcd13ifvqfr0","pricing_plan_id":"cebpf4jnsgd1na2vs0mg"},{"bike_id":"4515bc92-7735-427c-a2ae-8d3771aa37a9","system_id":"levelo_inurba_marseille","lat":43.23177,"lon":5.40001,"is_reserved":false,"is_disabled":false,"rental_uris":{"android":"levelo://app?vid=4515bc92-7735-427c-a2ae-8d3771aa37a9","ios":"levelo://app?vid=4515bc92-7735-427c-a2ae-8d3771aa37a9"},"vehicle_type_id":"4","last_reported":1761030679,"current_range_meters":9200,"station_id":"ce4bhn12rcd13ifvqgqg","pricing_plan_id":"cebpf4jnsgd1na2vs0mg"},{"bike_id":"e99e31ab-0051-40da-bc30-7e077ad1cc64","system_id":"levelo_inurba_marseille","lat":43.28157,"lon":5.34764,"is_reserved":false,"is_disabled":false,"rental_uris":{"android":"levelo://app?vid=e99e31ab-0051-40da-bc30-7e077ad1cc64","ios":"levelo://app?vid=e99e31ab-0051-40da-bc30-7e077ad1cc64"},"vehicle_type_id":"4","last_reported":1761030679,"current_range_meters":9200,"station_id":"","pricing_plan_id":"cebpf4jnsgd1na2vs0mg"},{"bike_id":"9d449aff-01f0-4b92-9983-749d954577ea","system_id":"levelo_inurba_marseille","lat":43.27223,"lon":5.4006,"is_reserved":false,"is_disabled":false,"rental_uris":{"android":"levelo://app?vid=9d449aff-01f0-4b92-9983-749d954577ea","ios":"levelo://app?vid=9d449aff-01f0-4b92-9983-749d954577ea"},"vehicle_type_id":"4","last_reported":1761030679,"current_range_meters":9200,"station_id":"","pricing_plan_id":"cebpf4jnsgd1na2vs0mg"},{"bike_id":"c8365389-c57c-483d-8c7f-d4c9d7c1e5f6","system_id":"levelo_inurba_marseille","lat":43.290097,"lon":5.356241,"is_reserved":false,"is_disabled":false,"rental_uris":{"android":"levelo://app?vid=c8365389-c57c-483d-8c7f-d4c9d7c1e5f6","ios":"levelo://app?vid=c8365389-c57c-483d-8c7f-d4c9d7c1e5f6"},"vehicle_type_id":"4","last_reported":1761030679,"current_range_meters":9200,"station_id":"","pricing_plan_id":"cebpf4jnsgd1na2vs0mg"},{"bike_id":"b84f5d5c-4af3-41b9-bd23-a606402416d4","system_id":"levelo_inurba_marseille","lat":43.32041,"lon":5.41543,"is_reserved":false,"is_disabled":false,"rental_uris":{"android":"levelo://app?vid=b84f5d5c-4af3-41b9-bd23-a606402416d4","ios":"levelo://app?vid=b84f5d5c-4af3-41b9-bd23-a606402416d4"},"vehicle_type_id":"4","last_reported":1761030679,"current_range_meters":9200,"station_id":"","pricing_plan_id":"cebpf4jnsgd1na2vs0mg"},{"bike_id":"641adf26-80d1-4f89-a050-a1a2b6091d19","system_id":"levelo_inurba_marseille","lat":43.28343,"lon":5.35286,"is_reserved":false,"is_disabled":false,"rental_uris":{"android":"levelo://app?vid=641adf26-80d1-4f89-a050-a1a2b6091d19","ios":"levelo://app?vid=641adf26-80d1-4f89-a050-a1a2b6091d19"},"vehicle_type_id":"4","last_reported":1761030679,"current_range_meters":9200,"station_id":"","pricing_plan_id":"cebpf4jnsgd1na2vs0mg"},{"bike_id":"aa7c6c23-5088-4dd1-bc49-eacb36682f18","system_id":"levelo_inurba_marseille","lat":43.30283,"lon":5.37661,"is_reserved":false,"is_disabled":false,"rental_uris":{"android":"levelo://app?vid=aa7c6c23-5088-4dd1-bc49-eacb36682f18","ios":"levelo://app?vid=aa7c6c23-5088-4dd1-bc49-eacb36682f18"},"vehicle_type_id":"4","last_reported":1761030679,"current_range_meters":9600,"station_id":"ce4bguh2rcd13ifvqcj0","pricing_plan_id":"cebpf4jnsgd1na2vs0mg"},{"bike_id":"6e8ed827-a6f7-46f1-ad28-2f0468b71691","system_id":"levelo_inurba_marseille","lat":43.320978,"lon":5.36764,"is_reserved":false,"is_disabled":true,"rental_uris":{"android":"levelo://app?vid=6e8ed827-a6f7-46f1-ad28-2f0468b71691","ios":"levelo://app?vid=6e8ed827-a6f7-46f1-ad28-2f0468b71691"},"vehicle_type_id":"4","last_reported":1761030679,"current_range_meters":9600,"station_id":"ce4bhrh2rcd13ifvqhug","pricing_plan_id":"cebpf4jnsgd1na2vs0mg"},{"bike_id":"4f6c0725-04e1-4a76-ac53-68089d97f805","system_id":"levelo_inurba_marseille","lat":43.30948,"lon":5.39035,"is_reserved":false,"is_disabled":false,"rental_uris":{"android":"levelo://app?vid=4f6c0725-04e1-4a76-ac53-68089d97f805","ios":"levelo://app?vid=4f6c0725-04e1-4a76-ac53-68089d97f805"},"vehicle_type_id":"4","last_reported":1761030679,"current_range_meters":10000,"station_id":"ce4bgup2rcd13ifvqco0","pricing_plan_id":"cebpf4jnsgd1na2vs0mg"},{"bike_id":"50256437-f563-4e18-83ab-119789c51b86","system_id":"levelo_inurba_marseille","lat":43.31636,"lon":5.37624,"is_reserved":false,"is_disabled":false,"rental_uris":{"android":"levelo://app?vid=50256437-f563-4e18-83ab-119789c51b86","ios":"levelo://app?vid=50256437-f563-4e18-83ab-119789c51b86"},"vehicle_type_id":"4","last_reported":1761030679,"current_range_meters":10000,"station_id":"","pricing_plan_id":"cebpf4jnsgd1na2vs0mg"},{"bike_id":"06c84d1b-6e81-4ab2-ab43-e166647822bc","system_id":"levelo_inurba_marseille","lat":43.28944,"lon":5.36846,"is_reserved":false,"is_disabled":false,"rental_uris":{"android":"levelo://app?vid=06c84d1b-6e81-4ab2-ab43-e166647822bc","ios":"levelo://app?vid=06c84d1b-6e81-4ab2-ab43-e166647822bc"},"vehicle_type_id":"4","last_reported":1761030679,"current_range_meters":10000,"station_id":"","pricing_plan_id":"cebpf4jnsgd1na2vs0mg"},{"bike_id":"e96ca96c-5e81-47a8-8cad-8c95236f35cd","system_id":"levelo_inurba_marseille","lat":43.33586,"lon":5.40988,"is_reserved":false,"is_disabled":false,"rental_uris":{"android":"levelo://app?vid=e96ca96c-5e81-47a8-8cad-8c95236f35cd","ios":"levelo://app?vid=e96ca96c-5e81-47a8-8cad-8c95236f35cd"},"vehicle_type_id":"4","last_reported":1761030679,"current_range_meters":10000,"station_id":"ce4bhqh2rcd13ifvqhmg","pricing_plan_id":"cebpf4jnsgd1na2vs0mg"},{"bike_id":"2531911b-0b0c-4de7-8c2e-7be1cdfb87cc","system_id":"levelo_inurba_marseille","lat":43.292637,"lon":5.376224,"is_reserved":false,"is_disabled":false,"rental_uris":{"android":"levelo://app?vid=2531911b-0b0c-4de7-8c2e-7be1cdfb87cc","ios":"levelo://app?vid=2531911b-0b0c-4de7-8c2e-7be1cdfb87cc"},"vehicle_type_id":"4","last_reported":1761030679,"current_range_meters":10000,"station_id":"ce4bgi12rcd13ifvqb80","pricing_plan_id":"cebpf4jnsgd1na2vs0mg"},{"bike_id":"c38d4779-18e1-43c4-a71d-5d81c3a33a62","system_id":"levelo_inurba_marseille","lat":43.29782,"lon":5.38105,"is_reserved":false,"is_disabled":true,"rental_uris":{"android":"levelo://app?vid=c38d4779-18e1-43c4-a71d-5d81c3a33a62","ios":"levelo://app?vid=c38d4779-18e1-43c4-a71d-5d81c3a33a62"},"vehicle_type_id":"4","last_reported":1761030679,"current_range_meters":10000,"station_id":"ce4bgip2rcd13ifvqbb0","pricing_plan_id":"cebpf4jnsgd1na2vs0mg"},{"bike_id":"9b09afa1-99f3-4db9-9504-a28ecd66e5d2","system_id":"levelo_inurba_marseille","lat":43.26514,"lon":5.39528,"is_reserved":false,"is_disabled":false,"rental_uris":{"android":"levelo://app?vid=9b09afa1-99f3-4db9-9504-a28ecd66e5d2","ios":"levelo://app?vid=9b09afa1-99f3-4db9-9504-a28ecd66e5d2"},"vehicle_type_id":"4","last_reported":1761030679,"current_range_meters":10000,"station_id":"ce4bhi12rcd13ifvqfq0","pricing_plan_id":"cebpf4jnsgd1na2vs0mg"},{"bike_id":"df01a596-04b7-4e1d-876f-107870b310c5","system_id":"levelo_inurba_marseille","lat":43.33611,"lon":5.41034,"is_reserved":false,"is_disabled":false,"rental_uris":{"android":"levelo://app?vid=df01a596-04b7-4e1d-876f-107870b310c5","ios":"levelo://app?vid=df01a596-04b7-4e1d-876f-107870b310c5"},"vehicle_type_id":"4","last_reported":1761030679,"current_range_meters":10000,"station_id":"ce4bhqh2rcd13ifvqhmg","pricing_plan_id":"cebpf4jnsgd1na2vs0mg"},{"bike_id":"2ab235ce-ce1c-4e5a-b8f7-e903ac97becc","system_id":"levelo_inurba_marseille","lat":43.334749,"lon":5.399906,"is_reserved":false,"is_disabled":false,"rental_uris":{"android":"levelo://app?vid=2ab235ce-ce1c-4e5a-b8f7-e903ac97becc","ios":"levelo://app?vid=2ab235ce-ce1c-4e5a-b8f7-e903ac97becc"},"vehicle_type_id":"4","last_reported":1761030679,"current_range_meters":10000,"station_id":"","pricing_plan_id":"cebpf4jnsgd1na2vs0mg"},{"bike_id":"2c59cc86-a348-4735-8f6f-75bf0e4aac2c","system_id":"levelo_inurba_marseille","lat":43.33149,"lon":5.39047,"is_reserved":false,"is_disabled":false,"rental_uris":{"android":"levelo://app?vid=2c59cc86-a348-4735-8f6f-75bf0e4aac2c","ios":"levelo://app?vid=2c59cc86-a348-4735-8f6f-75bf0e4aac2c"},"vehicle_type_id":"4","last_reported":1761030679,"current_range_meters":10000,"station_id":"","pricing_plan_id":"cebpf4jnsgd1na2vs0mg"},{"bike_id":"40e9d2cb-a62c-4cca-ba80-02f1949517c1","system_id":"levelo_inurba_marseille","lat":43.347274,"lon":5.366128,"is_reserved":false,"is_disabled":false,"rental_uris":{"android":"levelo://app?vid=40e9d2cb-a62c-4cca-ba80-02f1949517c1","ios":"levelo://app?vid=40e9d2cb-a62c-4cca-ba80-02f1949517c1"},"vehicle_type_id":"4","last_reported":1761030679,"current_range_meters":10800,"station_id":"","pricing_plan_id":"cebpf4jnsgd1na2vs0mg"},{"bike_id":"6c01f02e-1d11-4c59-881c-738e35c8e2e5","system_id":"levelo_inurba_marseille","lat":43.21755,"lon":5.34605,"is_reserved":false,"is_disabled":false,"rental_uris":{"android":"levelo://app?vid=6c01f02e-1d11-4c59-881c-738e35c8e2e5","ios":"levelo://app?vid=6c01f02e-1d11-4c59-881c-738e35c8e2e5"},"vehicle_type_id":"4","last_reported":1761030679,"current_range_meters":10800,"station_id":"st_cvj6r9ubvosntc0bgbag","pricing_plan_id":"cebpf4jnsgd1na2vs0mg"},{"bike_id":"32dbdba0-e039-4c71-9c95-70d7b309a29d","system_id":"levelo_inurba_marseille","lat":43.282105,"lon":5.34989,"is_reserved":false,"is_disabled":false,"rental_uris":{"android":"levelo://app?vid=32dbdba0-e039-4c71-9c95-70d7b309a29d","ios":"levelo://app?vid=32dbdba0-e039-4c71-9c95-70d7b309a29d"},"vehicle_type_id":"4","last_reported":1761030679,"current_range_meters":10800,"station_id":"","pricing_plan_id":"cebpf4jnsgd1na2vs0mg"},{"bike_id":"3c32d7e5-cf3a-49d0-b455-32079c9bf619","system_id":"levelo_inurba_marseille","lat":43.34136,"lon":5.40905,"is_reserved":false,"is_disabled":false,"rental_uris":{"android":"levelo://app?vid=3c32d7e5-cf3a-49d0-b455-32079c9bf619","ios":"levelo://app?vid=3c32d7e5-cf3a-49d0-b455-32079c9bf619"},"vehicle_type_id":"4","last_reported":1761030679,"current_range_meters":10800,"station_id":"ce4bhqh2rcd13ifvqhlg","pricing_plan_id":"cebpf4jnsgd1na2vs0mg"},{"bike_id":"397afb89-fb27-4793-ae3a-99b049a5a669","system_id":"levelo_inurba_marseille","lat":43.293,"lon":5.3746,"is_reserved":false,"is_disabled":false,"rental_uris":{"android":"levelo://app?vid=397afb89-fb27-4793-ae3a-99b049a5a669","ios":"levelo://app?vid=397afb89-fb27-4793-ae3a-99b049a5a669"},"vehicle_type_id":"4","last_reported":1761030679,"current_range_meters":10800,"station_id":"ce4bgi12rcd13ifvqb70","pricing_plan_id":"cebpf4jnsgd1na2vs0mg"},{"bike_id":"aff26c85-5d18-4d6c-aefe-ab50409dc055","system_id":"levelo_inurba_marseille","lat":43.28848,"lon":5.42532,"is_reserved":false,"is_disabled":false,"rental_uris":{"android":"levelo://app?vid=aff26c85-5d18-4d6c-aefe-ab50409dc055","ios":"levelo://app?vid=aff26c85-5d18-4d6c-aefe-ab50409dc055"},"vehicle_type_id":"4","last_reported":1761030679,"current_range_meters":10800,"station_id":"st_d3b462108ojc7389ooeg","pricing_plan_id":"cebpf4jnsgd1na2vs0mg"},{"bike_id":"1195d2fd-8ec4-44f2-be82-b432d037b834","system_id":"levelo_inurba_marseille","lat":43.240786,"lon":5.377665,"is_reserved":false,"is_disabled":false,"rental_uris":{"android":"levelo://app?vid=1195d2fd-8ec4-44f2-be82-b432d037b834","ios":"levelo://app?vid=1195d2fd-8ec4-44f2-be82-b432d037b834"},"vehicle_type_id":"4","last_reported":1761030679,"current_range_meters":10800,"station_id":"ce4bhnp2rcd13ifvqgvg","pricing_plan_id":"cebpf4jnsgd1na2vs0mg"},{"bike_id":"ea6f0fe7-a336-4ef0-a24e-71dbf5d49189","system_id":"levelo_inurba_marseille","lat":43.298184,"lon":5.440614,"is_reserved":false,"is_disabled":false,"rental_uris":{"android":"levelo://app?vid=ea6f0fe7-a336-4ef0-a24e-71dbf5d49189","ios":"levelo://app?vid=ea6f0fe7-a336-4ef0-a24e-71dbf5d49189"},"vehicle_type_id":"4","last_reported":1761030679,"current_range_meters":10800,"station_id":"st_d3jp68qikq2c7381ktn0","pricing_plan_id":"cebpf4jnsgd1na2vs0mg"},{"bike_id":"de389f6a-8fad-475e-a1cb-57bc570a725e","system_id":"levelo_inurba_marseille","lat":43.24657,"lon":5.38133,"is_reserved":false,"is_disabled":false,"rental_uris":{"android":"levelo://app?vid=de389f6a-8fad-475e-a1cb-57bc570a725e","ios":"levelo://app?vid=de389f6a-8fad-475e-a1cb-57bc570a725e"},"vehicle_type_id":"4","last_reported":1761030679,"current_range_meters":11200,"station_id":"ce4bhih2rcd13ifvqfr0","pricing_plan_id":"cebpf4jnsgd1na2vs0mg"},{"bike_id":"078ee0ea-9310-4f2f-afb8-be00098f14b2","system_id":"levelo_inurba_marseille","lat":43.28041,"lon":5.36944,"is_reserved":false,"is_disabled":false,"rental_uris":{"android":"levelo://app?vid=078ee0ea-9310-4f2f-afb8-be00098f14b2","ios":"levelo://app?vid=078ee0ea-9310-4f2f-afb8-be00098f14b2"},"vehicle_type_id":"4","last_reported":1761030679,"current_range_meters":11200,"station_id":"ce4bha12rcd13ifvqef0","pricing_plan_id":"cebpf4jnsgd1na2vs0mg"},{"bike_id":"7f048fd8-ef77-4bf5-a3ec-bb8ab49f6eac","system_id":"levelo_inurba_marseille","lat":43.3046,"lon":5.37915,"is_reserved":false,"is_disabled":false,"rental_uris":{"android":"levelo://app?vid=7f048fd8-ef77-4bf5-a3ec-bb8ab49f6eac","ios":"levelo://app?vid=7f048fd8-ef77-4bf5-a3ec-bb8ab49f6eac"},"vehicle_type_id":"4","last_reported":1761030679,"current_range_meters":11200,"station_id":"","pricing_plan_id":"cebpf4jnsgd1na2vs0mg"},{"bike_id":"0739a4f2-0f7d-400d-b9b5-b3948ce1d2d5","system_id":"levelo_inurba_marseille","lat":43.32041,"lon":5.41537,"is_reserved":false,"is_disabled":false,"rental_uris":{"android":"levelo://app?vid=0739a4f2-0f7d-400d-b9b5-b3948ce1d2d5","ios":"levelo://app?vid=0739a4f2-0f7d-400d-b9b5-b3948ce1d2d5"},"vehicle_type_id":"4","last_reported":1761030679,"current_range_meters":11200,"station_id":"ce4bhq92rcd13ifvqhkg","pricing_plan_id":"cebpf4jnsgd1na2vs0mg"},{"bike_id":"44def8bb-fc22-46bb-a308-b8e670ec5dfd","system_id":"levelo_inurba_marseille","lat":43.30131,"lon":5.37428,"is_reserved":false,"is_disabled":true,"rental_uris":{"android":"levelo://app?vid=44def8bb-fc22-46bb-a308-b8e670ec5dfd","ios":"levelo://app?vid=44def8bb-fc22-46bb-a308-b8e670ec5dfd"},"vehicle_type_id":"4","last_reported":1761030679,"current_range_meters":11200,"station_id":"ce4bgs92rcd13ifvqcc0","pricing_plan_id":"cebpf4jnsgd1na2vs0mg"},{"bike_id":"d4949f0a-4fd0-4699-afaf-7f385949dba2","system_id":"levelo_inurba_marseille","lat":43.29617,"lon":5.38141,"is_reserved":false,"is_disabled":false,"rental_uris":{"android":"levelo://app?vid=d4949f0a-4fd0-4699-afaf-7f385949dba2","ios":"levelo://app?vid=d4949f0a-4fd0-4699-afaf-7f385949dba2"},"vehicle_type_id":"4","last_reported":1761030679,"current_range_meters":11200,"station_id":"ce4bgl12rcd13ifvqbo0","pricing_plan_id":"cebpf4jnsgd1na2vs0mg"},{"bike_id":"241f4278-8126-4dad-bdde-bbda289230ee","system_id":"levelo_inurba_marseille","lat":43.31994,"lon":5.38154,"is_reserved":false,"is_disabled":false,"rental_uris":{"android":"levelo://app?vid=241f4278-8126-4dad-bdde-bbda289230ee","ios":"levelo://app?vid=241f4278-8126-4dad-bdde-bbda289230ee"},"vehicle_type_id":"4","last_reported":1761030679,"current_range_meters":11200,"station_id":"ce4bhr12rcd13ifvqhpg","pricing_plan_id":"cebpf4jnsgd1na2vs0mg"},{"bike_id":"93746660-da94-42c7-be93-7bc1aab4d521","system_id":"levelo_inurba_marseille","lat":43.246701,"lon":5.381651,"is_reserved":false,"is_disabled":false,"rental_uris":{"android":"levelo://app?vid=93746660-da94-42c7-be93-7bc1aab4d521","ios":"levelo://app?vid=93746660-da94-42c7-be93-7bc1aab4d521"},"vehicle_type_id":"4","last_reported":1761030679,"current_range_meters":11600,"station_id":"ce4bhih2rcd13ifvqfr0","pricing_plan_id":"cebpf4jnsgd1na2vs0mg"},{"bike_id":"0556e768-f024-45b5-af11-e15f24f3c5b3","system_id":"levelo_inurba_marseille","lat":43.295719,"lon":5.39971,"is_reserved":false,"is_disabled":false,"rental_uris":{"android":"levelo://app?vid=0556e768-f024-45b5-af11-e15f24f3c5b3","ios":"levelo://app?vid=0556e768-f024-45b5-af11-e15f24f3c5b3"},"vehicle_type_id":"4","last_reported":1761030679,"current_range_meters":11600,"station_id":"ce4bh312rcd13ifvqdj0","pricing_plan_id":"cebpf4jnsgd1na2vs0mg"},{"bike_id":"4916f3b7-3e4e-44c2-a9e9-1007c17d7311","system_id":"levelo_inurba_marseille","lat":43.27338,"lon":5.39875,"is_reserved":false,"is_disabled":false,"rental_uris":{"android":"levelo://app?vid=4916f3b7-3e4e-44c2-a9e9-1007c17d7311","ios":"levelo://app?vid=4916f3b7-3e4e-44c2-a9e9-1007c17d7311"},"vehicle_type_id":"4","last_reported":1761030679,"current_range_meters":11600,"station_id":"","pricing_plan_id":"cebpf4jnsgd1na2vs0mg"},{"bike_id":"2e67643b-d341-4102-ab0e-b8ecc435eb92","system_id":"levelo_inurba_marseille","lat":43.31533,"lon":5.38809,"is_reserved":false,"is_disabled":false,"rental_uris":{"android":"levelo://app?vid=2e67643b-d341-4102-ab0e-b8ecc435eb92","ios":"levelo://app?vid=2e67643b-d341-4102-ab0e-b8ecc435eb92"},"vehicle_type_id":"4","last_reported":1761030679,"current_range_meters":11600,"station_id":"","pricing_plan_id":"cebpf4jnsgd1na2vs0mg"},{"bike_id":"5a35347d-1dbb-434c-8651-0148cd77cd1e","system_id":"levelo_inurba_marseille","lat":43.3175,"lon":5.38585,"is_reserved":false,"is_disabled":false,"rental_uris":{"android":"levelo://app?vid=5a35347d-1dbb-434c-8651-0148cd77cd1e","ios":"levelo://app?vid=5a35347d-1dbb-434c-8651-0148cd77cd1e"},"vehicle_type_id":"4","last_reported":1761030679,"current_range_meters":11600,"station_id":"","pricing_plan_id":"cebpf4jnsgd1na2vs0mg"},{"bike_id":"f7bc1b94-a8e8-42b5-9694-5993a69ba238","system_id":"levelo_inurba_marseille","lat":43.25119,"lon":5.40339,"is_reserved":false,"is_disabled":true,"rental_uris":{"android":"levelo://app?vid=f7bc1b94-a8e8-42b5-9694-5993a69ba238","ios":"levelo://app?vid=f7bc1b94-a8e8-42b5-9694-5993a69ba238"},"vehicle_type_id":"4","last_reported":1761030679,"current_range_meters":11600,"station_id":"ce4bhlh2rcd13ifvqgig","pricing_plan_id":"cebpf4jnsgd1na2vs0mg"},{"bike_id":"8107361d-0abf-4d94-ac09-0d3227d9081f","system_id":"levelo_inurba_marseille","lat":43.29063,"lon":5.37177,"is_reserved":false,"is_disabled":false,"rental_uris":{"android":"levelo://app?vid=8107361d-0abf-4d94-ac09-0d3227d9081f","ios":"levelo://app?vid=8107361d-0abf-4d94-ac09-0d3227d9081f"},"vehicle_type_id":"4","last_reported":1761030679,"current_range_meters":11600,"station_id":"ce4bh5p2rcd13ifvqe4g","pricing_plan_id":"cebpf4jnsgd1na2vs0mg"},{"bike_id":"f198bbaf-aa27-4edb-8f75-2467ad1f990c","system_id":"levelo_inurba_marseille","lat":43.23146,"lon":5.43717,"is_reserved":false,"is_disabled":false,"rental_uris":{"android":"levelo://app?vid=f198bbaf-aa27-4edb-8f75-2467ad1f990c","ios":"levelo://app?vid=f198bbaf-aa27-4edb-8f75-2467ad1f990c"},"vehicle_type_id":"4","last_reported":1761030679,"current_range_meters":12000,"station_id":"ce4bhmp2rcd13ifvqgog","pricing_plan_id":"cebpf4jnsgd1na2vs0mg"},{"bike_id":"516c1e56-708f-4b58-bc5d-f987985e5695","system_id":"levelo_inurba_marseille","lat":43.23186,"lon":5.4,"is_reserved":false,"is_disabled":false,"rental_uris":{"android":"levelo://app?vid=516c1e56-708f-4b58-bc5d-f987985e5695","ios":"levelo://app?vid=516c1e56-708f-4b58-bc5d-f987985e5695"},"vehicle_type_id":"4","last_reported":1761030679,"current_range_meters":12000,"station_id":"ce4bhn12rcd13ifvqgqg","pricing_plan_id":"cebpf4jnsgd1na2vs0mg"},{"bike_id":"a27423e0-ceb0-4a8f-86e7-7b89077ab2b5","system_id":"levelo_inurba_marseille","lat":43.28156,"lon":5.36123,"is_reserved":false,"is_disabled":false,"rental_uris":{"android":"levelo://app?vid=a27423e0-ceb0-4a8f-86e7-7b89077ab2b5","ios":"levelo://app?vid=a27423e0-ceb0-4a8f-86e7-7b89077ab2b5"},"vehicle_type_id":"4","last_reported":1761030679,"current_range_meters":12000,"station_id":"","pricing_plan_id":"cebpf4jnsgd1na2vs0mg"},{"bike_id":"9953bb32-6d68-488a-9e42-24a31e2ab81f","system_id":"levelo_inurba_marseille","lat":43.31525,"lon":5.38034,"is_reserved":false,"is_disabled":false,"rental_uris":{"android":"levelo://app?vid=9953bb32-6d68-488a-9e42-24a31e2ab81f","ios":"levelo://app?vid=9953bb32-6d68-488a-9e42-24a31e2ab81f"},"vehicle_type_id":"4","last_reported":1761030679,"current_range_meters":12000,"station_id":"ce4bhsp2rcd13ifvqi50","pricing_plan_id":"cebpf4jnsgd1na2vs0mg"},{"bike_id":"b14fa3f8-aae1-46e3-b682-dad93ba86e32","system_id":"levelo_inurba_marseille","lat":43.2507,"lon":5.39518,"is_reserved":false,"is_disabled":false,"rental_uris":{"android":"levelo://app?vid=b14fa3f8-aae1-46e3-b682-dad93ba86e32","ios":"levelo://app?vid=b14fa3f8-aae1-46e3-b682-dad93ba86e32"},"vehicle_type_id":"4","last_reported":1761030679,"current_range_meters":12000,"station_id":"ce4bhm12rcd13ifvqgkg","pricing_plan_id":"cebpf4jnsgd1na2vs0mg"},{"bike_id":"d950ada0-7546-479b-b1de-6e0c92ac2fca","system_id":"levelo_inurba_marseille","lat":43.29014,"lon":5.38645,"is_reserved":false,"is_disabled":true,"rental_uris":{"android":"levelo://app?vid=d950ada0-7546-479b-b1de-6e0c92ac2fca","ios":"levelo://app?vid=d950ada0-7546-479b-b1de-6e0c92ac2fca"},"vehicle_type_id":"4","last_reported":1761030679,"current_range_meters":12000,"station_id":"ce4bh4p2rcd13ifvqe0g","pricing_plan_id":"cebpf4jnsgd1na2vs0mg"},{"bike_id":"d8ce8491-25e7-4f84-8373-cc25897ada4d","system_id":"levelo_inurba_marseille","lat":43.225572,"lon":5.416396,"is_reserved":false,"is_disabled":false,"rental_uris":{"android":"levelo://app?vid=d8ce8491-25e7-4f84-8373-cc25897ada4d","ios":"levelo://app?vid=d8ce8491-25e7-4f84-8373-cc25897ada4d"},"vehicle_type_id":"4","last_reported":1761030679,"current_range_meters":12000,"station_id":"st_d2o4gvlbi1j2169b742g","pricing_plan_id":"cebpf4jnsgd1na2vs0mg"},{"bike_id":"2f09c9be-359a-414b-9339-b6dbcd93427c","system_id":"levelo_inurba_marseille","lat":43.29577,"lon":5.38115,"is_reserved":false,"is_disabled":true,"rental_uris":{"android":"levelo://app?vid=2f09c9be-359a-414b-9339-b6dbcd93427c","ios":"levelo://app?vid=2f09c9be-359a-414b-9339-b6dbcd93427c"},"vehicle_type_id":"4","last_reported":1761030679,"current_range_meters":12000,"station_id":"ce4bgl12rcd13ifvqbo0","pricing_plan_id":"cebpf4jnsgd1na2vs0mg"},{"bike_id":"a7f6d25f-df78-4b4d-bd3c-39116f5563f9","system_id":"levelo_inurba_marseille","lat":43.28368,"lon":5.38627,"is_reserved":false,"is_disabled":false,"rental_uris":{"android":"levelo://app?vid=a7f6d25f-df78-4b4d-bd3c-39116f5563f9","ios":"levelo://app?vid=a7f6d25f-df78-4b4d-bd3c-39116f5563f9"},"vehicle_type_id":"4","last_reported":1761030679,"current_range_meters":12000,"station_id":"ce4bh492rcd13ifvqdvg","pricing_plan_id":"cebpf4jnsgd1na2vs0mg"},{"bike_id":"e84cb271-7d37-4057-8a81-02b75fe5b44b","system_id":"levelo_inurba_marseille","lat":43.31056,"lon":5.37563,"is_reserved":false,"is_disabled":false,"rental_uris":{"android":"levelo://app?vid=e84cb271-7d37-4057-8a81-02b75fe5b44b","ios":"levelo://app?vid=e84cb271-7d37-4057-8a81-02b75fe5b44b"},"vehicle_type_id":"4","last_reported":1761030679,"current_range_meters":12000,"station_id":"","pricing_plan_id":"cebpf4jnsgd1na2vs0mg"},{"bike_id":"0db9ab5d-e4b9-4e8d-8841-4099a10de2ae","system_id":"levelo_inurba_marseille","lat":43.28478,"lon":5.48392,"is_reserved":false,"is_disabled":false,"rental_uris":{"android":"levelo://app?vid=0db9ab5d-e4b9-4e8d-8841-4099a10de2ae","ios":"levelo://app?vid=0db9ab5d-e4b9-4e8d-8841-4099a10de2ae"},"vehicle_type_id":"4","last_reported":1761030679,"current_range_meters":12400,"station_id":"st_d3jp68qikq2c7381ktn0","pricing_plan_id":"cebpf4jnsgd1na2vs0mg"},{"bike_id":"a7ba6a6a-8dda-4e76-8a63-3f1cbbb0d6aa","system_id":"levelo_inurba_marseille","lat":43.34133,"lon":5.40907,"is_reserved":false,"is_disabled":false,"rental_uris":{"android":"levelo://app?vid=a7ba6a6a-8dda-4e76-8a63-3f1cbbb0d6aa","ios":"levelo://app?vid=a7ba6a6a-8dda-4e76-8a63-3f1cbbb0d6aa"},"vehicle_type_id":"4","last_reported":1761030679,"current_range_meters":12400,"station_id":"ce4bhqh2rcd13ifvqhlg","pricing_plan_id":"cebpf4jnsgd1na2vs0mg"},{"bike_id":"ea095e69-4bcb-4003-97fa-7dc9559c9d53","system_id":"levelo_inurba_marseille","lat":43.25006,"lon":5.38916,"is_reserved":false,"is_disabled":false,"rental_uris":{"android":"levelo://app?vid=ea095e69-4bcb-4003-97fa-7dc9559c9d53","ios":"levelo://app?vid=ea095e69-4bcb-4003-97fa-7dc9559c9d53"},"vehicle_type_id":"4","last_reported":1761030679,"current_range_meters":12400,"station_id":"ce4bhgp2rcd13ifvqfd0","pricing_plan_id":"cebpf4jnsgd1na2vs0mg"},{"bike_id":"b63f4144-84f6-4ba1-b6df-f6ebabe9ef26","system_id":"levelo_inurba_marseille","lat":43.27909,"lon":5.40431,"is_reserved":false,"is_disabled":false,"rental_uris":{"android":"levelo://app?vid=b63f4144-84f6-4ba1-b6df-f6ebabe9ef26","ios":"levelo://app?vid=b63f4144-84f6-4ba1-b6df-f6ebabe9ef26"},"vehicle_type_id":"4","last_reported":1761030679,"current_range_meters":12400,"station_id":"","pricing_plan_id":"cebpf4jnsgd1na2vs0mg"},{"bike_id":"5ffc841b-57b4-486c-b04c-40b145c83ce9","system_id":"levelo_inurba_marseille","lat":43.28212,"lon":5.35103,"is_reserved":false,"is_disabled":false,"rental_uris":{"android":"levelo://app?vid=5ffc841b-57b4-486c-b04c-40b145c83ce9","ios":"levelo://app?vid=5ffc841b-57b4-486c-b04c-40b145c83ce9"},"vehicle_type_id":"4","last_reported":1761030679,"current_range_meters":12800,"station_id":"","pricing_plan_id":"cebpf4jnsgd1na2vs0mg"},{"bike_id":"1c3a62d6-9dc5-4b1d-b145-ff75c0ccb3b4","system_id":"levelo_inurba_marseille","lat":43.2827,"lon":5.35058,"is_reserved":false,"is_disabled":false,"rental_uris":{"android":"levelo://app?vid=1c3a62d6-9dc5-4b1d-b145-ff75c0ccb3b4","ios":"levelo://app?vid=1c3a62d6-9dc5-4b1d-b145-ff75c0ccb3b4"},"vehicle_type_id":"4","last_reported":1761030679,"current_range_meters":12800,"station_id":"","pricing_plan_id":"cebpf4jnsgd1na2vs0mg"},{"bike_id":"bb6e11ee-6927-43fc-8f13-7426c8aa4afc","system_id":"levelo_inurba_marseille","lat":43.265613,"lon":5.372869,"is_reserved":false,"is_disabled":false,"rental_uris":{"android":"levelo://app?vid=bb6e11ee-6927-43fc-8f13-7426c8aa4afc","ios":"levelo://app?vid=bb6e11ee-6927-43fc-8f13-7426c8aa4afc"},"vehicle_type_id":"4","last_reported":1761030679,"current_range_meters":12800,"station_id":"ce4bhg12rcd13ifvqf70","pricing_plan_id":"cebpf4jnsgd1na2vs0mg"},{"bike_id":"ecc71f2f-a8c8-48f2-a3d5-7917b274cd85","system_id":"levelo_inurba_marseille","lat":43.28288,"lon":5.396582,"is_reserved":false,"is_disabled":false,"rental_uris":{"android":"levelo://app?vid=ecc71f2f-a8c8-48f2-a3d5-7917b274cd85","ios":"levelo://app?vid=ecc71f2f-a8c8-48f2-a3d5-7917b274cd85"},"vehicle_type_id":"4","last_reported":1761030679,"current_range_meters":13600,"station_id":"","pricing_plan_id":"cebpf4jnsgd1na2vs0mg"},{"bike_id":"e1f4e2e7-e979-4bb5-8ac3-370c17ac4622","system_id":"levelo_inurba_marseille","lat":43.28885,"lon":5.42463,"is_reserved":false,"is_disabled":false,"rental_uris":{"android":"levelo://app?vid=e1f4e2e7-e979-4bb5-8ac3-370c17ac4622","ios":"levelo://app?vid=e1f4e2e7-e979-4bb5-8ac3-370c17ac4622"},"vehicle_type_id":"4","last_reported":1761030679,"current_range_meters":13600,"station_id":"st_d3b462108ojc7389ooeg","pricing_plan_id":"cebpf4jnsgd1na2vs0mg"},{"bike_id":"3500c908-297e-4054-9aba-70ee2962e831","system_id":"levelo_inurba_marseille","lat":43.31754,"lon":5.39019,"is_reserved":false,"is_disabled":true,"rental_uris":{"android":"levelo://app?vid=3500c908-297e-4054-9aba-70ee2962e831","ios":"levelo://app?vid=3500c908-297e-4054-9aba-70ee2962e831"},"vehicle_type_id":"4","last_reported":1761030679,"current_range_meters":13600,"station_id":"ce4bhqp2rcd13ifvqhng","pricing_plan_id":"cebpf4jnsgd1na2vs0mg"},{"bike_id":"fbfb38e0-e490-4d12-ba14-56a0f8b4d3ed","system_id":"levelo_inurba_marseille","lat":43.27022,"lon":5.4027,"is_reserved":false,"is_disabled":false,"rental_uris":{"android":"levelo://app?vid=fbfb38e0-e490-4d12-ba14-56a0f8b4d3ed","ios":"levelo://app?vid=fbfb38e0-e490-4d12-ba14-56a0f8b4d3ed"},"vehicle_type_id":"4","last_reported":1761030679,"current_range_meters":13600,"station_id":"ce4bhk92rcd13ifvqgc0","pricing_plan_id":"cebpf4jnsgd1na2vs0mg"},{"bike_id":"bd07bb0a-7914-4975-b9b3-a3b2eaf40169","system_id":"levelo_inurba_marseille","lat":43.316731,"lon":5.377321,"is_reserved":false,"is_disabled":true,"rental_uris":{"android":"levelo://app?vid=bd07bb0a-7914-4975-b9b3-a3b2eaf40169","ios":"levelo://app?vid=bd07bb0a-7914-4975-b9b3-a3b2eaf40169"},"vehicle_type_id":"4","last_reported":1761030679,"current_range_meters":13600,"station_id":"ce4bgth2rcd13ifvqch0","pricing_plan_id":"cebpf4jnsgd1na2vs0mg"},{"bike_id":"86f707cb-6150-4908-82fd-be5c971c3cd9","system_id":"levelo_inurba_marseille","lat":43.30905,"lon":5.36851,"is_reserved":false,"is_disabled":false,"rental_uris":{"android":"levelo://app?vid=86f707cb-6150-4908-82fd-be5c971c3cd9","ios":"levelo://app?vid=86f707cb-6150-4908-82fd-be5c971c3cd9"},"vehicle_type_id":"4","last_reported":1761030679,"current_range_meters":14000,"station_id":"ce4bgn92rcd13ifvqbvg","pricing_plan_id":"cebpf4jnsgd1na2vs0mg"},{"bike_id":"e7611cfa-682f-4ccd-96c5-464cc6f40597","system_id":"levelo_inurba_marseille","lat":43.22558,"lon":5.41647,"is_reserved":false,"is_disabled":false,"rental_uris":{"android":"levelo://app?vid=e7611cfa-682f-4ccd-96c5-464cc6f40597","ios":"levelo://app?vid=e7611cfa-682f-4ccd-96c5-464cc6f40597"},"vehicle_type_id":"4","last_reported":1761030679,"current_range_meters":14000,"station_id":"st_d2o4gvlbi1j2169b742g","pricing_plan_id":"cebpf4jnsgd1na2vs0mg"},{"bike_id":"a6acdb42-2844-45fe-a7bf-082cb13c1bb0","system_id":"levelo_inurba_marseille","lat":43.31212,"lon":5.36848,"is_reserved":false,"is_disabled":false,"rental_uris":{"android":"levelo://app?vid=a6acdb42-2844-45fe-a7bf-082cb13c1bb0","ios":"levelo://app?vid=a6acdb42-2844-45fe-a7bf-082cb13c1bb0"},"vehicle_type_id":"4","last_reported":1761030679,"current_range_meters":14400,"station_id":"ce4bgl92rcd13ifvqbq0","pricing_plan_id":"cebpf4jnsgd1na2vs0mg"},{"bike_id":"5bfe1ed8-548a-47da-970f-3e34b0d34c00","system_id":"levelo_inurba_marseille","lat":43.2418,"lon":5.39722,"is_reserved":false,"is_disabled":false,"rental_uris":{"android":"levelo://app?vid=5bfe1ed8-548a-47da-970f-3e34b0d34c00","ios":"levelo://app?vid=5bfe1ed8-548a-47da-970f-3e34b0d34c00"},"vehicle_type_id":"4","last_reported":1761030679,"current_range_meters":14400,"station_id":"ce4bhn12rcd13ifvqgpg","pricing_plan_id":"cebpf4jnsgd1na2vs0mg"},{"bike_id":"fa344610-9bdf-47a1-9d9d-a659d006d2c1","system_id":"levelo_inurba_marseille","lat":43.27603,"lon":5.36122,"is_reserved":false,"is_disabled":false,"rental_uris":{"android":"levelo://app?vid=fa344610-9bdf-47a1-9d9d-a659d006d2c1","ios":"levelo://app?vid=fa344610-9bdf-47a1-9d9d-a659d006d2c1"},"vehicle_type_id":"4","last_reported":1761030679,"current_range_meters":14400,"station_id":"ce4bgj92rcd13ifvqbe0","pricing_plan_id":"cebpf4jnsgd1na2vs0mg"},{"bike_id":"9c882443-49a2-480d-8caf-b6fafbd1ba97","system_id":"levelo_inurba_marseille","lat":43.275436,"lon":5.42769,"is_reserved":false,"is_disabled":false,"rental_uris":{"android":"levelo://app?vid=9c882443-49a2-480d-8caf-b6fafbd1ba97","ios":"levelo://app?vid=9c882443-49a2-480d-8caf-b6fafbd1ba97"},"vehicle_type_id":"4","last_reported":1761030679,"current_range_meters":14400,"station_id":"","pricing_plan_id":"cebpf4jnsgd1na2vs0mg"},{"bike_id":"c289af18-97dc-47e3-b9a8-9ddfef853fb3","system_id":"levelo_inurba_marseille","lat":43.313097,"lon":5.396745,"is_reserved":false,"is_disabled":false,"rental_uris":{"android":"levelo://app?vid=c289af18-97dc-47e3-b9a8-9ddfef853fb3","ios":"levelo://app?vid=c289af18-97dc-47e3-b9a8-9ddfef853fb3"},"vehicle_type_id":"4","last_reported":1761030679,"current_range_meters":14400,"station_id":"ce4bgvp2rcd13ifvqcu0","pricing_plan_id":"cebpf4jnsgd1na2vs0mg"},{"bike_id":"50227033-b2a0-40b8-93ef-16d57df43834","system_id":"levelo_inurba_marseille","lat":43.319875,"lon":5.381473,"is_reserved":false,"is_disabled":false,"rental_uris":{"android":"levelo://app?vid=50227033-b2a0-40b8-93ef-16d57df43834","ios":"levelo://app?vid=50227033-b2a0-40b8-93ef-16d57df43834"},"vehicle_type_id":"4","last_reported":1761030679,"current_range_meters":14400,"station_id":"ce4bhr12rcd13ifvqhpg","pricing_plan_id":"cebpf4jnsgd1na2vs0mg"},{"bike_id":"766b1caf-9b8d-40fb-bdc1-99e03c335b07","system_id":"levelo_inurba_marseille","lat":43.29295,"lon":5.37453,"is_reserved":false,"is_disabled":false,"rental_uris":{"android":"levelo://app?vid=766b1caf-9b8d-40fb-bdc1-99e03c335b07","ios":"levelo://app?vid=766b1caf-9b8d-40fb-bdc1-99e03c335b07"},"vehicle_type_id":"4","last_reported":1761030679,"current_range_meters":14400,"station_id":"ce4bgi12rcd13ifvqb70","pricing_plan_id":"cebpf4jnsgd1na2vs0mg"},{"bike_id":"689bbc08-639c-4333-a0d6-e55309b442a0","system_id":"levelo_inurba_marseille","lat":43.24655,"lon":5.38128,"is_reserved":false,"is_disabled":false,"rental_uris":{"android":"levelo://app?vid=689bbc08-639c-4333-a0d6-e55309b442a0","ios":"levelo://app?vid=689bbc08-639c-4333-a0d6-e55309b442a0"},"vehicle_type_id":"4","last_reported":1761030679,"current_range_meters":14800,"station_id":"ce4bhih2rcd13ifvqfr0","pricing_plan_id":"cebpf4jnsgd1na2vs0mg"},{"bike_id":"abf36589-b7e2-45b5-916b-1abc17ee7d70","system_id":"levelo_inurba_marseille","lat":43.26198,"lon":5.37929,"is_reserved":false,"is_disabled":false,"rental_uris":{"android":"levelo://app?vid=abf36589-b7e2-45b5-916b-1abc17ee7d70","ios":"levelo://app?vid=abf36589-b7e2-45b5-916b-1abc17ee7d70"},"vehicle_type_id":"4","last_reported":1761030679,"current_range_meters":14800,"station_id":"ce4bhjp2rcd13ifvqg90","pricing_plan_id":"cebpf4jnsgd1na2vs0mg"},{"bike_id":"8fb692f4-0aed-49cc-8723-a59420d78bf1","system_id":"levelo_inurba_marseille","lat":43.25073,"lon":5.39525,"is_reserved":false,"is_disabled":false,"rental_uris":{"android":"levelo://app?vid=8fb692f4-0aed-49cc-8723-a59420d78bf1","ios":"levelo://app?vid=8fb692f4-0aed-49cc-8723-a59420d78bf1"},"vehicle_type_id":"4","last_reported":1761030679,"current_range_meters":14800,"station_id":"ce4bhm12rcd13ifvqgkg","pricing_plan_id":"cebpf4jnsgd1na2vs0mg"},{"bike_id":"c9c1af49-9e6d-4de6-adde-aea85d12b1bb","system_id":"levelo_inurba_marseille","lat":43.32551,"lon":5.42456,"is_reserved":false,"is_disabled":false,"rental_uris":{"android":"levelo://app?vid=c9c1af49-9e6d-4de6-adde-aea85d12b1bb","ios":"levelo://app?vid=c9c1af49-9e6d-4de6-adde-aea85d12b1bb"},"vehicle_type_id":"4","last_reported":1761030679,"current_range_meters":14800,"station_id":"","pricing_plan_id":"cebpf4jnsgd1na2vs0mg"},{"bike_id":"77434eef-942d-45ae-b433-77c1e7d412dc","system_id":"levelo_inurba_marseille","lat":43.30027,"lon":5.40402,"is_reserved":false,"is_disabled":false,"rental_uris":{"android":"levelo://app?vid=77434eef-942d-45ae-b433-77c1e7d412dc","ios":"levelo://app?vid=77434eef-942d-45ae-b433-77c1e7d412dc"},"vehicle_type_id":"4","last_reported":1761030679,"current_range_meters":14800,"station_id":"","pricing_plan_id":"cebpf4jnsgd1na2vs0mg"},{"bike_id":"26a47936-248a-4509-9172-73bff6c9fadc","system_id":"levelo_inurba_marseille","lat":43.309998,"lon":5.389321,"is_reserved":false,"is_disabled":false,"rental_uris":{"android":"levelo://app?vid=26a47936-248a-4509-9172-73bff6c9fadc","ios":"levelo://app?vid=26a47936-248a-4509-9172-73bff6c9fadc"},"vehicle_type_id":"4","last_reported":1761030679,"current_range_meters":15200,"station_id":"ce4bgup2rcd13ifvqco0","pricing_plan_id":"cebpf4jnsgd1na2vs0mg"},{"bike_id":"db52cc97-4726-4558-94fa-5f7260c2de8b","system_id":"levelo_inurba_marseille","lat":43.24167,"lon":5.36392,"is_reserved":false,"is_disabled":false,"rental_uris":{"android":"levelo://app?vid=db52cc97-4726-4558-94fa-5f7260c2de8b","ios":"levelo://app?vid=db52cc97-4726-4558-94fa-5f7260c2de8b"},"vehicle_type_id":"4","last_reported":1761030679,"current_range_meters":15200,"station_id":"cpo36qri1sfpv3e86is0","pricing_plan_id":"cebpf4jnsgd1na2vs0mg"},{"bike_id":"d21d91e8-7a75-4548-82c3-1b3109a71ef6","system_id":"levelo_inurba_marseille","lat":43.331586,"lon":5.354939,"is_reserved":false,"is_disabled":false,"rental_uris":{"android":"levelo://app?vid=d21d91e8-7a75-4548-82c3-1b3109a71ef6","ios":"levelo://app?vid=d21d91e8-7a75-4548-82c3-1b3109a71ef6"},"vehicle_type_id":"4","last_reported":1761030679,"current_range_meters":15200,"station_id":"","pricing_plan_id":"cebpf4jnsgd1na2vs0mg"},{"bike_id":"6c57f705-0dc5-443a-8aed-895e2d977cab","system_id":"levelo_inurba_marseille","lat":43.33592,"lon":5.40983,"is_reserved":false,"is_disabled":false,"rental_uris":{"android":"levelo://app?vid=6c57f705-0dc5-443a-8aed-895e2d977cab","ios":"levelo://app?vid=6c57f705-0dc5-443a-8aed-895e2d977cab"},"vehicle_type_id":"4","last_reported":1761030679,"current_range_meters":15200,"station_id":"ce4bhqh2rcd13ifvqhmg","pricing_plan_id":"cebpf4jnsgd1na2vs0mg"},{"bike_id":"0a65b123-5fd5-46a7-b161-973e79060e29","system_id":"levelo_inurba_marseille","lat":43.33599,"lon":5.41033,"is_reserved":false,"is_disabled":false,"rental_uris":{"android":"levelo://app?vid=0a65b123-5fd5-46a7-b161-973e79060e29","ios":"levelo://app?vid=0a65b123-5fd5-46a7-b161-973e79060e29"},"vehicle_type_id":"4","last_reported":1761030679,"current_range_meters":15200,"station_id":"ce4bhqh2rcd13ifvqhmg","pricing_plan_id":"cebpf4jnsgd1na2vs0mg"},{"bike_id":"6587fc71-510b-49d4-8611-b8493da3de02","system_id":"levelo_inurba_marseille","lat":43.30599,"lon":5.3723,"is_reserved":false,"is_disabled":false,"rental_uris":{"android":"levelo://app?vid=6587fc71-510b-49d4-8611-b8493da3de02","ios":"levelo://app?vid=6587fc71-510b-49d4-8611-b8493da3de02"},"vehicle_type_id":"4","last_reported":1761030679,"current_range_meters":15200,"station_id":"ce4bgqh2rcd13ifvqc4g","pricing_plan_id":"cebpf4jnsgd1na2vs0mg"},{"bike_id":"e0fd4a76-8958-465f-8563-a646b8dfa71a","system_id":"levelo_inurba_marseille","lat":43.28635,"lon":5.38424,"is_reserved":false,"is_disabled":false,"rental_uris":{"android":"levelo://app?vid=e0fd4a76-8958-465f-8563-a646b8dfa71a","ios":"levelo://app?vid=e0fd4a76-8958-465f-8563-a646b8dfa71a"},"vehicle_type_id":"4","last_reported":1761030679,"current_range_meters":16000,"station_id":"","pricing_plan_id":"cebpf4jnsgd1na2vs0mg"},{"bike_id":"cfdec554-e526-4290-b040-894ad1fa700f","system_id":"levelo_inurba_marseille","lat":43.295657,"lon":5.396459,"is_reserved":false,"is_disabled":false,"rental_uris":{"android":"levelo://app?vid=cfdec554-e526-4290-b040-894ad1fa700f","ios":"levelo://app?vid=cfdec554-e526-4290-b040-894ad1fa700f"},"vehicle_type_id":"4","last_reported":1761030679,"current_range_meters":16000,"station_id":"","pricing_plan_id":"cebpf4jnsgd1na2vs0mg"},{"bike_id":"f198dcad-4df6-446c-9460-48df50208239","system_id":"levelo_inurba_marseille","lat":43.264267,"lon":5.405522,"is_reserved":false,"is_disabled":false,"rental_uris":{"android":"levelo://app?vid=f198dcad-4df6-446c-9460-48df50208239","ios":"levelo://app?vid=f198dcad-4df6-446c-9460-48df50208239"},"vehicle_type_id":"4","last_reported":1761030679,"current_range_meters":16000,"station_id":"","pricing_plan_id":"cebpf4jnsgd1na2vs0mg"},{"bike_id":"0902f8f5-2693-425a-bff3-5d901bf02c48","system_id":"levelo_inurba_marseille","lat":43.2395,"lon":5.36649,"is_reserved":false,"is_disabled":false,"rental_uris":{"android":"levelo://app?vid=0902f8f5-2693-425a-bff3-5d901bf02c48","ios":"levelo://app?vid=0902f8f5-2693-425a-bff3-5d901bf02c48"},"vehicle_type_id":"4","last_reported":1761030679,"current_range_meters":16400,"station_id":"ce4bhi12rcd13ifvqfp0","pricing_plan_id":"cebpf4jnsgd1na2vs0mg"},{"bike_id":"393cb4aa-a852-46d8-91f6-053fce75cf93","system_id":"levelo_inurba_marseille","lat":43.2749,"lon":5.42453,"is_reserved":false,"is_disabled":true,"rental_uris":{"android":"levelo://app?vid=393cb4aa-a852-46d8-91f6-053fce75cf93","ios":"levelo://app?vid=393cb4aa-a852-46d8-91f6-053fce75cf93"},"vehicle_type_id":"4","last_reported":1761030679,"current_range_meters":16400,"station_id":"ce4bhn92rcd13ifvqgrg","pricing_plan_id":"cebpf4jnsgd1na2vs0mg"},{"bike_id":"73e8ee4e-b76c-40f4-90a6-daf84740fee6","system_id":"levelo_inurba_marseille","lat":43.33617,"lon":5.41015,"is_reserved":false,"is_disabled":false,"rental_uris":{"android":"levelo://app?vid=73e8ee4e-b76c-40f4-90a6-daf84740fee6","ios":"levelo://app?vid=73e8ee4e-b76c-40f4-90a6-daf84740fee6"},"vehicle_type_id":"4","last_reported":1761030679,"current_range_meters":16400,"station_id":"ce4bhqh2rcd13ifvqhmg","pricing_plan_id":"cebpf4jnsgd1na2vs0mg"},{"bike_id":"5128c0fe-4dbd-436c-953e-b5f17c8ff496","system_id":"levelo_inurba_marseille","lat":43.243943,"lon":5.37067,"is_reserved":false,"is_disabled":true,"rental_uris":{"android":"levelo://app?vid=5128c0fe-4dbd-436c-953e-b5f17c8ff496","ios":"levelo://app?vid=5128c0fe-4dbd-436c-953e-b5f17c8ff496"},"vehicle_type_id":"4","last_reported":1761030679,"current_range_meters":16400,"station_id":"ce4bhhh2rcd13ifvqfk0","pricing_plan_id":"cebpf4jnsgd1na2vs0mg"},{"bike_id":"5c6534e2-36c2-4023-b35d-6364fb858aa9","system_id":"levelo_inurba_marseille","lat":43.29331,"lon":5.3707,"is_reserved":false,"is_disabled":false,"rental_uris":{"android":"levelo://app?vid=5c6534e2-36c2-4023-b35d-6364fb858aa9","ios":"levelo://app?vid=5c6534e2-36c2-4023-b35d-6364fb858aa9"},"vehicle_type_id":"4","last_reported":1761030679,"current_range_meters":16400,"station_id":"","pricing_plan_id":"cebpf4jnsgd1na2vs0mg"},{"bike_id":"63ab450b-687d-44c2-b62b-2fe6d9964cc2","system_id":"levelo_inurba_marseille","lat":43.23153,"lon":5.43723,"is_reserved":false,"is_disabled":false,"rental_uris":{"android":"levelo://app?vid=63ab450b-687d-44c2-b62b-2fe6d9964cc2","ios":"levelo://app?vid=63ab450b-687d-44c2-b62b-2fe6d9964cc2"},"vehicle_type_id":"4","last_reported":1761030679,"current_range_meters":16800,"station_id":"ce4bhmp2rcd13ifvqgog","pricing_plan_id":"cebpf4jnsgd1na2vs0mg"},{"bike_id":"903d60b4-eb9f-44ff-8dae-6e96e92b8493","system_id":"levelo_inurba_marseille","lat":43.30953,"lon":5.3905,"is_reserved":false,"is_disabled":false,"rental_uris":{"android":"levelo://app?vid=903d60b4-eb9f-44ff-8dae-6e96e92b8493","ios":"levelo://app?vid=903d60b4-eb9f-44ff-8dae-6e96e92b8493"},"vehicle_type_id":"4","last_reported":1761030679,"current_range_meters":16800,"station_id":"ce4bgup2rcd13ifvqco0","pricing_plan_id":"cebpf4jnsgd1na2vs0mg"},{"bike_id":"5204deef-32db-491c-833c-997e729394ac","system_id":"levelo_inurba_marseille","lat":43.25927,"lon":5.40906,"is_reserved":false,"is_disabled":false,"rental_uris":{"android":"levelo://app?vid=5204deef-32db-491c-833c-997e729394ac","ios":"levelo://app?vid=5204deef-32db-491c-833c-997e729394ac"},"vehicle_type_id":"4","last_reported":1761030679,"current_range_meters":16800,"station_id":"ce4bhm92rcd13ifvqglg","pricing_plan_id":"cebpf4jnsgd1na2vs0mg"},{"bike_id":"91ab1363-742f-48b4-afbf-c5038ebf28ea","system_id":"levelo_inurba_marseille","lat":43.280865,"lon":5.377911,"is_reserved":false,"is_disabled":false,"rental_uris":{"android":"levelo://app?vid=91ab1363-742f-48b4-afbf-c5038ebf28ea","ios":"levelo://app?vid=91ab1363-742f-48b4-afbf-c5038ebf28ea"},"vehicle_type_id":"4","last_reported":1761030679,"current_range_meters":16800,"station_id":"ce4bha12rcd13ifvqee0","pricing_plan_id":"cebpf4jnsgd1na2vs0mg"},{"bike_id":"cfb1e390-4cb8-4f2c-b24d-487adb565259","system_id":"levelo_inurba_marseille","lat":43.31901,"lon":5.40732,"is_reserved":false,"is_disabled":true,"rental_uris":{"android":"levelo://app?vid=cfb1e390-4cb8-4f2c-b24d-487adb565259","ios":"levelo://app?vid=cfb1e390-4cb8-4f2c-b24d-487adb565259"},"vehicle_type_id":"4","last_reported":1761030679,"current_range_meters":16800,"station_id":"ce4bhq12rcd13ifvqhig","pricing_plan_id":"cebpf4jnsgd1na2vs0mg"},{"bike_id":"ceedc452-f436-4994-ac01-c6c43898b914","system_id":"levelo_inurba_marseille","lat":43.337444,"lon":5.374475,"is_reserved":false,"is_disabled":false,"rental_uris":{"android":"levelo://app?vid=ceedc452-f436-4994-ac01-c6c43898b914","ios":"levelo://app?vid=ceedc452-f436-4994-ac01-c6c43898b914"},"vehicle_type_id":"4","last_reported":1761030679,"current_range_meters":16800,"station_id":"","pricing_plan_id":"cebpf4jnsgd1na2vs0mg"},{"bike_id":"4a62364a-bbde-4eb3-8976-ccf4dcaf5039","system_id":"levelo_inurba_marseille","lat":43.330265,"lon":5.372839,"is_reserved":false,"is_disabled":false,"rental_uris":{"android":"levelo://app?vid=4a62364a-bbde-4eb3-8976-ccf4dcaf5039","ios":"levelo://app?vid=4a62364a-bbde-4eb3-8976-ccf4dcaf5039"},"vehicle_type_id":"4","last_reported":1761030679,"current_range_meters":16800,"station_id":"","pricing_plan_id":"cebpf4jnsgd1na2vs0mg"},{"bike_id":"2b29960d-2052-44a7-a56a-1f6e879312f0","system_id":"levelo_inurba_marseille","lat":43.29276,"lon":5.401147,"is_reserved":false,"is_disabled":false,"rental_uris":{"android":"levelo://app?vid=2b29960d-2052-44a7-a56a-1f6e879312f0","ios":"levelo://app?vid=2b29960d-2052-44a7-a56a-1f6e879312f0"},"vehicle_type_id":"4","last_reported":1761030679,"current_range_meters":16800,"station_id":"","pricing_plan_id":"cebpf4jnsgd1na2vs0mg"},{"bike_id":"16c89344-2b65-485b-9c1f-32cbe4def4cd","system_id":"levelo_inurba_marseille","lat":43.294315,"lon":5.402839,"is_reserved":false,"is_disabled":false,"rental_uris":{"android":"levelo://app?vid=16c89344-2b65-485b-9c1f-32cbe4def4cd","ios":"levelo://app?vid=16c89344-2b65-485b-9c1f-32cbe4def4cd"},"vehicle_type_id":"4","last_reported":1761030679,"current_range_meters":16800,"station_id":"","pricing_plan_id":"cebpf4jnsgd1na2vs0mg"},{"bike_id":"8cfdc42a-d2ca-4e9b-8d86-08af829be997","system_id":"levelo_inurba_marseille","lat":43.23971,"lon":5.36622,"is_reserved":false,"is_disabled":false,"rental_uris":{"android":"levelo://app?vid=8cfdc42a-d2ca-4e9b-8d86-08af829be997","ios":"levelo://app?vid=8cfdc42a-d2ca-4e9b-8d86-08af829be997"},"vehicle_type_id":"4","last_reported":1761030679,"current_range_meters":16800,"station_id":"ce4bhi12rcd13ifvqfp0","pricing_plan_id":"cebpf4jnsgd1na2vs0mg"},{"bike_id":"1fba7a7b-b735-4c11-8967-91ac9e86d460","system_id":"levelo_inurba_marseille","lat":43.33606,"lon":5.41032,"is_reserved":false,"is_disabled":false,"rental_uris":{"android":"levelo://app?vid=1fba7a7b-b735-4c11-8967-91ac9e86d460","ios":"levelo://app?vid=1fba7a7b-b735-4c11-8967-91ac9e86d460"},"vehicle_type_id":"4","last_reported":1761030679,"current_range_meters":17200,"station_id":"ce4bhqh2rcd13ifvqhmg","pricing_plan_id":"cebpf4jnsgd1na2vs0mg"},{"bike_id":"cd6340a7-924f-4485-a4ee-84ec84bd352a","system_id":"levelo_inurba_marseille","lat":43.31713,"lon":5.42391,"is_reserved":false,"is_disabled":false,"rental_uris":{"android":"levelo://app?vid=cd6340a7-924f-4485-a4ee-84ec84bd352a","ios":"levelo://app?vid=cd6340a7-924f-4485-a4ee-84ec84bd352a"},"vehicle_type_id":"4","last_reported":1761030679,"current_range_meters":17200,"station_id":"ce4bhp92rcd13ifvqhbg","pricing_plan_id":"cebpf4jnsgd1na2vs0mg"},{"bike_id":"6ef6dcaa-161f-458a-a83d-f30ba346b451","system_id":"levelo_inurba_marseille","lat":43.273687,"lon":5.362739,"is_reserved":false,"is_disabled":false,"rental_uris":{"android":"levelo://app?vid=6ef6dcaa-161f-458a-a83d-f30ba346b451","ios":"levelo://app?vid=6ef6dcaa-161f-458a-a83d-f30ba346b451"},"vehicle_type_id":"4","last_reported":1761030679,"current_range_meters":17200,"station_id":"ce4bhbh2rcd13ifvqeo0","pricing_plan_id":"cebpf4jnsgd1na2vs0mg"},{"bike_id":"41b58aef-3184-4d2b-9643-02e2e3a5c594","system_id":"levelo_inurba_marseille","lat":43.27848,"lon":5.39224,"is_reserved":false,"is_disabled":false,"rental_uris":{"android":"levelo://app?vid=41b58aef-3184-4d2b-9643-02e2e3a5c594","ios":"levelo://app?vid=41b58aef-3184-4d2b-9643-02e2e3a5c594"},"vehicle_type_id":"4","last_reported":1761030679,"current_range_meters":17200,"station_id":"","pricing_plan_id":"cebpf4jnsgd1na2vs0mg"},{"bike_id":"620dd4b7-4e69-4f07-9aa5-dd1f620b4444","system_id":"levelo_inurba_marseille","lat":43.3094,"lon":5.39033,"is_reserved":false,"is_disabled":false,"rental_uris":{"android":"levelo://app?vid=620dd4b7-4e69-4f07-9aa5-dd1f620b4444","ios":"levelo://app?vid=620dd4b7-4e69-4f07-9aa5-dd1f620b4444"},"vehicle_type_id":"4","last_reported":1761030679,"current_range_meters":17200,"station_id":"ce4bgup2rcd13ifvqco0","pricing_plan_id":"cebpf4jnsgd1na2vs0mg"},{"bike_id":"b8bb927f-b40f-4b58-93b9-df7b33dba5af","system_id":"levelo_inurba_marseille","lat":43.313638,"lon":5.367986,"is_reserved":false,"is_disabled":false,"rental_uris":{"android":"levelo://app?vid=b8bb927f-b40f-4b58-93b9-df7b33dba5af","ios":"levelo://app?vid=b8bb927f-b40f-4b58-93b9-df7b33dba5af"},"vehicle_type_id":"4","last_reported":1761030679,"current_range_meters":17600,"station_id":"ce4bgl92rcd13ifvqbq0","pricing_plan_id":"cebpf4jnsgd1na2vs0mg"},{"bike_id":"6a48157a-656e-4cdd-821b-12b3ed021457","system_id":"levelo_inurba_marseille","lat":43.31939,"lon":5.42239,"is_reserved":false,"is_disabled":false,"rental_uris":{"android":"levelo://app?vid=6a48157a-656e-4cdd-821b-12b3ed021457","ios":"levelo://app?vid=6a48157a-656e-4cdd-821b-12b3ed021457"},"vehicle_type_id":"4","last_reported":1761030679,"current_range_meters":17600,"station_id":"","pricing_plan_id":"cebpf4jnsgd1na2vs0mg"},{"bike_id":"2c688d04-f7d7-4dd5-a73a-a59052c02461","system_id":"levelo_inurba_marseille","lat":43.24172,"lon":5.39717,"is_reserved":false,"is_disabled":false,"rental_uris":{"android":"levelo://app?vid=2c688d04-f7d7-4dd5-a73a-a59052c02461","ios":"levelo://app?vid=2c688d04-f7d7-4dd5-a73a-a59052c02461"},"vehicle_type_id":"4","last_reported":1761030679,"current_range_meters":17600,"station_id":"ce4bhn12rcd13ifvqgpg","pricing_plan_id":"cebpf4jnsgd1na2vs0mg"},{"bike_id":"ab4d8caa-343d-44e8-a035-8c31f8227a02","system_id":"levelo_inurba_marseille","lat":43.25339,"lon":5.42166,"is_reserved":false,"is_disabled":false,"rental_uris":{"android":"levelo://app?vid=ab4d8caa-343d-44e8-a035-8c31f8227a02","ios":"levelo://app?vid=ab4d8caa-343d-44e8-a035-8c31f8227a02"},"vehicle_type_id":"4","last_reported":1761030679,"current_range_meters":17600,"station_id":"st_d2m65c5bi1j21697t3ng","pricing_plan_id":"cebpf4jnsgd1na2vs0mg"},{"bike_id":"5722bbc0-e47b-4fbc-a8f9-0940ce8d1b64","system_id":"levelo_inurba_marseille","lat":43.273176,"lon":5.390692,"is_reserved":false,"is_disabled":false,"rental_uris":{"android":"levelo://app?vid=5722bbc0-e47b-4fbc-a8f9-0940ce8d1b64","ios":"levelo://app?vid=5722bbc0-e47b-4fbc-a8f9-0940ce8d1b64"},"vehicle_type_id":"4","last_reported":1761030679,"current_range_meters":18000,"station_id":"ce4bhgp2rcd13ifvqfe0","pricing_plan_id":"cebpf4jnsgd1na2vs0mg"},{"bike_id":"4707422c-1a9b-4393-a676-b1048506026a","system_id":"levelo_inurba_marseille","lat":43.31759,"lon":5.39013,"is_reserved":false,"is_disabled":false,"rental_uris":{"android":"levelo://app?vid=4707422c-1a9b-4393-a676-b1048506026a","ios":"levelo://app?vid=4707422c-1a9b-4393-a676-b1048506026a"},"vehicle_type_id":"4","last_reported":1761030679,"current_range_meters":18000,"station_id":"ce4bhqp2rcd13ifvqhng","pricing_plan_id":"cebpf4jnsgd1na2vs0mg"},{"bike_id":"bca2beeb-1c80-4383-8414-058ace1d3761","system_id":"levelo_inurba_marseille","lat":43.31476,"lon":5.3731,"is_reserved":false,"is_disabled":false,"rental_uris":{"android":"levelo://app?vid=bca2beeb-1c80-4383-8414-058ace1d3761","ios":"levelo://app?vid=bca2beeb-1c80-4383-8414-058ace1d3761"},"vehicle_type_id":"4","last_reported":1761030679,"current_range_meters":18000,"station_id":"ce4bgt12rcd13ifvqcd0","pricing_plan_id":"cebpf4jnsgd1na2vs0mg"},{"bike_id":"61e6a863-0066-4de8-ae54-8c929ce53728","system_id":"levelo_inurba_marseille","lat":43.280642,"lon":5.352788,"is_reserved":false,"is_disabled":false,"rental_uris":{"android":"levelo://app?vid=61e6a863-0066-4de8-ae54-8c929ce53728","ios":"levelo://app?vid=61e6a863-0066-4de8-ae54-8c929ce53728"},"vehicle_type_id":"4","last_reported":1761030679,"current_range_meters":18000,"station_id":"","pricing_plan_id":"cebpf4jnsgd1na2vs0mg"},{"bike_id":"5cfa14d3-4145-4361-820f-2a5e3cc48054","system_id":"levelo_inurba_marseille","lat":43.23155,"lon":5.43705,"is_reserved":false,"is_disabled":true,"rental_uris":{"android":"levelo://app?vid=5cfa14d3-4145-4361-820f-2a5e3cc48054","ios":"levelo://app?vid=5cfa14d3-4145-4361-820f-2a5e3cc48054"},"vehicle_type_id":"4","last_reported":1761030679,"current_range_meters":18000,"station_id":"ce4bhmp2rcd13ifvqgog","pricing_plan_id":"cebpf4jnsgd1na2vs0mg"},{"bike_id":"4e966834-7ec7-4494-bd46-79436902c148","system_id":"levelo_inurba_marseille","lat":43.2799,"lon":5.41634,"is_reserved":false,"is_disabled":false,"rental_uris":{"android":"levelo://app?vid=4e966834-7ec7-4494-bd46-79436902c148","ios":"levelo://app?vid=4e966834-7ec7-4494-bd46-79436902c148"},"vehicle_type_id":"4","last_reported":1761030679,"current_range_meters":18000,"station_id":"ce4bho12rcd13ifvqh1g","pricing_plan_id":"cebpf4jnsgd1na2vs0mg"},{"bike_id":"2a8b393e-daf3-4e1b-8bfb-bf3aabb3362e","system_id":"levelo_inurba_marseille","lat":43.24981,"lon":5.3895,"is_reserved":false,"is_disabled":false,"rental_uris":{"android":"levelo://app?vid=2a8b393e-daf3-4e1b-8bfb-bf3aabb3362e","ios":"levelo://app?vid=2a8b393e-daf3-4e1b-8bfb-bf3aabb3362e"},"vehicle_type_id":"4","last_reported":1761030679,"current_range_meters":18800,"station_id":"ce4bhgp2rcd13ifvqfd0","pricing_plan_id":"cebpf4jnsgd1na2vs0mg"},{"bike_id":"19d161e8-bdb1-48d8-88ff-07693965b158","system_id":"levelo_inurba_marseille","lat":43.31347,"lon":5.39694,"is_reserved":false,"is_disabled":true,"rental_uris":{"android":"levelo://app?vid=19d161e8-bdb1-48d8-88ff-07693965b158","ios":"levelo://app?vid=19d161e8-bdb1-48d8-88ff-07693965b158"},"vehicle_type_id":"4","last_reported":1761030679,"current_range_meters":18800,"station_id":"ce4bgvp2rcd13ifvqcu0","pricing_plan_id":"cebpf4jnsgd1na2vs0mg"},{"bike_id":"e14393ff-153e-47e8-ad27-6df8d5a1df10","system_id":"levelo_inurba_marseille","lat":43.30536,"lon":5.3843,"is_reserved":false,"is_disabled":false,"rental_uris":{"android":"levelo://app?vid=e14393ff-153e-47e8-ad27-6df8d5a1df10","ios":"levelo://app?vid=e14393ff-153e-47e8-ad27-6df8d5a1df10"},"vehicle_type_id":"4","last_reported":1761030679,"current_range_meters":18800,"station_id":"ce4bgg92rcd13ifvqb30","pricing_plan_id":"cebpf4jnsgd1na2vs0mg"},{"bike_id":"b28fffb8-6c71-450f-b7f7-37a879d2f470","system_id":"levelo_inurba_marseille","lat":43.30303,"lon":5.36907,"is_reserved":false,"is_disabled":false,"rental_uris":{"android":"levelo://app?vid=b28fffb8-6c71-450f-b7f7-37a879d2f470","ios":"levelo://app?vid=b28fffb8-6c71-450f-b7f7-37a879d2f470"},"vehicle_type_id":"4","last_reported":1761030679,"current_range_meters":18800,"station_id":"ce4bgqh2rcd13ifvqc5g","pricing_plan_id":"cebpf4jnsgd1na2vs0mg"},{"bike_id":"f1b8e04f-457e-461e-a0a7-0d512845fe50","system_id":"levelo_inurba_marseille","lat":43.34076,"lon":5.40411,"is_reserved":false,"is_disabled":false,"rental_uris":{"android":"levelo://app?vid=f1b8e04f-457e-461e-a0a7-0d512845fe50","ios":"levelo://app?vid=f1b8e04f-457e-461e-a0a7-0d512845fe50"},"vehicle_type_id":"4","last_reported":1761030679,"current_range_meters":18800,"station_id":"","pricing_plan_id":"cebpf4jnsgd1na2vs0mg"},{"bike_id":"5ed48d4f-acc1-4553-a38a-090ab8945c4b","system_id":"levelo_inurba_marseille","lat":43.2315,"lon":5.43717,"is_reserved":false,"is_disabled":false,"rental_uris":{"android":"levelo://app?vid=5ed48d4f-acc1-4553-a38a-090ab8945c4b","ios":"levelo://app?vid=5ed48d4f-acc1-4553-a38a-090ab8945c4b"},"vehicle_type_id":"4","last_reported":1761030679,"current_range_meters":19200,"station_id":"ce4bhmp2rcd13ifvqgog","pricing_plan_id":"cebpf4jnsgd1na2vs0mg"},{"bike_id":"d4420bba-5508-4d29-85ac-a3a7dd19c766","system_id":"levelo_inurba_marseille","lat":43.32278,"lon":5.36919,"is_reserved":false,"is_disabled":false,"rental_uris":{"android":"levelo://app?vid=d4420bba-5508-4d29-85ac-a3a7dd19c766","ios":"levelo://app?vid=d4420bba-5508-4d29-85ac-a3a7dd19c766"},"vehicle_type_id":"4","last_reported":1761030679,"current_range_meters":19200,"station_id":"","pricing_plan_id":"cebpf4jnsgd1na2vs0mg"},{"bike_id":"c71062df-2e0b-4447-9245-37625669e5c2","system_id":"levelo_inurba_marseille","lat":43.29304,"lon":5.40293,"is_reserved":false,"is_disabled":false,"rental_uris":{"android":"levelo://app?vid=c71062df-2e0b-4447-9245-37625669e5c2","ios":"levelo://app?vid=c71062df-2e0b-4447-9245-37625669e5c2"},"vehicle_type_id":"4","last_reported":1761030679,"current_range_meters":19200,"station_id":"","pricing_plan_id":"cebpf4jnsgd1na2vs0mg"},{"bike_id":"3925d695-f05e-437f-9bbd-4dca810fa489","system_id":"levelo_inurba_marseille","lat":43.24176,"lon":5.3973,"is_reserved":false,"is_disabled":false,"rental_uris":{"android":"levelo://app?vid=3925d695-f05e-437f-9bbd-4dca810fa489","ios":"levelo://app?vid=3925d695-f05e-437f-9bbd-4dca810fa489"},"vehicle_type_id":"4","last_reported":1761030679,"current_range_meters":19200,"station_id":"ce4bhn12rcd13ifvqgpg","pricing_plan_id":"cebpf4jnsgd1na2vs0mg"},{"bike_id":"ca1a6514-d1d9-4e2d-9484-17f346267c63","system_id":"levelo_inurba_marseille","lat":43.259114,"lon":5.409437,"is_reserved":false,"is_disabled":false,"rental_uris":{"android":"levelo://app?vid=ca1a6514-d1d9-4e2d-9484-17f346267c63","ios":"levelo://app?vid=ca1a6514-d1d9-4e2d-9484-17f346267c63"},"vehicle_type_id":"4","last_reported":1761030679,"current_range_meters":19200,"station_id":"ce4bhm92rcd13ifvqglg","pricing_plan_id":"cebpf4jnsgd1na2vs0mg"},{"bike_id":"7cbb33bc-9a43-4be9-b5f6-951bc36cd63d","system_id":"levelo_inurba_marseille","lat":43.285313,"lon":5.440904,"is_reserved":false,"is_disabled":false,"rental_uris":{"android":"levelo://app?vid=7cbb33bc-9a43-4be9-b5f6-951bc36cd63d","ios":"levelo://app?vid=7cbb33bc-9a43-4be9-b5f6-951bc36cd63d"},"vehicle_type_id":"4","last_reported":1761030679,"current_range_meters":19200,"station_id":"st_d3j3df2ikq2c7380ej80","pricing_plan_id":"cebpf4jnsgd1na2vs0mg"},{"bike_id":"0be23ad8-1101-4f02-84ff-b08bf105bf72","system_id":"levelo_inurba_marseille","lat":43.324793,"lon":5.365633,"is_reserved":false,"is_disabled":false,"rental_uris":{"android":"levelo://app?vid=0be23ad8-1101-4f02-84ff-b08bf105bf72","ios":"levelo://app?vid=0be23ad8-1101-4f02-84ff-b08bf105bf72"},"vehicle_type_id":"4","last_reported":1761030679,"current_range_meters":19200,"station_id":"ce4bhs12rcd13ifvqhvg","pricing_plan_id":"cebpf4jnsgd1na2vs0mg"},{"bike_id":"597316d9-5571-4897-913f-94a5515c73f4","system_id":"levelo_inurba_marseille","lat":43.31754,"lon":5.39829,"is_reserved":false,"is_disabled":false,"rental_uris":{"android":"levelo://app?vid=597316d9-5571-4897-913f-94a5515c73f4","ios":"levelo://app?vid=597316d9-5571-4897-913f-94a5515c73f4"},"vehicle_type_id":"4","last_reported":1761030679,"current_range_meters":19600,"station_id":"","pricing_plan_id":"cebpf4jnsgd1na2vs0mg"},{"bike_id":"2e0ad916-cc26-41f9-a605-84723a5bf629","system_id":"levelo_inurba_marseille","lat":43.24066,"lon":5.37769,"is_reserved":false,"is_disabled":false,"rental_uris":{"android":"levelo://app?vid=2e0ad916-cc26-41f9-a605-84723a5bf629","ios":"levelo://app?vid=2e0ad916-cc26-41f9-a605-84723a5bf629"},"vehicle_type_id":"4","last_reported":1761030679,"current_range_meters":19600,"station_id":"ce4bhnp2rcd13ifvqgvg","pricing_plan_id":"cebpf4jnsgd1na2vs0mg"},{"bike_id":"340893fa-6466-4bbf-993a-f14cc881476d","system_id":"levelo_inurba_marseille","lat":43.27959,"lon":5.38705,"is_reserved":false,"is_disabled":false,"rental_uris":{"android":"levelo://app?vid=340893fa-6466-4bbf-993a-f14cc881476d","ios":"levelo://app?vid=340893fa-6466-4bbf-993a-f14cc881476d"},"vehicle_type_id":"4","last_reported":1761030679,"current_range_meters":19600,"station_id":"ce4bhg12rcd13ifvqf80","pricing_plan_id":"cebpf4jnsgd1na2vs0mg"},{"bike_id":"64479fde-56d1-4eed-b840-ad463e5d5446","system_id":"levelo_inurba_marseille","lat":43.25934,"lon":5.408975,"is_reserved":false,"is_disabled":false,"rental_uris":{"android":"levelo://app?vid=64479fde-56d1-4eed-b840-ad463e5d5446","ios":"levelo://app?vid=64479fde-56d1-4eed-b840-ad463e5d5446"},"vehicle_type_id":"4","last_reported":1761030679,"current_range_meters":19600,"station_id":"ce501612rcd8frsf0b60","pricing_plan_id":"cebpf4jnsgd1na2vs0mg"},{"bike_id":"8f9a89d1-b530-458e-ba51-ac0567281271","system_id":"levelo_inurba_marseille","lat":43.262292,"lon":5.404334,"is_reserved":false,"is_disabled":false,"rental_uris":{"android":"levelo://app?vid=8f9a89d1-b530-458e-ba51-ac0567281271","ios":"levelo://app?vid=8f9a89d1-b530-458e-ba51-ac0567281271"},"vehicle_type_id":"4","last_reported":1761030679,"current_range_meters":19600,"station_id":"ce4bhmh2rcd13ifvqgmg","pricing_plan_id":"cebpf4jnsgd1na2vs0mg"},{"bike_id":"5d9d5ee4-0595-4bd6-b50a-fe8c4f69e861","system_id":"levelo_inurba_marseille","lat":43.284582,"lon":5.358884,"is_reserved":false,"is_disabled":false,"rental_uris":{"android":"levelo://app?vid=5d9d5ee4-0595-4bd6-b50a-fe8c4f69e861","ios":"levelo://app?vid=5d9d5ee4-0595-4bd6-b50a-fe8c4f69e861"},"vehicle_type_id":"4","last_reported":1761030679,"current_range_meters":19600,"station_id":"ce4bhah2rcd13ifvqei0","pricing_plan_id":"cebpf4jnsgd1na2vs0mg"},{"bike_id":"fb79eff2-d214-436b-a597-64a4f2b202de","system_id":"levelo_inurba_marseille","lat":43.28704,"lon":5.37383,"is_reserved":false,"is_disabled":false,"rental_uris":{"android":"levelo://app?vid=fb79eff2-d214-436b-a597-64a4f2b202de","ios":"levelo://app?vid=fb79eff2-d214-436b-a597-64a4f2b202de"},"vehicle_type_id":"4","last_reported":1761030679,"current_range_meters":19600,"station_id":"ce4bh3p2rcd13ifvqdq0","pricing_plan_id":"cebpf4jnsgd1na2vs0mg"},{"bike_id":"01dce118-88d2-410d-8f75-eeca3c181531","system_id":"levelo_inurba_marseille","lat":43.25921,"lon":5.40863,"is_reserved":false,"is_disabled":false,"rental_uris":{"android":"levelo://app?vid=01dce118-88d2-410d-8f75-eeca3c181531","ios":"levelo://app?vid=01dce118-88d2-410d-8f75-eeca3c181531"},"vehicle_type_id":"4","last_reported":1761030679,"current_range_meters":19600,"station_id":"ce4bhm92rcd13ifvqglg","pricing_plan_id":"cebpf4jnsgd1na2vs0mg"},{"bike_id":"4c14e694-67cf-4925-9ef2-399f92a5fcb2","system_id":"levelo_inurba_marseille","lat":43.25083,"lon":5.39506,"is_reserved":false,"is_disabled":false,"rental_uris":{"android":"levelo://app?vid=4c14e694-67cf-4925-9ef2-399f92a5fcb2","ios":"levelo://app?vid=4c14e694-67cf-4925-9ef2-399f92a5fcb2"},"vehicle_type_id":"4","last_reported":1761030679,"current_range_meters":19600,"station_id":"ce4bhm12rcd13ifvqgkg","pricing_plan_id":"cebpf4jnsgd1na2vs0mg"},{"bike_id":"563718c6-b159-446e-8eb4-4c123c51399e","system_id":"levelo_inurba_marseille","lat":43.25923,"lon":5.40892,"is_reserved":false,"is_disabled":false,"rental_uris":{"android":"levelo://app?vid=563718c6-b159-446e-8eb4-4c123c51399e","ios":"levelo://app?vid=563718c6-b159-446e-8eb4-4c123c51399e"},"vehicle_type_id":"4","last_reported":1761030679,"current_range_meters":19600,"station_id":"ce4bhm92rcd13ifvqglg","pricing_plan_id":"cebpf4jnsgd1na2vs0mg"},{"bike_id":"c5919c28-2681-4674-9b69-9622dfa383b6","system_id":"levelo_inurba_marseille","lat":43.24163,"lon":5.39731,"is_reserved":false,"is_disabled":false,"rental_uris":{"android":"levelo://app?vid=c5919c28-2681-4674-9b69-9622dfa383b6","ios":"levelo://app?vid=c5919c28-2681-4674-9b69-9622dfa383b6"},"vehicle_type_id":"4","last_reported":1761030679,"current_range_meters":20000,"station_id":"ce4bhn12rcd13ifvqgpg","pricing_plan_id":"cebpf4jnsgd1na2vs0mg"},{"bike_id":"fd205807-4312-48a0-ae74-c4330932c5cf","system_id":"levelo_inurba_marseille","lat":43.303388,"lon":5.368143,"is_reserved":false,"is_disabled":false,"rental_uris":{"android":"levelo://app?vid=fd205807-4312-48a0-ae74-c4330932c5cf","ios":"levelo://app?vid=fd205807-4312-48a0-ae74-c4330932c5cf"},"vehicle_type_id":"4","last_reported":1761030679,"current_range_meters":20000,"station_id":"","pricing_plan_id":"cebpf4jnsgd1na2vs0mg"},{"bike_id":"377c869a-024a-4525-8622-7f93ccb8bd6c","system_id":"levelo_inurba_marseille","lat":43.24087,"lon":5.37679,"is_reserved":false,"is_disabled":false,"rental_uris":{"android":"levelo://app?vid=377c869a-024a-4525-8622-7f93ccb8bd6c","ios":"levelo://app?vid=377c869a-024a-4525-8622-7f93ccb8bd6c"},"vehicle_type_id":"4","last_reported":1761030679,"current_range_meters":20000,"station_id":"ce4bhnp2rcd13ifvqgvg","pricing_plan_id":"cebpf4jnsgd1na2vs0mg"},{"bike_id":"7503f67a-369b-4c60-be2f-6e18d5286936","system_id":"levelo_inurba_marseille","lat":43.306024,"lon":5.372302,"is_reserved":false,"is_disabled":true,"rental_uris":{"android":"levelo://app?vid=7503f67a-369b-4c60-be2f-6e18d5286936","ios":"levelo://app?vid=7503f67a-369b-4c60-be2f-6e18d5286936"},"vehicle_type_id":"4","last_reported":1761030679,"current_range_meters":20000,"station_id":"","pricing_plan_id":"cebpf4jnsgd1na2vs0mg"},{"bike_id":"c4b2721d-79d1-43e4-99e7-4d1f8d3521f6","system_id":"levelo_inurba_marseille","lat":43.250982,"lon":5.403247,"is_reserved":false,"is_disabled":false,"rental_uris":{"android":"levelo://app?vid=c4b2721d-79d1-43e4-99e7-4d1f8d3521f6","ios":"levelo://app?vid=c4b2721d-79d1-43e4-99e7-4d1f8d3521f6"},"vehicle_type_id":"4","last_reported":1761030679,"current_range_meters":20400,"station_id":"ce4bhlh2rcd13ifvqgig","pricing_plan_id":"cebpf4jnsgd1na2vs0mg"},{"bike_id":"b618d211-a70a-495b-aa26-86f75eeb41fe","system_id":"levelo_inurba_marseille","lat":43.30533,"lon":5.36551,"is_reserved":false,"is_disabled":false,"rental_uris":{"android":"levelo://app?vid=b618d211-a70a-495b-aa26-86f75eeb41fe","ios":"levelo://app?vid=b618d211-a70a-495b-aa26-86f75eeb41fe"},"vehicle_type_id":"4","last_reported":1761030679,"current_range_meters":20400,"station_id":"ce4bgs12rcd13ifvqcag","pricing_plan_id":"cebpf4jnsgd1na2vs0mg"},{"bike_id":"690401d8-43e8-4326-a42e-86901aafa944","system_id":"levelo_inurba_marseille","lat":43.30284,"lon":5.3771,"is_reserved":false,"is_disabled":false,"rental_uris":{"android":"levelo://app?vid=690401d8-43e8-4326-a42e-86901aafa944","ios":"levelo://app?vid=690401d8-43e8-4326-a42e-86901aafa944"},"vehicle_type_id":"4","last_reported":1761030679,"current_range_meters":20400,"station_id":"ce4bguh2rcd13ifvqcj0","pricing_plan_id":"cebpf4jnsgd1na2vs0mg"},{"bike_id":"ae4de542-23a2-4aa1-8b6f-22fe294c6fcd","system_id":"levelo_inurba_marseille","lat":43.23141,"lon":5.43716,"is_reserved":false,"is_disabled":false,"rental_uris":{"android":"levelo://app?vid=ae4de542-23a2-4aa1-8b6f-22fe294c6fcd","ios":"levelo://app?vid=ae4de542-23a2-4aa1-8b6f-22fe294c6fcd"},"vehicle_type_id":"4","last_reported":1761030679,"current_range_meters":20400,"station_id":"ce4bhmp2rcd13ifvqgog","pricing_plan_id":"cebpf4jnsgd1na2vs0mg"},{"bike_id":"bbdd935a-4563-4787-8ea0-183157c51e7c","system_id":"levelo_inurba_marseille","lat":43.325352,"lon":5.414624,"is_reserved":false,"is_disabled":false,"rental_uris":{"android":"levelo://app?vid=bbdd935a-4563-4787-8ea0-183157c51e7c","ios":"levelo://app?vid=bbdd935a-4563-4787-8ea0-183157c51e7c"},"vehicle_type_id":"4","last_reported":1761030679,"current_range_meters":20400,"station_id":"ce4bhq12rcd13ifvqhhg","pricing_plan_id":"cebpf4jnsgd1na2vs0mg"},{"bike_id":"df74c337-d8f4-4fa3-bb9c-a73e8ee17fbe","system_id":"levelo_inurba_marseille","lat":43.23781,"lon":5.36638,"is_reserved":false,"is_disabled":false,"rental_uris":{"android":"levelo://app?vid=df74c337-d8f4-4fa3-bb9c-a73e8ee17fbe","ios":"levelo://app?vid=df74c337-d8f4-4fa3-bb9c-a73e8ee17fbe"},"vehicle_type_id":"4","last_reported":1761030679,"current_range_meters":20400,"station_id":"st_d3nk18o9ro0c73en2l3g","pricing_plan_id":"cebpf4jnsgd1na2vs0mg"},{"bike_id":"c534203c-d217-4bf9-a922-376414ca8e72","system_id":"levelo_inurba_marseille","lat":43.27351,"lon":5.36258,"is_reserved":false,"is_disabled":false,"rental_uris":{"android":"levelo://app?vid=c534203c-d217-4bf9-a922-376414ca8e72","ios":"levelo://app?vid=c534203c-d217-4bf9-a922-376414ca8e72"},"vehicle_type_id":"4","last_reported":1761030679,"current_range_meters":20400,"station_id":"ce4bhbh2rcd13ifvqeo0","pricing_plan_id":"cebpf4jnsgd1na2vs0mg"},{"bike_id":"1f5d6c45-2482-4ca5-b552-3105301cd284","system_id":"levelo_inurba_marseille","lat":43.290159,"lon":5.356151,"is_reserved":false,"is_disabled":false,"rental_uris":{"android":"levelo://app?vid=1f5d6c45-2482-4ca5-b552-3105301cd284","ios":"levelo://app?vid=1f5d6c45-2482-4ca5-b552-3105301cd284"},"vehicle_type_id":"4","last_reported":1761030679,"current_range_meters":20400,"station_id":"ce4bhb92rcd13ifvqen0","pricing_plan_id":"cebpf4jnsgd1na2vs0mg"},{"bike_id":"dbd0a377-713e-447d-a622-ddd050f93149","system_id":"levelo_inurba_marseille","lat":43.27046,"lon":5.42293,"is_reserved":false,"is_disabled":false,"rental_uris":{"android":"levelo://app?vid=dbd0a377-713e-447d-a622-ddd050f93149","ios":"levelo://app?vid=dbd0a377-713e-447d-a622-ddd050f93149"},"vehicle_type_id":"4","last_reported":1761030679,"current_range_meters":20400,"station_id":"ce4bhk92rcd13ifvqgb0","pricing_plan_id":"cebpf4jnsgd1na2vs0mg"},{"bike_id":"64634a09-82b9-4097-99ec-1aaa9aa729a2","system_id":"levelo_inurba_marseille","lat":43.31991,"lon":5.41291,"is_reserved":false,"is_disabled":false,"rental_uris":{"android":"levelo://app?vid=64634a09-82b9-4097-99ec-1aaa9aa729a2","ios":"levelo://app?vid=64634a09-82b9-4097-99ec-1aaa9aa729a2"},"vehicle_type_id":"4","last_reported":1761030679,"current_range_meters":20400,"station_id":"","pricing_plan_id":"cebpf4jnsgd1na2vs0mg"},{"bike_id":"ac411fa7-7f90-4b51-90db-6e3243b1fb81","system_id":"levelo_inurba_marseille","lat":43.25935,"lon":5.40896,"is_reserved":false,"is_disabled":false,"rental_uris":{"android":"levelo://app?vid=ac411fa7-7f90-4b51-90db-6e3243b1fb81","ios":"levelo://app?vid=ac411fa7-7f90-4b51-90db-6e3243b1fb81"},"vehicle_type_id":"4","last_reported":1761030679,"current_range_meters":20400,"station_id":"ce4bhm92rcd13ifvqglg","pricing_plan_id":"cebpf4jnsgd1na2vs0mg"},{"bike_id":"4b52b812-406e-44a4-b2e4-abb16e3cd7de","system_id":"levelo_inurba_marseille","lat":43.27197,"lon":5.39184,"is_reserved":false,"is_disabled":false,"rental_uris":{"android":"levelo://app?vid=4b52b812-406e-44a4-b2e4-abb16e3cd7de","ios":"levelo://app?vid=4b52b812-406e-44a4-b2e4-abb16e3cd7de"},"vehicle_type_id":"4","last_reported":1761030679,"current_range_meters":20400,"station_id":"ce4bhhp2rcd13ifvqfm0","pricing_plan_id":"cebpf4jnsgd1na2vs0mg"},{"bike_id":"3b070b15-dfc6-408e-b8a2-d1545ef10c0a","system_id":"levelo_inurba_marseille","lat":43.25933,"lon":5.40897,"is_reserved":false,"is_disabled":false,"rental_uris":{"android":"levelo://app?vid=3b070b15-dfc6-408e-b8a2-d1545ef10c0a","ios":"levelo://app?vid=3b070b15-dfc6-408e-b8a2-d1545ef10c0a"},"vehicle_type_id":"4","last_reported":1761030679,"current_range_meters":20400,"station_id":"ce4bhm92rcd13ifvqglg","pricing_plan_id":"cebpf4jnsgd1na2vs0mg"},{"bike_id":"4f3e3c5e-991f-4c9f-8464-64c534d4fa4d","system_id":"levelo_inurba_marseille","lat":43.32117,"lon":5.36765,"is_reserved":false,"is_disabled":false,"rental_uris":{"android":"levelo://app?vid=4f3e3c5e-991f-4c9f-8464-64c534d4fa4d","ios":"levelo://app?vid=4f3e3c5e-991f-4c9f-8464-64c534d4fa4d"},"vehicle_type_id":"4","last_reported":1761030679,"current_range_meters":20800,"station_id":"ce4bhrh2rcd13ifvqhug","pricing_plan_id":"cebpf4jnsgd1na2vs0mg"},