{"last_updated":1760789900,"ttl":60,"version":"2.2","data":{"bikes":[{"bike_id":"41d3dff0-3f26-46ae-a18d-c73f2e78c44b","system_id":"levelo_inurba_marseille","lat":43.27327,"lon":5.39079,"is_reserved":false,"is_disabled":false,"rental_uris":{"android":"levelo://app?vid=41d3dff0-3f26-46ae-a18d-c73f2e78c44b","ios":"levelo://app?vid=41d3dff0-3f26-46ae-a18d-c73f2e78c44b"},"vehicle_type_id":"4","last_reported":1760789900,"current_range_meters":2800,"station_id":"ce4bhgp2rcd13ifvqfe0","pricing_plan_id":"cebpf4jnsgd1na2vs0mg"},{"bike_id":"be1c4bc2-ea26-4165-ae2c-40ac4665f215","system_id":"levelo_inurba_marseille","lat":43.293027,"lon":5.427164,"is_reserved":false,"is_disabled":true,"rental_uris":{"android":"levelo://app?vid=be1c4bc2-ea26-4165-ae2c-40ac4665f215","ios":"levelo://app?vid=be1c4bc2-ea26-4165-ae2c-40ac4665f215"},"vehicle_type_id":"4","last_reported":1760789900,"current_range_meters":2800,"station_id":"","pricing_plan_id":"cebpf4jnsgd1na2vs0mg"},{"bike_id":"610b8c81-f02c-46e2-bd11-364ab5aca957","system_id":"levelo_inurba_marseille","lat":43.266796,"lon":5.38269,"is_reserved":false,"is_disabled":false,"rental_uris":{"android":"levelo://app?vid=610b8c81-f02c-46e2-bd11-364ab5aca957","ios":"levelo://app?vid=610b8c81-f02c-46e2-bd11-364ab5aca957"},"vehicle_type_id":"4","last_reported":1760789900,"current_range_meters":2800,"station_id":"ce4bhg92rcd13ifvqf90","pricing_plan_id":"cebpf4jnsgd1na2vs0mg"},{"bike_id":"817633a8-682e-41e8-8776-86dd808f4403","system_id":"levelo_inurba_marseille","lat":43.29258,"lon":5.38436,"is_reserved":false,"is_disabled":false,"rental_uris":{"android":"levelo://app?vid=817633a8-682e-41e8-8776-86dd808f4403","ios":"levelo://app?vid=817633a8-682e-41e8-8776-86dd808f4403"},"vehicle_type_id":"4","last_reported":1760789900,"current_range_meters":2800,"station_id":"ce4bh692rcd13ifvqea0","pricing_plan_id":"cebpf4jnsgd1na2vs0mg"},{"bike_id":"1829c76e-93e1-4d1a-9f6a-a1f53bde7c7d","system_id":"levelo_inurba_marseille","lat":43.28979,"lon":5.37832,"is_reserved":false,"is_disabled":false,"rental_uris":{"android":"levelo://app?vid=1829c76e-93e1-4d1a-9f6a-a1f53bde7c7d","ios":"levelo://app?vid=1829c76e-93e1-4d1a-9f6a-a1f53bde7c7d"},"vehicle_type_id":"4","last_reported":1760789900,"current_range_meters":3200,"station_id":"ce4bh9p2rcd13ifvqed0","pricing_plan_id":"cebpf4jnsgd1na2vs0mg"},{"bike_id":"9b24bd86-bae1-42ee-8201-83deeb21fd7b","system_id":"levelo_inurba_marseille","lat":43.28406,"lon":5.34973,"is_reserved":false,"is_disabled":false,"rental_uris":{"android":"levelo://app?vid=9b24bd86-bae1-42ee-8201-83deeb21fd7b","ios":"levelo://app?vid=9b24bd86-bae1-42ee-8201-83deeb21fd7b"},"vehicle_type_id":"4","last_reported":1760789900,"current_range_meters":3200,"station_id":"ce4bhbh2rcd13ifvqepg","pricing_plan_id":"cebpf4jnsgd1na2vs0mg"},{"bike_id":"c5a141e9-debf-4762-80ab-d6dd92db0503","system_id":"levelo_inurba_marseille","lat":43.30433,"lon":5.39744,"is_reserved":false,"is_disabled":false,"rental_uris":{"android":"levelo://app?vid=c5a141e9-debf-4762-80ab-d6dd92db0503","ios":"levelo://app?vid=c5a141e9-debf-4762-80ab-d6dd92db0503"},"vehicle_type_id":"4","last_reported":1760789900,"current_range_meters":3200,"station_id":"ce4bh092rcd13ifvqd20","pricing_plan_id":"cebpf4jnsgd1na2vs0mg"},{"bike_id":"395314b9-fea3-4a4a-8145-cf7ab2d4c961","system_id":"levelo_inurba_marseille","lat":43.32362,"lon":5.36755,"is_reserved":false,"is_disabled":false,"rental_uris":{"android":"levelo://app?vid=395314b9-fea3-4a4a-8145-cf7ab2d4c961","ios":"levelo://app?vid=395314b9-fea3-4a4a-8145-cf7ab2d4c961"},"vehicle_type_id":"4","last_reported":1760789900,"current_range_meters":3200,"station_id":"ce4bhsh2rcd13ifvqi2g","pricing_plan_id":"cebpf4jnsgd1na2vs0mg"},{"bike_id":"84133fce-a1ad-4720-9323-88d305e57936","system_id":"levelo_inurba_marseille","lat":43.22562,"lon":5.41625,"is_reserved":false,"is_disabled":false,"rental_uris":{"android":"levelo://app?vid=84133fce-a1ad-4720-9323-88d305e57936","ios":"levelo://app?vid=84133fce-a1ad-4720-9323-88d305e57936"},"vehicle_type_id":"4","last_reported":1760789900,"current_range_meters":3600,"station_id":"st_d2o4gvlbi1j2169b742g","pricing_plan_id":"cebpf4jnsgd1na2vs0mg"},{"bike_id":"a90bc47a-e0f7-454b-b304-96c4f5c6fabd","system_id":"levelo_inurba_marseille","lat":43.25,"lon":5.3892,"is_reserved":false,"is_disabled":false,"rental_uris":{"android":"levelo://app?vid=a90bc47a-e0f7-454b-b304-96c4f5c6fabd","ios":"levelo://app?vid=a90bc47a-e0f7-454b-b304-96c4f5c6fabd"},"vehicle_type_id":"4","last_reported":1760789900,"current_range_meters":3600,"station_id":"ce4bhgp2rcd13ifvqfd0","pricing_plan_id":"cebpf4jnsgd1na2vs0mg"},{"bike_id":"8ef35356-1607-412a-8585-2b3d7dc6b9e4","system_id":"levelo_inurba_marseille","lat":43.23151,"lon":5.43721,"is_reserved":false,"is_disabled":false,"rental_uris":{"android":"levelo://app?vid=8ef35356-1607-412a-8585-2b3d7dc6b9e4","ios":"levelo://app?vid=8ef35356-1607-412a-8585-2b3d7dc6b9e4"},"vehicle_type_id":"4","last_reported":1760789900,"current_range_meters":3600,"station_id":"ce4bhmp2rcd13ifvqgog","pricing_plan_id":"cebpf4jnsgd1na2vs0mg"},{"bike_id":"b40cfa63-91be-44d4-a916-eac274f98754","system_id":"levelo_inurba_marseille","lat":43.21742,"lon":5.34614,"is_reserved":false,"is_disabled":false,"rental_uris":{"android":"levelo://app?vid=b40cfa63-91be-44d4-a916-eac274f98754","ios":"levelo://app?vid=b40cfa63-91be-44d4-a916-eac274f98754"},"vehicle_type_id":"4","last_reported":1760789900,"current_range_meters":3600,"station_id":"","pricing_plan_id":"cebpf4jnsgd1na2vs0mg"},{"bike_id":"2c73a4c4-05fb-4866-922e-c5be4fd274f9","system_id":"levelo_inurba_marseille","lat":43.27376,"lon":5.36261,"is_reserved":false,"is_disabled":false,"rental_uris":{"android":"levelo://app?vid=2c73a4c4-05fb-4866-922e-c5be4fd274f9","ios":"levelo://app?vid=2c73a4c4-05fb-4866-922e-c5be4fd274f9"},"vehicle_type_id":"4","last_reported":1760789900,"current_range_meters":3600,"station_id":"ce4bhbh2rcd13ifvqeo0","pricing_plan_id":"cebpf4jnsgd1na2vs0mg"},{"bike_id":"b6556eb6-1b08-48db-81ba-f04eaa12cfdc","system_id":"levelo_inurba_marseille","lat":43.216774,"lon":5.346385,"is_reserved":false,"is_disabled":false,"rental_uris":{"android":"levelo://app?vid=b6556eb6-1b08-48db-81ba-f04eaa12cfdc","ios":"levelo://app?vid=b6556eb6-1b08-48db-81ba-f04eaa12cfdc"},"vehicle_type_id":"4","last_reported":1760789900,"current_range_meters":4000,"station_id":"","pricing_plan_id":"cebpf4jnsgd1na2vs0mg"},{"bike_id":"82de9a28-590c-4748-bb79-6aa631852fb6","system_id":"levelo_inurba_marseille","lat":43.25498,"lon":5.3765,"is_reserved":false,"is_disabled":false,"rental_uris":{"android":"levelo://app?vid=82de9a28-590c-4748-bb79-6aa631852fb6","ios":"levelo://app?vid=82de9a28-590c-4748-bb79-6aa631852fb6"},"vehicle_type_id":"4","last_reported":1760789900,"current_range_meters":4000,"station_id":"ce4bhh12rcd13ifvqff0","pricing_plan_id":"cebpf4jnsgd1na2vs0mg"},{"bike_id":"47b6a661-48b8-461f-9827-f48295e67bbf","system_id":"levelo_inurba_marseille","lat":43.26309,"lon":5.39825,"is_reserved":false,"is_disabled":false,"rental_uris":{"android":"levelo://app?vid=47b6a661-48b8-461f-9827-f48295e67bbf","ios":"levelo://app?vid=47b6a661-48b8-461f-9827-f48295e67bbf"},"vehicle_type_id":"4","last_reported":1760789900,"current_range_meters":4000,"station_id":"","pricing_plan_id":"cebpf4jnsgd1na2vs0mg"},{"bike_id":"dcbca3d0-5817-4e7d-b2ed-65473920904b","system_id":"levelo_inurba_marseille","lat":43.303114,"lon":5.369047,"is_reserved":false,"is_disabled":false,"rental_uris":{"android":"levelo://app?vid=dcbca3d0-5817-4e7d-b2ed-65473920904b","ios":"levelo://app?vid=dcbca3d0-5817-4e7d-b2ed-65473920904b"},"vehicle_type_id":"4","last_reported":1760789900,"current_range_meters":4000,"station_id":"ce4bgqh2rcd13ifvqc5g","pricing_plan_id":"cebpf4jnsgd1na2vs0mg"},{"bike_id":"121f55c8-5a85-4142-a96c-bf52eb873442","system_id":"levelo_inurba_marseille","lat":43.304685,"lon":5.369208,"is_reserved":false,"is_disabled":false,"rental_uris":{"android":"levelo://app?vid=121f55c8-5a85-4142-a96c-bf52eb873442","ios":"levelo://app?vid=121f55c8-5a85-4142-a96c-bf52eb873442"},"vehicle_type_id":"4","last_reported":1760789900,"current_range_meters":4000,"station_id":"","pricing_plan_id":"cebpf4jnsgd1na2vs0mg"},{"bike_id":"936d99cf-0187-4346-8cb0-aabb313b88c5","system_id":"levelo_inurba_marseille","lat":43.29614,"lon":5.37719,"is_reserved":false,"is_disabled":false,"rental_uris":{"android":"levelo://app?vid=936d99cf-0187-4346-8cb0-aabb313b88c5","ios":"levelo://app?vid=936d99cf-0187-4346-8cb0-aabb313b88c5"},"vehicle_type_id":"4","last_reported":1760789900,"current_range_meters":4400,"station_id":"ce4bgi92rcd13ifvqb90","pricing_plan_id":"cebpf4jnsgd1na2vs0mg"},{"bike_id":"27694597-c34c-4493-89c1-e48b805267f2","system_id":"levelo_inurba_marseille","lat":43.27324,"lon":5.39067,"is_reserved":false,"is_disabled":false,"rental_uris":{"android":"levelo://app?vid=27694597-c34c-4493-89c1-e48b805267f2","ios":"levelo://app?vid=27694597-c34c-4493-89c1-e48b805267f2"},"vehicle_type_id":"4","last_reported":1760789900,"current_range_meters":4400,"station_id":"ce4bhgp2rcd13ifvqfe0","pricing_plan_id":"cebpf4jnsgd1na2vs0mg"},{"bike_id":"5959b819-a2fd-4cd9-b685-c1861816e5d0","system_id":"levelo_inurba_marseille","lat":43.268837,"lon":5.369304,"is_reserved":false,"is_disabled":false,"rental_uris":{"android":"levelo://app?vid=5959b819-a2fd-4cd9-b685-c1861816e5d0","ios":"levelo://app?vid=5959b819-a2fd-4cd9-b685-c1861816e5d0"},"vehicle_type_id":"4","last_reported":1760789900,"current_range_meters":4400,"station_id":"","pricing_plan_id":"cebpf4jnsgd1na2vs0mg"},{"bike_id":"4d01285c-1bd5-4edc-a382-43bb35e7dfd5","system_id":"levelo_inurba_marseille","lat":43.305351,"lon":5.365558,"is_reserved":false,"is_disabled":false,"rental_uris":{"android":"levelo://app?vid=4d01285c-1bd5-4edc-a382-43bb35e7dfd5","ios":"levelo://app?vid=4d01285c-1bd5-4edc-a382-43bb35e7dfd5"},"vehicle_type_id":"4","last_reported":1760789900,"current_range_meters":4400,"station_id":"ce4bgs12rcd13ifvqcag","pricing_plan_id":"cebpf4jnsgd1na2vs0mg"},{"bike_id":"87b21393-d01f-436c-ab53-3a176b43c24a","system_id":"levelo_inurba_marseille","lat":43.28926,"lon":5.38402,"is_reserved":false,"is_disabled":true,"rental_uris":{"android":"levelo://app?vid=87b21393-d01f-436c-ab53-3a176b43c24a","ios":"levelo://app?vid=87b21393-d01f-436c-ab53-3a176b43c24a"},"vehicle_type_id":"4","last_reported":1760789900,"current_range_meters":4400,"station_id":"ce4bh612rcd13ifvqe6g","pricing_plan_id":"cebpf4jnsgd1na2vs0mg"},{"bike_id":"6704ec32-7822-4a9f-bb55-1d0d7191240f","system_id":"levelo_inurba_marseille","lat":43.217461,"lon":5.34594,"is_reserved":false,"is_disabled":false,"rental_uris":{"android":"levelo://app?vid=6704ec32-7822-4a9f-bb55-1d0d7191240f","ios":"levelo://app?vid=6704ec32-7822-4a9f-bb55-1d0d7191240f"},"vehicle_type_id":"4","last_reported":1760789900,"current_range_meters":4800,"station_id":"st_cvj6r9ubvosntc0bgbag","pricing_plan_id":"cebpf4jnsgd1na2vs0mg"},{"bike_id":"98ac17c7-d183-4875-955c-4cdbdf675245","system_id":"levelo_inurba_marseille","lat":43.29847,"lon":5.36278,"is_reserved":false,"is_disabled":false,"rental_uris":{"android":"levelo://app?vid=98ac17c7-d183-4875-955c-4cdbdf675245","ios":"levelo://app?vid=98ac17c7-d183-4875-955c-4cdbdf675245"},"vehicle_type_id":"4","last_reported":1760789900,"current_range_meters":4800,"station_id":"ce4bgpp2rcd13ifvqc3g","pricing_plan_id":"cebpf4jnsgd1na2vs0mg"},{"bike_id":"e257a5c9-b99e-4af1-ac4f-b017f1c8b418","system_id":"levelo_inurba_marseille","lat":43.33759,"lon":5.37438,"is_reserved":false,"is_disabled":false,"rental_uris":{"android":"levelo://app?vid=e257a5c9-b99e-4af1-ac4f-b017f1c8b418","ios":"levelo://app?vid=e257a5c9-b99e-4af1-ac4f-b017f1c8b418"},"vehicle_type_id":"4","last_reported":1760789900,"current_range_meters":4800,"station_id":"","pricing_plan_id":"cebpf4jnsgd1na2vs0mg"},{"bike_id":"04440f7f-3b63-418d-b6a4-68e54cf0e452","system_id":"levelo_inurba_marseille","lat":43.23152,"lon":5.43705,"is_reserved":false,"is_disabled":false,"rental_uris":{"android":"levelo://app?vid=04440f7f-3b63-418d-b6a4-68e54cf0e452","ios":"levelo://app?vid=04440f7f-3b63-418d-b6a4-68e54cf0e452"},"vehicle_type_id":"4","last_reported":1760789900,"current_range_meters":4800,"station_id":"ce4bhmp2rcd13ifvqgog","pricing_plan_id":"cebpf4jnsgd1na2vs0mg"},{"bike_id":"f98e5ebc-e2ff-4feb-a2b0-d5b9efeea158","system_id":"levelo_inurba_marseille","lat":43.27977,"lon":5.38733,"is_reserved":false,"is_disabled":false,"rental_uris":{"android":"levelo://app?vid=f98e5ebc-e2ff-4feb-a2b0-d5b9efeea158","ios":"levelo://app?vid=f98e5ebc-e2ff-4feb-a2b0-d5b9efeea158"},"vehicle_type_id":"4","last_reported":1760789900,"current_range_meters":5600,"station_id":"ce4bhg12rcd13ifvqf80","pricing_plan_id":"cebpf4jnsgd1na2vs0mg"},{"bike_id":"5b274a87-68c6-4b05-9611-a0314b1c62e5","system_id":"levelo_inurba_marseille","lat":43.27371,"lon":5.36254,"is_reserved":false,"is_disabled":false,"rental_uris":{"android":"levelo://app?vid=5b274a87-68c6-4b05-9611-a0314b1c62e5","ios":"levelo://app?vid=5b274a87-68c6-4b05-9611-a0314b1c62e5"},"vehicle_type_id":"4","last_reported":1760789900,"current_range_meters":5600,"station_id":"ce4bhbh2rcd13ifvqeo0","pricing_plan_id":"cebpf4jnsgd1na2vs0mg"},{"bike_id":"327996b0-91ad-4557-a47f-bca602b63fdd","system_id":"levelo_inurba_marseille","lat":43.23154,"lon":5.43696,"is_reserved":false,"is_disabled":false,"rental_uris":{"android":"levelo://app?vid=327996b0-91ad-4557-a47f-bca602b63fdd","ios":"levelo://app?vid=327996b0-91ad-4557-a47f-bca602b63fdd"},"vehicle_type_id":"4","last_reported":1760789900,"current_range_meters":6000,"station_id":"ce4bhmp2rcd13ifvqgog","pricing_plan_id":"cebpf4jnsgd1na2vs0mg"},{"bike_id":"d8d36ce0-45b8-4a5d-a979-b453f3323a64","system_id":"levelo_inurba_marseille","lat":43.290463,"lon":5.359261,"is_reserved":false,"is_disabled":false,"rental_uris":{"android":"levelo://app?vid=d8d36ce0-45b8-4a5d-a979-b453f3323a64","ios":"levelo://app?vid=d8d36ce0-45b8-4a5d-a979-b453f3323a64"},"vehicle_type_id":"4","last_reported":1760789900,"current_range_meters":6000,"station_id":"ce4bha92rcd13ifvqeg0","pricing_plan_id":"cebpf4jnsgd1na2vs0mg"},{"bike_id":"8eaf4f5d-8d00-4322-be6d-1c9df5a5aa4f","system_id":"levelo_inurba_marseille","lat":43.273771,"lon":5.362602,"is_reserved":false,"is_disabled":false,"rental_uris":{"android":"levelo://app?vid=8eaf4f5d-8d00-4322-be6d-1c9df5a5aa4f","ios":"levelo://app?vid=8eaf4f5d-8d00-4322-be6d-1c9df5a5aa4f"},"vehicle_type_id":"4","last_reported":1760789900,"current_range_meters":6000,"station_id":"ce4bhbh2rcd13ifvqeo0","pricing_plan_id":"cebpf4jnsgd1na2vs0mg"},{"bike_id":"8608944b-7bfa-4df9-a45d-ff334ddc8b08","system_id":"levelo_inurba_marseille","lat":43.28368,"lon":5.38635,"is_reserved":false,"is_disabled":false,"rental_uris":{"android":"levelo://app?vid=8608944b-7bfa-4df9-a45d-ff334ddc8b08","ios":"levelo://app?vid=8608944b-7bfa-4df9-a45d-ff334ddc8b08"},"vehicle_type_id":"4","last_reported":1760789900,"current_range_meters":6000,"station_id":"ce4bh492rcd13ifvqdvg","pricing_plan_id":"cebpf4jnsgd1na2vs0mg"},{"bike_id":"fb1c64bf-c4f5-444c-bea0-bac944baffc1","system_id":"levelo_inurba_marseille","lat":43.25866,"lon":5.39896,"is_reserved":false,"is_disabled":false,"rental_uris":{"android":"levelo://app?vid=fb1c64bf-c4f5-444c-bea0-bac944baffc1","ios":"levelo://app?vid=fb1c64bf-c4f5-444c-bea0-bac944baffc1"},"vehicle_type_id":"4","last_reported":1760789900,"current_range_meters":6000,"station_id":"ce4bhl92rcd13ifvqghg","pricing_plan_id":"cebpf4jnsgd1na2vs0mg"},{"bike_id":"63ee9bc2-0a43-4f25-97d9-8b5222ed54a5","system_id":"levelo_inurba_marseille","lat":43.23152,"lon":5.43702,"is_reserved":false,"is_disabled":false,"rental_uris":{"android":"levelo://app?vid=63ee9bc2-0a43-4f25-97d9-8b5222ed54a5","ios":"levelo://app?vid=63ee9bc2-0a43-4f25-97d9-8b5222ed54a5"},"vehicle_type_id":"4","last_reported":1760789900,"current_range_meters":6000,"station_id":"ce4bhmp2rcd13ifvqgog","pricing_plan_id":"cebpf4jnsgd1na2vs0mg"},{"bike_id":"319ca0b6-643b-48b4-abfd-ce9e2dffe92f","system_id":"levelo_inurba_marseille","lat":43.2257,"lon":5.41626,"is_reserved":false,"is_disabled":false,"rental_uris":{"android":"levelo://app?vid=319ca0b6-643b-48b4-abfd-ce9e2dffe92f","ios":"levelo://app?vid=319ca0b6-643b-48b4-abfd-ce9e2dffe92f"},"vehicle_type_id":"4","last_reported":1760789900,"current_range_meters":6400,"station_id":"st_d2o4gvlbi1j2169b742g","pricing_plan_id":"cebpf4jnsgd1na2vs0mg"},{"bike_id":"b8e70e8e-9e5e-44c2-bbe9-89a81e60f642","system_id":"levelo_inurba_marseille","lat":43.28613,"lon":5.35107,"is_reserved":false,"is_disabled":false,"rental_uris":{"android":"levelo://app?vid=b8e70e8e-9e5e-44c2-bbe9-89a81e60f642","ios":"levelo://app?vid=b8e70e8e-9e5e-44c2-bbe9-89a81e60f642"},"vehicle_type_id":"4","last_reported":1760789900,"current_range_meters":6400,"station_id":"ce4bhch2rcd13ifvqeug","pricing_plan_id":"cebpf4jnsgd1na2vs0mg"},{"bike_id":"24d82d64-1145-442f-a9f5-19238b0b39ef","system_id":"levelo_inurba_marseille","lat":43.272133,"lon":5.391866,"is_reserved":false,"is_disabled":false,"rental_uris":{"android":"levelo://app?vid=24d82d64-1145-442f-a9f5-19238b0b39ef","ios":"levelo://app?vid=24d82d64-1145-442f-a9f5-19238b0b39ef"},"vehicle_type_id":"4","last_reported":1760789900,"current_range_meters":6400,"station_id":"","pricing_plan_id":"cebpf4jnsgd1na2vs0mg"},{"bike_id":"ac660fd9-2aee-483f-9071-874fb58ed5fd","system_id":"levelo_inurba_marseille","lat":43.26209,"lon":5.37918,"is_reserved":false,"is_disabled":false,"rental_uris":{"android":"levelo://app?vid=ac660fd9-2aee-483f-9071-874fb58ed5fd","ios":"levelo://app?vid=ac660fd9-2aee-483f-9071-874fb58ed5fd"},"vehicle_type_id":"4","last_reported":1760789900,"current_range_meters":6400,"station_id":"ce4bhjp2rcd13ifvqg90","pricing_plan_id":"cebpf4jnsgd1na2vs0mg"},{"bike_id":"cbf933e7-2dc3-4893-83dc-e1ec97c1274e","system_id":"levelo_inurba_marseille","lat":43.24813,"lon":5.3746,"is_reserved":false,"is_disabled":false,"rental_uris":{"android":"levelo://app?vid=cbf933e7-2dc3-4893-83dc-e1ec97c1274e","ios":"levelo://app?vid=cbf933e7-2dc3-4893-83dc-e1ec97c1274e"},"vehicle_type_id":"4","last_reported":1760789900,"current_range_meters":6400,"station_id":"ce4bhgh2rcd13ifvqfb0","pricing_plan_id":"cebpf4jnsgd1na2vs0mg"},{"bike_id":"8de21148-2ca1-4ff4-a17e-c30258330ba0","system_id":"levelo_inurba_marseille","lat":43.26026,"lon":5.37535,"is_reserved":false,"is_disabled":false,"rental_uris":{"android":"levelo://app?vid=8de21148-2ca1-4ff4-a17e-c30258330ba0","ios":"levelo://app?vid=8de21148-2ca1-4ff4-a17e-c30258330ba0"},"vehicle_type_id":"4","last_reported":1760789900,"current_range_meters":6400,"station_id":"ce4bhgh2rcd13ifvqfa0","pricing_plan_id":"cebpf4jnsgd1na2vs0mg"},{"bike_id":"d0cc9fcc-7813-42c3-9dc8-25282c5036af","system_id":"levelo_inurba_marseille","lat":43.2949,"lon":5.43309,"is_reserved":false,"is_disabled":false,"rental_uris":{"android":"levelo://app?vid=d0cc9fcc-7813-42c3-9dc8-25282c5036af","ios":"levelo://app?vid=d0cc9fcc-7813-42c3-9dc8-25282c5036af"},"vehicle_type_id":"4","last_reported":1760789900,"current_range_meters":6400,"station_id":"st_d3j5ugp08ojc73fj9d10","pricing_plan_id":"cebpf4jnsgd1na2vs0mg"},{"bike_id":"87e1a569-ab31-4d7a-b88b-396490051ac0","system_id":"levelo_inurba_marseille","lat":43.26561,"lon":5.37285,"is_reserved":false,"is_disabled":false,"rental_uris":{"android":"levelo://app?vid=87e1a569-ab31-4d7a-b88b-396490051ac0","ios":"levelo://app?vid=87e1a569-ab31-4d7a-b88b-396490051ac0"},"vehicle_type_id":"4","last_reported":1760789900,"current_range_meters":6800,"station_id":"ce4bhg12rcd13ifvqf70","pricing_plan_id":"cebpf4jnsgd1na2vs0mg"},{"bike_id":"7e3fb54d-5c98-4776-8294-28df74477e01","system_id":"levelo_inurba_marseille","lat":43.21744,"lon":5.34617,"is_reserved":false,"is_disabled":false,"rental_uris":{"android":"levelo://app?vid=7e3fb54d-5c98-4776-8294-28df74477e01","ios":"levelo://app?vid=7e3fb54d-5c98-4776-8294-28df74477e01"},"vehicle_type_id":"4","last_reported":1760789900,"current_range_meters":6800,"station_id":"st_cvj6r9ubvosntc0bgbag","pricing_plan_id":"cebpf4jnsgd1na2vs0mg"},{"bike_id":"b198fdae-a02e-4380-b40a-23fa0f5e4197","system_id":"levelo_inurba_marseille","lat":43.28626,"lon":5.40685,"is_reserved":false,"is_disabled":false,"rental_uris":{"android":"levelo://app?vid=b198fdae-a02e-4380-b40a-23fa0f5e4197","ios":"levelo://app?vid=b198fdae-a02e-4380-b40a-23fa0f5e4197"},"vehicle_type_id":"4","last_reported":1760789900,"current_range_meters":6800,"station_id":"","pricing_plan_id":"cebpf4jnsgd1na2vs0mg"},{"bike_id":"d4ced81e-85ad-4edc-9ace-80838a4beb11","system_id":"levelo_inurba_marseille","lat":43.29794,"lon":5.38109,"is_reserved":false,"is_disabled":false,"rental_uris":{"android":"levelo://app?vid=d4ced81e-85ad-4edc-9ace-80838a4beb11","ios":"levelo://app?vid=d4ced81e-85ad-4edc-9ace-80838a4beb11"},"vehicle_type_id":"4","last_reported":1760789900,"current_range_meters":6800,"station_id":"ce4bgip2rcd13ifvqbb0","pricing_plan_id":"cebpf4jnsgd1na2vs0mg"},{"bike_id":"de4a6fe3-7933-49ef-acd8-e33c2163ee8e","system_id":"levelo_inurba_marseille","lat":43.3089,"lon":5.39657,"is_reserved":false,"is_disabled":false,"rental_uris":{"android":"levelo://app?vid=de4a6fe3-7933-49ef-acd8-e33c2163ee8e","ios":"levelo://app?vid=de4a6fe3-7933-49ef-acd8-e33c2163ee8e"},"vehicle_type_id":"4","last_reported":1760789900,"current_range_meters":7200,"station_id":"ce4bh012rcd13ifvqcv0","pricing_plan_id":"cebpf4jnsgd1na2vs0mg"},{"bike_id":"ce22aa26-2bab-43f4-8a44-5a6373938971","system_id":"levelo_inurba_marseille","lat":43.27903,"lon":5.38011,"is_reserved":false,"is_disabled":false,"rental_uris":{"android":"levelo://app?vid=ce22aa26-2bab-43f4-8a44-5a6373938971","ios":"levelo://app?vid=ce22aa26-2bab-43f4-8a44-5a6373938971"},"vehicle_type_id":"4","last_reported":1760789900,"current_range_meters":7200,"station_id":"ce4bhf92rcd13ifvqf50","pricing_plan_id":"cebpf4jnsgd1na2vs0mg"},{"bike_id":"69cab692-339c-4fd6-af73-0563afe32d04","system_id":"levelo_inurba_marseille","lat":43.231519,"lon":5.437231,"is_reserved":false,"is_disabled":false,"rental_uris":{"android":"levelo://app?vid=69cab692-339c-4fd6-af73-0563afe32d04","ios":"levelo://app?vid=69cab692-339c-4fd6-af73-0563afe32d04"},"vehicle_type_id":"4","last_reported":1760789900,"current_range_meters":7200,"station_id":"ce4bhmp2rcd13ifvqgog","pricing_plan_id":"cebpf4jnsgd1na2vs0mg"},{"bike_id":"e6fa02b1-1d32-4f92-bc22-b739f0ec4b58","system_id":"levelo_inurba_marseille","lat":43.29887,"lon":5.43654,"is_reserved":false,"is_disabled":false,"rental_uris":{"android":"levelo://app?vid=e6fa02b1-1d32-4f92-bc22-b739f0ec4b58","ios":"levelo://app?vid=e6fa02b1-1d32-4f92-bc22-b739f0ec4b58"},"vehicle_type_id":"4","last_reported":1760789900,"current_range_meters":7200,"station_id":"ce4bhpp2rcd13ifvqhfg","pricing_plan_id":"cebpf4jnsgd1na2vs0mg"},{"bike_id":"416f580b-31c7-4ade-8604-dbd86eb8155f","system_id":"levelo_inurba_marseille","lat":43.281693,"lon":5.421243,"is_reserved":false,"is_disabled":false,"rental_uris":{"android":"levelo://app?vid=416f580b-31c7-4ade-8604-dbd86eb8155f","ios":"levelo://app?vid=416f580b-31c7-4ade-8604-dbd86eb8155f"},"vehicle_type_id":"4","last_reported":1760789900,"current_range_meters":7200,"station_id":"","pricing_plan_id":"cebpf4jnsgd1na2vs0mg"},{"bike_id":"edc2b540-f4d1-424e-9002-80823ed0b6b2","system_id":"levelo_inurba_marseille","lat":43.28384,"lon":5.370152,"is_reserved":false,"is_disabled":false,"rental_uris":{"android":"levelo://app?vid=edc2b540-f4d1-424e-9002-80823ed0b6b2","ios":"levelo://app?vid=edc2b540-f4d1-424e-9002-80823ed0b6b2"},"vehicle_type_id":"4","last_reported":1760789900,"current_range_meters":7200,"station_id":"","pricing_plan_id":"cebpf4jnsgd1na2vs0mg"},{"bike_id":"ca2df21f-1833-4103-8b3c-b9606e282b1c","system_id":"levelo_inurba_marseille","lat":43.28659,"lon":5.36343,"is_reserved":false,"is_disabled":false,"rental_uris":{"android":"levelo://app?vid=ca2df21f-1833-4103-8b3c-b9606e282b1c","ios":"levelo://app?vid=ca2df21f-1833-4103-8b3c-b9606e282b1c"},"vehicle_type_id":"4","last_reported":1760789900,"current_range_meters":7200,"station_id":"ce4bhah2rcd13ifvqej0","pricing_plan_id":"cebpf4jnsgd1na2vs0mg"},{"bike_id":"71d82a8e-0981-4182-bc82-25900158af0d","system_id":"levelo_inurba_marseille","lat":43.21738,"lon":5.34611,"is_reserved":false,"is_disabled":false,"rental_uris":{"android":"levelo://app?vid=71d82a8e-0981-4182-bc82-25900158af0d","ios":"levelo://app?vid=71d82a8e-0981-4182-bc82-25900158af0d"},"vehicle_type_id":"4","last_reported":1760789900,"current_range_meters":7200,"station_id":"","pricing_plan_id":"cebpf4jnsgd1na2vs0mg"},{"bike_id":"4afcb498-b105-4a2e-8f60-0cbd0a76d5ff","system_id":"levelo_inurba_marseille","lat":43.273879,"lon":5.362555,"is_reserved":false,"is_disabled":false,"rental_uris":{"android":"levelo://app?vid=4afcb498-b105-4a2e-8f60-0cbd0a76d5ff","ios":"levelo://app?vid=4afcb498-b105-4a2e-8f60-0cbd0a76d5ff"},"vehicle_type_id":"4","last_reported":1760789900,"current_range_meters":7200,"station_id":"ce4bhbp2rcd13ifvqerg","pricing_plan_id":"cebpf4jnsgd1na2vs0mg"},{"bike_id":"cfb3fcf1-7d43-4247-8d54-ff93bd89ba87","system_id":"levelo_inurba_marseille","lat":43.30713,"lon":5.39705,"is_reserved":false,"is_disabled":false,"rental_uris":{"android":"levelo://app?vid=cfb3fcf1-7d43-4247-8d54-ff93bd89ba87","ios":"levelo://app?vid=cfb3fcf1-7d43-4247-8d54-ff93bd89ba87"},"vehicle_type_id":"4","last_reported":1760789900,"current_range_meters":7200,"station_id":"","pricing_plan_id":"cebpf4jnsgd1na2vs0mg"},{"bike_id":"9dd1d8fe-c2a8-4a70-a175-61f5f9fe7fd2","system_id":"levelo_inurba_marseille","lat":43.32187,"lon":5.38728,"is_reserved":false,"is_disabled":false,"rental_uris":{"android":"levelo://app?vid=9dd1d8fe-c2a8-4a70-a175-61f5f9fe7fd2","ios":"levelo://app?vid=9dd1d8fe-c2a8-4a70-a175-61f5f9fe7fd2"},"vehicle_type_id":"4","last_reported":1760789900,"current_range_meters":8000,"station_id":"","pricing_plan_id":"cebpf4jnsgd1na2vs0mg"},{"bike_id":"0f72a2a7-807e-4f42-8cc3-860d9d4a9105","system_id":"levelo_inurba_marseille","lat":43.21736,"lon":5.3461,"is_reserved":false,"is_disabled":false,"rental_uris":{"android":"levelo://app?vid=0f72a2a7-807e-4f42-8cc3-860d9d4a9105","ios":"levelo://app?vid=0f72a2a7-807e-4f42-8cc3-860d9d4a9105"},"vehicle_type_id":"4","last_reported":1760789900,"current_range_meters":8000,"station_id":"","pricing_plan_id":"cebpf4jnsgd1na2vs0mg"},{"bike_id":"5556543b-c8ce-4c3c-8d65-609e8f5df9de","system_id":"levelo_inurba_marseille","lat":43.217433,"lon":5.346024,"is_reserved":false,"is_disabled":false,"rental_uris":{"android":"levelo://app?vid=5556543b-c8ce-4c3c-8d65-609e8f5df9de","ios":"levelo://app?vid=5556543b-c8ce-4c3c-8d65-609e8f5df9de"},"vehicle_type_id":"4","last_reported":1760789900,"current_range_meters":8000,"station_id":"","pricing_plan_id":"cebpf4jnsgd1na2vs0mg"},{"bike_id":"8e7dcb0e-65b8-4597-834d-3673bacf15fb","system_id":"levelo_inurba_marseille","lat":43.27072,"lon":5.42273,"is_reserved":false,"is_disabled":false,"rental_uris":{"android":"levelo://app?vid=8e7dcb0e-65b8-4597-834d-3673bacf15fb","ios":"levelo://app?vid=8e7dcb0e-65b8-4597-834d-3673bacf15fb"},"vehicle_type_id":"4","last_reported":1760789900,"current_range_meters":8000,"station_id":"ce4bhk92rcd13ifvqgb0","pricing_plan_id":"cebpf4jnsgd1na2vs0mg"},{"bike_id":"22357a32-5f5e-4b57-a7aa-023e05a27d38","system_id":"levelo_inurba_marseille","lat":43.27975,"lon":5.41659,"is_reserved":false,"is_disabled":false,"rental_uris":{"android":"levelo://app?vid=22357a32-5f5e-4b57-a7aa-023e05a27d38","ios":"levelo://app?vid=22357a32-5f5e-4b57-a7aa-023e05a27d38"},"vehicle_type_id":"4","last_reported":1760789900,"current_range_meters":8000,"station_id":"ce4bho12rcd13ifvqh1g","pricing_plan_id":"cebpf4jnsgd1na2vs0mg"},{"bike_id":"34e47bdf-546d-48ff-8b20-7d3290a216fc","system_id":"levelo_inurba_marseille","lat":43.29898,"lon":5.43669,"is_reserved":false,"is_disabled":false,"rental_uris":{"android":"levelo://app?vid=34e47bdf-546d-48ff-8b20-7d3290a216fc","ios":"levelo://app?vid=34e47bdf-546d-48ff-8b20-7d3290a216fc"},"vehicle_type_id":"4","last_reported":1760789900,"current_range_meters":8000,"station_id":"ce4bhpp2rcd13ifvqhfg","pricing_plan_id":"cebpf4jnsgd1na2vs0mg"},{"bike_id":"6ec811f8-be00-43a3-968e-2224535abf96","system_id":"levelo_inurba_marseille","lat":43.2315,"lon":5.43729,"is_reserved":false,"is_disabled":false,"rental_uris":{"android":"levelo://app?vid=6ec811f8-be00-43a3-968e-2224535abf96","ios":"levelo://app?vid=6ec811f8-be00-43a3-968e-2224535abf96"},"vehicle_type_id":"4","last_reported":1760789900,"current_range_meters":8000,"station_id":"ce4bhmp2rcd13ifvqgog","pricing_plan_id":"cebpf4jnsgd1na2vs0mg"},{"bike_id":"2fad9211-819b-4892-bf52-014fbefdb6cb","system_id":"levelo_inurba_marseille","lat":43.301519,"lon":5.373953,"is_reserved":false,"is_disabled":false,"rental_uris":{"android":"levelo://app?vid=2fad9211-819b-4892-bf52-014fbefdb6cb","ios":"levelo://app?vid=2fad9211-819b-4892-bf52-014fbefdb6cb"},"vehicle_type_id":"4","last_reported":1760789900,"current_range_meters":8000,"station_id":"ce4bgs92rcd13ifvqcc0","pricing_plan_id":"cebpf4jnsgd1na2vs0mg"},{"bike_id":"17266aff-8a59-4bd1-a91d-49e08e53d11c","system_id":"levelo_inurba_marseille","lat":43.29504,"lon":5.40933,"is_reserved":false,"is_disabled":false,"rental_uris":{"android":"levelo://app?vid=17266aff-8a59-4bd1-a91d-49e08e53d11c","ios":"levelo://app?vid=17266aff-8a59-4bd1-a91d-49e08e53d11c"},"vehicle_type_id":"4","last_reported":1760789900,"current_range_meters":8000,"station_id":"","pricing_plan_id":"cebpf4jnsgd1na2vs0mg"},{"bike_id":"5fe6e873-dba1-40dd-bc65-77de126f2710","system_id":"levelo_inurba_marseille","lat":43.332893,"lon":5.395256,"is_reserved":false,"is_disabled":false,"rental_uris":{"android":"levelo://app?vid=5fe6e873-dba1-40dd-bc65-77de126f2710","ios":"levelo://app?vid=5fe6e873-dba1-40dd-bc65-77de126f2710"},"vehicle_type_id":"4","last_reported":1760789900,"current_range_meters":8000,"station_id":"","pricing_plan_id":"cebpf4jnsgd1na2vs0mg"},{"bike_id":"49335714-259e-4728-a76d-8cc0cdbe974c","system_id":"levelo_inurba_marseille","lat":43.27372,"lon":5.36261,"is_reserved":false,"is_disabled":false,"rental_uris":{"android":"levelo://app?vid=49335714-259e-4728-a76d-8cc0cdbe974c","ios":"levelo://app?vid=49335714-259e-4728-a76d-8cc0cdbe974c"},"vehicle_type_id":"4","last_reported":1760789900,"current_range_meters":8000,"station_id":"ce4bhbh2rcd13ifvqeo0","pricing_plan_id":"cebpf4jnsgd1na2vs0mg"},{"bike_id":"72b97d88-7322-4982-8647-2c1936ac8200","system_id":"levelo_inurba_marseille","lat":43.290051,"lon":5.356138,"is_reserved":false,"is_disabled":false,"rental_uris":{"android":"levelo://app?vid=72b97d88-7322-4982-8647-2c1936ac8200","ios":"levelo://app?vid=72b97d88-7322-4982-8647-2c1936ac8200"},"vehicle_type_id":"4","last_reported":1760789900,"current_range_meters":8000,"station_id":"ce4bhb92rcd13ifvqen0","pricing_plan_id":"cebpf4jnsgd1na2vs0mg"},{"bike_id":"13605996-7868-4bb8-90ab-bfd7345bf6a5","system_id":"levelo_inurba_marseille","lat":43.21746,"lon":5.34602,"is_reserved":false,"is_disabled":false,"rental_uris":{"android":"levelo://app?vid=13605996-7868-4bb8-90ab-bfd7345bf6a5","ios":"levelo://app?vid=13605996-7868-4bb8-90ab-bfd7345bf6a5"},"vehicle_type_id":"4","last_reported":1760789900,"current_range_meters":8000,"station_id":"","pricing_plan_id":"cebpf4jnsgd1na2vs0mg"},{"bike_id":"3a371d46-1254-48b5-951c-0369447a4ead","system_id":"levelo_inurba_marseille","lat":43.21739,"lon":5.34611,"is_reserved":false,"is_disabled":false,"rental_uris":{"android":"levelo://app?vid=3a371d46-1254-48b5-951c-0369447a4ead","ios":"levelo://app?vid=3a371d46-1254-48b5-951c-0369447a4ead"},"vehicle_type_id":"4","last_reported":1760789900,"current_range_meters":8400,"station_id":"","pricing_plan_id":"cebpf4jnsgd1na2vs0mg"},{"bike_id":"bba3a075-2797-463d-a159-1cdfe7d1fecc","system_id":"levelo_inurba_marseille","lat":43.28934,"lon":5.36637,"is_reserved":false,"is_disabled":false,"rental_uris":{"android":"levelo://app?vid=bba3a075-2797-463d-a159-1cdfe7d1fecc","ios":"levelo://app?vid=bba3a075-2797-463d-a159-1cdfe7d1fecc"},"vehicle_type_id":"4","last_reported":1760789900,"current_range_meters":8400,"station_id":"ce4bhap2rcd13ifvqek0","pricing_plan_id":"cebpf4jnsgd1na2vs0mg"},{"bike_id":"3b7dcef1-a053-42c6-a90b-2e90d183394e","system_id":"levelo_inurba_marseille","lat":43.22555,"lon":5.41632,"is_reserved":false,"is_disabled":false,"rental_uris":{"android":"levelo://app?vid=3b7dcef1-a053-42c6-a90b-2e90d183394e","ios":"levelo://app?vid=3b7dcef1-a053-42c6-a90b-2e90d183394e"},"vehicle_type_id":"4","last_reported":1760789900,"current_range_meters":8400,"station_id":"st_d2o4gvlbi1j2169b742g","pricing_plan_id":"cebpf4jnsgd1na2vs0mg"},{"bike_id":"0f9c20ae-f80b-4bc4-a84d-e94070c41d3b","system_id":"levelo_inurba_marseille","lat":43.2257,"lon":5.41625,"is_reserved":false,"is_disabled":false,"rental_uris":{"android":"levelo://app?vid=0f9c20ae-f80b-4bc4-a84d-e94070c41d3b","ios":"levelo://app?vid=0f9c20ae-f80b-4bc4-a84d-e94070c41d3b"},"vehicle_type_id":"4","last_reported":1760789900,"current_range_meters":8400,"station_id":"st_d2o4gvlbi1j2169b742g","pricing_plan_id":"cebpf4jnsgd1na2vs0mg"},{"bike_id":"7cb1ef44-a33f-4b52-a19f-189ad1503646","system_id":"levelo_inurba_marseille","lat":43.330478,"lon":5.390201,"is_reserved":false,"is_disabled":false,"rental_uris":{"android":"levelo://app?vid=7cb1ef44-a33f-4b52-a19f-189ad1503646","ios":"levelo://app?vid=7cb1ef44-a33f-4b52-a19f-189ad1503646"},"vehicle_type_id":"4","last_reported":1760789900,"current_range_meters":8400,"station_id":"ce4bhr92rcd13ifvqhrg","pricing_plan_id":"cebpf4jnsgd1na2vs0mg"},{"bike_id":"d8e90b3a-59c2-4bce-b007-f0f950b904f1","system_id":"levelo_inurba_marseille","lat":43.262072,"lon":5.379351,"is_reserved":false,"is_disabled":false,"rental_uris":{"android":"levelo://app?vid=d8e90b3a-59c2-4bce-b007-f0f950b904f1","ios":"levelo://app?vid=d8e90b3a-59c2-4bce-b007-f0f950b904f1"},"vehicle_type_id":"4","last_reported":1760789900,"current_range_meters":8400,"station_id":"","pricing_plan_id":"cebpf4jnsgd1na2vs0mg"},{"bike_id":"e7b4484b-cb21-4813-8f0e-0e47defba1c6","system_id":"levelo_inurba_marseille","lat":43.25498,"lon":5.37647,"is_reserved":false,"is_disabled":false,"rental_uris":{"android":"levelo://app?vid=e7b4484b-cb21-4813-8f0e-0e47defba1c6","ios":"levelo://app?vid=e7b4484b-cb21-4813-8f0e-0e47defba1c6"},"vehicle_type_id":"4","last_reported":1760789900,"current_range_meters":8400,"station_id":"ce4bhh12rcd13ifvqff0","pricing_plan_id":"cebpf4jnsgd1na2vs0mg"},{"bike_id":"c5e45447-2956-450f-bd7e-88aaf308c04d","system_id":"levelo_inurba_marseille","lat":43.290036,"lon":5.365344,"is_reserved":false,"is_disabled":false,"rental_uris":{"android":"levelo://app?vid=c5e45447-2956-450f-bd7e-88aaf308c04d","ios":"levelo://app?vid=c5e45447-2956-450f-bd7e-88aaf308c04d"},"vehicle_type_id":"4","last_reported":1760789900,"current_range_meters":8800,"station_id":"","pricing_plan_id":"cebpf4jnsgd1na2vs0mg"},{"bike_id":"245a030c-0c43-41f8-a4cc-088d55252b06","system_id":"levelo_inurba_marseille","lat":43.244753,"lon":5.369336,"is_reserved":false,"is_disabled":false,"rental_uris":{"android":"levelo://app?vid=245a030c-0c43-41f8-a4cc-088d55252b06","ios":"levelo://app?vid=245a030c-0c43-41f8-a4cc-088d55252b06"},"vehicle_type_id":"4","last_reported":1760789900,"current_range_meters":8800,"station_id":"","pricing_plan_id":"cebpf4jnsgd1na2vs0mg"},{"bike_id":"8bd272a3-683a-4148-9970-3334beb0a457","system_id":"levelo_inurba_marseille","lat":43.28533,"lon":5.44108,"is_reserved":false,"is_disabled":false,"rental_uris":{"android":"levelo://app?vid=8bd272a3-683a-4148-9970-3334beb0a457","ios":"levelo://app?vid=8bd272a3-683a-4148-9970-3334beb0a457"},"vehicle_type_id":"4","last_reported":1760789900,"current_range_meters":8800,"station_id":"st_d3j3df2ikq2c7380ej80","pricing_plan_id":"cebpf4jnsgd1na2vs0mg"},{"bike_id":"fe77497f-e525-41a5-8848-76cdef902a10","system_id":"levelo_inurba_marseille","lat":43.29289,"lon":5.37463,"is_reserved":false,"is_disabled":false,"rental_uris":{"android":"levelo://app?vid=fe77497f-e525-41a5-8848-76cdef902a10","ios":"levelo://app?vid=fe77497f-e525-41a5-8848-76cdef902a10"},"vehicle_type_id":"4","last_reported":1760789900,"current_range_meters":8800,"station_id":"ce4bgi12rcd13ifvqb70","pricing_plan_id":"cebpf4jnsgd1na2vs0mg"},{"bike_id":"a817b630-bbed-48d3-97f4-9bd571b9ebab","system_id":"levelo_inurba_marseille","lat":43.29998,"lon":5.37343,"is_reserved":false,"is_disabled":false,"rental_uris":{"android":"levelo://app?vid=a817b630-bbed-48d3-97f4-9bd571b9ebab","ios":"levelo://app?vid=a817b630-bbed-48d3-97f4-9bd571b9ebab"},"vehicle_type_id":"4","last_reported":1760789900,"current_range_meters":8800,"station_id":"","pricing_plan_id":"cebpf4jnsgd1na2vs0mg"},{"bike_id":"eaf73094-ad72-4926-85d6-16f3f0d7a30d","system_id":"levelo_inurba_marseille","lat":43.22551,"lon":5.41631,"is_reserved":false,"is_disabled":false,"rental_uris":{"android":"levelo://app?vid=eaf73094-ad72-4926-85d6-16f3f0d7a30d","ios":"levelo://app?vid=eaf73094-ad72-4926-85d6-16f3f0d7a30d"},"vehicle_type_id":"4","last_reported":1760789900,"current_range_meters":9200,"station_id":"st_d2o4gvlbi1j2169b742g","pricing_plan_id":"cebpf4jnsgd1na2vs0mg"},{"bike_id":"ed3e07f9-6a61-4057-bc82-cf1eff570a70","system_id":"levelo_inurba_marseille","lat":43.282581,"lon":5.350757,"is_reserved":false,"is_disabled":false,"rental_uris":{"android":"levelo://app?vid=ed3e07f9-6a61-4057-bc82-cf1eff570a70","ios":"levelo://app?vid=ed3e07f9-6a61-4057-bc82-cf1eff570a70"},"vehicle_type_id":"4","last_reported":1760789900,"current_range_meters":9200,"station_id":"ce4bhbp2rcd13ifvqerg","pricing_plan_id":"cebpf4jnsgd1na2vs0mg"},{"bike_id":"06aff363-c819-4d74-9a7e-336a72f5401b","system_id":"levelo_inurba_marseille","lat":43.23152,"lon":5.43701,"is_reserved":false,"is_disabled":false,"rental_uris":{"android":"levelo://app?vid=06aff363-c819-4d74-9a7e-336a72f5401b","ios":"levelo://app?vid=06aff363-c819-4d74-9a7e-336a72f5401b"},"vehicle_type_id":"4","last_reported":1760789900,"current_range_meters":9600,"station_id":"ce4bhmp2rcd13ifvqgog","pricing_plan_id":"cebpf4jnsgd1na2vs0mg"},{"bike_id":"9ca701ea-cdba-421d-b945-578cc7e5e3a9","system_id":"levelo_inurba_marseille","lat":43.2174,"lon":5.34611,"is_reserved":false,"is_disabled":false,"rental_uris":{"android":"levelo://app?vid=9ca701ea-cdba-421d-b945-578cc7e5e3a9","ios":"levelo://app?vid=9ca701ea-cdba-421d-b945-578cc7e5e3a9"},"vehicle_type_id":"4","last_reported":1760789900,"current_range_meters":9600,"station_id":"","pricing_plan_id":"cebpf4jnsgd1na2vs0mg"},{"bike_id":"38b2e05c-068a-4749-9cd5-4673b816093f","system_id":"levelo_inurba_marseille","lat":43.241776,"lon":5.397382,"is_reserved":false,"is_disabled":false,"rental_uris":{"android":"levelo://app?vid=38b2e05c-068a-4749-9cd5-4673b816093f","ios":"levelo://app?vid=38b2e05c-068a-4749-9cd5-4673b816093f"},"vehicle_type_id":"4","last_reported":1760789900,"current_range_meters":9600,"station_id":"ce4bhn12rcd13ifvqgpg","pricing_plan_id":"cebpf4jnsgd1na2vs0mg"},{"bike_id":"4b08cfe7-5df1-4e29-905e-03a9992f8dfa","system_id":"levelo_inurba_marseille","lat":43.337655,"lon":5.374422,"is_reserved":false,"is_disabled":false,"rental_uris":{"android":"levelo://app?vid=4b08cfe7-5df1-4e29-905e-03a9992f8dfa","ios":"levelo://app?vid=4b08cfe7-5df1-4e29-905e-03a9992f8dfa"},"vehicle_type_id":"4","last_reported":1760789900,"current_range_meters":9600,"station_id":"","pricing_plan_id":"cebpf4jnsgd1na2vs0mg"},{"bike_id":"ac523f63-31cc-440a-84f0-15ebb678c997","system_id":"levelo_inurba_marseille","lat":43.30324,"lon":5.40424,"is_reserved":false,"is_disabled":false,"rental_uris":{"android":"levelo://app?vid=ac523f63-31cc-440a-84f0-15ebb678c997","ios":"levelo://app?vid=ac523f63-31cc-440a-84f0-15ebb678c997"},"vehicle_type_id":"4","last_reported":1760789900,"current_range_meters":9600,"station_id":"ce4bh012rcd13ifvqd10","pricing_plan_id":"cebpf4jnsgd1na2vs0mg"},{"bike_id":"d32ecf16-2d8d-4a4b-bae9-1f21d16aa7d0","system_id":"levelo_inurba_marseille","lat":43.29723,"lon":5.37696,"is_reserved":false,"is_disabled":false,"rental_uris":{"android":"levelo://app?vid=d32ecf16-2d8d-4a4b-bae9-1f21d16aa7d0","ios":"levelo://app?vid=d32ecf16-2d8d-4a4b-bae9-1f21d16aa7d0"},"vehicle_type_id":"4","last_reported":1760789900,"current_range_meters":9600,"station_id":"ce4bgkh2rcd13ifvqbl0","pricing_plan_id":"cebpf4jnsgd1na2vs0mg"},{"bike_id":"bcc56e91-5e66-445b-a63b-efe9ae9470ef","system_id":"levelo_inurba_marseille","lat":43.28647,"lon":5.38098,"is_reserved":false,"is_disabled":false,"rental_uris":{"android":"levelo://app?vid=bcc56e91-5e66-445b-a63b-efe9ae9470ef","ios":"levelo://app?vid=bcc56e91-5e66-445b-a63b-efe9ae9470ef"},"vehicle_type_id":"4","last_reported":1760789900,"current_range_meters":9600,"station_id":"","pricing_plan_id":"cebpf4jnsgd1na2vs0mg"},{"bike_id":"1c6fbb15-d2e7-4e24-962e-5c872b309651","system_id":"levelo_inurba_marseille","lat":43.29847,"lon":5.36279,"is_reserved":false,"is_disabled":false,"rental_uris":{"android":"levelo://app?vid=1c6fbb15-d2e7-4e24-962e-5c872b309651","ios":"levelo://app?vid=1c6fbb15-d2e7-4e24-962e-5c872b309651"},"vehicle_type_id":"4","last_reported":1760789900,"current_range_meters":9600,"station_id":"ce4bgpp2rcd13ifvqc3g","pricing_plan_id":"cebpf4jnsgd1na2vs0mg"},{"bike_id":"b623b347-1561-4faf-af7c-e81bb64c2be3","system_id":"levelo_inurba_marseille","lat":43.280342,"lon":5.369259,"is_reserved":false,"is_disabled":false,"rental_uris":{"android":"levelo://app?vid=b623b347-1561-4faf-af7c-e81bb64c2be3","ios":"levelo://app?vid=b623b347-1561-4faf-af7c-e81bb64c2be3"},"vehicle_type_id":"4","last_reported":1760789900,"current_range_meters":9600,"station_id":"ce4bha12rcd13ifvqef0","pricing_plan_id":"cebpf4jnsgd1na2vs0mg"},{"bike_id":"8ec121ca-6154-462c-85e1-48c13433433c","system_id":"levelo_inurba_marseille","lat":43.30553,"lon":5.36546,"is_reserved":false,"is_disabled":false,"rental_uris":{"android":"levelo://app?vid=8ec121ca-6154-462c-85e1-48c13433433c","ios":"levelo://app?vid=8ec121ca-6154-462c-85e1-48c13433433c"},"vehicle_type_id":"4","last_reported":1760789900,"current_range_meters":10000,"station_id":"ce4bgs12rcd13ifvqcag","pricing_plan_id":"cebpf4jnsgd1na2vs0mg"},{"bike_id":"05fc35b9-aa33-430f-86a8-0d6e2b773cf5","system_id":"levelo_inurba_marseille","lat":43.28414,"lon":5.34973,"is_reserved":false,"is_disabled":false,"rental_uris":{"android":"levelo://app?vid=05fc35b9-aa33-430f-86a8-0d6e2b773cf5","ios":"levelo://app?vid=05fc35b9-aa33-430f-86a8-0d6e2b773cf5"},"vehicle_type_id":"4","last_reported":1760789900,"current_range_meters":10000,"station_id":"ce4bhbh2rcd13ifvqepg","pricing_plan_id":"cebpf4jnsgd1na2vs0mg"},{"bike_id":"b3edc609-7782-46af-831c-544f1d118f47","system_id":"levelo_inurba_marseille","lat":43.30804,"lon":5.43515,"is_reserved":false,"is_disabled":false,"rental_uris":{"android":"levelo://app?vid=b3edc609-7782-46af-831c-544f1d118f47","ios":"levelo://app?vid=b3edc609-7782-46af-831c-544f1d118f47"},"vehicle_type_id":"4","last_reported":1760789900,"current_range_meters":10000,"station_id":"ce4bhph2rcd13ifvqheg","pricing_plan_id":"cebpf4jnsgd1na2vs0mg"},{"bike_id":"2dc97c6f-ee20-4d09-980c-5f2a759967d9","system_id":"levelo_inurba_marseille","lat":43.23148,"lon":5.43707,"is_reserved":false,"is_disabled":false,"rental_uris":{"android":"levelo://app?vid=2dc97c6f-ee20-4d09-980c-5f2a759967d9","ios":"levelo://app?vid=2dc97c6f-ee20-4d09-980c-5f2a759967d9"},"vehicle_type_id":"4","last_reported":1760789900,"current_range_meters":10000,"station_id":"ce4bhmp2rcd13ifvqgog","pricing_plan_id":"cebpf4jnsgd1na2vs0mg"},{"bike_id":"b7d5438a-f1ea-4ce1-86fc-2296ab61fed7","system_id":"levelo_inurba_marseille","lat":43.29867,"lon":5.39732,"is_reserved":false,"is_disabled":false,"rental_uris":{"android":"levelo://app?vid=b7d5438a-f1ea-4ce1-86fc-2296ab61fed7","ios":"levelo://app?vid=b7d5438a-f1ea-4ce1-86fc-2296ab61fed7"},"vehicle_type_id":"4","last_reported":1760789900,"current_range_meters":10000,"station_id":"ce4bh0h2rcd13ifvqd50","pricing_plan_id":"cebpf4jnsgd1na2vs0mg"},{"bike_id":"92f349ec-d087-455e-88c0-d24c1cf13be9","system_id":"levelo_inurba_marseille","lat":43.23149,"lon":5.43716,"is_reserved":false,"is_disabled":false,"rental_uris":{"android":"levelo://app?vid=92f349ec-d087-455e-88c0-d24c1cf13be9","ios":"levelo://app?vid=92f349ec-d087-455e-88c0-d24c1cf13be9"},"vehicle_type_id":"4","last_reported":1760789900,"current_range_meters":10000,"station_id":"ce4bhmp2rcd13ifvqgog","pricing_plan_id":"cebpf4jnsgd1na2vs0mg"},{"bike_id":"dd53cb80-ad6b-420e-b6a5-5e6e5fe7f961","system_id":"levelo_inurba_marseille","lat":43.23144,"lon":5.43716,"is_reserved":false,"is_disabled":false,"rental_uris":{"android":"levelo://app?vid=dd53cb80-ad6b-420e-b6a5-5e6e5fe7f961","ios":"levelo://app?vid=dd53cb80-ad6b-420e-b6a5-5e6e5fe7f961"},"vehicle_type_id":"4","last_reported":1760789900,"current_range_meters":10000,"station_id":"ce4bhmp2rcd13ifvqgog","pricing_plan_id":"cebpf4jnsgd1na2vs0mg"},{"bike_id":"3fe6d74f-109a-469f-959b-d90c5d9b0f30","system_id":"levelo_inurba_marseille","lat":43.32546,"lon":5.41436,"is_reserved":false,"is_disabled":false,"rental_uris":{"android":"levelo://app?vid=3fe6d74f-109a-469f-959b-d90c5d9b0f30","ios":"levelo://app?vid=3fe6d74f-109a-469f-959b-d90c5d9b0f30"},"vehicle_type_id":"4","last_reported":1760789900,"current_range_meters":10000,"station_id":"ce4bhq12rcd13ifvqhhg","pricing_plan_id":"cebpf4jnsgd1na2vs0mg"},{"bike_id":"e6e34340-4205-4e0f-9a62-5c3af19fdebe","system_id":"levelo_inurba_marseille","lat":43.24628,"lon":5.43143,"is_reserved":false,"is_disabled":false,"rental_uris":{"android":"levelo://app?vid=e6e34340-4205-4e0f-9a62-5c3af19fdebe","ios":"levelo://app?vid=e6e34340-4205-4e0f-9a62-5c3af19fdebe"},"vehicle_type_id":"4","last_reported":1760789900,"current_range_meters":10000,"station_id":"st_d2m6c4gdas8pm72e190g","pricing_plan_id":"cebpf4jnsgd1na2vs0mg"},{"bike_id":"924ac669-be8b-47aa-9a8e-6f22baf815eb","system_id":"levelo_inurba_marseille","lat":43.337692,"lon":5.374734,"is_reserved":false,"is_disabled":false,"rental_uris":{"android":"levelo://app?vid=924ac669-be8b-47aa-9a8e-6f22baf815eb","ios":"levelo://app?vid=924ac669-be8b-47aa-9a8e-6f22baf815eb"},"vehicle_type_id":"4","last_reported":1760789900,"current_range_meters":10800,"station_id":"","pricing_plan_id":"cebpf4jnsgd1na2vs0mg"},{"bike_id":"effc866c-a458-49ff-9304-d0d72140eeec","system_id":"levelo_inurba_marseille","lat":43.26195,"lon":5.37446,"is_reserved":false,"is_disabled":false,"rental_uris":{"android":"levelo://app?vid=effc866c-a458-49ff-9304-d0d72140eeec","ios":"levelo://app?vid=effc866c-a458-49ff-9304-d0d72140eeec"},"vehicle_type_id":"4","last_reported":1760789900,"current_range_meters":10800,"station_id":"ce4bhgp2rcd13ifvqfc0","pricing_plan_id":"cebpf4jnsgd1na2vs0mg"},{"bike_id":"fcfff81e-1b26-4eba-a63d-e194557eac19","system_id":"levelo_inurba_marseille","lat":43.30175,"lon":5.3754,"is_reserved":false,"is_disabled":false,"rental_uris":{"android":"levelo://app?vid=fcfff81e-1b26-4eba-a63d-e194557eac19","ios":"levelo://app?vid=fcfff81e-1b26-4eba-a63d-e194557eac19"},"vehicle_type_id":"4","last_reported":1760789900,"current_range_meters":10800,"station_id":"","pricing_plan_id":"cebpf4jnsgd1na2vs0mg"},{"bike_id":"4834f890-2ebc-4682-a414-400736643fa8","system_id":"levelo_inurba_marseille","lat":43.29617,"lon":5.37731,"is_reserved":false,"is_disabled":false,"rental_uris":{"android":"levelo://app?vid=4834f890-2ebc-4682-a414-400736643fa8","ios":"levelo://app?vid=4834f890-2ebc-4682-a414-400736643fa8"},"vehicle_type_id":"4","last_reported":1760789900,"current_range_meters":10800,"station_id":"ce4bgi92rcd13ifvqb90","pricing_plan_id":"cebpf4jnsgd1na2vs0mg"},{"bike_id":"d5d8e9ce-849d-4d96-a800-8b65babe55b5","system_id":"levelo_inurba_marseille","lat":43.297089,"lon":5.377005,"is_reserved":false,"is_disabled":false,"rental_uris":{"android":"levelo://app?vid=d5d8e9ce-849d-4d96-a800-8b65babe55b5","ios":"levelo://app?vid=d5d8e9ce-849d-4d96-a800-8b65babe55b5"},"vehicle_type_id":"4","last_reported":1760789900,"current_range_meters":10800,"station_id":"ce4bgkh2rcd13ifvqbl0","pricing_plan_id":"cebpf4jnsgd1na2vs0mg"},{"bike_id":"5a70a043-0994-4bac-a7ec-185fe065922e","system_id":"levelo_inurba_marseille","lat":43.21743,"lon":5.3463,"is_reserved":false,"is_disabled":false,"rental_uris":{"android":"levelo://app?vid=5a70a043-0994-4bac-a7ec-185fe065922e","ios":"levelo://app?vid=5a70a043-0994-4bac-a7ec-185fe065922e"},"vehicle_type_id":"4","last_reported":1760789900,"current_range_meters":10800,"station_id":"","pricing_plan_id":"cebpf4jnsgd1na2vs0mg"},{"bike_id":"2a048f33-4365-42e4-94a6-b7bafb646547","system_id":"levelo_inurba_marseille","lat":43.32289,"lon":5.38268,"is_reserved":false,"is_disabled":false,"rental_uris":{"android":"levelo://app?vid=2a048f33-4365-42e4-94a6-b7bafb646547","ios":"levelo://app?vid=2a048f33-4365-42e4-94a6-b7bafb646547"},"vehicle_type_id":"4","last_reported":1760789900,"current_range_meters":10800,"station_id":"ce4bhr12rcd13ifvqhqg","pricing_plan_id":"cebpf4jnsgd1na2vs0mg"},{"bike_id":"9aca39dd-b4ee-46b2-b617-10479365e83a","system_id":"levelo_inurba_marseille","lat":43.23781,"lon":5.36635,"is_reserved":false,"is_disabled":false,"rental_uris":{"android":"levelo://app?vid=9aca39dd-b4ee-46b2-b617-10479365e83a","ios":"levelo://app?vid=9aca39dd-b4ee-46b2-b617-10479365e83a"},"vehicle_type_id":"4","last_reported":1760789900,"current_range_meters":10800,"station_id":"st_d3nk18o9ro0c73en2l3g","pricing_plan_id":"cebpf4jnsgd1na2vs0mg"},{"bike_id":"9aca6410-dfe2-4f0b-8309-4bbe61aef318","system_id":"levelo_inurba_marseille","lat":43.33024,"lon":5.39041,"is_reserved":false,"is_disabled":false,"rental_uris":{"android":"levelo://app?vid=9aca6410-dfe2-4f0b-8309-4bbe61aef318","ios":"levelo://app?vid=9aca6410-dfe2-4f0b-8309-4bbe61aef318"},"vehicle_type_id":"4","last_reported":1760789900,"current_range_meters":11200,"station_id":"ce4bhr92rcd13ifvqhrg","pricing_plan_id":"cebpf4jnsgd1na2vs0mg"},{"bike_id":"b82f70af-1861-43a2-997d-a6fc7f213e99","system_id":"levelo_inurba_marseille","lat":43.298439,"lon":5.362705,"is_reserved":false,"is_disabled":false,"rental_uris":{"android":"levelo://app?vid=b82f70af-1861-43a2-997d-a6fc7f213e99","ios":"levelo://app?vid=b82f70af-1861-43a2-997d-a6fc7f213e99"},"vehicle_type_id":"4","last_reported":1760789900,"current_range_meters":11200,"station_id":"ce4bgpp2rcd13ifvqc3g","pricing_plan_id":"cebpf4jnsgd1na2vs0mg"},{"bike_id":"ac609bb0-d59b-4214-88f2-1da49bcb76c0","system_id":"levelo_inurba_marseille","lat":43.23149,"lon":5.43722,"is_reserved":false,"is_disabled":false,"rental_uris":{"android":"levelo://app?vid=ac609bb0-d59b-4214-88f2-1da49bcb76c0","ios":"levelo://app?vid=ac609bb0-d59b-4214-88f2-1da49bcb76c0"},"vehicle_type_id":"4","last_reported":1760789900,"current_range_meters":11200,"station_id":"ce4bhmp2rcd13ifvqgog","pricing_plan_id":"cebpf4jnsgd1na2vs0mg"},{"bike_id":"9c361fff-18a3-4d1a-b8ca-e65b790c35a5","system_id":"levelo_inurba_marseille","lat":43.231537,"lon":5.437062,"is_reserved":false,"is_disabled":false,"rental_uris":{"android":"levelo://app?vid=9c361fff-18a3-4d1a-b8ca-e65b790c35a5","ios":"levelo://app?vid=9c361fff-18a3-4d1a-b8ca-e65b790c35a5"},"vehicle_type_id":"4","last_reported":1760789900,"current_range_meters":11200,"station_id":"ce4bhmp2rcd13ifvqgog","pricing_plan_id":"cebpf4jnsgd1na2vs0mg"},{"bike_id":"a2041a0e-0549-490e-8bae-b4f7562275c2","system_id":"levelo_inurba_marseille","lat":43.284151,"lon":5.349774,"is_reserved":false,"is_disabled":false,"rental_uris":{"android":"levelo://app?vid=a2041a0e-0549-490e-8bae-b4f7562275c2","ios":"levelo://app?vid=a2041a0e-0549-490e-8bae-b4f7562275c2"},"vehicle_type_id":"4","last_reported":1760789900,"current_range_meters":11200,"station_id":"","pricing_plan_id":"cebpf4jnsgd1na2vs0mg"},{"bike_id":"f93cd2a0-fd80-4ae4-86fe-1f767d8cc36c","system_id":"levelo_inurba_marseille","lat":43.30516,"lon":5.36503,"is_reserved":false,"is_disabled":false,"rental_uris":{"android":"levelo://app?vid=f93cd2a0-fd80-4ae4-86fe-1f767d8cc36c","ios":"levelo://app?vid=f93cd2a0-fd80-4ae4-86fe-1f767d8cc36c"},"vehicle_type_id":"4","last_reported":1760789900,"current_range_meters":11600,"station_id":"","pricing_plan_id":"cebpf4jnsgd1na2vs0mg"},{"bike_id":"e5227e84-1f04-40cb-9893-598d6a21fc27","system_id":"levelo_inurba_marseille","lat":43.22927,"lon":5.353753,"is_reserved":false,"is_disabled":false,"rental_uris":{"android":"levelo://app?vid=e5227e84-1f04-40cb-9893-598d6a21fc27","ios":"levelo://app?vid=e5227e84-1f04-40cb-9893-598d6a21fc27"},"vehicle_type_id":"4","last_reported":1760789900,"current_range_meters":11600,"station_id":"cpo3532slgdg3j2ikp40","pricing_plan_id":"cebpf4jnsgd1na2vs0mg"},{"bike_id":"88e34ec1-205b-4aef-afb1-e9e98932cbc9","system_id":"levelo_inurba_marseille","lat":43.21744,"lon":5.346,"is_reserved":false,"is_disabled":false,"rental_uris":{"android":"levelo://app?vid=88e34ec1-205b-4aef-afb1-e9e98932cbc9","ios":"levelo://app?vid=88e34ec1-205b-4aef-afb1-e9e98932cbc9"},"vehicle_type_id":"4","last_reported":1760789900,"current_range_meters":11600,"station_id":"","pricing_plan_id":"cebpf4jnsgd1na2vs0mg"},{"bike_id":"e082eb77-dff0-4841-8bc1-1b3492c0d507","system_id":"levelo_inurba_marseille","lat":43.27994,"lon":5.41665,"is_reserved":false,"is_disabled":false,"rental_uris":{"android":"levelo://app?vid=e082eb77-dff0-4841-8bc1-1b3492c0d507","ios":"levelo://app?vid=e082eb77-dff0-4841-8bc1-1b3492c0d507"},"vehicle_type_id":"4","last_reported":1760789900,"current_range_meters":11600,"station_id":"ce4bho12rcd13ifvqh1g","pricing_plan_id":"cebpf4jnsgd1na2vs0mg"},{"bike_id":"75b02a51-1325-435e-9661-29bb451a696a","system_id":"levelo_inurba_marseille","lat":43.31448,"lon":5.38488,"is_reserved":false,"is_disabled":false,"rental_uris":{"android":"levelo://app?vid=75b02a51-1325-435e-9661-29bb451a696a","ios":"levelo://app?vid=75b02a51-1325-435e-9661-29bb451a696a"},"vehicle_type_id":"4","last_reported":1760789900,"current_range_meters":11600,"station_id":"","pricing_plan_id":"cebpf4jnsgd1na2vs0mg"},{"bike_id":"fad2b63f-2533-4c97-b3d2-88d6a2206de6","system_id":"levelo_inurba_marseille","lat":43.28408,"lon":5.3499,"is_reserved":false,"is_disabled":false,"rental_uris":{"android":"levelo://app?vid=fad2b63f-2533-4c97-b3d2-88d6a2206de6","ios":"levelo://app?vid=fad2b63f-2533-4c97-b3d2-88d6a2206de6"},"vehicle_type_id":"4","last_reported":1760789900,"current_range_meters":12000,"station_id":"ce4bhbh2rcd13ifvqepg","pricing_plan_id":"cebpf4jnsgd1na2vs0mg"},{"bike_id":"25a7cc91-c0cb-40d0-8548-5f07faecbe3f","system_id":"levelo_inurba_marseille","lat":43.273083,"lon":5.390853,"is_reserved":false,"is_disabled":true,"rental_uris":{"android":"levelo://app?vid=25a7cc91-c0cb-40d0-8548-5f07faecbe3f","ios":"levelo://app?vid=25a7cc91-c0cb-40d0-8548-5f07faecbe3f"},"vehicle_type_id":"4","last_reported":1760789900,"current_range_meters":12400,"station_id":"","pricing_plan_id":"cebpf4jnsgd1na2vs0mg"},{"bike_id":"0b170382-a38a-48fc-b060-b901de311f1a","system_id":"levelo_inurba_marseille","lat":43.33047,"lon":5.39024,"is_reserved":false,"is_disabled":false,"rental_uris":{"android":"levelo://app?vid=0b170382-a38a-48fc-b060-b901de311f1a","ios":"levelo://app?vid=0b170382-a38a-48fc-b060-b901de311f1a"},"vehicle_type_id":"4","last_reported":1760789900,"current_range_meters":12400,"station_id":"ce4bhr92rcd13ifvqhrg","pricing_plan_id":"cebpf4jnsgd1na2vs0mg"},{"bike_id":"28c0c069-1c7b-47ee-b4b8-c540453039e9","system_id":"levelo_inurba_marseille","lat":43.24802,"lon":5.37452,"is_reserved":false,"is_disabled":false,"rental_uris":{"android":"levelo://app?vid=28c0c069-1c7b-47ee-b4b8-c540453039e9","ios":"levelo://app?vid=28c0c069-1c7b-47ee-b4b8-c540453039e9"},"vehicle_type_id":"4","last_reported":1760789900,"current_range_meters":12400,"station_id":"ce4bhgh2rcd13ifvqfb0","pricing_plan_id":"cebpf4jnsgd1na2vs0mg"},{"bike_id":"9c1b5ebb-2375-47b1-ba9b-3416b25d21ea","system_id":"levelo_inurba_marseille","lat":43.219603,"lon":5.348981,"is_reserved":false,"is_disabled":false,"rental_uris":{"android":"levelo://app?vid=9c1b5ebb-2375-47b1-ba9b-3416b25d21ea","ios":"levelo://app?vid=9c1b5ebb-2375-47b1-ba9b-3416b25d21ea"},"vehicle_type_id":"4","last_reported":1760789900,"current_range_meters":12400,"station_id":"","pricing_plan_id":"cebpf4jnsgd1na2vs0mg"},{"bike_id":"e427aaaf-ebc8-4540-808e-fa07955f06df","system_id":"levelo_inurba_marseille","lat":43.258817,"lon":5.394328,"is_reserved":false,"is_disabled":false,"rental_uris":{"android":"levelo://app?vid=e427aaaf-ebc8-4540-808e-fa07955f06df","ios":"levelo://app?vid=e427aaaf-ebc8-4540-808e-fa07955f06df"},"vehicle_type_id":"4","last_reported":1760789900,"current_range_meters":12400,"station_id":"","pricing_plan_id":"cebpf4jnsgd1na2vs0mg"},{"bike_id":"5ec36f29-a595-43fb-81bc-e1f6ecf04525","system_id":"levelo_inurba_marseille","lat":43.21203,"lon":5.35081,"is_reserved":false,"is_disabled":true,"rental_uris":{"android":"levelo://app?vid=5ec36f29-a595-43fb-81bc-e1f6ecf04525","ios":"levelo://app?vid=5ec36f29-a595-43fb-81bc-e1f6ecf04525"},"vehicle_type_id":"4","last_reported":1760789900,"current_range_meters":12400,"station_id":"st_cvj6sg6p6f1abm77japg","pricing_plan_id":"cebpf4jnsgd1na2vs0mg"},{"bike_id":"727acd02-a6ee-48e5-bb86-6fbe53b2fdc8","system_id":"levelo_inurba_marseille","lat":43.25725,"lon":5.41107,"is_reserved":false,"is_disabled":false,"rental_uris":{"android":"levelo://app?vid=727acd02-a6ee-48e5-bb86-6fbe53b2fdc8","ios":"levelo://app?vid=727acd02-a6ee-48e5-bb86-6fbe53b2fdc8"},"vehicle_type_id":"4","last_reported":1760789900,"current_range_meters":12400,"station_id":"ce4bhkp2rcd13ifvqgd0","pricing_plan_id":"cebpf4jnsgd1na2vs0mg"},{"bike_id":"30e88e2f-23f9-4295-9767-08cf3a3f411d","system_id":"levelo_inurba_marseille","lat":43.292328,"lon":5.383539,"is_reserved":false,"is_disabled":false,"rental_uris":{"android":"levelo://app?vid=30e88e2f-23f9-4295-9767-08cf3a3f411d","ios":"levelo://app?vid=30e88e2f-23f9-4295-9767-08cf3a3f411d"},"vehicle_type_id":"4","last_reported":1760789900,"current_range_meters":12800,"station_id":"ce4bh692rcd13ifvqea0","pricing_plan_id":"cebpf4jnsgd1na2vs0mg"},{"bike_id":"8c30526d-4d62-49e0-92a1-2ed039e24496","system_id":"levelo_inurba_marseille","lat":43.287,"lon":5.38299,"is_reserved":false,"is_disabled":false,"rental_uris":{"android":"levelo://app?vid=8c30526d-4d62-49e0-92a1-2ed039e24496","ios":"levelo://app?vid=8c30526d-4d62-49e0-92a1-2ed039e24496"},"vehicle_type_id":"4","last_reported":1760789900,"current_range_meters":12800,"station_id":"","pricing_plan_id":"cebpf4jnsgd1na2vs0mg"},{"bike_id":"d30dd690-43f4-47bc-be7c-db1ef9196deb","system_id":"levelo_inurba_marseille","lat":43.254938,"lon":5.376492,"is_reserved":false,"is_disabled":false,"rental_uris":{"android":"levelo://app?vid=d30dd690-43f4-47bc-be7c-db1ef9196deb","ios":"levelo://app?vid=d30dd690-43f4-47bc-be7c-db1ef9196deb"},"vehicle_type_id":"4","last_reported":1760789900,"current_range_meters":12800,"station_id":"ce4bhh12rcd13ifvqff0","pricing_plan_id":"cebpf4jnsgd1na2vs0mg"},{"bike_id":"a6e8e853-4ca1-4ef4-82bd-f5e5fd9741f2","system_id":"levelo_inurba_marseille","lat":43.23755,"lon":5.36921,"is_reserved":false,"is_disabled":false,"rental_uris":{"android":"levelo://app?vid=a6e8e853-4ca1-4ef4-82bd-f5e5fd9741f2","ios":"levelo://app?vid=a6e8e853-4ca1-4ef4-82bd-f5e5fd9741f2"},"vehicle_type_id":"4","last_reported":1760789900,"current_range_meters":12800,"station_id":"","pricing_plan_id":"cebpf4jnsgd1na2vs0mg"},{"bike_id":"31af3dff-8cd0-4879-ac57-000c6d95c747","system_id":"levelo_inurba_marseille","lat":43.27374,"lon":5.36252,"is_reserved":false,"is_disabled":false,"rental_uris":{"android":"levelo://app?vid=31af3dff-8cd0-4879-ac57-000c6d95c747","ios":"levelo://app?vid=31af3dff-8cd0-4879-ac57-000c6d95c747"},"vehicle_type_id":"4","last_reported":1760789900,"current_range_meters":12800,"station_id":"ce4bhbh2rcd13ifvqeo0","pricing_plan_id":"cebpf4jnsgd1na2vs0mg"},{"bike_id":"0a414463-fe1a-4833-8a11-178a3c2c879a","system_id":"levelo_inurba_marseille","lat":43.29852,"lon":5.37897,"is_reserved":false,"is_disabled":false,"rental_uris":{"android":"levelo://app?vid=0a414463-fe1a-4833-8a11-178a3c2c879a","ios":"levelo://app?vid=0a414463-fe1a-4833-8a11-178a3c2c879a"},"vehicle_type_id":"4","last_reported":1760789900,"current_range_meters":13600,"station_id":"","pricing_plan_id":"cebpf4jnsgd1na2vs0mg"},{"bike_id":"4140be79-33be-4d59-9ede-e55afba88001","system_id":"levelo_inurba_marseille","lat":43.23151,"lon":5.43731,"is_reserved":false,"is_disabled":false,"rental_uris":{"android":"levelo://app?vid=4140be79-33be-4d59-9ede-e55afba88001","ios":"levelo://app?vid=4140be79-33be-4d59-9ede-e55afba88001"},"vehicle_type_id":"4","last_reported":1760789900,"current_range_meters":13600,"station_id":"ce4bhmp2rcd13ifvqgog","pricing_plan_id":"cebpf4jnsgd1na2vs0mg"},{"bike_id":"a9494175-895c-4dc1-bff0-c696e05ec48c","system_id":"levelo_inurba_marseille","lat":43.262025,"lon":5.379363,"is_reserved":false,"is_disabled":false,"rental_uris":{"android":"levelo://app?vid=a9494175-895c-4dc1-bff0-c696e05ec48c","ios":"levelo://app?vid=a9494175-895c-4dc1-bff0-c696e05ec48c"},"vehicle_type_id":"4","last_reported":1760789900,"current_range_meters":13600,"station_id":"ce4bhjp2rcd13ifvqg90","pricing_plan_id":"cebpf4jnsgd1na2vs0mg"},{"bike_id":"666d30d9-73bc-41fe-9873-5adfbcc98439","system_id":"levelo_inurba_marseille","lat":43.2827,"lon":5.35056,"is_reserved":false,"is_disabled":false,"rental_uris":{"android":"levelo://app?vid=666d30d9-73bc-41fe-9873-5adfbcc98439","ios":"levelo://app?vid=666d30d9-73bc-41fe-9873-5adfbcc98439"},"vehicle_type_id":"4","last_reported":1760789900,"current_range_meters":13600,"station_id":"ce4bhbp2rcd13ifvqerg","pricing_plan_id":"cebpf4jnsgd1na2vs0mg"},{"bike_id":"7e98c73c-0daf-470c-8187-471fc9a15ebd","system_id":"levelo_inurba_marseille","lat":43.24164,"lon":5.36387,"is_reserved":false,"is_disabled":false,"rental_uris":{"android":"levelo://app?vid=7e98c73c-0daf-470c-8187-471fc9a15ebd","ios":"levelo://app?vid=7e98c73c-0daf-470c-8187-471fc9a15ebd"},"vehicle_type_id":"4","last_reported":1760789900,"current_range_meters":13600,"station_id":"cpo36qri1sfpv3e86is0","pricing_plan_id":"cebpf4jnsgd1na2vs0mg"},{"bike_id":"d414b289-5cc2-4a85-92e2-d89ed29bf121","system_id":"levelo_inurba_marseille","lat":43.298959,"lon":5.436649,"is_reserved":false,"is_disabled":false,"rental_uris":{"android":"levelo://app?vid=d414b289-5cc2-4a85-92e2-d89ed29bf121","ios":"levelo://app?vid=d414b289-5cc2-4a85-92e2-d89ed29bf121"},"vehicle_type_id":"4","last_reported":1760789900,"current_range_meters":13600,"station_id":"ce4bhpp2rcd13ifvqhfg","pricing_plan_id":"cebpf4jnsgd1na2vs0mg"},{"bike_id":"df0b252f-a518-4dd1-a58a-befed25b8bfa","system_id":"levelo_inurba_marseille","lat":43.231555,"lon":5.437147,"is_reserved":false,"is_disabled":false,"rental_uris":{"android":"levelo://app?vid=df0b252f-a518-4dd1-a58a-befed25b8bfa","ios":"levelo://app?vid=df0b252f-a518-4dd1-a58a-befed25b8bfa"},"vehicle_type_id":"4","last_reported":1760789900,"current_range_meters":13600,"station_id":"ce4bhmp2rcd13ifvqgog","pricing_plan_id":"cebpf4jnsgd1na2vs0mg"},{"bike_id":"b35843bb-8826-4f0d-a706-15255e94599e","system_id":"levelo_inurba_marseille","lat":43.27949,"lon":5.40386,"is_reserved":false,"is_disabled":false,"rental_uris":{"android":"levelo://app?vid=b35843bb-8826-4f0d-a706-15255e94599e","ios":"levelo://app?vid=b35843bb-8826-4f0d-a706-15255e94599e"},"vehicle_type_id":"4","last_reported":1760789900,"current_range_meters":13600,"station_id":"","pricing_plan_id":"cebpf4jnsgd1na2vs0mg"},{"bike_id":"5c984b9a-d3ae-46a5-8510-44106865f7d4","system_id":"levelo_inurba_marseille","lat":43.28616,"lon":5.3511,"is_reserved":false,"is_disabled":false,"rental_uris":{"android":"levelo://app?vid=5c984b9a-d3ae-46a5-8510-44106865f7d4","ios":"levelo://app?vid=5c984b9a-d3ae-46a5-8510-44106865f7d4"},"vehicle_type_id":"4","last_reported":1760789900,"current_range_meters":14000,"station_id":"ce4bhch2rcd13ifvqeug","pricing_plan_id":"cebpf4jnsgd1na2vs0mg"},{"bike_id":"ea883585-d0e4-4bcb-922c-57b2a3efdeac","system_id":"levelo_inurba_marseille","lat":43.30512,"lon":5.3681,"is_reserved":false,"is_disabled":false,"rental_uris":{"android":"levelo://app?vid=ea883585-d0e4-4bcb-922c-57b2a3efdeac","ios":"levelo://app?vid=ea883585-d0e4-4bcb-922c-57b2a3efdeac"},"vehicle_type_id":"4","last_reported":1760789900,"current_range_meters":14000,"station_id":"","pricing_plan_id":"cebpf4jnsgd1na2vs0mg"},{"bike_id":"4854c209-fce1-4834-be13-07df249b1ab8","system_id":"levelo_inurba_marseille","lat":43.211918,"lon":5.350793,"is_reserved":false,"is_disabled":false,"rental_uris":{"android":"levelo://app?vid=4854c209-fce1-4834-be13-07df249b1ab8","ios":"levelo://app?vid=4854c209-fce1-4834-be13-07df249b1ab8"},"vehicle_type_id":"4","last_reported":1760789900,"current_range_meters":14000,"station_id":"","pricing_plan_id":"cebpf4jnsgd1na2vs0mg"},{"bike_id":"0b935bca-ac5e-4e59-b0e6-11595b53091d","system_id":"levelo_inurba_marseille","lat":43.292694,"lon":5.384375,"is_reserved":false,"is_disabled":false,"rental_uris":{"android":"levelo://app?vid=0b935bca-ac5e-4e59-b0e6-11595b53091d","ios":"levelo://app?vid=0b935bca-ac5e-4e59-b0e6-11595b53091d"},"vehicle_type_id":"4","last_reported":1760789900,"current_range_meters":14000,"station_id":"ce4bh692rcd13ifvqea0","pricing_plan_id":"cebpf4jnsgd1na2vs0mg"},{"bike_id":"8df55d1c-f117-4d7e-bf77-2c1831e1b3d7","system_id":"levelo_inurba_marseille","lat":43.237773,"lon":5.366351,"is_reserved":false,"is_disabled":false,"rental_uris":{"android":"levelo://app?vid=8df55d1c-f117-4d7e-bf77-2c1831e1b3d7","ios":"levelo://app?vid=8df55d1c-f117-4d7e-bf77-2c1831e1b3d7"},"vehicle_type_id":"4","last_reported":1760789900,"current_range_meters":14000,"station_id":"st_d3nk18o9ro0c73en2l3g","pricing_plan_id":"cebpf4jnsgd1na2vs0mg"},{"bike_id":"ae6eb0f2-4874-4ceb-8d8c-7385a8266f58","system_id":"levelo_inurba_marseille","lat":43.29502,"lon":5.37904,"is_reserved":false,"is_disabled":false,"rental_uris":{"android":"levelo://app?vid=ae6eb0f2-4874-4ceb-8d8c-7385a8266f58","ios":"levelo://app?vid=ae6eb0f2-4874-4ceb-8d8c-7385a8266f58"},"vehicle_type_id":"4","last_reported":1760789900,"current_range_meters":14000,"station_id":"","pricing_plan_id":"cebpf4jnsgd1na2vs0mg"},{"bike_id":"71f9386a-eacb-41ba-a634-0bb3436fc827","system_id":"levelo_inurba_marseille","lat":43.31707,"lon":5.43716,"is_reserved":false,"is_disabled":false,"rental_uris":{"android":"levelo://app?vid=71f9386a-eacb-41ba-a634-0bb3436fc827","ios":"levelo://app?vid=71f9386a-eacb-41ba-a634-0bb3436fc827"},"vehicle_type_id":"4","last_reported":1760789900,"current_range_meters":14400,"station_id":"ce4bhp92rcd13ifvqhcg","pricing_plan_id":"cebpf4jnsgd1na2vs0mg"},{"bike_id":"9b632bca-7ea6-4f78-87f6-bf6dd5a96424","system_id":"levelo_inurba_marseille","lat":43.25497,"lon":5.37652,"is_reserved":false,"is_disabled":false,"rental_uris":{"android":"levelo://app?vid=9b632bca-7ea6-4f78-87f6-bf6dd5a96424","ios":"levelo://app?vid=9b632bca-7ea6-4f78-87f6-bf6dd5a96424"},"vehicle_type_id":"4","last_reported":1760789900,"current_range_meters":14400,"station_id":"ce4bhh12rcd13ifvqff0","pricing_plan_id":"cebpf4jnsgd1na2vs0mg"},{"bike_id":"a8a2de3c-3fed-498f-a85e-83394ecaaf70","system_id":"levelo_inurba_marseille","lat":43.28229,"lon":5.39064,"is_reserved":false,"is_disabled":false,"rental_uris":{"android":"levelo://app?vid=a8a2de3c-3fed-498f-a85e-83394ecaaf70","ios":"levelo://app?vid=a8a2de3c-3fed-498f-a85e-83394ecaaf70"},"vehicle_type_id":"4","last_reported":1760789900,"current_range_meters":14400,"station_id":"ce4bhn92rcd13ifvqgsg","pricing_plan_id":"cebpf4jnsgd1na2vs0mg"},{"bike_id":"95a5ba78-a7e2-42b2-b728-e9302751d4f4","system_id":"levelo_inurba_marseille","lat":43.30126,"lon":5.39859,"is_reserved":false,"is_disabled":false,"rental_uris":{"android":"levelo://app?vid=95a5ba78-a7e2-42b2-b728-e9302751d4f4","ios":"levelo://app?vid=95a5ba78-a7e2-42b2-b728-e9302751d4f4"},"vehicle_type_id":"4","last_reported":1760789900,"current_range_meters":14400,"station_id":"ce4bh0h2rcd13ifvqd40","pricing_plan_id":"cebpf4jnsgd1na2vs0mg"},{"bike_id":"e978660f-731d-4a95-8df5-e0a54d8fe8be","system_id":"levelo_inurba_marseille","lat":43.2119,"lon":5.35084,"is_reserved":false,"is_disabled":true,"rental_uris":{"android":"levelo://app?vid=e978660f-731d-4a95-8df5-e0a54d8fe8be","ios":"levelo://app?vid=e978660f-731d-4a95-8df5-e0a54d8fe8be"},"vehicle_type_id":"4","last_reported":1760789900,"current_range_meters":14400,"station_id":"","pricing_plan_id":"cebpf4jnsgd1na2vs0mg"},{"bike_id":"61c8c82b-797c-44f9-8e25-4d85c80d87e7","system_id":"levelo_inurba_marseille","lat":43.27488,"lon":5.42466,"is_reserved":false,"is_disabled":false,"rental_uris":{"android":"levelo://app?vid=61c8c82b-797c-44f9-8e25-4d85c80d87e7","ios":"levelo://app?vid=61c8c82b-797c-44f9-8e25-4d85c80d87e7"},"vehicle_type_id":"4","last_reported":1760789900,"current_range_meters":14400,"station_id":"ce4bhn92rcd13ifvqgrg","pricing_plan_id":"cebpf4jnsgd1na2vs0mg"},{"bike_id":"b1db1391-3474-48f3-85bd-dfc79b190eda","system_id":"levelo_inurba_marseille","lat":43.29294,"lon":5.36092,"is_reserved":false,"is_disabled":false,"rental_uris":{"android":"levelo://app?vid=b1db1391-3474-48f3-85bd-dfc79b190eda","ios":"levelo://app?vid=b1db1391-3474-48f3-85bd-dfc79b190eda"},"vehicle_type_id":"4","last_reported":1760789900,"current_range_meters":14400,"station_id":"","pricing_plan_id":"cebpf4jnsgd1na2vs0mg"},{"bike_id":"00e931a8-1063-4b16-9bb9-905be3e139a5","system_id":"levelo_inurba_marseille","lat":43.29301,"lon":5.37177,"is_reserved":false,"is_disabled":false,"rental_uris":{"android":"levelo://app?vid=00e931a8-1063-4b16-9bb9-905be3e139a5","ios":"levelo://app?vid=00e931a8-1063-4b16-9bb9-905be3e139a5"},"vehicle_type_id":"4","last_reported":1760789900,"current_range_meters":14400,"station_id":"ce4bgh92rcd13ifvqb40","pricing_plan_id":"cebpf4jnsgd1na2vs0mg"},{"bike_id":"25bd64c9-91bc-4c74-b712-6d069cdfe34d","system_id":"levelo_inurba_marseille","lat":43.32104,"lon":5.367718,"is_reserved":false,"is_disabled":false,"rental_uris":{"android":"levelo://app?vid=25bd64c9-91bc-4c74-b712-6d069cdfe34d","ios":"levelo://app?vid=25bd64c9-91bc-4c74-b712-6d069cdfe34d"},"vehicle_type_id":"4","last_reported":1760789900,"current_range_meters":14800,"station_id":"ce4bhrh2rcd13ifvqhug","pricing_plan_id":"cebpf4jnsgd1na2vs0mg"},{"bike_id":"c8e7e487-2046-4072-98bc-53764ffcd62b","system_id":"levelo_inurba_marseille","lat":43.25827,"lon":5.39417,"is_reserved":false,"is_disabled":true,"rental_uris":{"android":"levelo://app?vid=c8e7e487-2046-4072-98bc-53764ffcd62b","ios":"levelo://app?vid=c8e7e487-2046-4072-98bc-53764ffcd62b"},"vehicle_type_id":"4","last_reported":1760789900,"current_range_meters":14800,"station_id":"ce4bhip2rcd13ifvqft0","pricing_plan_id":"cebpf4jnsgd1na2vs0mg"},{"bike_id":"57bc8ade-2963-404c-8f8d-cc0d93e1312e","system_id":"levelo_inurba_marseille","lat":43.286115,"lon":5.351105,"is_reserved":false,"is_disabled":false,"rental_uris":{"android":"levelo://app?vid=57bc8ade-2963-404c-8f8d-cc0d93e1312e","ios":"levelo://app?vid=57bc8ade-2963-404c-8f8d-cc0d93e1312e"},"vehicle_type_id":"4","last_reported":1760789900,"current_range_meters":14800,"station_id":"ce4bhbh2rcd13ifvqeqg","pricing_plan_id":"cebpf4jnsgd1na2vs0mg"},{"bike_id":"1382b748-840e-4ecc-afc5-0fb4eeaeb841","system_id":"levelo_inurba_marseille","lat":43.311121,"lon":5.37767,"is_reserved":false,"is_disabled":false,"rental_uris":{"android":"levelo://app?vid=1382b748-840e-4ecc-afc5-0fb4eeaeb841","ios":"levelo://app?vid=1382b748-840e-4ecc-afc5-0fb4eeaeb841"},"vehicle_type_id":"4","last_reported":1760789900,"current_range_meters":14800,"station_id":"ce4bgt92rcd13ifvqcg0","pricing_plan_id":"cebpf4jnsgd1na2vs0mg"},{"bike_id":"b5384ef3-f722-490e-a099-66d8c4d1cd6b","system_id":"levelo_inurba_marseille","lat":43.285442,"lon":5.441086,"is_reserved":false,"is_disabled":false,"rental_uris":{"android":"levelo://app?vid=b5384ef3-f722-490e-a099-66d8c4d1cd6b","ios":"levelo://app?vid=b5384ef3-f722-490e-a099-66d8c4d1cd6b"},"vehicle_type_id":"4","last_reported":1760789900,"current_range_meters":14800,"station_id":"st_d3j3df2ikq2c7380ej80","pricing_plan_id":"cebpf4jnsgd1na2vs0mg"},{"bike_id":"fa68b210-55bb-4a86-a8f5-f651a77004e6","system_id":"levelo_inurba_marseille","lat":43.231915,"lon":5.355552,"is_reserved":false,"is_disabled":false,"rental_uris":{"android":"levelo://app?vid=fa68b210-55bb-4a86-a8f5-f651a77004e6","ios":"levelo://app?vid=fa68b210-55bb-4a86-a8f5-f651a77004e6"},"vehicle_type_id":"4","last_reported":1760789900,"current_range_meters":14800,"station_id":"ce4bhu92rcd13ifvqi70","pricing_plan_id":"cebpf4jnsgd1na2vs0mg"},{"bike_id":"23d41a40-c2c8-4b1b-ab87-58223543eb75","system_id":"levelo_inurba_marseille","lat":43.24172,"lon":5.36396,"is_reserved":false,"is_disabled":false,"rental_uris":{"android":"levelo://app?vid=23d41a40-c2c8-4b1b-ab87-58223543eb75","ios":"levelo://app?vid=23d41a40-c2c8-4b1b-ab87-58223543eb75"},"vehicle_type_id":"4","last_reported":1760789900,"current_range_meters":14800,"station_id":"cpo36qri1sfpv3e86is0","pricing_plan_id":"cebpf4jnsgd1na2vs0mg"},{"bike_id":"a0eb017e-66f0-4815-a8d8-c1823185beed","system_id":"levelo_inurba_marseille","lat":43.23156,"lon":5.43704,"is_reserved":false,"is_disabled":false,"rental_uris":{"android":"levelo://app?vid=a0eb017e-66f0-4815-a8d8-c1823185beed","ios":"levelo://app?vid=a0eb017e-66f0-4815-a8d8-c1823185beed"},"vehicle_type_id":"4","last_reported":1760789900,"current_range_meters":14800,"station_id":"ce4bhmp2rcd13ifvqgog","pricing_plan_id":"cebpf4jnsgd1na2vs0mg"},{"bike_id":"6af1a4eb-336d-4049-a27b-b694c0fbc7f3","system_id":"levelo_inurba_marseille","lat":43.27374,"lon":5.36255,"is_reserved":false,"is_disabled":false,"rental_uris":{"android":"levelo://app?vid=6af1a4eb-336d-4049-a27b-b694c0fbc7f3","ios":"levelo://app?vid=6af1a4eb-336d-4049-a27b-b694c0fbc7f3"},"vehicle_type_id":"4","last_reported":1760789900,"current_range_meters":14800,"station_id":"ce4bhbh2rcd13ifvqeo0","pricing_plan_id":"cebpf4jnsgd1na2vs0mg"},{"bike_id":"efc981f3-9dbf-4c24-92c1-64e71815b6c3","system_id":"levelo_inurba_marseille","lat":43.30541,"lon":5.36527,"is_reserved":false,"is_disabled":false,"rental_uris":{"android":"levelo://app?vid=efc981f3-9dbf-4c24-92c1-64e71815b6c3","ios":"levelo://app?vid=efc981f3-9dbf-4c24-92c1-64e71815b6c3"},"vehicle_type_id":"4","last_reported":1760789900,"current_range_meters":14800,"station_id":"ce4bgs12rcd13ifvqcag","pricing_plan_id":"cebpf4jnsgd1na2vs0mg"},{"bike_id":"fd314a9d-f78f-4c54-ba38-b83db037eb7d","system_id":"levelo_inurba_marseille","lat":43.21196,"lon":5.35066,"is_reserved":false,"is_disabled":false,"rental_uris":{"android":"levelo://app?vid=fd314a9d-f78f-4c54-ba38-b83db037eb7d","ios":"levelo://app?vid=fd314a9d-f78f-4c54-ba38-b83db037eb7d"},"vehicle_type_id":"4","last_reported":1760789900,"current_range_meters":14800,"station_id":"","pricing_plan_id":"cebpf4jnsgd1na2vs0mg"},{"bike_id":"81e2005e-24eb-402b-92c9-ffb66a9802cc","system_id":"levelo_inurba_marseille","lat":43.21759,"lon":5.34601,"is_reserved":false,"is_disabled":false,"rental_uris":{"android":"levelo://app?vid=81e2005e-24eb-402b-92c9-ffb66a9802cc","ios":"levelo://app?vid=81e2005e-24eb-402b-92c9-ffb66a9802cc"},"vehicle_type_id":"4","last_reported":1760789900,"current_range_meters":15200,"station_id":"st_cvj6r9ubvosntc0bgbag","pricing_plan_id":"cebpf4jnsgd1na2vs0mg"},{"bike_id":"a9df1999-35ba-4aea-bf41-5ab7d43175f1","system_id":"levelo_inurba_marseille","lat":43.24808,"lon":5.37464,"is_reserved":false,"is_disabled":false,"rental_uris":{"android":"levelo://app?vid=a9df1999-35ba-4aea-bf41-5ab7d43175f1","ios":"levelo://app?vid=a9df1999-35ba-4aea-bf41-5ab7d43175f1"},"vehicle_type_id":"4","last_reported":1760789900,"current_range_meters":15200,"station_id":"ce4bhgh2rcd13ifvqfb0","pricing_plan_id":"cebpf4jnsgd1na2vs0mg"},{"bike_id":"05029208-e2a4-4c44-9426-d260dab5b35f","system_id":"levelo_inurba_marseille","lat":43.30148,"lon":5.38081,"is_reserved":false,"is_disabled":false,"rental_uris":{"android":"levelo://app?vid=05029208-e2a4-4c44-9426-d260dab5b35f","ios":"levelo://app?vid=05029208-e2a4-4c44-9426-d260dab5b35f"},"vehicle_type_id":"4","last_reported":1760789900,"current_range_meters":15200,"station_id":"ce4bgjp2rcd13ifvqbh0","pricing_plan_id":"cebpf4jnsgd1na2vs0mg"},{"bike_id":"ac6d2c4d-74a8-443d-a9f9-0d9807feacda","system_id":"levelo_inurba_marseille","lat":43.33772,"lon":5.37469,"is_reserved":false,"is_disabled":false,"rental_uris":{"android":"levelo://app?vid=ac6d2c4d-74a8-443d-a9f9-0d9807feacda","ios":"levelo://app?vid=ac6d2c4d-74a8-443d-a9f9-0d9807feacda"},"vehicle_type_id":"4","last_reported":1760789900,"current_range_meters":15200,"station_id":"","pricing_plan_id":"cebpf4jnsgd1na2vs0mg"},{"bike_id":"836b8a6b-4c16-454e-8ac3-7d1ef905540b","system_id":"levelo_inurba_marseille","lat":43.27377,"lon":5.36254,"is_reserved":false,"is_disabled":false,"rental_uris":{"android":"levelo://app?vid=836b8a6b-4c16-454e-8ac3-7d1ef905540b","ios":"levelo://app?vid=836b8a6b-4c16-454e-8ac3-7d1ef905540b"},"vehicle_type_id":"4","last_reported":1760789900,"current_range_meters":15200,"station_id":"ce4bhbh2rcd13ifvqeo0","pricing_plan_id":"cebpf4jnsgd1na2vs0mg"},{"bike_id":"8c384592-74a5-4f16-9a48-6730215431cc","system_id":"levelo_inurba_marseille","lat":43.29929,"lon":5.36545,"is_reserved":false,"is_disabled":false,"rental_uris":{"android":"levelo://app?vid=8c384592-74a5-4f16-9a48-6730215431cc","ios":"levelo://app?vid=8c384592-74a5-4f16-9a48-6730215431cc"},"vehicle_type_id":"4","last_reported":1760789900,"current_range_meters":15200,"station_id":"ce4bgm92rcd13ifvqbr0","pricing_plan_id":"cebpf4jnsgd1na2vs0mg"},{"bike_id":"572a1696-f4ac-4068-b317-a94f611abb01","system_id":"levelo_inurba_marseille","lat":43.211942,"lon":5.350753,"is_reserved":false,"is_disabled":false,"rental_uris":{"android":"levelo://app?vid=572a1696-f4ac-4068-b317-a94f611abb01","ios":"levelo://app?vid=572a1696-f4ac-4068-b317-a94f611abb01"},"vehicle_type_id":"4","last_reported":1760789900,"current_range_meters":15200,"station_id":"st_cvj6sg6p6f1abm77japg","pricing_plan_id":"cebpf4jnsgd1na2vs0mg"},{"bike_id":"b2c5550d-8a6f-4284-b26f-d0257363b7b7","system_id":"levelo_inurba_marseille","lat":43.25001,"lon":5.38923,"is_reserved":false,"is_disabled":false,"rental_uris":{"android":"levelo://app?vid=b2c5550d-8a6f-4284-b26f-d0257363b7b7","ios":"levelo://app?vid=b2c5550d-8a6f-4284-b26f-d0257363b7b7"},"vehicle_type_id":"4","last_reported":1760789900,"current_range_meters":15200,"station_id":"ce4bhgp2rcd13ifvqfd0","pricing_plan_id":"cebpf4jnsgd1na2vs0mg"},{"bike_id":"6c85175b-40d6-4f58-94b6-02277502ac13","system_id":"levelo_inurba_marseille","lat":43.23785,"lon":5.36644,"is_reserved":false,"is_disabled":false,"rental_uris":{"android":"levelo://app?vid=6c85175b-40d6-4f58-94b6-02277502ac13","ios":"levelo://app?vid=6c85175b-40d6-4f58-94b6-02277502ac13"},"vehicle_type_id":"4","last_reported":1760789900,"current_range_meters":16000,"station_id":"st_d3nk18o9ro0c73en2l3g","pricing_plan_id":"cebpf4jnsgd1na2vs0mg"},{"bike_id":"6426e4fa-7f79-410d-acfa-0a51b3b2658a","system_id":"levelo_inurba_marseille","lat":43.312502,"lon":5.404042,"is_reserved":false,"is_disabled":false,"rental_uris":{"android":"levelo://app?vid=6426e4fa-7f79-410d-acfa-0a51b3b2658a","ios":"levelo://app?vid=6426e4fa-7f79-410d-acfa-0a51b3b2658a"},"vehicle_type_id":"4","last_reported":1760789900,"current_range_meters":16000,"station_id":"","pricing_plan_id":"cebpf4jnsgd1na2vs0mg"},{"bike_id":"365b1110-8604-4b2d-ad9b-3263b8a258f2","system_id":"levelo_inurba_marseille","lat":43.28655,"lon":5.3634,"is_reserved":false,"is_disabled":false,"rental_uris":{"android":"levelo://app?vid=365b1110-8604-4b2d-ad9b-3263b8a258f2","ios":"levelo://app?vid=365b1110-8604-4b2d-ad9b-3263b8a258f2"},"vehicle_type_id":"4","last_reported":1760789900,"current_range_meters":16000,"station_id":"ce4bhah2rcd13ifvqej0","pricing_plan_id":"cebpf4jnsgd1na2vs0mg"},{"bike_id":"bf2c3617-0e72-4f4a-8585-0c63bcbc4fce","system_id":"levelo_inurba_marseille","lat":43.28636,"lon":5.35083,"is_reserved":false,"is_disabled":true,"rental_uris":{"android":"levelo://app?vid=bf2c3617-0e72-4f4a-8585-0c63bcbc4fce","ios":"levelo://app?vid=bf2c3617-0e72-4f4a-8585-0c63bcbc4fce"},"vehicle_type_id":"4","last_reported":1760789900,"current_range_meters":16000,"station_id":"ce4bhch2rcd13ifvqeug","pricing_plan_id":"cebpf4jnsgd1na2vs0mg"},{"bike_id":"d712d0ff-3096-41ad-87d0-b640167ff060","system_id":"levelo_inurba_marseille","lat":43.31541,"lon":5.38512,"is_reserved":false,"is_disabled":false,"rental_uris":{"android":"levelo://app?vid=d712d0ff-3096-41ad-87d0-b640167ff060","ios":"levelo://app?vid=d712d0ff-3096-41ad-87d0-b640167ff060"},"vehicle_type_id":"4","last_reported":1760789900,"current_range_meters":16000,"station_id":"","pricing_plan_id":"cebpf4jnsgd1na2vs0mg"},{"bike_id":"3e9130f7-2dc2-48e9-a6a6-56327ea869ab","system_id":"levelo_inurba_marseille","lat":43.241668,"lon":5.363942,"is_reserved":false,"is_disabled":false,"rental_uris":{"android":"levelo://app?vid=3e9130f7-2dc2-48e9-a6a6-56327ea869ab","ios":"levelo://app?vid=3e9130f7-2dc2-48e9-a6a6-56327ea869ab"},"vehicle_type_id":"4","last_reported":1760789900,"current_range_meters":16000,"station_id":"cpo36qri1sfpv3e86is0","pricing_plan_id":"cebpf4jnsgd1na2vs0mg"},{"bike_id":"c6227cff-120f-49c6-93a2-5454dd916cde","system_id":"levelo_inurba_marseille","lat":43.26547,"lon":5.37297,"is_reserved":false,"is_disabled":true,"rental_uris":{"android":"levelo://app?vid=c6227cff-120f-49c6-93a2-5454dd916cde","ios":"levelo://app?vid=c6227cff-120f-49c6-93a2-5454dd916cde"},"vehicle_type_id":"4","last_reported":1760789900,"current_range_meters":16000,"station_id":"ce4bhg12rcd13ifvqf70","pricing_plan_id":"cebpf4jnsgd1na2vs0mg"},{"bike_id":"6d1f7c65-92dd-4593-8a0b-fa556d994518","system_id":"levelo_inurba_marseille","lat":43.28954,"lon":5.36391,"is_reserved":false,"is_disabled":false,"rental_uris":{"android":"levelo://app?vid=6d1f7c65-92dd-4593-8a0b-fa556d994518","ios":"levelo://app?vid=6d1f7c65-92dd-4593-8a0b-fa556d994518"},"vehicle_type_id":"4","last_reported":1760789900,"current_range_meters":16400,"station_id":"ce4bhc92rcd13ifvqetg","pricing_plan_id":"cebpf4jnsgd1na2vs0mg"},{"bike_id":"074be791-6c38-4f2f-8dd0-b227e073e27e","system_id":"levelo_inurba_marseille","lat":43.241682,"lon":5.364036,"is_reserved":false,"is_disabled":false,"rental_uris":{"android":"levelo://app?vid=074be791-6c38-4f2f-8dd0-b227e073e27e","ios":"levelo://app?vid=074be791-6c38-4f2f-8dd0-b227e073e27e"},"vehicle_type_id":"4","last_reported":1760789900,"current_range_meters":16400,"station_id":"cpo36qri1sfpv3e86is0","pricing_plan_id":"cebpf4jnsgd1na2vs0mg"},{"bike_id":"3f13991a-43fd-4b49-b31a-f84d43d4b745","system_id":"levelo_inurba_marseille","lat":43.28975,"lon":5.37151,"is_reserved":false,"is_disabled":false,"rental_uris":{"android":"levelo://app?vid=3f13991a-43fd-4b49-b31a-f84d43d4b745","ios":"levelo://app?vid=3f13991a-43fd-4b49-b31a-f84d43d4b745"},"vehicle_type_id":"4","last_reported":1760789900,"current_range_meters":16400,"station_id":"","pricing_plan_id":"cebpf4jnsgd1na2vs0mg"},{"bike_id":"334e9934-b727-4859-880b-52e13ff2899f","system_id":"levelo_inurba_marseille","lat":43.32031,"lon":5.41568,"is_reserved":false,"is_disabled":false,"rental_uris":{"android":"levelo://app?vid=334e9934-b727-4859-880b-52e13ff2899f","ios":"levelo://app?vid=334e9934-b727-4859-880b-52e13ff2899f"},"vehicle_type_id":"4","last_reported":1760789900,"current_range_meters":16400,"station_id":"ce4bhq92rcd13ifvqhkg","pricing_plan_id":"cebpf4jnsgd1na2vs0mg"},{"bike_id":"cf4c14bf-7635-4f96-a4b6-ee6481db3804","system_id":"levelo_inurba_marseille","lat":43.32293,"lon":5.38287,"is_reserved":false,"is_disabled":false,"rental_uris":{"android":"levelo://app?vid=cf4c14bf-7635-4f96-a4b6-ee6481db3804","ios":"levelo://app?vid=cf4c14bf-7635-4f96-a4b6-ee6481db3804"},"vehicle_type_id":"4","last_reported":1760789900,"current_range_meters":16400,"station_id":"ce4bhr12rcd13ifvqhqg","pricing_plan_id":"cebpf4jnsgd1na2vs0mg"},{"bike_id":"ed69f88e-6c22-42a5-85cf-9e255bad99a0","system_id":"levelo_inurba_marseille","lat":43.337444,"lon":5.374475,"is_reserved":false,"is_disabled":false,"rental_uris":{"android":"levelo://app?vid=ed69f88e-6c22-42a5-85cf-9e255bad99a0","ios":"levelo://app?vid=ed69f88e-6c22-42a5-85cf-9e255bad99a0"},"vehicle_type_id":"4","last_reported":1760789900,"current_range_meters":16400,"station_id":"","pricing_plan_id":"cebpf4jnsgd1na2vs0mg"},{"bike_id":"9567dcee-e17c-444e-b258-737aab325a64","system_id":"levelo_inurba_marseille","lat":43.26955,"lon":5.38636,"is_reserved":false,"is_disabled":false,"rental_uris":{"android":"levelo://app?vid=9567dcee-e17c-444e-b258-737aab325a64","ios":"levelo://app?vid=9567dcee-e17c-444e-b258-737aab325a64"},"vehicle_type_id":"4","last_reported":1760789900,"current_range_meters":16400,"station_id":"ce4bhh92rcd13ifvqfh0","pricing_plan_id":"cebpf4jnsgd1na2vs0mg"},{"bike_id":"a7b3764b-b896-4840-bd7e-9880973af195","system_id":"levelo_inurba_marseille","lat":43.292287,"lon":5.360602,"is_reserved":false,"is_disabled":false,"rental_uris":{"android":"levelo://app?vid=a7b3764b-b896-4840-bd7e-9880973af195","ios":"levelo://app?vid=a7b3764b-b896-4840-bd7e-9880973af195"},"vehicle_type_id":"4","last_reported":1760789900,"current_range_meters":16400,"station_id":"","pricing_plan_id":"cebpf4jnsgd1na2vs0mg"},{"bike_id":"f4b21278-7a88-4f1e-8b50-4cb4a181722f","system_id":"levelo_inurba_marseille","lat":43.2853,"lon":5.44102,"is_reserved":false,"is_disabled":false,"rental_uris":{"android":"levelo://app?vid=f4b21278-7a88-4f1e-8b50-4cb4a181722f","ios":"levelo://app?vid=f4b21278-7a88-4f1e-8b50-4cb4a181722f"},"vehicle_type_id":"4","last_reported":1760789900,"current_range_meters":16400,"station_id":"st_d3j3df2ikq2c7380ej80","pricing_plan_id":"cebpf4jnsgd1na2vs0mg"},{"bike_id":"0b5f34f4-c914-4581-a905-74ee6da223c9","system_id":"levelo_inurba_marseille","lat":43.23063,"lon":5.35489,"is_reserved":false,"is_disabled":false,"rental_uris":{"android":"levelo://app?vid=0b5f34f4-c914-4581-a905-74ee6da223c9","ios":"levelo://app?vid=0b5f34f4-c914-4581-a905-74ee6da223c9"},"vehicle_type_id":"4","last_reported":1760789900,"current_range_meters":16400,"station_id":"cpo3342slgdg3j2ifvpg","pricing_plan_id":"cebpf4jnsgd1na2vs0mg"},{"bike_id":"c86efa65-0d7f-4ea0-91fd-02a7ce32d41a","system_id":"levelo_inurba_marseille","lat":43.28619,"lon":5.35111,"is_reserved":false,"is_disabled":false,"rental_uris":{"android":"levelo://app?vid=c86efa65-0d7f-4ea0-91fd-02a7ce32d41a","ios":"levelo://app?vid=c86efa65-0d7f-4ea0-91fd-02a7ce32d41a"},"vehicle_type_id":"4","last_reported":1760789900,"current_range_meters":16800,"station_id":"ce4bhch2rcd13ifvqeug","pricing_plan_id":"cebpf4jnsgd1na2vs0mg"},{"bike_id":"19a0f5d9-c883-4d4a-b9ce-273719a9971c","system_id":"levelo_inurba_marseille","lat":43.211916,"lon":5.350724,"is_reserved":false,"is_disabled":false,"rental_uris":{"android":"levelo://app?vid=19a0f5d9-c883-4d4a-b9ce-273719a9971c","ios":"levelo://app?vid=19a0f5d9-c883-4d4a-b9ce-273719a9971c"},"vehicle_type_id":"4","last_reported":1760789900,"current_range_meters":16800,"station_id":"st_cvj6sg6p6f1abm77japg","pricing_plan_id":"cebpf4jnsgd1na2vs0mg"},{"bike_id":"62a2d1f4-54ee-48a0-b22b-182fd7cd9a67","system_id":"levelo_inurba_marseille","lat":43.282697,"lon":5.35056,"is_reserved":false,"is_disabled":true,"rental_uris":{"android":"levelo://app?vid=62a2d1f4-54ee-48a0-b22b-182fd7cd9a67","ios":"levelo://app?vid=62a2d1f4-54ee-48a0-b22b-182fd7cd9a67"},"vehicle_type_id":"4","last_reported":1760789900,"current_range_meters":16800,"station_id":"ce4bhbp2rcd13ifvqerg","pricing_plan_id":"cebpf4jnsgd1na2vs0mg"},{"bike_id":"4d639fc2-fd62-4b4f-8fc3-f0ee032daac3","system_id":"levelo_inurba_marseille","lat":43.2417,"lon":5.36399,"is_reserved":false,"is_disabled":false,"rental_uris":{"android":"levelo://app?vid=4d639fc2-fd62-4b4f-8fc3-f0ee032daac3","ios":"levelo://app?vid=4d639fc2-fd62-4b4f-8fc3-f0ee032daac3"},"vehicle_type_id":"4","last_reported":1760789900,"current_range_meters":16800,"station_id":"cpo36qri1sfpv3e86is0","pricing_plan_id":"cebpf4jnsgd1na2vs0mg"},{"bike_id":"f3be7635-8c71-44b6-a3c6-297234ec2fc8","system_id":"levelo_inurba_marseille","lat":43.2827,"lon":5.35057,"is_reserved":false,"is_disabled":false,"rental_uris":{"android":"levelo://app?vid=f3be7635-8c71-44b6-a3c6-297234ec2fc8","ios":"levelo://app?vid=f3be7635-8c71-44b6-a3c6-297234ec2fc8"},"vehicle_type_id":"4","last_reported":1760789900,"current_range_meters":16800,"station_id":"ce4bhbp2rcd13ifvqerg","pricing_plan_id":"cebpf4jnsgd1na2vs0mg"},{"bike_id":"5660a78e-c769-457e-8b5e-d4f1276fcb89","system_id":"levelo_inurba_marseille","lat":43.29006,"lon":5.35609,"is_reserved":false,"is_disabled":false,"rental_uris":{"android":"levelo://app?vid=5660a78e-c769-457e-8b5e-d4f1276fcb89","ios":"levelo://app?vid=5660a78e-c769-457e-8b5e-d4f1276fcb89"},"vehicle_type_id":"4","last_reported":1760789900,"current_range_meters":16800,"station_id":"ce4bhb92rcd13ifvqen0","pricing_plan_id":"cebpf4jnsgd1na2vs0mg"},{"bike_id":"de09b7b4-6615-43bf-9f43-b627cc30b5d4","system_id":"levelo_inurba_marseille","lat":43.28402,"lon":5.34985,"is_reserved":false,"is_disabled":false,"rental_uris":{"android":"levelo://app?vid=de09b7b4-6615-43bf-9f43-b627cc30b5d4","ios":"levelo://app?vid=de09b7b4-6615-43bf-9f43-b627cc30b5d4"},"vehicle_type_id":"4","last_reported":1760789900,"current_range_meters":16800,"station_id":"ce4bhbh2rcd13ifvqepg","pricing_plan_id":"cebpf4jnsgd1na2vs0mg"},{"bike_id":"08e156f4-f389-47f2-a554-82d58ee52248","system_id":"levelo_inurba_marseille","lat":43.23778,"lon":5.36629,"is_reserved":false,"is_disabled":false,"rental_uris":{"android":"levelo://app?vid=08e156f4-f389-47f2-a554-82d58ee52248","ios":"levelo://app?vid=08e156f4-f389-47f2-a554-82d58ee52248"},"vehicle_type_id":"4","last_reported":1760789900,"current_range_meters":17200,"station_id":"st_d3nk18o9ro0c73en2l3g","pricing_plan_id":"cebpf4jnsgd1na2vs0mg"},{"bike_id":"edcb744a-1021-4493-86cd-94aad7a8dbc8","system_id":"levelo_inurba_marseille","lat":43.30583,"lon":5.3747,"is_reserved":false,"is_disabled":false,"rental_uris":{"android":"levelo://app?vid=edcb744a-1021-4493-86cd-94aad7a8dbc8","ios":"levelo://app?vid=edcb744a-1021-4493-86cd-94aad7a8dbc8"},"vehicle_type_id":"4","last_reported":1760789900,"current_range_meters":17200,"station_id":"","pricing_plan_id":"cebpf4jnsgd1na2vs0mg"},{"bike_id":"6cbc56d2-7ae4-434e-8dca-32e623ba30bb","system_id":"levelo_inurba_marseille","lat":43.273846,"lon":5.362595,"is_reserved":false,"is_disabled":false,"rental_uris":{"android":"levelo://app?vid=6cbc56d2-7ae4-434e-8dca-32e623ba30bb","ios":"levelo://app?vid=6cbc56d2-7ae4-434e-8dca-32e623ba30bb"},"vehicle_type_id":"4","last_reported":1760789900,"current_range_meters":17200,"station_id":"ce4bhbh2rcd13ifvqeo0","pricing_plan_id":"cebpf4jnsgd1na2vs0mg"},{"bike_id":"4a23c317-76a9-400a-acae-5f3e1322bc46","system_id":"levelo_inurba_marseille","lat":43.217533,"lon":5.346076,"is_reserved":false,"is_disabled":false,"rental_uris":{"android":"levelo://app?vid=4a23c317-76a9-400a-acae-5f3e1322bc46","ios":"levelo://app?vid=4a23c317-76a9-400a-acae-5f3e1322bc46"},"vehicle_type_id":"4","last_reported":1760789900,"current_range_meters":17200,"station_id":"","pricing_plan_id":"cebpf4jnsgd1na2vs0mg"},{"bike_id":"a871b554-5c53-4ad7-9005-aa057a7bed08","system_id":"levelo_inurba_marseille","lat":43.28405,"lon":5.34972,"is_reserved":false,"is_disabled":false,"rental_uris":{"android":"levelo://app?vid=a871b554-5c53-4ad7-9005-aa057a7bed08","ios":"levelo://app?vid=a871b554-5c53-4ad7-9005-aa057a7bed08"},"vehicle_type_id":"4","last_reported":1760789900,"current_range_meters":17200,"station_id":"ce4bhbh2rcd13ifvqepg","pricing_plan_id":"cebpf4jnsgd1na2vs0mg"},{"bike_id":"109ac308-54fd-47d6-af56-fc67913ab9d0","system_id":"levelo_inurba_marseille","lat":43.30125,"lon":5.43118,"is_reserved":false,"is_disabled":false,"rental_uris":{"android":"levelo://app?vid=109ac308-54fd-47d6-af56-fc67913ab9d0","ios":"levelo://app?vid=109ac308-54fd-47d6-af56-fc67913ab9d0"},"vehicle_type_id":"4","last_reported":1760789900,"current_range_meters":17200,"station_id":"st_d3js3co5814s73ftftug","pricing_plan_id":"cebpf4jnsgd1na2vs0mg"},{"bike_id":"61dec82f-dae0-406f-a87b-574d0d1c43dd","system_id":"levelo_inurba_marseille","lat":43.30147,"lon":5.3743,"is_reserved":false,"is_disabled":false,"rental_uris":{"android":"levelo://app?vid=61dec82f-dae0-406f-a87b-574d0d1c43dd","ios":"levelo://app?vid=61dec82f-dae0-406f-a87b-574d0d1c43dd"},"vehicle_type_id":"4","last_reported":1760789900,"current_range_meters":17600,"station_id":"ce4bgs92rcd13ifvqcc0","pricing_plan_id":"cebpf4jnsgd1na2vs0mg"},{"bike_id":"6e25cdbd-18b6-4a38-a3d4-d2d5668a783c","system_id":"levelo_inurba_marseille","lat":43.28418,"lon":5.3498,"is_reserved":false,"is_disabled":false,"rental_uris":{"android":"levelo://app?vid=6e25cdbd-18b6-4a38-a3d4-d2d5668a783c","ios":"levelo://app?vid=6e25cdbd-18b6-4a38-a3d4-d2d5668a783c"},"vehicle_type_id":"4","last_reported":1760789900,"current_range_meters":17600,"station_id":"ce4bhbh2rcd13ifvqepg","pricing_plan_id":"cebpf4jnsgd1na2vs0mg"},{"bike_id":"6abe062a-30a3-4bd9-87d0-fe4d14339518","system_id":"levelo_inurba_marseille","lat":43.22568,"lon":5.41617,"is_reserved":false,"is_disabled":false,"rental_uris":{"android":"levelo://app?vid=6abe062a-30a3-4bd9-87d0-fe4d14339518","ios":"levelo://app?vid=6abe062a-30a3-4bd9-87d0-fe4d14339518"},"vehicle_type_id":"4","last_reported":1760789900,"current_range_meters":17600,"station_id":"st_d2o4gvlbi1j2169b742g","pricing_plan_id":"cebpf4jnsgd1na2vs0mg"},{"bike_id":"75b450d7-06f8-48f3-a008-8141767739eb","system_id":"levelo_inurba_marseille","lat":43.30144,"lon":5.39861,"is_reserved":false,"is_disabled":false,"rental_uris":{"android":"levelo://app?vid=75b450d7-06f8-48f3-a008-8141767739eb","ios":"levelo://app?vid=75b450d7-06f8-48f3-a008-8141767739eb"},"vehicle_type_id":"4","last_reported":1760789900,"current_range_meters":17600,"station_id":"ce4bh0h2rcd13ifvqd40","pricing_plan_id":"cebpf4jnsgd1na2vs0mg"},{"bike_id":"8cd818e3-a9e2-4f48-92b2-26306f507696","system_id":"levelo_inurba_marseille","lat":43.31349,"lon":5.37913,"is_reserved":false,"is_disabled":false,"rental_uris":{"android":"levelo://app?vid=8cd818e3-a9e2-4f48-92b2-26306f507696","ios":"levelo://app?vid=8cd818e3-a9e2-4f48-92b2-26306f507696"},"vehicle_type_id":"4","last_reported":1760789900,"current_range_meters":17600,"station_id":"","pricing_plan_id":"cebpf4jnsgd1na2vs0mg"},{"bike_id":"e87f5e00-02dc-4b72-a7a1-e51fc3bdd01b","system_id":"levelo_inurba_marseille","lat":43.211939,"lon":5.350735,"is_reserved":false,"is_disabled":false,"rental_uris":{"android":"levelo://app?vid=e87f5e00-02dc-4b72-a7a1-e51fc3bdd01b","ios":"levelo://app?vid=e87f5e00-02dc-4b72-a7a1-e51fc3bdd01b"},"vehicle_type_id":"4","last_reported":1760789900,"current_range_meters":17600,"station_id":"","pricing_plan_id":"cebpf4jnsgd1na2vs0mg"},{"bike_id":"b41ab0d9-1770-493d-b5f5-429063493b83","system_id":"levelo_inurba_marseille","lat":43.26681,"lon":5.38271,"is_reserved":false,"is_disabled":false,"rental_uris":{"android":"levelo://app?vid=b41ab0d9-1770-493d-b5f5-429063493b83","ios":"levelo://app?vid=b41ab0d9-1770-493d-b5f5-429063493b83"},"vehicle_type_id":"4","last_reported":1760789900,"current_range_meters":17600,"station_id":"ce4bhg92rcd13ifvqf90","pricing_plan_id":"cebpf4jnsgd1na2vs0mg"},{"bike_id":"fb3bb045-f3db-49c4-9c21-11b757f154d3","system_id":"levelo_inurba_marseille","lat":43.29003,"lon":5.35616,"is_reserved":false,"is_disabled":false,"rental_uris":{"android":"levelo://app?vid=fb3bb045-f3db-49c4-9c21-11b757f154d3","ios":"levelo://app?vid=fb3bb045-f3db-49c4-9c21-11b757f154d3"},"vehicle_type_id":"4","last_reported":1760789900,"current_range_meters":18000,"station_id":"ce4bhb92rcd13ifvqen0","pricing_plan_id":"cebpf4jnsgd1na2vs0mg"},{"bike_id":"79b49b83-19ec-4304-bb89-01fac6377c52","system_id":"levelo_inurba_marseille","lat":43.27373,"lon":5.36259,"is_reserved":false,"is_disabled":false,"rental_uris":{"android":"levelo://app?vid=79b49b83-19ec-4304-bb89-01fac6377c52","ios":"levelo://app?vid=79b49b83-19ec-4304-bb89-01fac6377c52"},"vehicle_type_id":"4","last_reported":1760789900,"current_range_meters":18000,"station_id":"ce4bhbh2rcd13ifvqeo0","pricing_plan_id":"cebpf4jnsgd1na2vs0mg"},{"bike_id":"86ce52f8-f590-4694-90e1-216ddc477b29","system_id":"levelo_inurba_marseille","lat":43.30968,"lon":5.3812,"is_reserved":false,"is_disabled":false,"rental_uris":{"android":"levelo://app?vid=86ce52f8-f590-4694-90e1-216ddc477b29","ios":"levelo://app?vid=86ce52f8-f590-4694-90e1-216ddc477b29"},"vehicle_type_id":"4","last_reported":1760789900,"current_range_meters":18000,"station_id":"","pricing_plan_id":"cebpf4jnsgd1na2vs0mg"},{"bike_id":"30e29ba5-cef1-4271-935d-74a792e8f781","system_id":"levelo_inurba_marseille","lat":43.29228,"lon":5.36068,"is_reserved":false,"is_disabled":false,"rental_uris":{"android":"levelo://app?vid=30e29ba5-cef1-4271-935d-74a792e8f781","ios":"levelo://app?vid=30e29ba5-cef1-4271-935d-74a792e8f781"},"vehicle_type_id":"4","last_reported":1760789900,"current_range_meters":18000,"station_id":"ce4bhbh2rcd13ifvqeqg","pricing_plan_id":"cebpf4jnsgd1na2vs0mg"},{"bike_id":"ab0a153b-5922-4927-8a4d-503a7ed2e42f","system_id":"levelo_inurba_marseille","lat":43.250028,"lon":5.389309,"is_reserved":false,"is_disabled":false,"rental_uris":{"android":"levelo://app?vid=ab0a153b-5922-4927-8a4d-503a7ed2e42f","ios":"levelo://app?vid=ab0a153b-5922-4927-8a4d-503a7ed2e42f"},"vehicle_type_id":"4","last_reported":1760789900,"current_range_meters":18000,"station_id":"ce4bhgp2rcd13ifvqfd0","pricing_plan_id":"cebpf4jnsgd1na2vs0mg"},{"bike_id":"2a7bc58a-d2a7-4761-ae41-f8cceede8138","system_id":"levelo_inurba_marseille","lat":43.21756,"lon":5.3458,"is_reserved":false,"is_disabled":false,"rental_uris":{"android":"levelo://app?vid=2a7bc58a-d2a7-4761-ae41-f8cceede8138","ios":"levelo://app?vid=2a7bc58a-d2a7-4761-ae41-f8cceede8138"},"vehicle_type_id":"4","last_reported":1760789900,"current_range_meters":18000,"station_id":"st_cvj6r9ubvosntc0bgbag","pricing_plan_id":"cebpf4jnsgd1na2vs0mg"},{"bike_id":"4bd86c72-1277-47f7-98bf-d328c26d271c","system_id":"levelo_inurba_marseille","lat":43.21737,"lon":5.34608,"is_reserved":false,"is_disabled":false,"rental_uris":{"android":"levelo://app?vid=4bd86c72-1277-47f7-98bf-d328c26d271c","ios":"levelo://app?vid=4bd86c72-1277-47f7-98bf-d328c26d271c"},"vehicle_type_id":"4","last_reported":1760789900,"current_range_meters":18000,"station_id":"","pricing_plan_id":"cebpf4jnsgd1na2vs0mg"},{"bike_id":"a3bea987-4c2d-47e9-ab2e-048f59a06e29","system_id":"levelo_inurba_marseille","lat":43.323466,"lon":5.367126,"is_reserved":false,"is_disabled":false,"rental_uris":{"android":"levelo://app?vid=a3bea987-4c2d-47e9-ab2e-048f59a06e29","ios":"levelo://app?vid=a3bea987-4c2d-47e9-ab2e-048f59a06e29"},"vehicle_type_id":"4","last_reported":1760789900,"current_range_meters":18000,"station_id":"ce4bhsh2rcd13ifvqi2g","pricing_plan_id":"cebpf4jnsgd1na2vs0mg"},{"bike_id":"9c724647-f74e-470c-9863-48aae8acdf3f","system_id":"levelo_inurba_marseille","lat":43.298606,"lon":5.363004,"is_reserved":false,"is_disabled":false,"rental_uris":{"android":"levelo://app?vid=9c724647-f74e-470c-9863-48aae8acdf3f","ios":"levelo://app?vid=9c724647-f74e-470c-9863-48aae8acdf3f"},"vehicle_type_id":"4","last_reported":1760789900,"current_range_meters":18000,"station_id":"ce4bgpp2rcd13ifvqc3g","pricing_plan_id":"cebpf4jnsgd1na2vs0mg"},{"bike_id":"0f787efd-37ca-4060-a03d-15d3c3ce389f","system_id":"levelo_inurba_marseille","lat":43.30011,"lon":5.37332,"is_reserved":false,"is_disabled":false,"rental_uris":{"android":"levelo://app?vid=0f787efd-37ca-4060-a03d-15d3c3ce389f","ios":"levelo://app?vid=0f787efd-37ca-4060-a03d-15d3c3ce389f"},"vehicle_type_id":"4","last_reported":1760789900,"current_range_meters":18000,"station_id":"","pricing_plan_id":"cebpf4jnsgd1na2vs0mg"},{"bike_id":"8f6c99a9-2111-4ea5-ba4d-4bb0a3b06aa1","system_id":"levelo_inurba_marseille","lat":43.298171,"lon":5.440652,"is_reserved":false,"is_disabled":false,"rental_uris":{"android":"levelo://app?vid=8f6c99a9-2111-4ea5-ba4d-4bb0a3b06aa1","ios":"levelo://app?vid=8f6c99a9-2111-4ea5-ba4d-4bb0a3b06aa1"},"vehicle_type_id":"4","last_reported":1760789900,"current_range_meters":18800,"station_id":"st_d3jp68qikq2c7381ktn0","pricing_plan_id":"cebpf4jnsgd1na2vs0mg"},