{"last_updated":1762625597,"ttl":60,"version":"2.2","data":{"bikes":[{"bike_id":"f6ca3376-6c37-4f5b-8212-007c073cf046","system_id":"levelo_inurba_marseille","lat":43.22544,"lon":5.41618,"is_reserved":false,"is_disabled":true,"rental_uris":{"android":"levelo://app?vid=f6ca3376-6c37-4f5b-8212-007c073cf046","ios":"levelo://app?vid=f6ca3376-6c37-4f5b-8212-007c073cf046"},"vehicle_type_id":"4","last_reported":1762625598,"current_range_meters":2800,"station_id":"st_d2o4gvlbi1j2169b742g","pricing_plan_id":"cebpf4jnsgd1na2vs0mg"},{"bike_id":"0ba26a98-ffea-482a-9ac9-09e76c8dd5be","system_id":"levelo_inurba_marseille","lat":43.28234,"lon":5.3906,"is_reserved":false,"is_disabled":false,"rental_uris":{"android":"levelo://app?vid=0ba26a98-ffea-482a-9ac9-09e76c8dd5be","ios":"levelo://app?vid=0ba26a98-ffea-482a-9ac9-09e76c8dd5be"},"vehicle_type_id":"4","last_reported":1762625598,"current_range_meters":2800,"station_id":"ce4bhn92rcd13ifvqgsg","pricing_plan_id":"cebpf4jnsgd1na2vs0mg"},{"bike_id":"18fe6c09-113c-411d-972f-0f2333ee6103","system_id":"levelo_inurba_marseille","lat":43.312785,"lon":5.401664,"is_reserved":false,"is_disabled":false,"rental_uris":{"android":"levelo://app?vid=18fe6c09-113c-411d-972f-0f2333ee6103","ios":"levelo://app?vid=18fe6c09-113c-411d-972f-0f2333ee6103"},"vehicle_type_id":"4","last_reported":1762625598,"current_range_meters":2800,"station_id":"ce4bh092rcd13ifvqd30","pricing_plan_id":"cebpf4jnsgd1na2vs0mg"},{"bike_id":"77bbe362-3863-4007-9d4b-36cb4d665926","system_id":"levelo_inurba_marseille","lat":43.2827,"lon":5.35062,"is_reserved":false,"is_disabled":false,"rental_uris":{"android":"levelo://app?vid=77bbe362-3863-4007-9d4b-36cb4d665926","ios":"levelo://app?vid=77bbe362-3863-4007-9d4b-36cb4d665926"},"vehicle_type_id":"4","last_reported":1762625598,"current_range_meters":3200,"station_id":"ce4bhbp2rcd13ifvqerg","pricing_plan_id":"cebpf4jnsgd1na2vs0mg"},{"bike_id":"59b31ef2-3fe3-46e5-b5a5-685f264695ce","system_id":"levelo_inurba_marseille","lat":43.28479,"lon":5.48402,"is_reserved":false,"is_disabled":false,"rental_uris":{"android":"levelo://app?vid=59b31ef2-3fe3-46e5-b5a5-685f264695ce","ios":"levelo://app?vid=59b31ef2-3fe3-46e5-b5a5-685f264695ce"},"vehicle_type_id":"4","last_reported":1762625598,"current_range_meters":3200,"station_id":"","pricing_plan_id":"cebpf4jnsgd1na2vs0mg"},{"bike_id":"9340eac6-604c-4034-97d3-3b1edd491ed6","system_id":"levelo_inurba_marseille","lat":43.28231,"lon":5.39061,"is_reserved":false,"is_disabled":false,"rental_uris":{"android":"levelo://app?vid=9340eac6-604c-4034-97d3-3b1edd491ed6","ios":"levelo://app?vid=9340eac6-604c-4034-97d3-3b1edd491ed6"},"vehicle_type_id":"4","last_reported":1762625598,"current_range_meters":3200,"station_id":"ce4bhn92rcd13ifvqgsg","pricing_plan_id":"cebpf4jnsgd1na2vs0mg"},{"bike_id":"d14931a0-78e7-45e7-802d-c5a8a7c60ec5","system_id":"levelo_inurba_marseille","lat":43.28562,"lon":5.39523,"is_reserved":false,"is_disabled":false,"rental_uris":{"android":"levelo://app?vid=d14931a0-78e7-45e7-802d-c5a8a7c60ec5","ios":"levelo://app?vid=d14931a0-78e7-45e7-802d-c5a8a7c60ec5"},"vehicle_type_id":"4","last_reported":1762625598,"current_range_meters":3200,"station_id":"ce4bh292rcd13ifvqdg0","pricing_plan_id":"cebpf4jnsgd1na2vs0mg"},{"bike_id":"1c6bc4d8-4da5-45ff-af52-f68cec0dacd6","system_id":"levelo_inurba_marseille","lat":43.3042,"lon":5.4129,"is_reserved":false,"is_disabled":false,"rental_uris":{"android":"levelo://app?vid=1c6bc4d8-4da5-45ff-af52-f68cec0dacd6","ios":"levelo://app?vid=1c6bc4d8-4da5-45ff-af52-f68cec0dacd6"},"vehicle_type_id":"4","last_reported":1762625598,"current_range_meters":3200,"station_id":"ce4bhop2rcd13ifvqh8g","pricing_plan_id":"cebpf4jnsgd1na2vs0mg"},{"bike_id":"05c639a2-6660-40ed-a12f-85b485fe188e","system_id":"levelo_inurba_marseille","lat":43.29202,"lon":5.35763,"is_reserved":false,"is_disabled":false,"rental_uris":{"android":"levelo://app?vid=05c639a2-6660-40ed-a12f-85b485fe188e","ios":"levelo://app?vid=05c639a2-6660-40ed-a12f-85b485fe188e"},"vehicle_type_id":"4","last_reported":1762625598,"current_range_meters":3600,"station_id":"ce4bhb12rcd13ifvqel0","pricing_plan_id":"cebpf4jnsgd1na2vs0mg"},{"bike_id":"daf94b15-a263-4b78-b809-84de8b4794fe","system_id":"levelo_inurba_marseille","lat":43.308053,"lon":5.381461,"is_reserved":false,"is_disabled":false,"rental_uris":{"android":"levelo://app?vid=daf94b15-a263-4b78-b809-84de8b4794fe","ios":"levelo://app?vid=daf94b15-a263-4b78-b809-84de8b4794fe"},"vehicle_type_id":"4","last_reported":1762625598,"current_range_meters":3600,"station_id":"ce4bgt12rcd13ifvqce0","pricing_plan_id":"cebpf4jnsgd1na2vs0mg"},{"bike_id":"32c4054d-c111-4f1c-b188-9138aed42210","system_id":"levelo_inurba_marseille","lat":43.31977,"lon":5.41581,"is_reserved":false,"is_disabled":false,"rental_uris":{"android":"levelo://app?vid=32c4054d-c111-4f1c-b188-9138aed42210","ios":"levelo://app?vid=32c4054d-c111-4f1c-b188-9138aed42210"},"vehicle_type_id":"4","last_reported":1762625598,"current_range_meters":3600,"station_id":"","pricing_plan_id":"cebpf4jnsgd1na2vs0mg"},{"bike_id":"a2d6ee6a-efb1-44d2-8268-c1d703ef8b95","system_id":"levelo_inurba_marseille","lat":43.303175,"lon":5.404314,"is_reserved":false,"is_disabled":false,"rental_uris":{"android":"levelo://app?vid=a2d6ee6a-efb1-44d2-8268-c1d703ef8b95","ios":"levelo://app?vid=a2d6ee6a-efb1-44d2-8268-c1d703ef8b95"},"vehicle_type_id":"4","last_reported":1762625598,"current_range_meters":3600,"station_id":"ce4bh012rcd13ifvqd10","pricing_plan_id":"cebpf4jnsgd1na2vs0mg"},{"bike_id":"1a53d129-bec7-45c4-be40-4aab3386fc57","system_id":"levelo_inurba_marseille","lat":43.29786,"lon":5.39332,"is_reserved":false,"is_disabled":false,"rental_uris":{"android":"levelo://app?vid=1a53d129-bec7-45c4-be40-4aab3386fc57","ios":"levelo://app?vid=1a53d129-bec7-45c4-be40-4aab3386fc57"},"vehicle_type_id":"4","last_reported":1762625598,"current_range_meters":3600,"station_id":"chh1huq6cuj3fo74tm60","pricing_plan_id":"cebpf4jnsgd1na2vs0mg"},{"bike_id":"b30c8c61-567b-4993-8e03-ffb53daa6c7c","system_id":"levelo_inurba_marseille","lat":43.28072,"lon":5.39629,"is_reserved":false,"is_disabled":false,"rental_uris":{"android":"levelo://app?vid=b30c8c61-567b-4993-8e03-ffb53daa6c7c","ios":"levelo://app?vid=b30c8c61-567b-4993-8e03-ffb53daa6c7c"},"vehicle_type_id":"4","last_reported":1762625598,"current_range_meters":3600,"station_id":"ce4bho12rcd13ifvqh2g","pricing_plan_id":"cebpf4jnsgd1na2vs0mg"},{"bike_id":"b48bc2bc-2802-437c-a4c1-e3b84b39c648","system_id":"levelo_inurba_marseille","lat":43.3132,"lon":5.39696,"is_reserved":false,"is_disabled":false,"rental_uris":{"android":"levelo://app?vid=b48bc2bc-2802-437c-a4c1-e3b84b39c648","ios":"levelo://app?vid=b48bc2bc-2802-437c-a4c1-e3b84b39c648"},"vehicle_type_id":"4","last_reported":1762625598,"current_range_meters":3600,"station_id":"ce4bgvp2rcd13ifvqcu0","pricing_plan_id":"cebpf4jnsgd1na2vs0mg"},{"bike_id":"ab3a4d6b-b442-44b9-8f02-c1c222f445ba","system_id":"levelo_inurba_marseille","lat":43.27442,"lon":5.3927,"is_reserved":false,"is_disabled":false,"rental_uris":{"android":"levelo://app?vid=ab3a4d6b-b442-44b9-8f02-c1c222f445ba","ios":"levelo://app?vid=ab3a4d6b-b442-44b9-8f02-c1c222f445ba"},"vehicle_type_id":"4","last_reported":1762625598,"current_range_meters":4000,"station_id":"","pricing_plan_id":"cebpf4jnsgd1na2vs0mg"},{"bike_id":"b424973e-53a1-48fd-8201-4869d8c390ca","system_id":"levelo_inurba_marseille","lat":43.336061,"lon":5.410423,"is_reserved":false,"is_disabled":false,"rental_uris":{"android":"levelo://app?vid=b424973e-53a1-48fd-8201-4869d8c390ca","ios":"levelo://app?vid=b424973e-53a1-48fd-8201-4869d8c390ca"},"vehicle_type_id":"4","last_reported":1762625598,"current_range_meters":4000,"station_id":"ce4bhqh2rcd13ifvqhmg","pricing_plan_id":"cebpf4jnsgd1na2vs0mg"},{"bike_id":"1284ee70-c05a-402d-8adc-841416bcc143","system_id":"levelo_inurba_marseille","lat":43.28206,"lon":5.39041,"is_reserved":false,"is_disabled":false,"rental_uris":{"android":"levelo://app?vid=1284ee70-c05a-402d-8adc-841416bcc143","ios":"levelo://app?vid=1284ee70-c05a-402d-8adc-841416bcc143"},"vehicle_type_id":"4","last_reported":1762625598,"current_range_meters":4000,"station_id":"ce4bhn92rcd13ifvqgsg","pricing_plan_id":"cebpf4jnsgd1na2vs0mg"},{"bike_id":"739e01d2-cc36-41a0-804d-23003cc3ad38","system_id":"levelo_inurba_marseille","lat":43.28966,"lon":5.37832,"is_reserved":false,"is_disabled":false,"rental_uris":{"android":"levelo://app?vid=739e01d2-cc36-41a0-804d-23003cc3ad38","ios":"levelo://app?vid=739e01d2-cc36-41a0-804d-23003cc3ad38"},"vehicle_type_id":"4","last_reported":1762625598,"current_range_meters":4000,"station_id":"ce4bh9p2rcd13ifvqed0","pricing_plan_id":"cebpf4jnsgd1na2vs0mg"},{"bike_id":"4aca3f8b-522c-415a-809a-44c3f7f05737","system_id":"levelo_inurba_marseille","lat":43.32661,"lon":5.4099,"is_reserved":false,"is_disabled":false,"rental_uris":{"android":"levelo://app?vid=4aca3f8b-522c-415a-809a-44c3f7f05737","ios":"levelo://app?vid=4aca3f8b-522c-415a-809a-44c3f7f05737"},"vehicle_type_id":"4","last_reported":1762625598,"current_range_meters":4000,"station_id":"ce4bhpp2rcd13ifvqhgg","pricing_plan_id":"cebpf4jnsgd1na2vs0mg"},{"bike_id":"183f671b-440d-49f9-8e69-2b52b6aa0ffb","system_id":"levelo_inurba_marseille","lat":43.29782,"lon":5.39352,"is_reserved":false,"is_disabled":false,"rental_uris":{"android":"levelo://app?vid=183f671b-440d-49f9-8e69-2b52b6aa0ffb","ios":"levelo://app?vid=183f671b-440d-49f9-8e69-2b52b6aa0ffb"},"vehicle_type_id":"4","last_reported":1762625598,"current_range_meters":4000,"station_id":"chh1huq6cuj3fo74tm60","pricing_plan_id":"cebpf4jnsgd1na2vs0mg"},{"bike_id":"dddccdbf-d23b-403e-8808-8e777a570364","system_id":"levelo_inurba_marseille","lat":43.28108,"lon":5.37837,"is_reserved":false,"is_disabled":false,"rental_uris":{"android":"levelo://app?vid=dddccdbf-d23b-403e-8808-8e777a570364","ios":"levelo://app?vid=dddccdbf-d23b-403e-8808-8e777a570364"},"vehicle_type_id":"4","last_reported":1762625598,"current_range_meters":4000,"station_id":"ce4bha12rcd13ifvqee0","pricing_plan_id":"cebpf4jnsgd1na2vs0mg"},{"bike_id":"9d4da776-4a30-4d83-84e7-1d6b51028520","system_id":"levelo_inurba_marseille","lat":43.29881,"lon":5.3973,"is_reserved":false,"is_disabled":false,"rental_uris":{"android":"levelo://app?vid=9d4da776-4a30-4d83-84e7-1d6b51028520","ios":"levelo://app?vid=9d4da776-4a30-4d83-84e7-1d6b51028520"},"vehicle_type_id":"4","last_reported":1762625598,"current_range_meters":4000,"station_id":"ce4bh0h2rcd13ifvqd50","pricing_plan_id":"cebpf4jnsgd1na2vs0mg"},{"bike_id":"3822be5d-87ff-48fe-aef8-9c3de911ee69","system_id":"levelo_inurba_marseille","lat":43.29093,"lon":5.3811,"is_reserved":false,"is_disabled":false,"rental_uris":{"android":"levelo://app?vid=3822be5d-87ff-48fe-aef8-9c3de911ee69","ios":"levelo://app?vid=3822be5d-87ff-48fe-aef8-9c3de911ee69"},"vehicle_type_id":"4","last_reported":1762625598,"current_range_meters":4000,"station_id":"ce4bh512rcd13ifvqe2g","pricing_plan_id":"cebpf4jnsgd1na2vs0mg"},{"bike_id":"e774e600-3d8a-4b13-a1e6-9aa67ac84e1b","system_id":"levelo_inurba_marseille","lat":43.25935,"lon":5.40912,"is_reserved":false,"is_disabled":false,"rental_uris":{"android":"levelo://app?vid=e774e600-3d8a-4b13-a1e6-9aa67ac84e1b","ios":"levelo://app?vid=e774e600-3d8a-4b13-a1e6-9aa67ac84e1b"},"vehicle_type_id":"4","last_reported":1762625598,"current_range_meters":4000,"station_id":"ce4bhm92rcd13ifvqglg","pricing_plan_id":"cebpf4jnsgd1na2vs0mg"},{"bike_id":"acdc7342-c1a6-4a70-b129-b9cf7ad80643","system_id":"levelo_inurba_marseille","lat":43.21207,"lon":5.35068,"is_reserved":false,"is_disabled":false,"rental_uris":{"android":"levelo://app?vid=acdc7342-c1a6-4a70-b129-b9cf7ad80643","ios":"levelo://app?vid=acdc7342-c1a6-4a70-b129-b9cf7ad80643"},"vehicle_type_id":"4","last_reported":1762625598,"current_range_meters":4400,"station_id":"st_cvj6sg6p6f1abm77japg","pricing_plan_id":"cebpf4jnsgd1na2vs0mg"},{"bike_id":"78e3df6a-a873-4597-84f4-b307e7fdfe76","system_id":"levelo_inurba_marseille","lat":43.2559,"lon":5.38232,"is_reserved":false,"is_disabled":false,"rental_uris":{"android":"levelo://app?vid=78e3df6a-a873-4597-84f4-b307e7fdfe76","ios":"levelo://app?vid=78e3df6a-a873-4597-84f4-b307e7fdfe76"},"vehicle_type_id":"4","last_reported":1762625598,"current_range_meters":4400,"station_id":"ce4bhih2rcd13ifvqfs0","pricing_plan_id":"cebpf4jnsgd1na2vs0mg"},{"bike_id":"75bc333b-dfc1-46da-a386-e67c86771450","system_id":"levelo_inurba_marseille","lat":43.30159,"lon":5.38608,"is_reserved":false,"is_disabled":false,"rental_uris":{"android":"levelo://app?vid=75bc333b-dfc1-46da-a386-e67c86771450","ios":"levelo://app?vid=75bc333b-dfc1-46da-a386-e67c86771450"},"vehicle_type_id":"4","last_reported":1762625598,"current_range_meters":4400,"station_id":"","pricing_plan_id":"cebpf4jnsgd1na2vs0mg"},{"bike_id":"7dd18923-10f6-4227-a5cb-f728b895fcfe","system_id":"levelo_inurba_marseille","lat":43.22943,"lon":5.35378,"is_reserved":false,"is_disabled":false,"rental_uris":{"android":"levelo://app?vid=7dd18923-10f6-4227-a5cb-f728b895fcfe","ios":"levelo://app?vid=7dd18923-10f6-4227-a5cb-f728b895fcfe"},"vehicle_type_id":"4","last_reported":1762625598,"current_range_meters":4800,"station_id":"cpo3532slgdg3j2ikp40","pricing_plan_id":"cebpf4jnsgd1na2vs0mg"},{"bike_id":"5b98d579-5d9e-4fea-93b7-a7307fb6f858","system_id":"levelo_inurba_marseille","lat":43.23801,"lon":5.36622,"is_reserved":false,"is_disabled":false,"rental_uris":{"android":"levelo://app?vid=5b98d579-5d9e-4fea-93b7-a7307fb6f858","ios":"levelo://app?vid=5b98d579-5d9e-4fea-93b7-a7307fb6f858"},"vehicle_type_id":"4","last_reported":1762625598,"current_range_meters":4800,"station_id":"","pricing_plan_id":"cebpf4jnsgd1na2vs0mg"},{"bike_id":"ef2fe57e-ecba-4765-96d3-8349654ec56e","system_id":"levelo_inurba_marseille","lat":43.32944,"lon":5.36394,"is_reserved":false,"is_disabled":false,"rental_uris":{"android":"levelo://app?vid=ef2fe57e-ecba-4765-96d3-8349654ec56e","ios":"levelo://app?vid=ef2fe57e-ecba-4765-96d3-8349654ec56e"},"vehicle_type_id":"4","last_reported":1762625598,"current_range_meters":4800,"station_id":"","pricing_plan_id":"cebpf4jnsgd1na2vs0mg"},{"bike_id":"964c6a1d-247c-49b9-bc4d-13e9e5309efe","system_id":"levelo_inurba_marseille","lat":43.30816,"lon":5.43501,"is_reserved":false,"is_disabled":false,"rental_uris":{"android":"levelo://app?vid=964c6a1d-247c-49b9-bc4d-13e9e5309efe","ios":"levelo://app?vid=964c6a1d-247c-49b9-bc4d-13e9e5309efe"},"vehicle_type_id":"4","last_reported":1762625598,"current_range_meters":4800,"station_id":"","pricing_plan_id":"cebpf4jnsgd1na2vs0mg"},{"bike_id":"999e4975-56c4-467e-9b2d-5f0aea845f83","system_id":"levelo_inurba_marseille","lat":43.296004,"lon":5.381009,"is_reserved":false,"is_disabled":false,"rental_uris":{"android":"levelo://app?vid=999e4975-56c4-467e-9b2d-5f0aea845f83","ios":"levelo://app?vid=999e4975-56c4-467e-9b2d-5f0aea845f83"},"vehicle_type_id":"4","last_reported":1762625598,"current_range_meters":4800,"station_id":"ce4bgl12rcd13ifvqbo0","pricing_plan_id":"cebpf4jnsgd1na2vs0mg"},{"bike_id":"6d97a799-3c77-4d4f-b664-722f0692716f","system_id":"levelo_inurba_marseille","lat":43.28667,"lon":5.38666,"is_reserved":false,"is_disabled":false,"rental_uris":{"android":"levelo://app?vid=6d97a799-3c77-4d4f-b664-722f0692716f","ios":"levelo://app?vid=6d97a799-3c77-4d4f-b664-722f0692716f"},"vehicle_type_id":"4","last_reported":1762625598,"current_range_meters":5600,"station_id":"ce4bh492rcd13ifvqdug","pricing_plan_id":"cebpf4jnsgd1na2vs0mg"},{"bike_id":"0f59cc76-a32d-456e-a665-74edb3a8280e","system_id":"levelo_inurba_marseille","lat":43.290137,"lon":5.381274,"is_reserved":false,"is_disabled":false,"rental_uris":{"android":"levelo://app?vid=0f59cc76-a32d-456e-a665-74edb3a8280e","ios":"levelo://app?vid=0f59cc76-a32d-456e-a665-74edb3a8280e"},"vehicle_type_id":"4","last_reported":1762625598,"current_range_meters":5600,"station_id":"","pricing_plan_id":"cebpf4jnsgd1na2vs0mg"},{"bike_id":"453544c8-c36c-4f75-a790-5c0405ae854f","system_id":"levelo_inurba_marseille","lat":43.25966,"lon":5.41041,"is_reserved":false,"is_disabled":false,"rental_uris":{"android":"levelo://app?vid=453544c8-c36c-4f75-a790-5c0405ae854f","ios":"levelo://app?vid=453544c8-c36c-4f75-a790-5c0405ae854f"},"vehicle_type_id":"4","last_reported":1762625598,"current_range_meters":5600,"station_id":"ce4bhm92rcd13ifvqglg","pricing_plan_id":"cebpf4jnsgd1na2vs0mg"},{"bike_id":"c5ac1eda-d707-4343-8162-707e6563849d","system_id":"levelo_inurba_marseille","lat":43.3015,"lon":5.38091,"is_reserved":false,"is_disabled":false,"rental_uris":{"android":"levelo://app?vid=c5ac1eda-d707-4343-8162-707e6563849d","ios":"levelo://app?vid=c5ac1eda-d707-4343-8162-707e6563849d"},"vehicle_type_id":"4","last_reported":1762625598,"current_range_meters":5600,"station_id":"ce4bgjp2rcd13ifvqbh0","pricing_plan_id":"cebpf4jnsgd1na2vs0mg"},{"bike_id":"54498b16-c752-4bcb-90ec-2f1cdf856369","system_id":"levelo_inurba_marseille","lat":43.2896,"lon":5.36658,"is_reserved":false,"is_disabled":false,"rental_uris":{"android":"levelo://app?vid=54498b16-c752-4bcb-90ec-2f1cdf856369","ios":"levelo://app?vid=54498b16-c752-4bcb-90ec-2f1cdf856369"},"vehicle_type_id":"4","last_reported":1762625598,"current_range_meters":5600,"station_id":"ce4bhap2rcd13ifvqek0","pricing_plan_id":"cebpf4jnsgd1na2vs0mg"},{"bike_id":"b398f8ea-ab8f-476b-ae45-57ea00c04d3f","system_id":"levelo_inurba_marseille","lat":43.29255,"lon":5.40902,"is_reserved":false,"is_disabled":false,"rental_uris":{"android":"levelo://app?vid=b398f8ea-ab8f-476b-ae45-57ea00c04d3f","ios":"levelo://app?vid=b398f8ea-ab8f-476b-ae45-57ea00c04d3f"},"vehicle_type_id":"4","last_reported":1762625598,"current_range_meters":5600,"station_id":"ce4bh192rcd13ifvqdc0","pricing_plan_id":"cebpf4jnsgd1na2vs0mg"},{"bike_id":"17ec2409-d911-410e-b712-a35cc3cc966b","system_id":"levelo_inurba_marseille","lat":43.25874,"lon":5.39901,"is_reserved":false,"is_disabled":false,"rental_uris":{"android":"levelo://app?vid=17ec2409-d911-410e-b712-a35cc3cc966b","ios":"levelo://app?vid=17ec2409-d911-410e-b712-a35cc3cc966b"},"vehicle_type_id":"4","last_reported":1762625598,"current_range_meters":5600,"station_id":"ce4bhl92rcd13ifvqghg","pricing_plan_id":"cebpf4jnsgd1na2vs0mg"},{"bike_id":"8750aca9-339c-41b3-ab26-c95d4d616177","system_id":"levelo_inurba_marseille","lat":43.28347,"lon":5.38089,"is_reserved":false,"is_disabled":false,"rental_uris":{"android":"levelo://app?vid=8750aca9-339c-41b3-ab26-c95d4d616177","ios":"levelo://app?vid=8750aca9-339c-41b3-ab26-c95d4d616177"},"vehicle_type_id":"4","last_reported":1762625598,"current_range_meters":5600,"station_id":"ce4bh412rcd13ifvqdr0","pricing_plan_id":"cebpf4jnsgd1na2vs0mg"},{"bike_id":"bcb4256a-2746-4ae5-894c-2dca19b4bfce","system_id":"levelo_inurba_marseille","lat":43.29795,"lon":5.39346,"is_reserved":false,"is_disabled":false,"rental_uris":{"android":"levelo://app?vid=bcb4256a-2746-4ae5-894c-2dca19b4bfce","ios":"levelo://app?vid=bcb4256a-2746-4ae5-894c-2dca19b4bfce"},"vehicle_type_id":"4","last_reported":1762625598,"current_range_meters":6000,"station_id":"chh1huq6cuj3fo74tm60","pricing_plan_id":"cebpf4jnsgd1na2vs0mg"},{"bike_id":"3ee4bd7a-bd3e-459e-adb4-f7aa8b8048b8","system_id":"levelo_inurba_marseille","lat":43.29574,"lon":5.36744,"is_reserved":false,"is_disabled":false,"rental_uris":{"android":"levelo://app?vid=3ee4bd7a-bd3e-459e-adb4-f7aa8b8048b8","ios":"levelo://app?vid=3ee4bd7a-bd3e-459e-adb4-f7aa8b8048b8"},"vehicle_type_id":"4","last_reported":1762625598,"current_range_meters":6000,"station_id":"ce4bgph2rcd13ifvqc2g","pricing_plan_id":"cebpf4jnsgd1na2vs0mg"},{"bike_id":"6bcab1c5-aef0-4237-80e9-3db86268abce","system_id":"levelo_inurba_marseille","lat":43.32537,"lon":5.39397,"is_reserved":false,"is_disabled":false,"rental_uris":{"android":"levelo://app?vid=6bcab1c5-aef0-4237-80e9-3db86268abce","ios":"levelo://app?vid=6bcab1c5-aef0-4237-80e9-3db86268abce"},"vehicle_type_id":"4","last_reported":1762625598,"current_range_meters":6000,"station_id":"","pricing_plan_id":"cebpf4jnsgd1na2vs0mg"},{"bike_id":"84bdde46-1046-4f35-959f-60cf7521bf10","system_id":"levelo_inurba_marseille","lat":43.33759,"lon":5.37468,"is_reserved":false,"is_disabled":false,"rental_uris":{"android":"levelo://app?vid=84bdde46-1046-4f35-959f-60cf7521bf10","ios":"levelo://app?vid=84bdde46-1046-4f35-959f-60cf7521bf10"},"vehicle_type_id":"4","last_reported":1762625598,"current_range_meters":6400,"station_id":"ce4bgs92rcd13ifvqcc0","pricing_plan_id":"cebpf4jnsgd1na2vs0mg"},{"bike_id":"5d63f2aa-8446-4f1d-92da-1e2d5b4a6cc8","system_id":"levelo_inurba_marseille","lat":43.296642,"lon":5.377618,"is_reserved":false,"is_disabled":false,"rental_uris":{"android":"levelo://app?vid=5d63f2aa-8446-4f1d-92da-1e2d5b4a6cc8","ios":"levelo://app?vid=5d63f2aa-8446-4f1d-92da-1e2d5b4a6cc8"},"vehicle_type_id":"4","last_reported":1762625598,"current_range_meters":6400,"station_id":"","pricing_plan_id":"cebpf4jnsgd1na2vs0mg"},{"bike_id":"c687f5b8-73fc-4bba-bdba-8dae557f7ae6","system_id":"levelo_inurba_marseille","lat":43.27391,"lon":5.36258,"is_reserved":false,"is_disabled":true,"rental_uris":{"android":"levelo://app?vid=c687f5b8-73fc-4bba-bdba-8dae557f7ae6","ios":"levelo://app?vid=c687f5b8-73fc-4bba-bdba-8dae557f7ae6"},"vehicle_type_id":"4","last_reported":1762625598,"current_range_meters":6400,"station_id":"ce4bhbh2rcd13ifvqeo0","pricing_plan_id":"cebpf4jnsgd1na2vs0mg"},{"bike_id":"711b5184-06a1-46c6-b1ad-270408b914a4","system_id":"levelo_inurba_marseille","lat":43.30005,"lon":5.40988,"is_reserved":false,"is_disabled":false,"rental_uris":{"android":"levelo://app?vid=711b5184-06a1-46c6-b1ad-270408b914a4","ios":"levelo://app?vid=711b5184-06a1-46c6-b1ad-270408b914a4"},"vehicle_type_id":"4","last_reported":1762625598,"current_range_meters":6400,"station_id":"","pricing_plan_id":"cebpf4jnsgd1na2vs0mg"},{"bike_id":"c11f70de-6fc9-4310-8b9a-45c2b16b383c","system_id":"levelo_inurba_marseille","lat":43.27911,"lon":5.38014,"is_reserved":false,"is_disabled":false,"rental_uris":{"android":"levelo://app?vid=c11f70de-6fc9-4310-8b9a-45c2b16b383c","ios":"levelo://app?vid=c11f70de-6fc9-4310-8b9a-45c2b16b383c"},"vehicle_type_id":"4","last_reported":1762625598,"current_range_meters":6400,"station_id":"ce4bhf92rcd13ifvqf50","pricing_plan_id":"cebpf4jnsgd1na2vs0mg"},{"bike_id":"663cd7c1-d330-4518-9a12-9f03e251ebed","system_id":"levelo_inurba_marseille","lat":43.28159,"lon":5.4264,"is_reserved":false,"is_disabled":false,"rental_uris":{"android":"levelo://app?vid=663cd7c1-d330-4518-9a12-9f03e251ebed","ios":"levelo://app?vid=663cd7c1-d330-4518-9a12-9f03e251ebed"},"vehicle_type_id":"4","last_reported":1762625598,"current_range_meters":6400,"station_id":"ce4bhnh2rcd13ifvqgug","pricing_plan_id":"cebpf4jnsgd1na2vs0mg"},{"bike_id":"111a726b-28f8-4e41-b7f7-fa2db4cb6b4a","system_id":"levelo_inurba_marseille","lat":43.24387,"lon":5.37058,"is_reserved":false,"is_disabled":false,"rental_uris":{"android":"levelo://app?vid=111a726b-28f8-4e41-b7f7-fa2db4cb6b4a","ios":"levelo://app?vid=111a726b-28f8-4e41-b7f7-fa2db4cb6b4a"},"vehicle_type_id":"4","last_reported":1762625598,"current_range_meters":6400,"station_id":"ce4bhhh2rcd13ifvqfk0","pricing_plan_id":"cebpf4jnsgd1na2vs0mg"},{"bike_id":"9fd220aa-6269-41ca-8733-af0183790563","system_id":"levelo_inurba_marseille","lat":43.292563,"lon":5.408935,"is_reserved":false,"is_disabled":false,"rental_uris":{"android":"levelo://app?vid=9fd220aa-6269-41ca-8733-af0183790563","ios":"levelo://app?vid=9fd220aa-6269-41ca-8733-af0183790563"},"vehicle_type_id":"4","last_reported":1762625598,"current_range_meters":6400,"station_id":"ce4bh192rcd13ifvqdc0","pricing_plan_id":"cebpf4jnsgd1na2vs0mg"},{"bike_id":"6580beb2-f281-473f-9ef4-7b331653ef2e","system_id":"levelo_inurba_marseille","lat":43.29119,"lon":5.40785,"is_reserved":false,"is_disabled":false,"rental_uris":{"android":"levelo://app?vid=6580beb2-f281-473f-9ef4-7b331653ef2e","ios":"levelo://app?vid=6580beb2-f281-473f-9ef4-7b331653ef2e"},"vehicle_type_id":"4","last_reported":1762625598,"current_range_meters":6400,"station_id":"","pricing_plan_id":"cebpf4jnsgd1na2vs0mg"},{"bike_id":"f6cef8d5-8fe8-4923-948c-afab7026b14f","system_id":"levelo_inurba_marseille","lat":43.29788,"lon":5.39352,"is_reserved":false,"is_disabled":false,"rental_uris":{"android":"levelo://app?vid=f6cef8d5-8fe8-4923-948c-afab7026b14f","ios":"levelo://app?vid=f6cef8d5-8fe8-4923-948c-afab7026b14f"},"vehicle_type_id":"4","last_reported":1762625598,"current_range_meters":6400,"station_id":"chh1huq6cuj3fo74tm60","pricing_plan_id":"cebpf4jnsgd1na2vs0mg"},{"bike_id":"348bf609-07f6-4ffc-add0-6df7615d023f","system_id":"levelo_inurba_marseille","lat":43.337669,"lon":5.37438,"is_reserved":false,"is_disabled":false,"rental_uris":{"android":"levelo://app?vid=348bf609-07f6-4ffc-add0-6df7615d023f","ios":"levelo://app?vid=348bf609-07f6-4ffc-add0-6df7615d023f"},"vehicle_type_id":"4","last_reported":1762625598,"current_range_meters":6400,"station_id":"","pricing_plan_id":"cebpf4jnsgd1na2vs0mg"},{"bike_id":"7cf4a5b4-73c5-4c0b-8dfa-2a095540852e","system_id":"levelo_inurba_marseille","lat":43.29262,"lon":5.38422,"is_reserved":false,"is_disabled":false,"rental_uris":{"android":"levelo://app?vid=7cf4a5b4-73c5-4c0b-8dfa-2a095540852e","ios":"levelo://app?vid=7cf4a5b4-73c5-4c0b-8dfa-2a095540852e"},"vehicle_type_id":"4","last_reported":1762625598,"current_range_meters":6800,"station_id":"ce4bh692rcd13ifvqea0","pricing_plan_id":"cebpf4jnsgd1na2vs0mg"},{"bike_id":"b05048b6-3636-4628-97b9-678771374061","system_id":"levelo_inurba_marseille","lat":43.31519,"lon":5.37297,"is_reserved":false,"is_disabled":false,"rental_uris":{"android":"levelo://app?vid=b05048b6-3636-4628-97b9-678771374061","ios":"levelo://app?vid=b05048b6-3636-4628-97b9-678771374061"},"vehicle_type_id":"4","last_reported":1762625598,"current_range_meters":6800,"station_id":"ce4bgt12rcd13ifvqcd0","pricing_plan_id":"cebpf4jnsgd1na2vs0mg"},{"bike_id":"78bd5f74-b07f-4aac-b566-26ecec6fd5df","system_id":"levelo_inurba_marseille","lat":43.306781,"lon":5.380436,"is_reserved":false,"is_disabled":false,"rental_uris":{"android":"levelo://app?vid=78bd5f74-b07f-4aac-b566-26ecec6fd5df","ios":"levelo://app?vid=78bd5f74-b07f-4aac-b566-26ecec6fd5df"},"vehicle_type_id":"4","last_reported":1762625598,"current_range_meters":6800,"station_id":"","pricing_plan_id":"cebpf4jnsgd1na2vs0mg"},{"bike_id":"01afa636-8de0-4507-b95d-5d34bb867449","system_id":"levelo_inurba_marseille","lat":43.2908,"lon":5.37167,"is_reserved":false,"is_disabled":false,"rental_uris":{"android":"levelo://app?vid=01afa636-8de0-4507-b95d-5d34bb867449","ios":"levelo://app?vid=01afa636-8de0-4507-b95d-5d34bb867449"},"vehicle_type_id":"4","last_reported":1762625598,"current_range_meters":6800,"station_id":"ce4bh5p2rcd13ifvqe4g","pricing_plan_id":"cebpf4jnsgd1na2vs0mg"},{"bike_id":"c36dd6b1-1454-4368-8bcf-592c79de35c7","system_id":"levelo_inurba_marseille","lat":43.26957,"lon":5.38626,"is_reserved":false,"is_disabled":false,"rental_uris":{"android":"levelo://app?vid=c36dd6b1-1454-4368-8bcf-592c79de35c7","ios":"levelo://app?vid=c36dd6b1-1454-4368-8bcf-592c79de35c7"},"vehicle_type_id":"4","last_reported":1762625598,"current_range_meters":6800,"station_id":"ce4bhh92rcd13ifvqfh0","pricing_plan_id":"cebpf4jnsgd1na2vs0mg"},{"bike_id":"3f59fdb6-b881-4577-8aa1-1f4404402cc5","system_id":"levelo_inurba_marseille","lat":43.29267,"lon":5.38426,"is_reserved":false,"is_disabled":false,"rental_uris":{"android":"levelo://app?vid=3f59fdb6-b881-4577-8aa1-1f4404402cc5","ios":"levelo://app?vid=3f59fdb6-b881-4577-8aa1-1f4404402cc5"},"vehicle_type_id":"4","last_reported":1762625598,"current_range_meters":6800,"station_id":"ce4bh692rcd13ifvqea0","pricing_plan_id":"cebpf4jnsgd1na2vs0mg"},{"bike_id":"c03bd52b-534b-4ae1-bb73-924e391fe2f5","system_id":"levelo_inurba_marseille","lat":43.25518,"lon":5.37669,"is_reserved":false,"is_disabled":true,"rental_uris":{"android":"levelo://app?vid=c03bd52b-534b-4ae1-bb73-924e391fe2f5","ios":"levelo://app?vid=c03bd52b-534b-4ae1-bb73-924e391fe2f5"},"vehicle_type_id":"4","last_reported":1762625598,"current_range_meters":7200,"station_id":"ce4bhh12rcd13ifvqff0","pricing_plan_id":"cebpf4jnsgd1na2vs0mg"},{"bike_id":"06342f7d-6230-412f-a8b5-d1566b2d96c6","system_id":"levelo_inurba_marseille","lat":43.297225,"lon":5.366037,"is_reserved":false,"is_disabled":false,"rental_uris":{"android":"levelo://app?vid=06342f7d-6230-412f-a8b5-d1566b2d96c6","ios":"levelo://app?vid=06342f7d-6230-412f-a8b5-d1566b2d96c6"},"vehicle_type_id":"4","last_reported":1762625598,"current_range_meters":7200,"station_id":"ce4bgn12rcd13ifvqbt0","pricing_plan_id":"cebpf4jnsgd1na2vs0mg"},{"bike_id":"e4d6cf37-c6a1-45f4-a164-d6bc7ca33971","system_id":"levelo_inurba_marseille","lat":43.3042,"lon":5.41285,"is_reserved":false,"is_disabled":false,"rental_uris":{"android":"levelo://app?vid=e4d6cf37-c6a1-45f4-a164-d6bc7ca33971","ios":"levelo://app?vid=e4d6cf37-c6a1-45f4-a164-d6bc7ca33971"},"vehicle_type_id":"4","last_reported":1762625598,"current_range_meters":7200,"station_id":"ce4bhop2rcd13ifvqh8g","pricing_plan_id":"cebpf4jnsgd1na2vs0mg"},{"bike_id":"34c14480-831b-41a9-b30b-a1e8f994a110","system_id":"levelo_inurba_marseille","lat":43.30836,"lon":5.3717,"is_reserved":false,"is_disabled":false,"rental_uris":{"android":"levelo://app?vid=34c14480-831b-41a9-b30b-a1e8f994a110","ios":"levelo://app?vid=34c14480-831b-41a9-b30b-a1e8f994a110"},"vehicle_type_id":"4","last_reported":1762625598,"current_range_meters":7200,"station_id":"","pricing_plan_id":"cebpf4jnsgd1na2vs0mg"},{"bike_id":"7c392732-2900-41fd-8c6d-e5b49cdf67b5","system_id":"levelo_inurba_marseille","lat":43.29722,"lon":5.38276,"is_reserved":false,"is_disabled":false,"rental_uris":{"android":"levelo://app?vid=7c392732-2900-41fd-8c6d-e5b49cdf67b5","ios":"levelo://app?vid=7c392732-2900-41fd-8c6d-e5b49cdf67b5"},"vehicle_type_id":"4","last_reported":1762625598,"current_range_meters":7200,"station_id":"","pricing_plan_id":"cebpf4jnsgd1na2vs0mg"},{"bike_id":"fc2f15b2-9232-42d6-9f25-90be249b8662","system_id":"levelo_inurba_marseille","lat":43.30127,"lon":5.38773,"is_reserved":false,"is_disabled":false,"rental_uris":{"android":"levelo://app?vid=fc2f15b2-9232-42d6-9f25-90be249b8662","ios":"levelo://app?vid=fc2f15b2-9232-42d6-9f25-90be249b8662"},"vehicle_type_id":"4","last_reported":1762625598,"current_range_meters":7200,"station_id":"ce4bghh2rcd13ifvqb60","pricing_plan_id":"cebpf4jnsgd1na2vs0mg"},{"bike_id":"666188ae-c5eb-4b34-bec6-e4576afdff8d","system_id":"levelo_inurba_marseille","lat":43.279813,"lon":5.416695,"is_reserved":false,"is_disabled":false,"rental_uris":{"android":"levelo://app?vid=666188ae-c5eb-4b34-bec6-e4576afdff8d","ios":"levelo://app?vid=666188ae-c5eb-4b34-bec6-e4576afdff8d"},"vehicle_type_id":"4","last_reported":1762625598,"current_range_meters":7200,"station_id":"ce4bho12rcd13ifvqh1g","pricing_plan_id":"cebpf4jnsgd1na2vs0mg"},{"bike_id":"ef3a3556-c5f3-4602-8f31-f845362c75c0","system_id":"levelo_inurba_marseille","lat":43.24071,"lon":5.37761,"is_reserved":false,"is_disabled":false,"rental_uris":{"android":"levelo://app?vid=ef3a3556-c5f3-4602-8f31-f845362c75c0","ios":"levelo://app?vid=ef3a3556-c5f3-4602-8f31-f845362c75c0"},"vehicle_type_id":"4","last_reported":1762625598,"current_range_meters":7200,"station_id":"ce4bhnp2rcd13ifvqgvg","pricing_plan_id":"cebpf4jnsgd1na2vs0mg"},{"bike_id":"5bee8f0f-57fe-4257-a72a-04a4967570b5","system_id":"levelo_inurba_marseille","lat":43.300469,"lon":5.377115,"is_reserved":false,"is_disabled":false,"rental_uris":{"android":"levelo://app?vid=5bee8f0f-57fe-4257-a72a-04a4967570b5","ios":"levelo://app?vid=5bee8f0f-57fe-4257-a72a-04a4967570b5"},"vehicle_type_id":"4","last_reported":1762625598,"current_range_meters":7200,"station_id":"","pricing_plan_id":"cebpf4jnsgd1na2vs0mg"},{"bike_id":"4c3e7d37-dd75-41e9-80c6-1c1b27b617fe","system_id":"levelo_inurba_marseille","lat":43.2997,"lon":5.385,"is_reserved":false,"is_disabled":false,"rental_uris":{"android":"levelo://app?vid=4c3e7d37-dd75-41e9-80c6-1c1b27b617fe","ios":"levelo://app?vid=4c3e7d37-dd75-41e9-80c6-1c1b27b617fe"},"vehicle_type_id":"4","last_reported":1762625598,"current_range_meters":7200,"station_id":"ce4bgj92rcd13ifvqbd0","pricing_plan_id":"cebpf4jnsgd1na2vs0mg"},{"bike_id":"0891025c-0737-4168-870c-fac94974c50b","system_id":"levelo_inurba_marseille","lat":43.278132,"lon":5.407188,"is_reserved":false,"is_disabled":false,"rental_uris":{"android":"levelo://app?vid=0891025c-0737-4168-870c-fac94974c50b","ios":"levelo://app?vid=0891025c-0737-4168-870c-fac94974c50b"},"vehicle_type_id":"4","last_reported":1762625598,"current_range_meters":8000,"station_id":"ce4bhnh2rcd13ifvqgtg","pricing_plan_id":"cebpf4jnsgd1na2vs0mg"},{"bike_id":"5c17ed12-8897-4f84-bbfc-85419a7f8038","system_id":"levelo_inurba_marseille","lat":43.2705,"lon":5.39483,"is_reserved":false,"is_disabled":false,"rental_uris":{"android":"levelo://app?vid=5c17ed12-8897-4f84-bbfc-85419a7f8038","ios":"levelo://app?vid=5c17ed12-8897-4f84-bbfc-85419a7f8038"},"vehicle_type_id":"4","last_reported":1762625598,"current_range_meters":8000,"station_id":"","pricing_plan_id":"cebpf4jnsgd1na2vs0mg"},{"bike_id":"5eee5a29-c652-47f2-a842-6e90b65d4c46","system_id":"levelo_inurba_marseille","lat":43.29256,"lon":5.38437,"is_reserved":false,"is_disabled":false,"rental_uris":{"android":"levelo://app?vid=5eee5a29-c652-47f2-a842-6e90b65d4c46","ios":"levelo://app?vid=5eee5a29-c652-47f2-a842-6e90b65d4c46"},"vehicle_type_id":"4","last_reported":1762625598,"current_range_meters":8000,"station_id":"ce4bh692rcd13ifvqea0","pricing_plan_id":"cebpf4jnsgd1na2vs0mg"},{"bike_id":"a0ea519d-554f-42a0-93a3-d4c181552c78","system_id":"levelo_inurba_marseille","lat":43.31275,"lon":5.37766,"is_reserved":false,"is_disabled":false,"rental_uris":{"android":"levelo://app?vid=a0ea519d-554f-42a0-93a3-d4c181552c78","ios":"levelo://app?vid=a0ea519d-554f-42a0-93a3-d4c181552c78"},"vehicle_type_id":"4","last_reported":1762625598,"current_range_meters":8000,"station_id":"","pricing_plan_id":"cebpf4jnsgd1na2vs0mg"},{"bike_id":"205c8cef-abd3-431f-9e41-a507cb315fe2","system_id":"levelo_inurba_marseille","lat":43.29267,"lon":5.40913,"is_reserved":false,"is_disabled":false,"rental_uris":{"android":"levelo://app?vid=205c8cef-abd3-431f-9e41-a507cb315fe2","ios":"levelo://app?vid=205c8cef-abd3-431f-9e41-a507cb315fe2"},"vehicle_type_id":"4","last_reported":1762625598,"current_range_meters":8000,"station_id":"ce4bh192rcd13ifvqdc0","pricing_plan_id":"cebpf4jnsgd1na2vs0mg"},{"bike_id":"e54be9d9-b0a9-48fd-844d-2e219918e74f","system_id":"levelo_inurba_marseille","lat":43.29306,"lon":5.371687,"is_reserved":false,"is_disabled":false,"rental_uris":{"android":"levelo://app?vid=e54be9d9-b0a9-48fd-844d-2e219918e74f","ios":"levelo://app?vid=e54be9d9-b0a9-48fd-844d-2e219918e74f"},"vehicle_type_id":"4","last_reported":1762625598,"current_range_meters":8000,"station_id":"ce4bgh92rcd13ifvqb40","pricing_plan_id":"cebpf4jnsgd1na2vs0mg"},{"bike_id":"f577d93f-82b1-45ab-a2e7-46ded920236a","system_id":"levelo_inurba_marseille","lat":43.29514,"lon":5.39401,"is_reserved":false,"is_disabled":false,"rental_uris":{"android":"levelo://app?vid=f577d93f-82b1-45ab-a2e7-46ded920236a","ios":"levelo://app?vid=f577d93f-82b1-45ab-a2e7-46ded920236a"},"vehicle_type_id":"4","last_reported":1762625598,"current_range_meters":8400,"station_id":"ce4bh292rcd13ifvqdf0","pricing_plan_id":"cebpf4jnsgd1na2vs0mg"},{"bike_id":"684e2a5e-89e1-4320-9ef8-632b8808fa95","system_id":"levelo_inurba_marseille","lat":43.28668,"lon":5.38654,"is_reserved":false,"is_disabled":false,"rental_uris":{"android":"levelo://app?vid=684e2a5e-89e1-4320-9ef8-632b8808fa95","ios":"levelo://app?vid=684e2a5e-89e1-4320-9ef8-632b8808fa95"},"vehicle_type_id":"4","last_reported":1762625598,"current_range_meters":8400,"station_id":"ce4bh492rcd13ifvqdug","pricing_plan_id":"cebpf4jnsgd1na2vs0mg"},{"bike_id":"2bda9569-8855-4749-9a29-a9c55ba153ed","system_id":"levelo_inurba_marseille","lat":43.22561,"lon":5.41634,"is_reserved":false,"is_disabled":false,"rental_uris":{"android":"levelo://app?vid=2bda9569-8855-4749-9a29-a9c55ba153ed","ios":"levelo://app?vid=2bda9569-8855-4749-9a29-a9c55ba153ed"},"vehicle_type_id":"4","last_reported":1762625598,"current_range_meters":8400,"station_id":"st_d2o4gvlbi1j2169b742g","pricing_plan_id":"cebpf4jnsgd1na2vs0mg"},{"bike_id":"0df430ab-37f6-4119-85e8-8a1949f08cfe","system_id":"levelo_inurba_marseille","lat":43.24659,"lon":5.38158,"is_reserved":false,"is_disabled":false,"rental_uris":{"android":"levelo://app?vid=0df430ab-37f6-4119-85e8-8a1949f08cfe","ios":"levelo://app?vid=0df430ab-37f6-4119-85e8-8a1949f08cfe"},"vehicle_type_id":"4","last_reported":1762625598,"current_range_meters":8400,"station_id":"ce4bhih2rcd13ifvqfr0","pricing_plan_id":"cebpf4jnsgd1na2vs0mg"},{"bike_id":"310115a0-7bf2-4a4a-9d53-56bf6918e4d0","system_id":"levelo_inurba_marseille","lat":43.28486,"lon":5.48398,"is_reserved":false,"is_disabled":false,"rental_uris":{"android":"levelo://app?vid=310115a0-7bf2-4a4a-9d53-56bf6918e4d0","ios":"levelo://app?vid=310115a0-7bf2-4a4a-9d53-56bf6918e4d0"},"vehicle_type_id":"4","last_reported":1762625598,"current_range_meters":8800,"station_id":"st_d3svhcjqgbts73a3dn0g","pricing_plan_id":"cebpf4jnsgd1na2vs0mg"},{"bike_id":"cb9c21f7-069e-4d2e-b401-d334cff29449","system_id":"levelo_inurba_marseille","lat":43.29967,"lon":5.3849,"is_reserved":false,"is_disabled":false,"rental_uris":{"android":"levelo://app?vid=cb9c21f7-069e-4d2e-b401-d334cff29449","ios":"levelo://app?vid=cb9c21f7-069e-4d2e-b401-d334cff29449"},"vehicle_type_id":"4","last_reported":1762625598,"current_range_meters":8800,"station_id":"ce4bgj92rcd13ifvqbd0","pricing_plan_id":"cebpf4jnsgd1na2vs0mg"},{"bike_id":"5b862e46-0631-40db-989e-0e3db0431ebb","system_id":"levelo_inurba_marseille","lat":43.289703,"lon":5.378284,"is_reserved":false,"is_disabled":false,"rental_uris":{"android":"levelo://app?vid=5b862e46-0631-40db-989e-0e3db0431ebb","ios":"levelo://app?vid=5b862e46-0631-40db-989e-0e3db0431ebb"},"vehicle_type_id":"4","last_reported":1762625598,"current_range_meters":8800,"station_id":"ce4bh9p2rcd13ifvqed0","pricing_plan_id":"cebpf4jnsgd1na2vs0mg"},{"bike_id":"51745a51-50e9-47ca-ad15-16aec392764a","system_id":"levelo_inurba_marseille","lat":43.307987,"lon":5.435192,"is_reserved":false,"is_disabled":false,"rental_uris":{"android":"levelo://app?vid=51745a51-50e9-47ca-ad15-16aec392764a","ios":"levelo://app?vid=51745a51-50e9-47ca-ad15-16aec392764a"},"vehicle_type_id":"4","last_reported":1762625598,"current_range_meters":8800,"station_id":"","pricing_plan_id":"cebpf4jnsgd1na2vs0mg"},{"bike_id":"45691200-53ad-4020-ab62-df86eb83e3c1","system_id":"levelo_inurba_marseille","lat":43.29797,"lon":5.38091,"is_reserved":false,"is_disabled":false,"rental_uris":{"android":"levelo://app?vid=45691200-53ad-4020-ab62-df86eb83e3c1","ios":"levelo://app?vid=45691200-53ad-4020-ab62-df86eb83e3c1"},"vehicle_type_id":"4","last_reported":1762625598,"current_range_meters":8800,"station_id":"ce4bgip2rcd13ifvqbb0","pricing_plan_id":"cebpf4jnsgd1na2vs0mg"},{"bike_id":"46748178-17b8-4dc8-80b3-39159ff743e0","system_id":"levelo_inurba_marseille","lat":43.30054,"lon":5.38318,"is_reserved":false,"is_disabled":false,"rental_uris":{"android":"levelo://app?vid=46748178-17b8-4dc8-80b3-39159ff743e0","ios":"levelo://app?vid=46748178-17b8-4dc8-80b3-39159ff743e0"},"vehicle_type_id":"4","last_reported":1762625598,"current_range_meters":8800,"station_id":"","pricing_plan_id":"cebpf4jnsgd1na2vs0mg"},{"bike_id":"47930b09-aec6-4c35-8b71-f863fae8c9cd","system_id":"levelo_inurba_marseille","lat":43.28847,"lon":5.35855,"is_reserved":false,"is_disabled":false,"rental_uris":{"android":"levelo://app?vid=47930b09-aec6-4c35-8b71-f863fae8c9cd","ios":"levelo://app?vid=47930b09-aec6-4c35-8b71-f863fae8c9cd"},"vehicle_type_id":"4","last_reported":1762625598,"current_range_meters":8800,"station_id":"ce4bhb12rcd13ifvqem0","pricing_plan_id":"cebpf4jnsgd1na2vs0mg"},{"bike_id":"74b65221-debd-4ea0-aef3-c1ab8067f490","system_id":"levelo_inurba_marseille","lat":43.30733,"lon":5.42431,"is_reserved":false,"is_disabled":false,"rental_uris":{"android":"levelo://app?vid=74b65221-debd-4ea0-aef3-c1ab8067f490","ios":"levelo://app?vid=74b65221-debd-4ea0-aef3-c1ab8067f490"},"vehicle_type_id":"4","last_reported":1762625598,"current_range_meters":8800,"station_id":"st_cvj6ca6bvosntc0bfgr0","pricing_plan_id":"cebpf4jnsgd1na2vs0mg"},{"bike_id":"f96ebbae-a179-4216-8474-0722f3a8d361","system_id":"levelo_inurba_marseille","lat":43.28987,"lon":5.37837,"is_reserved":false,"is_disabled":false,"rental_uris":{"android":"levelo://app?vid=f96ebbae-a179-4216-8474-0722f3a8d361","ios":"levelo://app?vid=f96ebbae-a179-4216-8474-0722f3a8d361"},"vehicle_type_id":"4","last_reported":1762625598,"current_range_meters":8800,"station_id":"ce4bh9p2rcd13ifvqed0","pricing_plan_id":"cebpf4jnsgd1na2vs0mg"},{"bike_id":"1a2ec313-985a-474d-8174-754a2a02ddf8","system_id":"levelo_inurba_marseille","lat":43.284606,"lon":5.358858,"is_reserved":false,"is_disabled":false,"rental_uris":{"android":"levelo://app?vid=1a2ec313-985a-474d-8174-754a2a02ddf8","ios":"levelo://app?vid=1a2ec313-985a-474d-8174-754a2a02ddf8"},"vehicle_type_id":"4","last_reported":1762625598,"current_range_meters":8800,"station_id":"ce4bhah2rcd13ifvqei0","pricing_plan_id":"cebpf4jnsgd1na2vs0mg"},{"bike_id":"b05d1bfc-9d5f-4d13-a72d-e46791ddf9b7","system_id":"levelo_inurba_marseille","lat":43.29244,"lon":5.38431,"is_reserved":false,"is_disabled":false,"rental_uris":{"android":"levelo://app?vid=b05d1bfc-9d5f-4d13-a72d-e46791ddf9b7","ios":"levelo://app?vid=b05d1bfc-9d5f-4d13-a72d-e46791ddf9b7"},"vehicle_type_id":"4","last_reported":1762625598,"current_range_meters":9200,"station_id":"ce4bh692rcd13ifvqea0","pricing_plan_id":"cebpf4jnsgd1na2vs0mg"},{"bike_id":"81117295-ef99-4696-a5e4-29e11d56d47c","system_id":"levelo_inurba_marseille","lat":43.32655,"lon":5.40975,"is_reserved":false,"is_disabled":false,"rental_uris":{"android":"levelo://app?vid=81117295-ef99-4696-a5e4-29e11d56d47c","ios":"levelo://app?vid=81117295-ef99-4696-a5e4-29e11d56d47c"},"vehicle_type_id":"4","last_reported":1762625598,"current_range_meters":9200,"station_id":"ce4bhpp2rcd13ifvqhgg","pricing_plan_id":"cebpf4jnsgd1na2vs0mg"},{"bike_id":"9af0687b-3e79-4e11-b844-dd239618aeba","system_id":"levelo_inurba_marseille","lat":43.28863,"lon":5.42522,"is_reserved":false,"is_disabled":false,"rental_uris":{"android":"levelo://app?vid=9af0687b-3e79-4e11-b844-dd239618aeba","ios":"levelo://app?vid=9af0687b-3e79-4e11-b844-dd239618aeba"},"vehicle_type_id":"4","last_reported":1762625598,"current_range_meters":9200,"station_id":"st_d3b462108ojc7389ooeg","pricing_plan_id":"cebpf4jnsgd1na2vs0mg"},{"bike_id":"bad93078-b484-4873-a1ce-359b2e630abc","system_id":"levelo_inurba_marseille","lat":43.29375,"lon":5.38436,"is_reserved":false,"is_disabled":false,"rental_uris":{"android":"levelo://app?vid=bad93078-b484-4873-a1ce-359b2e630abc","ios":"levelo://app?vid=bad93078-b484-4873-a1ce-359b2e630abc"},"vehicle_type_id":"4","last_reported":1762625598,"current_range_meters":9200,"station_id":"","pricing_plan_id":"cebpf4jnsgd1na2vs0mg"},{"bike_id":"103d29db-58cd-479c-8bbb-20c8dfbea420","system_id":"levelo_inurba_marseille","lat":43.313273,"lon":5.39692,"is_reserved":false,"is_disabled":false,"rental_uris":{"android":"levelo://app?vid=103d29db-58cd-479c-8bbb-20c8dfbea420","ios":"levelo://app?vid=103d29db-58cd-479c-8bbb-20c8dfbea420"},"vehicle_type_id":"4","last_reported":1762625598,"current_range_meters":9200,"station_id":"ce4bgvp2rcd13ifvqcu0","pricing_plan_id":"cebpf4jnsgd1na2vs0mg"},{"bike_id":"b252c183-be5b-40db-84a8-8706d22754d2","system_id":"levelo_inurba_marseille","lat":43.28681,"lon":5.38652,"is_reserved":false,"is_disabled":false,"rental_uris":{"android":"levelo://app?vid=b252c183-be5b-40db-84a8-8706d22754d2","ios":"levelo://app?vid=b252c183-be5b-40db-84a8-8706d22754d2"},"vehicle_type_id":"4","last_reported":1762625598,"current_range_meters":9200,"station_id":"ce4bh492rcd13ifvqdug","pricing_plan_id":"cebpf4jnsgd1na2vs0mg"},{"bike_id":"5be14db4-2b06-429f-96c7-68255232d8cf","system_id":"levelo_inurba_marseille","lat":43.297096,"lon":5.366177,"is_reserved":false,"is_disabled":false,"rental_uris":{"android":"levelo://app?vid=5be14db4-2b06-429f-96c7-68255232d8cf","ios":"levelo://app?vid=5be14db4-2b06-429f-96c7-68255232d8cf"},"vehicle_type_id":"4","last_reported":1762625598,"current_range_meters":9200,"station_id":"","pricing_plan_id":"cebpf4jnsgd1na2vs0mg"},{"bike_id":"d13f7aac-3326-47eb-8c83-0485dd333747","system_id":"levelo_inurba_marseille","lat":43.30489,"lon":5.3925,"is_reserved":false,"is_disabled":false,"rental_uris":{"android":"levelo://app?vid=d13f7aac-3326-47eb-8c83-0485dd333747","ios":"levelo://app?vid=d13f7aac-3326-47eb-8c83-0485dd333747"},"vehicle_type_id":"4","last_reported":1762625598,"current_range_meters":9200,"station_id":"","pricing_plan_id":"cebpf4jnsgd1na2vs0mg"},{"bike_id":"4c7ed203-8072-4618-8534-7fce4c89158b","system_id":"levelo_inurba_marseille","lat":43.29097,"lon":5.38129,"is_reserved":false,"is_disabled":false,"rental_uris":{"android":"levelo://app?vid=4c7ed203-8072-4618-8534-7fce4c89158b","ios":"levelo://app?vid=4c7ed203-8072-4618-8534-7fce4c89158b"},"vehicle_type_id":"4","last_reported":1762625598,"current_range_meters":9600,"station_id":"ce4bh512rcd13ifvqe2g","pricing_plan_id":"cebpf4jnsgd1na2vs0mg"},{"bike_id":"1a4d9fc3-0458-45f4-951d-160c44290006","system_id":"levelo_inurba_marseille","lat":43.284789,"lon":5.385765,"is_reserved":false,"is_disabled":false,"rental_uris":{"android":"levelo://app?vid=1a4d9fc3-0458-45f4-951d-160c44290006","ios":"levelo://app?vid=1a4d9fc3-0458-45f4-951d-160c44290006"},"vehicle_type_id":"4","last_reported":1762625598,"current_range_meters":9600,"station_id":"ce4bh8p2rcd13ifvqeb0","pricing_plan_id":"cebpf4jnsgd1na2vs0mg"},{"bike_id":"26aad628-bd01-4664-890e-ba85447bad9f","system_id":"levelo_inurba_marseille","lat":43.303332,"lon":5.40429,"is_reserved":false,"is_disabled":true,"rental_uris":{"android":"levelo://app?vid=26aad628-bd01-4664-890e-ba85447bad9f","ios":"levelo://app?vid=26aad628-bd01-4664-890e-ba85447bad9f"},"vehicle_type_id":"4","last_reported":1762625598,"current_range_meters":9600,"station_id":"ce4bh012rcd13ifvqd10","pricing_plan_id":"cebpf4jnsgd1na2vs0mg"},{"bike_id":"cd7185b7-7cd3-4c39-907b-3be19d7da2cc","system_id":"levelo_inurba_marseille","lat":43.31722,"lon":5.4239,"is_reserved":false,"is_disabled":false,"rental_uris":{"android":"levelo://app?vid=cd7185b7-7cd3-4c39-907b-3be19d7da2cc","ios":"levelo://app?vid=cd7185b7-7cd3-4c39-907b-3be19d7da2cc"},"vehicle_type_id":"4","last_reported":1762625598,"current_range_meters":9600,"station_id":"ce4bhp92rcd13ifvqhbg","pricing_plan_id":"cebpf4jnsgd1na2vs0mg"},{"bike_id":"9d001bd6-2c50-4fe0-987b-f4c0aee9f670","system_id":"levelo_inurba_marseille","lat":43.30172,"lon":5.38411,"is_reserved":false,"is_disabled":false,"rental_uris":{"android":"levelo://app?vid=9d001bd6-2c50-4fe0-987b-f4c0aee9f670","ios":"levelo://app?vid=9d001bd6-2c50-4fe0-987b-f4c0aee9f670"},"vehicle_type_id":"4","last_reported":1762625598,"current_range_meters":9600,"station_id":"","pricing_plan_id":"cebpf4jnsgd1na2vs0mg"},{"bike_id":"134b34be-c753-4ecd-8714-4c068652b114","system_id":"levelo_inurba_marseille","lat":43.27912,"lon":5.38013,"is_reserved":false,"is_disabled":false,"rental_uris":{"android":"levelo://app?vid=134b34be-c753-4ecd-8714-4c068652b114","ios":"levelo://app?vid=134b34be-c753-4ecd-8714-4c068652b114"},"vehicle_type_id":"4","last_reported":1762625598,"current_range_meters":9600,"station_id":"ce4bhf92rcd13ifvqf50","pricing_plan_id":"cebpf4jnsgd1na2vs0mg"},{"bike_id":"95565d88-4e0c-4b5d-b6d1-9a4c73bcb1f1","system_id":"levelo_inurba_marseille","lat":43.33764,"lon":5.3744,"is_reserved":false,"is_disabled":false,"rental_uris":{"android":"levelo://app?vid=95565d88-4e0c-4b5d-b6d1-9a4c73bcb1f1","ios":"levelo://app?vid=95565d88-4e0c-4b5d-b6d1-9a4c73bcb1f1"},"vehicle_type_id":"4","last_reported":1762625598,"current_range_meters":9600,"station_id":"","pricing_plan_id":"cebpf4jnsgd1na2vs0mg"},{"bike_id":"b4629f60-4dd5-407b-9260-97e82082af2c","system_id":"levelo_inurba_marseille","lat":43.31107,"lon":5.37769,"is_reserved":false,"is_disabled":false,"rental_uris":{"android":"levelo://app?vid=b4629f60-4dd5-407b-9260-97e82082af2c","ios":"levelo://app?vid=b4629f60-4dd5-407b-9260-97e82082af2c"},"vehicle_type_id":"4","last_reported":1762625598,"current_range_meters":9600,"station_id":"ce4bgt92rcd13ifvqcg0","pricing_plan_id":"cebpf4jnsgd1na2vs0mg"},{"bike_id":"e825c6f9-4be0-4def-8f7f-63ade6bb075d","system_id":"levelo_inurba_marseille","lat":43.27983,"lon":5.41676,"is_reserved":false,"is_disabled":false,"rental_uris":{"android":"levelo://app?vid=e825c6f9-4be0-4def-8f7f-63ade6bb075d","ios":"levelo://app?vid=e825c6f9-4be0-4def-8f7f-63ade6bb075d"},"vehicle_type_id":"4","last_reported":1762625598,"current_range_meters":9600,"station_id":"ce4bho12rcd13ifvqh1g","pricing_plan_id":"cebpf4jnsgd1na2vs0mg"},{"bike_id":"b758b265-5aa1-4ec8-8853-7d19be5588f9","system_id":"levelo_inurba_marseille","lat":43.27089,"lon":5.42272,"is_reserved":false,"is_disabled":false,"rental_uris":{"android":"levelo://app?vid=b758b265-5aa1-4ec8-8853-7d19be5588f9","ios":"levelo://app?vid=b758b265-5aa1-4ec8-8853-7d19be5588f9"},"vehicle_type_id":"4","last_reported":1762625598,"current_range_meters":10000,"station_id":"ce4bhk92rcd13ifvqgb0","pricing_plan_id":"cebpf4jnsgd1na2vs0mg"},{"bike_id":"8f7ca0cb-d088-4e21-9662-2ab4874d81ef","system_id":"levelo_inurba_marseille","lat":43.24624,"lon":5.38198,"is_reserved":false,"is_disabled":true,"rental_uris":{"android":"levelo://app?vid=8f7ca0cb-d088-4e21-9662-2ab4874d81ef","ios":"levelo://app?vid=8f7ca0cb-d088-4e21-9662-2ab4874d81ef"},"vehicle_type_id":"4","last_reported":1762625598,"current_range_meters":10000,"station_id":"ce4bhih2rcd13ifvqfr0","pricing_plan_id":"cebpf4jnsgd1na2vs0mg"},{"bike_id":"25317e19-6942-4b75-a1bf-860a57b73054","system_id":"levelo_inurba_marseille","lat":43.31962,"lon":5.39399,"is_reserved":false,"is_disabled":false,"rental_uris":{"android":"levelo://app?vid=25317e19-6942-4b75-a1bf-860a57b73054","ios":"levelo://app?vid=25317e19-6942-4b75-a1bf-860a57b73054"},"vehicle_type_id":"4","last_reported":1762625598,"current_range_meters":10000,"station_id":"","pricing_plan_id":"cebpf4jnsgd1na2vs0mg"},{"bike_id":"6ff95486-ffed-4717-ab87-555580e0ad79","system_id":"levelo_inurba_marseille","lat":43.30462,"lon":5.37902,"is_reserved":false,"is_disabled":false,"rental_uris":{"android":"levelo://app?vid=6ff95486-ffed-4717-ab87-555580e0ad79","ios":"levelo://app?vid=6ff95486-ffed-4717-ab87-555580e0ad79"},"vehicle_type_id":"4","last_reported":1762625598,"current_range_meters":10000,"station_id":"ce4bgup2rcd13ifvqcn0","pricing_plan_id":"cebpf4jnsgd1na2vs0mg"},{"bike_id":"1011e01a-e4c4-4d7c-82ea-50e768bf58aa","system_id":"levelo_inurba_marseille","lat":43.30628,"lon":5.36567,"is_reserved":false,"is_disabled":false,"rental_uris":{"android":"levelo://app?vid=1011e01a-e4c4-4d7c-82ea-50e768bf58aa","ios":"levelo://app?vid=1011e01a-e4c4-4d7c-82ea-50e768bf58aa"},"vehicle_type_id":"4","last_reported":1762625598,"current_range_meters":10000,"station_id":"","pricing_plan_id":"cebpf4jnsgd1na2vs0mg"},{"bike_id":"7e9fe8bc-735a-40e1-a167-53c57c12e261","system_id":"levelo_inurba_marseille","lat":43.24082,"lon":5.37759,"is_reserved":false,"is_disabled":false,"rental_uris":{"android":"levelo://app?vid=7e9fe8bc-735a-40e1-a167-53c57c12e261","ios":"levelo://app?vid=7e9fe8bc-735a-40e1-a167-53c57c12e261"},"vehicle_type_id":"4","last_reported":1762625598,"current_range_meters":10000,"station_id":"ce4bhnp2rcd13ifvqgvg","pricing_plan_id":"cebpf4jnsgd1na2vs0mg"},{"bike_id":"a4b610ef-5dc5-47fb-9228-87e17fe490d3","system_id":"levelo_inurba_marseille","lat":43.27076,"lon":5.42272,"is_reserved":false,"is_disabled":true,"rental_uris":{"android":"levelo://app?vid=a4b610ef-5dc5-47fb-9228-87e17fe490d3","ios":"levelo://app?vid=a4b610ef-5dc5-47fb-9228-87e17fe490d3"},"vehicle_type_id":"4","last_reported":1762625598,"current_range_meters":10000,"station_id":"ce4bhk92rcd13ifvqgb0","pricing_plan_id":"cebpf4jnsgd1na2vs0mg"},{"bike_id":"3b294fa9-3f9f-4381-a2a8-e3592d375a68","system_id":"levelo_inurba_marseille","lat":43.26695,"lon":5.39702,"is_reserved":false,"is_disabled":false,"rental_uris":{"android":"levelo://app?vid=3b294fa9-3f9f-4381-a2a8-e3592d375a68","ios":"levelo://app?vid=3b294fa9-3f9f-4381-a2a8-e3592d375a68"},"vehicle_type_id":"4","last_reported":1762625598,"current_range_meters":10000,"station_id":"","pricing_plan_id":"cebpf4jnsgd1na2vs0mg"},{"bike_id":"b98c59d1-12c0-4a03-b198-cf728a9bdad0","system_id":"levelo_inurba_marseille","lat":43.29322,"lon":5.37155,"is_reserved":false,"is_disabled":false,"rental_uris":{"android":"levelo://app?vid=b98c59d1-12c0-4a03-b198-cf728a9bdad0","ios":"levelo://app?vid=b98c59d1-12c0-4a03-b198-cf728a9bdad0"},"vehicle_type_id":"4","last_reported":1762625598,"current_range_meters":10800,"station_id":"","pricing_plan_id":"cebpf4jnsgd1na2vs0mg"},{"bike_id":"0cd51c1d-9e1b-455f-812a-461f369a1fb1","system_id":"levelo_inurba_marseille","lat":43.286999,"lon":5.373759,"is_reserved":false,"is_disabled":false,"rental_uris":{"android":"levelo://app?vid=0cd51c1d-9e1b-455f-812a-461f369a1fb1","ios":"levelo://app?vid=0cd51c1d-9e1b-455f-812a-461f369a1fb1"},"vehicle_type_id":"4","last_reported":1762625598,"current_range_meters":10800,"station_id":"ce4bh3p2rcd13ifvqdq0","pricing_plan_id":"cebpf4jnsgd1na2vs0mg"},{"bike_id":"ce9a4c1e-9fbc-422c-82de-f3c1c5440309","system_id":"levelo_inurba_marseille","lat":43.295319,"lon":5.38544,"is_reserved":false,"is_disabled":false,"rental_uris":{"android":"levelo://app?vid=ce9a4c1e-9fbc-422c-82de-f3c1c5440309","ios":"levelo://app?vid=ce9a4c1e-9fbc-422c-82de-f3c1c5440309"},"vehicle_type_id":"4","last_reported":1762625598,"current_range_meters":10800,"station_id":"ce4bgih2rcd13ifvqba0","pricing_plan_id":"cebpf4jnsgd1na2vs0mg"},{"bike_id":"d510b29d-06c6-4a67-8cee-2182097a14e2","system_id":"levelo_inurba_marseille","lat":43.29268,"lon":5.37617,"is_reserved":false,"is_disabled":true,"rental_uris":{"android":"levelo://app?vid=d510b29d-06c6-4a67-8cee-2182097a14e2","ios":"levelo://app?vid=d510b29d-06c6-4a67-8cee-2182097a14e2"},"vehicle_type_id":"4","last_reported":1762625598,"current_range_meters":10800,"station_id":"ce4bgi12rcd13ifvqb80","pricing_plan_id":"cebpf4jnsgd1na2vs0mg"},{"bike_id":"321d43c2-a97c-419e-a110-a172b4ee23e9","system_id":"levelo_inurba_marseille","lat":43.26152,"lon":5.41778,"is_reserved":false,"is_disabled":false,"rental_uris":{"android":"levelo://app?vid=321d43c2-a97c-419e-a110-a172b4ee23e9","ios":"levelo://app?vid=321d43c2-a97c-419e-a110-a172b4ee23e9"},"vehicle_type_id":"4","last_reported":1762625598,"current_range_meters":10800,"station_id":"","pricing_plan_id":"cebpf4jnsgd1na2vs0mg"},{"bike_id":"e95f4fbf-e18a-4764-9d1e-413b96476e00","system_id":"levelo_inurba_marseille","lat":43.23142,"lon":5.43725,"is_reserved":false,"is_disabled":false,"rental_uris":{"android":"levelo://app?vid=e95f4fbf-e18a-4764-9d1e-413b96476e00","ios":"levelo://app?vid=e95f4fbf-e18a-4764-9d1e-413b96476e00"},"vehicle_type_id":"4","last_reported":1762625598,"current_range_meters":10800,"station_id":"ce4bhmp2rcd13ifvqgog","pricing_plan_id":"cebpf4jnsgd1na2vs0mg"},{"bike_id":"cab36438-f563-4deb-ad45-7b98813e54d1","system_id":"levelo_inurba_marseille","lat":43.29031,"lon":5.38133,"is_reserved":false,"is_disabled":false,"rental_uris":{"android":"levelo://app?vid=cab36438-f563-4deb-ad45-7b98813e54d1","ios":"levelo://app?vid=cab36438-f563-4deb-ad45-7b98813e54d1"},"vehicle_type_id":"4","last_reported":1762625598,"current_range_meters":10800,"station_id":"ce4bh4p2rcd13ifvqe1g","pricing_plan_id":"cebpf4jnsgd1na2vs0mg"},{"bike_id":"860c0eb2-7a8f-46c1-bc7e-ce0827d8c983","system_id":"levelo_inurba_marseille","lat":43.27984,"lon":5.41648,"is_reserved":false,"is_disabled":false,"rental_uris":{"android":"levelo://app?vid=860c0eb2-7a8f-46c1-bc7e-ce0827d8c983","ios":"levelo://app?vid=860c0eb2-7a8f-46c1-bc7e-ce0827d8c983"},"vehicle_type_id":"4","last_reported":1762625598,"current_range_meters":10800,"station_id":"ce4bho12rcd13ifvqh1g","pricing_plan_id":"cebpf4jnsgd1na2vs0mg"},{"bike_id":"08800a7f-3058-4ed0-a60f-c12bee9e25dd","system_id":"levelo_inurba_marseille","lat":43.246267,"lon":5.431483,"is_reserved":false,"is_disabled":false,"rental_uris":{"android":"levelo://app?vid=08800a7f-3058-4ed0-a60f-c12bee9e25dd","ios":"levelo://app?vid=08800a7f-3058-4ed0-a60f-c12bee9e25dd"},"vehicle_type_id":"4","last_reported":1762625598,"current_range_meters":11200,"station_id":"st_d2m6c4gdas8pm72e190g","pricing_plan_id":"cebpf4jnsgd1na2vs0mg"},{"bike_id":"382f597e-181c-4839-b1de-04339df9aa55","system_id":"levelo_inurba_marseille","lat":43.26813,"lon":5.40274,"is_reserved":false,"is_disabled":true,"rental_uris":{"android":"levelo://app?vid=382f597e-181c-4839-b1de-04339df9aa55","ios":"levelo://app?vid=382f597e-181c-4839-b1de-04339df9aa55"},"vehicle_type_id":"4","last_reported":1762625598,"current_range_meters":11200,"station_id":"ce501612rcd8frsf0b60","pricing_plan_id":"cebpf4jnsgd1na2vs0mg"},{"bike_id":"ad96e6a9-697f-4cbc-ab0e-acea2cc2ff89","system_id":"levelo_inurba_marseille","lat":43.29254,"lon":5.38273,"is_reserved":false,"is_disabled":false,"rental_uris":{"android":"levelo://app?vid=ad96e6a9-697f-4cbc-ab0e-acea2cc2ff89","ios":"levelo://app?vid=ad96e6a9-697f-4cbc-ab0e-acea2cc2ff89"},"vehicle_type_id":"4","last_reported":1762625598,"current_range_meters":11200,"station_id":"","pricing_plan_id":"cebpf4jnsgd1na2vs0mg"},{"bike_id":"6d4cf35d-b087-4336-92f3-66114f0c87ef","system_id":"levelo_inurba_marseille","lat":43.2885,"lon":5.35869,"is_reserved":false,"is_disabled":false,"rental_uris":{"android":"levelo://app?vid=6d4cf35d-b087-4336-92f3-66114f0c87ef","ios":"levelo://app?vid=6d4cf35d-b087-4336-92f3-66114f0c87ef"},"vehicle_type_id":"4","last_reported":1762625598,"current_range_meters":11200,"station_id":"ce4bhb12rcd13ifvqem0","pricing_plan_id":"cebpf4jnsgd1na2vs0mg"},{"bike_id":"886112bb-7385-4181-963f-6646b51a78fe","system_id":"levelo_inurba_marseille","lat":43.29519,"lon":5.39394,"is_reserved":false,"is_disabled":false,"rental_uris":{"android":"levelo://app?vid=886112bb-7385-4181-963f-6646b51a78fe","ios":"levelo://app?vid=886112bb-7385-4181-963f-6646b51a78fe"},"vehicle_type_id":"4","last_reported":1762625598,"current_range_meters":11200,"station_id":"ce4bh292rcd13ifvqdf0","pricing_plan_id":"cebpf4jnsgd1na2vs0mg"},{"bike_id":"8462414e-5567-4f22-a4ee-644580436a1d","system_id":"levelo_inurba_marseille","lat":43.282215,"lon":5.390588,"is_reserved":false,"is_disabled":false,"rental_uris":{"android":"levelo://app?vid=8462414e-5567-4f22-a4ee-644580436a1d","ios":"levelo://app?vid=8462414e-5567-4f22-a4ee-644580436a1d"},"vehicle_type_id":"4","last_reported":1762625598,"current_range_meters":11200,"station_id":"ce4bhn92rcd13ifvqgsg","pricing_plan_id":"cebpf4jnsgd1na2vs0mg"},{"bike_id":"ed5e464c-4948-4274-bab0-4437903b8202","system_id":"levelo_inurba_marseille","lat":43.27691,"lon":5.38907,"is_reserved":false,"is_disabled":false,"rental_uris":{"android":"levelo://app?vid=ed5e464c-4948-4274-bab0-4437903b8202","ios":"levelo://app?vid=ed5e464c-4948-4274-bab0-4437903b8202"},"vehicle_type_id":"4","last_reported":1762625598,"current_range_meters":11200,"station_id":"ce4bhi12rcd13ifvqfo0","pricing_plan_id":"cebpf4jnsgd1na2vs0mg"},{"bike_id":"06593175-4f55-4c26-aa1d-46c35aa595df","system_id":"levelo_inurba_marseille","lat":43.30734,"lon":5.4244,"is_reserved":false,"is_disabled":false,"rental_uris":{"android":"levelo://app?vid=06593175-4f55-4c26-aa1d-46c35aa595df","ios":"levelo://app?vid=06593175-4f55-4c26-aa1d-46c35aa595df"},"vehicle_type_id":"4","last_reported":1762625598,"current_range_meters":11200,"station_id":"st_cvj6ca6bvosntc0bfgr0","pricing_plan_id":"cebpf4jnsgd1na2vs0mg"},{"bike_id":"5707b086-f1ea-4421-a46b-55e69416b353","system_id":"levelo_inurba_marseille","lat":43.27803,"lon":5.40684,"is_reserved":false,"is_disabled":false,"rental_uris":{"android":"levelo://app?vid=5707b086-f1ea-4421-a46b-55e69416b353","ios":"levelo://app?vid=5707b086-f1ea-4421-a46b-55e69416b353"},"vehicle_type_id":"4","last_reported":1762625598,"current_range_meters":11200,"station_id":"ce4bhnh2rcd13ifvqgtg","pricing_plan_id":"cebpf4jnsgd1na2vs0mg"},{"bike_id":"dfde87bb-1a24-4866-bcda-6d9da60c1cf9","system_id":"levelo_inurba_marseille","lat":43.28595,"lon":5.39372,"is_reserved":false,"is_disabled":false,"rental_uris":{"android":"levelo://app?vid=dfde87bb-1a24-4866-bcda-6d9da60c1cf9","ios":"levelo://app?vid=dfde87bb-1a24-4866-bcda-6d9da60c1cf9"},"vehicle_type_id":"4","last_reported":1762625598,"current_range_meters":11200,"station_id":"","pricing_plan_id":"cebpf4jnsgd1na2vs0mg"},{"bike_id":"257e51cd-217b-49d2-8f55-e1e7f9b2de1c","system_id":"levelo_inurba_marseille","lat":43.29261,"lon":5.40906,"is_reserved":false,"is_disabled":false,"rental_uris":{"android":"levelo://app?vid=257e51cd-217b-49d2-8f55-e1e7f9b2de1c","ios":"levelo://app?vid=257e51cd-217b-49d2-8f55-e1e7f9b2de1c"},"vehicle_type_id":"4","last_reported":1762625598,"current_range_meters":11600,"station_id":"ce4bh192rcd13ifvqdc0","pricing_plan_id":"cebpf4jnsgd1na2vs0mg"},{"bike_id":"108d23b7-21f5-4956-b90f-b1ccd5e1aeea","system_id":"levelo_inurba_marseille","lat":43.29042,"lon":5.3757,"is_reserved":false,"is_disabled":false,"rental_uris":{"android":"levelo://app?vid=108d23b7-21f5-4956-b90f-b1ccd5e1aeea","ios":"levelo://app?vid=108d23b7-21f5-4956-b90f-b1ccd5e1aeea"},"vehicle_type_id":"4","last_reported":1762625598,"current_range_meters":11600,"station_id":"ce4bh692rcd13ifvqe90","pricing_plan_id":"cebpf4jnsgd1na2vs0mg"},{"bike_id":"ac87eb90-36d7-40e0-ba9e-c44bccc3035c","system_id":"levelo_inurba_marseille","lat":43.26953,"lon":5.38628,"is_reserved":false,"is_disabled":false,"rental_uris":{"android":"levelo://app?vid=ac87eb90-36d7-40e0-ba9e-c44bccc3035c","ios":"levelo://app?vid=ac87eb90-36d7-40e0-ba9e-c44bccc3035c"},"vehicle_type_id":"4","last_reported":1762625598,"current_range_meters":11600,"station_id":"ce4bhh92rcd13ifvqfh0","pricing_plan_id":"cebpf4jnsgd1na2vs0mg"},{"bike_id":"12d91eea-0c5b-47e1-a51c-909808e652b7","system_id":"levelo_inurba_marseille","lat":43.271955,"lon":5.409845,"is_reserved":false,"is_disabled":false,"rental_uris":{"android":"levelo://app?vid=12d91eea-0c5b-47e1-a51c-909808e652b7","ios":"levelo://app?vid=12d91eea-0c5b-47e1-a51c-909808e652b7"},"vehicle_type_id":"4","last_reported":1762625598,"current_range_meters":11600,"station_id":"ce4bhl12rcd13ifvqgf0","pricing_plan_id":"cebpf4jnsgd1na2vs0mg"},{"bike_id":"4c8d527a-1c50-42ba-b148-156abe25b523","system_id":"levelo_inurba_marseille","lat":43.24635,"lon":5.43145,"is_reserved":false,"is_disabled":false,"rental_uris":{"android":"levelo://app?vid=4c8d527a-1c50-42ba-b148-156abe25b523","ios":"levelo://app?vid=4c8d527a-1c50-42ba-b148-156abe25b523"},"vehicle_type_id":"4","last_reported":1762625598,"current_range_meters":11600,"station_id":"st_d2m6c4gdas8pm72e190g","pricing_plan_id":"cebpf4jnsgd1na2vs0mg"},{"bike_id":"347a0df7-be17-4896-b745-7c74ee476441","system_id":"levelo_inurba_marseille","lat":43.2909,"lon":5.38135,"is_reserved":false,"is_disabled":false,"rental_uris":{"android":"levelo://app?vid=347a0df7-be17-4896-b745-7c74ee476441","ios":"levelo://app?vid=347a0df7-be17-4896-b745-7c74ee476441"},"vehicle_type_id":"4","last_reported":1762625598,"current_range_meters":12000,"station_id":"ce4bh512rcd13ifvqe2g","pricing_plan_id":"cebpf4jnsgd1na2vs0mg"},{"bike_id":"6ba0f1d1-5706-4a14-b89f-505a4c6aa756","system_id":"levelo_inurba_marseille","lat":43.29511,"lon":5.43295,"is_reserved":false,"is_disabled":false,"rental_uris":{"android":"levelo://app?vid=6ba0f1d1-5706-4a14-b89f-505a4c6aa756","ios":"levelo://app?vid=6ba0f1d1-5706-4a14-b89f-505a4c6aa756"},"vehicle_type_id":"4","last_reported":1762625598,"current_range_meters":12000,"station_id":"st_d3j5ugp08ojc73fj9d10","pricing_plan_id":"cebpf4jnsgd1na2vs0mg"},{"bike_id":"665a5ba2-246e-4ac7-a969-6694219b1452","system_id":"levelo_inurba_marseille","lat":43.28884,"lon":5.35838,"is_reserved":false,"is_disabled":true,"rental_uris":{"android":"levelo://app?vid=665a5ba2-246e-4ac7-a969-6694219b1452","ios":"levelo://app?vid=665a5ba2-246e-4ac7-a969-6694219b1452"},"vehicle_type_id":"4","last_reported":1762625598,"current_range_meters":12000,"station_id":"ce4bhb12rcd13ifvqem0","pricing_plan_id":"cebpf4jnsgd1na2vs0mg"},{"bike_id":"abbbb7be-2df2-470a-8453-2a130d26d2d5","system_id":"levelo_inurba_marseille","lat":43.26069,"lon":5.39389,"is_reserved":false,"is_disabled":false,"rental_uris":{"android":"levelo://app?vid=abbbb7be-2df2-470a-8453-2a130d26d2d5","ios":"levelo://app?vid=abbbb7be-2df2-470a-8453-2a130d26d2d5"},"vehicle_type_id":"4","last_reported":1762625598,"current_range_meters":12000,"station_id":"ce4bhh92rcd13ifvqfj0","pricing_plan_id":"cebpf4jnsgd1na2vs0mg"},{"bike_id":"73fb33c9-0115-4691-8308-7748b784a3f4","system_id":"levelo_inurba_marseille","lat":43.29316,"lon":5.37147,"is_reserved":false,"is_disabled":false,"rental_uris":{"android":"levelo://app?vid=73fb33c9-0115-4691-8308-7748b784a3f4","ios":"levelo://app?vid=73fb33c9-0115-4691-8308-7748b784a3f4"},"vehicle_type_id":"4","last_reported":1762625598,"current_range_meters":12000,"station_id":"ce4bgh92rcd13ifvqb40","pricing_plan_id":"cebpf4jnsgd1na2vs0mg"},{"bike_id":"f4feaeaa-4939-44e3-844e-2f9b796a742a","system_id":"levelo_inurba_marseille","lat":43.269619,"lon":5.3864,"is_reserved":false,"is_disabled":false,"rental_uris":{"android":"levelo://app?vid=f4feaeaa-4939-44e3-844e-2f9b796a742a","ios":"levelo://app?vid=f4feaeaa-4939-44e3-844e-2f9b796a742a"},"vehicle_type_id":"4","last_reported":1762625598,"current_range_meters":12000,"station_id":"ce4bhh92rcd13ifvqfh0","pricing_plan_id":"cebpf4jnsgd1na2vs0mg"},{"bike_id":"7bee5968-f8f3-4e60-b00f-f5f8e65ce013","system_id":"levelo_inurba_marseille","lat":43.28932,"lon":5.39628,"is_reserved":false,"is_disabled":false,"rental_uris":{"android":"levelo://app?vid=7bee5968-f8f3-4e60-b00f-f5f8e65ce013","ios":"levelo://app?vid=7bee5968-f8f3-4e60-b00f-f5f8e65ce013"},"vehicle_type_id":"4","last_reported":1762625598,"current_range_meters":12400,"station_id":"ce4bh3h2rcd13ifvqdn0","pricing_plan_id":"cebpf4jnsgd1na2vs0mg"},{"bike_id":"8779f189-ee7a-49df-ae1d-3ecf5fa4f2dd","system_id":"levelo_inurba_marseille","lat":43.29096,"lon":5.38099,"is_reserved":false,"is_disabled":false,"rental_uris":{"android":"levelo://app?vid=8779f189-ee7a-49df-ae1d-3ecf5fa4f2dd","ios":"levelo://app?vid=8779f189-ee7a-49df-ae1d-3ecf5fa4f2dd"},"vehicle_type_id":"4","last_reported":1762625598,"current_range_meters":12400,"station_id":"ce4bh512rcd13ifvqe2g","pricing_plan_id":"cebpf4jnsgd1na2vs0mg"},{"bike_id":"bde0ff90-f616-4347-8e9a-5f43142b8092","system_id":"levelo_inurba_marseille","lat":43.2997,"lon":5.38494,"is_reserved":false,"is_disabled":false,"rental_uris":{"android":"levelo://app?vid=bde0ff90-f616-4347-8e9a-5f43142b8092","ios":"levelo://app?vid=bde0ff90-f616-4347-8e9a-5f43142b8092"},"vehicle_type_id":"4","last_reported":1762625598,"current_range_meters":12400,"station_id":"ce4bgj92rcd13ifvqbd0","pricing_plan_id":"cebpf4jnsgd1na2vs0mg"},{"bike_id":"0f0f1c6c-a995-4a10-9747-ab99a95825c4","system_id":"levelo_inurba_marseille","lat":43.28157,"lon":5.42643,"is_reserved":false,"is_disabled":false,"rental_uris":{"android":"levelo://app?vid=0f0f1c6c-a995-4a10-9747-ab99a95825c4","ios":"levelo://app?vid=0f0f1c6c-a995-4a10-9747-ab99a95825c4"},"vehicle_type_id":"4","last_reported":1762625598,"current_range_meters":12400,"station_id":"ce4bhnh2rcd13ifvqgug","pricing_plan_id":"cebpf4jnsgd1na2vs0mg"},{"bike_id":"ff4d1ab0-08e2-477d-ae0f-54cfd9cc5baa","system_id":"levelo_inurba_marseille","lat":43.26565,"lon":5.40312,"is_reserved":false,"is_disabled":false,"rental_uris":{"android":"levelo://app?vid=ff4d1ab0-08e2-477d-ae0f-54cfd9cc5baa","ios":"levelo://app?vid=ff4d1ab0-08e2-477d-ae0f-54cfd9cc5baa"},"vehicle_type_id":"4","last_reported":1762625598,"current_range_meters":12400,"station_id":"ce4bhmp2rcd13ifvqgng","pricing_plan_id":"cebpf4jnsgd1na2vs0mg"},{"bike_id":"870a9ad1-db35-4ab0-bc9a-84476efc6571","system_id":"levelo_inurba_marseille","lat":43.32781,"lon":5.42676,"is_reserved":false,"is_disabled":false,"rental_uris":{"android":"levelo://app?vid=870a9ad1-db35-4ab0-bc9a-84476efc6571","ios":"levelo://app?vid=870a9ad1-db35-4ab0-bc9a-84476efc6571"},"vehicle_type_id":"4","last_reported":1762625598,"current_range_meters":12400,"station_id":"","pricing_plan_id":"cebpf4jnsgd1na2vs0mg"},{"bike_id":"d2991a60-dcfa-4252-8f9d-bfff4b1dc433","system_id":"levelo_inurba_marseille","lat":43.31076,"lon":5.37144,"is_reserved":false,"is_disabled":false,"rental_uris":{"android":"levelo://app?vid=d2991a60-dcfa-4252-8f9d-bfff4b1dc433","ios":"levelo://app?vid=d2991a60-dcfa-4252-8f9d-bfff4b1dc433"},"vehicle_type_id":"4","last_reported":1762625598,"current_range_meters":12400,"station_id":"","pricing_plan_id":"cebpf4jnsgd1na2vs0mg"},{"bike_id":"4bce02cb-bdba-488a-a39f-eae80d4c7da8","system_id":"levelo_inurba_marseille","lat":43.28221,"lon":5.39035,"is_reserved":false,"is_disabled":true,"rental_uris":{"android":"levelo://app?vid=4bce02cb-bdba-488a-a39f-eae80d4c7da8","ios":"levelo://app?vid=4bce02cb-bdba-488a-a39f-eae80d4c7da8"},"vehicle_type_id":"4","last_reported":1762625598,"current_range_meters":12400,"station_id":"ce4bhn92rcd13ifvqgsg","pricing_plan_id":"cebpf4jnsgd1na2vs0mg"},{"bike_id":"7ea5f80b-04a3-491f-9009-a2257bf8cba0","system_id":"levelo_inurba_marseille","lat":43.27813,"lon":5.40711,"is_reserved":false,"is_disabled":false,"rental_uris":{"android":"levelo://app?vid=7ea5f80b-04a3-491f-9009-a2257bf8cba0","ios":"levelo://app?vid=7ea5f80b-04a3-491f-9009-a2257bf8cba0"},"vehicle_type_id":"4","last_reported":1762625598,"current_range_meters":12800,"station_id":"ce4bhnh2rcd13ifvqgtg","pricing_plan_id":"cebpf4jnsgd1na2vs0mg"},{"bike_id":"30d8fad0-b359-483b-8b6b-1430c712d4de","system_id":"levelo_inurba_marseille","lat":43.2811,"lon":5.37844,"is_reserved":false,"is_disabled":false,"rental_uris":{"android":"levelo://app?vid=30d8fad0-b359-483b-8b6b-1430c712d4de","ios":"levelo://app?vid=30d8fad0-b359-483b-8b6b-1430c712d4de"},"vehicle_type_id":"4","last_reported":1762625598,"current_range_meters":12800,"station_id":"ce4bha12rcd13ifvqee0","pricing_plan_id":"cebpf4jnsgd1na2vs0mg"},{"bike_id":"ceeca71c-9c86-4148-8ec2-42ab3195b3a2","system_id":"levelo_inurba_marseille","lat":43.23154,"lon":5.43698,"is_reserved":false,"is_disabled":false,"rental_uris":{"android":"levelo://app?vid=ceeca71c-9c86-4148-8ec2-42ab3195b3a2","ios":"levelo://app?vid=ceeca71c-9c86-4148-8ec2-42ab3195b3a2"},"vehicle_type_id":"4","last_reported":1762625598,"current_range_meters":12800,"station_id":"ce4bhmp2rcd13ifvqgog","pricing_plan_id":"cebpf4jnsgd1na2vs0mg"},{"bike_id":"8a9ac7ad-bb73-491a-a1a8-c3f2b39b3768","system_id":"levelo_inurba_marseille","lat":43.3173,"lon":5.39021,"is_reserved":false,"is_disabled":false,"rental_uris":{"android":"levelo://app?vid=8a9ac7ad-bb73-491a-a1a8-c3f2b39b3768","ios":"levelo://app?vid=8a9ac7ad-bb73-491a-a1a8-c3f2b39b3768"},"vehicle_type_id":"4","last_reported":1762625598,"current_range_meters":12800,"station_id":"ce4bhqp2rcd13ifvqhng","pricing_plan_id":"cebpf4jnsgd1na2vs0mg"},{"bike_id":"1a11f6d9-15cd-4d99-9ec5-e1ede82db56a","system_id":"levelo_inurba_marseille","lat":43.25095,"lon":5.39522,"is_reserved":false,"is_disabled":false,"rental_uris":{"android":"levelo://app?vid=1a11f6d9-15cd-4d99-9ec5-e1ede82db56a","ios":"levelo://app?vid=1a11f6d9-15cd-4d99-9ec5-e1ede82db56a"},"vehicle_type_id":"4","last_reported":1762625598,"current_range_meters":12800,"station_id":"ce4bhm12rcd13ifvqgkg","pricing_plan_id":"cebpf4jnsgd1na2vs0mg"},{"bike_id":"1cb3caa2-a6c2-4318-965f-70da959eb0b9","system_id":"levelo_inurba_marseille","lat":43.299336,"lon":5.365461,"is_reserved":false,"is_disabled":false,"rental_uris":{"android":"levelo://app?vid=1cb3caa2-a6c2-4318-965f-70da959eb0b9","ios":"levelo://app?vid=1cb3caa2-a6c2-4318-965f-70da959eb0b9"},"vehicle_type_id":"4","last_reported":1762625598,"current_range_meters":12800,"station_id":"ce4bgm92rcd13ifvqbr0","pricing_plan_id":"cebpf4jnsgd1na2vs0mg"},{"bike_id":"152dc96a-1568-4177-b651-4b950d2a0e73","system_id":"levelo_inurba_marseille","lat":43.3269,"lon":5.39194,"is_reserved":false,"is_disabled":false,"rental_uris":{"android":"levelo://app?vid=152dc96a-1568-4177-b651-4b950d2a0e73","ios":"levelo://app?vid=152dc96a-1568-4177-b651-4b950d2a0e73"},"vehicle_type_id":"4","last_reported":1762625598,"current_range_meters":12800,"station_id":"","pricing_plan_id":"cebpf4jnsgd1na2vs0mg"},{"bike_id":"6666035b-4e84-4848-820a-92aecf4b286f","system_id":"levelo_inurba_marseille","lat":43.28963,"lon":5.3784,"is_reserved":false,"is_disabled":false,"rental_uris":{"android":"levelo://app?vid=6666035b-4e84-4848-820a-92aecf4b286f","ios":"levelo://app?vid=6666035b-4e84-4848-820a-92aecf4b286f"},"vehicle_type_id":"4","last_reported":1762625598,"current_range_meters":12800,"station_id":"ce4bh9p2rcd13ifvqed0","pricing_plan_id":"cebpf4jnsgd1na2vs0mg"},{"bike_id":"2d09d6a2-f592-48df-a952-68864ae6960f","system_id":"levelo_inurba_marseille","lat":43.24475,"lon":5.40951,"is_reserved":false,"is_disabled":false,"rental_uris":{"android":"levelo://app?vid=2d09d6a2-f592-48df-a952-68864ae6960f","ios":"levelo://app?vid=2d09d6a2-f592-48df-a952-68864ae6960f"},"vehicle_type_id":"4","last_reported":1762625598,"current_range_meters":12800,"station_id":"","pricing_plan_id":"cebpf4jnsgd1na2vs0mg"},{"bike_id":"9ee730ec-3d2c-4627-8620-b354f7510d6c","system_id":"levelo_inurba_marseille","lat":43.28704,"lon":5.37386,"is_reserved":false,"is_disabled":false,"rental_uris":{"android":"levelo://app?vid=9ee730ec-3d2c-4627-8620-b354f7510d6c","ios":"levelo://app?vid=9ee730ec-3d2c-4627-8620-b354f7510d6c"},"vehicle_type_id":"4","last_reported":1762625598,"current_range_meters":12800,"station_id":"ce4bh3p2rcd13ifvqdq0","pricing_plan_id":"cebpf4jnsgd1na2vs0mg"},{"bike_id":"7304ea05-1f78-41fe-8725-e76f079910b3","system_id":"levelo_inurba_marseille","lat":43.295274,"lon":5.385432,"is_reserved":false,"is_disabled":false,"rental_uris":{"android":"levelo://app?vid=7304ea05-1f78-41fe-8725-e76f079910b3","ios":"levelo://app?vid=7304ea05-1f78-41fe-8725-e76f079910b3"},"vehicle_type_id":"4","last_reported":1762625598,"current_range_meters":13600,"station_id":"ce4bgih2rcd13ifvqba0","pricing_plan_id":"cebpf4jnsgd1na2vs0mg"},{"bike_id":"31800347-6952-4e4c-aa3f-f865647b86c9","system_id":"levelo_inurba_marseille","lat":43.29548,"lon":5.38522,"is_reserved":false,"is_disabled":false,"rental_uris":{"android":"levelo://app?vid=31800347-6952-4e4c-aa3f-f865647b86c9","ios":"levelo://app?vid=31800347-6952-4e4c-aa3f-f865647b86c9"},"vehicle_type_id":"4","last_reported":1762625598,"current_range_meters":13600,"station_id":"ce4bgih2rcd13ifvqba0","pricing_plan_id":"cebpf4jnsgd1na2vs0mg"},{"bike_id":"a8e92df2-fe26-4f1d-8eaf-49b969680af9","system_id":"levelo_inurba_marseille","lat":43.29532,"lon":5.38538,"is_reserved":false,"is_disabled":false,"rental_uris":{"android":"levelo://app?vid=a8e92df2-fe26-4f1d-8eaf-49b969680af9","ios":"levelo://app?vid=a8e92df2-fe26-4f1d-8eaf-49b969680af9"},"vehicle_type_id":"4","last_reported":1762625598,"current_range_meters":13600,"station_id":"ce4bgih2rcd13ifvqba0","pricing_plan_id":"cebpf4jnsgd1na2vs0mg"},{"bike_id":"825a1957-d327-49da-97b3-2485c79c40e7","system_id":"levelo_inurba_marseille","lat":43.21751,"lon":5.34609,"is_reserved":false,"is_disabled":true,"rental_uris":{"android":"levelo://app?vid=825a1957-d327-49da-97b3-2485c79c40e7","ios":"levelo://app?vid=825a1957-d327-49da-97b3-2485c79c40e7"},"vehicle_type_id":"4","last_reported":1762625598,"current_range_meters":13600,"station_id":"","pricing_plan_id":"cebpf4jnsgd1na2vs0mg"},{"bike_id":"c91fc0af-b9c3-4e9c-b184-07e77f7ef59d","system_id":"levelo_inurba_marseille","lat":43.28693,"lon":5.38663,"is_reserved":false,"is_disabled":false,"rental_uris":{"android":"levelo://app?vid=c91fc0af-b9c3-4e9c-b184-07e77f7ef59d","ios":"levelo://app?vid=c91fc0af-b9c3-4e9c-b184-07e77f7ef59d"},"vehicle_type_id":"4","last_reported":1762625598,"current_range_meters":13600,"station_id":"ce4bh492rcd13ifvqdug","pricing_plan_id":"cebpf4jnsgd1na2vs0mg"},{"bike_id":"d86e902c-a007-43b4-b73e-84d36fd8458a","system_id":"levelo_inurba_marseille","lat":43.29884,"lon":5.39737,"is_reserved":false,"is_disabled":false,"rental_uris":{"android":"levelo://app?vid=d86e902c-a007-43b4-b73e-84d36fd8458a","ios":"levelo://app?vid=d86e902c-a007-43b4-b73e-84d36fd8458a"},"vehicle_type_id":"4","last_reported":1762625598,"current_range_meters":13600,"station_id":"ce4bh0h2rcd13ifvqd50","pricing_plan_id":"cebpf4jnsgd1na2vs0mg"},{"bike_id":"0b37b69f-4d88-45a5-bb59-8daa184f4232","system_id":"levelo_inurba_marseille","lat":43.2986,"lon":5.36258,"is_reserved":false,"is_disabled":false,"rental_uris":{"android":"levelo://app?vid=0b37b69f-4d88-45a5-bb59-8daa184f4232","ios":"levelo://app?vid=0b37b69f-4d88-45a5-bb59-8daa184f4232"},"vehicle_type_id":"4","last_reported":1762625598,"current_range_meters":13600,"station_id":"ce4bgpp2rcd13ifvqc3g","pricing_plan_id":"cebpf4jnsgd1na2vs0mg"},{"bike_id":"3439a8cb-8214-4321-b614-d69fa7098072","system_id":"levelo_inurba_marseille","lat":43.31304,"lon":5.38998,"is_reserved":false,"is_disabled":false,"rental_uris":{"android":"levelo://app?vid=3439a8cb-8214-4321-b614-d69fa7098072","ios":"levelo://app?vid=3439a8cb-8214-4321-b614-d69fa7098072"},"vehicle_type_id":"4","last_reported":1762625598,"current_range_meters":13600,"station_id":"","pricing_plan_id":"cebpf4jnsgd1na2vs0mg"},{"bike_id":"258ffc45-5eb3-4003-80de-9feea5eb97ef","system_id":"levelo_inurba_marseille","lat":43.25861,"lon":5.39897,"is_reserved":false,"is_disabled":false,"rental_uris":{"android":"levelo://app?vid=258ffc45-5eb3-4003-80de-9feea5eb97ef","ios":"levelo://app?vid=258ffc45-5eb3-4003-80de-9feea5eb97ef"},"vehicle_type_id":"4","last_reported":1762625598,"current_range_meters":13600,"station_id":"ce4bhl92rcd13ifvqghg","pricing_plan_id":"cebpf4jnsgd1na2vs0mg"},{"bike_id":"0f5dfc59-1a4e-4edf-8fbe-ac5d398b0051","system_id":"levelo_inurba_marseille","lat":43.29786,"lon":5.37095,"is_reserved":false,"is_disabled":false,"rental_uris":{"android":"levelo://app?vid=0f5dfc59-1a4e-4edf-8fbe-ac5d398b0051","ios":"levelo://app?vid=0f5dfc59-1a4e-4edf-8fbe-ac5d398b0051"},"vehicle_type_id":"4","last_reported":1762625598,"current_range_meters":13600,"station_id":"ce4bgop2rcd13ifvqc1g","pricing_plan_id":"cebpf4jnsgd1na2vs0mg"},{"bike_id":"54fa92af-5541-4137-afea-d36fade5cb4b","system_id":"levelo_inurba_marseille","lat":43.2463,"lon":5.43147,"is_reserved":false,"is_disabled":false,"rental_uris":{"android":"levelo://app?vid=54fa92af-5541-4137-afea-d36fade5cb4b","ios":"levelo://app?vid=54fa92af-5541-4137-afea-d36fade5cb4b"},"vehicle_type_id":"4","last_reported":1762625598,"current_range_meters":13600,"station_id":"st_d2m6c4gdas8pm72e190g","pricing_plan_id":"cebpf4jnsgd1na2vs0mg"},{"bike_id":"7d15749b-1397-4329-a216-53199c8e15ee","system_id":"levelo_inurba_marseille","lat":43.31535,"lon":5.38027,"is_reserved":false,"is_disabled":false,"rental_uris":{"android":"levelo://app?vid=7d15749b-1397-4329-a216-53199c8e15ee","ios":"levelo://app?vid=7d15749b-1397-4329-a216-53199c8e15ee"},"vehicle_type_id":"4","last_reported":1762625598,"current_range_meters":13600,"station_id":"ce4bhsp2rcd13ifvqi50","pricing_plan_id":"cebpf4jnsgd1na2vs0mg"},{"bike_id":"968e9c29-84ee-4827-bcab-ac08bc4ab6d5","system_id":"levelo_inurba_marseille","lat":43.29273,"lon":5.36844,"is_reserved":false,"is_disabled":true,"rental_uris":{"android":"levelo://app?vid=968e9c29-84ee-4827-bcab-ac08bc4ab6d5","ios":"levelo://app?vid=968e9c29-84ee-4827-bcab-ac08bc4ab6d5"},"vehicle_type_id":"4","last_reported":1762625598,"current_range_meters":13600,"station_id":"ce4bhbp2rcd13ifvqesg","pricing_plan_id":"cebpf4jnsgd1na2vs0mg"},{"bike_id":"36b299b4-2062-49a2-993b-3a9f22a9f487","system_id":"levelo_inurba_marseille","lat":43.286597,"lon":5.363434,"is_reserved":false,"is_disabled":false,"rental_uris":{"android":"levelo://app?vid=36b299b4-2062-49a2-993b-3a9f22a9f487","ios":"levelo://app?vid=36b299b4-2062-49a2-993b-3a9f22a9f487"},"vehicle_type_id":"4","last_reported":1762625598,"current_range_meters":13600,"station_id":"ce4bhah2rcd13ifvqej0","pricing_plan_id":"cebpf4jnsgd1na2vs0mg"},{"bike_id":"d00b842c-7a1c-4d04-8ee6-2bd101dd85f9","system_id":"levelo_inurba_marseille","lat":43.337272,"lon":5.391812,"is_reserved":false,"is_disabled":false,"rental_uris":{"android":"levelo://app?vid=d00b842c-7a1c-4d04-8ee6-2bd101dd85f9","ios":"levelo://app?vid=d00b842c-7a1c-4d04-8ee6-2bd101dd85f9"},"vehicle_type_id":"4","last_reported":1762625598,"current_range_meters":14000,"station_id":"ce4bhr92rcd13ifvqhsg","pricing_plan_id":"cebpf4jnsgd1na2vs0mg"},{"bike_id":"92bb4f11-76d0-4c27-a385-232020885e16","system_id":"levelo_inurba_marseille","lat":43.28107,"lon":5.37838,"is_reserved":false,"is_disabled":false,"rental_uris":{"android":"levelo://app?vid=92bb4f11-76d0-4c27-a385-232020885e16","ios":"levelo://app?vid=92bb4f11-76d0-4c27-a385-232020885e16"},"vehicle_type_id":"4","last_reported":1762625598,"current_range_meters":14000,"station_id":"ce4bha12rcd13ifvqee0","pricing_plan_id":"cebpf4jnsgd1na2vs0mg"},{"bike_id":"a932897e-bbf4-4fbb-8f29-aad3264a0236","system_id":"levelo_inurba_marseille","lat":43.29045,"lon":5.39959,"is_reserved":false,"is_disabled":false,"rental_uris":{"android":"levelo://app?vid=a932897e-bbf4-4fbb-8f29-aad3264a0236","ios":"levelo://app?vid=a932897e-bbf4-4fbb-8f29-aad3264a0236"},"vehicle_type_id":"4","last_reported":1762625598,"current_range_meters":14000,"station_id":"ce4bh392rcd13ifvqdm0","pricing_plan_id":"cebpf4jnsgd1na2vs0mg"},{"bike_id":"fdfdde80-7f98-4492-a263-3964ecfbbb45","system_id":"levelo_inurba_marseille","lat":43.2827,"lon":5.35073,"is_reserved":false,"is_disabled":true,"rental_uris":{"android":"levelo://app?vid=fdfdde80-7f98-4492-a263-3964ecfbbb45","ios":"levelo://app?vid=fdfdde80-7f98-4492-a263-3964ecfbbb45"},"vehicle_type_id":"4","last_reported":1762625598,"current_range_meters":14000,"station_id":"ce4bhbp2rcd13ifvqerg","pricing_plan_id":"cebpf4jnsgd1na2vs0mg"},{"bike_id":"21dcb4e2-bef4-415f-aa59-cd0b9e2cb07b","system_id":"levelo_inurba_marseille","lat":43.22808,"lon":5.4349,"is_reserved":false,"is_disabled":false,"rental_uris":{"android":"levelo://app?vid=21dcb4e2-bef4-415f-aa59-cd0b9e2cb07b","ios":"levelo://app?vid=21dcb4e2-bef4-415f-aa59-cd0b9e2cb07b"},"vehicle_type_id":"4","last_reported":1762625598,"current_range_meters":14000,"station_id":"","pricing_plan_id":"cebpf4jnsgd1na2vs0mg"},{"bike_id":"034b45fe-fc8a-40e2-930b-00715a4950c7","system_id":"levelo_inurba_marseille","lat":43.22534,"lon":5.34833,"is_reserved":false,"is_disabled":false,"rental_uris":{"android":"levelo://app?vid=034b45fe-fc8a-40e2-930b-00715a4950c7","ios":"levelo://app?vid=034b45fe-fc8a-40e2-930b-00715a4950c7"},"vehicle_type_id":"4","last_reported":1762625598,"current_range_meters":14400,"station_id":"","pricing_plan_id":"cebpf4jnsgd1na2vs0mg"},{"bike_id":"25fd7d6d-bc1d-48dc-b741-729fe0e49332","system_id":"levelo_inurba_marseille","lat":43.25339,"lon":5.42173,"is_reserved":false,"is_disabled":false,"rental_uris":{"android":"levelo://app?vid=25fd7d6d-bc1d-48dc-b741-729fe0e49332","ios":"levelo://app?vid=25fd7d6d-bc1d-48dc-b741-729fe0e49332"},"vehicle_type_id":"4","last_reported":1762625598,"current_range_meters":14400,"station_id":"st_d2m65c5bi1j21697t3ng","pricing_plan_id":"cebpf4jnsgd1na2vs0mg"},{"bike_id":"462fd3fb-de6a-4a66-9e94-cfd2b0d801c6","system_id":"levelo_inurba_marseille","lat":43.30346,"lon":5.3771,"is_reserved":false,"is_disabled":false,"rental_uris":{"android":"levelo://app?vid=462fd3fb-de6a-4a66-9e94-cfd2b0d801c6","ios":"levelo://app?vid=462fd3fb-de6a-4a66-9e94-cfd2b0d801c6"},"vehicle_type_id":"4","last_reported":1762625598,"current_range_meters":14400,"station_id":"","pricing_plan_id":"cebpf4jnsgd1na2vs0mg"},{"bike_id":"d0b5feab-4e16-49e5-9d4a-c8741c92807f","system_id":"levelo_inurba_marseille","lat":43.2902,"lon":5.38633,"is_reserved":false,"is_disabled":false,"rental_uris":{"android":"levelo://app?vid=d0b5feab-4e16-49e5-9d4a-c8741c92807f","ios":"levelo://app?vid=d0b5feab-4e16-49e5-9d4a-c8741c92807f"},"vehicle_type_id":"4","last_reported":1762625598,"current_range_meters":14400,"station_id":"ce4bh4p2rcd13ifvqe0g","pricing_plan_id":"cebpf4jnsgd1na2vs0mg"},{"bike_id":"ff64ea7e-098b-464b-a88a-70f0c974ce84","system_id":"levelo_inurba_marseille","lat":43.29788,"lon":5.37111,"is_reserved":false,"is_disabled":false,"rental_uris":{"android":"levelo://app?vid=ff64ea7e-098b-464b-a88a-70f0c974ce84","ios":"levelo://app?vid=ff64ea7e-098b-464b-a88a-70f0c974ce84"},"vehicle_type_id":"4","last_reported":1762625598,"current_range_meters":14400,"station_id":"ce4bgop2rcd13ifvqc1g","pricing_plan_id":"cebpf4jnsgd1na2vs0mg"},{"bike_id":"42f1d31d-b0b5-48f8-b88c-a2adae506543","system_id":"levelo_inurba_marseille","lat":43.298175,"lon":5.440661,"is_reserved":false,"is_disabled":false,"rental_uris":{"android":"levelo://app?vid=42f1d31d-b0b5-48f8-b88c-a2adae506543","ios":"levelo://app?vid=42f1d31d-b0b5-48f8-b88c-a2adae506543"},"vehicle_type_id":"4","last_reported":1762625598,"current_range_meters":14800,"station_id":"st_d3jp68qikq2c7381ktn0","pricing_plan_id":"cebpf4jnsgd1na2vs0mg"},{"bike_id":"186f06b7-9a2a-4013-92c3-74ac21b89f0d","system_id":"levelo_inurba_marseille","lat":43.29345,"lon":5.38498,"is_reserved":false,"is_disabled":false,"rental_uris":{"android":"levelo://app?vid=186f06b7-9a2a-4013-92c3-74ac21b89f0d","ios":"levelo://app?vid=186f06b7-9a2a-4013-92c3-74ac21b89f0d"},"vehicle_type_id":"4","last_reported":1762625598,"current_range_meters":14800,"station_id":"","pricing_plan_id":"cebpf4jnsgd1na2vs0mg"},{"bike_id":"734a865f-bc72-418d-a124-634ac8b3763c","system_id":"levelo_inurba_marseille","lat":43.29536,"lon":5.38539,"is_reserved":false,"is_disabled":false,"rental_uris":{"android":"levelo://app?vid=734a865f-bc72-418d-a124-634ac8b3763c","ios":"levelo://app?vid=734a865f-bc72-418d-a124-634ac8b3763c"},"vehicle_type_id":"4","last_reported":1762625598,"current_range_meters":14800,"station_id":"ce4bgih2rcd13ifvqba0","pricing_plan_id":"cebpf4jnsgd1na2vs0mg"},{"bike_id":"0c6b0294-8ab2-4da2-b6e6-0067935bcb7b","system_id":"levelo_inurba_marseille","lat":43.26214,"lon":5.37441,"is_reserved":false,"is_disabled":false,"rental_uris":{"android":"levelo://app?vid=0c6b0294-8ab2-4da2-b6e6-0067935bcb7b","ios":"levelo://app?vid=0c6b0294-8ab2-4da2-b6e6-0067935bcb7b"},"vehicle_type_id":"4","last_reported":1762625598,"current_range_meters":14800,"station_id":"ce4bhgp2rcd13ifvqfc0","pricing_plan_id":"cebpf4jnsgd1na2vs0mg"},{"bike_id":"dbc9b3ca-84c3-46d7-b8f9-3bd241123a97","system_id":"levelo_inurba_marseille","lat":43.27998,"lon":5.41666,"is_reserved":false,"is_disabled":false,"rental_uris":{"android":"levelo://app?vid=dbc9b3ca-84c3-46d7-b8f9-3bd241123a97","ios":"levelo://app?vid=dbc9b3ca-84c3-46d7-b8f9-3bd241123a97"},"vehicle_type_id":"4","last_reported":1762625598,"current_range_meters":14800,"station_id":"ce4bho12rcd13ifvqh1g","pricing_plan_id":"cebpf4jnsgd1na2vs0mg"},{"bike_id":"dbbebd9f-29e8-40e3-9a66-1499d31ea66f","system_id":"levelo_inurba_marseille","lat":43.29995,"lon":5.38489,"is_reserved":false,"is_disabled":false,"rental_uris":{"android":"levelo://app?vid=dbbebd9f-29e8-40e3-9a66-1499d31ea66f","ios":"levelo://app?vid=dbbebd9f-29e8-40e3-9a66-1499d31ea66f"},"vehicle_type_id":"4","last_reported":1762625598,"current_range_meters":15200,"station_id":"ce4bgj92rcd13ifvqbd0","pricing_plan_id":"cebpf4jnsgd1na2vs0mg"},{"bike_id":"53529ee7-fa79-4bfe-8ac3-2ffb63a46b11","system_id":"levelo_inurba_marseille","lat":43.3177,"lon":5.38833,"is_reserved":false,"is_disabled":false,"rental_uris":{"android":"levelo://app?vid=53529ee7-fa79-4bfe-8ac3-2ffb63a46b11","ios":"levelo://app?vid=53529ee7-fa79-4bfe-8ac3-2ffb63a46b11"},"vehicle_type_id":"4","last_reported":1762625598,"current_range_meters":15200,"station_id":"","pricing_plan_id":"cebpf4jnsgd1na2vs0mg"},{"bike_id":"c73c5513-728d-4700-9395-e31e4399cd51","system_id":"levelo_inurba_marseille","lat":43.29202,"lon":5.40247,"is_reserved":false,"is_disabled":false,"rental_uris":{"android":"levelo://app?vid=c73c5513-728d-4700-9395-e31e4399cd51","ios":"levelo://app?vid=c73c5513-728d-4700-9395-e31e4399cd51"},"vehicle_type_id":"4","last_reported":1762625598,"current_range_meters":15200,"station_id":"","pricing_plan_id":"cebpf4jnsgd1na2vs0mg"},{"bike_id":"e4c04b76-e15d-4d95-90e9-ef3bedaba6c1","system_id":"levelo_inurba_marseille","lat":43.313274,"lon":5.396847,"is_reserved":false,"is_disabled":false,"rental_uris":{"android":"levelo://app?vid=e4c04b76-e15d-4d95-90e9-ef3bedaba6c1","ios":"levelo://app?vid=e4c04b76-e15d-4d95-90e9-ef3bedaba6c1"},"vehicle_type_id":"4","last_reported":1762625598,"current_range_meters":15200,"station_id":"ce4bgvp2rcd13ifvqcu0","pricing_plan_id":"cebpf4jnsgd1na2vs0mg"},{"bike_id":"15db09df-59b0-446a-87c5-e354a3319258","system_id":"levelo_inurba_marseille","lat":43.28478,"lon":5.48411,"is_reserved":false,"is_disabled":false,"rental_uris":{"android":"levelo://app?vid=15db09df-59b0-446a-87c5-e354a3319258","ios":"levelo://app?vid=15db09df-59b0-446a-87c5-e354a3319258"},"vehicle_type_id":"4","last_reported":1762625598,"current_range_meters":15200,"station_id":"","pricing_plan_id":"cebpf4jnsgd1na2vs0mg"},{"bike_id":"06b572d6-d95a-4f1a-9a9a-b316897ad6d5","system_id":"levelo_inurba_marseille","lat":43.29545,"lon":5.3752,"is_reserved":false,"is_disabled":false,"rental_uris":{"android":"levelo://app?vid=06b572d6-d95a-4f1a-9a9a-b316897ad6d5","ios":"levelo://app?vid=06b572d6-d95a-4f1a-9a9a-b316897ad6d5"},"vehicle_type_id":"4","last_reported":1762625598,"current_range_meters":15200,"station_id":"ce4bgkp2rcd13ifvqbmg","pricing_plan_id":"cebpf4jnsgd1na2vs0mg"},{"bike_id":"c67f4ecd-d117-43e8-b702-4b370acc5494","system_id":"levelo_inurba_marseille","lat":43.290283,"lon":5.386428,"is_reserved":false,"is_disabled":false,"rental_uris":{"android":"levelo://app?vid=c67f4ecd-d117-43e8-b702-4b370acc5494","ios":"levelo://app?vid=c67f4ecd-d117-43e8-b702-4b370acc5494"},"vehicle_type_id":"4","last_reported":1762625598,"current_range_meters":15200,"station_id":"ce4bh4p2rcd13ifvqe0g","pricing_plan_id":"cebpf4jnsgd1na2vs0mg"},{"bike_id":"2a482288-2072-400a-aced-50cd3b8ac1ed","system_id":"levelo_inurba_marseille","lat":43.28156,"lon":5.42644,"is_reserved":false,"is_disabled":false,"rental_uris":{"android":"levelo://app?vid=2a482288-2072-400a-aced-50cd3b8ac1ed","ios":"levelo://app?vid=2a482288-2072-400a-aced-50cd3b8ac1ed"},"vehicle_type_id":"4","last_reported":1762625598,"current_range_meters":15200,"station_id":"ce4bhnh2rcd13ifvqgug","pricing_plan_id":"cebpf4jnsgd1na2vs0mg"},{"bike_id":"a68d0162-175e-4c6e-8cc2-4e1744e2e01a","system_id":"levelo_inurba_marseille","lat":43.30157,"lon":5.39845,"is_reserved":false,"is_disabled":false,"rental_uris":{"android":"levelo://app?vid=a68d0162-175e-4c6e-8cc2-4e1744e2e01a","ios":"levelo://app?vid=a68d0162-175e-4c6e-8cc2-4e1744e2e01a"},"vehicle_type_id":"4","last_reported":1762625598,"current_range_meters":15200,"station_id":"ce4bh0h2rcd13ifvqd40","pricing_plan_id":"cebpf4jnsgd1na2vs0mg"},{"bike_id":"9349155b-71e1-4d6c-b058-5f708c76bb3e","system_id":"levelo_inurba_marseille","lat":43.29531,"lon":5.385396,"is_reserved":false,"is_disabled":false,"rental_uris":{"android":"levelo://app?vid=9349155b-71e1-4d6c-b058-5f708c76bb3e","ios":"levelo://app?vid=9349155b-71e1-4d6c-b058-5f708c76bb3e"},"vehicle_type_id":"4","last_reported":1762625598,"current_range_meters":16000,"station_id":"ce4bgih2rcd13ifvqba0","pricing_plan_id":"cebpf4jnsgd1na2vs0mg"},{"bike_id":"20bb4fb4-f5e0-4edf-8f37-43a6be3e962c","system_id":"levelo_inurba_marseille","lat":43.31322,"lon":5.39698,"is_reserved":false,"is_disabled":false,"rental_uris":{"android":"levelo://app?vid=20bb4fb4-f5e0-4edf-8f37-43a6be3e962c","ios":"levelo://app?vid=20bb4fb4-f5e0-4edf-8f37-43a6be3e962c"},"vehicle_type_id":"4","last_reported":1762625598,"current_range_meters":16000,"station_id":"ce4bgvp2rcd13ifvqcu0","pricing_plan_id":"cebpf4jnsgd1na2vs0mg"},{"bike_id":"1a85bd73-f6c9-483d-ac28-5d95b6775d78","system_id":"levelo_inurba_marseille","lat":43.28727,"lon":5.37943,"is_reserved":false,"is_disabled":true,"rental_uris":{"android":"levelo://app?vid=1a85bd73-f6c9-483d-ac28-5d95b6775d78","ios":"levelo://app?vid=1a85bd73-f6c9-483d-ac28-5d95b6775d78"},"vehicle_type_id":"4","last_reported":1762625598,"current_range_meters":16000,"station_id":"ce4bh9p2rcd13ifvqec0","pricing_plan_id":"cebpf4jnsgd1na2vs0mg"},{"bike_id":"fd4a07e8-26cf-499a-ad97-557b6d070c92","system_id":"levelo_inurba_marseille","lat":43.28081,"lon":5.39644,"is_reserved":false,"is_disabled":false,"rental_uris":{"android":"levelo://app?vid=fd4a07e8-26cf-499a-ad97-557b6d070c92","ios":"levelo://app?vid=fd4a07e8-26cf-499a-ad97-557b6d070c92"},"vehicle_type_id":"4","last_reported":1762625598,"current_range_meters":16000,"station_id":"ce4bho12rcd13ifvqh2g","pricing_plan_id":"cebpf4jnsgd1na2vs0mg"},{"bike_id":"95c2a582-1eba-4ebc-bdda-a353604dc20d","system_id":"levelo_inurba_marseille","lat":43.31264,"lon":5.36854,"is_reserved":false,"is_disabled":false,"rental_uris":{"android":"levelo://app?vid=95c2a582-1eba-4ebc-bdda-a353604dc20d","ios":"levelo://app?vid=95c2a582-1eba-4ebc-bdda-a353604dc20d"},"vehicle_type_id":"4","last_reported":1762625598,"current_range_meters":16000,"station_id":"ce4bgl92rcd13ifvqbq0","pricing_plan_id":"cebpf4jnsgd1na2vs0mg"},{"bike_id":"ac2f44cd-60fc-469d-9352-edc0a52dd731","system_id":"levelo_inurba_marseille","lat":43.2606,"lon":5.39402,"is_reserved":false,"is_disabled":false,"rental_uris":{"android":"levelo://app?vid=ac2f44cd-60fc-469d-9352-edc0a52dd731","ios":"levelo://app?vid=ac2f44cd-60fc-469d-9352-edc0a52dd731"},"vehicle_type_id":"4","last_reported":1762625598,"current_range_meters":16000,"station_id":"ce4bhh92rcd13ifvqfj0","pricing_plan_id":"cebpf4jnsgd1na2vs0mg"},{"bike_id":"880070d2-f36a-4c02-b224-804589a4683a","system_id":"levelo_inurba_marseille","lat":43.28607,"lon":5.37064,"is_reserved":false,"is_disabled":false,"rental_uris":{"android":"levelo://app?vid=880070d2-f36a-4c02-b224-804589a4683a","ios":"levelo://app?vid=880070d2-f36a-4c02-b224-804589a4683a"},"vehicle_type_id":"4","last_reported":1762625598,"current_range_meters":16000,"station_id":"ce4bht12rcd13ifvqi60","pricing_plan_id":"cebpf4jnsgd1na2vs0mg"},{"bike_id":"f436f6ac-9909-4313-93e7-74bf0fe46028","system_id":"levelo_inurba_marseille","lat":43.28659,"lon":5.36344,"is_reserved":false,"is_disabled":false,"rental_uris":{"android":"levelo://app?vid=f436f6ac-9909-4313-93e7-74bf0fe46028","ios":"levelo://app?vid=f436f6ac-9909-4313-93e7-74bf0fe46028"},"vehicle_type_id":"4","last_reported":1762625598,"current_range_meters":16000,"station_id":"ce4bhah2rcd13ifvqej0","pricing_plan_id":"cebpf4jnsgd1na2vs0mg"},{"bike_id":"4dbdf6e4-992e-4295-b2c5-eb3811225ecc","system_id":"levelo_inurba_marseille","lat":43.3092,"lon":5.36855,"is_reserved":false,"is_disabled":false,"rental_uris":{"android":"levelo://app?vid=4dbdf6e4-992e-4295-b2c5-eb3811225ecc","ios":"levelo://app?vid=4dbdf6e4-992e-4295-b2c5-eb3811225ecc"},"vehicle_type_id":"4","last_reported":1762625598,"current_range_meters":16400,"station_id":"ce4bgn92rcd13ifvqbvg","pricing_plan_id":"cebpf4jnsgd1na2vs0mg"},{"bike_id":"6ca580b9-ae87-4e9b-a62c-4e0f6a07370c","system_id":"levelo_inurba_marseille","lat":43.21189,"lon":5.35073,"is_reserved":false,"is_disabled":false,"rental_uris":{"android":"levelo://app?vid=6ca580b9-ae87-4e9b-a62c-4e0f6a07370c","ios":"levelo://app?vid=6ca580b9-ae87-4e9b-a62c-4e0f6a07370c"},"vehicle_type_id":"4","last_reported":1762625598,"current_range_meters":16400,"station_id":"st_cvj6sg6p6f1abm77japg","pricing_plan_id":"cebpf4jnsgd1na2vs0mg"},{"bike_id":"f114550f-0e97-467f-a15f-491fe7ea5021","system_id":"levelo_inurba_marseille","lat":43.29286,"lon":5.37179,"is_reserved":false,"is_disabled":true,"rental_uris":{"android":"levelo://app?vid=f114550f-0e97-467f-a15f-491fe7ea5021","ios":"levelo://app?vid=f114550f-0e97-467f-a15f-491fe7ea5021"},"vehicle_type_id":"4","last_reported":1762625598,"current_range_meters":16400,"station_id":"ce4bgh92rcd13ifvqb40","pricing_plan_id":"cebpf4jnsgd1na2vs0mg"},{"bike_id":"d1cbe8b1-b39b-4e6a-b4e1-914b6f778fce","system_id":"levelo_inurba_marseille","lat":43.31579,"lon":5.38825,"is_reserved":false,"is_disabled":true,"rental_uris":{"android":"levelo://app?vid=d1cbe8b1-b39b-4e6a-b4e1-914b6f778fce","ios":"levelo://app?vid=d1cbe8b1-b39b-4e6a-b4e1-914b6f778fce"},"vehicle_type_id":"4","last_reported":1762625598,"current_range_meters":16400,"station_id":"","pricing_plan_id":"cebpf4jnsgd1na2vs0mg"},{"bike_id":"ee175632-a663-46e4-a04a-94a5c3686c34","system_id":"levelo_inurba_marseille","lat":43.22938,"lon":5.35377,"is_reserved":false,"is_disabled":false,"rental_uris":{"android":"levelo://app?vid=ee175632-a663-46e4-a04a-94a5c3686c34","ios":"levelo://app?vid=ee175632-a663-46e4-a04a-94a5c3686c34"},"vehicle_type_id":"4","last_reported":1762625598,"current_range_meters":16400,"station_id":"cpo3532slgdg3j2ikp40","pricing_plan_id":"cebpf4jnsgd1na2vs0mg"},{"bike_id":"ac1012d0-7872-4c6e-85e6-fc8eaff39396","system_id":"levelo_inurba_marseille","lat":43.28452,"lon":5.35895,"is_reserved":false,"is_disabled":true,"rental_uris":{"android":"levelo://app?vid=ac1012d0-7872-4c6e-85e6-fc8eaff39396","ios":"levelo://app?vid=ac1012d0-7872-4c6e-85e6-fc8eaff39396"},"vehicle_type_id":"4","last_reported":1762625598,"current_range_meters":16400,"station_id":"ce4bhah2rcd13ifvqei0","pricing_plan_id":"cebpf4jnsgd1na2vs0mg"},{"bike_id":"f5798b1c-d2ac-4849-8c47-59fbbbc0335b","system_id":"levelo_inurba_marseille","lat":43.28169,"lon":5.38903,"is_reserved":false,"is_disabled":false,"rental_uris":{"android":"levelo://app?vid=f5798b1c-d2ac-4849-8c47-59fbbbc0335b","ios":"levelo://app?vid=f5798b1c-d2ac-4849-8c47-59fbbbc0335b"},"vehicle_type_id":"4","last_reported":1762625598,"current_range_meters":16400,"station_id":"","pricing_plan_id":"cebpf4jnsgd1na2vs0mg"},{"bike_id":"d753a841-b4fd-4072-a8f1-3ed3cd604e74","system_id":"levelo_inurba_marseille","lat":43.29971,"lon":5.38491,"is_reserved":false,"is_disabled":false,"rental_uris":{"android":"levelo://app?vid=d753a841-b4fd-4072-a8f1-3ed3cd604e74","ios":"levelo://app?vid=d753a841-b4fd-4072-a8f1-3ed3cd604e74"},"vehicle_type_id":"4","last_reported":1762625598,"current_range_meters":16400,"station_id":"ce4bgj92rcd13ifvqbd0","pricing_plan_id":"cebpf4jnsgd1na2vs0mg"},{"bike_id":"3d4e0f90-742b-4e91-aa19-02fc9106b060","system_id":"levelo_inurba_marseille","lat":43.27905,"lon":5.38016,"is_reserved":false,"is_disabled":false,"rental_uris":{"android":"levelo://app?vid=3d4e0f90-742b-4e91-aa19-02fc9106b060","ios":"levelo://app?vid=3d4e0f90-742b-4e91-aa19-02fc9106b060"},"vehicle_type_id":"4","last_reported":1762625598,"current_range_meters":16400,"station_id":"ce4bhf92rcd13ifvqf50","pricing_plan_id":"cebpf4jnsgd1na2vs0mg"},{"bike_id":"a6d9c0ef-31ca-4597-9d2a-cd7f542923eb","system_id":"levelo_inurba_marseille","lat":43.276732,"lon":5.38881,"is_reserved":false,"is_disabled":false,"rental_uris":{"android":"levelo://app?vid=a6d9c0ef-31ca-4597-9d2a-cd7f542923eb","ios":"levelo://app?vid=a6d9c0ef-31ca-4597-9d2a-cd7f542923eb"},"vehicle_type_id":"4","last_reported":1762625598,"current_range_meters":16800,"station_id":"ce4bhi12rcd13ifvqfo0","pricing_plan_id":"cebpf4jnsgd1na2vs0mg"},{"bike_id":"e374f4d6-676c-4d62-af2d-1f0734c48172","system_id":"levelo_inurba_marseille","lat":43.29492,"lon":5.43301,"is_reserved":false,"is_disabled":false,"rental_uris":{"android":"levelo://app?vid=e374f4d6-676c-4d62-af2d-1f0734c48172","ios":"levelo://app?vid=e374f4d6-676c-4d62-af2d-1f0734c48172"},"vehicle_type_id":"4","last_reported":1762625598,"current_range_meters":16800,"station_id":"st_d3j5ugp08ojc73fj9d10","pricing_plan_id":"cebpf4jnsgd1na2vs0mg"},{"bike_id":"c6d5d8d4-4173-4646-a45b-e93034e39692","system_id":"levelo_inurba_marseille","lat":43.23145,"lon":5.437281,"is_reserved":false,"is_disabled":false,"rental_uris":{"android":"levelo://app?vid=c6d5d8d4-4173-4646-a45b-e93034e39692","ios":"levelo://app?vid=c6d5d8d4-4173-4646-a45b-e93034e39692"},