{"last_updated":1738850945,"ttl":60,"version":"2.2","data":{"bikes":[{"bike_id":"7d0de4e4-e772-4199-bdb0-6f113b1b2206","system_id":"levelo_inurba_marseille","lat":43.29618,"lon":5.37171,"is_reserved":false,"is_disabled":false,"rental_uris":{"android":"levelo://app?vid=7d0de4e4-e772-4199-bdb0-6f113b1b2206","ios":"levelo://app?vid=7d0de4e4-e772-4199-bdb0-6f113b1b2206"},"vehicle_type_id":"4","last_reported":1738850945,"current_range_meters":39200,"station_id":"ce4bgnh2rcd13ifvqc0g","pricing_plan_id":"cebpf4jnsgd1na2vs0mg"},{"bike_id":"2bf34278-f460-42dc-8a11-59fa5e6ee83b","system_id":"levelo_inurba_marseille","lat":43.25821,"lon":5.39426,"is_reserved":false,"is_disabled":false,"rental_uris":{"android":"levelo://app?vid=2bf34278-f460-42dc-8a11-59fa5e6ee83b","ios":"levelo://app?vid=2bf34278-f460-42dc-8a11-59fa5e6ee83b"},"vehicle_type_id":"4","last_reported":1738850945,"current_range_meters":31200,"station_id":"ce4bhip2rcd13ifvqft0","pricing_plan_id":"cebpf4jnsgd1na2vs0mg"},{"bike_id":"c5e11754-be0e-48c7-aaa5-5ca5e3b9740c","system_id":"levelo_inurba_marseille","lat":43.29722,"lon":5.37693,"is_reserved":false,"is_disabled":false,"rental_uris":{"android":"levelo://app?vid=c5e11754-be0e-48c7-aaa5-5ca5e3b9740c","ios":"levelo://app?vid=c5e11754-be0e-48c7-aaa5-5ca5e3b9740c"},"vehicle_type_id":"4","last_reported":1738850945,"current_range_meters":30800,"station_id":"ce4bgkh2rcd13ifvqbl0","pricing_plan_id":"cebpf4jnsgd1na2vs0mg"},{"bike_id":"9d87042d-4a3f-4ffa-8141-437191864cfa","system_id":"levelo_inurba_marseille","lat":43.29381,"lon":5.3783,"is_reserved":false,"is_disabled":false,"rental_uris":{"android":"levelo://app?vid=9d87042d-4a3f-4ffa-8141-437191864cfa","ios":"levelo://app?vid=9d87042d-4a3f-4ffa-8141-437191864cfa"},"vehicle_type_id":"4","last_reported":1738850945,"current_range_meters":38000,"station_id":"ce4bgjh2rcd13ifvqbf0","pricing_plan_id":"cebpf4jnsgd1na2vs0mg"},{"bike_id":"1b0e96a9-b7da-461c-8246-af43c39640ed","system_id":"levelo_inurba_marseille","lat":43.24653,"lon":5.389,"is_reserved":false,"is_disabled":false,"rental_uris":{"android":"levelo://app?vid=1b0e96a9-b7da-461c-8246-af43c39640ed","ios":"levelo://app?vid=1b0e96a9-b7da-461c-8246-af43c39640ed"},"vehicle_type_id":"4","last_reported":1738850945,"current_range_meters":38800,"station_id":"ce4bhg12rcd13ifvqf60","pricing_plan_id":"cebpf4jnsgd1na2vs0mg"},{"bike_id":"439a80f2-376f-494c-a787-68e5bd0fd5f4","system_id":"levelo_inurba_marseille","lat":43.29625,"lon":5.37158,"is_reserved":false,"is_disabled":false,"rental_uris":{"android":"levelo://app?vid=439a80f2-376f-494c-a787-68e5bd0fd5f4","ios":"levelo://app?vid=439a80f2-376f-494c-a787-68e5bd0fd5f4"},"vehicle_type_id":"4","last_reported":1738850945,"current_range_meters":39200,"station_id":"ce4bgnh2rcd13ifvqc0g","pricing_plan_id":"cebpf4jnsgd1na2vs0mg"},{"bike_id":"6f1b8212-3f5a-4978-864e-5e174cc6fd25","system_id":"levelo_inurba_marseille","lat":43.29554,"lon":5.42283,"is_reserved":false,"is_disabled":false,"rental_uris":{"android":"levelo://app?vid=6f1b8212-3f5a-4978-864e-5e174cc6fd25","ios":"levelo://app?vid=6f1b8212-3f5a-4978-864e-5e174cc6fd25"},"vehicle_type_id":"4","last_reported":1738850945,"current_range_meters":39200,"station_id":"ce4bhph2rcd13ifvqhdg","pricing_plan_id":"cebpf4jnsgd1na2vs0mg"},{"bike_id":"9ca7ff96-ee45-4e69-8625-df2bd12606a3","system_id":"levelo_inurba_marseille","lat":43.28632,"lon":5.39138,"is_reserved":false,"is_disabled":false,"rental_uris":{"android":"levelo://app?vid=9ca7ff96-ee45-4e69-8625-df2bd12606a3","ios":"levelo://app?vid=9ca7ff96-ee45-4e69-8625-df2bd12606a3"},"vehicle_type_id":"4","last_reported":1738850945,"current_range_meters":19200,"station_id":"","pricing_plan_id":"cebpf4jnsgd1na2vs0mg"},{"bike_id":"bbc8ffb3-efff-4595-8b90-b44926d1115e","system_id":"levelo_inurba_marseille","lat":43.28285,"lon":5.35087,"is_reserved":false,"is_disabled":false,"rental_uris":{"android":"levelo://app?vid=bbc8ffb3-efff-4595-8b90-b44926d1115e","ios":"levelo://app?vid=bbc8ffb3-efff-4595-8b90-b44926d1115e"},"vehicle_type_id":"4","last_reported":1738850945,"current_range_meters":10800,"station_id":"ce4bhbp2rcd13ifvqerg","pricing_plan_id":"cebpf4jnsgd1na2vs0mg"},{"bike_id":"e0b2e6e3-cf3f-43ff-a27b-9a7676c8271e","system_id":"levelo_inurba_marseille","lat":43.23187,"lon":5.39978,"is_reserved":false,"is_disabled":false,"rental_uris":{"android":"levelo://app?vid=e0b2e6e3-cf3f-43ff-a27b-9a7676c8271e","ios":"levelo://app?vid=e0b2e6e3-cf3f-43ff-a27b-9a7676c8271e"},"vehicle_type_id":"4","last_reported":1738850945,"current_range_meters":16800,"station_id":"ce4bhn12rcd13ifvqgqg","pricing_plan_id":"cebpf4jnsgd1na2vs0mg"},{"bike_id":"2d98ff86-3f94-4b31-9dce-0e174f27ffc5","system_id":"levelo_inurba_marseille","lat":43.25932,"lon":5.40885,"is_reserved":false,"is_disabled":false,"rental_uris":{"android":"levelo://app?vid=2d98ff86-3f94-4b31-9dce-0e174f27ffc5","ios":"levelo://app?vid=2d98ff86-3f94-4b31-9dce-0e174f27ffc5"},"vehicle_type_id":"4","last_reported":1738850945,"current_range_meters":22000,"station_id":"ce4bhm92rcd13ifvqglg","pricing_plan_id":"cebpf4jnsgd1na2vs0mg"},{"bike_id":"88cbe04e-dd45-4e70-9780-4d6b99bb0bc1","system_id":"levelo_inurba_marseille","lat":43.31325,"lon":5.39691,"is_reserved":false,"is_disabled":false,"rental_uris":{"android":"levelo://app?vid=88cbe04e-dd45-4e70-9780-4d6b99bb0bc1","ios":"levelo://app?vid=88cbe04e-dd45-4e70-9780-4d6b99bb0bc1"},"vehicle_type_id":"4","last_reported":1738850945,"current_range_meters":7200,"station_id":"ce4bgvp2rcd13ifvqcu0","pricing_plan_id":"cebpf4jnsgd1na2vs0mg"},{"bike_id":"e8fdae3c-db50-43cc-930c-ffff5c4e2bf9","system_id":"levelo_inurba_marseille","lat":43.28347,"lon":5.38106,"is_reserved":false,"is_disabled":false,"rental_uris":{"android":"levelo://app?vid=e8fdae3c-db50-43cc-930c-ffff5c4e2bf9","ios":"levelo://app?vid=e8fdae3c-db50-43cc-930c-ffff5c4e2bf9"},"vehicle_type_id":"4","last_reported":1738850945,"current_range_meters":38000,"station_id":"ce4bh412rcd13ifvqdr0","pricing_plan_id":"cebpf4jnsgd1na2vs0mg"},{"bike_id":"3459a023-cb2f-4ad6-ae80-3901e6f4e65a","system_id":"levelo_inurba_marseille","lat":43.24995,"lon":5.38945,"is_reserved":false,"is_disabled":false,"rental_uris":{"android":"levelo://app?vid=3459a023-cb2f-4ad6-ae80-3901e6f4e65a","ios":"levelo://app?vid=3459a023-cb2f-4ad6-ae80-3901e6f4e65a"},"vehicle_type_id":"4","last_reported":1738850945,"current_range_meters":36400,"station_id":"ce4bhgp2rcd13ifvqfd0","pricing_plan_id":"cebpf4jnsgd1na2vs0mg"},{"bike_id":"41c1cf47-37de-4159-b012-644d45dfb96d","system_id":"levelo_inurba_marseille","lat":43.25832,"lon":5.3943,"is_reserved":false,"is_disabled":false,"rental_uris":{"android":"levelo://app?vid=41c1cf47-37de-4159-b012-644d45dfb96d","ios":"levelo://app?vid=41c1cf47-37de-4159-b012-644d45dfb96d"},"vehicle_type_id":"4","last_reported":1738850945,"current_range_meters":10800,"station_id":"ce4bhip2rcd13ifvqft0","pricing_plan_id":"cebpf4jnsgd1na2vs0mg"},{"bike_id":"9a6c390a-9207-4796-b855-17826ae69ef5","system_id":"levelo_inurba_marseille","lat":43.32547,"lon":5.41438,"is_reserved":false,"is_disabled":false,"rental_uris":{"android":"levelo://app?vid=9a6c390a-9207-4796-b855-17826ae69ef5","ios":"levelo://app?vid=9a6c390a-9207-4796-b855-17826ae69ef5"},"vehicle_type_id":"4","last_reported":1738850945,"current_range_meters":33200,"station_id":"ce4bhq12rcd13ifvqhhg","pricing_plan_id":"cebpf4jnsgd1na2vs0mg"},{"bike_id":"5d524f49-c8d7-4c2c-b150-58b91b2ef2e6","system_id":"levelo_inurba_marseille","lat":43.30564,"lon":5.36699,"is_reserved":false,"is_disabled":false,"rental_uris":{"android":"levelo://app?vid=5d524f49-c8d7-4c2c-b150-58b91b2ef2e6","ios":"levelo://app?vid=5d524f49-c8d7-4c2c-b150-58b91b2ef2e6"},"vehicle_type_id":"4","last_reported":1738850945,"current_range_meters":30400,"station_id":"ce4bgrp2rcd13ifvqc9g","pricing_plan_id":"cebpf4jnsgd1na2vs0mg"},{"bike_id":"475f847f-2abd-407e-85c1-23b5103f485f","system_id":"levelo_inurba_marseille","lat":43.26212,"lon":5.3744,"is_reserved":false,"is_disabled":false,"rental_uris":{"android":"levelo://app?vid=475f847f-2abd-407e-85c1-23b5103f485f","ios":"levelo://app?vid=475f847f-2abd-407e-85c1-23b5103f485f"},"vehicle_type_id":"4","last_reported":1738850945,"current_range_meters":38800,"station_id":"ce4bhgp2rcd13ifvqfc0","pricing_plan_id":"cebpf4jnsgd1na2vs0mg"},{"bike_id":"aa874f21-4899-4c94-ac56-d6c355723cbb","system_id":"levelo_inurba_marseille","lat":43.232,"lon":5.39971,"is_reserved":false,"is_disabled":false,"rental_uris":{"android":"levelo://app?vid=aa874f21-4899-4c94-ac56-d6c355723cbb","ios":"levelo://app?vid=aa874f21-4899-4c94-ac56-d6c355723cbb"},"vehicle_type_id":"4","last_reported":1738850945,"current_range_meters":37600,"station_id":"ce4bhn12rcd13ifvqgqg","pricing_plan_id":"cebpf4jnsgd1na2vs0mg"},{"bike_id":"2ac1bdb1-f938-4c1a-84bc-8e310323a020","system_id":"levelo_inurba_marseille","lat":43.29573,"lon":5.37506,"is_reserved":false,"is_disabled":false,"rental_uris":{"android":"levelo://app?vid=2ac1bdb1-f938-4c1a-84bc-8e310323a020","ios":"levelo://app?vid=2ac1bdb1-f938-4c1a-84bc-8e310323a020"},"vehicle_type_id":"4","last_reported":1738850945,"current_range_meters":30000,"station_id":"ce4bgh92rcd13ifvqb50","pricing_plan_id":"cebpf4jnsgd1na2vs0mg"},{"bike_id":"284f419e-1ba3-4540-8f7e-0406975637e4","system_id":"levelo_inurba_marseille","lat":43.262,"lon":5.37923,"is_reserved":false,"is_disabled":false,"rental_uris":{"android":"levelo://app?vid=284f419e-1ba3-4540-8f7e-0406975637e4","ios":"levelo://app?vid=284f419e-1ba3-4540-8f7e-0406975637e4"},"vehicle_type_id":"4","last_reported":1738850945,"current_range_meters":24000,"station_id":"ce4bhjp2rcd13ifvqg90","pricing_plan_id":"cebpf4jnsgd1na2vs0mg"},{"bike_id":"a9758969-4570-4d51-a1d2-b7567a2dce99","system_id":"levelo_inurba_marseille","lat":43.29022,"lon":5.35924,"is_reserved":false,"is_disabled":false,"rental_uris":{"android":"levelo://app?vid=a9758969-4570-4d51-a1d2-b7567a2dce99","ios":"levelo://app?vid=a9758969-4570-4d51-a1d2-b7567a2dce99"},"vehicle_type_id":"4","last_reported":1738850945,"current_range_meters":38800,"station_id":"ce4bha92rcd13ifvqeg0","pricing_plan_id":"cebpf4jnsgd1na2vs0mg"},{"bike_id":"310a54f9-c573-49b1-aea3-3f6c28131365","system_id":"levelo_inurba_marseille","lat":43.28228,"lon":5.37005,"is_reserved":false,"is_disabled":false,"rental_uris":{"android":"levelo://app?vid=310a54f9-c573-49b1-aea3-3f6c28131365","ios":"levelo://app?vid=310a54f9-c573-49b1-aea3-3f6c28131365"},"vehicle_type_id":"4","last_reported":1738850945,"current_range_meters":28000,"station_id":"ce4bha12rcd13ifvqef0","pricing_plan_id":"cebpf4jnsgd1na2vs0mg"},{"bike_id":"5ff3835b-20bf-4967-af90-4e20dd2b4154","system_id":"levelo_inurba_marseille","lat":43.29574,"lon":5.3751,"is_reserved":false,"is_disabled":false,"rental_uris":{"android":"levelo://app?vid=5ff3835b-20bf-4967-af90-4e20dd2b4154","ios":"levelo://app?vid=5ff3835b-20bf-4967-af90-4e20dd2b4154"},"vehicle_type_id":"4","last_reported":1738850945,"current_range_meters":38800,"station_id":"ce4bgh92rcd13ifvqb50","pricing_plan_id":"cebpf4jnsgd1na2vs0mg"},{"bike_id":"d327d221-a4ae-4ce7-8941-3960805fc399","system_id":"levelo_inurba_marseille","lat":43.33763,"lon":5.37481,"is_reserved":false,"is_disabled":false,"rental_uris":{"android":"levelo://app?vid=d327d221-a4ae-4ce7-8941-3960805fc399","ios":"levelo://app?vid=d327d221-a4ae-4ce7-8941-3960805fc399"},"vehicle_type_id":"4","last_reported":1738850945,"current_range_meters":34000,"station_id":"","pricing_plan_id":"cebpf4jnsgd1na2vs0mg"},{"bike_id":"098d220b-e449-43ea-8d6d-9fc78e0abad9","system_id":"levelo_inurba_marseille","lat":43.22928,"lon":5.3538,"is_reserved":false,"is_disabled":false,"rental_uris":{"android":"levelo://app?vid=098d220b-e449-43ea-8d6d-9fc78e0abad9","ios":"levelo://app?vid=098d220b-e449-43ea-8d6d-9fc78e0abad9"},"vehicle_type_id":"4","last_reported":1738850945,"current_range_meters":38800,"station_id":"cpo3532slgdg3j2ikp40","pricing_plan_id":"cebpf4jnsgd1na2vs0mg"},{"bike_id":"1658a0ca-41ec-4f56-8ee5-d0dcdc0decda","system_id":"levelo_inurba_marseille","lat":43.29051,"lon":5.37566,"is_reserved":false,"is_disabled":false,"rental_uris":{"android":"levelo://app?vid=1658a0ca-41ec-4f56-8ee5-d0dcdc0decda","ios":"levelo://app?vid=1658a0ca-41ec-4f56-8ee5-d0dcdc0decda"},"vehicle_type_id":"4","last_reported":1738850945,"current_range_meters":38400,"station_id":"ce4bh692rcd13ifvqe90","pricing_plan_id":"cebpf4jnsgd1na2vs0mg"},{"bike_id":"beffe581-bcec-413e-9fd4-9b9b2c5158c7","system_id":"levelo_inurba_marseille","lat":43.28715,"lon":5.39997,"is_reserved":false,"is_disabled":false,"rental_uris":{"android":"levelo://app?vid=beffe581-bcec-413e-9fd4-9b9b2c5158c7","ios":"levelo://app?vid=beffe581-bcec-413e-9fd4-9b9b2c5158c7"},"vehicle_type_id":"4","last_reported":1738850945,"current_range_meters":3200,"station_id":"ce4bho92rcd13ifvqh3g","pricing_plan_id":"cebpf4jnsgd1na2vs0mg"},{"bike_id":"a9ce0883-0a5d-4bf2-b89a-6076fde57712","system_id":"levelo_inurba_marseille","lat":43.28727,"lon":5.37932,"is_reserved":false,"is_disabled":false,"rental_uris":{"android":"levelo://app?vid=a9ce0883-0a5d-4bf2-b89a-6076fde57712","ios":"levelo://app?vid=a9ce0883-0a5d-4bf2-b89a-6076fde57712"},"vehicle_type_id":"4","last_reported":1738850945,"current_range_meters":34000,"station_id":"ce4bh9p2rcd13ifvqec0","pricing_plan_id":"cebpf4jnsgd1na2vs0mg"},{"bike_id":"1e7c606f-a85a-43c4-b7a8-6ba6093c0445","system_id":"levelo_inurba_marseille","lat":43.29725,"lon":5.37692,"is_reserved":false,"is_disabled":false,"rental_uris":{"android":"levelo://app?vid=1e7c606f-a85a-43c4-b7a8-6ba6093c0445","ios":"levelo://app?vid=1e7c606f-a85a-43c4-b7a8-6ba6093c0445"},"vehicle_type_id":"4","last_reported":1738850945,"current_range_meters":25600,"station_id":"ce4bgkh2rcd13ifvqbl0","pricing_plan_id":"cebpf4jnsgd1na2vs0mg"},{"bike_id":"e8d66d40-3111-45eb-b1e1-1ba36d04e48c","system_id":"levelo_inurba_marseille","lat":43.26515,"lon":5.39542,"is_reserved":false,"is_disabled":false,"rental_uris":{"android":"levelo://app?vid=e8d66d40-3111-45eb-b1e1-1ba36d04e48c","ios":"levelo://app?vid=e8d66d40-3111-45eb-b1e1-1ba36d04e48c"},"vehicle_type_id":"4","last_reported":1738850945,"current_range_meters":22400,"station_id":"ce4bhi12rcd13ifvqfq0","pricing_plan_id":"cebpf4jnsgd1na2vs0mg"},{"bike_id":"3e6ea3aa-dce1-445a-a507-ccf71963fca0","system_id":"levelo_inurba_marseille","lat":43.30404,"lon":5.41284,"is_reserved":false,"is_disabled":false,"rental_uris":{"android":"levelo://app?vid=3e6ea3aa-dce1-445a-a507-ccf71963fca0","ios":"levelo://app?vid=3e6ea3aa-dce1-445a-a507-ccf71963fca0"},"vehicle_type_id":"4","last_reported":1738850945,"current_range_meters":38400,"station_id":"ce4bhop2rcd13ifvqh8g","pricing_plan_id":"cebpf4jnsgd1na2vs0mg"},{"bike_id":"012187ac-d00a-4f5f-b1cc-95f2049f531f","system_id":"levelo_inurba_marseille","lat":43.27901,"lon":5.38012,"is_reserved":false,"is_disabled":false,"rental_uris":{"android":"levelo://app?vid=012187ac-d00a-4f5f-b1cc-95f2049f531f","ios":"levelo://app?vid=012187ac-d00a-4f5f-b1cc-95f2049f531f"},"vehicle_type_id":"4","last_reported":1738850945,"current_range_meters":39200,"station_id":"ce4bhf92rcd13ifvqf50","pricing_plan_id":"cebpf4jnsgd1na2vs0mg"},{"bike_id":"3078e8ce-5d59-4082-8b1a-8d753b4f6935","system_id":"levelo_inurba_marseille","lat":43.23182,"lon":5.39983,"is_reserved":false,"is_disabled":false,"rental_uris":{"android":"levelo://app?vid=3078e8ce-5d59-4082-8b1a-8d753b4f6935","ios":"levelo://app?vid=3078e8ce-5d59-4082-8b1a-8d753b4f6935"},"vehicle_type_id":"4","last_reported":1738850945,"current_range_meters":39200,"station_id":"ce4bhn12rcd13ifvqgqg","pricing_plan_id":"cebpf4jnsgd1na2vs0mg"},{"bike_id":"b1e15155-8511-43e5-bd75-fed6364538ed","system_id":"levelo_inurba_marseille","lat":43.33001,"lon":5.39005,"is_reserved":false,"is_disabled":false,"rental_uris":{"android":"levelo://app?vid=b1e15155-8511-43e5-bd75-fed6364538ed","ios":"levelo://app?vid=b1e15155-8511-43e5-bd75-fed6364538ed"},"vehicle_type_id":"4","last_reported":1738850945,"current_range_meters":33200,"station_id":"ce4bhr92rcd13ifvqhrg","pricing_plan_id":"cebpf4jnsgd1na2vs0mg"},{"bike_id":"5b8bf03d-3fd9-4de9-97b2-1813cc6e1a2b","system_id":"levelo_inurba_marseille","lat":43.29025,"lon":5.38123,"is_reserved":false,"is_disabled":false,"rental_uris":{"android":"levelo://app?vid=5b8bf03d-3fd9-4de9-97b2-1813cc6e1a2b","ios":"levelo://app?vid=5b8bf03d-3fd9-4de9-97b2-1813cc6e1a2b"},"vehicle_type_id":"4","last_reported":1738850945,"current_range_meters":29600,"station_id":"ce4bh4p2rcd13ifvqe1g","pricing_plan_id":"cebpf4jnsgd1na2vs0mg"},{"bike_id":"87aa2e2a-001b-430d-b47a-00d6fb91bdcd","system_id":"levelo_inurba_marseille","lat":43.26043,"lon":5.3939,"is_reserved":false,"is_disabled":false,"rental_uris":{"android":"levelo://app?vid=87aa2e2a-001b-430d-b47a-00d6fb91bdcd","ios":"levelo://app?vid=87aa2e2a-001b-430d-b47a-00d6fb91bdcd"},"vehicle_type_id":"4","last_reported":1738850945,"current_range_meters":20800,"station_id":"ce4bhh92rcd13ifvqfj0","pricing_plan_id":"cebpf4jnsgd1na2vs0mg"},{"bike_id":"3b1cfccc-5575-4db0-a000-726c5783b366","system_id":"levelo_inurba_marseille","lat":43.2937,"lon":5.37854,"is_reserved":false,"is_disabled":false,"rental_uris":{"android":"levelo://app?vid=3b1cfccc-5575-4db0-a000-726c5783b366","ios":"levelo://app?vid=3b1cfccc-5575-4db0-a000-726c5783b366"},"vehicle_type_id":"4","last_reported":1738850945,"current_range_meters":5600,"station_id":"ce4bgjh2rcd13ifvqbf0","pricing_plan_id":"cebpf4jnsgd1na2vs0mg"},{"bike_id":"34c894d6-f9e6-4841-b8d1-d5e681d7b632","system_id":"levelo_inurba_marseille","lat":43.27373,"lon":5.36266,"is_reserved":false,"is_disabled":false,"rental_uris":{"android":"levelo://app?vid=34c894d6-f9e6-4841-b8d1-d5e681d7b632","ios":"levelo://app?vid=34c894d6-f9e6-4841-b8d1-d5e681d7b632"},"vehicle_type_id":"4","last_reported":1738850945,"current_range_meters":32400,"station_id":"ce4bhbh2rcd13ifvqeo0","pricing_plan_id":"cebpf4jnsgd1na2vs0mg"},{"bike_id":"c863de71-4082-43cc-b66c-2780673c2032","system_id":"levelo_inurba_marseille","lat":43.27489,"lon":5.42444,"is_reserved":false,"is_disabled":false,"rental_uris":{"android":"levelo://app?vid=c863de71-4082-43cc-b66c-2780673c2032","ios":"levelo://app?vid=c863de71-4082-43cc-b66c-2780673c2032"},"vehicle_type_id":"4","last_reported":1738850945,"current_range_meters":23200,"station_id":"ce4bhn92rcd13ifvqgrg","pricing_plan_id":"cebpf4jnsgd1na2vs0mg"},{"bike_id":"2b157902-4668-4cea-bc61-7408f735457b","system_id":"levelo_inurba_marseille","lat":43.33018,"lon":5.39028,"is_reserved":false,"is_disabled":false,"rental_uris":{"android":"levelo://app?vid=2b157902-4668-4cea-bc61-7408f735457b","ios":"levelo://app?vid=2b157902-4668-4cea-bc61-7408f735457b"},"vehicle_type_id":"4","last_reported":1738850945,"current_range_meters":27600,"station_id":"ce4bhr92rcd13ifvqhrg","pricing_plan_id":"cebpf4jnsgd1na2vs0mg"},{"bike_id":"cf0d4e4f-e711-4a18-a87b-dd8c28ebea21","system_id":"levelo_inurba_marseille","lat":43.30883,"lon":5.39629,"is_reserved":false,"is_disabled":false,"rental_uris":{"android":"levelo://app?vid=cf0d4e4f-e711-4a18-a87b-dd8c28ebea21","ios":"levelo://app?vid=cf0d4e4f-e711-4a18-a87b-dd8c28ebea21"},"vehicle_type_id":"4","last_reported":1738850945,"current_range_meters":29600,"station_id":"ce4bh012rcd13ifvqcv0","pricing_plan_id":"cebpf4jnsgd1na2vs0mg"},{"bike_id":"5c57bbac-bf63-47c0-8ef7-e92217416071","system_id":"levelo_inurba_marseille","lat":43.26489,"lon":5.39547,"is_reserved":false,"is_disabled":true,"rental_uris":{"android":"levelo://app?vid=5c57bbac-bf63-47c0-8ef7-e92217416071","ios":"levelo://app?vid=5c57bbac-bf63-47c0-8ef7-e92217416071"},"vehicle_type_id":"4","last_reported":1738850945,"current_range_meters":1200,"station_id":"ce4bhi12rcd13ifvqfq0","pricing_plan_id":"cebpf4jnsgd1na2vs0mg"},{"bike_id":"700efa15-5962-4bad-be09-cf93ebb13daf","system_id":"levelo_inurba_marseille","lat":43.27172,"lon":5.41,"is_reserved":false,"is_disabled":false,"rental_uris":{"android":"levelo://app?vid=700efa15-5962-4bad-be09-cf93ebb13daf","ios":"levelo://app?vid=700efa15-5962-4bad-be09-cf93ebb13daf"},"vehicle_type_id":"4","last_reported":1738850945,"current_range_meters":22800,"station_id":"ce4bhl12rcd13ifvqgf0","pricing_plan_id":"cebpf4jnsgd1na2vs0mg"},{"bike_id":"c846ee02-6397-4649-b580-107642a6667c","system_id":"levelo_inurba_marseille","lat":43.29211,"lon":5.36075,"is_reserved":false,"is_disabled":false,"rental_uris":{"android":"levelo://app?vid=c846ee02-6397-4649-b580-107642a6667c","ios":"levelo://app?vid=c846ee02-6397-4649-b580-107642a6667c"},"vehicle_type_id":"4","last_reported":1738850945,"current_range_meters":30000,"station_id":"ce4bhbh2rcd13ifvqeqg","pricing_plan_id":"cebpf4jnsgd1na2vs0mg"},{"bike_id":"b9c8a348-b6b0-4425-9e04-303169504bf8","system_id":"levelo_inurba_marseille","lat":43.29026,"lon":5.38122,"is_reserved":false,"is_disabled":false,"rental_uris":{"android":"levelo://app?vid=b9c8a348-b6b0-4425-9e04-303169504bf8","ios":"levelo://app?vid=b9c8a348-b6b0-4425-9e04-303169504bf8"},"vehicle_type_id":"4","last_reported":1738850945,"current_range_meters":29600,"station_id":"ce4bh4p2rcd13ifvqe1g","pricing_plan_id":"cebpf4jnsgd1na2vs0mg"},{"bike_id":"5a5b80ba-8013-44c5-879f-2acc1f3bac10","system_id":"levelo_inurba_marseille","lat":43.2656,"lon":5.39011,"is_reserved":false,"is_disabled":false,"rental_uris":{"android":"levelo://app?vid=5a5b80ba-8013-44c5-879f-2acc1f3bac10","ios":"levelo://app?vid=5a5b80ba-8013-44c5-879f-2acc1f3bac10"},"vehicle_type_id":"4","last_reported":1738850945,"current_range_meters":38800,"station_id":"ce4bhe12rcd13ifvqf30","pricing_plan_id":"cebpf4jnsgd1na2vs0mg"},{"bike_id":"b73937ba-05e4-41c7-8959-6f24613e2797","system_id":"levelo_inurba_marseille","lat":43.22938,"lon":5.35378,"is_reserved":false,"is_disabled":false,"rental_uris":{"android":"levelo://app?vid=b73937ba-05e4-41c7-8959-6f24613e2797","ios":"levelo://app?vid=b73937ba-05e4-41c7-8959-6f24613e2797"},"vehicle_type_id":"4","last_reported":1738850945,"current_range_meters":38000,"station_id":"cpo3532slgdg3j2ikp40","pricing_plan_id":"cebpf4jnsgd1na2vs0mg"},{"bike_id":"80ca3de2-8e47-407e-9802-c25eebce431b","system_id":"levelo_inurba_marseille","lat":43.29813,"lon":5.38125,"is_reserved":false,"is_disabled":false,"rental_uris":{"android":"levelo://app?vid=80ca3de2-8e47-407e-9802-c25eebce431b","ios":"levelo://app?vid=80ca3de2-8e47-407e-9802-c25eebce431b"},"vehicle_type_id":"4","last_reported":1738850945,"current_range_meters":16000,"station_id":"ce4bgip2rcd13ifvqbb0","pricing_plan_id":"cebpf4jnsgd1na2vs0mg"},{"bike_id":"ab54e2d0-4c2c-486a-84c7-811ed9008ddc","system_id":"levelo_inurba_marseille","lat":43.27834,"lon":5.42533,"is_reserved":false,"is_disabled":false,"rental_uris":{"android":"levelo://app?vid=ab54e2d0-4c2c-486a-84c7-811ed9008ddc","ios":"levelo://app?vid=ab54e2d0-4c2c-486a-84c7-811ed9008ddc"},"vehicle_type_id":"4","last_reported":1738850945,"current_range_meters":4400,"station_id":"","pricing_plan_id":"cebpf4jnsgd1na2vs0mg"},{"bike_id":"73b0d961-80a8-458c-90ed-fc1557aa62a2","system_id":"levelo_inurba_marseille","lat":43.301666,"lon":5.380826,"is_reserved":false,"is_disabled":false,"rental_uris":{"android":"levelo://app?vid=73b0d961-80a8-458c-90ed-fc1557aa62a2","ios":"levelo://app?vid=73b0d961-80a8-458c-90ed-fc1557aa62a2"},"vehicle_type_id":"4","last_reported":1738850945,"current_range_meters":24800,"station_id":"ce4bgjp2rcd13ifvqbh0","pricing_plan_id":"cebpf4jnsgd1na2vs0mg"},{"bike_id":"10d931e5-652d-4dae-b595-5a46e59ed638","system_id":"levelo_inurba_marseille","lat":43.30295,"lon":5.377,"is_reserved":false,"is_disabled":false,"rental_uris":{"android":"levelo://app?vid=10d931e5-652d-4dae-b595-5a46e59ed638","ios":"levelo://app?vid=10d931e5-652d-4dae-b595-5a46e59ed638"},"vehicle_type_id":"4","last_reported":1738850945,"current_range_meters":39200,"station_id":"ce4bguh2rcd13ifvqcj0","pricing_plan_id":"cebpf4jnsgd1na2vs0mg"},{"bike_id":"92afbf6a-b8f8-4353-9054-8f4559b6b5e0","system_id":"levelo_inurba_marseille","lat":43.28089,"lon":5.37828,"is_reserved":false,"is_disabled":false,"rental_uris":{"android":"levelo://app?vid=92afbf6a-b8f8-4353-9054-8f4559b6b5e0","ios":"levelo://app?vid=92afbf6a-b8f8-4353-9054-8f4559b6b5e0"},"vehicle_type_id":"4","last_reported":1738850945,"current_range_meters":24400,"station_id":"ce4bha12rcd13ifvqee0","pricing_plan_id":"cebpf4jnsgd1na2vs0mg"},{"bike_id":"ca5b70b3-6a05-458d-8777-682b072a5081","system_id":"levelo_inurba_marseille","lat":43.30134,"lon":5.37428,"is_reserved":false,"is_disabled":false,"rental_uris":{"android":"levelo://app?vid=ca5b70b3-6a05-458d-8777-682b072a5081","ios":"levelo://app?vid=ca5b70b3-6a05-458d-8777-682b072a5081"},"vehicle_type_id":"4","last_reported":1738850945,"current_range_meters":38800,"station_id":"ce4bgs92rcd13ifvqcc0","pricing_plan_id":"cebpf4jnsgd1na2vs0mg"},{"bike_id":"8581e63f-f5e9-4d90-96c5-7b1ff1730026","system_id":"levelo_inurba_marseille","lat":43.27808,"lon":5.40721,"is_reserved":false,"is_disabled":false,"rental_uris":{"android":"levelo://app?vid=8581e63f-f5e9-4d90-96c5-7b1ff1730026","ios":"levelo://app?vid=8581e63f-f5e9-4d90-96c5-7b1ff1730026"},"vehicle_type_id":"4","last_reported":1738850945,"current_range_meters":37600,"station_id":"ce4bhnh2rcd13ifvqgtg","pricing_plan_id":"cebpf4jnsgd1na2vs0mg"},{"bike_id":"022562e5-327f-4a6d-ba40-c0a7bc9d605a","system_id":"levelo_inurba_marseille","lat":43.29017,"lon":5.38135,"is_reserved":false,"is_disabled":false,"rental_uris":{"android":"levelo://app?vid=022562e5-327f-4a6d-ba40-c0a7bc9d605a","ios":"levelo://app?vid=022562e5-327f-4a6d-ba40-c0a7bc9d605a"},"vehicle_type_id":"4","last_reported":1738850945,"current_range_meters":38000,"station_id":"ce4bh4p2rcd13ifvqe1g","pricing_plan_id":"cebpf4jnsgd1na2vs0mg"},{"bike_id":"e46524bc-4567-4533-a2ea-faabc89ed1cd","system_id":"levelo_inurba_marseille","lat":43.29916,"lon":5.37484,"is_reserved":false,"is_disabled":false,"rental_uris":{"android":"levelo://app?vid=e46524bc-4567-4533-a2ea-faabc89ed1cd","ios":"levelo://app?vid=e46524bc-4567-4533-a2ea-faabc89ed1cd"},"vehicle_type_id":"4","last_reported":1738850945,"current_range_meters":38800,"station_id":"ce4bgjh2rcd13ifvqbg0","pricing_plan_id":"cebpf4jnsgd1na2vs0mg"},{"bike_id":"9abb8541-f0e4-475d-8c17-01388cf984ad","system_id":"levelo_inurba_marseille","lat":43.27175,"lon":5.40985,"is_reserved":false,"is_disabled":false,"rental_uris":{"android":"levelo://app?vid=9abb8541-f0e4-475d-8c17-01388cf984ad","ios":"levelo://app?vid=9abb8541-f0e4-475d-8c17-01388cf984ad"},"vehicle_type_id":"4","last_reported":1738850945,"current_range_meters":38800,"station_id":"ce4bhl12rcd13ifvqgf0","pricing_plan_id":"cebpf4jnsgd1na2vs0mg"},{"bike_id":"3c0191ea-fe29-40e3-ba71-3b250be79011","system_id":"levelo_inurba_marseille","lat":43.2987,"lon":5.39731,"is_reserved":false,"is_disabled":false,"rental_uris":{"android":"levelo://app?vid=3c0191ea-fe29-40e3-ba71-3b250be79011","ios":"levelo://app?vid=3c0191ea-fe29-40e3-ba71-3b250be79011"},"vehicle_type_id":"4","last_reported":1738850945,"current_range_meters":38800,"station_id":"ce4bh0h2rcd13ifvqd50","pricing_plan_id":"cebpf4jnsgd1na2vs0mg"},{"bike_id":"10625e76-5b27-4ac7-8d45-f862f5214821","system_id":"levelo_inurba_marseille","lat":43.27566,"lon":5.3841,"is_reserved":false,"is_disabled":false,"rental_uris":{"android":"levelo://app?vid=10625e76-5b27-4ac7-8d45-f862f5214821","ios":"levelo://app?vid=10625e76-5b27-4ac7-8d45-f862f5214821"},"vehicle_type_id":"4","last_reported":1738850945,"current_range_meters":20400,"station_id":"ce4bhh92rcd13ifvqfi0","pricing_plan_id":"cebpf4jnsgd1na2vs0mg"},{"bike_id":"b99bf070-7a6a-4f57-a8f5-6e455750f2d6","system_id":"levelo_inurba_marseille","lat":43.31522,"lon":5.38035,"is_reserved":false,"is_disabled":true,"rental_uris":{"android":"levelo://app?vid=b99bf070-7a6a-4f57-a8f5-6e455750f2d6","ios":"levelo://app?vid=b99bf070-7a6a-4f57-a8f5-6e455750f2d6"},"vehicle_type_id":"4","last_reported":1738850945,"current_range_meters":1600,"station_id":"ce4bhsp2rcd13ifvqi50","pricing_plan_id":"cebpf4jnsgd1na2vs0mg"},{"bike_id":"8f1602fb-4182-4563-b5c3-30084be00e2f","system_id":"levelo_inurba_marseille","lat":43.24083,"lon":5.37749,"is_reserved":false,"is_disabled":false,"rental_uris":{"android":"levelo://app?vid=8f1602fb-4182-4563-b5c3-30084be00e2f","ios":"levelo://app?vid=8f1602fb-4182-4563-b5c3-30084be00e2f"},"vehicle_type_id":"4","last_reported":1738850945,"current_range_meters":20400,"station_id":"ce4bhnp2rcd13ifvqgvg","pricing_plan_id":"cebpf4jnsgd1na2vs0mg"},{"bike_id":"660c1b86-551f-4588-9fad-c4d7e5f4b339","system_id":"levelo_inurba_marseille","lat":43.30346,"lon":5.36906,"is_reserved":false,"is_disabled":true,"rental_uris":{"android":"levelo://app?vid=660c1b86-551f-4588-9fad-c4d7e5f4b339","ios":"levelo://app?vid=660c1b86-551f-4588-9fad-c4d7e5f4b339"},"vehicle_type_id":"4","last_reported":1738850945,"current_range_meters":400,"station_id":"ce4bgqh2rcd13ifvqc5g","pricing_plan_id":"cebpf4jnsgd1na2vs0mg"},{"bike_id":"fb556a3c-6c94-4b6c-bee1-d43c3e7702f9","system_id":"levelo_inurba_marseille","lat":43.23154,"lon":5.43718,"is_reserved":false,"is_disabled":false,"rental_uris":{"android":"levelo://app?vid=fb556a3c-6c94-4b6c-bee1-d43c3e7702f9","ios":"levelo://app?vid=fb556a3c-6c94-4b6c-bee1-d43c3e7702f9"},"vehicle_type_id":"4","last_reported":1738850945,"current_range_meters":17200,"station_id":"ce4bhmp2rcd13ifvqgog","pricing_plan_id":"cebpf4jnsgd1na2vs0mg"},{"bike_id":"843894af-db38-4eba-a28f-cf60813e71b9","system_id":"levelo_inurba_marseille","lat":43.28722,"lon":5.37957,"is_reserved":false,"is_disabled":false,"rental_uris":{"android":"levelo://app?vid=843894af-db38-4eba-a28f-cf60813e71b9","ios":"levelo://app?vid=843894af-db38-4eba-a28f-cf60813e71b9"},"vehicle_type_id":"4","last_reported":1738850945,"current_range_meters":38800,"station_id":"ce4bh9p2rcd13ifvqec0","pricing_plan_id":"cebpf4jnsgd1na2vs0mg"},{"bike_id":"761714b1-7bdd-416c-80e4-ad56aeb0b0ca","system_id":"levelo_inurba_marseille","lat":43.28845,"lon":5.3585,"is_reserved":false,"is_disabled":false,"rental_uris":{"android":"levelo://app?vid=761714b1-7bdd-416c-80e4-ad56aeb0b0ca","ios":"levelo://app?vid=761714b1-7bdd-416c-80e4-ad56aeb0b0ca"},"vehicle_type_id":"4","last_reported":1738850945,"current_range_meters":32400,"station_id":"ce4bhb12rcd13ifvqem0","pricing_plan_id":"cebpf4jnsgd1na2vs0mg"},{"bike_id":"86b0879b-2b11-4414-9515-650f3aea6411","system_id":"levelo_inurba_marseille","lat":43.28482,"lon":5.38557,"is_reserved":false,"is_disabled":false,"rental_uris":{"android":"levelo://app?vid=86b0879b-2b11-4414-9515-650f3aea6411","ios":"levelo://app?vid=86b0879b-2b11-4414-9515-650f3aea6411"},"vehicle_type_id":"4","last_reported":1738850945,"current_range_meters":17200,"station_id":"ce4bh8p2rcd13ifvqeb0","pricing_plan_id":"cebpf4jnsgd1na2vs0mg"},{"bike_id":"3ee1b2e6-6480-4758-bd02-e4f79b85f8a9","system_id":"levelo_inurba_marseille","lat":43.30285,"lon":5.3769,"is_reserved":false,"is_disabled":false,"rental_uris":{"android":"levelo://app?vid=3ee1b2e6-6480-4758-bd02-e4f79b85f8a9","ios":"levelo://app?vid=3ee1b2e6-6480-4758-bd02-e4f79b85f8a9"},"vehicle_type_id":"4","last_reported":1738850945,"current_range_meters":38800,"station_id":"ce4bguh2rcd13ifvqcj0","pricing_plan_id":"cebpf4jnsgd1na2vs0mg"},{"bike_id":"01329a34-6753-4d95-92fc-eca5d548f98c","system_id":"levelo_inurba_marseille","lat":43.30141,"lon":5.3741,"is_reserved":false,"is_disabled":false,"rental_uris":{"android":"levelo://app?vid=01329a34-6753-4d95-92fc-eca5d548f98c","ios":"levelo://app?vid=01329a34-6753-4d95-92fc-eca5d548f98c"},"vehicle_type_id":"4","last_reported":1738850945,"current_range_meters":28800,"station_id":"ce4bgs92rcd13ifvqcc0","pricing_plan_id":"cebpf4jnsgd1na2vs0mg"},{"bike_id":"97b7de74-fcb7-4b86-96f6-fb52a61c12ca","system_id":"levelo_inurba_marseille","lat":43.28279,"lon":5.35065,"is_reserved":false,"is_disabled":false,"rental_uris":{"android":"levelo://app?vid=97b7de74-fcb7-4b86-96f6-fb52a61c12ca","ios":"levelo://app?vid=97b7de74-fcb7-4b86-96f6-fb52a61c12ca"},"vehicle_type_id":"4","last_reported":1738850945,"current_range_meters":38800,"station_id":"ce4bhbp2rcd13ifvqerg","pricing_plan_id":"cebpf4jnsgd1na2vs0mg"},{"bike_id":"d1a6e898-d7d8-4a4b-a678-322876b3e1f0","system_id":"levelo_inurba_marseille","lat":43.29842,"lon":5.36267,"is_reserved":false,"is_disabled":false,"rental_uris":{"android":"levelo://app?vid=d1a6e898-d7d8-4a4b-a678-322876b3e1f0","ios":"levelo://app?vid=d1a6e898-d7d8-4a4b-a678-322876b3e1f0"},"vehicle_type_id":"4","last_reported":1738850945,"current_range_meters":29600,"station_id":"ce4bgpp2rcd13ifvqc3g","pricing_plan_id":"cebpf4jnsgd1na2vs0mg"},{"bike_id":"ccfe8317-c9c4-4522-a09a-3973d991a960","system_id":"levelo_inurba_marseille","lat":43.23151,"lon":5.43705,"is_reserved":false,"is_disabled":false,"rental_uris":{"android":"levelo://app?vid=ccfe8317-c9c4-4522-a09a-3973d991a960","ios":"levelo://app?vid=ccfe8317-c9c4-4522-a09a-3973d991a960"},"vehicle_type_id":"4","last_reported":1738850945,"current_range_meters":16800,"station_id":"ce4bhmp2rcd13ifvqgog","pricing_plan_id":"cebpf4jnsgd1na2vs0mg"},{"bike_id":"49418388-118d-4c4f-9841-631757747516","system_id":"levelo_inurba_marseille","lat":43.30469,"lon":5.379,"is_reserved":false,"is_disabled":false,"rental_uris":{"android":"levelo://app?vid=49418388-118d-4c4f-9841-631757747516","ios":"levelo://app?vid=49418388-118d-4c4f-9841-631757747516"},"vehicle_type_id":"4","last_reported":1738850945,"current_range_meters":38800,"station_id":"ce4bgup2rcd13ifvqcn0","pricing_plan_id":"cebpf4jnsgd1na2vs0mg"},{"bike_id":"9be3b565-b6f9-46b5-9221-0fd014269acb","system_id":"levelo_inurba_marseille","lat":43.2973,"lon":5.37683,"is_reserved":false,"is_disabled":false,"rental_uris":{"android":"levelo://app?vid=9be3b565-b6f9-46b5-9221-0fd014269acb","ios":"levelo://app?vid=9be3b565-b6f9-46b5-9221-0fd014269acb"},"vehicle_type_id":"4","last_reported":1738850945,"current_range_meters":34800,"station_id":"ce4bgkh2rcd13ifvqbl0","pricing_plan_id":"cebpf4jnsgd1na2vs0mg"},{"bike_id":"45a3615c-7e92-4583-8e5a-9c5eee90acb9","system_id":"levelo_inurba_marseille","lat":43.29192,"lon":5.35807,"is_reserved":false,"is_disabled":false,"rental_uris":{"android":"levelo://app?vid=45a3615c-7e92-4583-8e5a-9c5eee90acb9","ios":"levelo://app?vid=45a3615c-7e92-4583-8e5a-9c5eee90acb9"},"vehicle_type_id":"4","last_reported":1738850945,"current_range_meters":37600,"station_id":"ce4bhb12rcd13ifvqel0","pricing_plan_id":"cebpf4jnsgd1na2vs0mg"},{"bike_id":"fc2ced2e-cad0-4ed2-97a5-709bb1f8e6cb","system_id":"levelo_inurba_marseille","lat":43.3054,"lon":5.36708,"is_reserved":false,"is_disabled":false,"rental_uris":{"android":"levelo://app?vid=fc2ced2e-cad0-4ed2-97a5-709bb1f8e6cb","ios":"levelo://app?vid=fc2ced2e-cad0-4ed2-97a5-709bb1f8e6cb"},"vehicle_type_id":"4","last_reported":1738850945,"current_range_meters":30000,"station_id":"ce4bgrp2rcd13ifvqc9g","pricing_plan_id":"cebpf4jnsgd1na2vs0mg"},{"bike_id":"ccc0d99a-4f06-4847-88ea-bfbf26a9a708","system_id":"levelo_inurba_marseille","lat":43.27367,"lon":5.36262,"is_reserved":false,"is_disabled":false,"rental_uris":{"android":"levelo://app?vid=ccc0d99a-4f06-4847-88ea-bfbf26a9a708","ios":"levelo://app?vid=ccc0d99a-4f06-4847-88ea-bfbf26a9a708"},"vehicle_type_id":"4","last_reported":1738850945,"current_range_meters":38800,"station_id":"ce4bhbh2rcd13ifvqeo0","pricing_plan_id":"cebpf4jnsgd1na2vs0mg"},{"bike_id":"d90800d2-0b28-4666-b04d-68e5f6c3e9ab","system_id":"levelo_inurba_marseille","lat":43.23182,"lon":5.39991,"is_reserved":false,"is_disabled":true,"rental_uris":{"android":"levelo://app?vid=d90800d2-0b28-4666-b04d-68e5f6c3e9ab","ios":"levelo://app?vid=d90800d2-0b28-4666-b04d-68e5f6c3e9ab"},"vehicle_type_id":"4","last_reported":1738850945,"current_range_meters":0,"station_id":"ce4bhn12rcd13ifvqgqg","pricing_plan_id":"cebpf4jnsgd1na2vs0mg"},{"bike_id":"a6885359-4416-49e6-9a12-0a5f4b37e6bd","system_id":"levelo_inurba_marseille","lat":43.29811,"lon":5.40412,"is_reserved":false,"is_disabled":false,"rental_uris":{"android":"levelo://app?vid=a6885359-4416-49e6-9a12-0a5f4b37e6bd","ios":"levelo://app?vid=a6885359-4416-49e6-9a12-0a5f4b37e6bd"},"vehicle_type_id":"4","last_reported":1738850945,"current_range_meters":37600,"station_id":"ce4bh112rcd13ifvqd90","pricing_plan_id":"cebpf4jnsgd1na2vs0mg"},{"bike_id":"bf4e2eaf-780c-4039-986a-ec339e802cbb","system_id":"levelo_inurba_marseille","lat":43.31717,"lon":5.3896,"is_reserved":false,"is_disabled":false,"rental_uris":{"android":"levelo://app?vid=bf4e2eaf-780c-4039-986a-ec339e802cbb","ios":"levelo://app?vid=bf4e2eaf-780c-4039-986a-ec339e802cbb"},"vehicle_type_id":"4","last_reported":1738850945,"current_range_meters":38800,"station_id":"ce4bhqp2rcd13ifvqhng","pricing_plan_id":"cebpf4jnsgd1na2vs0mg"},{"bike_id":"3cc34fb9-a09a-423b-bfdf-e7ef7754879d","system_id":"levelo_inurba_marseille","lat":43.31364,"lon":5.36708,"is_reserved":false,"is_disabled":false,"rental_uris":{"android":"levelo://app?vid=3cc34fb9-a09a-423b-bfdf-e7ef7754879d","ios":"levelo://app?vid=3cc34fb9-a09a-423b-bfdf-e7ef7754879d"},"vehicle_type_id":"4","last_reported":1738850945,"current_range_meters":38800,"station_id":"ce4bgr92rcd13ifvqc6g","pricing_plan_id":"cebpf4jnsgd1na2vs0mg"},{"bike_id":"0472962c-19f6-43ca-9cac-b63261d5a5bb","system_id":"levelo_inurba_marseille","lat":43.30413,"lon":5.41289,"is_reserved":false,"is_disabled":false,"rental_uris":{"android":"levelo://app?vid=0472962c-19f6-43ca-9cac-b63261d5a5bb","ios":"levelo://app?vid=0472962c-19f6-43ca-9cac-b63261d5a5bb"},"vehicle_type_id":"4","last_reported":1738850945,"current_range_meters":38800,"station_id":"ce4bhop2rcd13ifvqh8g","pricing_plan_id":"cebpf4jnsgd1na2vs0mg"},{"bike_id":"5354080c-156c-4650-b9ef-8f142763101f","system_id":"levelo_inurba_marseille","lat":43.32104,"lon":5.3677,"is_reserved":false,"is_disabled":false,"rental_uris":{"android":"levelo://app?vid=5354080c-156c-4650-b9ef-8f142763101f","ios":"levelo://app?vid=5354080c-156c-4650-b9ef-8f142763101f"},"vehicle_type_id":"4","last_reported":1738850945,"current_range_meters":37600,"station_id":"ce4bhrh2rcd13ifvqhug","pricing_plan_id":"cebpf4jnsgd1na2vs0mg"},{"bike_id":"25584dfc-d5ff-4811-85c5-933f3dfbdae8","system_id":"levelo_inurba_marseille","lat":43.23959,"lon":5.36625,"is_reserved":false,"is_disabled":false,"rental_uris":{"android":"levelo://app?vid=25584dfc-d5ff-4811-85c5-933f3dfbdae8","ios":"levelo://app?vid=25584dfc-d5ff-4811-85c5-933f3dfbdae8"},"vehicle_type_id":"4","last_reported":1738850945,"current_range_meters":38000,"station_id":"ce4bhi12rcd13ifvqfp0","pricing_plan_id":"cebpf4jnsgd1na2vs0mg"},{"bike_id":"3b6fc1a1-1e64-4698-a113-588a2563418f","system_id":"levelo_inurba_marseille","lat":43.28221,"lon":5.37291,"is_reserved":false,"is_disabled":true,"rental_uris":{"android":"levelo://app?vid=3b6fc1a1-1e64-4698-a113-588a2563418f","ios":"levelo://app?vid=3b6fc1a1-1e64-4698-a113-588a2563418f"},"vehicle_type_id":"4","last_reported":1738850945,"current_range_meters":0,"station_id":"ce4bha12rcd13ifvqef0","pricing_plan_id":"cebpf4jnsgd1na2vs0mg"},{"bike_id":"5c7d1ee3-266a-4817-823b-4a400b5aaa92","system_id":"levelo_inurba_marseille","lat":43.26905,"lon":5.38639,"is_reserved":false,"is_disabled":false,"rental_uris":{"android":"levelo://app?vid=5c7d1ee3-266a-4817-823b-4a400b5aaa92","ios":"levelo://app?vid=5c7d1ee3-266a-4817-823b-4a400b5aaa92"},"vehicle_type_id":"4","last_reported":1738850945,"current_range_meters":38800,"station_id":"ce4bhh92rcd13ifvqfh0","pricing_plan_id":"cebpf4jnsgd1na2vs0mg"},{"bike_id":"3a54781f-aed9-4496-bc69-19d81230d809","system_id":"levelo_inurba_marseille","lat":43.30306,"lon":5.3922,"is_reserved":false,"is_disabled":false,"rental_uris":{"android":"levelo://app?vid=3a54781f-aed9-4496-bc69-19d81230d809","ios":"levelo://app?vid=3a54781f-aed9-4496-bc69-19d81230d809"},"vehicle_type_id":"4","last_reported":1738850945,"current_range_meters":38800,"station_id":"ce4bgkh2rcd13ifvqbk0","pricing_plan_id":"cebpf4jnsgd1na2vs0mg"},{"bike_id":"43aac63a-8c5d-40a2-9532-c948ab2ba3de","system_id":"levelo_inurba_marseille","lat":43.27995,"lon":5.40022,"is_reserved":false,"is_disabled":false,"rental_uris":{"android":"levelo://app?vid=43aac63a-8c5d-40a2-9532-c948ab2ba3de","ios":"levelo://app?vid=43aac63a-8c5d-40a2-9532-c948ab2ba3de"},"vehicle_type_id":"4","last_reported":1738850945,"current_range_meters":38800,"station_id":"ce4bho92rcd13ifvqh4g","pricing_plan_id":"cebpf4jnsgd1na2vs0mg"},{"bike_id":"c130fff7-2faf-4f2e-82f9-62c219cfeda5","system_id":"levelo_inurba_marseille","lat":43.28163,"lon":5.42663,"is_reserved":false,"is_disabled":false,"rental_uris":{"android":"levelo://app?vid=c130fff7-2faf-4f2e-82f9-62c219cfeda5","ios":"levelo://app?vid=c130fff7-2faf-4f2e-82f9-62c219cfeda5"},"vehicle_type_id":"4","last_reported":1738850945,"current_range_meters":28000,"station_id":"ce4bhnh2rcd13ifvqgug","pricing_plan_id":"cebpf4jnsgd1na2vs0mg"},{"bike_id":"317d72d2-2e51-46f0-8731-17b6093664ea","system_id":"levelo_inurba_marseille","lat":43.2419,"lon":5.39739,"is_reserved":false,"is_disabled":false,"rental_uris":{"android":"levelo://app?vid=317d72d2-2e51-46f0-8731-17b6093664ea","ios":"levelo://app?vid=317d72d2-2e51-46f0-8731-17b6093664ea"},"vehicle_type_id":"4","last_reported":1738850945,"current_range_meters":38400,"station_id":"ce4bhn12rcd13ifvqgpg","pricing_plan_id":"cebpf4jnsgd1na2vs0mg"},{"bike_id":"6c8e8c89-808c-4c88-9c6d-f2103eb9f8bc","system_id":"levelo_inurba_marseille","lat":43.29617,"lon":5.37156,"is_reserved":false,"is_disabled":false,"rental_uris":{"android":"levelo://app?vid=6c8e8c89-808c-4c88-9c6d-f2103eb9f8bc","ios":"levelo://app?vid=6c8e8c89-808c-4c88-9c6d-f2103eb9f8bc"},"vehicle_type_id":"4","last_reported":1738850945,"current_range_meters":24800,"station_id":"ce4bgnh2rcd13ifvqc0g","pricing_plan_id":"cebpf4jnsgd1na2vs0mg"},{"bike_id":"b5a6e4e8-9b55-40dc-9640-ff7d982e97a9","system_id":"levelo_inurba_marseille","lat":43.24174,"lon":5.39736,"is_reserved":false,"is_disabled":false,"rental_uris":{"android":"levelo://app?vid=b5a6e4e8-9b55-40dc-9640-ff7d982e97a9","ios":"levelo://app?vid=b5a6e4e8-9b55-40dc-9640-ff7d982e97a9"},"vehicle_type_id":"4","last_reported":1738850945,"current_range_meters":16400,"station_id":"ce4bhn12rcd13ifvqgpg","pricing_plan_id":"cebpf4jnsgd1na2vs0mg"},{"bike_id":"f1b301f1-53d9-48e9-b2e9-79e3987a8427","system_id":"levelo_inurba_marseille","lat":43.28269,"lon":5.35078,"is_reserved":false,"is_disabled":false,"rental_uris":{"android":"levelo://app?vid=f1b301f1-53d9-48e9-b2e9-79e3987a8427","ios":"levelo://app?vid=f1b301f1-53d9-48e9-b2e9-79e3987a8427"},"vehicle_type_id":"4","last_reported":1738850945,"current_range_meters":27600,"station_id":"ce4bhbp2rcd13ifvqerg","pricing_plan_id":"cebpf4jnsgd1na2vs0mg"},{"bike_id":"30ce6bdd-92e5-45aa-90b3-9b8c780e1af3","system_id":"levelo_inurba_marseille","lat":43.30311,"lon":5.36894,"is_reserved":false,"is_disabled":false,"rental_uris":{"android":"levelo://app?vid=30ce6bdd-92e5-45aa-90b3-9b8c780e1af3","ios":"levelo://app?vid=30ce6bdd-92e5-45aa-90b3-9b8c780e1af3"},"vehicle_type_id":"4","last_reported":1738850945,"current_range_meters":34000,"station_id":"ce4bgqh2rcd13ifvqc5g","pricing_plan_id":"cebpf4jnsgd1na2vs0mg"},{"bike_id":"1da8b17b-ad28-4780-a711-431647c244ed","system_id":"levelo_inurba_marseille","lat":43.23974,"lon":5.36617,"is_reserved":false,"is_disabled":false,"rental_uris":{"android":"levelo://app?vid=1da8b17b-ad28-4780-a711-431647c244ed","ios":"levelo://app?vid=1da8b17b-ad28-4780-a711-431647c244ed"},"vehicle_type_id":"4","last_reported":1738850945,"current_range_meters":32000,"station_id":"ce4bhi12rcd13ifvqfp0","pricing_plan_id":"cebpf4jnsgd1na2vs0mg"},{"bike_id":"171eb02f-aa7a-4325-9962-a5589a9569a0","system_id":"levelo_inurba_marseille","lat":43.27363,"lon":5.36254,"is_reserved":false,"is_disabled":false,"rental_uris":{"android":"levelo://app?vid=171eb02f-aa7a-4325-9962-a5589a9569a0","ios":"levelo://app?vid=171eb02f-aa7a-4325-9962-a5589a9569a0"},"vehicle_type_id":"4","last_reported":1738850945,"current_range_meters":27600,"station_id":"ce4bhbh2rcd13ifvqeo0","pricing_plan_id":"cebpf4jnsgd1na2vs0mg"},{"bike_id":"1c187044-f156-4dbb-83f4-3d328cf05e97","system_id":"levelo_inurba_marseille","lat":43.296794,"lon":5.372902,"is_reserved":false,"is_disabled":false,"rental_uris":{"android":"levelo://app?vid=1c187044-f156-4dbb-83f4-3d328cf05e97","ios":"levelo://app?vid=1c187044-f156-4dbb-83f4-3d328cf05e97"},"vehicle_type_id":"4","last_reported":1738850945,"current_range_meters":32800,"station_id":"ce4bgk12rcd13ifvqbj0","pricing_plan_id":"cebpf4jnsgd1na2vs0mg"},{"bike_id":"0599b78d-3473-4571-a7e0-85c933cb1c65","system_id":"levelo_inurba_marseille","lat":43.24077,"lon":5.37741,"is_reserved":false,"is_disabled":false,"rental_uris":{"android":"levelo://app?vid=0599b78d-3473-4571-a7e0-85c933cb1c65","ios":"levelo://app?vid=0599b78d-3473-4571-a7e0-85c933cb1c65"},"vehicle_type_id":"4","last_reported":1738850945,"current_range_meters":22000,"station_id":"ce4bhnp2rcd13ifvqgvg","pricing_plan_id":"cebpf4jnsgd1na2vs0mg"},{"bike_id":"be81c371-6f2b-405a-ac77-7a4aa90d032a","system_id":"levelo_inurba_marseille","lat":43.28413,"lon":5.34988,"is_reserved":false,"is_disabled":false,"rental_uris":{"android":"levelo://app?vid=be81c371-6f2b-405a-ac77-7a4aa90d032a","ios":"levelo://app?vid=be81c371-6f2b-405a-ac77-7a4aa90d032a"},"vehicle_type_id":"4","last_reported":1738850945,"current_range_meters":8400,"station_id":"ce4bhbh2rcd13ifvqepg","pricing_plan_id":"cebpf4jnsgd1na2vs0mg"},{"bike_id":"39c1e9e3-f1bf-4a83-bd06-62f23997ed13","system_id":"levelo_inurba_marseille","lat":43.25004,"lon":5.38931,"is_reserved":false,"is_disabled":false,"rental_uris":{"android":"levelo://app?vid=39c1e9e3-f1bf-4a83-bd06-62f23997ed13","ios":"levelo://app?vid=39c1e9e3-f1bf-4a83-bd06-62f23997ed13"},"vehicle_type_id":"4","last_reported":1738850945,"current_range_meters":18000,"station_id":"ce4bhgp2rcd13ifvqfd0","pricing_plan_id":"cebpf4jnsgd1na2vs0mg"},{"bike_id":"faeef2e8-035e-43cc-9052-3a364f0ca3a2","system_id":"levelo_inurba_marseille","lat":43.2695,"lon":5.38637,"is_reserved":false,"is_disabled":false,"rental_uris":{"android":"levelo://app?vid=faeef2e8-035e-43cc-9052-3a364f0ca3a2","ios":"levelo://app?vid=faeef2e8-035e-43cc-9052-3a364f0ca3a2"},"vehicle_type_id":"4","last_reported":1738850945,"current_range_meters":25200,"station_id":"ce4bhh92rcd13ifvqfh0","pricing_plan_id":"cebpf4jnsgd1na2vs0mg"},{"bike_id":"5b325077-969c-4d21-88e1-d74b079f50f0","system_id":"levelo_inurba_marseille","lat":43.28106,"lon":5.37826,"is_reserved":false,"is_disabled":false,"rental_uris":{"android":"levelo://app?vid=5b325077-969c-4d21-88e1-d74b079f50f0","ios":"levelo://app?vid=5b325077-969c-4d21-88e1-d74b079f50f0"},"vehicle_type_id":"4","last_reported":1738850945,"current_range_meters":28000,"station_id":"ce4bha12rcd13ifvqee0","pricing_plan_id":"cebpf4jnsgd1na2vs0mg"},{"bike_id":"02475cfb-0ab5-4dbe-a950-abba74b1c272","system_id":"levelo_inurba_marseille","lat":43.248,"lon":5.37464,"is_reserved":false,"is_disabled":true,"rental_uris":{"android":"levelo://app?vid=02475cfb-0ab5-4dbe-a950-abba74b1c272","ios":"levelo://app?vid=02475cfb-0ab5-4dbe-a950-abba74b1c272"},"vehicle_type_id":"4","last_reported":1738850945,"current_range_meters":0,"station_id":"ce4bhgh2rcd13ifvqfb0","pricing_plan_id":"cebpf4jnsgd1na2vs0mg"},{"bike_id":"bad8c055-a613-44b9-ab8f-69d3bf610408","system_id":"levelo_inurba_marseille","lat":43.28274,"lon":5.35078,"is_reserved":false,"is_disabled":false,"rental_uris":{"android":"levelo://app?vid=bad8c055-a613-44b9-ab8f-69d3bf610408","ios":"levelo://app?vid=bad8c055-a613-44b9-ab8f-69d3bf610408"},"vehicle_type_id":"4","last_reported":1738850945,"current_range_meters":34000,"station_id":"ce4bhbp2rcd13ifvqerg","pricing_plan_id":"cebpf4jnsgd1na2vs0mg"},{"bike_id":"50f17da0-0053-46eb-8437-f9449a8433c0","system_id":"levelo_inurba_marseille","lat":43.32047,"lon":5.41549,"is_reserved":false,"is_disabled":false,"rental_uris":{"android":"levelo://app?vid=50f17da0-0053-46eb-8437-f9449a8433c0","ios":"levelo://app?vid=50f17da0-0053-46eb-8437-f9449a8433c0"},"vehicle_type_id":"4","last_reported":1738850945,"current_range_meters":38400,"station_id":"ce4bhq92rcd13ifvqhkg","pricing_plan_id":"cebpf4jnsgd1na2vs0mg"},{"bike_id":"fae31edb-cea1-4908-82e8-e15919af259f","system_id":"levelo_inurba_marseille","lat":43.2979,"lon":5.39344,"is_reserved":false,"is_disabled":false,"rental_uris":{"android":"levelo://app?vid=fae31edb-cea1-4908-82e8-e15919af259f","ios":"levelo://app?vid=fae31edb-cea1-4908-82e8-e15919af259f"},"vehicle_type_id":"4","last_reported":1738850945,"current_range_meters":11600,"station_id":"chh1huq6cuj3fo74tm60","pricing_plan_id":"cebpf4jnsgd1na2vs0mg"},{"bike_id":"a9540ad5-3d7c-4a90-9cfc-b4e05b313910","system_id":"levelo_inurba_marseille","lat":43.31071,"lon":5.38351,"is_reserved":false,"is_disabled":false,"rental_uris":{"android":"levelo://app?vid=a9540ad5-3d7c-4a90-9cfc-b4e05b313910","ios":"levelo://app?vid=a9540ad5-3d7c-4a90-9cfc-b4e05b313910"},"vehicle_type_id":"4","last_reported":1738850945,"current_range_meters":36800,"station_id":"ce4bgv92rcd13ifvqcr0","pricing_plan_id":"cebpf4jnsgd1na2vs0mg"},{"bike_id":"47776104-e68d-4b1e-8337-df984b1c0c93","system_id":"levelo_inurba_marseille","lat":43.28273,"lon":5.35072,"is_reserved":false,"is_disabled":false,"rental_uris":{"android":"levelo://app?vid=47776104-e68d-4b1e-8337-df984b1c0c93","ios":"levelo://app?vid=47776104-e68d-4b1e-8337-df984b1c0c93"},"vehicle_type_id":"4","last_reported":1738850945,"current_range_meters":20000,"station_id":"ce4bhbp2rcd13ifvqerg","pricing_plan_id":"cebpf4jnsgd1na2vs0mg"},{"bike_id":"6a360922-a087-4e68-ae1a-1287d5689b99","system_id":"levelo_inurba_marseille","lat":43.30589,"lon":5.37189,"is_reserved":false,"is_disabled":false,"rental_uris":{"android":"levelo://app?vid=6a360922-a087-4e68-ae1a-1287d5689b99","ios":"levelo://app?vid=6a360922-a087-4e68-ae1a-1287d5689b99"},"vehicle_type_id":"4","last_reported":1738850945,"current_range_meters":38000,"station_id":"ce4bgqh2rcd13ifvqc4g","pricing_plan_id":"cebpf4jnsgd1na2vs0mg"},{"bike_id":"0aaf783e-849c-4771-995b-ad56d96f9cf1","system_id":"levelo_inurba_marseille","lat":43.28026,"lon":5.36953,"is_reserved":false,"is_disabled":false,"rental_uris":{"android":"levelo://app?vid=0aaf783e-849c-4771-995b-ad56d96f9cf1","ios":"levelo://app?vid=0aaf783e-849c-4771-995b-ad56d96f9cf1"},"vehicle_type_id":"4","last_reported":1738850945,"current_range_meters":38000,"station_id":"ce4bha12rcd13ifvqef0","pricing_plan_id":"cebpf4jnsgd1na2vs0mg"},{"bike_id":"3d4f00b6-3410-4cf9-bec7-cfa85716e97e","system_id":"levelo_inurba_marseille","lat":43.25707,"lon":5.41132,"is_reserved":false,"is_disabled":false,"rental_uris":{"android":"levelo://app?vid=3d4f00b6-3410-4cf9-bec7-cfa85716e97e","ios":"levelo://app?vid=3d4f00b6-3410-4cf9-bec7-cfa85716e97e"},"vehicle_type_id":"4","last_reported":1738850945,"current_range_meters":38800,"station_id":"ce4bhkp2rcd13ifvqgd0","pricing_plan_id":"cebpf4jnsgd1na2vs0mg"},{"bike_id":"6068af08-8983-4255-8380-a1917fd17497","system_id":"levelo_inurba_marseille","lat":43.28422,"lon":5.34984,"is_reserved":false,"is_disabled":false,"rental_uris":{"android":"levelo://app?vid=6068af08-8983-4255-8380-a1917fd17497","ios":"levelo://app?vid=6068af08-8983-4255-8380-a1917fd17497"},"vehicle_type_id":"4","last_reported":1738850945,"current_range_meters":31200,"station_id":"ce4bhbh2rcd13ifvqepg","pricing_plan_id":"cebpf4jnsgd1na2vs0mg"},{"bike_id":"1e64c20b-4c2f-4196-850e-d991a4590467","system_id":"levelo_inurba_marseille","lat":43.24186,"lon":5.39744,"is_reserved":false,"is_disabled":false,"rental_uris":{"android":"levelo://app?vid=1e64c20b-4c2f-4196-850e-d991a4590467","ios":"levelo://app?vid=1e64c20b-4c2f-4196-850e-d991a4590467"},"vehicle_type_id":"4","last_reported":1738850945,"current_range_meters":19200,"station_id":"ce4bhn12rcd13ifvqgpg","pricing_plan_id":"cebpf4jnsgd1na2vs0mg"},{"bike_id":"b3620931-68ba-4704-9525-ea7aaf2c84eb","system_id":"levelo_inurba_marseille","lat":43.29353,"lon":5.37823,"is_reserved":false,"is_disabled":false,"rental_uris":{"android":"levelo://app?vid=b3620931-68ba-4704-9525-ea7aaf2c84eb","ios":"levelo://app?vid=b3620931-68ba-4704-9525-ea7aaf2c84eb"},"vehicle_type_id":"4","last_reported":1738850945,"current_range_meters":8400,"station_id":"ce4bgjh2rcd13ifvqbf0","pricing_plan_id":"cebpf4jnsgd1na2vs0mg"},{"bike_id":"d3b6aa38-245d-490f-9423-71d024f7e46f","system_id":"levelo_inurba_marseille","lat":43.25111,"lon":5.40336,"is_reserved":false,"is_disabled":false,"rental_uris":{"android":"levelo://app?vid=d3b6aa38-245d-490f-9423-71d024f7e46f","ios":"levelo://app?vid=d3b6aa38-245d-490f-9423-71d024f7e46f"},"vehicle_type_id":"4","last_reported":1738850945,"current_range_meters":21600,"station_id":"ce4bhlh2rcd13ifvqgig","pricing_plan_id":"cebpf4jnsgd1na2vs0mg"},{"bike_id":"38644321-9860-4181-8480-f5af658b5328","system_id":"levelo_inurba_marseille","lat":43.29879,"lon":5.3973,"is_reserved":false,"is_disabled":false,"rental_uris":{"android":"levelo://app?vid=38644321-9860-4181-8480-f5af658b5328","ios":"levelo://app?vid=38644321-9860-4181-8480-f5af658b5328"},"vehicle_type_id":"4","last_reported":1738850945,"current_range_meters":27200,"station_id":"ce4bh0h2rcd13ifvqd50","pricing_plan_id":"cebpf4jnsgd1na2vs0mg"},{"bike_id":"d24de62b-f43d-4ee9-8636-eae3f9e1d596","system_id":"levelo_inurba_marseille","lat":43.27184,"lon":5.40988,"is_reserved":false,"is_disabled":false,"rental_uris":{"android":"levelo://app?vid=d24de62b-f43d-4ee9-8636-eae3f9e1d596","ios":"levelo://app?vid=d24de62b-f43d-4ee9-8636-eae3f9e1d596"},"vehicle_type_id":"4","last_reported":1738850945,"current_range_meters":36800,"station_id":"ce4bhl12rcd13ifvqgf0","pricing_plan_id":"cebpf4jnsgd1na2vs0mg"},{"bike_id":"b4400f86-e521-4bde-9c95-41cc028a944d","system_id":"levelo_inurba_marseille","lat":43.29381,"lon":5.37837,"is_reserved":false,"is_disabled":false,"rental_uris":{"android":"levelo://app?vid=b4400f86-e521-4bde-9c95-41cc028a944d","ios":"levelo://app?vid=b4400f86-e521-4bde-9c95-41cc028a944d"},"vehicle_type_id":"4","last_reported":1738850945,"current_range_meters":38800,"station_id":"ce4bgjh2rcd13ifvqbf0","pricing_plan_id":"cebpf4jnsgd1na2vs0mg"},{"bike_id":"6bbf5b4c-b39f-40dd-a05f-52ba32943af4","system_id":"levelo_inurba_marseille","lat":43.27496,"lon":5.42439,"is_reserved":false,"is_disabled":false,"rental_uris":{"android":"levelo://app?vid=6bbf5b4c-b39f-40dd-a05f-52ba32943af4","ios":"levelo://app?vid=6bbf5b4c-b39f-40dd-a05f-52ba32943af4"},"vehicle_type_id":"4","last_reported":1738850945,"current_range_meters":21600,"station_id":"ce4bhn92rcd13ifvqgrg","pricing_plan_id":"cebpf4jnsgd1na2vs0mg"},{"bike_id":"35d58b3f-3516-448d-a377-957ad2585687","system_id":"levelo_inurba_marseille","lat":43.2972,"lon":5.37691,"is_reserved":false,"is_disabled":false,"rental_uris":{"android":"levelo://app?vid=35d58b3f-3516-448d-a377-957ad2585687","ios":"levelo://app?vid=35d58b3f-3516-448d-a377-957ad2585687"},"vehicle_type_id":"4","last_reported":1738850945,"current_range_meters":38800,"station_id":"ce4bgkh2rcd13ifvqbl0","pricing_plan_id":"cebpf4jnsgd1na2vs0mg"},{"bike_id":"33aa4f66-c44e-435c-99d5-1fa32069242d","system_id":"levelo_inurba_marseille","lat":43.26022,"lon":5.37531,"is_reserved":false,"is_disabled":false,"rental_uris":{"android":"levelo://app?vid=33aa4f66-c44e-435c-99d5-1fa32069242d","ios":"levelo://app?vid=33aa4f66-c44e-435c-99d5-1fa32069242d"},"vehicle_type_id":"4","last_reported":1738850945,"current_range_meters":4000,"station_id":"ce4bhgh2rcd13ifvqfa0","pricing_plan_id":"cebpf4jnsgd1na2vs0mg"},{"bike_id":"65352c4c-1c7a-4184-af38-68d6891c7b86","system_id":"levelo_inurba_marseille","lat":43.24074,"lon":5.37754,"is_reserved":false,"is_disabled":false,"rental_uris":{"android":"levelo://app?vid=65352c4c-1c7a-4184-af38-68d6891c7b86","ios":"levelo://app?vid=65352c4c-1c7a-4184-af38-68d6891c7b86"},"vehicle_type_id":"4","last_reported":1738850945,"current_range_meters":28000,"station_id":"ce4bhnp2rcd13ifvqgvg","pricing_plan_id":"cebpf4jnsgd1na2vs0mg"},{"bike_id":"6c8da517-3f53-4dca-8613-d56443d9822a","system_id":"levelo_inurba_marseille","lat":43.28148,"lon":5.42639,"is_reserved":false,"is_disabled":false,"rental_uris":{"android":"levelo://app?vid=6c8da517-3f53-4dca-8613-d56443d9822a","ios":"levelo://app?vid=6c8da517-3f53-4dca-8613-d56443d9822a"},"vehicle_type_id":"4","last_reported":1738850945,"current_range_meters":22800,"station_id":"ce4bhnh2rcd13ifvqgug","pricing_plan_id":"cebpf4jnsgd1na2vs0mg"},{"bike_id":"7347129d-262f-45c7-a3ac-0db3a214efac","system_id":"levelo_inurba_marseille","lat":43.296359,"lon":5.405983,"is_reserved":false,"is_disabled":false,"rental_uris":{"android":"levelo://app?vid=7347129d-262f-45c7-a3ac-0db3a214efac","ios":"levelo://app?vid=7347129d-262f-45c7-a3ac-0db3a214efac"},"vehicle_type_id":"4","last_reported":1738850945,"current_range_meters":24800,"station_id":"","pricing_plan_id":"cebpf4jnsgd1na2vs0mg"},{"bike_id":"bcbbcd78-4c9b-4de6-9f9a-6e6542d6170b","system_id":"levelo_inurba_marseille","lat":43.287,"lon":5.3999,"is_reserved":false,"is_disabled":false,"rental_uris":{"android":"levelo://app?vid=bcbbcd78-4c9b-4de6-9f9a-6e6542d6170b","ios":"levelo://app?vid=bcbbcd78-4c9b-4de6-9f9a-6e6542d6170b"},"vehicle_type_id":"4","last_reported":1738850945,"current_range_meters":34000,"station_id":"ce4bho92rcd13ifvqh3g","pricing_plan_id":"cebpf4jnsgd1na2vs0mg"},{"bike_id":"9cbb75a4-21af-455e-8b0f-3fbbc5d09fef","system_id":"levelo_inurba_marseille","lat":43.29623,"lon":5.3717,"is_reserved":false,"is_disabled":false,"rental_uris":{"android":"levelo://app?vid=9cbb75a4-21af-455e-8b0f-3fbbc5d09fef","ios":"levelo://app?vid=9cbb75a4-21af-455e-8b0f-3fbbc5d09fef"},"vehicle_type_id":"4","last_reported":1738850945,"current_range_meters":18800,"station_id":"ce4bgnh2rcd13ifvqc0g","pricing_plan_id":"cebpf4jnsgd1na2vs0mg"},{"bike_id":"5efcab68-1ef7-4ad3-9716-46b0e843d9e4","system_id":"levelo_inurba_marseille","lat":43.26682,"lon":5.38261,"is_reserved":false,"is_disabled":false,"rental_uris":{"android":"levelo://app?vid=5efcab68-1ef7-4ad3-9716-46b0e843d9e4","ios":"levelo://app?vid=5efcab68-1ef7-4ad3-9716-46b0e843d9e4"},"vehicle_type_id":"4","last_reported":1738850945,"current_range_meters":38800,"station_id":"ce4bhg92rcd13ifvqf90","pricing_plan_id":"cebpf4jnsgd1na2vs0mg"},{"bike_id":"c5d2d278-cdab-42ec-8058-28b20a21603d","system_id":"levelo_inurba_marseille","lat":43.28107,"lon":5.37827,"is_reserved":false,"is_disabled":false,"rental_uris":{"android":"levelo://app?vid=c5d2d278-cdab-42ec-8058-28b20a21603d","ios":"levelo://app?vid=c5d2d278-cdab-42ec-8058-28b20a21603d"},"vehicle_type_id":"4","last_reported":1738850945,"current_range_meters":36400,"station_id":"ce4bha12rcd13ifvqee0","pricing_plan_id":"cebpf4jnsgd1na2vs0mg"},{"bike_id":"484b0a78-c1cb-4960-bb65-9ccbbd8f04d9","system_id":"levelo_inurba_marseille","lat":43.28352,"lon":5.381,"is_reserved":false,"is_disabled":false,"rental_uris":{"android":"levelo://app?vid=484b0a78-c1cb-4960-bb65-9ccbbd8f04d9","ios":"levelo://app?vid=484b0a78-c1cb-4960-bb65-9ccbbd8f04d9"},"vehicle_type_id":"4","last_reported":1738850945,"current_range_meters":28800,"station_id":"ce4bh412rcd13ifvqdr0","pricing_plan_id":"cebpf4jnsgd1na2vs0mg"},{"bike_id":"68a157de-0523-4767-a0b0-8bcf364ddf8b","system_id":"levelo_inurba_marseille","lat":43.27823,"lon":5.40733,"is_reserved":false,"is_disabled":false,"rental_uris":{"android":"levelo://app?vid=68a157de-0523-4767-a0b0-8bcf364ddf8b","ios":"levelo://app?vid=68a157de-0523-4767-a0b0-8bcf364ddf8b"},"vehicle_type_id":"4","last_reported":1738850945,"current_range_meters":39200,"station_id":"ce4bhnh2rcd13ifvqgtg","pricing_plan_id":"cebpf4jnsgd1na2vs0mg"},{"bike_id":"eef57110-ad5d-4a20-90d3-877af4175835","system_id":"levelo_inurba_marseille","lat":43.29437,"lon":5.39754,"is_reserved":false,"is_disabled":false,"rental_uris":{"android":"levelo://app?vid=eef57110-ad5d-4a20-90d3-877af4175835","ios":"levelo://app?vid=eef57110-ad5d-4a20-90d3-877af4175835"},"vehicle_type_id":"4","last_reported":1738850945,"current_range_meters":26000,"station_id":"ce4bh3h2rcd13ifvqdo0","pricing_plan_id":"cebpf4jnsgd1na2vs0mg"},{"bike_id":"93bcbfd2-b78d-4eb9-bcb6-041f5f1f97af","system_id":"levelo_inurba_marseille","lat":43.24071,"lon":5.37761,"is_reserved":false,"is_disabled":false,"rental_uris":{"android":"levelo://app?vid=93bcbfd2-b78d-4eb9-bcb6-041f5f1f97af","ios":"levelo://app?vid=93bcbfd2-b78d-4eb9-bcb6-041f5f1f97af"},"vehicle_type_id":"4","last_reported":1738850945,"current_range_meters":12800,"station_id":"ce4bhnp2rcd13ifvqgvg","pricing_plan_id":"cebpf4jnsgd1na2vs0mg"},{"bike_id":"504f5ed2-4121-4fce-a743-61572b70b490","system_id":"levelo_inurba_marseille","lat":43.284,"lon":5.37518,"is_reserved":false,"is_disabled":false,"rental_uris":{"android":"levelo://app?vid=504f5ed2-4121-4fce-a743-61572b70b490","ios":"levelo://app?vid=504f5ed2-4121-4fce-a743-61572b70b490"},"vehicle_type_id":"4","last_reported":1738850945,"current_range_meters":7200,"station_id":"ce4bh412rcd13ifvqds0","pricing_plan_id":"cebpf4jnsgd1na2vs0mg"},{"bike_id":"204fac92-7246-4044-9f76-613da4881d14","system_id":"levelo_inurba_marseille","lat":43.30551,"lon":5.36537,"is_reserved":false,"is_disabled":false,"rental_uris":{"android":"levelo://app?vid=204fac92-7246-4044-9f76-613da4881d14","ios":"levelo://app?vid=204fac92-7246-4044-9f76-613da4881d14"},"vehicle_type_id":"4","last_reported":1738850945,"current_range_meters":33600,"station_id":"ce4bgs12rcd13ifvqcag","pricing_plan_id":"cebpf4jnsgd1na2vs0mg"},{"bike_id":"7cc59337-82bf-4d77-bc3e-212890c77ddd","system_id":"levelo_inurba_marseille","lat":43.23188,"lon":5.3555,"is_reserved":false,"is_disabled":false,"rental_uris":{"android":"levelo://app?vid=7cc59337-82bf-4d77-bc3e-212890c77ddd","ios":"levelo://app?vid=7cc59337-82bf-4d77-bc3e-212890c77ddd"},"vehicle_type_id":"4","last_reported":1738850945,"current_range_meters":33200,"station_id":"ce4bhu92rcd13ifvqi70","pricing_plan_id":"cebpf4jnsgd1na2vs0mg"},{"bike_id":"b84b1eed-a7a2-41ae-a41a-45c86bb41a79","system_id":"levelo_inurba_marseille","lat":43.32553,"lon":5.41447,"is_reserved":false,"is_disabled":false,"rental_uris":{"android":"levelo://app?vid=b84b1eed-a7a2-41ae-a41a-45c86bb41a79","ios":"levelo://app?vid=b84b1eed-a7a2-41ae-a41a-45c86bb41a79"},"vehicle_type_id":"4","last_reported":1738850945,"current_range_meters":26800,"station_id":"ce4bhq12rcd13ifvqhhg","pricing_plan_id":"cebpf4jnsgd1na2vs0mg"},{"bike_id":"62c60fab-2295-4b5d-b024-30bcd0ca6737","system_id":"levelo_inurba_marseille","lat":43.25579,"lon":5.38223,"is_reserved":false,"is_disabled":false,"rental_uris":{"android":"levelo://app?vid=62c60fab-2295-4b5d-b024-30bcd0ca6737","ios":"levelo://app?vid=62c60fab-2295-4b5d-b024-30bcd0ca6737"},"vehicle_type_id":"4","last_reported":1738850945,"current_range_meters":38800,"station_id":"ce4bhih2rcd13ifvqfs0","pricing_plan_id":"cebpf4jnsgd1na2vs0mg"},{"bike_id":"d0e00164-2b7e-4464-84b4-6ddfdb218824","system_id":"levelo_inurba_marseille","lat":43.24088,"lon":5.37756,"is_reserved":false,"is_disabled":false,"rental_uris":{"android":"levelo://app?vid=d0e00164-2b7e-4464-84b4-6ddfdb218824","ios":"levelo://app?vid=d0e00164-2b7e-4464-84b4-6ddfdb218824"},"vehicle_type_id":"4","last_reported":1738850945,"current_range_meters":20400,"station_id":"ce4bhnp2rcd13ifvqgvg","pricing_plan_id":"cebpf4jnsgd1na2vs0mg"},{"bike_id":"1e6bd623-b9e9-4650-9f6f-8b4d5252096e","system_id":"levelo_inurba_marseille","lat":43.30786,"lon":5.43531,"is_reserved":false,"is_disabled":false,"rental_uris":{"android":"levelo://app?vid=1e6bd623-b9e9-4650-9f6f-8b4d5252096e","ios":"levelo://app?vid=1e6bd623-b9e9-4650-9f6f-8b4d5252096e"},"vehicle_type_id":"4","last_reported":1738850945,"current_range_meters":38400,"station_id":"ce4bhph2rcd13ifvqheg","pricing_plan_id":"cebpf4jnsgd1na2vs0mg"},{"bike_id":"e2f55a13-505c-4b0a-b562-d053d8e549d1","system_id":"levelo_inurba_marseille","lat":43.32544,"lon":5.41435,"is_reserved":false,"is_disabled":false,"rental_uris":{"android":"levelo://app?vid=e2f55a13-505c-4b0a-b562-d053d8e549d1","ios":"levelo://app?vid=e2f55a13-505c-4b0a-b562-d053d8e549d1"},"vehicle_type_id":"4","last_reported":1738850945,"current_range_meters":38800,"station_id":"ce4bhq12rcd13ifvqhhg","pricing_plan_id":"cebpf4jnsgd1na2vs0mg"},{"bike_id":"48c2accb-8c4e-4616-b2be-b529e83b5cb3","system_id":"levelo_inurba_marseille","lat":43.30457,"lon":5.3791,"is_reserved":false,"is_disabled":true,"rental_uris":{"android":"levelo://app?vid=48c2accb-8c4e-4616-b2be-b529e83b5cb3","ios":"levelo://app?vid=48c2accb-8c4e-4616-b2be-b529e83b5cb3"},"vehicle_type_id":"4","last_reported":1738850945,"current_range_meters":13600,"station_id":"ce4bho92rcd13ifvqh3g","pricing_plan_id":"cebpf4jnsgd1na2vs0mg"},{"bike_id":"adea3fe0-0d5f-493f-bc7a-8db19cd779cc","system_id":"levelo_inurba_marseille","lat":43.26194,"lon":5.37887,"is_reserved":false,"is_disabled":false,"rental_uris":{"android":"levelo://app?vid=adea3fe0-0d5f-493f-bc7a-8db19cd779cc","ios":"levelo://app?vid=adea3fe0-0d5f-493f-bc7a-8db19cd779cc"},"vehicle_type_id":"4","last_reported":1738850945,"current_range_meters":38800,"station_id":"ce4bhjp2rcd13ifvqg90","pricing_plan_id":"cebpf4jnsgd1na2vs0mg"},{"bike_id":"28641277-273e-4eff-99ec-034b5fafbc93","system_id":"levelo_inurba_marseille","lat":43.29853,"lon":5.36283,"is_reserved":false,"is_disabled":false,"rental_uris":{"android":"levelo://app?vid=28641277-273e-4eff-99ec-034b5fafbc93","ios":"levelo://app?vid=28641277-273e-4eff-99ec-034b5fafbc93"},"vehicle_type_id":"4","last_reported":1738850945,"current_range_meters":34800,"station_id":"ce4bgpp2rcd13ifvqc3g","pricing_plan_id":"cebpf4jnsgd1na2vs0mg"},{"bike_id":"b6ffb3d2-79ff-4733-8048-879d39422148","system_id":"levelo_inurba_marseille","lat":43.25719,"lon":5.41105,"is_reserved":false,"is_disabled":false,"rental_uris":{"android":"levelo://app?vid=b6ffb3d2-79ff-4733-8048-879d39422148","ios":"levelo://app?vid=b6ffb3d2-79ff-4733-8048-879d39422148"},"vehicle_type_id":"4","last_reported":1738850945,"current_range_meters":21600,"station_id":"ce4bhkp2rcd13ifvqgd0","pricing_plan_id":"cebpf4jnsgd1na2vs0mg"},{"bike_id":"d23c7b00-facb-4ee8-b980-597eb067bf60","system_id":"levelo_inurba_marseille","lat":43.25727,"lon":5.4112,"is_reserved":false,"is_disabled":false,"rental_uris":{"android":"levelo://app?vid=d23c7b00-facb-4ee8-b980-597eb067bf60","ios":"levelo://app?vid=d23c7b00-facb-4ee8-b980-597eb067bf60"},"vehicle_type_id":"4","last_reported":1738850945,"current_range_meters":39200,"station_id":"ce4bhkp2rcd13ifvqgd0","pricing_plan_id":"cebpf4jnsgd1na2vs0mg"},{"bike_id":"ea47c0e8-3b47-474f-83b7-b953704fe466","system_id":"levelo_inurba_marseille","lat":43.25119,"lon":5.40324,"is_reserved":false,"is_disabled":false,"rental_uris":{"android":"levelo://app?vid=ea47c0e8-3b47-474f-83b7-b953704fe466","ios":"levelo://app?vid=ea47c0e8-3b47-474f-83b7-b953704fe466"},"vehicle_type_id":"4","last_reported":1738850945,"current_range_meters":38800,"station_id":"ce4bhlh2rcd13ifvqgig","pricing_plan_id":"cebpf4jnsgd1na2vs0mg"},{"bike_id":"6798fe13-a934-4073-b31a-63bf26cf0118","system_id":"levelo_inurba_marseille","lat":43.23233,"lon":5.35556,"is_reserved":false,"is_disabled":false,"rental_uris":{"android":"levelo://app?vid=6798fe13-a934-4073-b31a-63bf26cf0118","ios":"levelo://app?vid=6798fe13-a934-4073-b31a-63bf26cf0118"},"vehicle_type_id":"4","last_reported":1738850945,"current_range_meters":38800,"station_id":"ce4bhu92rcd13ifvqi70","pricing_plan_id":"cebpf4jnsgd1na2vs0mg"},{"bike_id":"01bf567d-c16f-4d0e-a427-9d53740f2fac","system_id":"levelo_inurba_marseille","lat":43.24075,"lon":5.37763,"is_reserved":false,"is_disabled":false,"rental_uris":{"android":"levelo://app?vid=01bf567d-c16f-4d0e-a427-9d53740f2fac","ios":"levelo://app?vid=01bf567d-c16f-4d0e-a427-9d53740f2fac"},"vehicle_type_id":"4","last_reported":1738850945,"current_range_meters":24400,"station_id":"ce4bhnp2rcd13ifvqgvg","pricing_plan_id":"cebpf4jnsgd1na2vs0mg"},{"bike_id":"a420c33a-ad3b-448a-9c40-f67028a8787b","system_id":"levelo_inurba_marseille","lat":43.27494,"lon":5.42443,"is_reserved":false,"is_disabled":false,"rental_uris":{"android":"levelo://app?vid=a420c33a-ad3b-448a-9c40-f67028a8787b","ios":"levelo://app?vid=a420c33a-ad3b-448a-9c40-f67028a8787b"},"vehicle_type_id":"4","last_reported":1738850945,"current_range_meters":17200,"station_id":"ce4bhn92rcd13ifvqgrg","pricing_plan_id":"cebpf4jnsgd1na2vs0mg"},{"bike_id":"d1ea6958-320e-4d5a-9c3f-15ebdbb5caf3","system_id":"levelo_inurba_marseille","lat":43.30134,"lon":5.37414,"is_reserved":false,"is_disabled":false,"rental_uris":{"android":"levelo://app?vid=d1ea6958-320e-4d5a-9c3f-15ebdbb5caf3","ios":"levelo://app?vid=d1ea6958-320e-4d5a-9c3f-15ebdbb5caf3"},"vehicle_type_id":"4","last_reported":1738850945,"current_range_meters":39200,"station_id":"ce4bgs92rcd13ifvqcc0","pricing_plan_id":"cebpf4jnsgd1na2vs0mg"},{"bike_id":"f9fd413a-dce0-444e-b344-7218021a1818","system_id":"levelo_inurba_marseille","lat":43.29841,"lon":5.3627,"is_reserved":false,"is_disabled":false,"rental_uris":{"android":"levelo://app?vid=f9fd413a-dce0-444e-b344-7218021a1818","ios":"levelo://app?vid=f9fd413a-dce0-444e-b344-7218021a1818"},"vehicle_type_id":"4","last_reported":1738850945,"current_range_meters":17200,"station_id":"ce4bgpp2rcd13ifvqc3g","pricing_plan_id":"cebpf4jnsgd1na2vs0mg"},{"bike_id":"94e65be6-5b5c-4ab2-9830-fce2b715dd4f","system_id":"levelo_inurba_marseille","lat":43.29836,"lon":5.36265,"is_reserved":false,"is_disabled":true,"rental_uris":{"android":"levelo://app?vid=94e65be6-5b5c-4ab2-9830-fce2b715dd4f","ios":"levelo://app?vid=94e65be6-5b5c-4ab2-9830-fce2b715dd4f"},"vehicle_type_id":"4","last_reported":1738850945,"current_range_meters":0,"station_id":"ce4bgpp2rcd13ifvqc3g","pricing_plan_id":"cebpf4jnsgd1na2vs0mg"},{"bike_id":"34ce6a74-2309-43f0-8054-fa5f00422683","system_id":"levelo_inurba_marseille","lat":43.23057,"lon":5.35485,"is_reserved":false,"is_disabled":false,"rental_uris":{"android":"levelo://app?vid=34ce6a74-2309-43f0-8054-fa5f00422683","ios":"levelo://app?vid=34ce6a74-2309-43f0-8054-fa5f00422683"},"vehicle_type_id":"4","last_reported":1738850945,"current_range_meters":36400,"station_id":"cpo3342slgdg3j2ifvpg","pricing_plan_id":"cebpf4jnsgd1na2vs0mg"},{"bike_id":"59db9156-837c-4bef-bdf0-6cb05d00fb23","system_id":"levelo_inurba_marseille","lat":43.2417,"lon":5.36405,"is_reserved":false,"is_disabled":false,"rental_uris":{"android":"levelo://app?vid=59db9156-837c-4bef-bdf0-6cb05d00fb23","ios":"levelo://app?vid=59db9156-837c-4bef-bdf0-6cb05d00fb23"},"vehicle_type_id":"4","last_reported":1738850945,"current_range_meters":36000,"station_id":"cpo36qri1sfpv3e86is0","pricing_plan_id":"cebpf4jnsgd1na2vs0mg"},{"bike_id":"9482bb0d-17aa-40b3-a8b5-41d3f0ac2efc","system_id":"levelo_inurba_marseille","lat":43.28353,"lon":5.38101,"is_reserved":false,"is_disabled":false,"rental_uris":{"android":"levelo://app?vid=9482bb0d-17aa-40b3-a8b5-41d3f0ac2efc","ios":"levelo://app?vid=9482bb0d-17aa-40b3-a8b5-41d3f0ac2efc"},"vehicle_type_id":"4","last_reported":1738850945,"current_range_meters":29600,"station_id":"ce4bh412rcd13ifvqdr0","pricing_plan_id":"cebpf4jnsgd1na2vs0mg"},{"bike_id":"d7080149-7e59-4a17-b2d0-4462637b5ebd","system_id":"levelo_inurba_marseille","lat":43.24158,"lon":5.39726,"is_reserved":false,"is_disabled":false,"rental_uris":{"android":"levelo://app?vid=d7080149-7e59-4a17-b2d0-4462637b5ebd","ios":"levelo://app?vid=d7080149-7e59-4a17-b2d0-4462637b5ebd"},"vehicle_type_id":"4","last_reported":1738850945,"current_range_meters":36400,"station_id":"ce4bhn12rcd13ifvqgpg","pricing_plan_id":"cebpf4jnsgd1na2vs0mg"},{"bike_id":"19c91191-64ee-4803-94d7-14a4a66340df","system_id":"levelo_inurba_marseille","lat":43.31722,"lon":5.42411,"is_reserved":false,"is_disabled":true,"rental_uris":{"android":"levelo://app?vid=19c91191-64ee-4803-94d7-14a4a66340df","ios":"levelo://app?vid=19c91191-64ee-4803-94d7-14a4a66340df"},"vehicle_type_id":"4","last_reported":1738850945,"current_range_meters":0,"station_id":"ce4bhp92rcd13ifvqhbg","pricing_plan_id":"cebpf4jnsgd1na2vs0mg"},{"bike_id":"db7ef569-e730-427c-9b98-cc1d84af2154","system_id":"levelo_inurba_marseille","lat":43.29249,"lon":5.40908,"is_reserved":false,"is_disabled":false,"rental_uris":{"android":"levelo://app?vid=db7ef569-e730-427c-9b98-cc1d84af2154","ios":"levelo://app?vid=db7ef569-e730-427c-9b98-cc1d84af2154"},"vehicle_type_id":"4","last_reported":1738850945,"current_range_meters":19200,"station_id":"ce4bh192rcd13ifvqdc0","pricing_plan_id":"cebpf4jnsgd1na2vs0mg"},{"bike_id":"6c06c564-43b4-4639-aaa7-86efe59b84cf","system_id":"levelo_inurba_marseille","lat":43.27421,"lon":5.3941,"is_reserved":false,"is_disabled":false,"rental_uris":{"android":"levelo://app?vid=6c06c564-43b4-4639-aaa7-86efe59b84cf","ios":"levelo://app?vid=6c06c564-43b4-4639-aaa7-86efe59b84cf"},"vehicle_type_id":"4","last_reported":1738850945,"current_range_meters":3200,"station_id":"ce4bhdp2rcd13ifvqf20","pricing_plan_id":"cebpf4jnsgd1na2vs0mg"},{"bike_id":"8d86f3b6-2477-487b-a103-e9dca215990d","system_id":"levelo_inurba_marseille","lat":43.289369,"lon":5.363974,"is_reserved":false,"is_disabled":true,"rental_uris":{"android":"levelo://app?vid=8d86f3b6-2477-487b-a103-e9dca215990d","ios":"levelo://app?vid=8d86f3b6-2477-487b-a103-e9dca215990d"},"vehicle_type_id":"4","last_reported":1738850945,"current_range_meters":0,"station_id":"ce4bhc92rcd13ifvqetg","pricing_plan_id":"cebpf4jnsgd1na2vs0mg"},{"bike_id":"4187422a-2d34-433b-a07e-3f172fb496da","system_id":"levelo_inurba_marseille","lat":43.33604,"lon":5.41032,"is_reserved":false,"is_disabled":false,"rental_uris":{"android":"levelo://app?vid=4187422a-2d34-433b-a07e-3f172fb496da","ios":"levelo://app?vid=4187422a-2d34-433b-a07e-3f172fb496da"},"vehicle_type_id":"4","last_reported":1738850945,"current_range_meters":16000,"station_id":"ce4bhqh2rcd13ifvqhmg","pricing_plan_id":"cebpf4jnsgd1na2vs0mg"},{"bike_id":"095ff5f2-eb52-41ce-ad20-ec6fb8b5a349","system_id":"levelo_inurba_marseille","lat":43.30473,"lon":5.37899,"is_reserved":false,"is_disabled":false,"rental_uris":{"android":"levelo://app?vid=095ff5f2-eb52-41ce-ad20-ec6fb8b5a349","ios":"levelo://app?vid=095ff5f2-eb52-41ce-ad20-ec6fb8b5a349"},"vehicle_type_id":"4","last_reported":1738850945,"current_range_meters":27200,"station_id":"ce4bgup2rcd13ifvqcn0","pricing_plan_id":"cebpf4jnsgd1na2vs0mg"},{"bike_id":"59e10372-8c6f-460f-95be-2cba66627d65","system_id":"levelo_inurba_marseille","lat":43.23195,"lon":5.35541,"is_reserved":false,"is_disabled":false,"rental_uris":{"android":"levelo://app?vid=59e10372-8c6f-460f-95be-2cba66627d65","ios":"levelo://app?vid=59e10372-8c6f-460f-95be-2cba66627d65"},"vehicle_type_id":"4","last_reported":1738850945,"current_range_meters":38800,"station_id":"ce4bhu92rcd13ifvqi70","pricing_plan_id":"cebpf4jnsgd1na2vs0mg"},{"bike_id":"a7457b76-95d1-4277-adb8-f860161a78f7","system_id":"levelo_inurba_marseille","lat":43.27996,"lon":5.41663,"is_reserved":false,"is_disabled":false,"rental_uris":{"android":"levelo://app?vid=a7457b76-95d1-4277-adb8-f860161a78f7","ios":"levelo://app?vid=a7457b76-95d1-4277-adb8-f860161a78f7"},"vehicle_type_id":"4","last_reported":1738850945,"current_range_meters":33200,"station_id":"ce4bho12rcd13ifvqh1g","pricing_plan_id":"cebpf4jnsgd1na2vs0mg"},{"bike_id":"2ce23d75-a5ae-4911-b475-9c48dc415d5a","system_id":"levelo_inurba_marseille","lat":43.29602,"lon":5.37733,"is_reserved":false,"is_disabled":false,"rental_uris":{"android":"levelo://app?vid=2ce23d75-a5ae-4911-b475-9c48dc415d5a","ios":"levelo://app?vid=2ce23d75-a5ae-4911-b475-9c48dc415d5a"},"vehicle_type_id":"4","last_reported":1738850945,"current_range_meters":35600,"station_id":"ce4bgi92rcd13ifvqb90","pricing_plan_id":"cebpf4jnsgd1na2vs0mg"},{"bike_id":"c24ae054-ed29-4cb8-9f31-257a5f09d458","system_id":"levelo_inurba_marseille","lat":43.27969,"lon":5.38721,"is_reserved":false,"is_disabled":false,"rental_uris":{"android":"levelo://app?vid=c24ae054-ed29-4cb8-9f31-257a5f09d458","ios":"levelo://app?vid=c24ae054-ed29-4cb8-9f31-257a5f09d458"},"vehicle_type_id":"4","last_reported":1738850945,"current_range_meters":38000,"station_id":"ce4bhg12rcd13ifvqf80","pricing_plan_id":"cebpf4jnsgd1na2vs0mg"},{"bike_id":"5d1dacf3-3fa1-40ba-8373-ce163dd2d283","system_id":"levelo_inurba_marseille","lat":43.2619,"lon":5.3792,"is_reserved":false,"is_disabled":false,"rental_uris":{"android":"levelo://app?vid=5d1dacf3-3fa1-40ba-8373-ce163dd2d283","ios":"levelo://app?vid=5d1dacf3-3fa1-40ba-8373-ce163dd2d283"},"vehicle_type_id":"4","last_reported":1738850945,"current_range_meters":37600,"station_id":"ce4bhjp2rcd13ifvqg90","pricing_plan_id":"cebpf4jnsgd1na2vs0mg"},{"bike_id":"53407726-3ca3-4dc7-b23c-d204f09a40e0","system_id":"levelo_inurba_marseille","lat":43.27181,"lon":5.40995,"is_reserved":false,"is_disabled":false,"rental_uris":{"android":"levelo://app?vid=53407726-3ca3-4dc7-b23c-d204f09a40e0","ios":"levelo://app?vid=53407726-3ca3-4dc7-b23c-d204f09a40e0"},"vehicle_type_id":"4","last_reported":1738850945,"current_range_meters":38800,"station_id":"ce4bhl12rcd13ifvqgf0","pricing_plan_id":"cebpf4jnsgd1na2vs0mg"},{"bike_id":"0645590b-03d3-45c3-8ccc-e677ffc8c83b","system_id":"levelo_inurba_marseille","lat":43.33729,"lon":5.39192,"is_reserved":false,"is_disabled":false,"rental_uris":{"android":"levelo://app?vid=0645590b-03d3-45c3-8ccc-e677ffc8c83b","ios":"levelo://app?vid=0645590b-03d3-45c3-8ccc-e677ffc8c83b"},"vehicle_type_id":"4","last_reported":1738850945,"current_range_meters":39200,"station_id":"ce4bhr92rcd13ifvqhsg","pricing_plan_id":"cebpf4jnsgd1na2vs0mg"},{"bike_id":"56b8d360-d291-4f67-925b-1ff34d6496bf","system_id":"levelo_inurba_marseille","lat":43.302338,"lon":5.393162,"is_reserved":false,"is_disabled":false,"rental_uris":{"android":"levelo://app?vid=56b8d360-d291-4f67-925b-1ff34d6496bf","ios":"levelo://app?vid=56b8d360-d291-4f67-925b-1ff34d6496bf"},"vehicle_type_id":"4","last_reported":1738850945,"current_range_meters":28000,"station_id":"ce4bgvp2rcd13ifvqcu0","pricing_plan_id":"cebpf4jnsgd1na2vs0mg"},{"bike_id":"82516f72-f08a-4e3b-9eae-6cefa7c2d956","system_id":"levelo_inurba_marseille","lat":43.2657,"lon":5.39009,"is_reserved":false,"is_disabled":false,"rental_uris":{"android":"levelo://app?vid=82516f72-f08a-4e3b-9eae-6cefa7c2d956","ios":"levelo://app?vid=82516f72-f08a-4e3b-9eae-6cefa7c2d956"},"vehicle_type_id":"4","last_reported":1738850945,"current_range_meters":19200,"station_id":"ce4bhe12rcd13ifvqf30","pricing_plan_id":"cebpf4jnsgd1na2vs0mg"},{"bike_id":"8f775b03-0f36-4f58-a516-b1e5f1a07e8e","system_id":"levelo_inurba_marseille","lat":43.23199,"lon":5.3556,"is_reserved":false,"is_disabled":false,"rental_uris":{"android":"levelo://app?vid=8f775b03-0f36-4f58-a516-b1e5f1a07e8e","ios":"levelo://app?vid=8f775b03-0f36-4f58-a516-b1e5f1a07e8e"},"vehicle_type_id":"4","last_reported":1738850945,"current_range_meters":23200,"station_id":"ce4bhu92rcd13ifvqi70","pricing_plan_id":"cebpf4jnsgd1na2vs0mg"},{"bike_id":"ce457943-8796-4fc8-b051-ba3a0eda9b81","system_id":"levelo_inurba_marseille","lat":43.23956,"lon":5.36635,"is_reserved":false,"is_disabled":false,"rental_uris":{"android":"levelo://app?vid=ce457943-8796-4fc8-b051-ba3a0eda9b81","ios":"levelo://app?vid=ce457943-8796-4fc8-b051-ba3a0eda9b81"},"vehicle_type_id":"4","last_reported":1738850945,"current_range_meters":18800,"station_id":"ce4bhi12rcd13ifvqfp0","pricing_plan_id":"cebpf4jnsgd1na2vs0mg"},{"bike_id":"b47fb2c4-feb8-4301-8479-986b7990684b","system_id":"levelo_inurba_marseille","lat":43.29195,"lon":5.35799,"is_reserved":false,"is_disabled":false,"rental_uris":{"android":"levelo://app?vid=b47fb2c4-feb8-4301-8479-986b7990684b","ios":"levelo://app?vid=b47fb2c4-feb8-4301-8479-986b7990684b"},"vehicle_type_id":"4","last_reported":1738850945,"current_range_meters":34000,"station_id":"ce4bhb12rcd13ifvqel0","pricing_plan_id":"cebpf4jnsgd1na2vs0mg"},{"bike_id":"41a3b9b2-d357-4945-9b9b-238c867bb3a7","system_id":"levelo_inurba_marseille","lat":43.25719,"lon":5.41104,"is_reserved":false,"is_disabled":false,"rental_uris":{"android":"levelo://app?vid=41a3b9b2-d357-4945-9b9b-238c867bb3a7","ios":"levelo://app?vid=41a3b9b2-d357-4945-9b9b-238c867bb3a7"},"vehicle_type_id":"4","last_reported":1738850945,"current_range_meters":19200,"station_id":"ce4bhkp2rcd13ifvqgd0","pricing_plan_id":"cebpf4jnsgd1na2vs0mg"},{"bike_id":"c98dac74-8ef2-440f-bb69-0af2b3220a11","system_id":"levelo_inurba_marseille","lat":43.29851,"lon":5.36284,"is_reserved":false,"is_disabled":false,"rental_uris":{"android":"levelo://app?vid=c98dac74-8ef2-440f-bb69-0af2b3220a11","ios":"levelo://app?vid=c98dac74-8ef2-440f-bb69-0af2b3220a11"},"vehicle_type_id":"4","last_reported":1738850945,"current_range_meters":37600,"station_id":"","pricing_plan_id":"cebpf4jnsgd1na2vs0mg"},{"bike_id":"f10185ed-89b2-4796-a0b4-b52ba86c9b83","system_id":"levelo_inurba_marseille","lat":43.28431,"lon":5.34976,"is_reserved":false,"is_disabled":false,"rental_uris":{"android":"levelo://app?vid=f10185ed-89b2-4796-a0b4-b52ba86c9b83","ios":"levelo://app?vid=f10185ed-89b2-4796-a0b4-b52ba86c9b83"},"vehicle_type_id":"4","last_reported":1738850945,"current_range_meters":29600,"station_id":"ce4bhbh2rcd13ifvqepg","pricing_plan_id":"cebpf4jnsgd1na2vs0mg"},{"bike_id":"3692b5ed-8c9b-47a8-aff7-bf05d7fd0a68","system_id":"levelo_inurba_marseille","lat":43.27309,"lon":5.39094,"is_reserved":false,"is_disabled":false,"rental_uris":{"android":"levelo://app?vid=3692b5ed-8c9b-47a8-aff7-bf05d7fd0a68","ios":"levelo://app?vid=3692b5ed-8c9b-47a8-aff7-bf05d7fd0a68"},"vehicle_type_id":"4","last_reported":1738850945,"current_range_meters":35600,"station_id":"ce4bhgp2rcd13ifvqfe0","pricing_plan_id":"cebpf4jnsgd1na2vs0mg"},{"bike_id":"4a7383d5-a136-4262-a1cd-9ee20da3d92e","system_id":"levelo_inurba_marseille","lat":43.24083,"lon":5.37716,"is_reserved":false,"is_disabled":false,"rental_uris":{"android":"levelo://app?vid=4a7383d5-a136-4262-a1cd-9ee20da3d92e","ios":"levelo://app?vid=4a7383d5-a136-4262-a1cd-9ee20da3d92e"},"vehicle_type_id":"4","last_reported":1738850945,"current_range_meters":38800,"station_id":"ce4bhnp2rcd13ifvqgvg","pricing_plan_id":"cebpf4jnsgd1na2vs0mg"},{"bike_id":"7385bff2-e41b-4fa7-a9c5-324e50518a48","system_id":"levelo_inurba_marseille","lat":43.27177,"lon":5.40995,"is_reserved":false,"is_disabled":false,"rental_uris":{"android":"levelo://app?vid=7385bff2-e41b-4fa7-a9c5-324e50518a48","ios":"levelo://app?vid=7385bff2-e41b-4fa7-a9c5-324e50518a48"},"vehicle_type_id":"4","last_reported":1738850945,"current_range_meters":38800,"station_id":"ce4bhl12rcd13ifvqgf0","pricing_plan_id":"cebpf4jnsgd1na2vs0mg"},{"bike_id":"a1c62c5d-e25e-4adb-99a0-c2b47ff63b14","system_id":"levelo_inurba_marseille","lat":43.24163,"lon":5.364,"is_reserved":false,"is_disabled":false,"rental_uris":{"android":"levelo://app?vid=a1c62c5d-e25e-4adb-99a0-c2b47ff63b14","ios":"levelo://app?vid=a1c62c5d-e25e-4adb-99a0-c2b47ff63b14"},"vehicle_type_id":"4","last_reported":1738850945,"current_range_meters":38800,"station_id":"cpo36qri1sfpv3e86is0","pricing_plan_id":"cebpf4jnsgd1na2vs0mg"},{"bike_id":"addfcf43-9ed8-4b8f-a5c8-e459cfb93f61","system_id":"levelo_inurba_marseille","lat":43.337444,"lon":5.374475,"is_reserved":false,"is_disabled":false,"rental_uris":{"android":"levelo://app?vid=addfcf43-9ed8-4b8f-a5c8-e459cfb93f61","ios":"levelo://app?vid=addfcf43-9ed8-4b8f-a5c8-e459cfb93f61"},"vehicle_type_id":"4","last_reported":1738850945,"current_range_meters":38800,"station_id":"ce4bh0h2rcd13ifvqd50","pricing_plan_id":"cebpf4jnsgd1na2vs0mg"},{"bike_id":"d07bb0c7-339f-4651-a028-37acdbea58f5","system_id":"levelo_inurba_marseille","lat":43.32492,"lon":5.36554,"is_reserved":false,"is_disabled":false,"rental_uris":{"android":"levelo://app?vid=d07bb0c7-339f-4651-a028-37acdbea58f5","ios":"levelo://app?vid=d07bb0c7-339f-4651-a028-37acdbea58f5"},"vehicle_type_id":"4","last_reported":1738850945,"current_range_meters":38000,"station_id":"ce4bhs12rcd13ifvqhvg","pricing_plan_id":"cebpf4jnsgd1na2vs0mg"},{"bike_id":"79eab85b-411d-47b7-ba8c-c70679ea549f","system_id":"levelo_inurba_marseille","lat":43.23186,"lon":5.39981,"is_reserved":false,"is_disabled":false,"rental_uris":{"android":"levelo://app?vid=79eab85b-411d-47b7-ba8c-c70679ea549f","ios":"levelo://app?vid=79eab85b-411d-47b7-ba8c-c70679ea549f"},"vehicle_type_id":"4","last_reported":1738850945,"current_range_meters":19600,"station_id":"ce4bhn12rcd13ifvqgqg","pricing_plan_id":"cebpf4jnsgd1na2vs0mg"},{"bike_id":"57f51fe3-1f6b-4b64-b5f6-8f1daadc2595","system_id":"levelo_inurba_marseille","lat":43.28848,"lon":5.3585,"is_reserved":false,"is_disabled":false,"rental_uris":{"android":"levelo://app?vid=57f51fe3-1f6b-4b64-b5f6-8f1daadc2595","ios":"levelo://app?vid=57f51fe3-1f6b-4b64-b5f6-8f1daadc2595"},"vehicle_type_id":"4","last_reported":1738850945,"current_range_meters":36400,"station_id":"ce4bhb12rcd13ifvqem0","pricing_plan_id":"cebpf4jnsgd1na2vs0mg"},{"bike_id":"a6f007af-8e19-4347-91df-bfd8a50b6b45","system_id":"levelo_inurba_marseille","lat":43.27581,"lon":5.38421,"is_reserved":false,"is_disabled":false,"rental_uris":{"android":"levelo://app?vid=a6f007af-8e19-4347-91df-bfd8a50b6b45","ios":"levelo://app?vid=a6f007af-8e19-4347-91df-bfd8a50b6b45"},"vehicle_type_id":"4","last_reported":1738850945,"current_range_meters":27200,"station_id":"ce4bhh92rcd13ifvqfi0","pricing_plan_id":"cebpf4jnsgd1na2vs0mg"},{"bike_id":"341067f4-d7ed-4f99-954f-691c64a92e97","system_id":"levelo_inurba_marseille","lat":43.23187,"lon":5.39986,"is_reserved":false,"is_disabled":false,"rental_uris":{"android":"levelo://app?vid=341067f4-d7ed-4f99-954f-691c64a92e97","ios":"levelo://app?vid=341067f4-d7ed-4f99-954f-691c64a92e97"},"vehicle_type_id":"4","last_reported":1738850945,"current_range_meters":18000,"station_id":"ce4bhn12rcd13ifvqgqg","pricing_plan_id":"cebpf4jnsgd1na2vs0mg"},{"bike_id":"69775e04-c171-4bbd-a971-65f25efb6b45","system_id":"levelo_inurba_marseille","lat":43.25499,"lon":5.37647,"is_reserved":false,"is_disabled":false,"rental_uris":{"android":"levelo://app?vid=69775e04-c171-4bbd-a971-65f25efb6b45","ios":"levelo://app?vid=69775e04-c171-4bbd-a971-65f25efb6b45"},"vehicle_type_id":"4","last_reported":1738850945,"current_range_meters":38000,"station_id":"ce4bhh12rcd13ifvqff0","pricing_plan_id":"cebpf4jnsgd1na2vs0mg"},{"bike_id":"e4adf93d-6d82-4e1d-8391-a8ec7be13712","system_id":"levelo_inurba_marseille","lat":43.27369,"lon":5.36259,"is_reserved":false,"is_disabled":false,"rental_uris":{"android":"levelo://app?vid=e4adf93d-6d82-4e1d-8391-a8ec7be13712","ios":"levelo://app?vid=e4adf93d-6d82-4e1d-8391-a8ec7be13712"},"vehicle_type_id":"4","last_reported":1738850945,"current_range_meters":38800,"station_id":"ce4bhbh2rcd13ifvqeo0","pricing_plan_id":"cebpf4jnsgd1na2vs0mg"},{"bike_id":"4d2e2bac-0ba5-4b7b-a449-3bdedf2e886a","system_id":"levelo_inurba_marseille","lat":43.28271,"lon":5.3506,"is_reserved":false,"is_disabled":false,"rental_uris":{"android":"levelo://app?vid=4d2e2bac-0ba5-4b7b-a449-3bdedf2e886a","ios":"levelo://app?vid=4d2e2bac-0ba5-4b7b-a449-3bdedf2e886a"},"vehicle_type_id":"4","last_reported":1738850945,"current_range_meters":38800,"station_id":"ce4bhbp2rcd13ifvqerg","pricing_plan_id":"cebpf4jnsgd1na2vs0mg"},{"bike_id":"dbed576a-b8df-4a1d-a144-c4efaae2efcb","system_id":"levelo_inurba_marseille","lat":43.29813,"lon":5.38128,"is_reserved":false,"is_disabled":false,"rental_uris":{"android":"levelo://app?vid=dbed576a-b8df-4a1d-a144-c4efaae2efcb","ios":"levelo://app?vid=dbed576a-b8df-4a1d-a144-c4efaae2efcb"},"vehicle_type_id":"4","last_reported":1738850945,"current_range_meters":9200,"station_id":"ce4bgip2rcd13ifvqbb0","pricing_plan_id":"cebpf4jnsgd1na2vs0mg"},{"bike_id":"3885134f-3fe5-476f-98f9-7414da170854","system_id":"levelo_inurba_marseille","lat":43.30476,"lon":5.37904,"is_reserved":false,"is_disabled":false,"rental_uris":{"android":"levelo://app?vid=3885134f-3fe5-476f-98f9-7414da170854","ios":"levelo://app?vid=3885134f-3fe5-476f-98f9-7414da170854"},"vehicle_type_id":"4","last_reported":1738850945,"current_range_meters":28000,"station_id":"ce4bgup2rcd13ifvqcn0","pricing_plan_id":"cebpf4jnsgd1na2vs0mg"},{"bike_id":"015157f4-4ca2-4e74-a2b3-d0884121a3f0","system_id":"levelo_inurba_marseille","lat":43.29369,"lon":5.37828,"is_reserved":false,"is_disabled":false,"rental_uris":{"android":"levelo://app?vid=015157f4-4ca2-4e74-a2b3-d0884121a3f0","ios":"levelo://app?vid=015157f4-4ca2-4e74-a2b3-d0884121a3f0"},"vehicle_type_id":"4","last_reported":1738850945,"current_range_meters":35200,"station_id":"ce4bgjh2rcd13ifvqbf0","pricing_plan_id":"cebpf4jnsgd1na2vs0mg"},{"bike_id":"d5295ef3-90ad-4cba-9d93-8f9fc65dc37d","system_id":"levelo_inurba_marseille","lat":43.311156,"lon":5.377729,"is_reserved":false,"is_disabled":true,"rental_uris":{"android":"levelo://app?vid=d5295ef3-90ad-4cba-9d93-8f9fc65dc37d","ios":"levelo://app?vid=d5295ef3-90ad-4cba-9d93-8f9fc65dc37d"},"vehicle_type_id":"4","last_reported":1738850945,"current_range_meters":1600,"station_id":"ce4bgt92rcd13ifvqcg0","pricing_plan_id":"cebpf4jnsgd1na2vs0mg"},{"bike_id":"62aa606c-4e09-4f00-9193-a0bd572a61df","system_id":"levelo_inurba_marseille","lat":43.25815,"lon":5.39432,"is_reserved":false,"is_disabled":false,"rental_uris":{"android":"levelo://app?vid=62aa606c-4e09-4f00-9193-a0bd572a61df","ios":"levelo://app?vid=62aa606c-4e09-4f00-9193-a0bd572a61df"},"vehicle_type_id":"4","last_reported":1738850945,"current_range_meters":30800,"station_id":"ce4bhip2rcd13ifvqft0","pricing_plan_id":"cebpf4jnsgd1na2vs0mg"},{"bike_id":"f2ff847b-0160-40ad-8a33-fea792e7cd9f","system_id":"levelo_inurba_marseille","lat":43.309383,"lon":5.376289,"is_reserved":false,"is_disabled":false,"rental_uris":{"android":"levelo://app?vid=f2ff847b-0160-40ad-8a33-fea792e7cd9f","ios":"levelo://app?vid=f2ff847b-0160-40ad-8a33-fea792e7cd9f"},"vehicle_type_id":"4","last_reported":1738850945,"current_range_meters":37600,"station_id":"ce4bgt12rcd13ifvqce0","pricing_plan_id":"cebpf4jnsgd1na2vs0mg"},{"bike_id":"8461dcb5-f99b-425c-9064-bd0f19db3c15","system_id":"levelo_inurba_marseille","lat":43.27677,"lon":5.38891,"is_reserved":false,"is_disabled":true,"rental_uris":{"android":"levelo://app?vid=8461dcb5-f99b-425c-9064-bd0f19db3c15","ios":"levelo://app?vid=8461dcb5-f99b-425c-9064-bd0f19db3c15"},"vehicle_type_id":"4","last_reported":1738850945,"current_range_meters":10800,"station_id":"ce4bhi12rcd13ifvqfo0","pricing_plan_id":"cebpf4jnsgd1na2vs0mg"},{"bike_id":"01b99dbc-aa81-4c6b-8528-fcc06bbedcef","system_id":"levelo_inurba_marseille","lat":43.3415,"lon":5.40901,"is_reserved":false,"is_disabled":false,"rental_uris":{"android":"levelo://app?vid=01b99dbc-aa81-4c6b-8528-fcc06bbedcef","ios":"levelo://app?vid=01b99dbc-aa81-4c6b-8528-fcc06bbedcef"},"vehicle_type_id":"4","last_reported":1738850945,"current_range_meters":16000,"station_id":"ce4bhqh2rcd13ifvqhlg","pricing_plan_id":"cebpf4jnsgd1na2vs0mg"},{"bike_id":"d9e1746e-fb35-4488-8bed-3a26bd5c5605","system_id":"levelo_inurba_marseille","lat":43.30296,"lon":5.39811,"is_reserved":false,"is_disabled":true,"rental_uris":{"android":"levelo://app?vid=d9e1746e-fb35-4488-8bed-3a26bd5c5605","ios":"levelo://app?vid=d9e1746e-fb35-4488-8bed-3a26bd5c5605"},"vehicle_type_id":"4","last_reported":1738850945,"current_range_meters":0,"station_id":"","pricing_plan_id":"cebpf4jnsgd1na2vs0mg"},{"bike_id":"03bd6fdb-9b93-4bc3-93f0-b3c7d729ae1c","system_id":"levelo_inurba_marseille","lat":43.27203,"lon":5.3919,"is_reserved":false,"is_disabled":true,"rental_uris":{"android":"levelo://app?vid=03bd6fdb-9b93-4bc3-93f0-b3c7d729ae1c","ios":"levelo://app?vid=03bd6fdb-9b93-4bc3-93f0-b3c7d729ae1c"},"vehicle_type_id":"4","last_reported":1738850945,"current_range_meters":38800,"station_id":"ce4bhhp2rcd13ifvqfm0","pricing_plan_id":"cebpf4jnsgd1na2vs0mg"},{"bike_id":"7fbda91b-0102-40be-9e2a-bf3405dc2abc","system_id":"levelo_inurba_marseille","lat":43.25832,"lon":5.39434,"is_reserved":false,"is_disabled":false,"rental_uris":{"android":"levelo://app?vid=7fbda91b-0102-40be-9e2a-bf3405dc2abc","ios":"levelo://app?vid=7fbda91b-0102-40be-9e2a-bf3405dc2abc"},"vehicle_type_id":"4","last_reported":1738850945,"current_range_meters":36000,"station_id":"ce4bhip2rcd13ifvqft0","pricing_plan_id":"cebpf4jnsgd1na2vs0mg"},{"bike_id":"dfbcee87-c4f9-402b-8c7a-84cb395e202d","system_id":"levelo_inurba_marseille","lat":43.28112,"lon":5.37836,"is_reserved":false,"is_disabled":false,"rental_uris":{"android":"levelo://app?vid=dfbcee87-c4f9-402b-8c7a-84cb395e202d","ios":"levelo://app?vid=dfbcee87-c4f9-402b-8c7a-84cb395e202d"},"vehicle_type_id":"4","last_reported":1738850945,"current_range_meters":39200,"station_id":"ce4bha12rcd13ifvqee0","pricing_plan_id":"cebpf4jnsgd1na2vs0mg"},{"bike_id":"28e1b22c-6847-4ca0-94e0-b511e35ff41b","system_id":"levelo_inurba_marseille","lat":43.30353,"lon":5.41869,"is_reserved":false,"is_disabled":false,"rental_uris":{"android":"levelo://app?vid=28e1b22c-6847-4ca0-94e0-b511e35ff41b","ios":"levelo://app?vid=28e1b22c-6847-4ca0-94e0-b511e35ff41b"},"vehicle_type_id":"4","last_reported":1738850945,"current_range_meters":33200,"station_id":"ce4bhop2rcd13ifvqh7g","pricing_plan_id":"cebpf4jnsgd1na2vs0mg"},{"bike_id":"fec0e455-3698-4a60-b364-5b72e7a2774c","system_id":"levelo_inurba_marseille","lat":43.3017,"lon":5.38058,"is_reserved":false,"is_disabled":false,"rental_uris":{"android":"levelo://app?vid=fec0e455-3698-4a60-b364-5b72e7a2774c","ios":"levelo://app?vid=fec0e455-3698-4a60-b364-5b72e7a2774c"},"vehicle_type_id":"4","last_reported":1738850945,"current_range_meters":34000,"station_id":"ce4bgjp2rcd13ifvqbh0","pricing_plan_id":"cebpf4jnsgd1na2vs0mg"},{"bike_id":"d45a04f8-7857-4758-9acf-1585b3149811","system_id":"levelo_inurba_marseille","lat":43.27994,"lon":5.40017,"is_reserved":false,"is_disabled":false,"rental_uris":{"android":"levelo://app?vid=d45a04f8-7857-4758-9acf-1585b3149811","ios":"levelo://app?vid=d45a04f8-7857-4758-9acf-1585b3149811"},"vehicle_type_id":"4","last_reported":1738850945,"current_range_meters":33600,"station_id":"ce4bho92rcd13ifvqh4g","pricing_plan_id":"cebpf4jnsgd1na2vs0mg"},{"bike_id":"0ae7beaa-00f4-40f6-bfa7-6b4d92723ad7","system_id":"levelo_inurba_marseille","lat":43.29548,"lon":5.42281,"is_reserved":false,"is_disabled":true,"rental_uris":{"android":"levelo://app?vid=0ae7beaa-00f4-40f6-bfa7-6b4d92723ad7","ios":"levelo://app?vid=0ae7beaa-00f4-40f6-bfa7-6b4d92723ad7"},"vehicle_type_id":"4","last_reported":1738850945,"current_range_meters":0,"station_id":"ce4bhph2rcd13ifvqhdg","pricing_plan_id":"cebpf4jnsgd1na2vs0mg"},{"bike_id":"b5fe7d34-9ac9-4d67-be18-76733a2d2e0e","system_id":"levelo_inurba_marseille","lat":43.30915,"lon":5.36843,"is_reserved":false,"is_disabled":false,"rental_uris":{"android":"levelo://app?vid=b5fe7d34-9ac9-4d67-be18-76733a2d2e0e","ios":"levelo://app?vid=b5fe7d34-9ac9-4d67-be18-76733a2d2e0e"},"vehicle_type_id":"4","last_reported":1738850945,"current_range_meters":38800,"station_id":"ce4bgn92rcd13ifvqbvg","pricing_plan_id":"cebpf4jnsgd1na2vs0mg"},{"bike_id":"63c8956c-b2b5-4faa-8b7d-f821c05dd8c4","system_id":"levelo_inurba_marseille","lat":43.260275,"lon":5.37551,"is_reserved":false,"is_disabled":true,"rental_uris":{"android":"levelo://app?vid=63c8956c-b2b5-4faa-8b7d-f821c05dd8c4","ios":"levelo://app?vid=63c8956c-b2b5-4faa-8b7d-f821c05dd8c4"},"vehicle_type_id":"4","last_reported":1738850945,"current_range_meters":8800,"station_id":"","pricing_plan_id":"cebpf4jnsgd1na2vs0mg"},{"bike_id":"42560082-9214-4ebe-bc19-3059c44cc283","system_id":"levelo_inurba_marseille","lat":43.25831,"lon":5.39425,"is_reserved":false,"is_disabled":false,"rental_uris":{"android":"levelo://app?vid=42560082-9214-4ebe-bc19-3059c44cc283","ios":"levelo://app?vid=42560082-9214-4ebe-bc19-3059c44cc283"},"vehicle_type_id":"4","last_reported":1738850945,"current_range_meters":36400,"station_id":"ce4bhip2rcd13ifvqft0","pricing_plan_id":"cebpf4jnsgd1na2vs0mg"},{"bike_id":"220e0fcd-220a-496d-b73a-65facab74b43","system_id":"levelo_inurba_marseille","lat":43.31369,"lon":5.36728,"is_reserved":false,"is_disabled":false,"rental_uris":{"android":"levelo://app?vid=220e0fcd-220a-496d-b73a-65facab74b43","ios":"levelo://app?vid=220e0fcd-220a-496d-b73a-65facab74b43"},"vehicle_type_id":"4","last_reported":1738850945,"current_range_meters":21600,"station_id":"ce4bgr92rcd13ifvqc6g","pricing_plan_id":"cebpf4jnsgd1na2vs0mg"},{"bike_id":"a7b647d9-1a4b-4ec5-8bea-7b331389070f","system_id":"levelo_inurba_marseille","lat":43.32445,"lon":5.45529,"is_reserved":false,"is_disabled":true,"rental_uris":{"android":"levelo://app?vid=a7b647d9-1a4b-4ec5-8bea-7b331389070f","ios":"levelo://app?vid=a7b647d9-1a4b-4ec5-8bea-7b331389070f"},"vehicle_type_id":"4","last_reported":1738850945,"current_range_meters":16000,"station_id":"","pricing_plan_id":"cebpf4jnsgd1na2vs0mg"},{"bike_id":"982f85c5-1a13-4a94-80d4-b8ba54dad086","system_id":"levelo_inurba_marseille","lat":43.28281,"lon":5.35067,"is_reserved":false,"is_disabled":false,"rental_uris":{"android":"levelo://app?vid=982f85c5-1a13-4a94-80d4-b8ba54dad086","ios":"levelo://app?vid=982f85c5-1a13-4a94-80d4-b8ba54dad086"},"vehicle_type_id":"4","last_reported":1738850945,"current_range_meters":36400,"station_id":"ce4bhbp2rcd13ifvqerg","pricing_plan_id":"cebpf4jnsgd1na2vs0mg"},{"bike_id":"507b15d5-ba45-48e8-80b2-0da7459d7c29","system_id":"levelo_inurba_marseille","lat":43.28148,"lon":5.42639,"is_reserved":false,"is_disabled":false,"rental_uris":{"android":"levelo://app?vid=507b15d5-ba45-48e8-80b2-0da7459d7c29","ios":"levelo://app?vid=507b15d5-ba45-48e8-80b2-0da7459d7c29"},"vehicle_type_id":"4","last_reported":1738850945,"current_range_meters":37600,"station_id":"ce4bhnh2rcd13ifvqgug","pricing_plan_id":"cebpf4jnsgd1na2vs0mg"},{"bike_id":"4eb16c9a-91cc-4eb8-bfd1-5145a1b1560a","system_id":"levelo_inurba_marseille","lat":43.29802,"lon":5.38094,"is_reserved":false,"is_disabled":false,"rental_uris":{"android":"levelo://app?vid=4eb16c9a-91cc-4eb8-bfd1-5145a1b1560a","ios":"levelo://app?vid=4eb16c9a-91cc-4eb8-bfd1-5145a1b1560a"},"vehicle_type_id":"4","last_reported":1738850945,"current_range_meters":26800,"station_id":"ce4bgip2rcd13ifvqbb0","pricing_plan_id":"cebpf4jnsgd1na2vs0mg"},{"bike_id":"fa2d04db-ccf7-4a67-94bb-7d6de09f1586","system_id":"levelo_inurba_marseille","lat":43.29785,"lon":5.38093,"is_reserved":false,"is_disabled":false,"rental_uris":{"android":"levelo://app?vid=fa2d04db-ccf7-4a67-94bb-7d6de09f1586","ios":"levelo://app?vid=fa2d04db-ccf7-4a67-94bb-7d6de09f1586"},"vehicle_type_id":"4","last_reported":1738850945,"current_range_meters":7200,"station_id":"ce4bgip2rcd13ifvqbb0","pricing_plan_id":"cebpf4jnsgd1na2vs0mg"},{"bike_id":"5763888c-527b-4ec2-bacc-2256210be8f7","system_id":"levelo_inurba_marseille","lat":43.29926,"lon":5.36333,"is_reserved":false,"is_disabled":false,"rental_uris":{"android":"levelo://app?vid=5763888c-527b-4ec2-bacc-2256210be8f7","ios":"levelo://app?vid=5763888c-527b-4ec2-bacc-2256210be8f7"},"vehicle_type_id":"4","last_reported":1738850945,"current_range_meters":30800,"station_id":"ce4bgpp2rcd13ifvqc3g","pricing_plan_id":"cebpf4jnsgd1na2vs0mg"},{"bike_id":"969feaef-4bde-4003-b492-3c860b94d6b9","system_id":"levelo_inurba_marseille","lat":43.24165,"lon":5.36395,"is_reserved":false,"is_disabled":false,"rental_uris":{"android":"levelo://app?vid=969feaef-4bde-4003-b492-3c860b94d6b9","ios":"levelo://app?vid=969feaef-4bde-4003-b492-3c860b94d6b9"},"vehicle_type_id":"4","last_reported":1738850945,"current_range_meters":26800,"station_id":"cpo36qri1sfpv3e86is0","pricing_plan_id":"cebpf4jnsgd1na2vs0mg"},{"bike_id":"ad4fa413-e74b-4fdc-8274-d6643bc6a336","system_id":"levelo_inurba_marseille","lat":43.2409,"lon":5.37742,"is_reserved":false,"is_disabled":false,"rental_uris":{"android":"levelo://app?vid=ad4fa413-e74b-4fdc-8274-d6643bc6a336","ios":"levelo://app?vid=ad4fa413-e74b-4fdc-8274-d6643bc6a336"},"vehicle_type_id":"4","last_reported":1738850945,"current_range_meters":16000,"station_id":"ce4bhnp2rcd13ifvqgvg","pricing_plan_id":"cebpf4jnsgd1na2vs0mg"},{"bike_id":"21c83578-46b8-43a0-8266-bb1258849d05","system_id":"levelo_inurba_marseille","lat":43.28954,"lon":5.36387,"is_reserved":false,"is_disabled":false,"rental_uris":{"android":"levelo://app?vid=21c83578-46b8-43a0-8266-bb1258849d05","ios":"levelo://app?vid=21c83578-46b8-43a0-8266-bb1258849d05"},"vehicle_type_id":"4","last_reported":1738850945,"current_range_meters":30000,"station_id":"ce4bhc92rcd13ifvqetg","pricing_plan_id":"cebpf4jnsgd1na2vs0mg"},