{"last_updated":1767524938,"ttl":60,"version":"2.2","data":{"bikes":[{"bike_id":"8b6e1ba0-fc51-45dc-86ba-a7318c6f5399","system_id":"levelo_inurba_marseille","lat":43.27211,"lon":5.39183,"is_reserved":false,"is_disabled":false,"rental_uris":{"android":"levelo://app?vid=8b6e1ba0-fc51-45dc-86ba-a7318c6f5399","ios":"levelo://app?vid=8b6e1ba0-fc51-45dc-86ba-a7318c6f5399"},"vehicle_type_id":"4","last_reported":1767524939,"current_range_meters":2800,"station_id":"ce4bhhp2rcd13ifvqfm0","pricing_plan_id":"cebpf4jnsgd1na2vs0mg"},{"bike_id":"9255467e-14b4-4b38-a086-cb9c5423bc3f","system_id":"levelo_inurba_marseille","lat":43.29362,"lon":5.37899,"is_reserved":false,"is_disabled":false,"rental_uris":{"android":"levelo://app?vid=9255467e-14b4-4b38-a086-cb9c5423bc3f","ios":"levelo://app?vid=9255467e-14b4-4b38-a086-cb9c5423bc3f"},"vehicle_type_id":"4","last_reported":1767524939,"current_range_meters":2800,"station_id":"","pricing_plan_id":"cebpf4jnsgd1na2vs0mg"},{"bike_id":"3b391aa1-1907-4005-88cc-7a9ac12c81d0","system_id":"levelo_inurba_marseille","lat":43.23965,"lon":5.36623,"is_reserved":false,"is_disabled":false,"rental_uris":{"android":"levelo://app?vid=3b391aa1-1907-4005-88cc-7a9ac12c81d0","ios":"levelo://app?vid=3b391aa1-1907-4005-88cc-7a9ac12c81d0"},"vehicle_type_id":"4","last_reported":1767524939,"current_range_meters":2800,"station_id":"ce4bhi12rcd13ifvqfp0","pricing_plan_id":"cebpf4jnsgd1na2vs0mg"},{"bike_id":"1e895ccc-52e7-4971-b1eb-1726250f7268","system_id":"levelo_inurba_marseille","lat":43.22934,"lon":5.35386,"is_reserved":false,"is_disabled":false,"rental_uris":{"android":"levelo://app?vid=1e895ccc-52e7-4971-b1eb-1726250f7268","ios":"levelo://app?vid=1e895ccc-52e7-4971-b1eb-1726250f7268"},"vehicle_type_id":"4","last_reported":1767524939,"current_range_meters":2800,"station_id":"cpo3532slgdg3j2ikp40","pricing_plan_id":"cebpf4jnsgd1na2vs0mg"},{"bike_id":"8ce78bae-db8a-4d0d-a610-7b09e4add19f","system_id":"levelo_inurba_marseille","lat":43.271681,"lon":5.409879,"is_reserved":false,"is_disabled":false,"rental_uris":{"android":"levelo://app?vid=8ce78bae-db8a-4d0d-a610-7b09e4add19f","ios":"levelo://app?vid=8ce78bae-db8a-4d0d-a610-7b09e4add19f"},"vehicle_type_id":"4","last_reported":1767524939,"current_range_meters":2800,"station_id":"ce4bhl12rcd13ifvqgf0","pricing_plan_id":"cebpf4jnsgd1na2vs0mg"},{"bike_id":"8b720c35-4823-48af-825c-0c71ab5317be","system_id":"levelo_inurba_marseille","lat":43.2795,"lon":5.41056,"is_reserved":false,"is_disabled":true,"rental_uris":{"android":"levelo://app?vid=8b720c35-4823-48af-825c-0c71ab5317be","ios":"levelo://app?vid=8b720c35-4823-48af-825c-0c71ab5317be"},"vehicle_type_id":"4","last_reported":1767524939,"current_range_meters":2800,"station_id":"ce4bhnp2rcd13ifvqh0g","pricing_plan_id":"cebpf4jnsgd1na2vs0mg"},{"bike_id":"16f7ce3b-aaef-4561-9704-c45cb874f0b0","system_id":"levelo_inurba_marseille","lat":43.25015,"lon":5.38922,"is_reserved":false,"is_disabled":false,"rental_uris":{"android":"levelo://app?vid=16f7ce3b-aaef-4561-9704-c45cb874f0b0","ios":"levelo://app?vid=16f7ce3b-aaef-4561-9704-c45cb874f0b0"},"vehicle_type_id":"4","last_reported":1767524939,"current_range_meters":2800,"station_id":"ce4bhgp2rcd13ifvqfd0","pricing_plan_id":"cebpf4jnsgd1na2vs0mg"},{"bike_id":"65131df1-0bed-43f7-938b-a392665de4f0","system_id":"levelo_inurba_marseille","lat":43.27067,"lon":5.42286,"is_reserved":false,"is_disabled":false,"rental_uris":{"android":"levelo://app?vid=65131df1-0bed-43f7-938b-a392665de4f0","ios":"levelo://app?vid=65131df1-0bed-43f7-938b-a392665de4f0"},"vehicle_type_id":"4","last_reported":1767524939,"current_range_meters":3200,"station_id":"ce4bhk92rcd13ifvqgb0","pricing_plan_id":"cebpf4jnsgd1na2vs0mg"},{"bike_id":"47a9e8ce-5a44-441a-9695-e8dc7f3c9dfa","system_id":"levelo_inurba_marseille","lat":43.307329,"lon":5.424387,"is_reserved":false,"is_disabled":false,"rental_uris":{"android":"levelo://app?vid=47a9e8ce-5a44-441a-9695-e8dc7f3c9dfa","ios":"levelo://app?vid=47a9e8ce-5a44-441a-9695-e8dc7f3c9dfa"},"vehicle_type_id":"4","last_reported":1767524939,"current_range_meters":3200,"station_id":"st_cvj6ca6bvosntc0bfgr0","pricing_plan_id":"cebpf4jnsgd1na2vs0mg"},{"bike_id":"d21a3e34-58bc-4d1b-9ac9-a8532bb50fd1","system_id":"levelo_inurba_marseille","lat":43.29819,"lon":5.44063,"is_reserved":false,"is_disabled":false,"rental_uris":{"android":"levelo://app?vid=d21a3e34-58bc-4d1b-9ac9-a8532bb50fd1","ios":"levelo://app?vid=d21a3e34-58bc-4d1b-9ac9-a8532bb50fd1"},"vehicle_type_id":"4","last_reported":1767524939,"current_range_meters":3200,"station_id":"st_d3jp68qikq2c7381ktn0","pricing_plan_id":"cebpf4jnsgd1na2vs0mg"},{"bike_id":"00b5a968-4ff7-432e-b0d8-687619036087","system_id":"levelo_inurba_marseille","lat":43.232157,"lon":5.355222,"is_reserved":false,"is_disabled":false,"rental_uris":{"android":"levelo://app?vid=00b5a968-4ff7-432e-b0d8-687619036087","ios":"levelo://app?vid=00b5a968-4ff7-432e-b0d8-687619036087"},"vehicle_type_id":"4","last_reported":1767524939,"current_range_meters":3200,"station_id":"ce4bhu92rcd13ifvqi70","pricing_plan_id":"cebpf4jnsgd1na2vs0mg"},{"bike_id":"34f3a292-6f55-4da9-baea-9c8e3ef09af6","system_id":"levelo_inurba_marseille","lat":43.25499,"lon":5.37655,"is_reserved":false,"is_disabled":false,"rental_uris":{"android":"levelo://app?vid=34f3a292-6f55-4da9-baea-9c8e3ef09af6","ios":"levelo://app?vid=34f3a292-6f55-4da9-baea-9c8e3ef09af6"},"vehicle_type_id":"4","last_reported":1767524939,"current_range_meters":3600,"station_id":"ce4bhh12rcd13ifvqff0","pricing_plan_id":"cebpf4jnsgd1na2vs0mg"},{"bike_id":"6af309a2-8f26-4463-a2f8-b68c7d811285","system_id":"levelo_inurba_marseille","lat":43.30841,"lon":5.37516,"is_reserved":false,"is_disabled":false,"rental_uris":{"android":"levelo://app?vid=6af309a2-8f26-4463-a2f8-b68c7d811285","ios":"levelo://app?vid=6af309a2-8f26-4463-a2f8-b68c7d811285"},"vehicle_type_id":"4","last_reported":1767524939,"current_range_meters":3600,"station_id":"","pricing_plan_id":"cebpf4jnsgd1na2vs0mg"},{"bike_id":"1cb07a07-9f8b-49b3-899d-e4d88daca5ff","system_id":"levelo_inurba_marseille","lat":43.260207,"lon":5.407636,"is_reserved":false,"is_disabled":false,"rental_uris":{"android":"levelo://app?vid=1cb07a07-9f8b-49b3-899d-e4d88daca5ff","ios":"levelo://app?vid=1cb07a07-9f8b-49b3-899d-e4d88daca5ff"},"vehicle_type_id":"4","last_reported":1767524939,"current_range_meters":3600,"station_id":"","pricing_plan_id":"cebpf4jnsgd1na2vs0mg"},{"bike_id":"dc9feb7e-742c-4c15-83bb-7db4fa4848d4","system_id":"levelo_inurba_marseille","lat":43.32845,"lon":5.36683,"is_reserved":false,"is_disabled":false,"rental_uris":{"android":"levelo://app?vid=dc9feb7e-742c-4c15-83bb-7db4fa4848d4","ios":"levelo://app?vid=dc9feb7e-742c-4c15-83bb-7db4fa4848d4"},"vehicle_type_id":"4","last_reported":1767524939,"current_range_meters":3600,"station_id":"","pricing_plan_id":"cebpf4jnsgd1na2vs0mg"},{"bike_id":"be59f674-a0bd-4fc3-a219-9eada39112de","system_id":"levelo_inurba_marseille","lat":43.29961,"lon":5.37362,"is_reserved":false,"is_disabled":false,"rental_uris":{"android":"levelo://app?vid=be59f674-a0bd-4fc3-a219-9eada39112de","ios":"levelo://app?vid=be59f674-a0bd-4fc3-a219-9eada39112de"},"vehicle_type_id":"4","last_reported":1767524939,"current_range_meters":3600,"station_id":"","pricing_plan_id":"cebpf4jnsgd1na2vs0mg"},{"bike_id":"369c8c7b-dd26-491c-8ac1-e59e015c794f","system_id":"levelo_inurba_marseille","lat":43.27804,"lon":5.407,"is_reserved":false,"is_disabled":false,"rental_uris":{"android":"levelo://app?vid=369c8c7b-dd26-491c-8ac1-e59e015c794f","ios":"levelo://app?vid=369c8c7b-dd26-491c-8ac1-e59e015c794f"},"vehicle_type_id":"4","last_reported":1767524939,"current_range_meters":3600,"station_id":"ce4bhnh2rcd13ifvqgtg","pricing_plan_id":"cebpf4jnsgd1na2vs0mg"},{"bike_id":"f6a515b6-0743-4a5b-b2ec-32565099009c","system_id":"levelo_inurba_marseille","lat":43.23784,"lon":5.36631,"is_reserved":false,"is_disabled":false,"rental_uris":{"android":"levelo://app?vid=f6a515b6-0743-4a5b-b2ec-32565099009c","ios":"levelo://app?vid=f6a515b6-0743-4a5b-b2ec-32565099009c"},"vehicle_type_id":"4","last_reported":1767524939,"current_range_meters":3600,"station_id":"st_d3nk18o9ro0c73en2l3g","pricing_plan_id":"cebpf4jnsgd1na2vs0mg"},{"bike_id":"e493b9f3-75a9-4b83-a37d-a0c34b5cbb80","system_id":"levelo_inurba_marseille","lat":43.24654,"lon":5.38896,"is_reserved":false,"is_disabled":false,"rental_uris":{"android":"levelo://app?vid=e493b9f3-75a9-4b83-a37d-a0c34b5cbb80","ios":"levelo://app?vid=e493b9f3-75a9-4b83-a37d-a0c34b5cbb80"},"vehicle_type_id":"4","last_reported":1767524939,"current_range_meters":3600,"station_id":"ce4bhg12rcd13ifvqf60","pricing_plan_id":"cebpf4jnsgd1na2vs0mg"},{"bike_id":"f73476a1-8b2a-42dc-b112-79fd77bdf5e0","system_id":"levelo_inurba_marseille","lat":43.27202,"lon":5.4099,"is_reserved":false,"is_disabled":false,"rental_uris":{"android":"levelo://app?vid=f73476a1-8b2a-42dc-b112-79fd77bdf5e0","ios":"levelo://app?vid=f73476a1-8b2a-42dc-b112-79fd77bdf5e0"},"vehicle_type_id":"4","last_reported":1767524939,"current_range_meters":4000,"station_id":"ce4bhl12rcd13ifvqgf0","pricing_plan_id":"cebpf4jnsgd1na2vs0mg"},{"bike_id":"ddea6b53-a329-474e-b86a-40e23ca5f3fa","system_id":"levelo_inurba_marseille","lat":43.26241,"lon":5.3743,"is_reserved":false,"is_disabled":false,"rental_uris":{"android":"levelo://app?vid=ddea6b53-a329-474e-b86a-40e23ca5f3fa","ios":"levelo://app?vid=ddea6b53-a329-474e-b86a-40e23ca5f3fa"},"vehicle_type_id":"4","last_reported":1767524939,"current_range_meters":4000,"station_id":"ce4bhgp2rcd13ifvqfc0","pricing_plan_id":"cebpf4jnsgd1na2vs0mg"},{"bike_id":"64715ed3-7658-44a3-8c77-eceed2009a4b","system_id":"levelo_inurba_marseille","lat":43.26491,"lon":5.39575,"is_reserved":false,"is_disabled":false,"rental_uris":{"android":"levelo://app?vid=64715ed3-7658-44a3-8c77-eceed2009a4b","ios":"levelo://app?vid=64715ed3-7658-44a3-8c77-eceed2009a4b"},"vehicle_type_id":"4","last_reported":1767524939,"current_range_meters":4000,"station_id":"ce4bhi12rcd13ifvqfq0","pricing_plan_id":"cebpf4jnsgd1na2vs0mg"},{"bike_id":"6a695480-d4c8-47c0-b803-9736ba3ceb74","system_id":"levelo_inurba_marseille","lat":43.279672,"lon":5.387515,"is_reserved":false,"is_disabled":false,"rental_uris":{"android":"levelo://app?vid=6a695480-d4c8-47c0-b803-9736ba3ceb74","ios":"levelo://app?vid=6a695480-d4c8-47c0-b803-9736ba3ceb74"},"vehicle_type_id":"4","last_reported":1767524939,"current_range_meters":4000,"station_id":"ce4bhg12rcd13ifvqf80","pricing_plan_id":"cebpf4jnsgd1na2vs0mg"},{"bike_id":"6c3e8818-c759-425e-b97c-8285e38cf90b","system_id":"levelo_inurba_marseille","lat":43.30314,"lon":5.36887,"is_reserved":false,"is_disabled":false,"rental_uris":{"android":"levelo://app?vid=6c3e8818-c759-425e-b97c-8285e38cf90b","ios":"levelo://app?vid=6c3e8818-c759-425e-b97c-8285e38cf90b"},"vehicle_type_id":"4","last_reported":1767524939,"current_range_meters":4000,"station_id":"ce4bgqh2rcd13ifvqc5g","pricing_plan_id":"cebpf4jnsgd1na2vs0mg"},{"bike_id":"eebd9e1f-1ba5-43d8-ba3e-599639161f1a","system_id":"levelo_inurba_marseille","lat":43.2734,"lon":5.39093,"is_reserved":false,"is_disabled":false,"rental_uris":{"android":"levelo://app?vid=eebd9e1f-1ba5-43d8-ba3e-599639161f1a","ios":"levelo://app?vid=eebd9e1f-1ba5-43d8-ba3e-599639161f1a"},"vehicle_type_id":"4","last_reported":1767524939,"current_range_meters":4000,"station_id":"ce4bhgp2rcd13ifvqfe0","pricing_plan_id":"cebpf4jnsgd1na2vs0mg"},{"bike_id":"a3be4a7c-7544-49a9-8048-28fcde31ea3d","system_id":"levelo_inurba_marseille","lat":43.29272,"lon":5.37328,"is_reserved":false,"is_disabled":false,"rental_uris":{"android":"levelo://app?vid=a3be4a7c-7544-49a9-8048-28fcde31ea3d","ios":"levelo://app?vid=a3be4a7c-7544-49a9-8048-28fcde31ea3d"},"vehicle_type_id":"4","last_reported":1767524939,"current_range_meters":4000,"station_id":"","pricing_plan_id":"cebpf4jnsgd1na2vs0mg"},{"bike_id":"845d7fc8-289b-4401-a88c-4d97fbb37ab7","system_id":"levelo_inurba_marseille","lat":43.27067,"lon":5.40249,"is_reserved":false,"is_disabled":false,"rental_uris":{"android":"levelo://app?vid=845d7fc8-289b-4401-a88c-4d97fbb37ab7","ios":"levelo://app?vid=845d7fc8-289b-4401-a88c-4d97fbb37ab7"},"vehicle_type_id":"4","last_reported":1767524939,"current_range_meters":4000,"station_id":"ce4bhk92rcd13ifvqgc0","pricing_plan_id":"cebpf4jnsgd1na2vs0mg"},{"bike_id":"efd33062-2cef-445f-af98-648f578e9c2a","system_id":"levelo_inurba_marseille","lat":43.32645,"lon":5.41937,"is_reserved":false,"is_disabled":false,"rental_uris":{"android":"levelo://app?vid=efd33062-2cef-445f-af98-648f578e9c2a","ios":"levelo://app?vid=efd33062-2cef-445f-af98-648f578e9c2a"},"vehicle_type_id":"4","last_reported":1767524939,"current_range_meters":4400,"station_id":"","pricing_plan_id":"cebpf4jnsgd1na2vs0mg"},{"bike_id":"27e3db41-e25d-4703-9c18-718b047d8c1b","system_id":"levelo_inurba_marseille","lat":43.3143,"lon":5.38102,"is_reserved":false,"is_disabled":false,"rental_uris":{"android":"levelo://app?vid=27e3db41-e25d-4703-9c18-718b047d8c1b","ios":"levelo://app?vid=27e3db41-e25d-4703-9c18-718b047d8c1b"},"vehicle_type_id":"4","last_reported":1767524939,"current_range_meters":4400,"station_id":"","pricing_plan_id":"cebpf4jnsgd1na2vs0mg"},{"bike_id":"d82eb279-8f28-47b6-b828-dec8db5d8496","system_id":"levelo_inurba_marseille","lat":43.295917,"lon":5.377218,"is_reserved":false,"is_disabled":false,"rental_uris":{"android":"levelo://app?vid=d82eb279-8f28-47b6-b828-dec8db5d8496","ios":"levelo://app?vid=d82eb279-8f28-47b6-b828-dec8db5d8496"},"vehicle_type_id":"4","last_reported":1767524939,"current_range_meters":4400,"station_id":"ce4bgi92rcd13ifvqb90","pricing_plan_id":"cebpf4jnsgd1na2vs0mg"},{"bike_id":"9cba9baa-48dc-42d2-aaaa-ab922cc16ffc","system_id":"levelo_inurba_marseille","lat":43.24069,"lon":5.37751,"is_reserved":false,"is_disabled":false,"rental_uris":{"android":"levelo://app?vid=9cba9baa-48dc-42d2-aaaa-ab922cc16ffc","ios":"levelo://app?vid=9cba9baa-48dc-42d2-aaaa-ab922cc16ffc"},"vehicle_type_id":"4","last_reported":1767524939,"current_range_meters":4400,"station_id":"ce4bhnp2rcd13ifvqgvg","pricing_plan_id":"cebpf4jnsgd1na2vs0mg"},{"bike_id":"faae1c22-eb69-4a6a-9fdd-05bf4896a93c","system_id":"levelo_inurba_marseille","lat":43.285,"lon":5.48425,"is_reserved":false,"is_disabled":false,"rental_uris":{"android":"levelo://app?vid=faae1c22-eb69-4a6a-9fdd-05bf4896a93c","ios":"levelo://app?vid=faae1c22-eb69-4a6a-9fdd-05bf4896a93c"},"vehicle_type_id":"4","last_reported":1767524939,"current_range_meters":4400,"station_id":"","pricing_plan_id":"cebpf4jnsgd1na2vs0mg"},{"bike_id":"650cf425-f87e-4c30-9156-354d5fef94cd","system_id":"levelo_inurba_marseille","lat":43.30113,"lon":5.36765,"is_reserved":false,"is_disabled":false,"rental_uris":{"android":"levelo://app?vid=650cf425-f87e-4c30-9156-354d5fef94cd","ios":"levelo://app?vid=650cf425-f87e-4c30-9156-354d5fef94cd"},"vehicle_type_id":"4","last_reported":1767524939,"current_range_meters":4400,"station_id":"","pricing_plan_id":"cebpf4jnsgd1na2vs0mg"},{"bike_id":"a5e341dd-f678-4ec1-a7c6-1c53bd98d5b6","system_id":"levelo_inurba_marseille","lat":43.29732,"lon":5.38073,"is_reserved":false,"is_disabled":false,"rental_uris":{"android":"levelo://app?vid=a5e341dd-f678-4ec1-a7c6-1c53bd98d5b6","ios":"levelo://app?vid=a5e341dd-f678-4ec1-a7c6-1c53bd98d5b6"},"vehicle_type_id":"4","last_reported":1767524939,"current_range_meters":4400,"station_id":"","pricing_plan_id":"cebpf4jnsgd1na2vs0mg"},{"bike_id":"557fcc01-1a31-4734-96a9-4bc57201480a","system_id":"levelo_inurba_marseille","lat":43.31577,"lon":5.37196,"is_reserved":false,"is_disabled":false,"rental_uris":{"android":"levelo://app?vid=557fcc01-1a31-4734-96a9-4bc57201480a","ios":"levelo://app?vid=557fcc01-1a31-4734-96a9-4bc57201480a"},"vehicle_type_id":"4","last_reported":1767524939,"current_range_meters":4400,"station_id":"","pricing_plan_id":"cebpf4jnsgd1na2vs0mg"},{"bike_id":"607f6356-92f4-49b1-8436-7911c576c661","system_id":"levelo_inurba_marseille","lat":43.29325,"lon":5.3724,"is_reserved":false,"is_disabled":false,"rental_uris":{"android":"levelo://app?vid=607f6356-92f4-49b1-8436-7911c576c661","ios":"levelo://app?vid=607f6356-92f4-49b1-8436-7911c576c661"},"vehicle_type_id":"4","last_reported":1767524939,"current_range_meters":4800,"station_id":"","pricing_plan_id":"cebpf4jnsgd1na2vs0mg"},{"bike_id":"d1028c8d-4c1a-4ce3-bb87-06b106258967","system_id":"levelo_inurba_marseille","lat":43.30071,"lon":5.37105,"is_reserved":false,"is_disabled":false,"rental_uris":{"android":"levelo://app?vid=d1028c8d-4c1a-4ce3-bb87-06b106258967","ios":"levelo://app?vid=d1028c8d-4c1a-4ce3-bb87-06b106258967"},"vehicle_type_id":"4","last_reported":1767524939,"current_range_meters":4800,"station_id":"","pricing_plan_id":"cebpf4jnsgd1na2vs0mg"},{"bike_id":"394b2473-e75b-4508-a6de-dc82472511d3","system_id":"levelo_inurba_marseille","lat":43.26371,"lon":5.41098,"is_reserved":false,"is_disabled":true,"rental_uris":{"android":"levelo://app?vid=394b2473-e75b-4508-a6de-dc82472511d3","ios":"levelo://app?vid=394b2473-e75b-4508-a6de-dc82472511d3"},"vehicle_type_id":"4","last_reported":1767524939,"current_range_meters":4800,"station_id":"","pricing_plan_id":"cebpf4jnsgd1na2vs0mg"},{"bike_id":"7ee1c09d-a306-4e72-a256-6549ce7578c9","system_id":"levelo_inurba_marseille","lat":43.291686,"lon":5.373152,"is_reserved":false,"is_disabled":false,"rental_uris":{"android":"levelo://app?vid=7ee1c09d-a306-4e72-a256-6549ce7578c9","ios":"levelo://app?vid=7ee1c09d-a306-4e72-a256-6549ce7578c9"},"vehicle_type_id":"4","last_reported":1767524939,"current_range_meters":4800,"station_id":"","pricing_plan_id":"cebpf4jnsgd1na2vs0mg"},{"bike_id":"505d1d13-080f-40c4-899c-878d9ed88571","system_id":"levelo_inurba_marseille","lat":43.29972,"lon":5.37176,"is_reserved":false,"is_disabled":false,"rental_uris":{"android":"levelo://app?vid=505d1d13-080f-40c4-899c-878d9ed88571","ios":"levelo://app?vid=505d1d13-080f-40c4-899c-878d9ed88571"},"vehicle_type_id":"4","last_reported":1767524939,"current_range_meters":4800,"station_id":"ce4bgr92rcd13ifvqc7g","pricing_plan_id":"cebpf4jnsgd1na2vs0mg"},{"bike_id":"b8312627-13c4-4db1-bc05-2c9ecea4546c","system_id":"levelo_inurba_marseille","lat":43.28492,"lon":5.39197,"is_reserved":false,"is_disabled":false,"rental_uris":{"android":"levelo://app?vid=b8312627-13c4-4db1-bc05-2c9ecea4546c","ios":"levelo://app?vid=b8312627-13c4-4db1-bc05-2c9ecea4546c"},"vehicle_type_id":"4","last_reported":1767524939,"current_range_meters":4800,"station_id":"","pricing_plan_id":"cebpf4jnsgd1na2vs0mg"},{"bike_id":"4fe55353-c09c-4b85-b594-7f84a667f091","system_id":"levelo_inurba_marseille","lat":43.29568,"lon":5.39966,"is_reserved":false,"is_disabled":false,"rental_uris":{"android":"levelo://app?vid=4fe55353-c09c-4b85-b594-7f84a667f091","ios":"levelo://app?vid=4fe55353-c09c-4b85-b594-7f84a667f091"},"vehicle_type_id":"4","last_reported":1767524939,"current_range_meters":4800,"station_id":"ce4bh312rcd13ifvqdj0","pricing_plan_id":"cebpf4jnsgd1na2vs0mg"},{"bike_id":"c9d548ba-2a02-4b82-91f9-b5968320bd23","system_id":"levelo_inurba_marseille","lat":43.23187,"lon":5.35564,"is_reserved":false,"is_disabled":false,"rental_uris":{"android":"levelo://app?vid=c9d548ba-2a02-4b82-91f9-b5968320bd23","ios":"levelo://app?vid=c9d548ba-2a02-4b82-91f9-b5968320bd23"},"vehicle_type_id":"4","last_reported":1767524939,"current_range_meters":4800,"station_id":"ce4bhu92rcd13ifvqi70","pricing_plan_id":"cebpf4jnsgd1na2vs0mg"},{"bike_id":"79d109b6-d151-44cf-9f49-18f38db8d1e5","system_id":"levelo_inurba_marseille","lat":43.24176,"lon":5.39713,"is_reserved":false,"is_disabled":false,"rental_uris":{"android":"levelo://app?vid=79d109b6-d151-44cf-9f49-18f38db8d1e5","ios":"levelo://app?vid=79d109b6-d151-44cf-9f49-18f38db8d1e5"},"vehicle_type_id":"4","last_reported":1767524939,"current_range_meters":4800,"station_id":"ce4bhn12rcd13ifvqgpg","pricing_plan_id":"cebpf4jnsgd1na2vs0mg"},{"bike_id":"71953d87-3b66-440f-961e-1a3651e4f016","system_id":"levelo_inurba_marseille","lat":43.28477,"lon":5.38415,"is_reserved":false,"is_disabled":false,"rental_uris":{"android":"levelo://app?vid=71953d87-3b66-440f-961e-1a3651e4f016","ios":"levelo://app?vid=71953d87-3b66-440f-961e-1a3651e4f016"},"vehicle_type_id":"4","last_reported":1767524939,"current_range_meters":5600,"station_id":"ce4bh512rcd13ifvqe3g","pricing_plan_id":"cebpf4jnsgd1na2vs0mg"},{"bike_id":"ca0c01c7-fbdb-4547-a3b0-3f7514c0d05b","system_id":"levelo_inurba_marseille","lat":43.28432,"lon":5.3501,"is_reserved":false,"is_disabled":false,"rental_uris":{"android":"levelo://app?vid=ca0c01c7-fbdb-4547-a3b0-3f7514c0d05b","ios":"levelo://app?vid=ca0c01c7-fbdb-4547-a3b0-3f7514c0d05b"},"vehicle_type_id":"4","last_reported":1767524939,"current_range_meters":5600,"station_id":"ce4bhbh2rcd13ifvqepg","pricing_plan_id":"cebpf4jnsgd1na2vs0mg"},{"bike_id":"2bcf6ae4-322c-43d0-9880-65aeda24ed67","system_id":"levelo_inurba_marseille","lat":43.32421,"lon":5.36905,"is_reserved":false,"is_disabled":false,"rental_uris":{"android":"levelo://app?vid=2bcf6ae4-322c-43d0-9880-65aeda24ed67","ios":"levelo://app?vid=2bcf6ae4-322c-43d0-9880-65aeda24ed67"},"vehicle_type_id":"4","last_reported":1767524939,"current_range_meters":5600,"station_id":"","pricing_plan_id":"cebpf4jnsgd1na2vs0mg"},{"bike_id":"bbd145e1-db8d-40b0-b146-2b7542d40bf1","system_id":"levelo_inurba_marseille","lat":43.26808,"lon":5.40292,"is_reserved":false,"is_disabled":false,"rental_uris":{"android":"levelo://app?vid=bbd145e1-db8d-40b0-b146-2b7542d40bf1","ios":"levelo://app?vid=bbd145e1-db8d-40b0-b146-2b7542d40bf1"},"vehicle_type_id":"4","last_reported":1767524939,"current_range_meters":5600,"station_id":"ce501612rcd8frsf0b60","pricing_plan_id":"cebpf4jnsgd1na2vs0mg"},{"bike_id":"32d1c9cb-e782-47ae-910a-dae58bcdf1e2","system_id":"levelo_inurba_marseille","lat":43.24071,"lon":5.37764,"is_reserved":false,"is_disabled":false,"rental_uris":{"android":"levelo://app?vid=32d1c9cb-e782-47ae-910a-dae58bcdf1e2","ios":"levelo://app?vid=32d1c9cb-e782-47ae-910a-dae58bcdf1e2"},"vehicle_type_id":"4","last_reported":1767524939,"current_range_meters":5600,"station_id":"ce4bhnp2rcd13ifvqgvg","pricing_plan_id":"cebpf4jnsgd1na2vs0mg"},{"bike_id":"0cc8f38b-2aab-4edc-80d1-8d77bb645f60","system_id":"levelo_inurba_marseille","lat":43.25508,"lon":5.37678,"is_reserved":false,"is_disabled":true,"rental_uris":{"android":"levelo://app?vid=0cc8f38b-2aab-4edc-80d1-8d77bb645f60","ios":"levelo://app?vid=0cc8f38b-2aab-4edc-80d1-8d77bb645f60"},"vehicle_type_id":"4","last_reported":1767524939,"current_range_meters":5600,"station_id":"ce4bhh12rcd13ifvqff0","pricing_plan_id":"cebpf4jnsgd1na2vs0mg"},{"bike_id":"d49d55fc-f15f-4a66-a00d-73bd545b8ffd","system_id":"levelo_inurba_marseille","lat":43.29134,"lon":5.40088,"is_reserved":false,"is_disabled":false,"rental_uris":{"android":"levelo://app?vid=d49d55fc-f15f-4a66-a00d-73bd545b8ffd","ios":"levelo://app?vid=d49d55fc-f15f-4a66-a00d-73bd545b8ffd"},"vehicle_type_id":"4","last_reported":1767524939,"current_range_meters":5600,"station_id":"","pricing_plan_id":"cebpf4jnsgd1na2vs0mg"},{"bike_id":"fd2d24be-3ca8-4d58-ac4a-6481fce6f9d2","system_id":"levelo_inurba_marseille","lat":43.27074,"lon":5.42273,"is_reserved":false,"is_disabled":false,"rental_uris":{"android":"levelo://app?vid=fd2d24be-3ca8-4d58-ac4a-6481fce6f9d2","ios":"levelo://app?vid=fd2d24be-3ca8-4d58-ac4a-6481fce6f9d2"},"vehicle_type_id":"4","last_reported":1767524939,"current_range_meters":5600,"station_id":"ce4bhk92rcd13ifvqgb0","pricing_plan_id":"cebpf4jnsgd1na2vs0mg"},{"bike_id":"ca48d4ad-26ca-4dea-a200-be3e43176f3f","system_id":"levelo_inurba_marseille","lat":43.33219,"lon":5.41282,"is_reserved":false,"is_disabled":false,"rental_uris":{"android":"levelo://app?vid=ca48d4ad-26ca-4dea-a200-be3e43176f3f","ios":"levelo://app?vid=ca48d4ad-26ca-4dea-a200-be3e43176f3f"},"vehicle_type_id":"4","last_reported":1767524939,"current_range_meters":5600,"station_id":"","pricing_plan_id":"cebpf4jnsgd1na2vs0mg"},{"bike_id":"7d88ce0c-ae9b-49e1-a08d-95a335fd71ed","system_id":"levelo_inurba_marseille","lat":43.2852,"lon":5.44101,"is_reserved":false,"is_disabled":false,"rental_uris":{"android":"levelo://app?vid=7d88ce0c-ae9b-49e1-a08d-95a335fd71ed","ios":"levelo://app?vid=7d88ce0c-ae9b-49e1-a08d-95a335fd71ed"},"vehicle_type_id":"4","last_reported":1767524939,"current_range_meters":5600,"station_id":"st_d3j3df2ikq2c7380ej80","pricing_plan_id":"cebpf4jnsgd1na2vs0mg"},{"bike_id":"32088daf-19b4-43c2-bb3d-ac36d2b03bd3","system_id":"levelo_inurba_marseille","lat":43.2439,"lon":5.37097,"is_reserved":false,"is_disabled":false,"rental_uris":{"android":"levelo://app?vid=32088daf-19b4-43c2-bb3d-ac36d2b03bd3","ios":"levelo://app?vid=32088daf-19b4-43c2-bb3d-ac36d2b03bd3"},"vehicle_type_id":"4","last_reported":1767524939,"current_range_meters":5600,"station_id":"ce4bhhh2rcd13ifvqfk0","pricing_plan_id":"cebpf4jnsgd1na2vs0mg"},{"bike_id":"cf31a556-26b5-4caa-bbaf-7282e2f07a8f","system_id":"levelo_inurba_marseille","lat":43.2926,"lon":5.38451,"is_reserved":false,"is_disabled":false,"rental_uris":{"android":"levelo://app?vid=cf31a556-26b5-4caa-bbaf-7282e2f07a8f","ios":"levelo://app?vid=cf31a556-26b5-4caa-bbaf-7282e2f07a8f"},"vehicle_type_id":"4","last_reported":1767524939,"current_range_meters":5600,"station_id":"ce4bh692rcd13ifvqea0","pricing_plan_id":"cebpf4jnsgd1na2vs0mg"},{"bike_id":"b357b06c-84a1-42eb-85bc-16a2d56a5e8b","system_id":"levelo_inurba_marseille","lat":43.299985,"lon":5.373413,"is_reserved":false,"is_disabled":false,"rental_uris":{"android":"levelo://app?vid=b357b06c-84a1-42eb-85bc-16a2d56a5e8b","ios":"levelo://app?vid=b357b06c-84a1-42eb-85bc-16a2d56a5e8b"},"vehicle_type_id":"4","last_reported":1767524939,"current_range_meters":5600,"station_id":"","pricing_plan_id":"cebpf4jnsgd1na2vs0mg"},{"bike_id":"e987523a-ef8b-4c5d-94b4-e53d7fa7dfe0","system_id":"levelo_inurba_marseille","lat":43.24874,"lon":5.38562,"is_reserved":false,"is_disabled":false,"rental_uris":{"android":"levelo://app?vid=e987523a-ef8b-4c5d-94b4-e53d7fa7dfe0","ios":"levelo://app?vid=e987523a-ef8b-4c5d-94b4-e53d7fa7dfe0"},"vehicle_type_id":"4","last_reported":1767524939,"current_range_meters":6000,"station_id":"","pricing_plan_id":"cebpf4jnsgd1na2vs0mg"},{"bike_id":"093623d6-2d73-411a-8372-4b522432f61f","system_id":"levelo_inurba_marseille","lat":43.2462,"lon":5.43155,"is_reserved":false,"is_disabled":false,"rental_uris":{"android":"levelo://app?vid=093623d6-2d73-411a-8372-4b522432f61f","ios":"levelo://app?vid=093623d6-2d73-411a-8372-4b522432f61f"},"vehicle_type_id":"4","last_reported":1767524939,"current_range_meters":6000,"station_id":"st_d2m6c4gdas8pm72e190g","pricing_plan_id":"cebpf4jnsgd1na2vs0mg"},{"bike_id":"0ea60b5a-c9af-4aa1-a9a6-c7400b878390","system_id":"levelo_inurba_marseille","lat":43.290034,"lon":5.356226,"is_reserved":false,"is_disabled":false,"rental_uris":{"android":"levelo://app?vid=0ea60b5a-c9af-4aa1-a9a6-c7400b878390","ios":"levelo://app?vid=0ea60b5a-c9af-4aa1-a9a6-c7400b878390"},"vehicle_type_id":"4","last_reported":1767524939,"current_range_meters":6000,"station_id":"ce4bhb92rcd13ifvqen0","pricing_plan_id":"cebpf4jnsgd1na2vs0mg"},{"bike_id":"61de8b69-7704-4d24-bebb-39e846fd4b45","system_id":"levelo_inurba_marseille","lat":43.30117,"lon":5.37772,"is_reserved":false,"is_disabled":false,"rental_uris":{"android":"levelo://app?vid=61de8b69-7704-4d24-bebb-39e846fd4b45","ios":"levelo://app?vid=61de8b69-7704-4d24-bebb-39e846fd4b45"},"vehicle_type_id":"4","last_reported":1767524939,"current_range_meters":6000,"station_id":"","pricing_plan_id":"cebpf4jnsgd1na2vs0mg"},{"bike_id":"6a16de9b-b443-4265-8dfb-ab24ccab8dc5","system_id":"levelo_inurba_marseille","lat":43.295172,"lon":5.390413,"is_reserved":false,"is_disabled":false,"rental_uris":{"android":"levelo://app?vid=6a16de9b-b443-4265-8dfb-ab24ccab8dc5","ios":"levelo://app?vid=6a16de9b-b443-4265-8dfb-ab24ccab8dc5"},"vehicle_type_id":"4","last_reported":1767524939,"current_range_meters":6000,"station_id":"ce4bh3p2rcd13ifvqdp0","pricing_plan_id":"cebpf4jnsgd1na2vs0mg"},{"bike_id":"cf1dde7c-2421-4aa1-aa32-84342583dd5b","system_id":"levelo_inurba_marseille","lat":43.24081,"lon":5.37749,"is_reserved":false,"is_disabled":false,"rental_uris":{"android":"levelo://app?vid=cf1dde7c-2421-4aa1-aa32-84342583dd5b","ios":"levelo://app?vid=cf1dde7c-2421-4aa1-aa32-84342583dd5b"},"vehicle_type_id":"4","last_reported":1767524939,"current_range_meters":6000,"station_id":"ce4bhnp2rcd13ifvqgvg","pricing_plan_id":"cebpf4jnsgd1na2vs0mg"},{"bike_id":"006976d2-d3cb-439d-b972-b36d863282da","system_id":"levelo_inurba_marseille","lat":43.28405,"lon":5.34988,"is_reserved":false,"is_disabled":false,"rental_uris":{"android":"levelo://app?vid=006976d2-d3cb-439d-b972-b36d863282da","ios":"levelo://app?vid=006976d2-d3cb-439d-b972-b36d863282da"},"vehicle_type_id":"4","last_reported":1767524939,"current_range_meters":6000,"station_id":"ce4bhbh2rcd13ifvqepg","pricing_plan_id":"cebpf4jnsgd1na2vs0mg"},{"bike_id":"404f2b1d-81e8-46fa-93c1-979440fc0e54","system_id":"levelo_inurba_marseille","lat":43.29833,"lon":5.36273,"is_reserved":false,"is_disabled":false,"rental_uris":{"android":"levelo://app?vid=404f2b1d-81e8-46fa-93c1-979440fc0e54","ios":"levelo://app?vid=404f2b1d-81e8-46fa-93c1-979440fc0e54"},"vehicle_type_id":"4","last_reported":1767524939,"current_range_meters":6000,"station_id":"ce4bgpp2rcd13ifvqc3g","pricing_plan_id":"cebpf4jnsgd1na2vs0mg"},{"bike_id":"8e3b45c6-7fdf-429f-9c1e-6729d3aac358","system_id":"levelo_inurba_marseille","lat":43.3106,"lon":5.37186,"is_reserved":false,"is_disabled":false,"rental_uris":{"android":"levelo://app?vid=8e3b45c6-7fdf-429f-9c1e-6729d3aac358","ios":"levelo://app?vid=8e3b45c6-7fdf-429f-9c1e-6729d3aac358"},"vehicle_type_id":"4","last_reported":1767524939,"current_range_meters":6000,"station_id":"st_d4kl2rp97mjs73e7tdfg","pricing_plan_id":"cebpf4jnsgd1na2vs0mg"},{"bike_id":"94e31e6d-82b1-4a72-8d23-2ac15df71e4c","system_id":"levelo_inurba_marseille","lat":43.28866,"lon":5.42531,"is_reserved":false,"is_disabled":false,"rental_uris":{"android":"levelo://app?vid=94e31e6d-82b1-4a72-8d23-2ac15df71e4c","ios":"levelo://app?vid=94e31e6d-82b1-4a72-8d23-2ac15df71e4c"},"vehicle_type_id":"4","last_reported":1767524939,"current_range_meters":6000,"station_id":"st_d3b462108ojc7389ooeg","pricing_plan_id":"cebpf4jnsgd1na2vs0mg"},{"bike_id":"074722cb-2569-4df8-9492-e46ca66ccdc6","system_id":"levelo_inurba_marseille","lat":43.32231,"lon":5.36716,"is_reserved":false,"is_disabled":false,"rental_uris":{"android":"levelo://app?vid=074722cb-2569-4df8-9492-e46ca66ccdc6","ios":"levelo://app?vid=074722cb-2569-4df8-9492-e46ca66ccdc6"},"vehicle_type_id":"4","last_reported":1767524939,"current_range_meters":6400,"station_id":"","pricing_plan_id":"cebpf4jnsgd1na2vs0mg"},{"bike_id":"472773c4-6498-406d-9fab-c8b8c4a682a5","system_id":"levelo_inurba_marseille","lat":43.30176,"lon":5.36651,"is_reserved":false,"is_disabled":false,"rental_uris":{"android":"levelo://app?vid=472773c4-6498-406d-9fab-c8b8c4a682a5","ios":"levelo://app?vid=472773c4-6498-406d-9fab-c8b8c4a682a5"},"vehicle_type_id":"4","last_reported":1767524939,"current_range_meters":6400,"station_id":"ce4bgrh2rcd13ifvqc8g","pricing_plan_id":"cebpf4jnsgd1na2vs0mg"},{"bike_id":"780fe4f2-2a78-414b-a56d-dd9ca4f3ea66","system_id":"levelo_inurba_marseille","lat":43.29598,"lon":5.38113,"is_reserved":false,"is_disabled":false,"rental_uris":{"android":"levelo://app?vid=780fe4f2-2a78-414b-a56d-dd9ca4f3ea66","ios":"levelo://app?vid=780fe4f2-2a78-414b-a56d-dd9ca4f3ea66"},"vehicle_type_id":"4","last_reported":1767524939,"current_range_meters":6400,"station_id":"ce4bgl12rcd13ifvqbo0","pricing_plan_id":"cebpf4jnsgd1na2vs0mg"},{"bike_id":"5ed51bc0-851e-44e4-9f66-c5e3e5c8f26a","system_id":"levelo_inurba_marseille","lat":43.272064,"lon":5.392005,"is_reserved":false,"is_disabled":true,"rental_uris":{"android":"levelo://app?vid=5ed51bc0-851e-44e4-9f66-c5e3e5c8f26a","ios":"levelo://app?vid=5ed51bc0-851e-44e4-9f66-c5e3e5c8f26a"},"vehicle_type_id":"4","last_reported":1767524939,"current_range_meters":6400,"station_id":"ce4bhhp2rcd13ifvqfm0","pricing_plan_id":"cebpf4jnsgd1na2vs0mg"},{"bike_id":"091087be-27fe-438d-bb66-a525fac98399","system_id":"levelo_inurba_marseille","lat":43.27382,"lon":5.36263,"is_reserved":false,"is_disabled":false,"rental_uris":{"android":"levelo://app?vid=091087be-27fe-438d-bb66-a525fac98399","ios":"levelo://app?vid=091087be-27fe-438d-bb66-a525fac98399"},"vehicle_type_id":"4","last_reported":1767524939,"current_range_meters":6400,"station_id":"ce4bhbh2rcd13ifvqeo0","pricing_plan_id":"cebpf4jnsgd1na2vs0mg"},{"bike_id":"32430d05-1fb8-4eba-b545-baa9ce76d5e5","system_id":"levelo_inurba_marseille","lat":43.28866,"lon":5.42528,"is_reserved":false,"is_disabled":false,"rental_uris":{"android":"levelo://app?vid=32430d05-1fb8-4eba-b545-baa9ce76d5e5","ios":"levelo://app?vid=32430d05-1fb8-4eba-b545-baa9ce76d5e5"},"vehicle_type_id":"4","last_reported":1767524939,"current_range_meters":6400,"station_id":"st_d3b462108ojc7389ooeg","pricing_plan_id":"cebpf4jnsgd1na2vs0mg"},{"bike_id":"1ad626a8-48f8-44b7-8f92-c1cbcf226f43","system_id":"levelo_inurba_marseille","lat":43.24818,"lon":5.37443,"is_reserved":false,"is_disabled":false,"rental_uris":{"android":"levelo://app?vid=1ad626a8-48f8-44b7-8f92-c1cbcf226f43","ios":"levelo://app?vid=1ad626a8-48f8-44b7-8f92-c1cbcf226f43"},"vehicle_type_id":"4","last_reported":1767524939,"current_range_meters":6400,"station_id":"ce4bhgh2rcd13ifvqfb0","pricing_plan_id":"cebpf4jnsgd1na2vs0mg"},{"bike_id":"96d87c0e-8e58-4458-9a61-596f9aad61aa","system_id":"levelo_inurba_marseille","lat":43.21185,"lon":5.35095,"is_reserved":false,"is_disabled":false,"rental_uris":{"android":"levelo://app?vid=96d87c0e-8e58-4458-9a61-596f9aad61aa","ios":"levelo://app?vid=96d87c0e-8e58-4458-9a61-596f9aad61aa"},"vehicle_type_id":"4","last_reported":1767524939,"current_range_meters":6400,"station_id":"st_cvj6sg6p6f1abm77japg","pricing_plan_id":"cebpf4jnsgd1na2vs0mg"},{"bike_id":"8daa6ea0-c51c-417e-b7c7-aa57a3739cb8","system_id":"levelo_inurba_marseille","lat":43.29736,"lon":5.38073,"is_reserved":false,"is_disabled":false,"rental_uris":{"android":"levelo://app?vid=8daa6ea0-c51c-417e-b7c7-aa57a3739cb8","ios":"levelo://app?vid=8daa6ea0-c51c-417e-b7c7-aa57a3739cb8"},"vehicle_type_id":"4","last_reported":1767524939,"current_range_meters":6400,"station_id":"","pricing_plan_id":"cebpf4jnsgd1na2vs0mg"},{"bike_id":"d16182f3-e665-458f-b0d2-66b3db8796ce","system_id":"levelo_inurba_marseille","lat":43.26214,"lon":5.37468,"is_reserved":false,"is_disabled":false,"rental_uris":{"android":"levelo://app?vid=d16182f3-e665-458f-b0d2-66b3db8796ce","ios":"levelo://app?vid=d16182f3-e665-458f-b0d2-66b3db8796ce"},"vehicle_type_id":"4","last_reported":1767524939,"current_range_meters":6400,"station_id":"ce4bhgp2rcd13ifvqfc0","pricing_plan_id":"cebpf4jnsgd1na2vs0mg"},{"bike_id":"4f9276e2-ba43-4c1d-afca-9c0080feecdf","system_id":"levelo_inurba_marseille","lat":43.32338,"lon":5.36761,"is_reserved":false,"is_disabled":false,"rental_uris":{"android":"levelo://app?vid=4f9276e2-ba43-4c1d-afca-9c0080feecdf","ios":"levelo://app?vid=4f9276e2-ba43-4c1d-afca-9c0080feecdf"},"vehicle_type_id":"4","last_reported":1767524939,"current_range_meters":6400,"station_id":"ce4bhsh2rcd13ifvqi2g","pricing_plan_id":"cebpf4jnsgd1na2vs0mg"},{"bike_id":"9a67c4b7-b002-47fb-91b0-cf920a32496e","system_id":"levelo_inurba_marseille","lat":43.26563,"lon":5.4032,"is_reserved":false,"is_disabled":false,"rental_uris":{"android":"levelo://app?vid=9a67c4b7-b002-47fb-91b0-cf920a32496e","ios":"levelo://app?vid=9a67c4b7-b002-47fb-91b0-cf920a32496e"},"vehicle_type_id":"4","last_reported":1767524939,"current_range_meters":6400,"station_id":"ce4bhmp2rcd13ifvqgng","pricing_plan_id":"cebpf4jnsgd1na2vs0mg"},{"bike_id":"9146e3a6-be55-46b1-bb09-dd2fbe8c5861","system_id":"levelo_inurba_marseille","lat":43.30545,"lon":5.3669,"is_reserved":false,"is_disabled":false,"rental_uris":{"android":"levelo://app?vid=9146e3a6-be55-46b1-bb09-dd2fbe8c5861","ios":"levelo://app?vid=9146e3a6-be55-46b1-bb09-dd2fbe8c5861"},"vehicle_type_id":"4","last_reported":1767524939,"current_range_meters":6400,"station_id":"ce4bgrp2rcd13ifvqc9g","pricing_plan_id":"cebpf4jnsgd1na2vs0mg"},{"bike_id":"4dc8c32f-96ad-4bbe-8f82-5ce45a16b000","system_id":"levelo_inurba_marseille","lat":43.26196,"lon":5.37468,"is_reserved":false,"is_disabled":false,"rental_uris":{"android":"levelo://app?vid=4dc8c32f-96ad-4bbe-8f82-5ce45a16b000","ios":"levelo://app?vid=4dc8c32f-96ad-4bbe-8f82-5ce45a16b000"},"vehicle_type_id":"4","last_reported":1767524939,"current_range_meters":6400,"station_id":"ce4bhgp2rcd13ifvqfc0","pricing_plan_id":"cebpf4jnsgd1na2vs0mg"},{"bike_id":"55a7fced-b1cf-4260-b657-21d693c02d14","system_id":"levelo_inurba_marseille","lat":43.28405,"lon":5.37512,"is_reserved":false,"is_disabled":false,"rental_uris":{"android":"levelo://app?vid=55a7fced-b1cf-4260-b657-21d693c02d14","ios":"levelo://app?vid=55a7fced-b1cf-4260-b657-21d693c02d14"},"vehicle_type_id":"4","last_reported":1767524939,"current_range_meters":6400,"station_id":"ce4bh412rcd13ifvqds0","pricing_plan_id":"cebpf4jnsgd1na2vs0mg"},{"bike_id":"488bbe71-5d11-4c78-b0d1-df86f5509b1d","system_id":"levelo_inurba_marseille","lat":43.23803,"lon":5.36615,"is_reserved":false,"is_disabled":false,"rental_uris":{"android":"levelo://app?vid=488bbe71-5d11-4c78-b0d1-df86f5509b1d","ios":"levelo://app?vid=488bbe71-5d11-4c78-b0d1-df86f5509b1d"},"vehicle_type_id":"4","last_reported":1767524939,"current_range_meters":6400,"station_id":"st_d3nk18o9ro0c73en2l3g","pricing_plan_id":"cebpf4jnsgd1na2vs0mg"},{"bike_id":"a422aee7-b5c0-4b42-99ef-a8418f02ed18","system_id":"levelo_inurba_marseille","lat":43.27203,"lon":5.39187,"is_reserved":false,"is_disabled":false,"rental_uris":{"android":"levelo://app?vid=a422aee7-b5c0-4b42-99ef-a8418f02ed18","ios":"levelo://app?vid=a422aee7-b5c0-4b42-99ef-a8418f02ed18"},"vehicle_type_id":"4","last_reported":1767524939,"current_range_meters":6400,"station_id":"ce4bhhp2rcd13ifvqfm0","pricing_plan_id":"cebpf4jnsgd1na2vs0mg"},{"bike_id":"e6d9500a-84c5-42cc-8272-3c33a326b727","system_id":"levelo_inurba_marseille","lat":43.30736,"lon":5.42445,"is_reserved":false,"is_disabled":false,"rental_uris":{"android":"levelo://app?vid=e6d9500a-84c5-42cc-8272-3c33a326b727","ios":"levelo://app?vid=e6d9500a-84c5-42cc-8272-3c33a326b727"},"vehicle_type_id":"4","last_reported":1767524939,"current_range_meters":6400,"station_id":"st_cvj6ca6bvosntc0bfgr0","pricing_plan_id":"cebpf4jnsgd1na2vs0mg"},{"bike_id":"82f74916-00b6-44e6-bc57-ee096a3fdb34","system_id":"levelo_inurba_marseille","lat":43.29629,"lon":5.37175,"is_reserved":false,"is_disabled":false,"rental_uris":{"android":"levelo://app?vid=82f74916-00b6-44e6-bc57-ee096a3fdb34","ios":"levelo://app?vid=82f74916-00b6-44e6-bc57-ee096a3fdb34"},"vehicle_type_id":"4","last_reported":1767524939,"current_range_meters":6400,"station_id":"ce4bgnh2rcd13ifvqc0g","pricing_plan_id":"cebpf4jnsgd1na2vs0mg"},{"bike_id":"b528ff97-90f2-4872-a138-8b849d2b5c41","system_id":"levelo_inurba_marseille","lat":43.28105,"lon":5.37835,"is_reserved":false,"is_disabled":false,"rental_uris":{"android":"levelo://app?vid=b528ff97-90f2-4872-a138-8b849d2b5c41","ios":"levelo://app?vid=b528ff97-90f2-4872-a138-8b849d2b5c41"},"vehicle_type_id":"4","last_reported":1767524939,"current_range_meters":6400,"station_id":"ce4bha12rcd13ifvqee0","pricing_plan_id":"cebpf4jnsgd1na2vs0mg"},{"bike_id":"e8cb542a-c910-418d-8827-3aecad0225e3","system_id":"levelo_inurba_marseille","lat":43.284162,"lon":5.349876,"is_reserved":false,"is_disabled":false,"rental_uris":{"android":"levelo://app?vid=e8cb542a-c910-418d-8827-3aecad0225e3","ios":"levelo://app?vid=e8cb542a-c910-418d-8827-3aecad0225e3"},"vehicle_type_id":"4","last_reported":1767524939,"current_range_meters":6400,"station_id":"ce4bhbh2rcd13ifvqepg","pricing_plan_id":"cebpf4jnsgd1na2vs0mg"},{"bike_id":"ae4ca530-5766-4aae-ab2c-1027abc712b8","system_id":"levelo_inurba_marseille","lat":43.29523,"lon":5.3941,"is_reserved":false,"is_disabled":false,"rental_uris":{"android":"levelo://app?vid=ae4ca530-5766-4aae-ab2c-1027abc712b8","ios":"levelo://app?vid=ae4ca530-5766-4aae-ab2c-1027abc712b8"},"vehicle_type_id":"4","last_reported":1767524939,"current_range_meters":6400,"station_id":"ce4bh292rcd13ifvqdf0","pricing_plan_id":"cebpf4jnsgd1na2vs0mg"},{"bike_id":"ae6f1814-1127-41bd-aee5-135e4e6cf9dc","system_id":"levelo_inurba_marseille","lat":43.310794,"lon":5.383293,"is_reserved":false,"is_disabled":false,"rental_uris":{"android":"levelo://app?vid=ae6f1814-1127-41bd-aee5-135e4e6cf9dc","ios":"levelo://app?vid=ae6f1814-1127-41bd-aee5-135e4e6cf9dc"},"vehicle_type_id":"4","last_reported":1767524939,"current_range_meters":6800,"station_id":"","pricing_plan_id":"cebpf4jnsgd1na2vs0mg"},{"bike_id":"c3f97c6b-2dc7-4135-9316-e5d0c425f8a0","system_id":"levelo_inurba_marseille","lat":43.26945,"lon":5.38664,"is_reserved":false,"is_disabled":false,"rental_uris":{"android":"levelo://app?vid=c3f97c6b-2dc7-4135-9316-e5d0c425f8a0","ios":"levelo://app?vid=c3f97c6b-2dc7-4135-9316-e5d0c425f8a0"},"vehicle_type_id":"4","last_reported":1767524939,"current_range_meters":6800,"station_id":"ce4bhh92rcd13ifvqfh0","pricing_plan_id":"cebpf4jnsgd1na2vs0mg"},{"bike_id":"fcd440e6-5539-4d36-8905-9b19c9c5332a","system_id":"levelo_inurba_marseille","lat":43.27114,"lon":5.39141,"is_reserved":false,"is_disabled":false,"rental_uris":{"android":"levelo://app?vid=fcd440e6-5539-4d36-8905-9b19c9c5332a","ios":"levelo://app?vid=fcd440e6-5539-4d36-8905-9b19c9c5332a"},"vehicle_type_id":"4","last_reported":1767524939,"current_range_meters":6800,"station_id":"","pricing_plan_id":"cebpf4jnsgd1na2vs0mg"},{"bike_id":"17e06372-e52b-4bdd-90cd-8338755c84dc","system_id":"levelo_inurba_marseille","lat":43.23136,"lon":5.43721,"is_reserved":false,"is_disabled":false,"rental_uris":{"android":"levelo://app?vid=17e06372-e52b-4bdd-90cd-8338755c84dc","ios":"levelo://app?vid=17e06372-e52b-4bdd-90cd-8338755c84dc"},"vehicle_type_id":"4","last_reported":1767524939,"current_range_meters":6800,"station_id":"ce4bhmp2rcd13ifvqgog","pricing_plan_id":"cebpf4jnsgd1na2vs0mg"},{"bike_id":"e44cab74-f685-400b-b393-d23149de2a52","system_id":"levelo_inurba_marseille","lat":43.241629,"lon":5.363926,"is_reserved":false,"is_disabled":false,"rental_uris":{"android":"levelo://app?vid=e44cab74-f685-400b-b393-d23149de2a52","ios":"levelo://app?vid=e44cab74-f685-400b-b393-d23149de2a52"},"vehicle_type_id":"4","last_reported":1767524939,"current_range_meters":6800,"station_id":"cpo36qri1sfpv3e86is0","pricing_plan_id":"cebpf4jnsgd1na2vs0mg"},{"bike_id":"57b725a6-cdde-4849-96a9-7686225f0651","system_id":"levelo_inurba_marseille","lat":43.2848,"lon":5.38407,"is_reserved":false,"is_disabled":false,"rental_uris":{"android":"levelo://app?vid=57b725a6-cdde-4849-96a9-7686225f0651","ios":"levelo://app?vid=57b725a6-cdde-4849-96a9-7686225f0651"},"vehicle_type_id":"4","last_reported":1767524939,"current_range_meters":6800,"station_id":"ce4bh512rcd13ifvqe3g","pricing_plan_id":"cebpf4jnsgd1na2vs0mg"},{"bike_id":"b98c4bb3-e84f-4703-8006-455cb12ed450","system_id":"levelo_inurba_marseille","lat":43.28831,"lon":5.42629,"is_reserved":false,"is_disabled":false,"rental_uris":{"android":"levelo://app?vid=b98c4bb3-e84f-4703-8006-455cb12ed450","ios":"levelo://app?vid=b98c4bb3-e84f-4703-8006-455cb12ed450"},"vehicle_type_id":"4","last_reported":1767524939,"current_range_meters":6800,"station_id":"","pricing_plan_id":"cebpf4jnsgd1na2vs0mg"},{"bike_id":"7f82846f-a9c2-426e-b04f-d573601c2c1e","system_id":"levelo_inurba_marseille","lat":43.24615,"lon":5.43162,"is_reserved":false,"is_disabled":false,"rental_uris":{"android":"levelo://app?vid=7f82846f-a9c2-426e-b04f-d573601c2c1e","ios":"levelo://app?vid=7f82846f-a9c2-426e-b04f-d573601c2c1e"},"vehicle_type_id":"4","last_reported":1767524939,"current_range_meters":6800,"station_id":"st_d2m6c4gdas8pm72e190g","pricing_plan_id":"cebpf4jnsgd1na2vs0mg"},{"bike_id":"dfbf7730-1239-44b2-83d1-75c00941c80b","system_id":"levelo_inurba_marseille","lat":43.25572,"lon":5.38236,"is_reserved":false,"is_disabled":true,"rental_uris":{"android":"levelo://app?vid=dfbf7730-1239-44b2-83d1-75c00941c80b","ios":"levelo://app?vid=dfbf7730-1239-44b2-83d1-75c00941c80b"},"vehicle_type_id":"4","last_reported":1767524939,"current_range_meters":7200,"station_id":"ce4bhih2rcd13ifvqfs0","pricing_plan_id":"cebpf4jnsgd1na2vs0mg"},{"bike_id":"9588ba3f-cf5c-4fa8-9bf1-3d55c8e10938","system_id":"levelo_inurba_marseille","lat":43.28621,"lon":5.35108,"is_reserved":false,"is_disabled":false,"rental_uris":{"android":"levelo://app?vid=9588ba3f-cf5c-4fa8-9bf1-3d55c8e10938","ios":"levelo://app?vid=9588ba3f-cf5c-4fa8-9bf1-3d55c8e10938"},"vehicle_type_id":"4","last_reported":1767524939,"current_range_meters":7200,"station_id":"ce4bhch2rcd13ifvqeug","pricing_plan_id":"cebpf4jnsgd1na2vs0mg"},{"bike_id":"0dc92e3e-3c5f-49a4-8bc0-0e42b6481b83","system_id":"levelo_inurba_marseille","lat":43.238,"lon":5.36636,"is_reserved":false,"is_disabled":false,"rental_uris":{"android":"levelo://app?vid=0dc92e3e-3c5f-49a4-8bc0-0e42b6481b83","ios":"levelo://app?vid=0dc92e3e-3c5f-49a4-8bc0-0e42b6481b83"},"vehicle_type_id":"4","last_reported":1767524939,"current_range_meters":7200,"station_id":"st_d3nk18o9ro0c73en2l3g","pricing_plan_id":"cebpf4jnsgd1na2vs0mg"},{"bike_id":"d4e62b51-cbbc-4684-91ae-3203f81121b2","system_id":"levelo_inurba_marseille","lat":43.2848,"lon":5.38572,"is_reserved":false,"is_disabled":false,"rental_uris":{"android":"levelo://app?vid=d4e62b51-cbbc-4684-91ae-3203f81121b2","ios":"levelo://app?vid=d4e62b51-cbbc-4684-91ae-3203f81121b2"},"vehicle_type_id":"4","last_reported":1767524939,"current_range_meters":7200,"station_id":"ce4bh8p2rcd13ifvqeb0","pricing_plan_id":"cebpf4jnsgd1na2vs0mg"},{"bike_id":"dd3326ea-ad71-4f86-88d6-f79309f37529","system_id":"levelo_inurba_marseille","lat":43.2441,"lon":5.37035,"is_reserved":false,"is_disabled":false,"rental_uris":{"android":"levelo://app?vid=dd3326ea-ad71-4f86-88d6-f79309f37529","ios":"levelo://app?vid=dd3326ea-ad71-4f86-88d6-f79309f37529"},"vehicle_type_id":"4","last_reported":1767524939,"current_range_meters":7200,"station_id":"ce4bhhh2rcd13ifvqfk0","pricing_plan_id":"cebpf4jnsgd1na2vs0mg"},{"bike_id":"85246bf5-791b-4c2f-925f-a931bac4026e","system_id":"levelo_inurba_marseille","lat":43.301237,"lon":5.431127,"is_reserved":false,"is_disabled":false,"rental_uris":{"android":"levelo://app?vid=85246bf5-791b-4c2f-925f-a931bac4026e","ios":"levelo://app?vid=85246bf5-791b-4c2f-925f-a931bac4026e"},"vehicle_type_id":"4","last_reported":1767524939,"current_range_meters":7200,"station_id":"st_d3js3co5814s73ftftug","pricing_plan_id":"cebpf4jnsgd1na2vs0mg"},{"bike_id":"99b4eb98-b7eb-4379-a6b2-33d1211601ee","system_id":"levelo_inurba_marseille","lat":43.30043,"lon":5.3859,"is_reserved":false,"is_disabled":false,"rental_uris":{"android":"levelo://app?vid=99b4eb98-b7eb-4379-a6b2-33d1211601ee","ios":"levelo://app?vid=99b4eb98-b7eb-4379-a6b2-33d1211601ee"},"vehicle_type_id":"4","last_reported":1767524939,"current_range_meters":7200,"station_id":"","pricing_plan_id":"cebpf4jnsgd1na2vs0mg"},{"bike_id":"b97b9366-c081-4745-90ed-0e833c3a2f7c","system_id":"levelo_inurba_marseille","lat":43.33155,"lon":5.38185,"is_reserved":false,"is_disabled":false,"rental_uris":{"android":"levelo://app?vid=b97b9366-c081-4745-90ed-0e833c3a2f7c","ios":"levelo://app?vid=b97b9366-c081-4745-90ed-0e833c3a2f7c"},"vehicle_type_id":"4","last_reported":1767524939,"current_range_meters":7200,"station_id":"","pricing_plan_id":"cebpf4jnsgd1na2vs0mg"},{"bike_id":"069e0897-8da2-45e6-aee3-9dedd86fd186","system_id":"levelo_inurba_marseille","lat":43.26195,"lon":5.37455,"is_reserved":false,"is_disabled":false,"rental_uris":{"android":"levelo://app?vid=069e0897-8da2-45e6-aee3-9dedd86fd186","ios":"levelo://app?vid=069e0897-8da2-45e6-aee3-9dedd86fd186"},"vehicle_type_id":"4","last_reported":1767524939,"current_range_meters":7200,"station_id":"ce4bhgp2rcd13ifvqfc0","pricing_plan_id":"cebpf4jnsgd1na2vs0mg"},{"bike_id":"ec47e74c-4c77-4ced-84eb-ad537c50b956","system_id":"levelo_inurba_marseille","lat":43.21771,"lon":5.34582,"is_reserved":false,"is_disabled":true,"rental_uris":{"android":"levelo://app?vid=ec47e74c-4c77-4ced-84eb-ad537c50b956","ios":"levelo://app?vid=ec47e74c-4c77-4ced-84eb-ad537c50b956"},"vehicle_type_id":"4","last_reported":1767524939,"current_range_meters":7200,"station_id":"st_cvj6r9ubvosntc0bgbag","pricing_plan_id":"cebpf4jnsgd1na2vs0mg"},{"bike_id":"6cad8280-fc4b-4b0f-a8a3-e93f83014d9f","system_id":"levelo_inurba_marseille","lat":43.27913,"lon":5.37998,"is_reserved":false,"is_disabled":false,"rental_uris":{"android":"levelo://app?vid=6cad8280-fc4b-4b0f-a8a3-e93f83014d9f","ios":"levelo://app?vid=6cad8280-fc4b-4b0f-a8a3-e93f83014d9f"},"vehicle_type_id":"4","last_reported":1767524939,"current_range_meters":7200,"station_id":"ce4bhf92rcd13ifvqf50","pricing_plan_id":"cebpf4jnsgd1na2vs0mg"},{"bike_id":"a414d67b-9afa-4a87-9fac-f67cdff12698","system_id":"levelo_inurba_marseille","lat":43.29415,"lon":5.37982,"is_reserved":false,"is_disabled":false,"rental_uris":{"android":"levelo://app?vid=a414d67b-9afa-4a87-9fac-f67cdff12698","ios":"levelo://app?vid=a414d67b-9afa-4a87-9fac-f67cdff12698"},"vehicle_type_id":"4","last_reported":1767524939,"current_range_meters":7200,"station_id":"","pricing_plan_id":"cebpf4jnsgd1na2vs0mg"},{"bike_id":"35d860d4-6ea7-4d26-b614-c09aa12978bc","system_id":"levelo_inurba_marseille","lat":43.28847,"lon":5.35812,"is_reserved":false,"is_disabled":false,"rental_uris":{"android":"levelo://app?vid=35d860d4-6ea7-4d26-b614-c09aa12978bc","ios":"levelo://app?vid=35d860d4-6ea7-4d26-b614-c09aa12978bc"},"vehicle_type_id":"4","last_reported":1767524939,"current_range_meters":7200,"station_id":"ce4bhb12rcd13ifvqem0","pricing_plan_id":"cebpf4jnsgd1na2vs0mg"},{"bike_id":"f257b2d0-1f16-4656-837f-b9ab9f001b03","system_id":"levelo_inurba_marseille","lat":43.22568,"lon":5.41628,"is_reserved":false,"is_disabled":false,"rental_uris":{"android":"levelo://app?vid=f257b2d0-1f16-4656-837f-b9ab9f001b03","ios":"levelo://app?vid=f257b2d0-1f16-4656-837f-b9ab9f001b03"},"vehicle_type_id":"4","last_reported":1767524939,"current_range_meters":7200,"station_id":"st_d2o4gvlbi1j2169b742g","pricing_plan_id":"cebpf4jnsgd1na2vs0mg"},{"bike_id":"73428eec-4c36-4c5f-9923-72dd40a75189","system_id":"levelo_inurba_marseille","lat":43.28181,"lon":5.42669,"is_reserved":false,"is_disabled":false,"rental_uris":{"android":"levelo://app?vid=73428eec-4c36-4c5f-9923-72dd40a75189","ios":"levelo://app?vid=73428eec-4c36-4c5f-9923-72dd40a75189"},"vehicle_type_id":"4","last_reported":1767524939,"current_range_meters":7200,"station_id":"ce4bhnh2rcd13ifvqgug","pricing_plan_id":"cebpf4jnsgd1na2vs0mg"},{"bike_id":"620cf3b0-e3f5-40c8-97cc-531cf5c3a491","system_id":"levelo_inurba_marseille","lat":43.26381,"lon":5.41062,"is_reserved":false,"is_disabled":false,"rental_uris":{"android":"levelo://app?vid=620cf3b0-e3f5-40c8-97cc-531cf5c3a491","ios":"levelo://app?vid=620cf3b0-e3f5-40c8-97cc-531cf5c3a491"},"vehicle_type_id":"4","last_reported":1767524939,"current_range_meters":7200,"station_id":"st_d4e5ca6na9uc73bfl5fg","pricing_plan_id":"cebpf4jnsgd1na2vs0mg"},{"bike_id":"4e839bab-c0a4-4f9b-8de3-cb292b501eb1","system_id":"levelo_inurba_marseille","lat":43.225341,"lon":5.348293,"is_reserved":false,"is_disabled":false,"rental_uris":{"android":"levelo://app?vid=4e839bab-c0a4-4f9b-8de3-cb292b501eb1","ios":"levelo://app?vid=4e839bab-c0a4-4f9b-8de3-cb292b501eb1"},"vehicle_type_id":"4","last_reported":1767524939,"current_range_meters":7200,"station_id":"","pricing_plan_id":"cebpf4jnsgd1na2vs0mg"},{"bike_id":"6143984b-0a96-4b29-b519-3f892095162a","system_id":"levelo_inurba_marseille","lat":43.27333,"lon":5.39097,"is_reserved":false,"is_disabled":false,"rental_uris":{"android":"levelo://app?vid=6143984b-0a96-4b29-b519-3f892095162a","ios":"levelo://app?vid=6143984b-0a96-4b29-b519-3f892095162a"},"vehicle_type_id":"4","last_reported":1767524939,"current_range_meters":7200,"station_id":"ce4bhgp2rcd13ifvqfe0","pricing_plan_id":"cebpf4jnsgd1na2vs0mg"},{"bike_id":"840f276e-700f-48ec-8b26-b60379b1fa8a","system_id":"levelo_inurba_marseille","lat":43.27071,"lon":5.42283,"is_reserved":false,"is_disabled":false,"rental_uris":{"android":"levelo://app?vid=840f276e-700f-48ec-8b26-b60379b1fa8a","ios":"levelo://app?vid=840f276e-700f-48ec-8b26-b60379b1fa8a"},"vehicle_type_id":"4","last_reported":1767524939,"current_range_meters":7200,"station_id":"ce4bhk92rcd13ifvqgb0","pricing_plan_id":"cebpf4jnsgd1na2vs0mg"},{"bike_id":"e5b67b5a-c8d0-472e-9a13-90564c90a0fc","system_id":"levelo_inurba_marseille","lat":43.28281,"lon":5.35077,"is_reserved":false,"is_disabled":false,"rental_uris":{"android":"levelo://app?vid=e5b67b5a-c8d0-472e-9a13-90564c90a0fc","ios":"levelo://app?vid=e5b67b5a-c8d0-472e-9a13-90564c90a0fc"},"vehicle_type_id":"4","last_reported":1767524939,"current_range_meters":7200,"station_id":"ce4bhbp2rcd13ifvqerg","pricing_plan_id":"cebpf4jnsgd1na2vs0mg"},{"bike_id":"dd1e0418-c61b-4102-a323-55dfd0941e3d","system_id":"levelo_inurba_marseille","lat":43.23193,"lon":5.35563,"is_reserved":false,"is_disabled":false,"rental_uris":{"android":"levelo://app?vid=dd1e0418-c61b-4102-a323-55dfd0941e3d","ios":"levelo://app?vid=dd1e0418-c61b-4102-a323-55dfd0941e3d"},"vehicle_type_id":"4","last_reported":1767524939,"current_range_meters":7200,"station_id":"ce4bhu92rcd13ifvqi70","pricing_plan_id":"cebpf4jnsgd1na2vs0mg"},{"bike_id":"69161e8f-51d3-4034-b7dc-9a0c99d58e5d","system_id":"levelo_inurba_marseille","lat":43.29719,"lon":5.37815,"is_reserved":false,"is_disabled":false,"rental_uris":{"android":"levelo://app?vid=69161e8f-51d3-4034-b7dc-9a0c99d58e5d","ios":"levelo://app?vid=69161e8f-51d3-4034-b7dc-9a0c99d58e5d"},"vehicle_type_id":"4","last_reported":1767524939,"current_range_meters":7200,"station_id":"","pricing_plan_id":"cebpf4jnsgd1na2vs0mg"},{"bike_id":"9266c9ee-84f2-41f3-ba5f-42f44b708c8b","system_id":"levelo_inurba_marseille","lat":43.246307,"lon":5.431545,"is_reserved":false,"is_disabled":false,"rental_uris":{"android":"levelo://app?vid=9266c9ee-84f2-41f3-ba5f-42f44b708c8b","ios":"levelo://app?vid=9266c9ee-84f2-41f3-ba5f-42f44b708c8b"},"vehicle_type_id":"4","last_reported":1767524939,"current_range_meters":7200,"station_id":"st_d2m6c4gdas8pm72e190g","pricing_plan_id":"cebpf4jnsgd1na2vs0mg"},{"bike_id":"8b09ef17-467c-4a61-8aa1-3d3e9ae5c78d","system_id":"levelo_inurba_marseille","lat":43.279475,"lon":5.410461,"is_reserved":false,"is_disabled":false,"rental_uris":{"android":"levelo://app?vid=8b09ef17-467c-4a61-8aa1-3d3e9ae5c78d","ios":"levelo://app?vid=8b09ef17-467c-4a61-8aa1-3d3e9ae5c78d"},"vehicle_type_id":"4","last_reported":1767524939,"current_range_meters":8000,"station_id":"ce4bhnp2rcd13ifvqh0g","pricing_plan_id":"cebpf4jnsgd1na2vs0mg"},{"bike_id":"0e471836-29c5-4d70-93bc-4b375d486538","system_id":"levelo_inurba_marseille","lat":43.29462,"lon":5.39736,"is_reserved":false,"is_disabled":false,"rental_uris":{"android":"levelo://app?vid=0e471836-29c5-4d70-93bc-4b375d486538","ios":"levelo://app?vid=0e471836-29c5-4d70-93bc-4b375d486538"},"vehicle_type_id":"4","last_reported":1767524939,"current_range_meters":8000,"station_id":"ce4bh3h2rcd13ifvqdo0","pricing_plan_id":"cebpf4jnsgd1na2vs0mg"},{"bike_id":"f631b3ee-7210-4467-997c-2fcb8a8b1933","system_id":"levelo_inurba_marseille","lat":43.266816,"lon":5.382615,"is_reserved":false,"is_disabled":false,"rental_uris":{"android":"levelo://app?vid=f631b3ee-7210-4467-997c-2fcb8a8b1933","ios":"levelo://app?vid=f631b3ee-7210-4467-997c-2fcb8a8b1933"},"vehicle_type_id":"4","last_reported":1767524939,"current_range_meters":8000,"station_id":"ce4bhg92rcd13ifvqf90","pricing_plan_id":"cebpf4jnsgd1na2vs0mg"},{"bike_id":"236dd84d-8375-4d9b-8e7d-9db60d676bfe","system_id":"levelo_inurba_marseille","lat":43.24649,"lon":5.38229,"is_reserved":false,"is_disabled":false,"rental_uris":{"android":"levelo://app?vid=236dd84d-8375-4d9b-8e7d-9db60d676bfe","ios":"levelo://app?vid=236dd84d-8375-4d9b-8e7d-9db60d676bfe"},"vehicle_type_id":"4","last_reported":1767524939,"current_range_meters":8000,"station_id":"","pricing_plan_id":"cebpf4jnsgd1na2vs0mg"},{"bike_id":"7f889366-09db-4740-a1c0-e9409a42cbcc","system_id":"levelo_inurba_marseille","lat":43.312095,"lon":5.368583,"is_reserved":false,"is_disabled":false,"rental_uris":{"android":"levelo://app?vid=7f889366-09db-4740-a1c0-e9409a42cbcc","ios":"levelo://app?vid=7f889366-09db-4740-a1c0-e9409a42cbcc"},"vehicle_type_id":"4","last_reported":1767524939,"current_range_meters":8000,"station_id":"ce4bgl92rcd13ifvqbq0","pricing_plan_id":"cebpf4jnsgd1na2vs0mg"},{"bike_id":"e44fdb7f-8720-46ac-981c-054c6ce20310","system_id":"levelo_inurba_marseille","lat":43.28473,"lon":5.48403,"is_reserved":false,"is_disabled":false,"rental_uris":{"android":"levelo://app?vid=e44fdb7f-8720-46ac-981c-054c6ce20310","ios":"levelo://app?vid=e44fdb7f-8720-46ac-981c-054c6ce20310"},"vehicle_type_id":"4","last_reported":1767524939,"current_range_meters":8000,"station_id":"st_d3svhcjqgbts73a3dn0g","pricing_plan_id":"cebpf4jnsgd1na2vs0mg"},{"bike_id":"10275e8b-e387-4c5b-870e-c1fdbcdd807e","system_id":"levelo_inurba_marseille","lat":43.24651,"lon":5.38907,"is_reserved":false,"is_disabled":false,"rental_uris":{"android":"levelo://app?vid=10275e8b-e387-4c5b-870e-c1fdbcdd807e","ios":"levelo://app?vid=10275e8b-e387-4c5b-870e-c1fdbcdd807e"},"vehicle_type_id":"4","last_reported":1767524939,"current_range_meters":8000,"station_id":"ce4bhg12rcd13ifvqf60","pricing_plan_id":"cebpf4jnsgd1na2vs0mg"},{"bike_id":"de47c27c-1797-44e1-942e-1e625cd4c52c","system_id":"levelo_inurba_marseille","lat":43.28257,"lon":5.35084,"is_reserved":false,"is_disabled":false,"rental_uris":{"android":"levelo://app?vid=de47c27c-1797-44e1-942e-1e625cd4c52c","ios":"levelo://app?vid=de47c27c-1797-44e1-942e-1e625cd4c52c"},"vehicle_type_id":"4","last_reported":1767524939,"current_range_meters":8000,"station_id":"ce4bhbp2rcd13ifvqerg","pricing_plan_id":"cebpf4jnsgd1na2vs0mg"},{"bike_id":"dfdca8ae-7890-4f8d-864a-114bbb8dc8c5","system_id":"levelo_inurba_marseille","lat":43.259326,"lon":5.408932,"is_reserved":false,"is_disabled":false,"rental_uris":{"android":"levelo://app?vid=dfdca8ae-7890-4f8d-864a-114bbb8dc8c5","ios":"levelo://app?vid=dfdca8ae-7890-4f8d-864a-114bbb8dc8c5"},"vehicle_type_id":"4","last_reported":1767524939,"current_range_meters":8000,"station_id":"ce4bhm92rcd13ifvqglg","pricing_plan_id":"cebpf4jnsgd1na2vs0mg"},{"bike_id":"5abeab1b-faee-4efd-b658-f0a83fb10313","system_id":"levelo_inurba_marseille","lat":43.26191,"lon":5.37463,"is_reserved":false,"is_disabled":false,"rental_uris":{"android":"levelo://app?vid=5abeab1b-faee-4efd-b658-f0a83fb10313","ios":"levelo://app?vid=5abeab1b-faee-4efd-b658-f0a83fb10313"},"vehicle_type_id":"4","last_reported":1767524939,"current_range_meters":8000,"station_id":"ce4bhgp2rcd13ifvqfc0","pricing_plan_id":"cebpf4jnsgd1na2vs0mg"},{"bike_id":"195e2e14-0016-420f-a925-0b6877e427aa","system_id":"levelo_inurba_marseille","lat":43.22929,"lon":5.35388,"is_reserved":false,"is_disabled":false,"rental_uris":{"android":"levelo://app?vid=195e2e14-0016-420f-a925-0b6877e427aa","ios":"levelo://app?vid=195e2e14-0016-420f-a925-0b6877e427aa"},"vehicle_type_id":"4","last_reported":1767524939,"current_range_meters":8000,"station_id":"cpo3532slgdg3j2ikp40","pricing_plan_id":"cebpf4jnsgd1na2vs0mg"},{"bike_id":"57e9667e-102a-45d8-a172-14fcbc607ea0","system_id":"levelo_inurba_marseille","lat":43.29802,"lon":5.38094,"is_reserved":false,"is_disabled":false,"rental_uris":{"android":"levelo://app?vid=57e9667e-102a-45d8-a172-14fcbc607ea0","ios":"levelo://app?vid=57e9667e-102a-45d8-a172-14fcbc607ea0"},"vehicle_type_id":"4","last_reported":1767524939,"current_range_meters":8000,"station_id":"ce4bgip2rcd13ifvqbb0","pricing_plan_id":"cebpf4jnsgd1na2vs0mg"},{"bike_id":"314f1e79-75d2-4520-879c-5c75bd15a245","system_id":"levelo_inurba_marseille","lat":43.27671,"lon":5.41899,"is_reserved":false,"is_disabled":false,"rental_uris":{"android":"levelo://app?vid=314f1e79-75d2-4520-879c-5c75bd15a245","ios":"levelo://app?vid=314f1e79-75d2-4520-879c-5c75bd15a245"},"vehicle_type_id":"4","last_reported":1767524939,"current_range_meters":8000,"station_id":"","pricing_plan_id":"cebpf4jnsgd1na2vs0mg"},{"bike_id":"fbdd49c1-7e16-4b0d-9464-4f1899b2871a","system_id":"levelo_inurba_marseille","lat":43.279207,"lon":5.395859,"is_reserved":false,"is_disabled":false,"rental_uris":{"android":"levelo://app?vid=fbdd49c1-7e16-4b0d-9464-4f1899b2871a","ios":"levelo://app?vid=fbdd49c1-7e16-4b0d-9464-4f1899b2871a"},"vehicle_type_id":"4","last_reported":1767524939,"current_range_meters":8000,"station_id":"ce4bhf92rcd13ifvqf40","pricing_plan_id":"cebpf4jnsgd1na2vs0mg"},{"bike_id":"430519a3-d72e-4fda-925c-d5b2f7504f0e","system_id":"levelo_inurba_marseille","lat":43.25819,"lon":5.39429,"is_reserved":false,"is_disabled":false,"rental_uris":{"android":"levelo://app?vid=430519a3-d72e-4fda-925c-d5b2f7504f0e","ios":"levelo://app?vid=430519a3-d72e-4fda-925c-d5b2f7504f0e"},"vehicle_type_id":"4","last_reported":1767524939,"current_range_meters":8000,"station_id":"ce4bhip2rcd13ifvqft0","pricing_plan_id":"cebpf4jnsgd1na2vs0mg"},{"bike_id":"524c1ed8-572d-4bd4-ab56-ccc941c96a3e","system_id":"levelo_inurba_marseille","lat":43.28617,"lon":5.35125,"is_reserved":false,"is_disabled":false,"rental_uris":{"android":"levelo://app?vid=524c1ed8-572d-4bd4-ab56-ccc941c96a3e","ios":"levelo://app?vid=524c1ed8-572d-4bd4-ab56-ccc941c96a3e"},"vehicle_type_id":"4","last_reported":1767524939,"current_range_meters":8000,"station_id":"ce4bhch2rcd13ifvqeug","pricing_plan_id":"cebpf4jnsgd1na2vs0mg"},{"bike_id":"c129f4ae-4ba1-4c21-bbec-e0b096843268","system_id":"levelo_inurba_marseille","lat":43.29185,"lon":5.37138,"is_reserved":false,"is_disabled":false,"rental_uris":{"android":"levelo://app?vid=c129f4ae-4ba1-4c21-bbec-e0b096843268","ios":"levelo://app?vid=c129f4ae-4ba1-4c21-bbec-e0b096843268"},"vehicle_type_id":"4","last_reported":1767524939,"current_range_meters":8000,"station_id":"ce4bha92rcd13ifvqeh0","pricing_plan_id":"cebpf4jnsgd1na2vs0mg"},{"bike_id":"cfa2a556-13f4-4a7e-a4b8-5ed4ef8b96c8","system_id":"levelo_inurba_marseille","lat":43.26944,"lon":5.40261,"is_reserved":false,"is_disabled":false,"rental_uris":{"android":"levelo://app?vid=cfa2a556-13f4-4a7e-a4b8-5ed4ef8b96c8","ios":"levelo://app?vid=cfa2a556-13f4-4a7e-a4b8-5ed4ef8b96c8"},"vehicle_type_id":"4","last_reported":1767524939,"current_range_meters":8000,"station_id":"cjm6bp8fraef2m0cb0m0","pricing_plan_id":"cebpf4jnsgd1na2vs0mg"},{"bike_id":"492fb627-7bc1-4cff-8097-e01a29adb15a","system_id":"levelo_inurba_marseille","lat":43.27301,"lon":5.39102,"is_reserved":false,"is_disabled":false,"rental_uris":{"android":"levelo://app?vid=492fb627-7bc1-4cff-8097-e01a29adb15a","ios":"levelo://app?vid=492fb627-7bc1-4cff-8097-e01a29adb15a"},"vehicle_type_id":"4","last_reported":1767524939,"current_range_meters":8400,"station_id":"ce4bhgp2rcd13ifvqfe0","pricing_plan_id":"cebpf4jnsgd1na2vs0mg"},{"bike_id":"1d00a4cb-00d9-4b5d-9884-747e6dfb334b","system_id":"levelo_inurba_marseille","lat":43.246676,"lon":5.38164,"is_reserved":false,"is_disabled":false,"rental_uris":{"android":"levelo://app?vid=1d00a4cb-00d9-4b5d-9884-747e6dfb334b","ios":"levelo://app?vid=1d00a4cb-00d9-4b5d-9884-747e6dfb334b"},"vehicle_type_id":"4","last_reported":1767524939,"current_range_meters":8400,"station_id":"ce4bhih2rcd13ifvqfr0","pricing_plan_id":"cebpf4jnsgd1na2vs0mg"},{"bike_id":"067249c4-fb35-421e-9a6c-c895241c197a","system_id":"levelo_inurba_marseille","lat":43.29463,"lon":5.39315,"is_reserved":false,"is_disabled":false,"rental_uris":{"android":"levelo://app?vid=067249c4-fb35-421e-9a6c-c895241c197a","ios":"levelo://app?vid=067249c4-fb35-421e-9a6c-c895241c197a"},"vehicle_type_id":"4","last_reported":1767524939,"current_range_meters":8400,"station_id":"","pricing_plan_id":"cebpf4jnsgd1na2vs0mg"},{"bike_id":"088ffd9e-e621-46be-9471-ab036728f8c5","system_id":"levelo_inurba_marseille","lat":43.310549,"lon":5.37181,"is_reserved":false,"is_disabled":true,"rental_uris":{"android":"levelo://app?vid=088ffd9e-e621-46be-9471-ab036728f8c5","ios":"levelo://app?vid=088ffd9e-e621-46be-9471-ab036728f8c5"},"vehicle_type_id":"4","last_reported":1767524939,"current_range_meters":8400,"station_id":"st_d4kl2rp97mjs73e7tdfg","pricing_plan_id":"cebpf4jnsgd1na2vs0mg"},{"bike_id":"ea433994-4165-420a-9223-37582f30485d","system_id":"levelo_inurba_marseille","lat":43.30593,"lon":5.37553,"is_reserved":false,"is_disabled":false,"rental_uris":{"android":"levelo://app?vid=ea433994-4165-420a-9223-37582f30485d","ios":"levelo://app?vid=ea433994-4165-420a-9223-37582f30485d"},"vehicle_type_id":"4","last_reported":1767524939,"current_range_meters":8400,"station_id":"","pricing_plan_id":"cebpf4jnsgd1na2vs0mg"},{"bike_id":"7f505e4c-fcc4-4b29-9d3f-538f9728a5b0","system_id":"levelo_inurba_marseille","lat":43.255008,"lon":5.376649,"is_reserved":false,"is_disabled":false,"rental_uris":{"android":"levelo://app?vid=7f505e4c-fcc4-4b29-9d3f-538f9728a5b0","ios":"levelo://app?vid=7f505e4c-fcc4-4b29-9d3f-538f9728a5b0"},"vehicle_type_id":"4","last_reported":1767524939,"current_range_meters":8400,"station_id":"ce4bhh12rcd13ifvqff0","pricing_plan_id":"cebpf4jnsgd1na2vs0mg"},{"bike_id":"9d21dcb0-ce26-48db-a303-317550439f40","system_id":"levelo_inurba_marseille","lat":43.28476,"lon":5.48391,"is_reserved":false,"is_disabled":false,"rental_uris":{"android":"levelo://app?vid=9d21dcb0-ce26-48db-a303-317550439f40","ios":"levelo://app?vid=9d21dcb0-ce26-48db-a303-317550439f40"},"vehicle_type_id":"4","last_reported":1767524939,"current_range_meters":8400,"station_id":"st_d3svhcjqgbts73a3dn0g","pricing_plan_id":"cebpf4jnsgd1na2vs0mg"},{"bike_id":"ab212917-0222-46c3-89cf-022c04360208","system_id":"levelo_inurba_marseille","lat":43.29756,"lon":5.42775,"is_reserved":false,"is_disabled":false,"rental_uris":{"android":"levelo://app?vid=ab212917-0222-46c3-89cf-022c04360208","ios":"levelo://app?vid=ab212917-0222-46c3-89cf-022c04360208"},"vehicle_type_id":"4","last_reported":1767524939,"current_range_meters":8400,"station_id":"st_d3md5207bmas73dh9klg","pricing_plan_id":"cebpf4jnsgd1na2vs0mg"},{"bike_id":"46c2d8b2-0f06-4ab4-9ea1-a6a2f77053d0","system_id":"levelo_inurba_marseille","lat":43.33741,"lon":5.37454,"is_reserved":false,"is_disabled":false,"rental_uris":{"android":"levelo://app?vid=46c2d8b2-0f06-4ab4-9ea1-a6a2f77053d0","ios":"levelo://app?vid=46c2d8b2-0f06-4ab4-9ea1-a6a2f77053d0"},"vehicle_type_id":"4","last_reported":1767524939,"current_range_meters":8400,"station_id":"","pricing_plan_id":"cebpf4jnsgd1na2vs0mg"},{"bike_id":"ce70a791-0bc1-4859-aa07-bbcb0ea44c53","system_id":"levelo_inurba_marseille","lat":43.2766,"lon":5.38904,"is_reserved":false,"is_disabled":false,"rental_uris":{"android":"levelo://app?vid=ce70a791-0bc1-4859-aa07-bbcb0ea44c53","ios":"levelo://app?vid=ce70a791-0bc1-4859-aa07-bbcb0ea44c53"},"vehicle_type_id":"4","last_reported":1767524939,"current_range_meters":8400,"station_id":"ce4bhi12rcd13ifvqfo0","pricing_plan_id":"cebpf4jnsgd1na2vs0mg"},{"bike_id":"f37c8ab2-4055-4d0c-bc22-679bade32c8c","system_id":"levelo_inurba_marseille","lat":43.30696,"lon":5.37256,"is_reserved":false,"is_disabled":false,"rental_uris":{"android":"levelo://app?vid=f37c8ab2-4055-4d0c-bc22-679bade32c8c","ios":"levelo://app?vid=f37c8ab2-4055-4d0c-bc22-679bade32c8c"},"vehicle_type_id":"4","last_reported":1767524939,"current_range_meters":8400,"station_id":"","pricing_plan_id":"cebpf4jnsgd1na2vs0mg"},{"bike_id":"56d16591-aad9-4658-8af0-33e365bc72af","system_id":"levelo_inurba_marseille","lat":43.30148,"lon":5.38091,"is_reserved":false,"is_disabled":false,"rental_uris":{"android":"levelo://app?vid=56d16591-aad9-4658-8af0-33e365bc72af","ios":"levelo://app?vid=56d16591-aad9-4658-8af0-33e365bc72af"},"vehicle_type_id":"4","last_reported":1767524939,"current_range_meters":8400,"station_id":"ce4bgjp2rcd13ifvqbh0","pricing_plan_id":"cebpf4jnsgd1na2vs0mg"},{"bike_id":"935825c2-f859-4463-8086-e30564c09ccd","system_id":"levelo_inurba_marseille","lat":43.29186,"lon":5.3932,"is_reserved":false,"is_disabled":false,"rental_uris":{"android":"levelo://app?vid=935825c2-f859-4463-8086-e30564c09ccd","ios":"levelo://app?vid=935825c2-f859-4463-8086-e30564c09ccd"},"vehicle_type_id":"4","last_reported":1767524939,"current_range_meters":8400,"station_id":"ce4bh192rcd13ifvqdd0","pricing_plan_id":"cebpf4jnsgd1na2vs0mg"},{"bike_id":"2be57466-a646-4f79-84c2-74019bc2d375","system_id":"levelo_inurba_marseille","lat":43.27944,"lon":5.41059,"is_reserved":false,"is_disabled":false,"rental_uris":{"android":"levelo://app?vid=2be57466-a646-4f79-84c2-74019bc2d375","ios":"levelo://app?vid=2be57466-a646-4f79-84c2-74019bc2d375"},"vehicle_type_id":"4","last_reported":1767524939,"current_range_meters":8800,"station_id":"ce4bhnp2rcd13ifvqh0g","pricing_plan_id":"cebpf4jnsgd1na2vs0mg"},{"bike_id":"566db3cc-46f7-4e44-8a50-868e3cfad09c","system_id":"levelo_inurba_marseille","lat":43.26565,"lon":5.37311,"is_reserved":false,"is_disabled":false,"rental_uris":{"android":"levelo://app?vid=566db3cc-46f7-4e44-8a50-868e3cfad09c","ios":"levelo://app?vid=566db3cc-46f7-4e44-8a50-868e3cfad09c"},"vehicle_type_id":"4","last_reported":1767524939,"current_range_meters":8800,"station_id":"ce4bhg12rcd13ifvqf70","pricing_plan_id":"cebpf4jnsgd1na2vs0mg"},{"bike_id":"6e43b422-2e00-46e4-9d5a-dbe9b8598cec","system_id":"levelo_inurba_marseille","lat":43.28146,"lon":5.42687,"is_reserved":false,"is_disabled":false,"rental_uris":{"android":"levelo://app?vid=6e43b422-2e00-46e4-9d5a-dbe9b8598cec","ios":"levelo://app?vid=6e43b422-2e00-46e4-9d5a-dbe9b8598cec"},"vehicle_type_id":"4","last_reported":1767524939,"current_range_meters":8800,"station_id":"ce4bhnh2rcd13ifvqgug","pricing_plan_id":"cebpf4jnsgd1na2vs0mg"},{"bike_id":"3fedbda4-18fb-4459-8990-789e6012cbd1","system_id":"levelo_inurba_marseille","lat":43.293773,"lon":5.378671,"is_reserved":false,"is_disabled":false,"rental_uris":{"android":"levelo://app?vid=3fedbda4-18fb-4459-8990-789e6012cbd1","ios":"levelo://app?vid=3fedbda4-18fb-4459-8990-789e6012cbd1"},"vehicle_type_id":"4","last_reported":1767524939,"current_range_meters":8800,"station_id":"ce4bgjh2rcd13ifvqbf0","pricing_plan_id":"cebpf4jnsgd1na2vs0mg"},{"bike_id":"1944fe52-51b9-4699-b1f3-3c378f1c0ff5","system_id":"levelo_inurba_marseille","lat":43.288508,"lon":5.358472,"is_reserved":false,"is_disabled":false,"rental_uris":{"android":"levelo://app?vid=1944fe52-51b9-4699-b1f3-3c378f1c0ff5","ios":"levelo://app?vid=1944fe52-51b9-4699-b1f3-3c378f1c0ff5"},"vehicle_type_id":"4","last_reported":1767524939,"current_range_meters":8800,"station_id":"ce4bhb12rcd13ifvqem0","pricing_plan_id":"cebpf4jnsgd1na2vs0mg"},{"bike_id":"832630b7-1265-4116-b046-a0d5dd971800","system_id":"levelo_inurba_marseille","lat":43.29772,"lon":5.37077,"is_reserved":false,"is_disabled":false,"rental_uris":{"android":"levelo://app?vid=832630b7-1265-4116-b046-a0d5dd971800","ios":"levelo://app?vid=832630b7-1265-4116-b046-a0d5dd971800"},"vehicle_type_id":"4","last_reported":1767524939,"current_range_meters":8800,"station_id":"ce4bgop2rcd13ifvqc1g","pricing_plan_id":"cebpf4jnsgd1na2vs0mg"},{"bike_id":"eec8fb5f-22f0-4df6-8592-ac99c04e663a","system_id":"levelo_inurba_marseille","lat":43.24469,"lon":5.42545,"is_reserved":false,"is_disabled":false,"rental_uris":{"android":"levelo://app?vid=eec8fb5f-22f0-4df6-8592-ac99c04e663a","ios":"levelo://app?vid=eec8fb5f-22f0-4df6-8592-ac99c04e663a"},"vehicle_type_id":"4","last_reported":1767524939,"current_range_meters":8800,"station_id":"st_d4a3vfp97mjs738cd8kg","pricing_plan_id":"cebpf4jnsgd1na2vs0mg"},{"bike_id":"225bdd2a-0ec2-4312-a816-23bf65227ab6","system_id":"levelo_inurba_marseille","lat":43.26375,"lon":5.410666,"is_reserved":false,"is_disabled":true,"rental_uris":{"android":"levelo://app?vid=225bdd2a-0ec2-4312-a816-23bf65227ab6","ios":"levelo://app?vid=225bdd2a-0ec2-4312-a816-23bf65227ab6"},"vehicle_type_id":"4","last_reported":1767524939,"current_range_meters":8800,"station_id":"","pricing_plan_id":"cebpf4jnsgd1na2vs0mg"},{"bike_id":"20600a83-ffb2-4ea6-adcc-6f03f7742df5","system_id":"levelo_inurba_marseille","lat":43.27075,"lon":5.42298,"is_reserved":false,"is_disabled":false,"rental_uris":{"android":"levelo://app?vid=20600a83-ffb2-4ea6-adcc-6f03f7742df5","ios":"levelo://app?vid=20600a83-ffb2-4ea6-adcc-6f03f7742df5"},"vehicle_type_id":"4","last_reported":1767524939,"current_range_meters":8800,"station_id":"ce4bhk92rcd13ifvqgb0","pricing_plan_id":"cebpf4jnsgd1na2vs0mg"},{"bike_id":"255658a8-b46b-4069-9e30-81efa319b4d2","system_id":"levelo_inurba_marseille","lat":43.294841,"lon":5.4331,"is_reserved":false,"is_disabled":false,"rental_uris":{"android":"levelo://app?vid=255658a8-b46b-4069-9e30-81efa319b4d2","ios":"levelo://app?vid=255658a8-b46b-4069-9e30-81efa319b4d2"},"vehicle_type_id":"4","last_reported":1767524939,"current_range_meters":8800,"station_id":"st_d3j5ugp08ojc73fj9d10","pricing_plan_id":"cebpf4jnsgd1na2vs0mg"},{"bike_id":"49eaeb99-01db-4a25-87fd-cb6c87f1647c","system_id":"levelo_inurba_marseille","lat":43.30123,"lon":5.43141,"is_reserved":false,"is_disabled":false,"rental_uris":{"android":"levelo://app?vid=49eaeb99-01db-4a25-87fd-cb6c87f1647c","ios":"levelo://app?vid=49eaeb99-01db-4a25-87fd-cb6c87f1647c"},"vehicle_type_id":"4","last_reported":1767524939,"current_range_meters":8800,"station_id":"st_d3js3co5814s73ftftug","pricing_plan_id":"cebpf4jnsgd1na2vs0mg"},{"bike_id":"db08426a-29ce-42da-aa38-3590eae9b0d3","system_id":"levelo_inurba_marseille","lat":43.284737,"lon":5.38419,"is_reserved":false,"is_disabled":false,"rental_uris":{"android":"levelo://app?vid=db08426a-29ce-42da-aa38-3590eae9b0d3","ios":"levelo://app?vid=db08426a-29ce-42da-aa38-3590eae9b0d3"},"vehicle_type_id":"4","last_reported":1767524939,"current_range_meters":8800,"station_id":"ce4bh512rcd13ifvqe3g","pricing_plan_id":"cebpf4jnsgd1na2vs0mg"},{"bike_id":"746607d7-0d50-445a-b435-314ed89afc68","system_id":"levelo_inurba_marseille","lat":43.299,"lon":5.43675,"is_reserved":false,"is_disabled":false,"rental_uris":{"android":"levelo://app?vid=746607d7-0d50-445a-b435-314ed89afc68","ios":"levelo://app?vid=746607d7-0d50-445a-b435-314ed89afc68"},"vehicle_type_id":"4","last_reported":1767524939,"current_range_meters":8800,"station_id":"ce4bhpp2rcd13ifvqhfg","pricing_plan_id":"cebpf4jnsgd1na2vs0mg"},{"bike_id":"ecfba3ac-804e-418b-a7fa-cc102335e836","system_id":"levelo_inurba_marseille","lat":43.30273,"lon":5.45663,"is_reserved":false,"is_disabled":false,"rental_uris":{"android":"levelo://app?vid=ecfba3ac-804e-418b-a7fa-cc102335e836","ios":"levelo://app?vid=ecfba3ac-804e-418b-a7fa-cc102335e836"},"vehicle_type_id":"4","last_reported":1767524939,"current_range_meters":8800,"station_id":"","pricing_plan_id":"cebpf4jnsgd1na2vs0mg"},{"bike_id":"f3bc2b83-f211-4612-be45-4e3acf4d48db","system_id":"levelo_inurba_marseille","lat":43.27639,"lon":5.41841,"is_reserved":false,"is_disabled":false,"rental_uris":{"android":"levelo://app?vid=f3bc2b83-f211-4612-be45-4e3acf4d48db","ios":"levelo://app?vid=f3bc2b83-f211-4612-be45-4e3acf4d48db"},"vehicle_type_id":"4","last_reported":1767524939,"current_range_meters":8800,"station_id":"","pricing_plan_id":"cebpf4jnsgd1na2vs0mg"},{"bike_id":"b4afa196-18ec-4d7d-bbba-b15c57a1293b","system_id":"levelo_inurba_marseille","lat":43.2721,"lon":5.39192,"is_reserved":false,"is_disabled":false,"rental_uris":{"android":"levelo://app?vid=b4afa196-18ec-4d7d-bbba-b15c57a1293b","ios":"levelo://app?vid=b4afa196-18ec-4d7d-bbba-b15c57a1293b"},"vehicle_type_id":"4","last_reported":1767524939,"current_range_meters":8800,"station_id":"ce4bhhp2rcd13ifvqfm0","pricing_plan_id":"cebpf4jnsgd1na2vs0mg"},{"bike_id":"313a26e2-6d5c-4db1-9b5b-ccc981e39b88","system_id":"levelo_inurba_marseille","lat":43.23792,"lon":5.3664,"is_reserved":false,"is_disabled":false,"rental_uris":{"android":"levelo://app?vid=313a26e2-6d5c-4db1-9b5b-ccc981e39b88","ios":"levelo://app?vid=313a26e2-6d5c-4db1-9b5b-ccc981e39b88"},"vehicle_type_id":"4","last_reported":1767524939,"current_range_meters":8800,"station_id":"st_d3nk18o9ro0c73en2l3g","pricing_plan_id":"cebpf4jnsgd1na2vs0mg"},{"bike_id":"59bca459-f8ba-4ca0-be09-8ae241edab81","system_id":"levelo_inurba_marseille","lat":43.33364,"lon":5.41097,"is_reserved":false,"is_disabled":false,"rental_uris":{"android":"levelo://app?vid=59bca459-f8ba-4ca0-be09-8ae241edab81","ios":"levelo://app?vid=59bca459-f8ba-4ca0-be09-8ae241edab81"},"vehicle_type_id":"4","last_reported":1767524939,"current_range_meters":8800,"station_id":"","pricing_plan_id":"cebpf4jnsgd1na2vs0mg"},{"bike_id":"47f5f321-0859-44a5-a3e2-7e35572c8bac","system_id":"levelo_inurba_marseille","lat":43.27073,"lon":5.42286,"is_reserved":false,"is_disabled":false,"rental_uris":{"android":"levelo://app?vid=47f5f321-0859-44a5-a3e2-7e35572c8bac","ios":"levelo://app?vid=47f5f321-0859-44a5-a3e2-7e35572c8bac"},"vehicle_type_id":"4","last_reported":1767524939,"current_range_meters":8800,"station_id":"ce4bhk92rcd13ifvqgb0","pricing_plan_id":"cebpf4jnsgd1na2vs0mg"},{"bike_id":"12a80fe3-61e3-412b-a4be-0e9fe67491bf","system_id":"levelo_inurba_marseille","lat":43.25516,"lon":5.37671,"is_reserved":false,"is_disabled":true,"rental_uris":{"android":"levelo://app?vid=12a80fe3-61e3-412b-a4be-0e9fe67491bf","ios":"levelo://app?vid=12a80fe3-61e3-412b-a4be-0e9fe67491bf"},"vehicle_type_id":"4","last_reported":1767524939,"current_range_meters":8800,"station_id":"ce4bhh12rcd13ifvqff0","pricing_plan_id":"cebpf4jnsgd1na2vs0mg"},{"bike_id":"704d55d2-80bc-4f15-89c1-0da3b8afad7d","system_id":"levelo_inurba_marseille","lat":43.26566,"lon":5.39017,"is_reserved":false,"is_disabled":false,"rental_uris":{"android":"levelo://app?vid=704d55d2-80bc-4f15-89c1-0da3b8afad7d","ios":"levelo://app?vid=704d55d2-80bc-4f15-89c1-0da3b8afad7d"},"vehicle_type_id":"4","last_reported":1767524939,"current_range_meters":9200,"station_id":"ce4bhe12rcd13ifvqf30","pricing_plan_id":"cebpf4jnsgd1na2vs0mg"},{"bike_id":"8abe114a-6130-480c-8ffa-a468323abd52","system_id":"levelo_inurba_marseille","lat":43.27912,"lon":5.37996,"is_reserved":false,"is_disabled":true,"rental_uris":{"android":"levelo://app?vid=8abe114a-6130-480c-8ffa-a468323abd52","ios":"levelo://app?vid=8abe114a-6130-480c-8ffa-a468323abd52"},"vehicle_type_id":"4","last_reported":1767524939,"current_range_meters":9200,"station_id":"ce4bhf92rcd13ifvqf50","pricing_plan_id":"cebpf4jnsgd1na2vs0mg"},{"bike_id":"69344c04-1223-40cd-b549-8d9d27c19f94","system_id":"levelo_inurba_marseille","lat":43.29957,"lon":5.37194,"is_reserved":false,"is_disabled":false,"rental_uris":{"android":"levelo://app?vid=69344c04-1223-40cd-b549-8d9d27c19f94","ios":"levelo://app?vid=69344c04-1223-40cd-b549-8d9d27c19f94"},"vehicle_type_id":"4","last_reported":1767524939,"current_range_meters":9200,"station_id":"ce4bgr92rcd13ifvqc7g","pricing_plan_id":"cebpf4jnsgd1na2vs0mg"},{"bike_id":"f8fd03d0-aa2f-4b76-88bf-1f61c44cd155","system_id":"levelo_inurba_marseille","lat":43.29582,"lon":5.40695,"is_reserved":false,"is_disabled":false,"rental_uris":{"android":"levelo://app?vid=f8fd03d0-aa2f-4b76-88bf-1f61c44cd155","ios":"levelo://app?vid=f8fd03d0-aa2f-4b76-88bf-1f61c44cd155"},"vehicle_type_id":"4","last_reported":1767524939,"current_range_meters":9200,"station_id":"","pricing_plan_id":"cebpf4jnsgd1na2vs0mg"},{"bike_id":"a26459aa-1892-44c6-a4cd-982065cec8f2","system_id":"levelo_inurba_marseille","lat":43.23143,"lon":5.43718,"is_reserved":false,"is_disabled":false,"rental_uris":{"android":"levelo://app?vid=a26459aa-1892-44c6-a4cd-982065cec8f2","ios":"levelo://app?vid=a26459aa-1892-44c6-a4cd-982065cec8f2"},"vehicle_type_id":"4","last_reported":1767524939,"current_range_meters":9200,"station_id":"ce4bhmp2rcd13ifvqgog","pricing_plan_id":"cebpf4jnsgd1na2vs0mg"},{"bike_id":"1344b698-8650-40c6-84ae-c77983c95c2f","system_id":"levelo_inurba_marseille","lat":43.28912,"lon":5.36189,"is_reserved":false,"is_disabled":false,"rental_uris":{"android":"levelo://app?vid=1344b698-8650-40c6-84ae-c77983c95c2f","ios":"levelo://app?vid=1344b698-8650-40c6-84ae-c77983c95c2f"},"vehicle_type_id":"4","last_reported":1767524939,"current_range_meters":9200,"station_id":"","pricing_plan_id":"cebpf4jnsgd1na2vs0mg"},{"bike_id":"58701306-512f-482f-8fe4-bc10de1dda50","system_id":"levelo_inurba_marseille","lat":43.26941,"lon":5.40264,"is_reserved":false,"is_disabled":false,"rental_uris":{"android":"levelo://app?vid=58701306-512f-482f-8fe4-bc10de1dda50","ios":"levelo://app?vid=58701306-512f-482f-8fe4-bc10de1dda50"},"vehicle_type_id":"4","last_reported":1767524939,"current_range_meters":9200,"station_id":"cjm6bp8fraef2m0cb0m0","pricing_plan_id":"cebpf4jnsgd1na2vs0mg"},{"bike_id":"09de8293-0bc7-4093-9fd7-78e5ee68b962","system_id":"levelo_inurba_marseille","lat":43.27993,"lon":5.41678,"is_reserved":false,"is_disabled":false,"rental_uris":{"android":"levelo://app?vid=09de8293-0bc7-4093-9fd7-78e5ee68b962","ios":"levelo://app?vid=09de8293-0bc7-4093-9fd7-78e5ee68b962"},"vehicle_type_id":"4","last_reported":1767524939,"current_range_meters":9200,"station_id":"ce4bho12rcd13ifvqh1g","pricing_plan_id":"cebpf4jnsgd1na2vs0mg"},{"bike_id":"f45af1ed-ba57-4931-a22f-bc2fde3d778c","system_id":"levelo_inurba_marseille","lat":43.30355,"lon":5.42518,"is_reserved":false,"is_disabled":false,"rental_uris":{"android":"levelo://app?vid=f45af1ed-ba57-4931-a22f-bc2fde3d778c","ios":"levelo://app?vid=f45af1ed-ba57-4931-a22f-bc2fde3d778c"},"vehicle_type_id":"4","last_reported":1767524939,"current_range_meters":9200,"station_id":"ce4bhoh2rcd13ifvqh6g","pricing_plan_id":"cebpf4jnsgd1na2vs0mg"},{"bike_id":"38478ce1-a447-4641-99f3-89c5bb836bdb","system_id":"levelo_inurba_marseille","lat":43.27438,"lon":5.41868,"is_reserved":false,"is_disabled":false,"rental_uris":{"android":"levelo://app?vid=38478ce1-a447-4641-99f3-89c5bb836bdb","ios":"levelo://app?vid=38478ce1-a447-4641-99f3-89c5bb836bdb"},"vehicle_type_id":"4","last_reported":1767524939,"current_range_meters":9200,"station_id":"","pricing_plan_id":"cebpf4jnsgd1na2vs0mg"},{"bike_id":"278b026d-7c90-4296-9421-3e0684d777fa","system_id":"levelo_inurba_marseille","lat":43.2989,"lon":5.38312,"is_reserved":false,"is_disabled":false,"rental_uris":{"android":"levelo://app?vid=278b026d-7c90-4296-9421-3e0684d777fa","ios":"levelo://app?vid=278b026d-7c90-4296-9421-3e0684d777fa"},"vehicle_type_id":"4","last_reported":1767524939,"current_range_meters":9200,"station_id":"","pricing_plan_id":"cebpf4jnsgd1na2vs0mg"},{"bike_id":"9b4021cf-15f5-49ee-bfc4-492922ebf4c9","system_id":"levelo_inurba_marseille","lat":43.30277,"lon":5.37265,"is_reserved":false,"is_disabled":false,"rental_uris":{"android":"levelo://app?vid=9b4021cf-15f5-49ee-bfc4-492922ebf4c9","ios":"levelo://app?vid=9b4021cf-15f5-49ee-bfc4-492922ebf4c9"},"vehicle_type_id":"4","last_reported":1767524939,"current_range_meters":9200,"station_id":"","pricing_plan_id":"cebpf4jnsgd1na2vs0mg"},{"bike_id":"b0949d2f-0580-469f-a924-a8e9d7abfef4","system_id":"levelo_inurba_marseille","lat":43.33724,"lon":5.3919,"is_reserved":false,"is_disabled":false,"rental_uris":{"android":"levelo://app?vid=b0949d2f-0580-469f-a924-a8e9d7abfef4","ios":"levelo://app?vid=b0949d2f-0580-469f-a924-a8e9d7abfef4"},"vehicle_type_id":"4","last_reported":1767524939,"current_range_meters":9200,"station_id":"ce4bhr92rcd13ifvqhsg","pricing_plan_id":"cebpf4jnsgd1na2vs0mg"},{"bike_id":"4094af8c-8214-4832-bd97-69d151875f98","system_id":"levelo_inurba_marseille","lat":43.29788,"lon":5.3931,"is_reserved":false,"is_disabled":false,"rental_uris":{"android":"levelo://app?vid=4094af8c-8214-4832-bd97-69d151875f98","ios":"levelo://app?vid=4094af8c-8214-4832-bd97-69d151875f98"},"vehicle_type_id":"4","last_reported":1767524939,"current_range_meters":9200,"station_id":"chh1huq6cuj3fo74tm60","pricing_plan_id":"cebpf4jnsgd1na2vs0mg"},{"bike_id":"689e1e25-96b9-418c-bbe1-0e8f9558c52f","system_id":"levelo_inurba_marseille","lat":43.31347,"lon":5.37617,"is_reserved":false,"is_disabled":false,"rental_uris":{"android":"levelo://app?vid=689e1e25-96b9-418c-bbe1-0e8f9558c52f","ios":"levelo://app?vid=689e1e25-96b9-418c-bbe1-0e8f9558c52f"},"vehicle_type_id":"4","last_reported":1767524939,"current_range_meters":9200,"station_id":"","pricing_plan_id":"cebpf4jnsgd1na2vs0mg"},{"bike_id":"5fec1690-e74d-4f43-a71c-9970216e075e","system_id":"levelo_inurba_marseille","lat":43.25087,"lon":5.39518,"is_reserved":false,"is_disabled":false,"rental_uris":{"android":"levelo://app?vid=5fec1690-e74d-4f43-a71c-9970216e075e","ios":"levelo://app?vid=5fec1690-e74d-4f43-a71c-9970216e075e"},"vehicle_type_id":"4","last_reported":1767524939,"current_range_meters":9200,"station_id":"ce4bhm12rcd13ifvqgkg","pricing_plan_id":"cebpf4jnsgd1na2vs0mg"},{"bike_id":"75f514f3-a391-4f43-9ffc-c99bb058b876","system_id":"levelo_inurba_marseille","lat":43.23184,"lon":5.35581,"is_reserved":false,"is_disabled":false,"rental_uris":{"android":"levelo://app?vid=75f514f3-a391-4f43-9ffc-c99bb058b876","ios":"levelo://app?vid=75f514f3-a391-4f43-9ffc-c99bb058b876"},"vehicle_type_id":"4","last_reported":1767524939,"current_range_meters":9200,"station_id":"ce4bhu92rcd13ifvqi70","pricing_plan_id":"cebpf4jnsgd1na2vs0mg"},{"bike_id":"752e32ed-dca7-49b7-960f-de09644e5641","system_id":"levelo_inurba_marseille","lat":43.29225,"lon":5.36061,"is_reserved":false,"is_disabled":false,"rental_uris":{"android":"levelo://app?vid=752e32ed-dca7-49b7-960f-de09644e5641","ios":"levelo://app?vid=752e32ed-dca7-49b7-960f-de09644e5641"},"vehicle_type_id":"4","last_reported":1767524939,"current_range_meters":9600,"station_id":"ce4bhbh2rcd13ifvqeqg","pricing_plan_id":"cebpf4jnsgd1na2vs0mg"},{"bike_id":"d0c45ceb-2932-460b-a0aa-9949ecc8dcd9","system_id":"levelo_inurba_marseille","lat":43.28951,"lon":5.36396,"is_reserved":false,"is_disabled":false,"rental_uris":{"android":"levelo://app?vid=d0c45ceb-2932-460b-a0aa-9949ecc8dcd9","ios":"levelo://app?vid=d0c45ceb-2932-460b-a0aa-9949ecc8dcd9"},"vehicle_type_id":"4","last_reported":1767524939,"current_range_meters":9600,"station_id":"ce4bhc92rcd13ifvqetg","pricing_plan_id":"cebpf4jnsgd1na2vs0mg"},{"bike_id":"0593d738-3fdf-4466-a880-c927ee83299a","system_id":"levelo_inurba_marseille","lat":43.287,"lon":5.39984,"is_reserved":false,"is_disabled":false,"rental_uris":{"android":"levelo://app?vid=0593d738-3fdf-4466-a880-c927ee83299a","ios":"levelo://app?vid=0593d738-3fdf-4466-a880-c927ee83299a"},"vehicle_type_id":"4","last_reported":1767524939,"current_range_meters":9600,"station_id":"ce4bho92rcd13ifvqh3g","pricing_plan_id":"cebpf4jnsgd1na2vs0mg"},{"bike_id":"3115bbd7-1c85-4603-a617-db0a037ecab5","system_id":"levelo_inurba_marseille","lat":43.29417,"lon":5.43287,"is_reserved":false,"is_disabled":false,"rental_uris":{"android":"levelo://app?vid=3115bbd7-1c85-4603-a617-db0a037ecab5","ios":"levelo://app?vid=3115bbd7-1c85-4603-a617-db0a037ecab5"},"vehicle_type_id":"4","last_reported":1767524939,"current_range_meters":9600,"station_id":"","pricing_plan_id":"cebpf4jnsgd1na2vs0mg"},{"bike_id":"ec2e2d97-541d-4f0e-9289-f85c25486ad3","system_id":"levelo_inurba_marseille","lat":43.25749,"lon":5.411,"is_reserved":false,"is_disabled":false,"rental_uris":{"android":"levelo://app?vid=ec2e2d97-541d-4f0e-9289-f85c25486ad3","ios":"levelo://app?vid=ec2e2d97-541d-4f0e-9289-f85c25486ad3"},"vehicle_type_id":"4","last_reported":1767524939,"current_range_meters":9600,"station_id":"ce4bhkp2rcd13ifvqgd0","pricing_plan_id":"cebpf4jnsgd1na2vs0mg"},{"bike_id":"9ffd8e4e-6671-4e68-b198-26c59cc5e3d1","system_id":"levelo_inurba_marseille","lat":43.32635,"lon":5.41937,"is_reserved":false,"is_disabled":false,"rental_uris":{"android":"levelo://app?vid=9ffd8e4e-6671-4e68-b198-26c59cc5e3d1","ios":"levelo://app?vid=9ffd8e4e-6671-4e68-b198-26c59cc5e3d1"},"vehicle_type_id":"4","last_reported":1767524939,"current_range_meters":9600,"station_id":"","pricing_plan_id":"cebpf4jnsgd1na2vs0mg"},{"bike_id":"18057ecb-ade7-4f09-b182-a520e78e3681","system_id":"levelo_inurba_marseille","lat":43.28488,"lon":5.38423,"is_reserved":false,"is_disabled":false,"rental_uris":{"android":"levelo://app?vid=18057ecb-ade7-4f09-b182-a520e78e3681","ios":"levelo://app?vid=18057ecb-ade7-4f09-b182-a520e78e3681"},"vehicle_type_id":"4","last_reported":1767524939,"current_range_meters":9600,"station_id":"ce4bh512rcd13ifvqe3g","pricing_plan_id":"cebpf4jnsgd1na2vs0mg"},{"bike_id":"61bede02-2851-4fcf-827d-afeac7ac0523","system_id":"levelo_inurba_marseille","lat":43.2987,"lon":5.37655,"is_reserved":false,"is_disabled":false,"rental_uris":{"android":"levelo://app?vid=61bede02-2851-4fcf-827d-afeac7ac0523","ios":"levelo://app?vid=61bede02-2851-4fcf-827d-afeac7ac0523"},"vehicle_type_id":"4","last_reported":1767524939,"current_range_meters":9600,"station_id":"ce4bhr92rcd13ifvqhrg","pricing_plan_id":"cebpf4jnsgd1na2vs0mg"},{"bike_id":"16e48f27-7b0d-4505-a28d-1934122f2e60","system_id":"levelo_inurba_marseille","lat":43.293744,"lon":5.399081,"is_reserved":false,"is_disabled":false,"rental_uris":{"android":"levelo://app?vid=16e48f27-7b0d-4505-a28d-1934122f2e60","ios":"levelo://app?vid=16e48f27-7b0d-4505-a28d-1934122f2e60"},"vehicle_type_id":"4","last_reported":1767524939,"current_range_meters":9600,"station_id":"","pricing_plan_id":"cebpf4jnsgd1na2vs0mg"},{"bike_id":"2b725004-d7f5-4f46-95e9-d13bbd3642dd","system_id":"levelo_inurba_marseille","lat":43.29557,"lon":5.42288,"is_reserved":false,"is_disabled":false,"rental_uris":{"android":"levelo://app?vid=2b725004-d7f5-4f46-95e9-d13bbd3642dd","ios":"levelo://app?vid=2b725004-d7f5-4f46-95e9-d13bbd3642dd"},"vehicle_type_id":"4","last_reported":1767524939,"current_range_meters":9600,"station_id":"ce4bhph2rcd13ifvqhdg","pricing_plan_id":"cebpf4jnsgd1na2vs0mg"},{"bike_id":"1f1bfc90-c16d-43bf-b03c-d479766ea213","system_id":"levelo_inurba_marseille","lat":43.21743,"lon":5.34611,"is_reserved":false,"is_disabled":true,"rental_uris":{"android":"levelo://app?vid=1f1bfc90-c16d-43bf-b03c-d479766ea213","ios":"levelo://app?vid=1f1bfc90-c16d-43bf-b03c-d479766ea213"},"vehicle_type_id":"4","last_reported":1767524939,"current_range_meters":9600,"station_id":"st_cvj6r9ubvosntc0bgbag","pricing_plan_id":"cebpf4jnsgd1na2vs0mg"},{"bike_id":"c713e54a-b82d-4ed6-8942-6938c8451e46","system_id":"levelo_inurba_marseille","lat":43.27323,"lon":5.39103,"is_reserved":false,"is_disabled":false,"rental_uris":{"android":"levelo://app?vid=c713e54a-b82d-4ed6-8942-6938c8451e46","ios":"levelo://app?vid=c713e54a-b82d-4ed6-8942-6938c8451e46"},"vehicle_type_id":"4","last_reported":1767524939,"current_range_meters":9600,"station_id":"ce4bhgp2rcd13ifvqfe0","pricing_plan_id":"cebpf4jnsgd1na2vs0mg"},{"bike_id":"c48b8ab0-3aed-485b-9e87-5ea8f52478d4","system_id":"levelo_inurba_marseille","lat":43.31519,"lon":5.38385,"is_reserved":false,"is_disabled":false,"rental_uris":{"android":"levelo://app?vid=c48b8ab0-3aed-485b-9e87-5ea8f52478d4","ios":"levelo://app?vid=c48b8ab0-3aed-485b-9e87-5ea8f52478d4"},"vehicle_type_id":"4","last_reported":1767524939,"current_range_meters":9600,"station_id":"","pricing_plan_id":"cebpf4jnsgd1na2vs0mg"},{"bike_id":"d0ce3801-5c1e-4ece-889a-ecae0d874391","system_id":"levelo_inurba_marseille","lat":43.28459,"lon":5.35884,"is_reserved":false,"is_disabled":false,"rental_uris":{"android":"levelo://app?vid=d0ce3801-5c1e-4ece-889a-ecae0d874391","ios":"levelo://app?vid=d0ce3801-5c1e-4ece-889a-ecae0d874391"},"vehicle_type_id":"4","last_reported":1767524939,"current_range_meters":9600,"station_id":"ce4bhah2rcd13ifvqei0","pricing_plan_id":"cebpf4jnsgd1na2vs0mg"},{"bike_id":"731315b3-0f2f-47e0-9810-e48cee6b4a02","system_id":"levelo_inurba_marseille","lat":43.27325,"lon":5.39107,"is_reserved":false,"is_disabled":false,"rental_uris":{"android":"levelo://app?vid=731315b3-0f2f-47e0-9810-e48cee6b4a02","ios":"levelo://app?vid=731315b3-0f2f-47e0-9810-e48cee6b4a02"},"vehicle_type_id":"4","last_reported":1767524939,"current_range_meters":10000,"station_id":"ce4bhgp2rcd13ifvqfe0","pricing_plan_id":"cebpf4jnsgd1na2vs0mg"},{"bike_id":"47a54f1a-ce85-47fa-b51c-ccc729f00f48","system_id":"levelo_inurba_marseille","lat":43.28267,"lon":5.35068,"is_reserved":false,"is_disabled":false,"rental_uris":{"android":"levelo://app?vid=47a54f1a-ce85-47fa-b51c-ccc729f00f48","ios":"levelo://app?vid=47a54f1a-ce85-47fa-b51c-ccc729f00f48"},"vehicle_type_id":"4","last_reported":1767524939,"current_range_meters":10000,"station_id":"ce4bhbp2rcd13ifvqerg","pricing_plan_id":"cebpf4jnsgd1na2vs0mg"},{"bike_id":"d7927a0c-acc6-4dbc-b121-3fe1c24d45cd","system_id":"levelo_inurba_marseille","lat":43.23953,"lon":5.36633,"is_reserved":false,"is_disabled":false,"rental_uris":{"android":"levelo://app?vid=d7927a0c-acc6-4dbc-b121-3fe1c24d45cd","ios":"levelo://app?vid=d7927a0c-acc6-4dbc-b121-3fe1c24d45cd"},"vehicle_type_id":"4","last_reported":1767524939,"current_range_meters":10000,"station_id":"ce4bhi12rcd13ifvqfp0","pricing_plan_id":"cebpf4jnsgd1na2vs0mg"},{"bike_id":"fa425a2b-b01f-4040-b6da-de1021f8b95c","system_id":"levelo_inurba_marseille","lat":43.29453,"lon":5.37916,"is_reserved":false,"is_disabled":false,"rental_uris":{"android":"levelo://app?vid=fa425a2b-b01f-4040-b6da-de1021f8b95c","ios":"levelo://app?vid=fa425a2b-b01f-4040-b6da-de1021f8b95c"},"vehicle_type_id":"4","last_reported":1767524939,"current_range_meters":10000,"station_id":"","pricing_plan_id":"cebpf4jnsgd1na2vs0mg"},{"bike_id":"2a61f7a8-d2f7-4b6f-8828-528b5bab141c","system_id":"levelo_inurba_marseille","lat":43.27191,"lon":5.40989,"is_reserved":false,"is_disabled":false,"rental_uris":{"android":"levelo://app?vid=2a61f7a8-d2f7-4b6f-8828-528b5bab141c","ios":"levelo://app?vid=2a61f7a8-d2f7-4b6f-8828-528b5bab141c"},"vehicle_type_id":"4","last_reported":1767524939,"current_range_meters":10000,"station_id":"ce4bhl12rcd13ifvqgf0","pricing_plan_id":"cebpf4jnsgd1na2vs0mg"},{"bike_id":"8f67289a-c445-41d3-a7c1-2b5874f96ec2","system_id":"levelo_inurba_marseille","lat":43.313257,"lon":5.404596,"is_reserved":false,"is_disabled":false,"rental_uris":{"android":"levelo://app?vid=8f67289a-c445-41d3-a7c1-2b5874f96ec2","ios":"levelo://app?vid=8f67289a-c445-41d3-a7c1-2b5874f96ec2"},"vehicle_type_id":"4","last_reported":1767524939,"current_range_meters":10000,"station_id":"","pricing_plan_id":"cebpf4jnsgd1na2vs0mg"},{"bike_id":"b79148a9-0296-401e-b0d8-446ba2350cbc","system_id":"levelo_inurba_marseille","lat":43.26228,"lon":5.40457,"is_reserved":false,"is_disabled":false,"rental_uris":{"android":"levelo://app?vid=b79148a9-0296-401e-b0d8-446ba2350cbc","ios":"levelo://app?vid=b79148a9-0296-401e-b0d8-446ba2350cbc"},"vehicle_type_id":"4","last_reported":1767524939,"current_range_meters":10000,"station_id":"ce4bhmh2rcd13ifvqgmg","pricing_plan_id":"cebpf4jnsgd1na2vs0mg"},{"bike_id":"42c9b5e6-cebc-4822-9793-9aadf0113a8b","system_id":"levelo_inurba_marseille","lat":43.253281,"lon":5.421828,"is_reserved":false,"is_disabled":false,"rental_uris":{"android":"levelo://app?vid=42c9b5e6-cebc-4822-9793-9aadf0113a8b","ios":"levelo://app?vid=42c9b5e6-cebc-4822-9793-9aadf0113a8b"},"vehicle_type_id":"4","last_reported":1767524939,"current_range_meters":10000,"station_id":"st_d2m65c5bi1j21697t3ng","pricing_plan_id":"cebpf4jnsgd1na2vs0mg"},{"bike_id":"17122469-6fe8-44cc-83aa-2add588c9ff0","system_id":"levelo_inurba_marseille","lat":43.27074,"lon":5.42287,"is_reserved":false,"is_disabled":false,"rental_uris":{"android":"levelo://app?vid=17122469-6fe8-44cc-83aa-2add588c9ff0","ios":"levelo://app?vid=17122469-6fe8-44cc-83aa-2add588c9ff0"},"vehicle_type_id":"4","last_reported":1767524939,"current_range_meters":10000,"station_id":"ce4bhk92rcd13ifvqgb0","pricing_plan_id":"cebpf4jnsgd1na2vs0mg"},{"bike_id":"860751bb-e1d0-4b05-a70b-f6a7961198c2","system_id":"levelo_inurba_marseille","lat":43.297125,"lon":5.365748,"is_reserved":false,"is_disabled":false,"rental_uris":{"android":"levelo://app?vid=860751bb-e1d0-4b05-a70b-f6a7961198c2","ios":"levelo://app?vid=860751bb-e1d0-4b05-a70b-f6a7961198c2"},"vehicle_type_id":"4","last_reported":1767524939,"current_range_meters":10000,"station_id":"ce4bgn12rcd13ifvqbt0","pricing_plan_id":"cebpf4jnsgd1na2vs0mg"},{"bike_id":"deb0a903-ff65-4910-ab6f-673f092a1638","system_id":"levelo_inurba_marseille","lat":43.25874,"lon":5.39906,"is_reserved":false,"is_disabled":false,"rental_uris":{"android":"levelo://app?vid=deb0a903-ff65-4910-ab6f-673f092a1638","ios":"levelo://app?vid=deb0a903-ff65-4910-ab6f-673f092a1638"},"vehicle_type_id":"4","last_reported":1767524939,"current_range_meters":10000,"station_id":"ce4bhl92rcd13ifvqghg","pricing_plan_id":"cebpf4jnsgd1na2vs0mg"},{"bike_id":"edbb502a-babb-4b56-b7b2-69e8e10c7c11","system_id":"levelo_inurba_marseille","lat":43.28485,"lon":5.48393,"is_reserved":false,"is_disabled":false,"rental_uris":{"android":"levelo://app?vid=edbb502a-babb-4b56-b7b2-69e8e10c7c11","ios":"levelo://app?vid=edbb502a-babb-4b56-b7b2-69e8e10c7c11"},"vehicle_type_id":"4","last_reported":1767524939,"current_range_meters":10000,"station_id":"","pricing_plan_id":"cebpf4jnsgd1na2vs0mg"},{"bike_id":"a37d40f7-6a7a-463a-8f5a-b25737a5a4f2","system_id":"levelo_inurba_marseille","lat":43.29945,"lon":5.38037,"is_reserved":false,"is_disabled":false,"rental_uris":{"android":"levelo://app?vid=a37d40f7-6a7a-463a-8f5a-b25737a5a4f2","ios":"levelo://app?vid=a37d40f7-6a7a-463a-8f5a-b25737a5a4f2"},"vehicle_type_id":"4","last_reported":1767524939,"current_range_meters":10000,"station_id":"","pricing_plan_id":"cebpf4jnsgd1na2vs0mg"},{"bike_id":"fdf0eff4-9b5a-4907-8250-d268003ad409","system_id":"levelo_inurba_marseille","lat":43.24477,"lon":5.42559,"is_reserved":false,"is_disabled":false,"rental_uris":{"android":"levelo://app?vid=fdf0eff4-9b5a-4907-8250-d268003ad409","ios":"levelo://app?vid=fdf0eff4-9b5a-4907-8250-d268003ad409"},"vehicle_type_id":"4","last_reported":1767524939,"current_range_meters":10000,"station_id":"st_d4a3vfp97mjs738cd8kg","pricing_plan_id":"cebpf4jnsgd1na2vs0mg"},{"bike_id":"d8bac908-4a3d-4d9a-8b84-e486ecbc02f2","system_id":"levelo_inurba_marseille","lat":43.29627,"lon":5.37178,"is_reserved":false,"is_disabled":false,"rental_uris":{"android":"levelo://app?vid=d8bac908-4a3d-4d9a-8b84-e486ecbc02f2","ios":"levelo://app?vid=d8bac908-4a3d-4d9a-8b84-e486ecbc02f2"},"vehicle_type_id":"4","last_reported":1767524939,"current_range_meters":10000,"station_id":"ce4bgnh2rcd13ifvqc0g","pricing_plan_id":"cebpf4jnsgd1na2vs0mg"},{"bike_id":"d938298d-16c1-4fcf-a2a1-90f5a487d129","system_id":"levelo_inurba_marseille","lat":43.28123,"lon":5.36007,"is_reserved":false,"is_disabled":false,"rental_uris":{"android":"levelo://app?vid=d938298d-16c1-4fcf-a2a1-90f5a487d129","ios":"levelo://app?vid=d938298d-16c1-4fcf-a2a1-90f5a487d129"},"vehicle_type_id":"4","last_reported":1767524939,"current_range_meters":10000,"station_id":"","pricing_plan_id":"cebpf4jnsgd1na2vs0mg"},{"bike_id":"ce5b50c4-8b7f-4836-923c-9b6bb4694e91","system_id":"levelo_inurba_marseille","lat":43.29911,"lon":5.37562,"is_reserved":false,"is_disabled":false,"rental_uris":{"android":"levelo://app?vid=ce5b50c4-8b7f-4836-923c-9b6bb4694e91","ios":"levelo://app?vid=ce5b50c4-8b7f-4836-923c-9b6bb4694e91"},"vehicle_type_id":"4","last_reported":1767524939,"current_range_meters":10000,"station_id":"","pricing_plan_id":"cebpf4jnsgd1na2vs0mg"},{"bike_id":"d921e2ef-d57d-414d-a30d-b85b95f31cac","system_id":"levelo_inurba_marseille","lat":43.23791,"lon":5.3664,"is_reserved":false,"is_disabled":false,"rental_uris":{"android":"levelo://app?vid=d921e2ef-d57d-414d-a30d-b85b95f31cac","ios":"levelo://app?vid=d921e2ef-d57d-414d-a30d-b85b95f31cac"},"vehicle_type_id":"4","last_reported":1767524939,"current_range_meters":10000,"station_id":"st_d3nk18o9ro0c73en2l3g","pricing_plan_id":"cebpf4jnsgd1na2vs0mg"},{"bike_id":"9eb9f2a9-0def-423d-bc04-f48d9e280ab5","system_id":"levelo_inurba_marseille","lat":43.305417,"lon":5.366939,"is_reserved":false,"is_disabled":false,"rental_uris":{"android":"levelo://app?vid=9eb9f2a9-0def-423d-bc04-f48d9e280ab5","ios":"levelo://app?vid=9eb9f2a9-0def-423d-bc04-f48d9e280ab5"},"vehicle_type_id":"4","last_reported":1767524939,"current_range_meters":10800,"station_id":"ce4bgrp2rcd13ifvqc9g","pricing_plan_id":"cebpf4jnsgd1na2vs0mg"},