{"last_updated":1708020554,"ttl":30,"version":"2.2","data":{"bikes":[{"bike_id":"33c62fa4-c2f1-4243-b51a-49a890e7802c","system_id":"levelo_inurba_marseille","lat":43.313391,"lon":5.36706,"is_reserved":false,"is_disabled":false,"rental_uris":{"android":"levelo://app?vid=33c62fa4-c2f1-4243-b51a-49a890e7802c","ios":"levelo://app?vid=33c62fa4-c2f1-4243-b51a-49a890e7802c"},"vehicle_type_id":"4","last_reported":1708020554,"current_range_meters":25600,"station_id":"ce4bgr92rcd13ifvqc6g","pricing_plan_id":"cebpf4jnsgd1na2vs0mg"},{"bike_id":"57cc7846-7a3e-4761-a4fb-e541da702903","system_id":"levelo_inurba_marseille","lat":43.31341,"lon":5.367098,"is_reserved":false,"is_disabled":false,"rental_uris":{"android":"levelo://app?vid=57cc7846-7a3e-4761-a4fb-e541da702903","ios":"levelo://app?vid=57cc7846-7a3e-4761-a4fb-e541da702903"},"vehicle_type_id":"4","last_reported":1708020554,"current_range_meters":0,"station_id":"ce4bgr92rcd13ifvqc6g","pricing_plan_id":"cebpf4jnsgd1na2vs0mg"},{"bike_id":"76037fd0-3cae-401d-8da2-ad03a2d4a793","system_id":"levelo_inurba_marseille","lat":43.30907,"lon":5.36676,"is_reserved":false,"is_disabled":false,"rental_uris":{"android":"levelo://app?vid=76037fd0-3cae-401d-8da2-ad03a2d4a793","ios":"levelo://app?vid=76037fd0-3cae-401d-8da2-ad03a2d4a793"},"vehicle_type_id":"4","last_reported":1708020554,"current_range_meters":0,"station_id":"","pricing_plan_id":"cebpf4jnsgd1na2vs0mg"},{"bike_id":"530f0976-531b-48b4-b748-bc5d3cb607db","system_id":"levelo_inurba_marseille","lat":43.314811,"lon":5.373103,"is_reserved":false,"is_disabled":false,"rental_uris":{"android":"levelo://app?vid=530f0976-531b-48b4-b748-bc5d3cb607db","ios":"levelo://app?vid=530f0976-531b-48b4-b748-bc5d3cb607db"},"vehicle_type_id":"4","last_reported":1708020554,"current_range_meters":400,"station_id":"ce4bgt12rcd13ifvqcd0","pricing_plan_id":"cebpf4jnsgd1na2vs0mg"},{"bike_id":"f511096e-2e97-446e-ae83-eabae42770cd","system_id":"levelo_inurba_marseille","lat":43.314811,"lon":5.373103,"is_reserved":false,"is_disabled":false,"rental_uris":{"android":"levelo://app?vid=f511096e-2e97-446e-ae83-eabae42770cd","ios":"levelo://app?vid=f511096e-2e97-446e-ae83-eabae42770cd"},"vehicle_type_id":"4","last_reported":1708020554,"current_range_meters":10000,"station_id":"ce4bgt12rcd13ifvqcd0","pricing_plan_id":"cebpf4jnsgd1na2vs0mg"},{"bike_id":"68685405-4e62-44b9-91a9-4187d04bba5c","system_id":"levelo_inurba_marseille","lat":43.314811,"lon":5.373103,"is_reserved":false,"is_disabled":false,"rental_uris":{"android":"levelo://app?vid=68685405-4e62-44b9-91a9-4187d04bba5c","ios":"levelo://app?vid=68685405-4e62-44b9-91a9-4187d04bba5c"},"vehicle_type_id":"4","last_reported":1708020554,"current_range_meters":17600,"station_id":"ce4bgt12rcd13ifvqcd0","pricing_plan_id":"cebpf4jnsgd1na2vs0mg"},{"bike_id":"618340e5-067f-4d4b-8700-fad66001f82e","system_id":"levelo_inurba_marseille","lat":43.309039,"lon":5.371797,"is_reserved":false,"is_disabled":false,"rental_uris":{"android":"levelo://app?vid=618340e5-067f-4d4b-8700-fad66001f82e","ios":"levelo://app?vid=618340e5-067f-4d4b-8700-fad66001f82e"},"vehicle_type_id":"4","last_reported":1708020554,"current_range_meters":4800,"station_id":"ce4bguh2rcd13ifvqckg","pricing_plan_id":"cebpf4jnsgd1na2vs0mg"},{"bike_id":"b41e25fa-43d2-4259-973e-24f317dab4e1","system_id":"levelo_inurba_marseille","lat":43.30552,"lon":5.36552,"is_reserved":false,"is_disabled":false,"rental_uris":{"android":"levelo://app?vid=b41e25fa-43d2-4259-973e-24f317dab4e1","ios":"levelo://app?vid=b41e25fa-43d2-4259-973e-24f317dab4e1"},"vehicle_type_id":"4","last_reported":1708020554,"current_range_meters":2400,"station_id":"","pricing_plan_id":"cebpf4jnsgd1na2vs0mg"},{"bike_id":"2de5b8e9-566f-4321-b309-f5f9557cc178","system_id":"levelo_inurba_marseille","lat":43.305714,"lon":5.365633,"is_reserved":false,"is_disabled":false,"rental_uris":{"android":"levelo://app?vid=2de5b8e9-566f-4321-b309-f5f9557cc178","ios":"levelo://app?vid=2de5b8e9-566f-4321-b309-f5f9557cc178"},"vehicle_type_id":"4","last_reported":1708020554,"current_range_meters":9600,"station_id":"ce4bgs12rcd13ifvqcag","pricing_plan_id":"cebpf4jnsgd1na2vs0mg"},{"bike_id":"08e4d723-253a-40c5-b1c3-9e0c4a319a08","system_id":"levelo_inurba_marseille","lat":43.305714,"lon":5.365633,"is_reserved":false,"is_disabled":false,"rental_uris":{"android":"levelo://app?vid=08e4d723-253a-40c5-b1c3-9e0c4a319a08","ios":"levelo://app?vid=08e4d723-253a-40c5-b1c3-9e0c4a319a08"},"vehicle_type_id":"4","last_reported":1708020554,"current_range_meters":1600,"station_id":"ce4bgs12rcd13ifvqcag","pricing_plan_id":"cebpf4jnsgd1na2vs0mg"},{"bike_id":"1c5d2cbf-85d6-4f56-a465-67acdd748360","system_id":"levelo_inurba_marseille","lat":43.30613,"lon":5.37217,"is_reserved":false,"is_disabled":false,"rental_uris":{"android":"levelo://app?vid=1c5d2cbf-85d6-4f56-a465-67acdd748360","ios":"levelo://app?vid=1c5d2cbf-85d6-4f56-a465-67acdd748360"},"vehicle_type_id":"4","last_reported":1708020554,"current_range_meters":10400,"station_id":"ce4bgqh2rcd13ifvqc4g","pricing_plan_id":"cebpf4jnsgd1na2vs0mg"},{"bike_id":"f1a65f92-ccaf-48bd-90bc-dd0595b4e019","system_id":"levelo_inurba_marseille","lat":43.305989,"lon":5.37225,"is_reserved":false,"is_disabled":false,"rental_uris":{"android":"levelo://app?vid=f1a65f92-ccaf-48bd-90bc-dd0595b4e019","ios":"levelo://app?vid=f1a65f92-ccaf-48bd-90bc-dd0595b4e019"},"vehicle_type_id":"4","last_reported":1708020554,"current_range_meters":22000,"station_id":"ce4bgqh2rcd13ifvqc4g","pricing_plan_id":"cebpf4jnsgd1na2vs0mg"},{"bike_id":"557c428c-0e1a-4d7e-a5ad-8c25f9fc067f","system_id":"levelo_inurba_marseille","lat":43.31115,"lon":5.3777,"is_reserved":false,"is_disabled":false,"rental_uris":{"android":"levelo://app?vid=557c428c-0e1a-4d7e-a5ad-8c25f9fc067f","ios":"levelo://app?vid=557c428c-0e1a-4d7e-a5ad-8c25f9fc067f"},"vehicle_type_id":"4","last_reported":1708020554,"current_range_meters":0,"station_id":"ce4bgt92rcd13ifvqcg0","pricing_plan_id":"cebpf4jnsgd1na2vs0mg"},{"bike_id":"7cf6c0ff-bce6-47f1-b6fe-5ab1236b74db","system_id":"levelo_inurba_marseille","lat":43.31114,"lon":5.37775,"is_reserved":false,"is_disabled":false,"rental_uris":{"android":"levelo://app?vid=7cf6c0ff-bce6-47f1-b6fe-5ab1236b74db","ios":"levelo://app?vid=7cf6c0ff-bce6-47f1-b6fe-5ab1236b74db"},"vehicle_type_id":"4","last_reported":1708020554,"current_range_meters":400,"station_id":"ce4bgt92rcd13ifvqcg0","pricing_plan_id":"cebpf4jnsgd1na2vs0mg"},{"bike_id":"d9f1f1c6-f12f-4449-b80b-22ce85b88511","system_id":"levelo_inurba_marseille","lat":43.31118,"lon":5.3778,"is_reserved":false,"is_disabled":false,"rental_uris":{"android":"levelo://app?vid=d9f1f1c6-f12f-4449-b80b-22ce85b88511","ios":"levelo://app?vid=d9f1f1c6-f12f-4449-b80b-22ce85b88511"},"vehicle_type_id":"4","last_reported":1708020554,"current_range_meters":10400,"station_id":"ce4bgt92rcd13ifvqcg0","pricing_plan_id":"cebpf4jnsgd1na2vs0mg"},{"bike_id":"df7164c7-d670-4d02-a01a-881f90bd45db","system_id":"levelo_inurba_marseille","lat":43.311131,"lon":5.377651,"is_reserved":false,"is_disabled":false,"rental_uris":{"android":"levelo://app?vid=df7164c7-d670-4d02-a01a-881f90bd45db","ios":"levelo://app?vid=df7164c7-d670-4d02-a01a-881f90bd45db"},"vehicle_type_id":"4","last_reported":1708020554,"current_range_meters":11600,"station_id":"ce4bgt92rcd13ifvqcg0","pricing_plan_id":"cebpf4jnsgd1na2vs0mg"},{"bike_id":"2fca39f8-6a10-42b9-80c8-ff25bebc9e9e","system_id":"levelo_inurba_marseille","lat":43.307945,"lon":5.376487,"is_reserved":false,"is_disabled":false,"rental_uris":{"android":"levelo://app?vid=2fca39f8-6a10-42b9-80c8-ff25bebc9e9e","ios":"levelo://app?vid=2fca39f8-6a10-42b9-80c8-ff25bebc9e9e"},"vehicle_type_id":"4","last_reported":1708020554,"current_range_meters":30000,"station_id":"ce4bgv92rcd13ifvqcq0","pricing_plan_id":"cebpf4jnsgd1na2vs0mg"},{"bike_id":"9469c041-66ab-4b66-9f58-9f59a1dbf7f9","system_id":"levelo_inurba_marseille","lat":43.307945,"lon":5.376487,"is_reserved":false,"is_disabled":false,"rental_uris":{"android":"levelo://app?vid=9469c041-66ab-4b66-9f58-9f59a1dbf7f9","ios":"levelo://app?vid=9469c041-66ab-4b66-9f58-9f59a1dbf7f9"},"vehicle_type_id":"4","last_reported":1708020554,"current_range_meters":30000,"station_id":"ce4bgv92rcd13ifvqcq0","pricing_plan_id":"cebpf4jnsgd1na2vs0mg"},{"bike_id":"9795fa11-845f-4675-a60d-41348559135d","system_id":"levelo_inurba_marseille","lat":43.307945,"lon":5.376487,"is_reserved":false,"is_disabled":false,"rental_uris":{"android":"levelo://app?vid=9795fa11-845f-4675-a60d-41348559135d","ios":"levelo://app?vid=9795fa11-845f-4675-a60d-41348559135d"},"vehicle_type_id":"4","last_reported":1708020554,"current_range_meters":24800,"station_id":"ce4bgv92rcd13ifvqcq0","pricing_plan_id":"cebpf4jnsgd1na2vs0mg"},{"bike_id":"7ccf2db0-88f7-4201-aeb1-d079f53beee9","system_id":"levelo_inurba_marseille","lat":43.30785,"lon":5.37658,"is_reserved":false,"is_disabled":false,"rental_uris":{"android":"levelo://app?vid=7ccf2db0-88f7-4201-aeb1-d079f53beee9","ios":"levelo://app?vid=7ccf2db0-88f7-4201-aeb1-d079f53beee9"},"vehicle_type_id":"4","last_reported":1708020554,"current_range_meters":12000,"station_id":"ce4bgv92rcd13ifvqcq0","pricing_plan_id":"cebpf4jnsgd1na2vs0mg"},{"bike_id":"8cb41064-3034-4717-aacf-23a6ca92ef32","system_id":"levelo_inurba_marseille","lat":43.307945,"lon":5.376487,"is_reserved":false,"is_disabled":false,"rental_uris":{"android":"levelo://app?vid=8cb41064-3034-4717-aacf-23a6ca92ef32","ios":"levelo://app?vid=8cb41064-3034-4717-aacf-23a6ca92ef32"},"vehicle_type_id":"4","last_reported":1708020554,"current_range_meters":20400,"station_id":"ce4bgv92rcd13ifvqcq0","pricing_plan_id":"cebpf4jnsgd1na2vs0mg"},{"bike_id":"6f72c5c8-2dcc-429c-992b-d83bd3097475","system_id":"levelo_inurba_marseille","lat":43.307945,"lon":5.376487,"is_reserved":false,"is_disabled":false,"rental_uris":{"android":"levelo://app?vid=6f72c5c8-2dcc-429c-992b-d83bd3097475","ios":"levelo://app?vid=6f72c5c8-2dcc-429c-992b-d83bd3097475"},"vehicle_type_id":"4","last_reported":1708020554,"current_range_meters":22800,"station_id":"ce4bgv92rcd13ifvqcq0","pricing_plan_id":"cebpf4jnsgd1na2vs0mg"},{"bike_id":"7157be7d-4209-4d8b-aac3-99f77dfe5834","system_id":"levelo_inurba_marseille","lat":43.307945,"lon":5.376487,"is_reserved":false,"is_disabled":false,"rental_uris":{"android":"levelo://app?vid=7157be7d-4209-4d8b-aac3-99f77dfe5834","ios":"levelo://app?vid=7157be7d-4209-4d8b-aac3-99f77dfe5834"},"vehicle_type_id":"4","last_reported":1708020554,"current_range_meters":26400,"station_id":"ce4bgv92rcd13ifvqcq0","pricing_plan_id":"cebpf4jnsgd1na2vs0mg"},{"bike_id":"e0ab11de-fc9c-4d4b-971a-3b2ba2a23340","system_id":"levelo_inurba_marseille","lat":43.317075,"lon":5.377367,"is_reserved":false,"is_disabled":false,"rental_uris":{"android":"levelo://app?vid=e0ab11de-fc9c-4d4b-971a-3b2ba2a23340","ios":"levelo://app?vid=e0ab11de-fc9c-4d4b-971a-3b2ba2a23340"},"vehicle_type_id":"4","last_reported":1708020554,"current_range_meters":31600,"station_id":"ce4bgth2rcd13ifvqch0","pricing_plan_id":"cebpf4jnsgd1na2vs0mg"},{"bike_id":"e8396d9b-01ad-42aa-ae6a-25e7361077f6","system_id":"levelo_inurba_marseille","lat":43.317075,"lon":5.377367,"is_reserved":false,"is_disabled":false,"rental_uris":{"android":"levelo://app?vid=e8396d9b-01ad-42aa-ae6a-25e7361077f6","ios":"levelo://app?vid=e8396d9b-01ad-42aa-ae6a-25e7361077f6"},"vehicle_type_id":"4","last_reported":1708020554,"current_range_meters":31600,"station_id":"ce4bgth2rcd13ifvqch0","pricing_plan_id":"cebpf4jnsgd1na2vs0mg"},{"bike_id":"aa533a6f-0dc9-4d7d-8582-0387547a46a5","system_id":"levelo_inurba_marseille","lat":43.317075,"lon":5.377367,"is_reserved":false,"is_disabled":false,"rental_uris":{"android":"levelo://app?vid=aa533a6f-0dc9-4d7d-8582-0387547a46a5","ios":"levelo://app?vid=aa533a6f-0dc9-4d7d-8582-0387547a46a5"},"vehicle_type_id":"4","last_reported":1708020554,"current_range_meters":5200,"station_id":"ce4bgth2rcd13ifvqch0","pricing_plan_id":"cebpf4jnsgd1na2vs0mg"},{"bike_id":"6f39090b-b91e-4eaa-81f6-ef24a66149be","system_id":"levelo_inurba_marseille","lat":43.317075,"lon":5.377367,"is_reserved":false,"is_disabled":false,"rental_uris":{"android":"levelo://app?vid=6f39090b-b91e-4eaa-81f6-ef24a66149be","ios":"levelo://app?vid=6f39090b-b91e-4eaa-81f6-ef24a66149be"},"vehicle_type_id":"4","last_reported":1708020554,"current_range_meters":13200,"station_id":"ce4bgth2rcd13ifvqch0","pricing_plan_id":"cebpf4jnsgd1na2vs0mg"},{"bike_id":"bd8bf2f6-55a3-42d0-ab75-0b9abfe6e404","system_id":"levelo_inurba_marseille","lat":43.317075,"lon":5.377367,"is_reserved":false,"is_disabled":false,"rental_uris":{"android":"levelo://app?vid=bd8bf2f6-55a3-42d0-ab75-0b9abfe6e404","ios":"levelo://app?vid=bd8bf2f6-55a3-42d0-ab75-0b9abfe6e404"},"vehicle_type_id":"4","last_reported":1708020554,"current_range_meters":16000,"station_id":"ce4bgth2rcd13ifvqch0","pricing_plan_id":"cebpf4jnsgd1na2vs0mg"},{"bike_id":"0caa5e7c-0079-405d-9ffc-c2fffe20524b","system_id":"levelo_inurba_marseille","lat":43.303046,"lon":5.368981,"is_reserved":false,"is_disabled":false,"rental_uris":{"android":"levelo://app?vid=0caa5e7c-0079-405d-9ffc-c2fffe20524b","ios":"levelo://app?vid=0caa5e7c-0079-405d-9ffc-c2fffe20524b"},"vehicle_type_id":"4","last_reported":1708020554,"current_range_meters":9600,"station_id":"ce4bgqh2rcd13ifvqc5g","pricing_plan_id":"cebpf4jnsgd1na2vs0mg"},{"bike_id":"b67306fa-d95b-4754-b4be-c4de1138c990","system_id":"levelo_inurba_marseille","lat":43.32194,"lon":5.36464,"is_reserved":false,"is_disabled":false,"rental_uris":{"android":"levelo://app?vid=b67306fa-d95b-4754-b4be-c4de1138c990","ios":"levelo://app?vid=b67306fa-d95b-4754-b4be-c4de1138c990"},"vehicle_type_id":"4","last_reported":1708020554,"current_range_meters":15600,"station_id":"","pricing_plan_id":"cebpf4jnsgd1na2vs0mg"},{"bike_id":"8339acd7-a962-4e70-8ca9-a68fba07911c","system_id":"levelo_inurba_marseille","lat":43.303046,"lon":5.368981,"is_reserved":false,"is_disabled":false,"rental_uris":{"android":"levelo://app?vid=8339acd7-a962-4e70-8ca9-a68fba07911c","ios":"levelo://app?vid=8339acd7-a962-4e70-8ca9-a68fba07911c"},"vehicle_type_id":"4","last_reported":1708020554,"current_range_meters":12800,"station_id":"ce4bgqh2rcd13ifvqc5g","pricing_plan_id":"cebpf4jnsgd1na2vs0mg"},{"bike_id":"74917c67-9581-4430-976b-d05a9bd7765d","system_id":"levelo_inurba_marseille","lat":43.301775,"lon":5.366238,"is_reserved":false,"is_disabled":false,"rental_uris":{"android":"levelo://app?vid=74917c67-9581-4430-976b-d05a9bd7765d","ios":"levelo://app?vid=74917c67-9581-4430-976b-d05a9bd7765d"},"vehicle_type_id":"4","last_reported":1708020554,"current_range_meters":26400,"station_id":"ce4bgrh2rcd13ifvqc8g","pricing_plan_id":"cebpf4jnsgd1na2vs0mg"},{"bike_id":"c2c424c3-886f-4e21-b3ab-ef06b32e2f60","system_id":"levelo_inurba_marseille","lat":43.308012,"lon":5.381511,"is_reserved":false,"is_disabled":false,"rental_uris":{"android":"levelo://app?vid=c2c424c3-886f-4e21-b3ab-ef06b32e2f60","ios":"levelo://app?vid=c2c424c3-886f-4e21-b3ab-ef06b32e2f60"},"vehicle_type_id":"4","last_reported":1708020554,"current_range_meters":12400,"station_id":"ce4bgt12rcd13ifvqce0","pricing_plan_id":"cebpf4jnsgd1na2vs0mg"},{"bike_id":"5ed0a109-9ca7-4876-adad-41d58d377d1a","system_id":"levelo_inurba_marseille","lat":43.324771,"lon":5.36557,"is_reserved":false,"is_disabled":false,"rental_uris":{"android":"levelo://app?vid=5ed0a109-9ca7-4876-adad-41d58d377d1a","ios":"levelo://app?vid=5ed0a109-9ca7-4876-adad-41d58d377d1a"},"vehicle_type_id":"4","last_reported":1708020554,"current_range_meters":5200,"station_id":"ce4bhs12rcd13ifvqhvg","pricing_plan_id":"cebpf4jnsgd1na2vs0mg"},{"bike_id":"67079a29-f28c-4d70-8856-b0af88c8d642","system_id":"levelo_inurba_marseille","lat":43.324771,"lon":5.36557,"is_reserved":false,"is_disabled":false,"rental_uris":{"android":"levelo://app?vid=67079a29-f28c-4d70-8856-b0af88c8d642","ios":"levelo://app?vid=67079a29-f28c-4d70-8856-b0af88c8d642"},"vehicle_type_id":"4","last_reported":1708020554,"current_range_meters":24400,"station_id":"ce4bhs12rcd13ifvqhvg","pricing_plan_id":"cebpf4jnsgd1na2vs0mg"},{"bike_id":"eb331c1c-770d-4ab0-8716-5793c3e19a18","system_id":"levelo_inurba_marseille","lat":43.324771,"lon":5.36557,"is_reserved":false,"is_disabled":false,"rental_uris":{"android":"levelo://app?vid=eb331c1c-770d-4ab0-8716-5793c3e19a18","ios":"levelo://app?vid=eb331c1c-770d-4ab0-8716-5793c3e19a18"},"vehicle_type_id":"4","last_reported":1708020554,"current_range_meters":11600,"station_id":"ce4bhs12rcd13ifvqhvg","pricing_plan_id":"cebpf4jnsgd1na2vs0mg"},{"bike_id":"74040d89-d5b2-4f31-8c52-790dda89ed07","system_id":"levelo_inurba_marseille","lat":43.324771,"lon":5.36557,"is_reserved":false,"is_disabled":false,"rental_uris":{"android":"levelo://app?vid=74040d89-d5b2-4f31-8c52-790dda89ed07","ios":"levelo://app?vid=74040d89-d5b2-4f31-8c52-790dda89ed07"},"vehicle_type_id":"4","last_reported":1708020554,"current_range_meters":12800,"station_id":"ce4bhs12rcd13ifvqhvg","pricing_plan_id":"cebpf4jnsgd1na2vs0mg"},{"bike_id":"8cc61c4a-5302-4b6c-a32c-54803363c1d2","system_id":"levelo_inurba_marseille","lat":43.310703,"lon":5.383501,"is_reserved":false,"is_disabled":false,"rental_uris":{"android":"levelo://app?vid=8cc61c4a-5302-4b6c-a32c-54803363c1d2","ios":"levelo://app?vid=8cc61c4a-5302-4b6c-a32c-54803363c1d2"},"vehicle_type_id":"4","last_reported":1708020554,"current_range_meters":30800,"station_id":"ce4bgv92rcd13ifvqcr0","pricing_plan_id":"cebpf4jnsgd1na2vs0mg"},{"bike_id":"da4fadf5-3e37-4933-b2d3-0de431b1409d","system_id":"levelo_inurba_marseille","lat":43.310778,"lon":5.383523,"is_reserved":false,"is_disabled":false,"rental_uris":{"android":"levelo://app?vid=da4fadf5-3e37-4933-b2d3-0de431b1409d","ios":"levelo://app?vid=da4fadf5-3e37-4933-b2d3-0de431b1409d"},"vehicle_type_id":"4","last_reported":1708020554,"current_range_meters":0,"station_id":"ce4bgv92rcd13ifvqcr0","pricing_plan_id":"cebpf4jnsgd1na2vs0mg"},{"bike_id":"38716a6a-d578-4748-ad61-d6ef7efd9f5c","system_id":"levelo_inurba_marseille","lat":43.310804,"lon":5.38359,"is_reserved":false,"is_disabled":false,"rental_uris":{"android":"levelo://app?vid=38716a6a-d578-4748-ad61-d6ef7efd9f5c","ios":"levelo://app?vid=38716a6a-d578-4748-ad61-d6ef7efd9f5c"},"vehicle_type_id":"4","last_reported":1708020554,"current_range_meters":18000,"station_id":"ce4bgv92rcd13ifvqcr0","pricing_plan_id":"cebpf4jnsgd1na2vs0mg"},{"bike_id":"4bbfc395-a32c-45ab-bb0b-565bdfcea676","system_id":"levelo_inurba_marseille","lat":43.310804,"lon":5.38359,"is_reserved":false,"is_disabled":false,"rental_uris":{"android":"levelo://app?vid=4bbfc395-a32c-45ab-bb0b-565bdfcea676","ios":"levelo://app?vid=4bbfc395-a32c-45ab-bb0b-565bdfcea676"},"vehicle_type_id":"4","last_reported":1708020554,"current_range_meters":28800,"station_id":"ce4bgv92rcd13ifvqcr0","pricing_plan_id":"cebpf4jnsgd1na2vs0mg"},{"bike_id":"9a29bd98-7765-4199-8212-1ef4fe8ca9fe","system_id":"levelo_inurba_marseille","lat":43.310804,"lon":5.38359,"is_reserved":false,"is_disabled":false,"rental_uris":{"android":"levelo://app?vid=9a29bd98-7765-4199-8212-1ef4fe8ca9fe","ios":"levelo://app?vid=9a29bd98-7765-4199-8212-1ef4fe8ca9fe"},"vehicle_type_id":"4","last_reported":1708020554,"current_range_meters":2000,"station_id":"ce4bgv92rcd13ifvqcr0","pricing_plan_id":"cebpf4jnsgd1na2vs0mg"},{"bike_id":"aa2ae3a7-52c9-404a-8ba3-69c5067e27eb","system_id":"levelo_inurba_marseille","lat":43.310804,"lon":5.38359,"is_reserved":false,"is_disabled":false,"rental_uris":{"android":"levelo://app?vid=aa2ae3a7-52c9-404a-8ba3-69c5067e27eb","ios":"levelo://app?vid=aa2ae3a7-52c9-404a-8ba3-69c5067e27eb"},"vehicle_type_id":"4","last_reported":1708020554,"current_range_meters":4400,"station_id":"ce4bgv92rcd13ifvqcr0","pricing_plan_id":"cebpf4jnsgd1na2vs0mg"},{"bike_id":"099b175a-8474-4e6c-a992-6ccacfb8e27c","system_id":"levelo_inurba_marseille","lat":43.30143,"lon":5.37413,"is_reserved":false,"is_disabled":false,"rental_uris":{"android":"levelo://app?vid=099b175a-8474-4e6c-a992-6ccacfb8e27c","ios":"levelo://app?vid=099b175a-8474-4e6c-a992-6ccacfb8e27c"},"vehicle_type_id":"4","last_reported":1708020554,"current_range_meters":400,"station_id":"ce4bgs92rcd13ifvqcc0","pricing_plan_id":"cebpf4jnsgd1na2vs0mg"},{"bike_id":"6a9fd91d-e00e-4be5-8669-e4776a7d0b13","system_id":"levelo_inurba_marseille","lat":43.30143,"lon":5.37413,"is_reserved":false,"is_disabled":false,"rental_uris":{"android":"levelo://app?vid=6a9fd91d-e00e-4be5-8669-e4776a7d0b13","ios":"levelo://app?vid=6a9fd91d-e00e-4be5-8669-e4776a7d0b13"},"vehicle_type_id":"4","last_reported":1708020554,"current_range_meters":14000,"station_id":"ce4bgs92rcd13ifvqcc0","pricing_plan_id":"cebpf4jnsgd1na2vs0mg"},{"bike_id":"470fde00-3503-4c79-922c-c4e020e38520","system_id":"levelo_inurba_marseille","lat":43.319935,"lon":5.381699,"is_reserved":false,"is_disabled":false,"rental_uris":{"android":"levelo://app?vid=470fde00-3503-4c79-922c-c4e020e38520","ios":"levelo://app?vid=470fde00-3503-4c79-922c-c4e020e38520"},"vehicle_type_id":"4","last_reported":1708020554,"current_range_meters":31200,"station_id":"ce4bhr12rcd13ifvqhpg","pricing_plan_id":"cebpf4jnsgd1na2vs0mg"},{"bike_id":"1524caed-e036-4a1d-90f3-0fb3698ebab1","system_id":"levelo_inurba_marseille","lat":43.31999,"lon":5.38166,"is_reserved":false,"is_disabled":false,"rental_uris":{"android":"levelo://app?vid=1524caed-e036-4a1d-90f3-0fb3698ebab1","ios":"levelo://app?vid=1524caed-e036-4a1d-90f3-0fb3698ebab1"},"vehicle_type_id":"4","last_reported":1708020554,"current_range_meters":1200,"station_id":"ce4bhr12rcd13ifvqhpg","pricing_plan_id":"cebpf4jnsgd1na2vs0mg"},{"bike_id":"57072b11-bca2-4958-8bc1-db4d89490084","system_id":"levelo_inurba_marseille","lat":43.313571,"lon":5.384829,"is_reserved":false,"is_disabled":false,"rental_uris":{"android":"levelo://app?vid=57072b11-bca2-4958-8bc1-db4d89490084","ios":"levelo://app?vid=57072b11-bca2-4958-8bc1-db4d89490084"},"vehicle_type_id":"4","last_reported":1708020554,"current_range_meters":12000,"station_id":"ce4bgt92rcd13ifvqcf0","pricing_plan_id":"cebpf4jnsgd1na2vs0mg"},{"bike_id":"5f56a675-d83a-4186-96cb-b927703a9823","system_id":"levelo_inurba_marseille","lat":43.313571,"lon":5.384829,"is_reserved":false,"is_disabled":false,"rental_uris":{"android":"levelo://app?vid=5f56a675-d83a-4186-96cb-b927703a9823","ios":"levelo://app?vid=5f56a675-d83a-4186-96cb-b927703a9823"},"vehicle_type_id":"4","last_reported":1708020554,"current_range_meters":30000,"station_id":"ce4bgt92rcd13ifvqcf0","pricing_plan_id":"cebpf4jnsgd1na2vs0mg"},{"bike_id":"5df1e20e-9e1b-4689-ab95-b78fb5e55697","system_id":"levelo_inurba_marseille","lat":43.313571,"lon":5.384829,"is_reserved":false,"is_disabled":false,"rental_uris":{"android":"levelo://app?vid=5df1e20e-9e1b-4689-ab95-b78fb5e55697","ios":"levelo://app?vid=5df1e20e-9e1b-4689-ab95-b78fb5e55697"},"vehicle_type_id":"4","last_reported":1708020554,"current_range_meters":27200,"station_id":"ce4bgt92rcd13ifvqcf0","pricing_plan_id":"cebpf4jnsgd1na2vs0mg"},{"bike_id":"bf013419-0a03-4b9a-88d1-7f9f61d5dd02","system_id":"levelo_inurba_marseille","lat":43.31355,"lon":5.38501,"is_reserved":false,"is_disabled":false,"rental_uris":{"android":"levelo://app?vid=bf013419-0a03-4b9a-88d1-7f9f61d5dd02","ios":"levelo://app?vid=bf013419-0a03-4b9a-88d1-7f9f61d5dd02"},"vehicle_type_id":"4","last_reported":1708020554,"current_range_meters":0,"station_id":"ce4bgt92rcd13ifvqcf0","pricing_plan_id":"cebpf4jnsgd1na2vs0mg"},{"bike_id":"e5b43d95-2687-4a17-a25b-bfeda59c6be2","system_id":"levelo_inurba_marseille","lat":43.31355,"lon":5.38506,"is_reserved":false,"is_disabled":false,"rental_uris":{"android":"levelo://app?vid=e5b43d95-2687-4a17-a25b-bfeda59c6be2","ios":"levelo://app?vid=e5b43d95-2687-4a17-a25b-bfeda59c6be2"},"vehicle_type_id":"4","last_reported":1708020554,"current_range_meters":24800,"station_id":"ce4bgt92rcd13ifvqcf0","pricing_plan_id":"cebpf4jnsgd1na2vs0mg"},{"bike_id":"ea3fcd07-5287-4bdc-ae6c-b74aca4f42f2","system_id":"levelo_inurba_marseille","lat":43.299222,"lon":5.365554,"is_reserved":false,"is_disabled":false,"rental_uris":{"android":"levelo://app?vid=ea3fcd07-5287-4bdc-ae6c-b74aca4f42f2","ios":"levelo://app?vid=ea3fcd07-5287-4bdc-ae6c-b74aca4f42f2"},"vehicle_type_id":"4","last_reported":1708020554,"current_range_meters":9200,"station_id":"ce4bgm92rcd13ifvqbr0","pricing_plan_id":"cebpf4jnsgd1na2vs0mg"},{"bike_id":"0c967a90-d95b-46f0-bdf3-21b91670fbd3","system_id":"levelo_inurba_marseille","lat":43.299222,"lon":5.365554,"is_reserved":false,"is_disabled":false,"rental_uris":{"android":"levelo://app?vid=0c967a90-d95b-46f0-bdf3-21b91670fbd3","ios":"levelo://app?vid=0c967a90-d95b-46f0-bdf3-21b91670fbd3"},"vehicle_type_id":"4","last_reported":1708020554,"current_range_meters":23200,"station_id":"ce4bgm92rcd13ifvqbr0","pricing_plan_id":"cebpf4jnsgd1na2vs0mg"},{"bike_id":"31b0c65d-b4fc-4ac5-9610-834e3115cb29","system_id":"levelo_inurba_marseille","lat":43.299724,"lon":5.371829,"is_reserved":false,"is_disabled":false,"rental_uris":{"android":"levelo://app?vid=31b0c65d-b4fc-4ac5-9610-834e3115cb29","ios":"levelo://app?vid=31b0c65d-b4fc-4ac5-9610-834e3115cb29"},"vehicle_type_id":"4","last_reported":1708020554,"current_range_meters":0,"station_id":"ce4bgr92rcd13ifvqc7g","pricing_plan_id":"cebpf4jnsgd1na2vs0mg"},{"bike_id":"9c0ca3cd-ce66-4b7d-84fd-52e86afd32d7","system_id":"levelo_inurba_marseille","lat":43.299222,"lon":5.365554,"is_reserved":false,"is_disabled":false,"rental_uris":{"android":"levelo://app?vid=9c0ca3cd-ce66-4b7d-84fd-52e86afd32d7","ios":"levelo://app?vid=9c0ca3cd-ce66-4b7d-84fd-52e86afd32d7"},"vehicle_type_id":"4","last_reported":1708020554,"current_range_meters":7200,"station_id":"ce4bgm92rcd13ifvqbr0","pricing_plan_id":"cebpf4jnsgd1na2vs0mg"},{"bike_id":"438704d6-c8d9-4a9f-ae76-2e621663f8c6","system_id":"levelo_inurba_marseille","lat":43.31689,"lon":5.38581,"is_reserved":false,"is_disabled":false,"rental_uris":{"android":"levelo://app?vid=438704d6-c8d9-4a9f-ae76-2e621663f8c6","ios":"levelo://app?vid=438704d6-c8d9-4a9f-ae76-2e621663f8c6"},"vehicle_type_id":"4","last_reported":1708020554,"current_range_meters":2000,"station_id":"ce4bgi92rcd13ifvqb90","pricing_plan_id":"cebpf4jnsgd1na2vs0mg"},{"bike_id":"d950ea33-3562-462c-9821-f04f0e7ecdc4","system_id":"levelo_inurba_marseille","lat":43.298433,"lon":5.362774,"is_reserved":false,"is_disabled":false,"rental_uris":{"android":"levelo://app?vid=d950ea33-3562-462c-9821-f04f0e7ecdc4","ios":"levelo://app?vid=d950ea33-3562-462c-9821-f04f0e7ecdc4"},"vehicle_type_id":"4","last_reported":1708020554,"current_range_meters":14000,"station_id":"ce4bgpp2rcd13ifvqc3g","pricing_plan_id":"cebpf4jnsgd1na2vs0mg"},{"bike_id":"243fe6fd-bad3-4c93-a889-5f9638faebfc","system_id":"levelo_inurba_marseille","lat":43.298433,"lon":5.362774,"is_reserved":false,"is_disabled":false,"rental_uris":{"android":"levelo://app?vid=243fe6fd-bad3-4c93-a889-5f9638faebfc","ios":"levelo://app?vid=243fe6fd-bad3-4c93-a889-5f9638faebfc"},"vehicle_type_id":"4","last_reported":1708020554,"current_range_meters":10400,"station_id":"ce4bgpp2rcd13ifvqc3g","pricing_plan_id":"cebpf4jnsgd1na2vs0mg"},{"bike_id":"84af17a9-a9d2-4141-bcef-dc0d1ac1b400","system_id":"levelo_inurba_marseille","lat":43.298433,"lon":5.362774,"is_reserved":false,"is_disabled":false,"rental_uris":{"android":"levelo://app?vid=84af17a9-a9d2-4141-bcef-dc0d1ac1b400","ios":"levelo://app?vid=84af17a9-a9d2-4141-bcef-dc0d1ac1b400"},"vehicle_type_id":"4","last_reported":1708020554,"current_range_meters":22400,"station_id":"ce4bgpp2rcd13ifvqc3g","pricing_plan_id":"cebpf4jnsgd1na2vs0mg"},{"bike_id":"a11e02f1-0140-4fee-bbfd-b3afb888a2ce","system_id":"levelo_inurba_marseille","lat":43.298433,"lon":5.362774,"is_reserved":false,"is_disabled":false,"rental_uris":{"android":"levelo://app?vid=a11e02f1-0140-4fee-bbfd-b3afb888a2ce","ios":"levelo://app?vid=a11e02f1-0140-4fee-bbfd-b3afb888a2ce"},"vehicle_type_id":"4","last_reported":1708020554,"current_range_meters":0,"station_id":"ce4bgpp2rcd13ifvqc3g","pricing_plan_id":"cebpf4jnsgd1na2vs0mg"},{"bike_id":"f13e1767-0859-4323-849f-4253472d28da","system_id":"levelo_inurba_marseille","lat":43.298433,"lon":5.362774,"is_reserved":false,"is_disabled":false,"rental_uris":{"android":"levelo://app?vid=f13e1767-0859-4323-849f-4253472d28da","ios":"levelo://app?vid=f13e1767-0859-4323-849f-4253472d28da"},"vehicle_type_id":"4","last_reported":1708020554,"current_range_meters":13200,"station_id":"ce4bgpp2rcd13ifvqc3g","pricing_plan_id":"cebpf4jnsgd1na2vs0mg"},{"bike_id":"78761a65-b5ed-4e84-9407-8dd1f2ead7c2","system_id":"levelo_inurba_marseille","lat":43.298433,"lon":5.362774,"is_reserved":false,"is_disabled":false,"rental_uris":{"android":"levelo://app?vid=78761a65-b5ed-4e84-9407-8dd1f2ead7c2","ios":"levelo://app?vid=78761a65-b5ed-4e84-9407-8dd1f2ead7c2"},"vehicle_type_id":"4","last_reported":1708020554,"current_range_meters":24400,"station_id":"ce4bgpp2rcd13ifvqc3g","pricing_plan_id":"cebpf4jnsgd1na2vs0mg"},{"bike_id":"34a75a6b-fcd4-4b82-a217-212401ace7aa","system_id":"levelo_inurba_marseille","lat":43.298433,"lon":5.362774,"is_reserved":false,"is_disabled":false,"rental_uris":{"android":"levelo://app?vid=34a75a6b-fcd4-4b82-a217-212401ace7aa","ios":"levelo://app?vid=34a75a6b-fcd4-4b82-a217-212401ace7aa"},"vehicle_type_id":"4","last_reported":1708020554,"current_range_meters":30800,"station_id":"ce4bgpp2rcd13ifvqc3g","pricing_plan_id":"cebpf4jnsgd1na2vs0mg"},{"bike_id":"28fac207-d3cd-4a20-9edd-ea61578d2dd3","system_id":"levelo_inurba_marseille","lat":43.298433,"lon":5.362774,"is_reserved":false,"is_disabled":false,"rental_uris":{"android":"levelo://app?vid=28fac207-d3cd-4a20-9edd-ea61578d2dd3","ios":"levelo://app?vid=28fac207-d3cd-4a20-9edd-ea61578d2dd3"},"vehicle_type_id":"4","last_reported":1708020554,"current_range_meters":800,"station_id":"ce4bgpp2rcd13ifvqc3g","pricing_plan_id":"cebpf4jnsgd1na2vs0mg"},{"bike_id":"ad37863e-793a-4827-ae61-342c8e2778ca","system_id":"levelo_inurba_marseille","lat":43.298433,"lon":5.362774,"is_reserved":false,"is_disabled":false,"rental_uris":{"android":"levelo://app?vid=ad37863e-793a-4827-ae61-342c8e2778ca","ios":"levelo://app?vid=ad37863e-793a-4827-ae61-342c8e2778ca"},"vehicle_type_id":"4","last_reported":1708020554,"current_range_meters":20400,"station_id":"ce4bgpp2rcd13ifvqc3g","pricing_plan_id":"cebpf4jnsgd1na2vs0mg"},{"bike_id":"709f8bbe-8741-4d14-87ac-a499ffe5f910","system_id":"levelo_inurba_marseille","lat":43.305364,"lon":5.384119,"is_reserved":false,"is_disabled":false,"rental_uris":{"android":"levelo://app?vid=709f8bbe-8741-4d14-87ac-a499ffe5f910","ios":"levelo://app?vid=709f8bbe-8741-4d14-87ac-a499ffe5f910"},"vehicle_type_id":"4","last_reported":1708020554,"current_range_meters":18400,"station_id":"ce4bgg92rcd13ifvqb30","pricing_plan_id":"cebpf4jnsgd1na2vs0mg"},{"bike_id":"5befc6e3-c645-4e14-9c7a-e78650683059","system_id":"levelo_inurba_marseille","lat":43.305364,"lon":5.384119,"is_reserved":false,"is_disabled":false,"rental_uris":{"android":"levelo://app?vid=5befc6e3-c645-4e14-9c7a-e78650683059","ios":"levelo://app?vid=5befc6e3-c645-4e14-9c7a-e78650683059"},"vehicle_type_id":"4","last_reported":1708020554,"current_range_meters":6000,"station_id":"ce4bgg92rcd13ifvqb30","pricing_plan_id":"cebpf4jnsgd1na2vs0mg"},{"bike_id":"263e5fc1-0b68-49f2-b721-de84c2e8eca3","system_id":"levelo_inurba_marseille","lat":43.311722,"lon":5.387247,"is_reserved":false,"is_disabled":false,"rental_uris":{"android":"levelo://app?vid=263e5fc1-0b68-49f2-b721-de84c2e8eca3","ios":"levelo://app?vid=263e5fc1-0b68-49f2-b721-de84c2e8eca3"},"vehicle_type_id":"4","last_reported":1708020554,"current_range_meters":14400,"station_id":"ce4bgv12rcd13ifvqcp0","pricing_plan_id":"cebpf4jnsgd1na2vs0mg"},{"bike_id":"e4d897ef-9e37-48eb-a091-fa57c20d6954","system_id":"levelo_inurba_marseille","lat":43.298433,"lon":5.362774,"is_reserved":false,"is_disabled":false,"rental_uris":{"android":"levelo://app?vid=e4d897ef-9e37-48eb-a091-fa57c20d6954","ios":"levelo://app?vid=e4d897ef-9e37-48eb-a091-fa57c20d6954"},"vehicle_type_id":"4","last_reported":1708020554,"current_range_meters":6000,"station_id":"ce4bgpp2rcd13ifvqc3g","pricing_plan_id":"cebpf4jnsgd1na2vs0mg"},{"bike_id":"d362e9ce-058e-461c-967f-391b03329464","system_id":"levelo_inurba_marseille","lat":43.297794,"lon":5.370888,"is_reserved":false,"is_disabled":false,"rental_uris":{"android":"levelo://app?vid=d362e9ce-058e-461c-967f-391b03329464","ios":"levelo://app?vid=d362e9ce-058e-461c-967f-391b03329464"},"vehicle_type_id":"4","last_reported":1708020554,"current_range_meters":0,"station_id":"ce4bgop2rcd13ifvqc1g","pricing_plan_id":"cebpf4jnsgd1na2vs0mg"},{"bike_id":"9d3a29ea-3da6-446e-ba32-c36fde46dba1","system_id":"levelo_inurba_marseille","lat":43.298433,"lon":5.362774,"is_reserved":false,"is_disabled":false,"rental_uris":{"android":"levelo://app?vid=9d3a29ea-3da6-446e-ba32-c36fde46dba1","ios":"levelo://app?vid=9d3a29ea-3da6-446e-ba32-c36fde46dba1"},"vehicle_type_id":"4","last_reported":1708020554,"current_range_meters":16000,"station_id":"ce4bgpp2rcd13ifvqc3g","pricing_plan_id":"cebpf4jnsgd1na2vs0mg"},{"bike_id":"5b12ad66-370d-411f-8a89-1045f139e107","system_id":"levelo_inurba_marseille","lat":43.322872,"lon":5.382756,"is_reserved":false,"is_disabled":false,"rental_uris":{"android":"levelo://app?vid=5b12ad66-370d-411f-8a89-1045f139e107","ios":"levelo://app?vid=5b12ad66-370d-411f-8a89-1045f139e107"},"vehicle_type_id":"4","last_reported":1708020554,"current_range_meters":14800,"station_id":"ce4bhr12rcd13ifvqhqg","pricing_plan_id":"cebpf4jnsgd1na2vs0mg"},{"bike_id":"e674677d-7bc1-48fa-80fb-1e56b1f01f35","system_id":"levelo_inurba_marseille","lat":43.322872,"lon":5.382756,"is_reserved":false,"is_disabled":false,"rental_uris":{"android":"levelo://app?vid=e674677d-7bc1-48fa-80fb-1e56b1f01f35","ios":"levelo://app?vid=e674677d-7bc1-48fa-80fb-1e56b1f01f35"},"vehicle_type_id":"4","last_reported":1708020554,"current_range_meters":23200,"station_id":"ce4bhr12rcd13ifvqhqg","pricing_plan_id":"cebpf4jnsgd1na2vs0mg"},{"bike_id":"466a0b3c-d73b-4507-b8b6-683f9244ed96","system_id":"levelo_inurba_marseille","lat":43.322872,"lon":5.382756,"is_reserved":false,"is_disabled":false,"rental_uris":{"android":"levelo://app?vid=466a0b3c-d73b-4507-b8b6-683f9244ed96","ios":"levelo://app?vid=466a0b3c-d73b-4507-b8b6-683f9244ed96"},"vehicle_type_id":"4","last_reported":1708020554,"current_range_meters":28800,"station_id":"ce4bhr12rcd13ifvqhqg","pricing_plan_id":"cebpf4jnsgd1na2vs0mg"},{"bike_id":"aed9e4ad-9c1a-4a51-8095-58a12f0b44f4","system_id":"levelo_inurba_marseille","lat":43.322872,"lon":5.382756,"is_reserved":false,"is_disabled":false,"rental_uris":{"android":"levelo://app?vid=aed9e4ad-9c1a-4a51-8095-58a12f0b44f4","ios":"levelo://app?vid=aed9e4ad-9c1a-4a51-8095-58a12f0b44f4"},"vehicle_type_id":"4","last_reported":1708020554,"current_range_meters":30800,"station_id":"ce4bhr12rcd13ifvqhqg","pricing_plan_id":"cebpf4jnsgd1na2vs0mg"},{"bike_id":"b78bac92-0246-4209-9e98-c3c75601a8cd","system_id":"levelo_inurba_marseille","lat":43.322872,"lon":5.382756,"is_reserved":false,"is_disabled":false,"rental_uris":{"android":"levelo://app?vid=b78bac92-0246-4209-9e98-c3c75601a8cd","ios":"levelo://app?vid=b78bac92-0246-4209-9e98-c3c75601a8cd"},"vehicle_type_id":"4","last_reported":1708020554,"current_range_meters":800,"station_id":"ce4bhr12rcd13ifvqhqg","pricing_plan_id":"cebpf4jnsgd1na2vs0mg"},{"bike_id":"f4b6c96f-f863-415f-916a-aff3ff7977d0","system_id":"levelo_inurba_marseille","lat":43.322872,"lon":5.382756,"is_reserved":false,"is_disabled":false,"rental_uris":{"android":"levelo://app?vid=f4b6c96f-f863-415f-916a-aff3ff7977d0","ios":"levelo://app?vid=f4b6c96f-f863-415f-916a-aff3ff7977d0"},"vehicle_type_id":"4","last_reported":1708020554,"current_range_meters":27600,"station_id":"ce4bhr12rcd13ifvqhqg","pricing_plan_id":"cebpf4jnsgd1na2vs0mg"},{"bike_id":"e7ddac79-3e05-4879-8044-19bc4cd52fa1","system_id":"levelo_inurba_marseille","lat":43.322872,"lon":5.382756,"is_reserved":false,"is_disabled":false,"rental_uris":{"android":"levelo://app?vid=e7ddac79-3e05-4879-8044-19bc4cd52fa1","ios":"levelo://app?vid=e7ddac79-3e05-4879-8044-19bc4cd52fa1"},"vehicle_type_id":"4","last_reported":1708020554,"current_range_meters":5600,"station_id":"ce4bhr12rcd13ifvqhqg","pricing_plan_id":"cebpf4jnsgd1na2vs0mg"},{"bike_id":"b354d40e-f748-45df-b8a4-085ee0f39b31","system_id":"levelo_inurba_marseille","lat":43.32819,"lon":5.36675,"is_reserved":false,"is_disabled":false,"rental_uris":{"android":"levelo://app?vid=b354d40e-f748-45df-b8a4-085ee0f39b31","ios":"levelo://app?vid=b354d40e-f748-45df-b8a4-085ee0f39b31"},"vehicle_type_id":"4","last_reported":1708020554,"current_range_meters":20000,"station_id":"ce4bhs92rcd13ifvqi0g","pricing_plan_id":"cebpf4jnsgd1na2vs0mg"},{"bike_id":"c579bad3-e2d0-4712-a783-f41c065e4e3f","system_id":"levelo_inurba_marseille","lat":43.32824,"lon":5.36673,"is_reserved":false,"is_disabled":false,"rental_uris":{"android":"levelo://app?vid=c579bad3-e2d0-4712-a783-f41c065e4e3f","ios":"levelo://app?vid=c579bad3-e2d0-4712-a783-f41c065e4e3f"},"vehicle_type_id":"4","last_reported":1708020554,"current_range_meters":5600,"station_id":"ce4bhs92rcd13ifvqi0g","pricing_plan_id":"cebpf4jnsgd1na2vs0mg"},{"bike_id":"20747a73-3ec2-4ec7-9c3a-f0ad85525260","system_id":"levelo_inurba_marseille","lat":43.32824,"lon":5.36645,"is_reserved":false,"is_disabled":false,"rental_uris":{"android":"levelo://app?vid=20747a73-3ec2-4ec7-9c3a-f0ad85525260","ios":"levelo://app?vid=20747a73-3ec2-4ec7-9c3a-f0ad85525260"},"vehicle_type_id":"4","last_reported":1708020554,"current_range_meters":0,"station_id":"ce4bhs92rcd13ifvqi0g","pricing_plan_id":"cebpf4jnsgd1na2vs0mg"},{"bike_id":"24cbb04a-c763-4b6c-91c7-7ce4ce9a6969","system_id":"levelo_inurba_marseille","lat":43.32825,"lon":5.36682,"is_reserved":false,"is_disabled":false,"rental_uris":{"android":"levelo://app?vid=24cbb04a-c763-4b6c-91c7-7ce4ce9a6969","ios":"levelo://app?vid=24cbb04a-c763-4b6c-91c7-7ce4ce9a6969"},"vehicle_type_id":"4","last_reported":1708020554,"current_range_meters":12000,"station_id":"ce4bhs92rcd13ifvqi0g","pricing_plan_id":"cebpf4jnsgd1na2vs0mg"},{"bike_id":"ec21c626-faeb-41e5-9192-4d2bef3ee4d3","system_id":"levelo_inurba_marseille","lat":43.32826,"lon":5.36681,"is_reserved":false,"is_disabled":false,"rental_uris":{"android":"levelo://app?vid=ec21c626-faeb-41e5-9192-4d2bef3ee4d3","ios":"levelo://app?vid=ec21c626-faeb-41e5-9192-4d2bef3ee4d3"},"vehicle_type_id":"4","last_reported":1708020554,"current_range_meters":4800,"station_id":"ce4bhs92rcd13ifvqi0g","pricing_plan_id":"cebpf4jnsgd1na2vs0mg"},{"bike_id":"e4cc1337-7654-41c0-8296-b1f3b25edb39","system_id":"levelo_inurba_marseille","lat":43.32826,"lon":5.36681,"is_reserved":false,"is_disabled":false,"rental_uris":{"android":"levelo://app?vid=e4cc1337-7654-41c0-8296-b1f3b25edb39","ios":"levelo://app?vid=e4cc1337-7654-41c0-8296-b1f3b25edb39"},"vehicle_type_id":"4","last_reported":1708020554,"current_range_meters":11600,"station_id":"ce4bhs92rcd13ifvqi0g","pricing_plan_id":"cebpf4jnsgd1na2vs0mg"},{"bike_id":"d059372d-713e-4306-a0dc-ef5b2b5ad059","system_id":"levelo_inurba_marseille","lat":43.328267,"lon":5.366719,"is_reserved":false,"is_disabled":false,"rental_uris":{"android":"levelo://app?vid=d059372d-713e-4306-a0dc-ef5b2b5ad059","ios":"levelo://app?vid=d059372d-713e-4306-a0dc-ef5b2b5ad059"},"vehicle_type_id":"4","last_reported":1708020554,"current_range_meters":0,"station_id":"ce4bhs92rcd13ifvqi0g","pricing_plan_id":"cebpf4jnsgd1na2vs0mg"},{"bike_id":"57f57f96-aa15-40ae-a761-f5242a8c30b7","system_id":"levelo_inurba_marseille","lat":43.328275,"lon":5.366747,"is_reserved":false,"is_disabled":false,"rental_uris":{"android":"levelo://app?vid=57f57f96-aa15-40ae-a761-f5242a8c30b7","ios":"levelo://app?vid=57f57f96-aa15-40ae-a761-f5242a8c30b7"},"vehicle_type_id":"4","last_reported":1708020554,"current_range_meters":10800,"station_id":"ce4bhs92rcd13ifvqi0g","pricing_plan_id":"cebpf4jnsgd1na2vs0mg"},{"bike_id":"ecc597d3-f2ea-41b5-b374-bc2279e4f21f","system_id":"levelo_inurba_marseille","lat":43.32828,"lon":5.3668,"is_reserved":false,"is_disabled":false,"rental_uris":{"android":"levelo://app?vid=ecc597d3-f2ea-41b5-b374-bc2279e4f21f","ios":"levelo://app?vid=ecc597d3-f2ea-41b5-b374-bc2279e4f21f"},"vehicle_type_id":"4","last_reported":1708020554,"current_range_meters":6800,"station_id":"ce4bhs92rcd13ifvqi0g","pricing_plan_id":"cebpf4jnsgd1na2vs0mg"},{"bike_id":"cba05e70-e0bd-44a4-939c-447adab5adfd","system_id":"levelo_inurba_marseille","lat":43.32829,"lon":5.36679,"is_reserved":false,"is_disabled":false,"rental_uris":{"android":"levelo://app?vid=cba05e70-e0bd-44a4-939c-447adab5adfd","ios":"levelo://app?vid=cba05e70-e0bd-44a4-939c-447adab5adfd"},"vehicle_type_id":"4","last_reported":1708020554,"current_range_meters":4800,"station_id":"ce4bhs92rcd13ifvqi0g","pricing_plan_id":"cebpf4jnsgd1na2vs0mg"},{"bike_id":"7c47e388-9433-4092-857a-2e1a28e7faaa","system_id":"levelo_inurba_marseille","lat":43.3283,"lon":5.366776,"is_reserved":false,"is_disabled":false,"rental_uris":{"android":"levelo://app?vid=7c47e388-9433-4092-857a-2e1a28e7faaa","ios":"levelo://app?vid=7c47e388-9433-4092-857a-2e1a28e7faaa"},"vehicle_type_id":"4","last_reported":1708020554,"current_range_meters":22800,"station_id":"ce4bhs92rcd13ifvqi0g","pricing_plan_id":"cebpf4jnsgd1na2vs0mg"},{"bike_id":"e53477e0-6f81-44d0-bf92-8c0c4ae8ef5b","system_id":"levelo_inurba_marseille","lat":43.328305,"lon":5.366729,"is_reserved":false,"is_disabled":false,"rental_uris":{"android":"levelo://app?vid=e53477e0-6f81-44d0-bf92-8c0c4ae8ef5b","ios":"levelo://app?vid=e53477e0-6f81-44d0-bf92-8c0c4ae8ef5b"},"vehicle_type_id":"4","last_reported":1708020554,"current_range_meters":13600,"station_id":"ce4bhs92rcd13ifvqi0g","pricing_plan_id":"cebpf4jnsgd1na2vs0mg"},{"bike_id":"88a6f283-ebdc-4116-9bbe-c490469db988","system_id":"levelo_inurba_marseille","lat":43.297163,"lon":5.365866,"is_reserved":false,"is_disabled":false,"rental_uris":{"android":"levelo://app?vid=88a6f283-ebdc-4116-9bbe-c490469db988","ios":"levelo://app?vid=88a6f283-ebdc-4116-9bbe-c490469db988"},"vehicle_type_id":"4","last_reported":1708020554,"current_range_meters":10800,"station_id":"ce4bgn12rcd13ifvqbt0","pricing_plan_id":"cebpf4jnsgd1na2vs0mg"},{"bike_id":"b47552b1-c439-4e16-aece-02b2772e3c86","system_id":"levelo_inurba_marseille","lat":43.32831,"lon":5.36685,"is_reserved":false,"is_disabled":false,"rental_uris":{"android":"levelo://app?vid=b47552b1-c439-4e16-aece-02b2772e3c86","ios":"levelo://app?vid=b47552b1-c439-4e16-aece-02b2772e3c86"},"vehicle_type_id":"4","last_reported":1708020554,"current_range_meters":29200,"station_id":"ce4bhs92rcd13ifvqi0g","pricing_plan_id":"cebpf4jnsgd1na2vs0mg"},{"bike_id":"ba7e2d45-23a5-46a7-b5c1-beb1b5de7e04","system_id":"levelo_inurba_marseille","lat":43.32831,"lon":5.36684,"is_reserved":false,"is_disabled":false,"rental_uris":{"android":"levelo://app?vid=ba7e2d45-23a5-46a7-b5c1-beb1b5de7e04","ios":"levelo://app?vid=ba7e2d45-23a5-46a7-b5c1-beb1b5de7e04"},"vehicle_type_id":"4","last_reported":1708020554,"current_range_meters":13600,"station_id":"ce4bhs92rcd13ifvqi0g","pricing_plan_id":"cebpf4jnsgd1na2vs0mg"},{"bike_id":"c9b88aad-86c2-4a51-9436-08e8586a0048","system_id":"levelo_inurba_marseille","lat":43.32831,"lon":5.36681,"is_reserved":false,"is_disabled":false,"rental_uris":{"android":"levelo://app?vid=c9b88aad-86c2-4a51-9436-08e8586a0048","ios":"levelo://app?vid=c9b88aad-86c2-4a51-9436-08e8586a0048"},"vehicle_type_id":"4","last_reported":1708020554,"current_range_meters":15200,"station_id":"ce4bhs92rcd13ifvqi0g","pricing_plan_id":"cebpf4jnsgd1na2vs0mg"},{"bike_id":"8d4d4aba-3495-4235-ada7-809a0bcb5c57","system_id":"levelo_inurba_marseille","lat":43.32831,"lon":5.36675,"is_reserved":false,"is_disabled":false,"rental_uris":{"android":"levelo://app?vid=8d4d4aba-3495-4235-ada7-809a0bcb5c57","ios":"levelo://app?vid=8d4d4aba-3495-4235-ada7-809a0bcb5c57"},"vehicle_type_id":"4","last_reported":1708020554,"current_range_meters":18400,"station_id":"ce4bhs92rcd13ifvqi0g","pricing_plan_id":"cebpf4jnsgd1na2vs0mg"},{"bike_id":"8b36ce43-3bc7-4f8a-bb1e-1f87c12ac26a","system_id":"levelo_inurba_marseille","lat":43.32831,"lon":5.36674,"is_reserved":false,"is_disabled":false,"rental_uris":{"android":"levelo://app?vid=8b36ce43-3bc7-4f8a-bb1e-1f87c12ac26a","ios":"levelo://app?vid=8b36ce43-3bc7-4f8a-bb1e-1f87c12ac26a"},"vehicle_type_id":"4","last_reported":1708020554,"current_range_meters":5200,"station_id":"ce4bhs92rcd13ifvqi0g","pricing_plan_id":"cebpf4jnsgd1na2vs0mg"},{"bike_id":"4a0314a3-53ac-4faf-a81a-365240b15a43","system_id":"levelo_inurba_marseille","lat":43.32832,"lon":5.36691,"is_reserved":false,"is_disabled":false,"rental_uris":{"android":"levelo://app?vid=4a0314a3-53ac-4faf-a81a-365240b15a43","ios":"levelo://app?vid=4a0314a3-53ac-4faf-a81a-365240b15a43"},"vehicle_type_id":"4","last_reported":1708020554,"current_range_meters":26000,"station_id":"ce4bhs92rcd13ifvqi0g","pricing_plan_id":"cebpf4jnsgd1na2vs0mg"},{"bike_id":"6df14f4e-5762-4688-823c-207c1d70636e","system_id":"levelo_inurba_marseille","lat":43.32832,"lon":5.36676,"is_reserved":false,"is_disabled":false,"rental_uris":{"android":"levelo://app?vid=6df14f4e-5762-4688-823c-207c1d70636e","ios":"levelo://app?vid=6df14f4e-5762-4688-823c-207c1d70636e"},"vehicle_type_id":"4","last_reported":1708020554,"current_range_meters":1200,"station_id":"ce4bhs92rcd13ifvqi0g","pricing_plan_id":"cebpf4jnsgd1na2vs0mg"},{"bike_id":"00c486e2-5b6f-4240-9c00-f34f4cd392e2","system_id":"levelo_inurba_marseille","lat":43.32833,"lon":5.36682,"is_reserved":false,"is_disabled":false,"rental_uris":{"android":"levelo://app?vid=00c486e2-5b6f-4240-9c00-f34f4cd392e2","ios":"levelo://app?vid=00c486e2-5b6f-4240-9c00-f34f4cd392e2"},"vehicle_type_id":"4","last_reported":1708020554,"current_range_meters":12400,"station_id":"ce4bhs92rcd13ifvqi0g","pricing_plan_id":"cebpf4jnsgd1na2vs0mg"},{"bike_id":"f6fd5bcb-70c3-4075-907f-89cd05fc7584","system_id":"levelo_inurba_marseille","lat":43.32834,"lon":5.36701,"is_reserved":false,"is_disabled":false,"rental_uris":{"android":"levelo://app?vid=f6fd5bcb-70c3-4075-907f-89cd05fc7584","ios":"levelo://app?vid=f6fd5bcb-70c3-4075-907f-89cd05fc7584"},"vehicle_type_id":"4","last_reported":1708020554,"current_range_meters":0,"station_id":"ce4bhs92rcd13ifvqi0g","pricing_plan_id":"cebpf4jnsgd1na2vs0mg"},{"bike_id":"78be67a2-342c-453a-88c1-566ae1ae49d2","system_id":"levelo_inurba_marseille","lat":43.29715,"lon":5.36608,"is_reserved":false,"is_disabled":false,"rental_uris":{"android":"levelo://app?vid=78be67a2-342c-453a-88c1-566ae1ae49d2","ios":"levelo://app?vid=78be67a2-342c-453a-88c1-566ae1ae49d2"},"vehicle_type_id":"4","last_reported":1708020554,"current_range_meters":5600,"station_id":"ce4bgn12rcd13ifvqbt0","pricing_plan_id":"cebpf4jnsgd1na2vs0mg"},{"bike_id":"421449d6-969b-4c8c-b78b-3bf53e4451bd","system_id":"levelo_inurba_marseille","lat":43.32836,"lon":5.36678,"is_reserved":false,"is_disabled":false,"rental_uris":{"android":"levelo://app?vid=421449d6-969b-4c8c-b78b-3bf53e4451bd","ios":"levelo://app?vid=421449d6-969b-4c8c-b78b-3bf53e4451bd"},"vehicle_type_id":"4","last_reported":1708020554,"current_range_meters":26000,"station_id":"ce4bhs92rcd13ifvqi0g","pricing_plan_id":"cebpf4jnsgd1na2vs0mg"},{"bike_id":"9d7784e4-fdd2-4fa1-ba7c-236cc8eb1c32","system_id":"levelo_inurba_marseille","lat":43.29713,"lon":5.36613,"is_reserved":false,"is_disabled":false,"rental_uris":{"android":"levelo://app?vid=9d7784e4-fdd2-4fa1-ba7c-236cc8eb1c32","ios":"levelo://app?vid=9d7784e4-fdd2-4fa1-ba7c-236cc8eb1c32"},"vehicle_type_id":"4","last_reported":1708020554,"current_range_meters":0,"station_id":"ce4bgn12rcd13ifvqbt0","pricing_plan_id":"cebpf4jnsgd1na2vs0mg"},{"bike_id":"6683842f-a6f1-429e-8ef0-9530f8f45a09","system_id":"levelo_inurba_marseille","lat":43.297163,"lon":5.365866,"is_reserved":false,"is_disabled":false,"rental_uris":{"android":"levelo://app?vid=6683842f-a6f1-429e-8ef0-9530f8f45a09","ios":"levelo://app?vid=6683842f-a6f1-429e-8ef0-9530f8f45a09"},"vehicle_type_id":"4","last_reported":1708020554,"current_range_meters":22400,"station_id":"ce4bgn12rcd13ifvqbt0","pricing_plan_id":"cebpf4jnsgd1na2vs0mg"},{"bike_id":"b3bfa99e-7b4d-497b-94ef-3442263afaf4","system_id":"levelo_inurba_marseille","lat":43.297163,"lon":5.365866,"is_reserved":false,"is_disabled":false,"rental_uris":{"android":"levelo://app?vid=b3bfa99e-7b4d-497b-94ef-3442263afaf4","ios":"levelo://app?vid=b3bfa99e-7b4d-497b-94ef-3442263afaf4"},"vehicle_type_id":"4","last_reported":1708020554,"current_range_meters":1600,"station_id":"ce4bgn12rcd13ifvqbt0","pricing_plan_id":"cebpf4jnsgd1na2vs0mg"},{"bike_id":"ab142448-ffed-49e3-bc9a-32006e08dccc","system_id":"levelo_inurba_marseille","lat":43.297077,"lon":5.36595,"is_reserved":false,"is_disabled":false,"rental_uris":{"android":"levelo://app?vid=ab142448-ffed-49e3-bc9a-32006e08dccc","ios":"levelo://app?vid=ab142448-ffed-49e3-bc9a-32006e08dccc"},"vehicle_type_id":"4","last_reported":1708020554,"current_range_meters":12800,"station_id":"ce4bgn12rcd13ifvqbt0","pricing_plan_id":"cebpf4jnsgd1na2vs0mg"},{"bike_id":"83bbc968-a9c8-4662-9b1c-8f4b7d7dbb7a","system_id":"levelo_inurba_marseille","lat":43.297163,"lon":5.365866,"is_reserved":false,"is_disabled":false,"rental_uris":{"android":"levelo://app?vid=83bbc968-a9c8-4662-9b1c-8f4b7d7dbb7a","ios":"levelo://app?vid=83bbc968-a9c8-4662-9b1c-8f4b7d7dbb7a"},"vehicle_type_id":"4","last_reported":1708020554,"current_range_meters":31200,"station_id":"ce4bgn12rcd13ifvqbt0","pricing_plan_id":"cebpf4jnsgd1na2vs0mg"},{"bike_id":"01ef1e87-7b88-4771-aca4-bf0407485e75","system_id":"levelo_inurba_marseille","lat":43.297163,"lon":5.365866,"is_reserved":false,"is_disabled":false,"rental_uris":{"android":"levelo://app?vid=01ef1e87-7b88-4771-aca4-bf0407485e75","ios":"levelo://app?vid=01ef1e87-7b88-4771-aca4-bf0407485e75"},"vehicle_type_id":"4","last_reported":1708020554,"current_range_meters":26000,"station_id":"ce4bgn12rcd13ifvqbt0","pricing_plan_id":"cebpf4jnsgd1na2vs0mg"},{"bike_id":"8c4ba5a7-81b6-4b66-b36b-37fc8a7fa714","system_id":"levelo_inurba_marseille","lat":43.297163,"lon":5.365866,"is_reserved":false,"is_disabled":false,"rental_uris":{"android":"levelo://app?vid=8c4ba5a7-81b6-4b66-b36b-37fc8a7fa714","ios":"levelo://app?vid=8c4ba5a7-81b6-4b66-b36b-37fc8a7fa714"},"vehicle_type_id":"4","last_reported":1708020554,"current_range_meters":1600,"station_id":"ce4bgn12rcd13ifvqbt0","pricing_plan_id":"cebpf4jnsgd1na2vs0mg"},{"bike_id":"67e96bd6-1d2b-40f2-bb19-aa38a4d41201","system_id":"levelo_inurba_marseille","lat":43.305364,"lon":5.384119,"is_reserved":false,"is_disabled":false,"rental_uris":{"android":"levelo://app?vid=67e96bd6-1d2b-40f2-bb19-aa38a4d41201","ios":"levelo://app?vid=67e96bd6-1d2b-40f2-bb19-aa38a4d41201"},"vehicle_type_id":"4","last_reported":1708020554,"current_range_meters":14400,"station_id":"ce4bgg92rcd13ifvqb30","pricing_plan_id":"cebpf4jnsgd1na2vs0mg"},{"bike_id":"191f74ed-6b21-40a7-a502-1694df268fcb","system_id":"levelo_inurba_marseille","lat":43.2968,"lon":5.37291,"is_reserved":false,"is_disabled":false,"rental_uris":{"android":"levelo://app?vid=191f74ed-6b21-40a7-a502-1694df268fcb","ios":"levelo://app?vid=191f74ed-6b21-40a7-a502-1694df268fcb"},"vehicle_type_id":"4","last_reported":1708020554,"current_range_meters":25200,"station_id":"ce4bgk12rcd13ifvqbj0","pricing_plan_id":"cebpf4jnsgd1na2vs0mg"},{"bike_id":"0089f581-fbf2-492e-847b-4b806dded6b8","system_id":"levelo_inurba_marseille","lat":43.29579,"lon":5.36741,"is_reserved":false,"is_disabled":false,"rental_uris":{"android":"levelo://app?vid=0089f581-fbf2-492e-847b-4b806dded6b8","ios":"levelo://app?vid=0089f581-fbf2-492e-847b-4b806dded6b8"},"vehicle_type_id":"4","last_reported":1708020554,"current_range_meters":2000,"station_id":"ce4bgph2rcd13ifvqc2g","pricing_plan_id":"cebpf4jnsgd1na2vs0mg"},{"bike_id":"66a0acb4-3323-4154-960f-350c854d3b05","system_id":"levelo_inurba_marseille","lat":43.299028,"lon":5.381509,"is_reserved":false,"is_disabled":false,"rental_uris":{"android":"levelo://app?vid=66a0acb4-3323-4154-960f-350c854d3b05","ios":"levelo://app?vid=66a0acb4-3323-4154-960f-350c854d3b05"},"vehicle_type_id":"4","last_reported":1708020554,"current_range_meters":17200,"station_id":"ce4bgj12rcd13ifvqbc0","pricing_plan_id":"cebpf4jnsgd1na2vs0mg"},{"bike_id":"f0c70a5f-b0c3-4df4-9f2f-b2d519a459b6","system_id":"levelo_inurba_marseille","lat":43.30961,"lon":5.39022,"is_reserved":false,"is_disabled":false,"rental_uris":{"android":"levelo://app?vid=f0c70a5f-b0c3-4df4-9f2f-b2d519a459b6","ios":"levelo://app?vid=f0c70a5f-b0c3-4df4-9f2f-b2d519a459b6"},"vehicle_type_id":"4","last_reported":1708020554,"current_range_meters":0,"station_id":"ce4bgup2rcd13ifvqco0","pricing_plan_id":"cebpf4jnsgd1na2vs0mg"},{"bike_id":"9beee103-9d54-450c-a586-bca7b69664c2","system_id":"levelo_inurba_marseille","lat":43.299028,"lon":5.381509,"is_reserved":false,"is_disabled":false,"rental_uris":{"android":"levelo://app?vid=9beee103-9d54-450c-a586-bca7b69664c2","ios":"levelo://app?vid=9beee103-9d54-450c-a586-bca7b69664c2"},"vehicle_type_id":"4","last_reported":1708020554,"current_range_meters":18000,"station_id":"ce4bgj12rcd13ifvqbc0","pricing_plan_id":"cebpf4jnsgd1na2vs0mg"},{"bike_id":"837dc0eb-b8e5-45eb-8f47-2c0dad8c175f","system_id":"levelo_inurba_marseille","lat":43.299028,"lon":5.381509,"is_reserved":false,"is_disabled":false,"rental_uris":{"android":"levelo://app?vid=837dc0eb-b8e5-45eb-8f47-2c0dad8c175f","ios":"levelo://app?vid=837dc0eb-b8e5-45eb-8f47-2c0dad8c175f"},"vehicle_type_id":"4","last_reported":1708020554,"current_range_meters":19200,"station_id":"ce4bgj12rcd13ifvqbc0","pricing_plan_id":"cebpf4jnsgd1na2vs0mg"},{"bike_id":"2273be31-d878-4c53-b0d2-a0898838f4be","system_id":"levelo_inurba_marseille","lat":43.309589,"lon":5.390258,"is_reserved":false,"is_disabled":false,"rental_uris":{"android":"levelo://app?vid=2273be31-d878-4c53-b0d2-a0898838f4be","ios":"levelo://app?vid=2273be31-d878-4c53-b0d2-a0898838f4be"},"vehicle_type_id":"4","last_reported":1708020554,"current_range_meters":18000,"station_id":"ce4bgup2rcd13ifvqco0","pricing_plan_id":"cebpf4jnsgd1na2vs0mg"},{"bike_id":"59872a38-9d23-4188-93af-528fb520eef8","system_id":"levelo_inurba_marseille","lat":43.309589,"lon":5.390258,"is_reserved":false,"is_disabled":false,"rental_uris":{"android":"levelo://app?vid=59872a38-9d23-4188-93af-528fb520eef8","ios":"levelo://app?vid=59872a38-9d23-4188-93af-528fb520eef8"},"vehicle_type_id":"4","last_reported":1708020554,"current_range_meters":9200,"station_id":"ce4bgup2rcd13ifvqco0","pricing_plan_id":"cebpf4jnsgd1na2vs0mg"},{"bike_id":"d15c9691-a86a-4671-b911-bb84aa7f2a9b","system_id":"levelo_inurba_marseille","lat":43.309589,"lon":5.390258,"is_reserved":false,"is_disabled":false,"rental_uris":{"android":"levelo://app?vid=d15c9691-a86a-4671-b911-bb84aa7f2a9b","ios":"levelo://app?vid=d15c9691-a86a-4671-b911-bb84aa7f2a9b"},"vehicle_type_id":"4","last_reported":1708020554,"current_range_meters":15200,"station_id":"ce4bgup2rcd13ifvqco0","pricing_plan_id":"cebpf4jnsgd1na2vs0mg"},{"bike_id":"97e10e34-edd0-499c-80bb-8a81eeddaaf2","system_id":"levelo_inurba_marseille","lat":43.296921,"lon":5.376579,"is_reserved":false,"is_disabled":false,"rental_uris":{"android":"levelo://app?vid=97e10e34-edd0-499c-80bb-8a81eeddaaf2","ios":"levelo://app?vid=97e10e34-edd0-499c-80bb-8a81eeddaaf2"},"vehicle_type_id":"4","last_reported":1708020554,"current_range_meters":0,"station_id":"ce4bgkh2rcd13ifvqbl0","pricing_plan_id":"cebpf4jnsgd1na2vs0mg"},{"bike_id":"b3dcb9ba-bf07-48c1-aada-2fbdb761a352","system_id":"levelo_inurba_marseille","lat":43.317557,"lon":5.390173,"is_reserved":false,"is_disabled":false,"rental_uris":{"android":"levelo://app?vid=b3dcb9ba-bf07-48c1-aada-2fbdb761a352","ios":"levelo://app?vid=b3dcb9ba-bf07-48c1-aada-2fbdb761a352"},"vehicle_type_id":"4","last_reported":1708020554,"current_range_meters":31200,"station_id":"ce4bhqp2rcd13ifvqhng","pricing_plan_id":"cebpf4jnsgd1na2vs0mg"},{"bike_id":"4d1fc426-76ca-4e7f-b775-e8d4d4862683","system_id":"levelo_inurba_marseille","lat":43.317557,"lon":5.390173,"is_reserved":false,"is_disabled":false,"rental_uris":{"android":"levelo://app?vid=4d1fc426-76ca-4e7f-b775-e8d4d4862683","ios":"levelo://app?vid=4d1fc426-76ca-4e7f-b775-e8d4d4862683"},"vehicle_type_id":"4","last_reported":1708020554,"current_range_meters":31600,"station_id":"ce4bhqp2rcd13ifvqhng","pricing_plan_id":"cebpf4jnsgd1na2vs0mg"},{"bike_id":"5615b1b1-8ed0-4dab-be0f-5a22c7f9240d","system_id":"levelo_inurba_marseille","lat":43.317518,"lon":5.390225,"is_reserved":false,"is_disabled":false,"rental_uris":{"android":"levelo://app?vid=5615b1b1-8ed0-4dab-be0f-5a22c7f9240d","ios":"levelo://app?vid=5615b1b1-8ed0-4dab-be0f-5a22c7f9240d"},"vehicle_type_id":"4","last_reported":1708020554,"current_range_meters":0,"station_id":"ce4bhqp2rcd13ifvqhng","pricing_plan_id":"cebpf4jnsgd1na2vs0mg"},{"bike_id":"0d568f49-9e25-417a-91e9-babe78949eca","system_id":"levelo_inurba_marseille","lat":43.317557,"lon":5.390173,"is_reserved":false,"is_disabled":false,"rental_uris":{"android":"levelo://app?vid=0d568f49-9e25-417a-91e9-babe78949eca","ios":"levelo://app?vid=0d568f49-9e25-417a-91e9-babe78949eca"},"vehicle_type_id":"4","last_reported":1708020554,"current_range_meters":31200,"station_id":"ce4bhqp2rcd13ifvqhng","pricing_plan_id":"cebpf4jnsgd1na2vs0mg"},{"bike_id":"b38bbca5-1482-40ad-8405-56dac9cba366","system_id":"levelo_inurba_marseille","lat":43.317557,"lon":5.390173,"is_reserved":false,"is_disabled":false,"rental_uris":{"android":"levelo://app?vid=b38bbca5-1482-40ad-8405-56dac9cba366","ios":"levelo://app?vid=b38bbca5-1482-40ad-8405-56dac9cba366"},"vehicle_type_id":"4","last_reported":1708020554,"current_range_meters":20400,"station_id":"ce4bhqp2rcd13ifvqhng","pricing_plan_id":"cebpf4jnsgd1na2vs0mg"},{"bike_id":"27aaf622-ad2c-42b5-9690-9fff0a27e24d","system_id":"levelo_inurba_marseille","lat":43.317557,"lon":5.390173,"is_reserved":false,"is_disabled":false,"rental_uris":{"android":"levelo://app?vid=27aaf622-ad2c-42b5-9690-9fff0a27e24d","ios":"levelo://app?vid=27aaf622-ad2c-42b5-9690-9fff0a27e24d"},"vehicle_type_id":"4","last_reported":1708020554,"current_range_meters":27200,"station_id":"ce4bhqp2rcd13ifvqhng","pricing_plan_id":"cebpf4jnsgd1na2vs0mg"},{"bike_id":"04a263cc-f7fb-40e2-9889-8225f7c983b8","system_id":"levelo_inurba_marseille","lat":43.31762,"lon":5.3902,"is_reserved":false,"is_disabled":false,"rental_uris":{"android":"levelo://app?vid=04a263cc-f7fb-40e2-9889-8225f7c983b8","ios":"levelo://app?vid=04a263cc-f7fb-40e2-9889-8225f7c983b8"},"vehicle_type_id":"4","last_reported":1708020554,"current_range_meters":800,"station_id":"ce4bhqp2rcd13ifvqhng","pricing_plan_id":"cebpf4jnsgd1na2vs0mg"},{"bike_id":"cece8118-751e-4704-b260-95811fc140db","system_id":"levelo_inurba_marseille","lat":43.317557,"lon":5.390173,"is_reserved":false,"is_disabled":false,"rental_uris":{"android":"levelo://app?vid=cece8118-751e-4704-b260-95811fc140db","ios":"levelo://app?vid=cece8118-751e-4704-b260-95811fc140db"},"vehicle_type_id":"4","last_reported":1708020554,"current_range_meters":21600,"station_id":"ce4bhqp2rcd13ifvqhng","pricing_plan_id":"cebpf4jnsgd1na2vs0mg"},{"bike_id":"3c38ba32-70ff-4337-9a08-60dfc7c379b5","system_id":"levelo_inurba_marseille","lat":43.317557,"lon":5.390173,"is_reserved":false,"is_disabled":false,"rental_uris":{"android":"levelo://app?vid=3c38ba32-70ff-4337-9a08-60dfc7c379b5","ios":"levelo://app?vid=3c38ba32-70ff-4337-9a08-60dfc7c379b5"},"vehicle_type_id":"4","last_reported":1708020554,"current_range_meters":18800,"station_id":"ce4bhqp2rcd13ifvqhng","pricing_plan_id":"cebpf4jnsgd1na2vs0mg"},{"bike_id":"649dea1a-f956-4264-a45d-520c61b619a7","system_id":"levelo_inurba_marseille","lat":43.297963,"lon":5.38089,"is_reserved":false,"is_disabled":false,"rental_uris":{"android":"levelo://app?vid=649dea1a-f956-4264-a45d-520c61b619a7","ios":"levelo://app?vid=649dea1a-f956-4264-a45d-520c61b619a7"},"vehicle_type_id":"4","last_reported":1708020554,"current_range_meters":22000,"station_id":"ce4bgip2rcd13ifvqbb0","pricing_plan_id":"cebpf4jnsgd1na2vs0mg"},{"bike_id":"9c7b4d93-b232-415a-bf1e-df8783e91565","system_id":"levelo_inurba_marseille","lat":43.295748,"lon":5.37522,"is_reserved":false,"is_disabled":false,"rental_uris":{"android":"levelo://app?vid=9c7b4d93-b232-415a-bf1e-df8783e91565","ios":"levelo://app?vid=9c7b4d93-b232-415a-bf1e-df8783e91565"},"vehicle_type_id":"4","last_reported":1708020554,"current_range_meters":31600,"station_id":"ce4bgh92rcd13ifvqb50","pricing_plan_id":"cebpf4jnsgd1na2vs0mg"},{"bike_id":"a37f1c50-92b4-466c-a13d-39cd75c0118e","system_id":"levelo_inurba_marseille","lat":43.295748,"lon":5.37522,"is_reserved":false,"is_disabled":false,"rental_uris":{"android":"levelo://app?vid=a37f1c50-92b4-466c-a13d-39cd75c0118e","ios":"levelo://app?vid=a37f1c50-92b4-466c-a13d-39cd75c0118e"},"vehicle_type_id":"4","last_reported":1708020554,"current_range_meters":30000,"station_id":"ce4bgh92rcd13ifvqb50","pricing_plan_id":"cebpf4jnsgd1na2vs0mg"},{"bike_id":"1f8c711d-9e19-45ab-a9de-c828a96fe1ef","system_id":"levelo_inurba_marseille","lat":43.295748,"lon":5.37522,"is_reserved":false,"is_disabled":false,"rental_uris":{"android":"levelo://app?vid=1f8c711d-9e19-45ab-a9de-c828a96fe1ef","ios":"levelo://app?vid=1f8c711d-9e19-45ab-a9de-c828a96fe1ef"},"vehicle_type_id":"4","last_reported":1708020554,"current_range_meters":2400,"station_id":"ce4bgh92rcd13ifvqb50","pricing_plan_id":"cebpf4jnsgd1na2vs0mg"},{"bike_id":"feb68752-f86b-470c-8e54-b4009f869698","system_id":"levelo_inurba_marseille","lat":43.304274,"lon":5.388873,"is_reserved":false,"is_disabled":false,"rental_uris":{"android":"levelo://app?vid=feb68752-f86b-470c-8e54-b4009f869698","ios":"levelo://app?vid=feb68752-f86b-470c-8e54-b4009f869698"},"vehicle_type_id":"4","last_reported":1708020554,"current_range_meters":16000,"station_id":"ce4bgk12rcd13ifvqbi0","pricing_plan_id":"cebpf4jnsgd1na2vs0mg"},{"bike_id":"5440ac69-52ae-4933-9c08-9292c2618984","system_id":"levelo_inurba_marseille","lat":43.295748,"lon":5.37522,"is_reserved":false,"is_disabled":false,"rental_uris":{"android":"levelo://app?vid=5440ac69-52ae-4933-9c08-9292c2618984","ios":"levelo://app?vid=5440ac69-52ae-4933-9c08-9292c2618984"},"vehicle_type_id":"4","last_reported":1708020554,"current_range_meters":13600,"station_id":"ce4bgh92rcd13ifvqb50","pricing_plan_id":"cebpf4jnsgd1na2vs0mg"},{"bike_id":"0e3c04b2-2f06-4fe9-8785-bb6f7f412d45","system_id":"levelo_inurba_marseille","lat":43.304274,"lon":5.388873,"is_reserved":false,"is_disabled":false,"rental_uris":{"android":"levelo://app?vid=0e3c04b2-2f06-4fe9-8785-bb6f7f412d45","ios":"levelo://app?vid=0e3c04b2-2f06-4fe9-8785-bb6f7f412d45"},"vehicle_type_id":"4","last_reported":1708020554,"current_range_meters":0,"station_id":"ce4bgk12rcd13ifvqbi0","pricing_plan_id":"cebpf4jnsgd1na2vs0mg"},{"bike_id":"4fcdbdb3-d283-4991-b6a4-2cb13e718cde","system_id":"levelo_inurba_marseille","lat":43.296238,"lon":5.377454,"is_reserved":false,"is_disabled":false,"rental_uris":{"android":"levelo://app?vid=4fcdbdb3-d283-4991-b6a4-2cb13e718cde","ios":"levelo://app?vid=4fcdbdb3-d283-4991-b6a4-2cb13e718cde"},"vehicle_type_id":"4","last_reported":1708020554,"current_range_meters":1600,"station_id":"ce4bgi92rcd13ifvqb90","pricing_plan_id":"cebpf4jnsgd1na2vs0mg"},{"bike_id":"835320d3-fc65-48fc-a7c5-e2be3de53f95","system_id":"levelo_inurba_marseille","lat":43.29611,"lon":5.37721,"is_reserved":false,"is_disabled":false,"rental_uris":{"android":"levelo://app?vid=835320d3-fc65-48fc-a7c5-e2be3de53f95","ios":"levelo://app?vid=835320d3-fc65-48fc-a7c5-e2be3de53f95"},"vehicle_type_id":"4","last_reported":1708020554,"current_range_meters":31200,"station_id":"ce4bgi92rcd13ifvqb90","pricing_plan_id":"cebpf4jnsgd1na2vs0mg"},{"bike_id":"7581b03b-76f1-44be-ad1e-8b3f1285a6ee","system_id":"levelo_inurba_marseille","lat":43.29608,"lon":5.37725,"is_reserved":false,"is_disabled":false,"rental_uris":{"android":"levelo://app?vid=7581b03b-76f1-44be-ad1e-8b3f1285a6ee","ios":"levelo://app?vid=7581b03b-76f1-44be-ad1e-8b3f1285a6ee"},"vehicle_type_id":"4","last_reported":1708020554,"current_range_meters":8800,"station_id":"ce4bgi92rcd13ifvqb90","pricing_plan_id":"cebpf4jnsgd1na2vs0mg"},{"bike_id":"99dfa130-2f64-4244-929c-ff0f2a2faa84","system_id":"levelo_inurba_marseille","lat":43.296277,"lon":5.377108,"is_reserved":false,"is_disabled":false,"rental_uris":{"android":"levelo://app?vid=99dfa130-2f64-4244-929c-ff0f2a2faa84","ios":"levelo://app?vid=99dfa130-2f64-4244-929c-ff0f2a2faa84"},"vehicle_type_id":"4","last_reported":1708020554,"current_range_meters":11200,"station_id":"ce4bgi92rcd13ifvqb90","pricing_plan_id":"cebpf4jnsgd1na2vs0mg"},{"bike_id":"6cf70f8d-5f7b-4e69-92f0-85cead2b3ad1","system_id":"levelo_inurba_marseille","lat":43.295279,"lon":5.375048,"is_reserved":false,"is_disabled":false,"rental_uris":{"android":"levelo://app?vid=6cf70f8d-5f7b-4e69-92f0-85cead2b3ad1","ios":"levelo://app?vid=6cf70f8d-5f7b-4e69-92f0-85cead2b3ad1"},"vehicle_type_id":"4","last_reported":1708020554,"current_range_meters":17200,"station_id":"ce4bgkp2rcd13ifvqbmg","pricing_plan_id":"cebpf4jnsgd1na2vs0mg"},{"bike_id":"da9bc36c-40b8-4a58-9d11-eab41f810ffe","system_id":"levelo_inurba_marseille","lat":43.299707,"lon":5.384859,"is_reserved":false,"is_disabled":false,"rental_uris":{"android":"levelo://app?vid=da9bc36c-40b8-4a58-9d11-eab41f810ffe","ios":"levelo://app?vid=da9bc36c-40b8-4a58-9d11-eab41f810ffe"},"vehicle_type_id":"4","last_reported":1708020554,"current_range_meters":22800,"station_id":"ce4bgj92rcd13ifvqbd0","pricing_plan_id":"cebpf4jnsgd1na2vs0mg"},{"bike_id":"ce9fe222-640e-4c59-85b7-627f8eefce40","system_id":"levelo_inurba_marseille","lat":43.29972,"lon":5.38491,"is_reserved":false,"is_disabled":false,"rental_uris":{"android":"levelo://app?vid=ce9fe222-640e-4c59-85b7-627f8eefce40","ios":"levelo://app?vid=ce9fe222-640e-4c59-85b7-627f8eefce40"},"vehicle_type_id":"4","last_reported":1708020554,"current_range_meters":26000,"station_id":"ce4bgj92rcd13ifvqbd0","pricing_plan_id":"cebpf4jnsgd1na2vs0mg"},{"bike_id":"be860410-5355-47ce-829d-53349a369d1a","system_id":"levelo_inurba_marseille","lat":43.299707,"lon":5.384859,"is_reserved":false,"is_disabled":false,"rental_uris":{"android":"levelo://app?vid=be860410-5355-47ce-829d-53349a369d1a","ios":"levelo://app?vid=be860410-5355-47ce-829d-53349a369d1a"},"vehicle_type_id":"4","last_reported":1708020554,"current_range_meters":5200,"station_id":"ce4bgj92rcd13ifvqbd0","pricing_plan_id":"cebpf4jnsgd1na2vs0mg"},{"bike_id":"075b45be-b1b3-4738-b417-12dfb3470857","system_id":"levelo_inurba_marseille","lat":43.295279,"lon":5.375048,"is_reserved":false,"is_disabled":false,"rental_uris":{"android":"levelo://app?vid=075b45be-b1b3-4738-b417-12dfb3470857","ios":"levelo://app?vid=075b45be-b1b3-4738-b417-12dfb3470857"},"vehicle_type_id":"4","last_reported":1708020554,"current_range_meters":10800,"station_id":"ce4bgkp2rcd13ifvqbmg","pricing_plan_id":"cebpf4jnsgd1na2vs0mg"},{"bike_id":"c305863f-6ebc-40c5-9acb-35e44ab49e85","system_id":"levelo_inurba_marseille","lat":43.299707,"lon":5.384859,"is_reserved":false,"is_disabled":false,"rental_uris":{"android":"levelo://app?vid=c305863f-6ebc-40c5-9acb-35e44ab49e85","ios":"levelo://app?vid=c305863f-6ebc-40c5-9acb-35e44ab49e85"},"vehicle_type_id":"4","last_reported":1708020554,"current_range_meters":26800,"station_id":"ce4bgj92rcd13ifvqbd0","pricing_plan_id":"cebpf4jnsgd1na2vs0mg"},{"bike_id":"5f71b896-6083-4f67-9e81-5957161cac30","system_id":"levelo_inurba_marseille","lat":43.299707,"lon":5.384859,"is_reserved":false,"is_disabled":false,"rental_uris":{"android":"levelo://app?vid=5f71b896-6083-4f67-9e81-5957161cac30","ios":"levelo://app?vid=5f71b896-6083-4f67-9e81-5957161cac30"},"vehicle_type_id":"4","last_reported":1708020554,"current_range_meters":10000,"station_id":"ce4bgj92rcd13ifvqbd0","pricing_plan_id":"cebpf4jnsgd1na2vs0mg"},{"bike_id":"4a794ffe-f74f-429b-b6e7-d6bd3c655303","system_id":"levelo_inurba_marseille","lat":43.299707,"lon":5.384859,"is_reserved":false,"is_disabled":false,"rental_uris":{"android":"levelo://app?vid=4a794ffe-f74f-429b-b6e7-d6bd3c655303","ios":"levelo://app?vid=4a794ffe-f74f-429b-b6e7-d6bd3c655303"},"vehicle_type_id":"4","last_reported":1708020554,"current_range_meters":9600,"station_id":"ce4bgj92rcd13ifvqbd0","pricing_plan_id":"cebpf4jnsgd1na2vs0mg"},{"bike_id":"0648ab1c-a697-486d-82cf-8f0c6867e231","system_id":"levelo_inurba_marseille","lat":43.29971,"lon":5.38495,"is_reserved":false,"is_disabled":false,"rental_uris":{"android":"levelo://app?vid=0648ab1c-a697-486d-82cf-8f0c6867e231","ios":"levelo://app?vid=0648ab1c-a697-486d-82cf-8f0c6867e231"},"vehicle_type_id":"4","last_reported":1708020554,"current_range_meters":3200,"station_id":"ce4bgj92rcd13ifvqbd0","pricing_plan_id":"cebpf4jnsgd1na2vs0mg"},{"bike_id":"94e957dc-c0c5-49f9-9a69-9e29ad73c613","system_id":"levelo_inurba_marseille","lat":43.29974,"lon":5.385,"is_reserved":false,"is_disabled":false,"rental_uris":{"android":"levelo://app?vid=94e957dc-c0c5-49f9-9a69-9e29ad73c613","ios":"levelo://app?vid=94e957dc-c0c5-49f9-9a69-9e29ad73c613"},"vehicle_type_id":"4","last_reported":1708020554,"current_range_meters":10400,"station_id":"ce4bgj92rcd13ifvqbd0","pricing_plan_id":"cebpf4jnsgd1na2vs0mg"},{"bike_id":"0c6aca4c-eab7-4269-bed6-4d020c5411e3","system_id":"levelo_inurba_marseille","lat":43.295279,"lon":5.375048,"is_reserved":false,"is_disabled":false,"rental_uris":{"android":"levelo://app?vid=0c6aca4c-eab7-4269-bed6-4d020c5411e3","ios":"levelo://app?vid=0c6aca4c-eab7-4269-bed6-4d020c5411e3"},"vehicle_type_id":"4","last_reported":1708020554,"current_range_meters":4000,"station_id":"ce4bgkp2rcd13ifvqbmg","pricing_plan_id":"cebpf4jnsgd1na2vs0mg"},{"bike_id":"98dace74-5b72-45a5-952c-188256c91f4b","system_id":"levelo_inurba_marseille","lat":43.2997,"lon":5.38497,"is_reserved":false,"is_disabled":false,"rental_uris":{"android":"levelo://app?vid=98dace74-5b72-45a5-952c-188256c91f4b","ios":"levelo://app?vid=98dace74-5b72-45a5-952c-188256c91f4b"},"vehicle_type_id":"4","last_reported":1708020554,"current_range_meters":1200,"station_id":"ce4bgj92rcd13ifvqbd0","pricing_plan_id":"cebpf4jnsgd1na2vs0mg"},{"bike_id":"d9945842-36cd-4ebd-b467-ee0f8609c168","system_id":"levelo_inurba_marseille","lat":43.29972,"lon":5.385,"is_reserved":false,"is_disabled":false,"rental_uris":{"android":"levelo://app?vid=d9945842-36cd-4ebd-b467-ee0f8609c168","ios":"levelo://app?vid=d9945842-36cd-4ebd-b467-ee0f8609c168"},"vehicle_type_id":"4","last_reported":1708020554,"current_range_meters":0,"station_id":"ce4bgj92rcd13ifvqbd0","pricing_plan_id":"cebpf4jnsgd1na2vs0mg"},{"bike_id":"b38f079f-c11d-4a59-9937-ea4eac8f4dfe","system_id":"levelo_inurba_marseille","lat":43.29969,"lon":5.38496,"is_reserved":false,"is_disabled":false,"rental_uris":{"android":"levelo://app?vid=b38f079f-c11d-4a59-9937-ea4eac8f4dfe","ios":"levelo://app?vid=b38f079f-c11d-4a59-9937-ea4eac8f4dfe"},"vehicle_type_id":"4","last_reported":1708020554,"current_range_meters":22800,"station_id":"ce4bgj92rcd13ifvqbd0","pricing_plan_id":"cebpf4jnsgd1na2vs0mg"},{"bike_id":"c67f6baf-689d-485b-9ce9-23e24487c792","system_id":"levelo_inurba_marseille","lat":43.29975,"lon":5.38506,"is_reserved":false,"is_disabled":false,"rental_uris":{"android":"levelo://app?vid=c67f6baf-689d-485b-9ce9-23e24487c792","ios":"levelo://app?vid=c67f6baf-689d-485b-9ce9-23e24487c792"},"vehicle_type_id":"4","last_reported":1708020554,"current_range_meters":15200,"station_id":"ce4bgj92rcd13ifvqbd0","pricing_plan_id":"cebpf4jnsgd1na2vs0mg"},{"bike_id":"c7d54922-4c7d-44c2-9cfb-7fbf3cce4932","system_id":"levelo_inurba_marseille","lat":43.29972,"lon":5.38506,"is_reserved":false,"is_disabled":false,"rental_uris":{"android":"levelo://app?vid=c7d54922-4c7d-44c2-9cfb-7fbf3cce4932","ios":"levelo://app?vid=c7d54922-4c7d-44c2-9cfb-7fbf3cce4932"},"vehicle_type_id":"4","last_reported":1708020554,"current_range_meters":15200,"station_id":"ce4bgj92rcd13ifvqbd0","pricing_plan_id":"cebpf4jnsgd1na2vs0mg"},{"bike_id":"a1a820bd-7d12-4526-97db-eafa4d191456","system_id":"levelo_inurba_marseille","lat":43.29965,"lon":5.38499,"is_reserved":false,"is_disabled":false,"rental_uris":{"android":"levelo://app?vid=a1a820bd-7d12-4526-97db-eafa4d191456","ios":"levelo://app?vid=a1a820bd-7d12-4526-97db-eafa4d191456"},"vehicle_type_id":"4","last_reported":1708020554,"current_range_meters":21600,"station_id":"ce4bgj92rcd13ifvqbd0","pricing_plan_id":"cebpf4jnsgd1na2vs0mg"},{"bike_id":"86f13324-ff52-4b25-99d8-e5cf949506fe","system_id":"levelo_inurba_marseille","lat":43.295279,"lon":5.375048,"is_reserved":false,"is_disabled":false,"rental_uris":{"android":"levelo://app?vid=86f13324-ff52-4b25-99d8-e5cf949506fe","ios":"levelo://app?vid=86f13324-ff52-4b25-99d8-e5cf949506fe"},"vehicle_type_id":"4","last_reported":1708020554,"current_range_meters":31200,"station_id":"ce4bgkp2rcd13ifvqbmg","pricing_plan_id":"cebpf4jnsgd1na2vs0mg"},{"bike_id":"0d3f437a-b4c2-401f-9a16-1b15da183dc7","system_id":"levelo_inurba_marseille","lat":43.299724,"lon":5.384848,"is_reserved":false,"is_disabled":false,"rental_uris":{"android":"levelo://app?vid=0d3f437a-b4c2-401f-9a16-1b15da183dc7","ios":"levelo://app?vid=0d3f437a-b4c2-401f-9a16-1b15da183dc7"},"vehicle_type_id":"4","last_reported":1708020554,"current_range_meters":27200,"station_id":"ce4bgj92rcd13ifvqbd0","pricing_plan_id":"cebpf4jnsgd1na2vs0mg"},{"bike_id":"ff7582bc-d21b-4c5f-9eaa-b4d63a37f796","system_id":"levelo_inurba_marseille","lat":43.299808,"lon":5.38604,"is_reserved":false,"is_disabled":false,"rental_uris":{"android":"levelo://app?vid=ff7582bc-d21b-4c5f-9eaa-b4d63a37f796","ios":"levelo://app?vid=ff7582bc-d21b-4c5f-9eaa-b4d63a37f796"},"vehicle_type_id":"4","last_reported":1708020554,"current_range_meters":6400,"station_id":"ce4bgj92rcd13ifvqbd0","pricing_plan_id":"cebpf4jnsgd1na2vs0mg"},{"bike_id":"9a785585-c85b-4fa3-85aa-80d29ca57d9f","system_id":"levelo_inurba_marseille","lat":43.32367,"lon":5.388836,"is_reserved":false,"is_disabled":false,"rental_uris":{"android":"levelo://app?vid=9a785585-c85b-4fa3-85aa-80d29ca57d9f","ios":"levelo://app?vid=9a785585-c85b-4fa3-85aa-80d29ca57d9f"},"vehicle_type_id":"4","last_reported":1708020554,"current_range_meters":8400,"station_id":"ce4bhqp2rcd13ifvqhog","pricing_plan_id":"cebpf4jnsgd1na2vs0mg"},{"bike_id":"b990bd33-11fa-4194-a071-8e5a2381ab47","system_id":"levelo_inurba_marseille","lat":43.32367,"lon":5.388836,"is_reserved":false,"is_disabled":false,"rental_uris":{"android":"levelo://app?vid=b990bd33-11fa-4194-a071-8e5a2381ab47","ios":"levelo://app?vid=b990bd33-11fa-4194-a071-8e5a2381ab47"},"vehicle_type_id":"4","last_reported":1708020554,"current_range_meters":7200,"station_id":"ce4bhqp2rcd13ifvqhog","pricing_plan_id":"cebpf4jnsgd1na2vs0mg"},{"bike_id":"db5a62d4-f9ba-40ff-9ae3-5d05cc8e7704","system_id":"levelo_inurba_marseille","lat":43.32367,"lon":5.388836,"is_reserved":false,"is_disabled":false,"rental_uris":{"android":"levelo://app?vid=db5a62d4-f9ba-40ff-9ae3-5d05cc8e7704","ios":"levelo://app?vid=db5a62d4-f9ba-40ff-9ae3-5d05cc8e7704"},"vehicle_type_id":"4","last_reported":1708020554,"current_range_meters":7600,"station_id":"ce4bhqp2rcd13ifvqhog","pricing_plan_id":"cebpf4jnsgd1na2vs0mg"},{"bike_id":"a45a1fed-92ec-4830-8255-391081f814a3","system_id":"levelo_inurba_marseille","lat":43.32367,"lon":5.388836,"is_reserved":false,"is_disabled":false,"rental_uris":{"android":"levelo://app?vid=a45a1fed-92ec-4830-8255-391081f814a3","ios":"levelo://app?vid=a45a1fed-92ec-4830-8255-391081f814a3"},"vehicle_type_id":"4","last_reported":1708020554,"current_range_meters":14800,"station_id":"ce4bhqp2rcd13ifvqhog","pricing_plan_id":"cebpf4jnsgd1na2vs0mg"},{"bike_id":"7b8ae2a5-fea4-420f-9e1d-5f67a20c6887","system_id":"levelo_inurba_marseille","lat":43.32367,"lon":5.388836,"is_reserved":false,"is_disabled":false,"rental_uris":{"android":"levelo://app?vid=7b8ae2a5-fea4-420f-9e1d-5f67a20c6887","ios":"levelo://app?vid=7b8ae2a5-fea4-420f-9e1d-5f67a20c6887"},"vehicle_type_id":"4","last_reported":1708020554,"current_range_meters":20400,"station_id":"ce4bhqp2rcd13ifvqhog","pricing_plan_id":"cebpf4jnsgd1na2vs0mg"},{"bike_id":"db2bc009-1b6b-43a5-9572-4ba46f979c16","system_id":"levelo_inurba_marseille","lat":43.32367,"lon":5.388836,"is_reserved":false,"is_disabled":false,"rental_uris":{"android":"levelo://app?vid=db2bc009-1b6b-43a5-9572-4ba46f979c16","ios":"levelo://app?vid=db2bc009-1b6b-43a5-9572-4ba46f979c16"},"vehicle_type_id":"4","last_reported":1708020554,"current_range_meters":19200,"station_id":"ce4bhqp2rcd13ifvqhog","pricing_plan_id":"cebpf4jnsgd1na2vs0mg"},{"bike_id":"a8c7fcf6-2476-48b4-a2a7-391dc6d39d14","system_id":"levelo_inurba_marseille","lat":43.32367,"lon":5.388836,"is_reserved":false,"is_disabled":false,"rental_uris":{"android":"levelo://app?vid=a8c7fcf6-2476-48b4-a2a7-391dc6d39d14","ios":"levelo://app?vid=a8c7fcf6-2476-48b4-a2a7-391dc6d39d14"},"vehicle_type_id":"4","last_reported":1708020554,"current_range_meters":0,"station_id":"ce4bhqp2rcd13ifvqhog","pricing_plan_id":"cebpf4jnsgd1na2vs0mg"},{"bike_id":"7843e5ea-b00b-4e06-a9fa-d905ee104d0b","system_id":"levelo_inurba_marseille","lat":43.316828,"lon":5.404723,"is_reserved":false,"is_disabled":false,"rental_uris":{"android":"levelo://app?vid=7843e5ea-b00b-4e06-a9fa-d905ee104d0b","ios":"levelo://app?vid=7843e5ea-b00b-4e06-a9fa-d905ee104d0b"},"vehicle_type_id":"4","last_reported":1708020554,"current_range_meters":4400,"station_id":"ce4bh012rcd13ifvqd00","pricing_plan_id":"cebpf4jnsgd1na2vs0mg"},{"bike_id":"1b42c1a5-eac7-419f-aa45-0b70e70dd01b","system_id":"levelo_inurba_marseille","lat":43.293259,"lon":5.371586,"is_reserved":false,"is_disabled":false,"rental_uris":{"android":"levelo://app?vid=1b42c1a5-eac7-419f-aa45-0b70e70dd01b","ios":"levelo://app?vid=1b42c1a5-eac7-419f-aa45-0b70e70dd01b"},"vehicle_type_id":"4","last_reported":1708020554,"current_range_meters":16400,"station_id":"ce4bgh92rcd13ifvqb40","pricing_plan_id":"cebpf4jnsgd1na2vs0mg"},{"bike_id":"8c15bfc9-f0e8-44eb-a46d-c1fd8f1355e2","system_id":"levelo_inurba_marseille","lat":43.29602,"lon":5.381084,"is_reserved":false,"is_disabled":false,"rental_uris":{"android":"levelo://app?vid=8c15bfc9-f0e8-44eb-a46d-c1fd8f1355e2","ios":"levelo://app?vid=8c15bfc9-f0e8-44eb-a46d-c1fd8f1355e2"},"vehicle_type_id":"4","last_reported":1708020554,"current_range_meters":6400,"station_id":"ce4bgl12rcd13ifvqbo0","pricing_plan_id":"cebpf4jnsgd1na2vs0mg"},{"bike_id":"a11be0e7-47c1-482e-aa2e-71fbf993a366","system_id":"levelo_inurba_marseille","lat":43.29602,"lon":5.381084,"is_reserved":false,"is_disabled":false,"rental_uris":{"android":"levelo://app?vid=a11be0e7-47c1-482e-aa2e-71fbf993a366","ios":"levelo://app?vid=a11be0e7-47c1-482e-aa2e-71fbf993a366"},"vehicle_type_id":"4","last_reported":1708020554,"current_range_meters":22400,"station_id":"ce4bgl12rcd13ifvqbo0","pricing_plan_id":"cebpf4jnsgd1na2vs0mg"},{"bike_id":"47ab2e7e-ce12-4178-88b6-0804eddfcdc8","system_id":"levelo_inurba_marseille","lat":43.293259,"lon":5.371586,"is_reserved":false,"is_disabled":false,"rental_uris":{"android":"levelo://app?vid=47ab2e7e-ce12-4178-88b6-0804eddfcdc8","ios":"levelo://app?vid=47ab2e7e-ce12-4178-88b6-0804eddfcdc8"},"vehicle_type_id":"4","last_reported":1708020554,"current_range_meters":18000,"station_id":"ce4bgh92rcd13ifvqb40","pricing_plan_id":"cebpf4jnsgd1na2vs0mg"},{"bike_id":"c3f3a07a-742a-4527-95d0-56aca734b723","system_id":"levelo_inurba_marseille","lat":43.293259,"lon":5.371586,"is_reserved":false,"is_disabled":false,"rental_uris":{"android":"levelo://app?vid=c3f3a07a-742a-4527-95d0-56aca734b723","ios":"levelo://app?vid=c3f3a07a-742a-4527-95d0-56aca734b723"},"vehicle_type_id":"4","last_reported":1708020554,"current_range_meters":10400,"station_id":"ce4bgh92rcd13ifvqb40","pricing_plan_id":"cebpf4jnsgd1na2vs0mg"},{"bike_id":"bb5f747d-eaf1-40d9-9ac3-d366393662b5","system_id":"levelo_inurba_marseille","lat":43.29308,"lon":5.37171,"is_reserved":false,"is_disabled":false,"rental_uris":{"android":"levelo://app?vid=bb5f747d-eaf1-40d9-9ac3-d366393662b5","ios":"levelo://app?vid=bb5f747d-eaf1-40d9-9ac3-d366393662b5"},"vehicle_type_id":"4","last_reported":1708020554,"current_range_meters":0,"station_id":"ce4bgh92rcd13ifvqb40","pricing_plan_id":"cebpf4jnsgd1na2vs0mg"},{"bike_id":"c75de4dc-3371-4312-bc39-1b5789663a34","system_id":"levelo_inurba_marseille","lat":43.292749,"lon":5.368402,"is_reserved":false,"is_disabled":false,"rental_uris":{"android":"levelo://app?vid=c75de4dc-3371-4312-bc39-1b5789663a34","ios":"levelo://app?vid=c75de4dc-3371-4312-bc39-1b5789663a34"},"vehicle_type_id":"4","last_reported":1708020554,"current_range_meters":0,"station_id":"ce4bhbp2rcd13ifvqesg","pricing_plan_id":"cebpf4jnsgd1na2vs0mg"},{"bike_id":"fbd9b208-4ca2-487b-8a6f-6dab96a86fc1","system_id":"levelo_inurba_marseille","lat":43.293259,"lon":5.371586,"is_reserved":false,"is_disabled":false,"rental_uris":{"android":"levelo://app?vid=fbd9b208-4ca2-487b-8a6f-6dab96a86fc1","ios":"levelo://app?vid=fbd9b208-4ca2-487b-8a6f-6dab96a86fc1"},"vehicle_type_id":"4","last_reported":1708020554,"current_range_meters":7600,"station_id":"ce4bgh92rcd13ifvqb40","pricing_plan_id":"cebpf4jnsgd1na2vs0mg"},{"bike_id":"8f795d00-eb66-4272-baa0-530010bec413","system_id":"levelo_inurba_marseille","lat":43.29277,"lon":5.36852,"is_reserved":false,"is_disabled":false,"rental_uris":{"android":"levelo://app?vid=8f795d00-eb66-4272-baa0-530010bec413","ios":"levelo://app?vid=8f795d00-eb66-4272-baa0-530010bec413"},"vehicle_type_id":"4","last_reported":1708020554,"current_range_meters":0,"station_id":"ce4bhbp2rcd13ifvqesg","pricing_plan_id":"cebpf4jnsgd1na2vs0mg"},{"bike_id":"87347362-de6b-4a3f-80ba-40559c9108f5","system_id":"levelo_inurba_marseille","lat":43.29301,"lon":5.37165,"is_reserved":false,"is_disabled":false,"rental_uris":{"android":"levelo://app?vid=87347362-de6b-4a3f-80ba-40559c9108f5","ios":"levelo://app?vid=87347362-de6b-4a3f-80ba-40559c9108f5"},"vehicle_type_id":"4","last_reported":1708020554,"current_range_meters":28400,"station_id":"ce4bgh92rcd13ifvqb40","pricing_plan_id":"cebpf4jnsgd1na2vs0mg"},{"bike_id":"24dbd017-e002-4304-ba52-a44060b64f07","system_id":"levelo_inurba_marseille","lat":43.293259,"lon":5.371586,"is_reserved":false,"is_disabled":false,"rental_uris":{"android":"levelo://app?vid=24dbd017-e002-4304-ba52-a44060b64f07","ios":"levelo://app?vid=24dbd017-e002-4304-ba52-a44060b64f07"},"vehicle_type_id":"4","last_reported":1708020554,"current_range_meters":0,"station_id":"ce4bgh92rcd13ifvqb40","pricing_plan_id":"cebpf4jnsgd1na2vs0mg"},{"bike_id":"dd0a77bc-dd11-4a3b-ba2c-a488d46201ef","system_id":"levelo_inurba_marseille","lat":43.293009,"lon":5.374584,"is_reserved":false,"is_disabled":false,"rental_uris":{"android":"levelo://app?vid=dd0a77bc-dd11-4a3b-ba2c-a488d46201ef","ios":"levelo://app?vid=dd0a77bc-dd11-4a3b-ba2c-a488d46201ef"},"vehicle_type_id":"4","last_reported":1708020554,"current_range_meters":15200,"station_id":"ce4bgi12rcd13ifvqb70","pricing_plan_id":"cebpf4jnsgd1na2vs0mg"},{"bike_id":"eb5b3e67-3bf6-4d4e-b1ce-f039a2071579","system_id":"levelo_inurba_marseille","lat":43.305994,"lon":5.393687,"is_reserved":false,"is_disabled":false,"rental_uris":{"android":"levelo://app?vid=eb5b3e67-3bf6-4d4e-b1ce-f039a2071579","ios":"levelo://app?vid=eb5b3e67-3bf6-4d4e-b1ce-f039a2071579"},"vehicle_type_id":"4","last_reported":1708020554,"current_range_meters":17600,"station_id":"ce4bh0p2rcd13ifvqd80","pricing_plan_id":"cebpf4jnsgd1na2vs0mg"},{"bike_id":"eacc7543-251f-41a7-aa4f-2535e574d998","system_id":"levelo_inurba_marseille","lat":43.305994,"lon":5.393687,"is_reserved":false,"is_disabled":false,"rental_uris":{"android":"levelo://app?vid=eacc7543-251f-41a7-aa4f-2535e574d998","ios":"levelo://app?vid=eacc7543-251f-41a7-aa4f-2535e574d998"},"vehicle_type_id":"4","last_reported":1708020554,"current_range_meters":0,"station_id":"ce4bh0p2rcd13ifvqd80","pricing_plan_id":"cebpf4jnsgd1na2vs0mg"},{"bike_id":"6515bc15-a16d-4469-aee3-c629bd1341d0","system_id":"levelo_inurba_marseille","lat":43.305994,"lon":5.393687,"is_reserved":false,"is_disabled":false,"rental_uris":{"android":"levelo://app?vid=6515bc15-a16d-4469-aee3-c629bd1341d0","ios":"levelo://app?vid=6515bc15-a16d-4469-aee3-c629bd1341d0"},"vehicle_type_id":"4","last_reported":1708020554,"current_range_meters":8800,"station_id":"ce4bh0p2rcd13ifvqd80","pricing_plan_id":"cebpf4jnsgd1na2vs0mg"},{"bike_id":"dc04c065-b82b-4faf-ae8a-c07cabbc8338","system_id":"levelo_inurba_marseille","lat":43.303002,"lon":5.392142,"is_reserved":false,"is_disabled":false,"rental_uris":{"android":"levelo://app?vid=dc04c065-b82b-4faf-ae8a-c07cabbc8338","ios":"levelo://app?vid=dc04c065-b82b-4faf-ae8a-c07cabbc8338"},"vehicle_type_id":"4","last_reported":1708020554,"current_range_meters":0,"station_id":"ce4bgkh2rcd13ifvqbk0","pricing_plan_id":"cebpf4jnsgd1na2vs0mg"},{"bike_id":"864ed609-9eec-4745-bfc3-89c52a8db812","system_id":"levelo_inurba_marseille","lat":43.302992,"lon":5.392136,"is_reserved":false,"is_disabled":false,"rental_uris":{"android":"levelo://app?vid=864ed609-9eec-4745-bfc3-89c52a8db812","ios":"levelo://app?vid=864ed609-9eec-4745-bfc3-89c52a8db812"},"vehicle_type_id":"4","last_reported":1708020554,"current_range_meters":2800,"station_id":"ce4bgkh2rcd13ifvqbk0","pricing_plan_id":"cebpf4jnsgd1na2vs0mg"},{"bike_id":"e622bfd6-dd7b-405a-bfae-5877b91c7433","system_id":"levelo_inurba_marseille","lat":43.2936,"lon":5.37835,"is_reserved":false,"is_disabled":false,"rental_uris":{"android":"levelo://app?vid=e622bfd6-dd7b-405a-bfae-5877b91c7433","ios":"levelo://app?vid=e622bfd6-dd7b-405a-bfae-5877b91c7433"},"vehicle_type_id":"4","last_reported":1708020554,"current_range_meters":30000,"station_id":"ce4bgjh2rcd13ifvqbf0","pricing_plan_id":"cebpf4jnsgd1na2vs0mg"},{"bike_id":"b96ce25a-58b0-4ad2-bbe8-82e4668eac66","system_id":"levelo_inurba_marseille","lat":43.30085,"lon":5.390856,"is_reserved":false,"is_disabled":false,"rental_uris":{"android":"levelo://app?vid=b96ce25a-58b0-4ad2-bbe8-82e4668eac66","ios":"levelo://app?vid=b96ce25a-58b0-4ad2-bbe8-82e4668eac66"},"vehicle_type_id":"4","last_reported":1708020554,"current_range_meters":18800,"station_id":"ce4bh192rcd13ifvqdb0","pricing_plan_id":"cebpf4jnsgd1na2vs0mg"},{"bike_id":"80fb1fe2-c7a0-4d6d-be7d-1f52a49e2f42","system_id":"levelo_inurba_marseille","lat":43.292311,"lon":5.360731,"is_reserved":false,"is_disabled":false,"rental_uris":{"android":"levelo://app?vid=80fb1fe2-c7a0-4d6d-be7d-1f52a49e2f42","ios":"levelo://app?vid=80fb1fe2-c7a0-4d6d-be7d-1f52a49e2f42"},"vehicle_type_id":"4","last_reported":1708020554,"current_range_meters":1200,"station_id":"ce4bhbh2rcd13ifvqeqg","pricing_plan_id":"cebpf4jnsgd1na2vs0mg"},{"bike_id":"e2e52467-2f48-476f-9e7f-c84b5976d602","system_id":"levelo_inurba_marseille","lat":43.300852,"lon":5.390859,"is_reserved":false,"is_disabled":false,"rental_uris":{"android":"levelo://app?vid=e2e52467-2f48-476f-9e7f-c84b5976d602","ios":"levelo://app?vid=e2e52467-2f48-476f-9e7f-c84b5976d602"},"vehicle_type_id":"4","last_reported":1708020554,"current_range_meters":12800,"station_id":"ce4bh192rcd13ifvqdb0","pricing_plan_id":"cebpf4jnsgd1na2vs0mg"},{"bike_id":"ea2dcd2b-03e8-44d3-a2d4-1cbc0417fb38","system_id":"levelo_inurba_marseille","lat":43.299105,"lon":5.389005,"is_reserved":false,"is_disabled":false,"rental_uris":{"android":"levelo://app?vid=ea2dcd2b-03e8-44d3-a2d4-1cbc0417fb38","ios":"levelo://app?vid=ea2dcd2b-03e8-44d3-a2d4-1cbc0417fb38"},"vehicle_type_id":"4","last_reported":1708020554,"current_range_meters":9600,"station_id":"","pricing_plan_id":"cebpf4jnsgd1na2vs0mg"},{"bike_id":"236576a4-dad6-4c50-b8da-14e56bdbc875","system_id":"levelo_inurba_marseille","lat":43.30085,"lon":5.390856,"is_reserved":false,"is_disabled":false,"rental_uris":{"android":"levelo://app?vid=236576a4-dad6-4c50-b8da-14e56bdbc875","ios":"levelo://app?vid=236576a4-dad6-4c50-b8da-14e56bdbc875"},"vehicle_type_id":"4","last_reported":1708020554,"current_range_meters":17200,"station_id":"ce4bh192rcd13ifvqdb0","pricing_plan_id":"cebpf4jnsgd1na2vs0mg"},{"bike_id":"9e50b0d7-5386-489e-a32d-4b97d5517fde","system_id":"levelo_inurba_marseille","lat":43.300852,"lon":5.390859,"is_reserved":false,"is_disabled":false,"rental_uris":{"android":"levelo://app?vid=9e50b0d7-5386-489e-a32d-4b97d5517fde","ios":"levelo://app?vid=9e50b0d7-5386-489e-a32d-4b97d5517fde"},"vehicle_type_id":"4","last_reported":1708020554,"current_range_meters":31200,"station_id":"ce4bh192rcd13ifvqdb0","pricing_plan_id":"cebpf4jnsgd1na2vs0mg"},{"bike_id":"9d619b3f-e492-474a-aed8-2e6fbfbf85f7","system_id":"levelo_inurba_marseille","lat":43.300852,"lon":5.390859,"is_reserved":false,"is_disabled":false,"rental_uris":{"android":"levelo://app?vid=9d619b3f-e492-474a-aed8-2e6fbfbf85f7","ios":"levelo://app?vid=9d619b3f-e492-474a-aed8-2e6fbfbf85f7"},"vehicle_type_id":"4","last_reported":1708020554,"current_range_meters":5600,"station_id":"ce4bh192rcd13ifvqdb0","pricing_plan_id":"cebpf4jnsgd1na2vs0mg"},{"bike_id":"b46597f1-c00c-46c0-81b3-1bb983a4bf94","system_id":"levelo_inurba_marseille","lat":43.291671,"lon":5.371575,"is_reserved":false,"is_disabled":false,"rental_uris":{"android":"levelo://app?vid=b46597f1-c00c-46c0-81b3-1bb983a4bf94","ios":"levelo://app?vid=b46597f1-c00c-46c0-81b3-1bb983a4bf94"},"vehicle_type_id":"4","last_reported":1708020554,"current_range_meters":6000,"station_id":"ce4bha92rcd13ifvqeh0","pricing_plan_id":"cebpf4jnsgd1na2vs0mg"},{"bike_id":"ab23a9e8-414a-4331-ade2-7e83474bccbe","system_id":"levelo_inurba_marseille","lat":43.29875,"lon":5.38923,"is_reserved":false,"is_disabled":false,"rental_uris":{"android":"levelo://app?vid=ab23a9e8-414a-4331-ade2-7e83474bccbe","ios":"levelo://app?vid=ab23a9e8-414a-4331-ade2-7e83474bccbe"},"vehicle_type_id":"4","last_reported":1708020554,"current_range_meters":2800,"station_id":"ce4bh392rcd13ifvqdl0","pricing_plan_id":"cebpf4jnsgd1na2vs0mg"},{"bike_id":"b2686a13-fa3a-488f-835f-434336b7f509","system_id":"levelo_inurba_marseille","lat":43.313291,"lon":5.396838,"is_reserved":false,"is_disabled":false,"rental_uris":{"android":"levelo://app?vid=b2686a13-fa3a-488f-835f-434336b7f509","ios":"levelo://app?vid=b2686a13-fa3a-488f-835f-434336b7f509"},"vehicle_type_id":"4","last_reported":1708020554,"current_range_meters":6000,"station_id":"ce4bgvp2rcd13ifvqcu0","pricing_plan_id":"cebpf4jnsgd1na2vs0mg"},{"bike_id":"e0a450d5-b8e1-425a-8a1d-dd4195a626e3","system_id":"levelo_inurba_marseille","lat":43.30888,"lon":5.39635,"is_reserved":false,"is_disabled":false,"rental_uris":{"android":"levelo://app?vid=e0a450d5-b8e1-425a-8a1d-dd4195a626e3","ios":"levelo://app?vid=e0a450d5-b8e1-425a-8a1d-dd4195a626e3"},"vehicle_type_id":"4","last_reported":1708020554,"current_range_meters":20400,"station_id":"ce4bh012rcd13ifvqcv0","pricing_plan_id":"cebpf4jnsgd1na2vs0mg"},{"bike_id":"eabdf232-6ae3-4856-905b-29ae88b045f7","system_id":"levelo_inurba_marseille","lat":43.309047,"lon":5.396551,"is_reserved":false,"is_disabled":false,"rental_uris":{"android":"levelo://app?vid=eabdf232-6ae3-4856-905b-29ae88b045f7","ios":"levelo://app?vid=eabdf232-6ae3-4856-905b-29ae88b045f7"},"vehicle_type_id":"4","last_reported":1708020554,"current_range_meters":8800,"station_id":"ce4bh012rcd13ifvqcv0","pricing_plan_id":"cebpf4jnsgd1na2vs0mg"},{"bike_id":"cd13b795-afe6-4664-a155-94d385980342","system_id":"levelo_inurba_marseille","lat":43.30884,"lon":5.39637,"is_reserved":false,"is_disabled":false,"rental_uris":{"android":"levelo://app?vid=cd13b795-afe6-4664-a155-94d385980342","ios":"levelo://app?vid=cd13b795-afe6-4664-a155-94d385980342"},"vehicle_type_id":"4","last_reported":1708020554,"current_range_meters":14000,"station_id":"ce4bh012rcd13ifvqcv0","pricing_plan_id":"cebpf4jnsgd1na2vs0mg"},{"bike_id":"911fa793-fca7-4d5e-8781-8410f2ef3c5b","system_id":"levelo_inurba_marseille","lat":43.309038,"lon":5.396546,"is_reserved":false,"is_disabled":false,"rental_uris":{"android":"levelo://app?vid=911fa793-fca7-4d5e-8781-8410f2ef3c5b","ios":"levelo://app?vid=911fa793-fca7-4d5e-8781-8410f2ef3c5b"},"vehicle_type_id":"4","last_reported":1708020554,"current_range_meters":30400,"station_id":"ce4bh012rcd13ifvqcv0","pricing_plan_id":"cebpf4jnsgd1na2vs0mg"},{"bike_id":"997a0a48-89a7-4a58-945f-73ec5153e982","system_id":"levelo_inurba_marseille","lat":43.313291,"lon":5.396838,"is_reserved":false,"is_disabled":false,"rental_uris":{"android":"levelo://app?vid=997a0a48-89a7-4a58-945f-73ec5153e982","ios":"levelo://app?vid=997a0a48-89a7-4a58-945f-73ec5153e982"},"vehicle_type_id":"4","last_reported":1708020554,"current_range_meters":24400,"station_id":"ce4bgvp2rcd13ifvqcu0","pricing_plan_id":"cebpf4jnsgd1na2vs0mg"},{"bike_id":"a5eb042d-4f66-42e5-8bdf-83a630a38072","system_id":"levelo_inurba_marseille","lat":43.309047,"lon":5.396551,"is_reserved":false,"is_disabled":false,"rental_uris":{"android":"levelo://app?vid=a5eb042d-4f66-42e5-8bdf-83a630a38072","ios":"levelo://app?vid=a5eb042d-4f66-42e5-8bdf-83a630a38072"},"vehicle_type_id":"4","last_reported":1708020554,"current_range_meters":9600,"station_id":"ce4bh012rcd13ifvqcv0","pricing_plan_id":"cebpf4jnsgd1na2vs0mg"},{"bike_id":"5d79451f-76fc-41b7-a5c0-8bfb84a6384c","system_id":"levelo_inurba_marseille","lat":43.309038,"lon":5.396546,"is_reserved":false,"is_disabled":false,"rental_uris":{"android":"levelo://app?vid=5d79451f-76fc-41b7-a5c0-8bfb84a6384c","ios":"levelo://app?vid=5d79451f-76fc-41b7-a5c0-8bfb84a6384c"},"vehicle_type_id":"4","last_reported":1708020554,"current_range_meters":7600,"station_id":"ce4bh012rcd13ifvqcv0","pricing_plan_id":"cebpf4jnsgd1na2vs0mg"},{"bike_id":"09f323f2-d644-4df6-9aa8-5c0ab461ef25","system_id":"levelo_inurba_marseille","lat":43.309038,"lon":5.396546,"is_reserved":false,"is_disabled":false,"rental_uris":{"android":"levelo://app?vid=09f323f2-d644-4df6-9aa8-5c0ab461ef25","ios":"levelo://app?vid=09f323f2-d644-4df6-9aa8-5c0ab461ef25"},"vehicle_type_id":"4","last_reported":1708020554,"current_range_meters":26800,"station_id":"ce4bh012rcd13ifvqcv0","pricing_plan_id":"cebpf4jnsgd1na2vs0mg"},{"bike_id":"ac5d0d15-675d-4752-9cc0-085be4de0d26","system_id":"levelo_inurba_marseille","lat":43.313291,"lon":5.396838,"is_reserved":false,"is_disabled":false,"rental_uris":{"android":"levelo://app?vid=ac5d0d15-675d-4752-9cc0-085be4de0d26","ios":"levelo://app?vid=ac5d0d15-675d-4752-9cc0-085be4de0d26"},"vehicle_type_id":"4","last_reported":1708020554,"current_range_meters":0,"station_id":"ce4bgvp2rcd13ifvqcu0","pricing_plan_id":"cebpf4jnsgd1na2vs0mg"},{"bike_id":"f0a00051-8995-4196-973d-16332b6a87c9","system_id":"levelo_inurba_marseille","lat":43.2954,"lon":5.38547,"is_reserved":false,"is_disabled":false,"rental_uris":{"android":"levelo://app?vid=f0a00051-8995-4196-973d-16332b6a87c9","ios":"levelo://app?vid=f0a00051-8995-4196-973d-16332b6a87c9"},"vehicle_type_id":"4","last_reported":1708020554,"current_range_meters":0,"station_id":"ce4bgih2rcd13ifvqba0","pricing_plan_id":"cebpf4jnsgd1na2vs0mg"},{"bike_id":"454f0ec9-3ef8-4dff-9f76-0d6564d72cc7","system_id":"levelo_inurba_marseille","lat":43.29535,"lon":5.38539,"is_reserved":false,"is_disabled":false,"rental_uris":{"android":"levelo://app?vid=454f0ec9-3ef8-4dff-9f76-0d6564d72cc7","ios":"levelo://app?vid=454f0ec9-3ef8-4dff-9f76-0d6564d72cc7"},"vehicle_type_id":"4","last_reported":1708020554,"current_range_meters":7200,"station_id":"ce4bgih2rcd13ifvqba0","pricing_plan_id":"cebpf4jnsgd1na2vs0mg"},{"bike_id":"e3c71cf5-200b-4007-a505-65405d820071","system_id":"levelo_inurba_marseille","lat":43.29539,"lon":5.38547,"is_reserved":false,"is_disabled":false,"rental_uris":{"android":"levelo://app?vid=e3c71cf5-200b-4007-a505-65405d820071","ios":"levelo://app?vid=e3c71cf5-200b-4007-a505-65405d820071"},"vehicle_type_id":"4","last_reported":1708020554,"current_range_meters":14400,"station_id":"ce4bgih2rcd13ifvqba0","pricing_plan_id":"cebpf4jnsgd1na2vs0mg"},{"bike_id":"de9f4a88-22e1-48e2-924b-99d421629ce3","system_id":"levelo_inurba_marseille","lat":43.29542,"lon":5.38553,"is_reserved":false,"is_disabled":false,"rental_uris":{"android":"levelo://app?vid=de9f4a88-22e1-48e2-924b-99d421629ce3","ios":"levelo://app?vid=de9f4a88-22e1-48e2-924b-99d421629ce3"},"vehicle_type_id":"4","last_reported":1708020554,"current_range_meters":3200,"station_id":"ce4bgih2rcd13ifvqba0","pricing_plan_id":"cebpf4jnsgd1na2vs0mg"},{"bike_id":"bee6c232-cafc-400b-bcbd-221cfb1487ce","system_id":"levelo_inurba_marseille","lat":43.29537,"lon":5.38545,"is_reserved":false,"is_disabled":false,"rental_uris":{"android":"levelo://app?vid=bee6c232-cafc-400b-bcbd-221cfb1487ce","ios":"levelo://app?vid=bee6c232-cafc-400b-bcbd-221cfb1487ce"},"vehicle_type_id":"4","last_reported":1708020554,"current_range_meters":20800,"station_id":"ce4bgih2rcd13ifvqba0","pricing_plan_id":"cebpf4jnsgd1na2vs0mg"},{"bike_id":"8e33a45f-0aa7-436d-bbc8-697f4ddec737","system_id":"levelo_inurba_marseille","lat":43.29534,"lon":5.38542,"is_reserved":false,"is_disabled":false,"rental_uris":{"android":"levelo://app?vid=8e33a45f-0aa7-436d-bbc8-697f4ddec737","ios":"levelo://app?vid=8e33a45f-0aa7-436d-bbc8-697f4ddec737"},"vehicle_type_id":"4","last_reported":1708020554,"current_range_meters":31200,"station_id":"ce4bgih2rcd13ifvqba0","pricing_plan_id":"cebpf4jnsgd1na2vs0mg"},{"bike_id":"34c41ddc-d38c-4089-8b84-84966e7ab0c9","system_id":"levelo_inurba_marseille","lat":43.29538,"lon":5.3855,"is_reserved":false,"is_disabled":false,"rental_uris":{"android":"levelo://app?vid=34c41ddc-d38c-4089-8b84-84966e7ab0c9","ios":"levelo://app?vid=34c41ddc-d38c-4089-8b84-84966e7ab0c9"},"vehicle_type_id":"4","last_reported":1708020554,"current_range_meters":4400,"station_id":"ce4bgih2rcd13ifvqba0","pricing_plan_id":"cebpf4jnsgd1na2vs0mg"},{"bike_id":"ed210a90-18f9-4b5d-96e7-595466f60c77","system_id":"levelo_inurba_marseille","lat":43.29534,"lon":5.38544,"is_reserved":false,"is_disabled":false,"rental_uris":{"android":"levelo://app?vid=ed210a90-18f9-4b5d-96e7-595466f60c77","ios":"levelo://app?vid=ed210a90-18f9-4b5d-96e7-595466f60c77"},"vehicle_type_id":"4","last_reported":1708020554,"current_range_meters":7200,"station_id":"ce4bgih2rcd13ifvqba0","pricing_plan_id":"cebpf4jnsgd1na2vs0mg"},{"bike_id":"0202197c-33a2-483e-b56a-a510bce41597","system_id":"levelo_inurba_marseille","lat":43.29534,"lon":5.38551,"is_reserved":false,"is_disabled":false,"rental_uris":{"android":"levelo://app?vid=0202197c-33a2-483e-b56a-a510bce41597","ios":"levelo://app?vid=0202197c-33a2-483e-b56a-a510bce41597"},"vehicle_type_id":"4","last_reported":1708020554,"current_range_meters":23600,"station_id":"ce4bgih2rcd13ifvqba0","pricing_plan_id":"cebpf4jnsgd1na2vs0mg"},{"bike_id":"76f0364c-665c-4d95-a449-470dc86ce5c0","system_id":"levelo_inurba_marseille","lat":43.295298,"lon":5.385443,"is_reserved":false,"is_disabled":false,"rental_uris":{"android":"levelo://app?vid=76f0364c-665c-4d95-a449-470dc86ce5c0","ios":"levelo://app?vid=76f0364c-665c-4d95-a449-470dc86ce5c0"},"vehicle_type_id":"4","last_reported":1708020554,"current_range_meters":29200,"station_id":"ce4bgih2rcd13ifvqba0","pricing_plan_id":"cebpf4jnsgd1na2vs0mg"},{"bike_id":"365b82ca-0db3-44ab-bb9d-69d2119d6161","system_id":"levelo_inurba_marseille","lat":43.29524,"lon":5.38534,"is_reserved":false,"is_disabled":false,"rental_uris":{"android":"levelo://app?vid=365b82ca-0db3-44ab-bb9d-69d2119d6161","ios":"levelo://app?vid=365b82ca-0db3-44ab-bb9d-69d2119d6161"},"vehicle_type_id":"4","last_reported":1708020554,"current_range_meters":18400,"station_id":"ce4bgih2rcd13ifvqba0","pricing_plan_id":"cebpf4jnsgd1na2vs0mg"},{"bike_id":"8cbd1f9f-3327-4ac5-8b6b-c4cfabe37cac","system_id":"levelo_inurba_marseille","lat":43.295307,"lon":5.385478,"is_reserved":false,"is_disabled":false,"rental_uris":{"android":"levelo://app?vid=8cbd1f9f-3327-4ac5-8b6b-c4cfabe37cac","ios":"levelo://app?vid=8cbd1f9f-3327-4ac5-8b6b-c4cfabe37cac"},"vehicle_type_id":"4","last_reported":1708020554,"current_range_meters":8000,"station_id":"","pricing_plan_id":"cebpf4jnsgd1na2vs0mg"},{"bike_id":"4f128ba0-c85a-481b-9002-19216c41d53d","system_id":"levelo_inurba_marseille","lat":43.29527,"lon":5.38542,"is_reserved":false,"is_disabled":false,"rental_uris":{"android":"levelo://app?vid=4f128ba0-c85a-481b-9002-19216c41d53d","ios":"levelo://app?vid=4f128ba0-c85a-481b-9002-19216c41d53d"},