{"last_updated":1725379911,"ttl":30,"version":"2.2","data":{"bikes":[{"bike_id":"6cdbb74c-3774-49b4-b303-db5a812eda3c","system_id":"levelo_inurba_marseille","lat":43.312239,"lon":5.368562,"is_reserved":false,"is_disabled":false,"rental_uris":{"android":"levelo://app?vid=6cdbb74c-3774-49b4-b303-db5a812eda3c","ios":"levelo://app?vid=6cdbb74c-3774-49b4-b303-db5a812eda3c"},"vehicle_type_id":"4","last_reported":1725379911,"current_range_meters":6400,"station_id":"ce4bgl92rcd13ifvqbq0","pricing_plan_id":"cebpf4jnsgd1na2vs0mg"},{"bike_id":"b15b7904-44b6-41e0-b160-4c0d149512a0","system_id":"levelo_inurba_marseille","lat":43.309076,"lon":5.368465,"is_reserved":false,"is_disabled":false,"rental_uris":{"android":"levelo://app?vid=b15b7904-44b6-41e0-b160-4c0d149512a0","ios":"levelo://app?vid=b15b7904-44b6-41e0-b160-4c0d149512a0"},"vehicle_type_id":"4","last_reported":1725379911,"current_range_meters":30400,"station_id":"ce4bgn92rcd13ifvqbvg","pricing_plan_id":"cebpf4jnsgd1na2vs0mg"},{"bike_id":"dee6175e-cd0d-4691-a44c-a092974e28b5","system_id":"levelo_inurba_marseille","lat":43.318124,"lon":5.369278,"is_reserved":false,"is_disabled":false,"rental_uris":{"android":"levelo://app?vid=dee6175e-cd0d-4691-a44c-a092974e28b5","ios":"levelo://app?vid=dee6175e-cd0d-4691-a44c-a092974e28b5"},"vehicle_type_id":"4","last_reported":1725379911,"current_range_meters":7200,"station_id":"","pricing_plan_id":"cebpf4jnsgd1na2vs0mg"},{"bike_id":"640e27c5-4297-463b-9e48-678416e5b6b2","system_id":"levelo_inurba_marseille","lat":43.30554,"lon":5.36532,"is_reserved":false,"is_disabled":false,"rental_uris":{"android":"levelo://app?vid=640e27c5-4297-463b-9e48-678416e5b6b2","ios":"levelo://app?vid=640e27c5-4297-463b-9e48-678416e5b6b2"},"vehicle_type_id":"4","last_reported":1725379911,"current_range_meters":26800,"station_id":"ce4bgs12rcd13ifvqcag","pricing_plan_id":"cebpf4jnsgd1na2vs0mg"},{"bike_id":"c5a340c8-e499-4ff2-9ce2-fe3fe792705f","system_id":"levelo_inurba_marseille","lat":43.30541,"lon":5.36699,"is_reserved":false,"is_disabled":false,"rental_uris":{"android":"levelo://app?vid=c5a340c8-e499-4ff2-9ce2-fe3fe792705f","ios":"levelo://app?vid=c5a340c8-e499-4ff2-9ce2-fe3fe792705f"},"vehicle_type_id":"4","last_reported":1725379911,"current_range_meters":0,"station_id":"ce4bgrp2rcd13ifvqc9g","pricing_plan_id":"cebpf4jnsgd1na2vs0mg"},{"bike_id":"339b4045-9e71-4b27-839e-dfa5415fe912","system_id":"levelo_inurba_marseille","lat":43.30538,"lon":5.36696,"is_reserved":false,"is_disabled":false,"rental_uris":{"android":"levelo://app?vid=339b4045-9e71-4b27-839e-dfa5415fe912","ios":"levelo://app?vid=339b4045-9e71-4b27-839e-dfa5415fe912"},"vehicle_type_id":"4","last_reported":1725379911,"current_range_meters":0,"station_id":"ce4bgrp2rcd13ifvqc9g","pricing_plan_id":"cebpf4jnsgd1na2vs0mg"},{"bike_id":"e2613d94-999a-436b-be81-5034ffaa54d6","system_id":"levelo_inurba_marseille","lat":43.30537,"lon":5.36701,"is_reserved":false,"is_disabled":false,"rental_uris":{"android":"levelo://app?vid=e2613d94-999a-436b-be81-5034ffaa54d6","ios":"levelo://app?vid=e2613d94-999a-436b-be81-5034ffaa54d6"},"vehicle_type_id":"4","last_reported":1725379911,"current_range_meters":0,"station_id":"ce4bgrp2rcd13ifvqc9g","pricing_plan_id":"cebpf4jnsgd1na2vs0mg"},{"bike_id":"83fd333c-4284-4bd7-b742-7795237d1476","system_id":"levelo_inurba_marseille","lat":43.30544,"lon":5.36547,"is_reserved":false,"is_disabled":false,"rental_uris":{"android":"levelo://app?vid=83fd333c-4284-4bd7-b742-7795237d1476","ios":"levelo://app?vid=83fd333c-4284-4bd7-b742-7795237d1476"},"vehicle_type_id":"4","last_reported":1725379911,"current_range_meters":27200,"station_id":"ce4bgs12rcd13ifvqcag","pricing_plan_id":"cebpf4jnsgd1na2vs0mg"},{"bike_id":"8fb5145f-41e3-4775-af70-380a6f3c568e","system_id":"levelo_inurba_marseille","lat":43.30544,"lon":5.36531,"is_reserved":false,"is_disabled":false,"rental_uris":{"android":"levelo://app?vid=8fb5145f-41e3-4775-af70-380a6f3c568e","ios":"levelo://app?vid=8fb5145f-41e3-4775-af70-380a6f3c568e"},"vehicle_type_id":"4","last_reported":1725379911,"current_range_meters":0,"station_id":"ce4bgs12rcd13ifvqcag","pricing_plan_id":"cebpf4jnsgd1na2vs0mg"},{"bike_id":"103007fd-de17-45a5-88a3-e87a5e82f477","system_id":"levelo_inurba_marseille","lat":43.30604,"lon":5.37224,"is_reserved":false,"is_disabled":false,"rental_uris":{"android":"levelo://app?vid=103007fd-de17-45a5-88a3-e87a5e82f477","ios":"levelo://app?vid=103007fd-de17-45a5-88a3-e87a5e82f477"},"vehicle_type_id":"4","last_reported":1725379911,"current_range_meters":0,"station_id":"ce4bgqh2rcd13ifvqc4g","pricing_plan_id":"cebpf4jnsgd1na2vs0mg"},{"bike_id":"a1a7f308-ac1a-463a-aa9f-00c568116602","system_id":"levelo_inurba_marseille","lat":43.31125,"lon":5.37752,"is_reserved":false,"is_disabled":false,"rental_uris":{"android":"levelo://app?vid=a1a7f308-ac1a-463a-aa9f-00c568116602","ios":"levelo://app?vid=a1a7f308-ac1a-463a-aa9f-00c568116602"},"vehicle_type_id":"4","last_reported":1725379911,"current_range_meters":0,"station_id":"ce4bgt92rcd13ifvqcg0","pricing_plan_id":"cebpf4jnsgd1na2vs0mg"},{"bike_id":"22493b29-679f-4cfb-8d74-09fd69f912e7","system_id":"levelo_inurba_marseille","lat":43.311125,"lon":5.377624,"is_reserved":false,"is_disabled":false,"rental_uris":{"android":"levelo://app?vid=22493b29-679f-4cfb-8d74-09fd69f912e7","ios":"levelo://app?vid=22493b29-679f-4cfb-8d74-09fd69f912e7"},"vehicle_type_id":"4","last_reported":1725379911,"current_range_meters":19600,"station_id":"ce4bgt92rcd13ifvqcg0","pricing_plan_id":"cebpf4jnsgd1na2vs0mg"},{"bike_id":"6e03f282-3b42-42f3-853c-a54badde2b9f","system_id":"levelo_inurba_marseille","lat":43.317075,"lon":5.377367,"is_reserved":false,"is_disabled":false,"rental_uris":{"android":"levelo://app?vid=6e03f282-3b42-42f3-853c-a54badde2b9f","ios":"levelo://app?vid=6e03f282-3b42-42f3-853c-a54badde2b9f"},"vehicle_type_id":"4","last_reported":1725379911,"current_range_meters":4400,"station_id":"ce4bgth2rcd13ifvqch0","pricing_plan_id":"cebpf4jnsgd1na2vs0mg"},{"bike_id":"9c327a20-65e6-4cf7-8165-169bb977067e","system_id":"levelo_inurba_marseille","lat":43.301396,"lon":5.387812,"is_reserved":false,"is_disabled":false,"rental_uris":{"android":"levelo://app?vid=9c327a20-65e6-4cf7-8165-169bb977067e","ios":"levelo://app?vid=9c327a20-65e6-4cf7-8165-169bb977067e"},"vehicle_type_id":"4","last_reported":1725379911,"current_range_meters":12400,"station_id":"ce4bghh2rcd13ifvqb60","pricing_plan_id":"cebpf4jnsgd1na2vs0mg"},{"bike_id":"5ab6f89e-5337-42b6-a338-4309ede99bfd","system_id":"levelo_inurba_marseille","lat":43.307945,"lon":5.376487,"is_reserved":false,"is_disabled":false,"rental_uris":{"android":"levelo://app?vid=5ab6f89e-5337-42b6-a338-4309ede99bfd","ios":"levelo://app?vid=5ab6f89e-5337-42b6-a338-4309ede99bfd"},"vehicle_type_id":"4","last_reported":1725379911,"current_range_meters":3200,"station_id":"ce4bgv92rcd13ifvqcq0","pricing_plan_id":"cebpf4jnsgd1na2vs0mg"},{"bike_id":"30bedc34-cac3-416c-a924-84cd48a11640","system_id":"levelo_inurba_marseille","lat":43.32189,"lon":5.368787,"is_reserved":false,"is_disabled":false,"rental_uris":{"android":"levelo://app?vid=30bedc34-cac3-416c-a924-84cd48a11640","ios":"levelo://app?vid=30bedc34-cac3-416c-a924-84cd48a11640"},"vehicle_type_id":"4","last_reported":1725379911,"current_range_meters":8400,"station_id":"","pricing_plan_id":"cebpf4jnsgd1na2vs0mg"},{"bike_id":"db6b078f-9ec2-4fc0-bed7-0a475840c79d","system_id":"levelo_inurba_marseille","lat":43.308012,"lon":5.381511,"is_reserved":false,"is_disabled":false,"rental_uris":{"android":"levelo://app?vid=db6b078f-9ec2-4fc0-bed7-0a475840c79d","ios":"levelo://app?vid=db6b078f-9ec2-4fc0-bed7-0a475840c79d"},"vehicle_type_id":"4","last_reported":1725379911,"current_range_meters":18800,"station_id":"ce4bgt12rcd13ifvqce0","pricing_plan_id":"cebpf4jnsgd1na2vs0mg"},{"bike_id":"e8e71965-0a71-4311-b978-463b1ff43a31","system_id":"levelo_inurba_marseille","lat":43.30786,"lon":5.3801,"is_reserved":false,"is_disabled":false,"rental_uris":{"android":"levelo://app?vid=e8e71965-0a71-4311-b978-463b1ff43a31","ios":"levelo://app?vid=e8e71965-0a71-4311-b978-463b1ff43a31"},"vehicle_type_id":"4","last_reported":1725379911,"current_range_meters":1600,"station_id":"","pricing_plan_id":"cebpf4jnsgd1na2vs0mg"},{"bike_id":"667a1a27-8510-4ce9-83ee-8a884e44a900","system_id":"levelo_inurba_marseille","lat":43.304606,"lon":5.379026,"is_reserved":false,"is_disabled":false,"rental_uris":{"android":"levelo://app?vid=667a1a27-8510-4ce9-83ee-8a884e44a900","ios":"levelo://app?vid=667a1a27-8510-4ce9-83ee-8a884e44a900"},"vehicle_type_id":"4","last_reported":1725379911,"current_range_meters":19200,"station_id":"ce4bgup2rcd13ifvqcn0","pricing_plan_id":"cebpf4jnsgd1na2vs0mg"},{"bike_id":"ba102905-fc8f-4463-82cc-be07edc4ef88","system_id":"levelo_inurba_marseille","lat":43.304606,"lon":5.379026,"is_reserved":false,"is_disabled":false,"rental_uris":{"android":"levelo://app?vid=ba102905-fc8f-4463-82cc-be07edc4ef88","ios":"levelo://app?vid=ba102905-fc8f-4463-82cc-be07edc4ef88"},"vehicle_type_id":"4","last_reported":1725379911,"current_range_meters":0,"station_id":"ce4bgup2rcd13ifvqcn0","pricing_plan_id":"cebpf4jnsgd1na2vs0mg"},{"bike_id":"3ff0072a-e691-4530-ae43-0a25392b374d","system_id":"levelo_inurba_marseille","lat":43.324771,"lon":5.36557,"is_reserved":false,"is_disabled":false,"rental_uris":{"android":"levelo://app?vid=3ff0072a-e691-4530-ae43-0a25392b374d","ios":"levelo://app?vid=3ff0072a-e691-4530-ae43-0a25392b374d"},"vehicle_type_id":"4","last_reported":1725379911,"current_range_meters":25600,"station_id":"ce4bhs12rcd13ifvqhvg","pricing_plan_id":"cebpf4jnsgd1na2vs0mg"},{"bike_id":"535b3444-b762-4b44-a4c5-1f993db1afbb","system_id":"levelo_inurba_marseille","lat":43.304606,"lon":5.379026,"is_reserved":false,"is_disabled":false,"rental_uris":{"android":"levelo://app?vid=535b3444-b762-4b44-a4c5-1f993db1afbb","ios":"levelo://app?vid=535b3444-b762-4b44-a4c5-1f993db1afbb"},"vehicle_type_id":"4","last_reported":1725379911,"current_range_meters":2400,"station_id":"ce4bgup2rcd13ifvqcn0","pricing_plan_id":"cebpf4jnsgd1na2vs0mg"},{"bike_id":"756ee5a3-6fc4-4437-ae7d-7285963c90ae","system_id":"levelo_inurba_marseille","lat":43.304606,"lon":5.379026,"is_reserved":false,"is_disabled":false,"rental_uris":{"android":"levelo://app?vid=756ee5a3-6fc4-4437-ae7d-7285963c90ae","ios":"levelo://app?vid=756ee5a3-6fc4-4437-ae7d-7285963c90ae"},"vehicle_type_id":"4","last_reported":1725379911,"current_range_meters":19200,"station_id":"ce4bgup2rcd13ifvqcn0","pricing_plan_id":"cebpf4jnsgd1na2vs0mg"},{"bike_id":"8d0a0955-4015-4edc-a1a0-27753f16223a","system_id":"levelo_inurba_marseille","lat":43.324771,"lon":5.36557,"is_reserved":false,"is_disabled":false,"rental_uris":{"android":"levelo://app?vid=8d0a0955-4015-4edc-a1a0-27753f16223a","ios":"levelo://app?vid=8d0a0955-4015-4edc-a1a0-27753f16223a"},"vehicle_type_id":"4","last_reported":1725379911,"current_range_meters":3600,"station_id":"ce4bhs12rcd13ifvqhvg","pricing_plan_id":"cebpf4jnsgd1na2vs0mg"},{"bike_id":"7d63b6bb-b461-40d8-9e0c-47048ab8f21d","system_id":"levelo_inurba_marseille","lat":43.324771,"lon":5.36557,"is_reserved":false,"is_disabled":false,"rental_uris":{"android":"levelo://app?vid=7d63b6bb-b461-40d8-9e0c-47048ab8f21d","ios":"levelo://app?vid=7d63b6bb-b461-40d8-9e0c-47048ab8f21d"},"vehicle_type_id":"4","last_reported":1725379911,"current_range_meters":3600,"station_id":"ce4bhs12rcd13ifvqhvg","pricing_plan_id":"cebpf4jnsgd1na2vs0mg"},{"bike_id":"08ba32ab-aa44-4cd5-ae46-283d5f4095bd","system_id":"levelo_inurba_marseille","lat":43.324771,"lon":5.36557,"is_reserved":false,"is_disabled":false,"rental_uris":{"android":"levelo://app?vid=08ba32ab-aa44-4cd5-ae46-283d5f4095bd","ios":"levelo://app?vid=08ba32ab-aa44-4cd5-ae46-283d5f4095bd"},"vehicle_type_id":"4","last_reported":1725379911,"current_range_meters":21600,"station_id":"ce4bhs12rcd13ifvqhvg","pricing_plan_id":"cebpf4jnsgd1na2vs0mg"},{"bike_id":"d6d0b309-813e-473a-9780-68f17f70670f","system_id":"levelo_inurba_marseille","lat":43.324771,"lon":5.36557,"is_reserved":false,"is_disabled":false,"rental_uris":{"android":"levelo://app?vid=d6d0b309-813e-473a-9780-68f17f70670f","ios":"levelo://app?vid=d6d0b309-813e-473a-9780-68f17f70670f"},"vehicle_type_id":"4","last_reported":1725379911,"current_range_meters":21200,"station_id":"ce4bhs12rcd13ifvqhvg","pricing_plan_id":"cebpf4jnsgd1na2vs0mg"},{"bike_id":"ab5a5da8-3097-4865-a5f9-350f4e0e4974","system_id":"levelo_inurba_marseille","lat":43.32483,"lon":5.36573,"is_reserved":false,"is_disabled":false,"rental_uris":{"android":"levelo://app?vid=ab5a5da8-3097-4865-a5f9-350f4e0e4974","ios":"levelo://app?vid=ab5a5da8-3097-4865-a5f9-350f4e0e4974"},"vehicle_type_id":"4","last_reported":1725379911,"current_range_meters":31200,"station_id":"ce4bhs12rcd13ifvqhvg","pricing_plan_id":"cebpf4jnsgd1na2vs0mg"},{"bike_id":"7b4c5849-443a-4827-9373-76bbaad35988","system_id":"levelo_inurba_marseille","lat":43.324771,"lon":5.36557,"is_reserved":false,"is_disabled":false,"rental_uris":{"android":"levelo://app?vid=7b4c5849-443a-4827-9373-76bbaad35988","ios":"levelo://app?vid=7b4c5849-443a-4827-9373-76bbaad35988"},"vehicle_type_id":"4","last_reported":1725379911,"current_range_meters":7200,"station_id":"ce4bhs12rcd13ifvqhvg","pricing_plan_id":"cebpf4jnsgd1na2vs0mg"},{"bike_id":"c1f37e38-afda-43be-809f-fbb7ad420795","system_id":"levelo_inurba_marseille","lat":43.32485,"lon":5.36572,"is_reserved":false,"is_disabled":false,"rental_uris":{"android":"levelo://app?vid=c1f37e38-afda-43be-809f-fbb7ad420795","ios":"levelo://app?vid=c1f37e38-afda-43be-809f-fbb7ad420795"},"vehicle_type_id":"4","last_reported":1725379911,"current_range_meters":0,"station_id":"ce4bhs12rcd13ifvqhvg","pricing_plan_id":"cebpf4jnsgd1na2vs0mg"},{"bike_id":"bd3f0e07-fb20-44a6-8d2d-e11bea94fd73","system_id":"levelo_inurba_marseille","lat":43.324771,"lon":5.36557,"is_reserved":false,"is_disabled":false,"rental_uris":{"android":"levelo://app?vid=bd3f0e07-fb20-44a6-8d2d-e11bea94fd73","ios":"levelo://app?vid=bd3f0e07-fb20-44a6-8d2d-e11bea94fd73"},"vehicle_type_id":"4","last_reported":1725379911,"current_range_meters":32000,"station_id":"ce4bhs12rcd13ifvqhvg","pricing_plan_id":"cebpf4jnsgd1na2vs0mg"},{"bike_id":"81f89127-3c15-4b94-b6fa-cafe332f7932","system_id":"levelo_inurba_marseille","lat":43.32486,"lon":5.36575,"is_reserved":false,"is_disabled":false,"rental_uris":{"android":"levelo://app?vid=81f89127-3c15-4b94-b6fa-cafe332f7932","ios":"levelo://app?vid=81f89127-3c15-4b94-b6fa-cafe332f7932"},"vehicle_type_id":"4","last_reported":1725379911,"current_range_meters":0,"station_id":"ce4bhs12rcd13ifvqhvg","pricing_plan_id":"cebpf4jnsgd1na2vs0mg"},{"bike_id":"99dfc714-c11a-4117-8f3b-0fdf9fef3988","system_id":"levelo_inurba_marseille","lat":43.32486,"lon":5.36574,"is_reserved":false,"is_disabled":false,"rental_uris":{"android":"levelo://app?vid=99dfc714-c11a-4117-8f3b-0fdf9fef3988","ios":"levelo://app?vid=99dfc714-c11a-4117-8f3b-0fdf9fef3988"},"vehicle_type_id":"4","last_reported":1725379911,"current_range_meters":1600,"station_id":"ce4bhs12rcd13ifvqhvg","pricing_plan_id":"cebpf4jnsgd1na2vs0mg"},{"bike_id":"98528840-9e83-4957-a13c-9a85df786d1c","system_id":"levelo_inurba_marseille","lat":43.30281,"lon":5.37691,"is_reserved":false,"is_disabled":false,"rental_uris":{"android":"levelo://app?vid=98528840-9e83-4957-a13c-9a85df786d1c","ios":"levelo://app?vid=98528840-9e83-4957-a13c-9a85df786d1c"},"vehicle_type_id":"4","last_reported":1725379911,"current_range_meters":0,"station_id":"ce4bguh2rcd13ifvqcj0","pricing_plan_id":"cebpf4jnsgd1na2vs0mg"},{"bike_id":"15d60262-bab9-4ce4-8f58-9d3d29b2e0ef","system_id":"levelo_inurba_marseille","lat":43.302707,"lon":5.376963,"is_reserved":false,"is_disabled":false,"rental_uris":{"android":"levelo://app?vid=15d60262-bab9-4ce4-8f58-9d3d29b2e0ef","ios":"levelo://app?vid=15d60262-bab9-4ce4-8f58-9d3d29b2e0ef"},"vehicle_type_id":"4","last_reported":1725379911,"current_range_meters":0,"station_id":"ce4bguh2rcd13ifvqcj0","pricing_plan_id":"cebpf4jnsgd1na2vs0mg"},{"bike_id":"52dc2513-4ea2-40c0-b899-fc61074b45f2","system_id":"levelo_inurba_marseille","lat":43.301429,"lon":5.37413,"is_reserved":false,"is_disabled":false,"rental_uris":{"android":"levelo://app?vid=52dc2513-4ea2-40c0-b899-fc61074b45f2","ios":"levelo://app?vid=52dc2513-4ea2-40c0-b899-fc61074b45f2"},"vehicle_type_id":"4","last_reported":1725379911,"current_range_meters":6000,"station_id":"ce4bgs92rcd13ifvqcc0","pricing_plan_id":"cebpf4jnsgd1na2vs0mg"},{"bike_id":"226e6caf-bbb8-42ee-825a-b3809a98fda9","system_id":"levelo_inurba_marseille","lat":43.301429,"lon":5.37413,"is_reserved":false,"is_disabled":false,"rental_uris":{"android":"levelo://app?vid=226e6caf-bbb8-42ee-825a-b3809a98fda9","ios":"levelo://app?vid=226e6caf-bbb8-42ee-825a-b3809a98fda9"},"vehicle_type_id":"4","last_reported":1725379911,"current_range_meters":30800,"station_id":"ce4bgs92rcd13ifvqcc0","pricing_plan_id":"cebpf4jnsgd1na2vs0mg"},{"bike_id":"6240613f-32ae-49d0-ac14-6fcd92dc8bdf","system_id":"levelo_inurba_marseille","lat":43.32529,"lon":5.36798,"is_reserved":false,"is_disabled":false,"rental_uris":{"android":"levelo://app?vid=6240613f-32ae-49d0-ac14-6fcd92dc8bdf","ios":"levelo://app?vid=6240613f-32ae-49d0-ac14-6fcd92dc8bdf"},"vehicle_type_id":"4","last_reported":1725379911,"current_range_meters":17200,"station_id":"","pricing_plan_id":"cebpf4jnsgd1na2vs0mg"},{"bike_id":"f156f5d2-98df-4dc9-8731-e8c35ff21d0f","system_id":"levelo_inurba_marseille","lat":43.313571,"lon":5.384829,"is_reserved":false,"is_disabled":false,"rental_uris":{"android":"levelo://app?vid=f156f5d2-98df-4dc9-8731-e8c35ff21d0f","ios":"levelo://app?vid=f156f5d2-98df-4dc9-8731-e8c35ff21d0f"},"vehicle_type_id":"4","last_reported":1725379911,"current_range_meters":1600,"station_id":"ce4bgt92rcd13ifvqcf0","pricing_plan_id":"cebpf4jnsgd1na2vs0mg"},{"bike_id":"2899c605-2fb6-435a-b636-d932182f3201","system_id":"levelo_inurba_marseille","lat":43.299724,"lon":5.371829,"is_reserved":false,"is_disabled":false,"rental_uris":{"android":"levelo://app?vid=2899c605-2fb6-435a-b636-d932182f3201","ios":"levelo://app?vid=2899c605-2fb6-435a-b636-d932182f3201"},"vehicle_type_id":"4","last_reported":1725379911,"current_range_meters":8400,"station_id":"ce4bgr92rcd13ifvqc7g","pricing_plan_id":"cebpf4jnsgd1na2vs0mg"},{"bike_id":"6f79d88b-3047-442c-9607-85057a3bcf11","system_id":"levelo_inurba_marseille","lat":43.299724,"lon":5.371829,"is_reserved":false,"is_disabled":false,"rental_uris":{"android":"levelo://app?vid=6f79d88b-3047-442c-9607-85057a3bcf11","ios":"levelo://app?vid=6f79d88b-3047-442c-9607-85057a3bcf11"},"vehicle_type_id":"4","last_reported":1725379911,"current_range_meters":0,"station_id":"ce4bgr92rcd13ifvqc7g","pricing_plan_id":"cebpf4jnsgd1na2vs0mg"},{"bike_id":"b05a3fe5-1524-4c3a-bb09-142a84e2ca56","system_id":"levelo_inurba_marseille","lat":43.32014,"lon":5.38241,"is_reserved":false,"is_disabled":false,"rental_uris":{"android":"levelo://app?vid=b05a3fe5-1524-4c3a-bb09-142a84e2ca56","ios":"levelo://app?vid=b05a3fe5-1524-4c3a-bb09-142a84e2ca56"},"vehicle_type_id":"4","last_reported":1725379911,"current_range_meters":10000,"station_id":"","pricing_plan_id":"cebpf4jnsgd1na2vs0mg"},{"bike_id":"ef329995-5951-4782-a43e-504319a8a5a1","system_id":"levelo_inurba_marseille","lat":43.299724,"lon":5.371829,"is_reserved":false,"is_disabled":false,"rental_uris":{"android":"levelo://app?vid=ef329995-5951-4782-a43e-504319a8a5a1","ios":"levelo://app?vid=ef329995-5951-4782-a43e-504319a8a5a1"},"vehicle_type_id":"4","last_reported":1725379911,"current_range_meters":7600,"station_id":"ce4bgr92rcd13ifvqc7g","pricing_plan_id":"cebpf4jnsgd1na2vs0mg"},{"bike_id":"0b8dafe3-19a1-4806-bd45-b30ae7df2c61","system_id":"levelo_inurba_marseille","lat":43.30565,"lon":5.38398,"is_reserved":false,"is_disabled":false,"rental_uris":{"android":"levelo://app?vid=0b8dafe3-19a1-4806-bd45-b30ae7df2c61","ios":"levelo://app?vid=0b8dafe3-19a1-4806-bd45-b30ae7df2c61"},"vehicle_type_id":"4","last_reported":1725379911,"current_range_meters":1600,"station_id":"","pricing_plan_id":"cebpf4jnsgd1na2vs0mg"},{"bike_id":"2fc15332-61f8-44d1-9771-2bbf1afdbaf6","system_id":"levelo_inurba_marseille","lat":43.29851,"lon":5.36283,"is_reserved":false,"is_disabled":false,"rental_uris":{"android":"levelo://app?vid=2fc15332-61f8-44d1-9771-2bbf1afdbaf6","ios":"levelo://app?vid=2fc15332-61f8-44d1-9771-2bbf1afdbaf6"},"vehicle_type_id":"4","last_reported":1725379911,"current_range_meters":25200,"station_id":"ce4bgpp2rcd13ifvqc3g","pricing_plan_id":"cebpf4jnsgd1na2vs0mg"},{"bike_id":"bc6ce0e0-d74e-4de6-8aa3-b11b8cbee477","system_id":"levelo_inurba_marseille","lat":43.311722,"lon":5.387247,"is_reserved":false,"is_disabled":false,"rental_uris":{"android":"levelo://app?vid=bc6ce0e0-d74e-4de6-8aa3-b11b8cbee477","ios":"levelo://app?vid=bc6ce0e0-d74e-4de6-8aa3-b11b8cbee477"},"vehicle_type_id":"4","last_reported":1725379911,"current_range_meters":400,"station_id":"ce4bgv12rcd13ifvqcp0","pricing_plan_id":"cebpf4jnsgd1na2vs0mg"},{"bike_id":"28f972b3-8d17-459a-a3ce-5d4c240684b3","system_id":"levelo_inurba_marseille","lat":43.301417,"lon":5.3809,"is_reserved":false,"is_disabled":false,"rental_uris":{"android":"levelo://app?vid=28f972b3-8d17-459a-a3ce-5d4c240684b3","ios":"levelo://app?vid=28f972b3-8d17-459a-a3ce-5d4c240684b3"},"vehicle_type_id":"4","last_reported":1725379911,"current_range_meters":19200,"station_id":"ce4bgjp2rcd13ifvqbh0","pricing_plan_id":"cebpf4jnsgd1na2vs0mg"},{"bike_id":"e20d691a-ce18-4fe8-8ce7-1ff6e1438b13","system_id":"levelo_inurba_marseille","lat":43.297794,"lon":5.370888,"is_reserved":false,"is_disabled":false,"rental_uris":{"android":"levelo://app?vid=e20d691a-ce18-4fe8-8ce7-1ff6e1438b13","ios":"levelo://app?vid=e20d691a-ce18-4fe8-8ce7-1ff6e1438b13"},"vehicle_type_id":"4","last_reported":1725379911,"current_range_meters":8000,"station_id":"ce4bgop2rcd13ifvqc1g","pricing_plan_id":"cebpf4jnsgd1na2vs0mg"},{"bike_id":"d10e9edd-5b4c-45b9-a36e-cf57f593f9b0","system_id":"levelo_inurba_marseille","lat":43.322872,"lon":5.382756,"is_reserved":false,"is_disabled":false,"rental_uris":{"android":"levelo://app?vid=d10e9edd-5b4c-45b9-a36e-cf57f593f9b0","ios":"levelo://app?vid=d10e9edd-5b4c-45b9-a36e-cf57f593f9b0"},"vehicle_type_id":"4","last_reported":1725379911,"current_range_meters":8000,"station_id":"ce4bhr12rcd13ifvqhqg","pricing_plan_id":"cebpf4jnsgd1na2vs0mg"},{"bike_id":"a7da858e-bf8e-46e8-9f1a-c744b7c6d289","system_id":"levelo_inurba_marseille","lat":43.297163,"lon":5.365866,"is_reserved":false,"is_disabled":false,"rental_uris":{"android":"levelo://app?vid=a7da858e-bf8e-46e8-9f1a-c744b7c6d289","ios":"levelo://app?vid=a7da858e-bf8e-46e8-9f1a-c744b7c6d289"},"vehicle_type_id":"4","last_reported":1725379911,"current_range_meters":2400,"station_id":"ce4bgn12rcd13ifvqbt0","pricing_plan_id":"cebpf4jnsgd1na2vs0mg"},{"bike_id":"8a8887de-5c7d-4b1c-91b2-78e9c920b48d","system_id":"levelo_inurba_marseille","lat":43.2968,"lon":5.37291,"is_reserved":false,"is_disabled":false,"rental_uris":{"android":"levelo://app?vid=8a8887de-5c7d-4b1c-91b2-78e9c920b48d","ios":"levelo://app?vid=8a8887de-5c7d-4b1c-91b2-78e9c920b48d"},"vehicle_type_id":"4","last_reported":1725379911,"current_range_meters":31200,"station_id":"ce4bgk12rcd13ifvqbj0","pricing_plan_id":"cebpf4jnsgd1na2vs0mg"},{"bike_id":"52fb6cb2-164b-4999-9b06-cc255cc8b259","system_id":"levelo_inurba_marseille","lat":43.303527,"lon":5.385784,"is_reserved":false,"is_disabled":false,"rental_uris":{"android":"levelo://app?vid=52fb6cb2-164b-4999-9b06-cc255cc8b259","ios":"levelo://app?vid=52fb6cb2-164b-4999-9b06-cc255cc8b259"},"vehicle_type_id":"4","last_reported":1725379911,"current_range_meters":24000,"station_id":"","pricing_plan_id":"cebpf4jnsgd1na2vs0mg"},{"bike_id":"32b339e9-18cd-466f-a4d1-288de071914d","system_id":"levelo_inurba_marseille","lat":43.299028,"lon":5.381509,"is_reserved":false,"is_disabled":false,"rental_uris":{"android":"levelo://app?vid=32b339e9-18cd-466f-a4d1-288de071914d","ios":"levelo://app?vid=32b339e9-18cd-466f-a4d1-288de071914d"},"vehicle_type_id":"4","last_reported":1725379911,"current_range_meters":0,"station_id":"ce4bgj12rcd13ifvqbc0","pricing_plan_id":"cebpf4jnsgd1na2vs0mg"},{"bike_id":"ac06e218-f846-487e-bfe4-b3f9c8d064c6","system_id":"levelo_inurba_marseille","lat":43.309589,"lon":5.390258,"is_reserved":false,"is_disabled":false,"rental_uris":{"android":"levelo://app?vid=ac06e218-f846-487e-bfe4-b3f9c8d064c6","ios":"levelo://app?vid=ac06e218-f846-487e-bfe4-b3f9c8d064c6"},"vehicle_type_id":"4","last_reported":1725379911,"current_range_meters":0,"station_id":"ce4bgup2rcd13ifvqco0","pricing_plan_id":"cebpf4jnsgd1na2vs0mg"},{"bike_id":"7771c39d-d491-42e0-b260-070cfc47e4e9","system_id":"levelo_inurba_marseille","lat":43.317557,"lon":5.390173,"is_reserved":false,"is_disabled":false,"rental_uris":{"android":"levelo://app?vid=7771c39d-d491-42e0-b260-070cfc47e4e9","ios":"levelo://app?vid=7771c39d-d491-42e0-b260-070cfc47e4e9"},"vehicle_type_id":"4","last_reported":1725379911,"current_range_meters":800,"station_id":"ce4bhqp2rcd13ifvqhng","pricing_plan_id":"cebpf4jnsgd1na2vs0mg"},{"bike_id":"03b0c8ec-9a47-46c9-b9d3-cf00290b3476","system_id":"levelo_inurba_marseille","lat":43.317557,"lon":5.390173,"is_reserved":false,"is_disabled":false,"rental_uris":{"android":"levelo://app?vid=03b0c8ec-9a47-46c9-b9d3-cf00290b3476","ios":"levelo://app?vid=03b0c8ec-9a47-46c9-b9d3-cf00290b3476"},"vehicle_type_id":"4","last_reported":1725379911,"current_range_meters":15600,"station_id":"ce4bhqp2rcd13ifvqhng","pricing_plan_id":"cebpf4jnsgd1na2vs0mg"},{"bike_id":"b8089347-4f0e-44bd-bdc6-fc26e4d072a6","system_id":"levelo_inurba_marseille","lat":43.298037,"lon":5.381066,"is_reserved":false,"is_disabled":false,"rental_uris":{"android":"levelo://app?vid=b8089347-4f0e-44bd-bdc6-fc26e4d072a6","ios":"levelo://app?vid=b8089347-4f0e-44bd-bdc6-fc26e4d072a6"},"vehicle_type_id":"4","last_reported":1725379911,"current_range_meters":31200,"station_id":"ce4bgip2rcd13ifvqbb0","pricing_plan_id":"cebpf4jnsgd1na2vs0mg"},{"bike_id":"f08b4abd-a875-4e15-9e42-281491c3aec5","system_id":"levelo_inurba_marseille","lat":43.295748,"lon":5.37522,"is_reserved":false,"is_disabled":false,"rental_uris":{"android":"levelo://app?vid=f08b4abd-a875-4e15-9e42-281491c3aec5","ios":"levelo://app?vid=f08b4abd-a875-4e15-9e42-281491c3aec5"},"vehicle_type_id":"4","last_reported":1725379911,"current_range_meters":0,"station_id":"ce4bgh92rcd13ifvqb50","pricing_plan_id":"cebpf4jnsgd1na2vs0mg"},{"bike_id":"6c72c3c7-a3da-418b-8fd0-abb71e799d86","system_id":"levelo_inurba_marseille","lat":43.298037,"lon":5.381066,"is_reserved":false,"is_disabled":false,"rental_uris":{"android":"levelo://app?vid=6c72c3c7-a3da-418b-8fd0-abb71e799d86","ios":"levelo://app?vid=6c72c3c7-a3da-418b-8fd0-abb71e799d86"},"vehicle_type_id":"4","last_reported":1725379911,"current_range_meters":13600,"station_id":"ce4bgip2rcd13ifvqbb0","pricing_plan_id":"cebpf4jnsgd1na2vs0mg"},{"bike_id":"1f05af8f-518b-4b49-b877-3643ee1711bf","system_id":"levelo_inurba_marseille","lat":43.304278,"lon":5.388868,"is_reserved":false,"is_disabled":false,"rental_uris":{"android":"levelo://app?vid=1f05af8f-518b-4b49-b877-3643ee1711bf","ios":"levelo://app?vid=1f05af8f-518b-4b49-b877-3643ee1711bf"},"vehicle_type_id":"4","last_reported":1725379911,"current_range_meters":4400,"station_id":"ce4bgk12rcd13ifvqbi0","pricing_plan_id":"cebpf4jnsgd1na2vs0mg"},{"bike_id":"5e2817e6-28f1-489b-a343-c5fd175ecd24","system_id":"levelo_inurba_marseille","lat":43.304336,"lon":5.38889,"is_reserved":false,"is_disabled":false,"rental_uris":{"android":"levelo://app?vid=5e2817e6-28f1-489b-a343-c5fd175ecd24","ios":"levelo://app?vid=5e2817e6-28f1-489b-a343-c5fd175ecd24"},"vehicle_type_id":"4","last_reported":1725379911,"current_range_meters":0,"station_id":"ce4bgk12rcd13ifvqbi0","pricing_plan_id":"cebpf4jnsgd1na2vs0mg"},{"bike_id":"e6d102c4-d2a2-4ea7-8b18-359f02181306","system_id":"levelo_inurba_marseille","lat":43.304278,"lon":5.388868,"is_reserved":false,"is_disabled":false,"rental_uris":{"android":"levelo://app?vid=e6d102c4-d2a2-4ea7-8b18-359f02181306","ios":"levelo://app?vid=e6d102c4-d2a2-4ea7-8b18-359f02181306"},"vehicle_type_id":"4","last_reported":1725379911,"current_range_meters":10400,"station_id":"ce4bgk12rcd13ifvqbi0","pricing_plan_id":"cebpf4jnsgd1na2vs0mg"},{"bike_id":"fbedea35-8d65-479f-b434-132494b17f0b","system_id":"levelo_inurba_marseille","lat":43.29625,"lon":5.3772,"is_reserved":false,"is_disabled":false,"rental_uris":{"android":"levelo://app?vid=fbedea35-8d65-479f-b434-132494b17f0b","ios":"levelo://app?vid=fbedea35-8d65-479f-b434-132494b17f0b"},"vehicle_type_id":"4","last_reported":1725379911,"current_range_meters":4800,"station_id":"ce4bgi92rcd13ifvqb90","pricing_plan_id":"cebpf4jnsgd1na2vs0mg"},{"bike_id":"380aeab0-208f-46e6-bf23-e7d6013923c5","system_id":"levelo_inurba_marseille","lat":43.30439,"lon":5.38905,"is_reserved":false,"is_disabled":false,"rental_uris":{"android":"levelo://app?vid=380aeab0-208f-46e6-bf23-e7d6013923c5","ios":"levelo://app?vid=380aeab0-208f-46e6-bf23-e7d6013923c5"},"vehicle_type_id":"4","last_reported":1725379911,"current_range_meters":13200,"station_id":"ce4bgk12rcd13ifvqbi0","pricing_plan_id":"cebpf4jnsgd1na2vs0mg"},{"bike_id":"56bab783-152d-41fb-93f1-ceabb05129c5","system_id":"levelo_inurba_marseille","lat":43.304493,"lon":5.389333,"is_reserved":false,"is_disabled":false,"rental_uris":{"android":"levelo://app?vid=56bab783-152d-41fb-93f1-ceabb05129c5","ios":"levelo://app?vid=56bab783-152d-41fb-93f1-ceabb05129c5"},"vehicle_type_id":"4","last_reported":1725379911,"current_range_meters":0,"station_id":"ce4bgk12rcd13ifvqbi0","pricing_plan_id":"cebpf4jnsgd1na2vs0mg"},{"bike_id":"67846522-239b-4f53-b1d2-fa2697479218","system_id":"levelo_inurba_marseille","lat":43.29975,"lon":5.3849,"is_reserved":false,"is_disabled":false,"rental_uris":{"android":"levelo://app?vid=67846522-239b-4f53-b1d2-fa2697479218","ios":"levelo://app?vid=67846522-239b-4f53-b1d2-fa2697479218"},"vehicle_type_id":"4","last_reported":1725379911,"current_range_meters":13200,"station_id":"ce4bgj92rcd13ifvqbd0","pricing_plan_id":"cebpf4jnsgd1na2vs0mg"},{"bike_id":"80bb3a1e-6a4b-4457-9eae-71df8b040e03","system_id":"levelo_inurba_marseille","lat":43.299717,"lon":5.384845,"is_reserved":false,"is_disabled":false,"rental_uris":{"android":"levelo://app?vid=80bb3a1e-6a4b-4457-9eae-71df8b040e03","ios":"levelo://app?vid=80bb3a1e-6a4b-4457-9eae-71df8b040e03"},"vehicle_type_id":"4","last_reported":1725379911,"current_range_meters":4800,"station_id":"ce4bgj92rcd13ifvqbd0","pricing_plan_id":"cebpf4jnsgd1na2vs0mg"},{"bike_id":"20fa2805-9e02-460c-9598-061d31075353","system_id":"levelo_inurba_marseille","lat":43.29973,"lon":5.38493,"is_reserved":false,"is_disabled":false,"rental_uris":{"android":"levelo://app?vid=20fa2805-9e02-460c-9598-061d31075353","ios":"levelo://app?vid=20fa2805-9e02-460c-9598-061d31075353"},"vehicle_type_id":"4","last_reported":1725379911,"current_range_meters":0,"station_id":"ce4bgj92rcd13ifvqbd0","pricing_plan_id":"cebpf4jnsgd1na2vs0mg"},{"bike_id":"ae101cbd-5ef1-4cdc-8d1c-7c6260956cdc","system_id":"levelo_inurba_marseille","lat":43.29971,"lon":5.38499,"is_reserved":false,"is_disabled":false,"rental_uris":{"android":"levelo://app?vid=ae101cbd-5ef1-4cdc-8d1c-7c6260956cdc","ios":"levelo://app?vid=ae101cbd-5ef1-4cdc-8d1c-7c6260956cdc"},"vehicle_type_id":"4","last_reported":1725379911,"current_range_meters":0,"station_id":"ce4bgj92rcd13ifvqbd0","pricing_plan_id":"cebpf4jnsgd1na2vs0mg"},{"bike_id":"896304e4-6b59-46e6-922c-d8ed7df99f98","system_id":"levelo_inurba_marseille","lat":43.30133,"lon":5.38777,"is_reserved":false,"is_disabled":false,"rental_uris":{"android":"levelo://app?vid=896304e4-6b59-46e6-922c-d8ed7df99f98","ios":"levelo://app?vid=896304e4-6b59-46e6-922c-d8ed7df99f98"},"vehicle_type_id":"4","last_reported":1725379911,"current_range_meters":0,"station_id":"ce4bghh2rcd13ifvqb60","pricing_plan_id":"cebpf4jnsgd1na2vs0mg"},{"bike_id":"8be07a9c-b2e6-4712-8a73-29330a05e72b","system_id":"levelo_inurba_marseille","lat":43.30129,"lon":5.38783,"is_reserved":false,"is_disabled":false,"rental_uris":{"android":"levelo://app?vid=8be07a9c-b2e6-4712-8a73-29330a05e72b","ios":"levelo://app?vid=8be07a9c-b2e6-4712-8a73-29330a05e72b"},"vehicle_type_id":"4","last_reported":1725379911,"current_range_meters":5200,"station_id":"ce4bghh2rcd13ifvqb60","pricing_plan_id":"cebpf4jnsgd1na2vs0mg"},{"bike_id":"1e0f7c26-7112-49a5-aa83-32583c51ad7a","system_id":"levelo_inurba_marseille","lat":43.323611,"lon":5.388644,"is_reserved":false,"is_disabled":false,"rental_uris":{"android":"levelo://app?vid=1e0f7c26-7112-49a5-aa83-32583c51ad7a","ios":"levelo://app?vid=1e0f7c26-7112-49a5-aa83-32583c51ad7a"},"vehicle_type_id":"4","last_reported":1725379911,"current_range_meters":26000,"station_id":"","pricing_plan_id":"cebpf4jnsgd1na2vs0mg"},{"bike_id":"293978bd-b6bd-4b40-8ca4-031cd9d26349","system_id":"levelo_inurba_marseille","lat":43.32367,"lon":5.388836,"is_reserved":false,"is_disabled":false,"rental_uris":{"android":"levelo://app?vid=293978bd-b6bd-4b40-8ca4-031cd9d26349","ios":"levelo://app?vid=293978bd-b6bd-4b40-8ca4-031cd9d26349"},"vehicle_type_id":"4","last_reported":1725379911,"current_range_meters":5600,"station_id":"ce4bhqp2rcd13ifvqhog","pricing_plan_id":"cebpf4jnsgd1na2vs0mg"},{"bike_id":"25cbfc96-6541-4818-a9cf-1575bc752df7","system_id":"levelo_inurba_marseille","lat":43.284214,"lon":5.349706,"is_reserved":false,"is_disabled":false,"rental_uris":{"android":"levelo://app?vid=25cbfc96-6541-4818-a9cf-1575bc752df7","ios":"levelo://app?vid=25cbfc96-6541-4818-a9cf-1575bc752df7"},"vehicle_type_id":"4","last_reported":1725379911,"current_range_meters":4000,"station_id":"ce4bhbh2rcd13ifvqepg","pricing_plan_id":"cebpf4jnsgd1na2vs0mg"},{"bike_id":"c59f124f-8042-4b1c-a794-989a690ab1ff","system_id":"levelo_inurba_marseille","lat":43.29602,"lon":5.381084,"is_reserved":false,"is_disabled":false,"rental_uris":{"android":"levelo://app?vid=c59f124f-8042-4b1c-a794-989a690ab1ff","ios":"levelo://app?vid=c59f124f-8042-4b1c-a794-989a690ab1ff"},"vehicle_type_id":"4","last_reported":1725379911,"current_range_meters":9200,"station_id":"ce4bgl12rcd13ifvqbo0","pricing_plan_id":"cebpf4jnsgd1na2vs0mg"},{"bike_id":"7419e616-ee66-4846-94ac-20c4f64f50d9","system_id":"levelo_inurba_marseille","lat":43.29602,"lon":5.381084,"is_reserved":false,"is_disabled":false,"rental_uris":{"android":"levelo://app?vid=7419e616-ee66-4846-94ac-20c4f64f50d9","ios":"levelo://app?vid=7419e616-ee66-4846-94ac-20c4f64f50d9"},"vehicle_type_id":"4","last_reported":1725379911,"current_range_meters":7200,"station_id":"ce4bgl12rcd13ifvqbo0","pricing_plan_id":"cebpf4jnsgd1na2vs0mg"},{"bike_id":"bed8e405-8aa0-4720-b1b6-74a7898ae72a","system_id":"levelo_inurba_marseille","lat":43.292811,"lon":5.368709,"is_reserved":false,"is_disabled":false,"rental_uris":{"android":"levelo://app?vid=bed8e405-8aa0-4720-b1b6-74a7898ae72a","ios":"levelo://app?vid=bed8e405-8aa0-4720-b1b6-74a7898ae72a"},"vehicle_type_id":"4","last_reported":1725379911,"current_range_meters":0,"station_id":"","pricing_plan_id":"cebpf4jnsgd1na2vs0mg"},{"bike_id":"562b8e8a-7ab2-490d-90ae-428594984d8e","system_id":"levelo_inurba_marseille","lat":43.29305,"lon":5.37165,"is_reserved":false,"is_disabled":false,"rental_uris":{"android":"levelo://app?vid=562b8e8a-7ab2-490d-90ae-428594984d8e","ios":"levelo://app?vid=562b8e8a-7ab2-490d-90ae-428594984d8e"},"vehicle_type_id":"4","last_reported":1725379911,"current_range_meters":0,"station_id":"ce4bgh92rcd13ifvqb40","pricing_plan_id":"cebpf4jnsgd1na2vs0mg"},{"bike_id":"8e62c5a7-0e7d-4e1f-b6a6-ea6758f51683","system_id":"levelo_inurba_marseille","lat":43.292749,"lon":5.368402,"is_reserved":false,"is_disabled":false,"rental_uris":{"android":"levelo://app?vid=8e62c5a7-0e7d-4e1f-b6a6-ea6758f51683","ios":"levelo://app?vid=8e62c5a7-0e7d-4e1f-b6a6-ea6758f51683"},"vehicle_type_id":"4","last_reported":1725379911,"current_range_meters":0,"station_id":"ce4bhbp2rcd13ifvqesg","pricing_plan_id":"cebpf4jnsgd1na2vs0mg"},{"bike_id":"ce6d783a-f7e1-459f-a104-2aa820933a84","system_id":"levelo_inurba_marseille","lat":43.29276,"lon":5.36831,"is_reserved":false,"is_disabled":false,"rental_uris":{"android":"levelo://app?vid=ce6d783a-f7e1-459f-a104-2aa820933a84","ios":"levelo://app?vid=ce6d783a-f7e1-459f-a104-2aa820933a84"},"vehicle_type_id":"4","last_reported":1725379911,"current_range_meters":10000,"station_id":"ce4bhbp2rcd13ifvqesg","pricing_plan_id":"cebpf4jnsgd1na2vs0mg"},{"bike_id":"6f8d3687-ce84-4835-b305-22fe4c8dbb56","system_id":"levelo_inurba_marseille","lat":43.29275,"lon":5.36839,"is_reserved":false,"is_disabled":false,"rental_uris":{"android":"levelo://app?vid=6f8d3687-ce84-4835-b305-22fe4c8dbb56","ios":"levelo://app?vid=6f8d3687-ce84-4835-b305-22fe4c8dbb56"},"vehicle_type_id":"4","last_reported":1725379911,"current_range_meters":27600,"station_id":"","pricing_plan_id":"cebpf4jnsgd1na2vs0mg"},{"bike_id":"5290d481-a022-4c12-ab33-1f2defe2d5de","system_id":"levelo_inurba_marseille","lat":43.293009,"lon":5.374584,"is_reserved":false,"is_disabled":false,"rental_uris":{"android":"levelo://app?vid=5290d481-a022-4c12-ab33-1f2defe2d5de","ios":"levelo://app?vid=5290d481-a022-4c12-ab33-1f2defe2d5de"},"vehicle_type_id":"4","last_reported":1725379911,"current_range_meters":0,"station_id":"ce4bgi12rcd13ifvqb70","pricing_plan_id":"cebpf4jnsgd1na2vs0mg"},{"bike_id":"c965eb39-f701-429b-b12d-204181838ebe","system_id":"levelo_inurba_marseille","lat":43.293,"lon":5.374573,"is_reserved":false,"is_disabled":false,"rental_uris":{"android":"levelo://app?vid=c965eb39-f701-429b-b12d-204181838ebe","ios":"levelo://app?vid=c965eb39-f701-429b-b12d-204181838ebe"},"vehicle_type_id":"4","last_reported":1725379911,"current_range_meters":0,"station_id":"ce4bgi12rcd13ifvqb70","pricing_plan_id":"cebpf4jnsgd1na2vs0mg"},{"bike_id":"f385fbfc-c9fa-4540-a70e-f5cd1bfe0027","system_id":"levelo_inurba_marseille","lat":43.29299,"lon":5.3746,"is_reserved":false,"is_disabled":false,"rental_uris":{"android":"levelo://app?vid=f385fbfc-c9fa-4540-a70e-f5cd1bfe0027","ios":"levelo://app?vid=f385fbfc-c9fa-4540-a70e-f5cd1bfe0027"},"vehicle_type_id":"4","last_reported":1725379911,"current_range_meters":0,"station_id":"ce4bgi12rcd13ifvqb70","pricing_plan_id":"cebpf4jnsgd1na2vs0mg"},{"bike_id":"03592440-5212-459a-94d1-30c55ea01489","system_id":"levelo_inurba_marseille","lat":43.30299,"lon":5.39208,"is_reserved":false,"is_disabled":false,"rental_uris":{"android":"levelo://app?vid=03592440-5212-459a-94d1-30c55ea01489","ios":"levelo://app?vid=03592440-5212-459a-94d1-30c55ea01489"},"vehicle_type_id":"4","last_reported":1725379911,"current_range_meters":0,"station_id":"ce4bgkh2rcd13ifvqbk0","pricing_plan_id":"cebpf4jnsgd1na2vs0mg"},{"bike_id":"35413c58-b94f-4692-b0e5-722a956823ea","system_id":"levelo_inurba_marseille","lat":43.30293,"lon":5.39212,"is_reserved":false,"is_disabled":false,"rental_uris":{"android":"levelo://app?vid=35413c58-b94f-4692-b0e5-722a956823ea","ios":"levelo://app?vid=35413c58-b94f-4692-b0e5-722a956823ea"},"vehicle_type_id":"4","last_reported":1725379911,"current_range_meters":0,"station_id":"ce4bgkh2rcd13ifvqbk0","pricing_plan_id":"cebpf4jnsgd1na2vs0mg"},{"bike_id":"4de3e8e7-0409-48c2-9c6a-9858490008a9","system_id":"levelo_inurba_marseille","lat":43.302992,"lon":5.392136,"is_reserved":false,"is_disabled":false,"rental_uris":{"android":"levelo://app?vid=4de3e8e7-0409-48c2-9c6a-9858490008a9","ios":"levelo://app?vid=4de3e8e7-0409-48c2-9c6a-9858490008a9"},"vehicle_type_id":"4","last_reported":1725379911,"current_range_meters":800,"station_id":"ce4bgkh2rcd13ifvqbk0","pricing_plan_id":"cebpf4jnsgd1na2vs0mg"},{"bike_id":"219760d7-dcaf-47f5-aee4-ce3bc4cf298b","system_id":"levelo_inurba_marseille","lat":43.292311,"lon":5.360731,"is_reserved":false,"is_disabled":false,"rental_uris":{"android":"levelo://app?vid=219760d7-dcaf-47f5-aee4-ce3bc4cf298b","ios":"levelo://app?vid=219760d7-dcaf-47f5-aee4-ce3bc4cf298b"},"vehicle_type_id":"4","last_reported":1725379911,"current_range_meters":12400,"station_id":"ce4bhbh2rcd13ifvqeqg","pricing_plan_id":"cebpf4jnsgd1na2vs0mg"},{"bike_id":"59b43048-16ff-4052-a090-dc168e9000f5","system_id":"levelo_inurba_marseille","lat":43.33373,"lon":5.3664,"is_reserved":false,"is_disabled":false,"rental_uris":{"android":"levelo://app?vid=59b43048-16ff-4052-a090-dc168e9000f5","ios":"levelo://app?vid=59b43048-16ff-4052-a090-dc168e9000f5"},"vehicle_type_id":"4","last_reported":1725379911,"current_range_meters":23200,"station_id":"","pricing_plan_id":"cebpf4jnsgd1na2vs0mg"},{"bike_id":"32523167-83df-4653-a0fe-ae1ea580b8cc","system_id":"levelo_inurba_marseille","lat":43.298764,"lon":5.388973,"is_reserved":false,"is_disabled":false,"rental_uris":{"android":"levelo://app?vid=32523167-83df-4653-a0fe-ae1ea580b8cc","ios":"levelo://app?vid=32523167-83df-4653-a0fe-ae1ea580b8cc"},"vehicle_type_id":"4","last_reported":1725379911,"current_range_meters":4000,"station_id":"ce4bh392rcd13ifvqdl0","pricing_plan_id":"cebpf4jnsgd1na2vs0mg"},{"bike_id":"45bae6e7-2ba7-4f6c-b5f8-8a6eefe1e4d1","system_id":"levelo_inurba_marseille","lat":43.298764,"lon":5.388973,"is_reserved":false,"is_disabled":false,"rental_uris":{"android":"levelo://app?vid=45bae6e7-2ba7-4f6c-b5f8-8a6eefe1e4d1","ios":"levelo://app?vid=45bae6e7-2ba7-4f6c-b5f8-8a6eefe1e4d1"},"vehicle_type_id":"4","last_reported":1725379911,"current_range_meters":400,"station_id":"ce4bh392rcd13ifvqdl0","pricing_plan_id":"cebpf4jnsgd1na2vs0mg"},{"bike_id":"67eadcec-5471-462b-b4c5-6306043e4d4a","system_id":"levelo_inurba_marseille","lat":43.292005,"lon":5.357875,"is_reserved":false,"is_disabled":false,"rental_uris":{"android":"levelo://app?vid=67eadcec-5471-462b-b4c5-6306043e4d4a","ios":"levelo://app?vid=67eadcec-5471-462b-b4c5-6306043e4d4a"},"vehicle_type_id":"4","last_reported":1725379911,"current_range_meters":14000,"station_id":"ce4bhb12rcd13ifvqel0","pricing_plan_id":"cebpf4jnsgd1na2vs0mg"},{"bike_id":"5dd58370-b915-4f8a-8a4b-26a32354b4b8","system_id":"levelo_inurba_marseille","lat":43.313291,"lon":5.396838,"is_reserved":false,"is_disabled":false,"rental_uris":{"android":"levelo://app?vid=5dd58370-b915-4f8a-8a4b-26a32354b4b8","ios":"levelo://app?vid=5dd58370-b915-4f8a-8a4b-26a32354b4b8"},"vehicle_type_id":"4","last_reported":1725379911,"current_range_meters":15600,"station_id":"ce4bgvp2rcd13ifvqcu0","pricing_plan_id":"cebpf4jnsgd1na2vs0mg"},{"bike_id":"5885d2bd-abb9-4d2d-819b-acdc22587f3b","system_id":"levelo_inurba_marseille","lat":43.313291,"lon":5.396838,"is_reserved":false,"is_disabled":false,"rental_uris":{"android":"levelo://app?vid=5885d2bd-abb9-4d2d-819b-acdc22587f3b","ios":"levelo://app?vid=5885d2bd-abb9-4d2d-819b-acdc22587f3b"},"vehicle_type_id":"4","last_reported":1725379911,"current_range_meters":0,"station_id":"ce4bgvp2rcd13ifvqcu0","pricing_plan_id":"cebpf4jnsgd1na2vs0mg"},{"bike_id":"98f1cdb9-a57c-4681-95e5-bbfbd6719755","system_id":"levelo_inurba_marseille","lat":43.313291,"lon":5.396838,"is_reserved":false,"is_disabled":false,"rental_uris":{"android":"levelo://app?vid=98f1cdb9-a57c-4681-95e5-bbfbd6719755","ios":"levelo://app?vid=98f1cdb9-a57c-4681-95e5-bbfbd6719755"},"vehicle_type_id":"4","last_reported":1725379911,"current_range_meters":31200,"station_id":"ce4bgvp2rcd13ifvqcu0","pricing_plan_id":"cebpf4jnsgd1na2vs0mg"},{"bike_id":"c8c00fd7-169e-446c-af54-c7b7738dbfcf","system_id":"levelo_inurba_marseille","lat":43.29529,"lon":5.385581,"is_reserved":false,"is_disabled":false,"rental_uris":{"android":"levelo://app?vid=c8c00fd7-169e-446c-af54-c7b7738dbfcf","ios":"levelo://app?vid=c8c00fd7-169e-446c-af54-c7b7738dbfcf"},"vehicle_type_id":"4","last_reported":1725379911,"current_range_meters":0,"station_id":"ce4bgih2rcd13ifvqba0","pricing_plan_id":"cebpf4jnsgd1na2vs0mg"},{"bike_id":"a8d539d2-a6c9-40f2-93a1-a05693c753f7","system_id":"levelo_inurba_marseille","lat":43.309038,"lon":5.396546,"is_reserved":false,"is_disabled":false,"rental_uris":{"android":"levelo://app?vid=a8d539d2-a6c9-40f2-93a1-a05693c753f7","ios":"levelo://app?vid=a8d539d2-a6c9-40f2-93a1-a05693c753f7"},"vehicle_type_id":"4","last_reported":1725379911,"current_range_meters":22400,"station_id":"ce4bh012rcd13ifvqcv0","pricing_plan_id":"cebpf4jnsgd1na2vs0mg"},{"bike_id":"23a53f7d-dd97-431a-95fe-49f7e32ed744","system_id":"levelo_inurba_marseille","lat":43.29529,"lon":5.385581,"is_reserved":false,"is_disabled":false,"rental_uris":{"android":"levelo://app?vid=23a53f7d-dd97-431a-95fe-49f7e32ed744","ios":"levelo://app?vid=23a53f7d-dd97-431a-95fe-49f7e32ed744"},"vehicle_type_id":"4","last_reported":1725379911,"current_range_meters":0,"station_id":"ce4bgih2rcd13ifvqba0","pricing_plan_id":"cebpf4jnsgd1na2vs0mg"},{"bike_id":"e384bdaa-1ccc-4419-bc3e-cd32748a1df9","system_id":"levelo_inurba_marseille","lat":43.302008,"lon":5.394694,"is_reserved":false,"is_disabled":false,"rental_uris":{"android":"levelo://app?vid=e384bdaa-1ccc-4419-bc3e-cd32748a1df9","ios":"levelo://app?vid=e384bdaa-1ccc-4419-bc3e-cd32748a1df9"},"vehicle_type_id":"4","last_reported":1725379911,"current_range_meters":0,"station_id":"ce4bh0p2rcd13ifvqd70","pricing_plan_id":"cebpf4jnsgd1na2vs0mg"},{"bike_id":"10f49abd-5d5e-4551-8ba7-ce6ba481db69","system_id":"levelo_inurba_marseille","lat":43.290624,"lon":5.359245,"is_reserved":false,"is_disabled":false,"rental_uris":{"android":"levelo://app?vid=10f49abd-5d5e-4551-8ba7-ce6ba481db69","ios":"levelo://app?vid=10f49abd-5d5e-4551-8ba7-ce6ba481db69"},"vehicle_type_id":"4","last_reported":1725379911,"current_range_meters":16400,"station_id":"ce4bha92rcd13ifvqeg0","pricing_plan_id":"cebpf4jnsgd1na2vs0mg"},{"bike_id":"ca1fa411-4083-486a-8a0b-0e07296ba7c2","system_id":"levelo_inurba_marseille","lat":43.294153,"lon":5.386305,"is_reserved":false,"is_disabled":false,"rental_uris":{"android":"levelo://app?vid=ca1fa411-4083-486a-8a0b-0e07296ba7c2","ios":"levelo://app?vid=ca1fa411-4083-486a-8a0b-0e07296ba7c2"},"vehicle_type_id":"4","last_reported":1725379911,"current_range_meters":0,"station_id":"ce4bh2h2rcd13ifvqdh0","pricing_plan_id":"cebpf4jnsgd1na2vs0mg"},{"bike_id":"03afb390-733c-47f4-9a92-29ed44653de9","system_id":"levelo_inurba_marseille","lat":43.29424,"lon":5.38623,"is_reserved":false,"is_disabled":false,"rental_uris":{"android":"levelo://app?vid=03afb390-733c-47f4-9a92-29ed44653de9","ios":"levelo://app?vid=03afb390-733c-47f4-9a92-29ed44653de9"},"vehicle_type_id":"4","last_reported":1725379911,"current_range_meters":0,"station_id":"ce4bh2h2rcd13ifvqdh0","pricing_plan_id":"cebpf4jnsgd1na2vs0mg"},{"bike_id":"7f673679-be7d-44ba-9241-04f2460eac85","system_id":"levelo_inurba_marseille","lat":43.294153,"lon":5.386305,"is_reserved":false,"is_disabled":false,"rental_uris":{"android":"levelo://app?vid=7f673679-be7d-44ba-9241-04f2460eac85","ios":"levelo://app?vid=7f673679-be7d-44ba-9241-04f2460eac85"},"vehicle_type_id":"4","last_reported":1725379911,"current_range_meters":22800,"station_id":"ce4bh2h2rcd13ifvqdh0","pricing_plan_id":"cebpf4jnsgd1na2vs0mg"},{"bike_id":"1f36ffb8-dfbc-4995-b171-39a1d3989959","system_id":"levelo_inurba_marseille","lat":43.289468,"lon":5.363719,"is_reserved":false,"is_disabled":false,"rental_uris":{"android":"levelo://app?vid=1f36ffb8-dfbc-4995-b171-39a1d3989959","ios":"levelo://app?vid=1f36ffb8-dfbc-4995-b171-39a1d3989959"},"vehicle_type_id":"4","last_reported":1725379911,"current_range_meters":2000,"station_id":"ce4bhc92rcd13ifvqetg","pricing_plan_id":"cebpf4jnsgd1na2vs0mg"},{"bike_id":"bc19f822-c711-4d47-bfc4-e702052c561f","system_id":"levelo_inurba_marseille","lat":43.294162,"lon":5.386292,"is_reserved":false,"is_disabled":false,"rental_uris":{"android":"levelo://app?vid=bc19f822-c711-4d47-bfc4-e702052c561f","ios":"levelo://app?vid=bc19f822-c711-4d47-bfc4-e702052c561f"},"vehicle_type_id":"4","last_reported":1725379911,"current_range_meters":6000,"station_id":"ce4bh2h2rcd13ifvqdh0","pricing_plan_id":"cebpf4jnsgd1na2vs0mg"},{"bike_id":"bf5f6280-f454-4cfd-80be-77d06338f6f4","system_id":"levelo_inurba_marseille","lat":43.294162,"lon":5.386292,"is_reserved":false,"is_disabled":false,"rental_uris":{"android":"levelo://app?vid=bf5f6280-f454-4cfd-80be-77d06338f6f4","ios":"levelo://app?vid=bf5f6280-f454-4cfd-80be-77d06338f6f4"},"vehicle_type_id":"4","last_reported":1725379911,"current_range_meters":0,"station_id":"ce4bh2h2rcd13ifvqdh0","pricing_plan_id":"cebpf4jnsgd1na2vs0mg"},{"bike_id":"4c8d2d47-3785-4196-8ee4-7d6de761b5e0","system_id":"levelo_inurba_marseille","lat":43.289184,"lon":5.366408,"is_reserved":false,"is_disabled":false,"rental_uris":{"android":"levelo://app?vid=4c8d2d47-3785-4196-8ee4-7d6de761b5e0","ios":"levelo://app?vid=4c8d2d47-3785-4196-8ee4-7d6de761b5e0"},"vehicle_type_id":"4","last_reported":1725379911,"current_range_meters":4400,"station_id":"ce4bhap2rcd13ifvqek0","pricing_plan_id":"cebpf4jnsgd1na2vs0mg"},{"bike_id":"71c55f45-21b6-4fe8-a304-36089b31a958","system_id":"levelo_inurba_marseille","lat":43.289468,"lon":5.363719,"is_reserved":false,"is_disabled":false,"rental_uris":{"android":"levelo://app?vid=71c55f45-21b6-4fe8-a304-36089b31a958","ios":"levelo://app?vid=71c55f45-21b6-4fe8-a304-36089b31a958"},"vehicle_type_id":"4","last_reported":1725379911,"current_range_meters":4800,"station_id":"ce4bhc92rcd13ifvqetg","pricing_plan_id":"cebpf4jnsgd1na2vs0mg"},{"bike_id":"821438c4-17c0-4eee-b716-6c727f4f86aa","system_id":"levelo_inurba_marseille","lat":43.292642,"lon":5.384254,"is_reserved":false,"is_disabled":false,"rental_uris":{"android":"levelo://app?vid=821438c4-17c0-4eee-b716-6c727f4f86aa","ios":"levelo://app?vid=821438c4-17c0-4eee-b716-6c727f4f86aa"},"vehicle_type_id":"4","last_reported":1725379911,"current_range_meters":28400,"station_id":"ce4bh692rcd13ifvqea0","pricing_plan_id":"cebpf4jnsgd1na2vs0mg"},{"bike_id":"a1c601bd-c1d1-4f52-a6b0-5a04278a5c4c","system_id":"levelo_inurba_marseille","lat":43.29271,"lon":5.38438,"is_reserved":false,"is_disabled":false,"rental_uris":{"android":"levelo://app?vid=a1c601bd-c1d1-4f52-a6b0-5a04278a5c4c","ios":"levelo://app?vid=a1c601bd-c1d1-4f52-a6b0-5a04278a5c4c"},"vehicle_type_id":"4","last_reported":1725379911,"current_range_meters":400,"station_id":"ce4bh692rcd13ifvqea0","pricing_plan_id":"cebpf4jnsgd1na2vs0mg"},{"bike_id":"86641c48-d2ee-43be-af76-b2dddebe59aa","system_id":"levelo_inurba_marseille","lat":43.292644,"lon":5.384257,"is_reserved":false,"is_disabled":false,"rental_uris":{"android":"levelo://app?vid=86641c48-d2ee-43be-af76-b2dddebe59aa","ios":"levelo://app?vid=86641c48-d2ee-43be-af76-b2dddebe59aa"},"vehicle_type_id":"4","last_reported":1725379911,"current_range_meters":5600,"station_id":"ce4bh692rcd13ifvqea0","pricing_plan_id":"cebpf4jnsgd1na2vs0mg"},{"bike_id":"faf481eb-9bf0-4251-a1f8-613935dac10a","system_id":"levelo_inurba_marseille","lat":43.292642,"lon":5.384254,"is_reserved":false,"is_disabled":false,"rental_uris":{"android":"levelo://app?vid=faf481eb-9bf0-4251-a1f8-613935dac10a","ios":"levelo://app?vid=faf481eb-9bf0-4251-a1f8-613935dac10a"},"vehicle_type_id":"4","last_reported":1725379911,"current_range_meters":0,"station_id":"ce4bh692rcd13ifvqea0","pricing_plan_id":"cebpf4jnsgd1na2vs0mg"},{"bike_id":"3566f756-2075-47d6-b623-2b88c9ad80f8","system_id":"levelo_inurba_marseille","lat":43.29265,"lon":5.38439,"is_reserved":false,"is_disabled":false,"rental_uris":{"android":"levelo://app?vid=3566f756-2075-47d6-b623-2b88c9ad80f8","ios":"levelo://app?vid=3566f756-2075-47d6-b623-2b88c9ad80f8"},"vehicle_type_id":"4","last_reported":1725379911,"current_range_meters":0,"station_id":"ce4bh692rcd13ifvqea0","pricing_plan_id":"cebpf4jnsgd1na2vs0mg"},{"bike_id":"c3bafcd8-443b-4c5e-915a-9497e37f04d9","system_id":"levelo_inurba_marseille","lat":43.292597,"lon":5.384347,"is_reserved":false,"is_disabled":false,"rental_uris":{"android":"levelo://app?vid=c3bafcd8-443b-4c5e-915a-9497e37f04d9","ios":"levelo://app?vid=c3bafcd8-443b-4c5e-915a-9497e37f04d9"},"vehicle_type_id":"4","last_reported":1725379911,"current_range_meters":0,"station_id":"ce4bh692rcd13ifvqea0","pricing_plan_id":"cebpf4jnsgd1na2vs0mg"},{"bike_id":"6112f234-e7f3-49e1-a003-f5c96f6d9a27","system_id":"levelo_inurba_marseille","lat":43.29262,"lon":5.38444,"is_reserved":false,"is_disabled":false,"rental_uris":{"android":"levelo://app?vid=6112f234-e7f3-49e1-a003-f5c96f6d9a27","ios":"levelo://app?vid=6112f234-e7f3-49e1-a003-f5c96f6d9a27"},"vehicle_type_id":"4","last_reported":1725379911,"current_range_meters":11600,"station_id":"ce4bh692rcd13ifvqea0","pricing_plan_id":"cebpf4jnsgd1na2vs0mg"},{"bike_id":"8898daac-e424-430f-b752-9f944902dbb0","system_id":"levelo_inurba_marseille","lat":43.29262,"lon":5.38444,"is_reserved":false,"is_disabled":false,"rental_uris":{"android":"levelo://app?vid=8898daac-e424-430f-b752-9f944902dbb0","ios":"levelo://app?vid=8898daac-e424-430f-b752-9f944902dbb0"},"vehicle_type_id":"4","last_reported":1725379911,"current_range_meters":0,"station_id":"ce4bh692rcd13ifvqea0","pricing_plan_id":"cebpf4jnsgd1na2vs0mg"},{"bike_id":"271675a4-6042-4b6c-8f23-a4756afe046c","system_id":"levelo_inurba_marseille","lat":43.2901,"lon":5.35612,"is_reserved":false,"is_disabled":false,"rental_uris":{"android":"levelo://app?vid=271675a4-6042-4b6c-8f23-a4756afe046c","ios":"levelo://app?vid=271675a4-6042-4b6c-8f23-a4756afe046c"},"vehicle_type_id":"4","last_reported":1725379911,"current_range_meters":6000,"station_id":"ce4bhb92rcd13ifvqen0","pricing_plan_id":"cebpf4jnsgd1na2vs0mg"},{"bike_id":"6459af14-81a1-402c-b11f-4b980a48ebb1","system_id":"levelo_inurba_marseille","lat":43.29007,"lon":5.35612,"is_reserved":false,"is_disabled":false,"rental_uris":{"android":"levelo://app?vid=6459af14-81a1-402c-b11f-4b980a48ebb1","ios":"levelo://app?vid=6459af14-81a1-402c-b11f-4b980a48ebb1"},"vehicle_type_id":"4","last_reported":1725379911,"current_range_meters":20800,"station_id":"ce4bhb92rcd13ifvqen0","pricing_plan_id":"cebpf4jnsgd1na2vs0mg"},{"bike_id":"36642d26-07be-41f7-8436-7c2d91c0e7fd","system_id":"levelo_inurba_marseille","lat":43.290067,"lon":5.356108,"is_reserved":false,"is_disabled":false,"rental_uris":{"android":"levelo://app?vid=36642d26-07be-41f7-8436-7c2d91c0e7fd","ios":"levelo://app?vid=36642d26-07be-41f7-8436-7c2d91c0e7fd"},"vehicle_type_id":"4","last_reported":1725379911,"current_range_meters":0,"station_id":"ce4bhb92rcd13ifvqen0","pricing_plan_id":"cebpf4jnsgd1na2vs0mg"},{"bike_id":"5d4b25fd-8080-42d7-8a53-d619c46b5f82","system_id":"levelo_inurba_marseille","lat":43.290104,"lon":5.356111,"is_reserved":false,"is_disabled":false,"rental_uris":{"android":"levelo://app?vid=5d4b25fd-8080-42d7-8a53-d619c46b5f82","ios":"levelo://app?vid=5d4b25fd-8080-42d7-8a53-d619c46b5f82"},"vehicle_type_id":"4","last_reported":1725379911,"current_range_meters":20400,"station_id":"ce4bhb92rcd13ifvqen0","pricing_plan_id":"cebpf4jnsgd1na2vs0mg"},{"bike_id":"91ab31bd-e035-4d9f-9e61-f57daa680fd1","system_id":"levelo_inurba_marseille","lat":43.290103,"lon":5.356114,"is_reserved":false,"is_disabled":false,"rental_uris":{"android":"levelo://app?vid=91ab31bd-e035-4d9f-9e61-f57daa680fd1","ios":"levelo://app?vid=91ab31bd-e035-4d9f-9e61-f57daa680fd1"},"vehicle_type_id":"4","last_reported":1725379911,"current_range_meters":20000,"station_id":"ce4bhb92rcd13ifvqen0","pricing_plan_id":"cebpf4jnsgd1na2vs0mg"},{"bike_id":"351b0e7f-ebba-4879-a70c-df421f8c002c","system_id":"levelo_inurba_marseille","lat":43.29006,"lon":5.35611,"is_reserved":false,"is_disabled":false,"rental_uris":{"android":"levelo://app?vid=351b0e7f-ebba-4879-a70c-df421f8c002c","ios":"levelo://app?vid=351b0e7f-ebba-4879-a70c-df421f8c002c"},"vehicle_type_id":"4","last_reported":1725379911,"current_range_meters":2800,"station_id":"ce4bhb92rcd13ifvqen0","pricing_plan_id":"cebpf4jnsgd1na2vs0mg"},{"bike_id":"2b85fc1b-83fc-48ee-9a1a-19c7d59ba198","system_id":"levelo_inurba_marseille","lat":43.29004,"lon":5.35606,"is_reserved":false,"is_disabled":false,"rental_uris":{"android":"levelo://app?vid=2b85fc1b-83fc-48ee-9a1a-19c7d59ba198","ios":"levelo://app?vid=2b85fc1b-83fc-48ee-9a1a-19c7d59ba198"},"vehicle_type_id":"4","last_reported":1725379911,"current_range_meters":0,"station_id":"ce4bhb92rcd13ifvqen0","pricing_plan_id":"cebpf4jnsgd1na2vs0mg"},{"bike_id":"b89dd69a-413f-4863-bdae-448e976c1e6c","system_id":"levelo_inurba_marseille","lat":43.29003,"lon":5.35609,"is_reserved":false,"is_disabled":false,"rental_uris":{"android":"levelo://app?vid=b89dd69a-413f-4863-bdae-448e976c1e6c","ios":"levelo://app?vid=b89dd69a-413f-4863-bdae-448e976c1e6c"},"vehicle_type_id":"4","last_reported":1725379911,"current_range_meters":20000,"station_id":"ce4bhb92rcd13ifvqen0","pricing_plan_id":"cebpf4jnsgd1na2vs0mg"},{"bike_id":"e32bb3df-8114-47be-bf55-68e4ea7973e4","system_id":"levelo_inurba_marseille","lat":43.29003,"lon":5.35604,"is_reserved":false,"is_disabled":false,"rental_uris":{"android":"levelo://app?vid=e32bb3df-8114-47be-bf55-68e4ea7973e4","ios":"levelo://app?vid=e32bb3df-8114-47be-bf55-68e4ea7973e4"},"vehicle_type_id":"4","last_reported":1725379911,"current_range_meters":0,"station_id":"ce4bhb92rcd13ifvqen0","pricing_plan_id":"cebpf4jnsgd1na2vs0mg"},{"bike_id":"2936c493-43dd-48b8-b2b7-69814c603405","system_id":"levelo_inurba_marseille","lat":43.31072,"lon":5.40026,"is_reserved":false,"is_disabled":false,"rental_uris":{"android":"levelo://app?vid=2936c493-43dd-48b8-b2b7-69814c603405","ios":"levelo://app?vid=2936c493-43dd-48b8-b2b7-69814c603405"},"vehicle_type_id":"4","last_reported":1725379911,"current_range_meters":0,"station_id":"","pricing_plan_id":"cebpf4jnsgd1na2vs0mg"},{"bike_id":"6e56d845-83d5-42d8-a50c-508ac4f74c42","system_id":"levelo_inurba_marseille","lat":43.295169,"lon":5.390426,"is_reserved":false,"is_disabled":false,"rental_uris":{"android":"levelo://app?vid=6e56d845-83d5-42d8-a50c-508ac4f74c42","ios":"levelo://app?vid=6e56d845-83d5-42d8-a50c-508ac4f74c42"},"vehicle_type_id":"4","last_reported":1725379911,"current_range_meters":13200,"station_id":"ce4bh3p2rcd13ifvqdp0","pricing_plan_id":"cebpf4jnsgd1na2vs0mg"},{"bike_id":"90f45e91-48a8-4156-9692-888515543217","system_id":"levelo_inurba_marseille","lat":43.33019,"lon":5.39044,"is_reserved":false,"is_disabled":false,"rental_uris":{"android":"levelo://app?vid=90f45e91-48a8-4156-9692-888515543217","ios":"levelo://app?vid=90f45e91-48a8-4156-9692-888515543217"},"vehicle_type_id":"4","last_reported":1725379911,"current_range_meters":0,"station_id":"ce4bhr92rcd13ifvqhrg","pricing_plan_id":"cebpf4jnsgd1na2vs0mg"},{"bike_id":"c4891c7d-9066-45bc-b64d-4f9ab02bbaf3","system_id":"levelo_inurba_marseille","lat":43.33024,"lon":5.39038,"is_reserved":false,"is_disabled":false,"rental_uris":{"android":"levelo://app?vid=c4891c7d-9066-45bc-b64d-4f9ab02bbaf3","ios":"levelo://app?vid=c4891c7d-9066-45bc-b64d-4f9ab02bbaf3"},"vehicle_type_id":"4","last_reported":1725379911,"current_range_meters":0,"station_id":"ce4bhr92rcd13ifvqhrg","pricing_plan_id":"cebpf4jnsgd1na2vs0mg"},{"bike_id":"6a144e36-ead0-4b6f-8c8a-7191d8499cf0","system_id":"levelo_inurba_marseille","lat":43.330442,"lon":5.389148,"is_reserved":false,"is_disabled":false,"rental_uris":{"android":"levelo://app?vid=6a144e36-ead0-4b6f-8c8a-7191d8499cf0","ios":"levelo://app?vid=6a144e36-ead0-4b6f-8c8a-7191d8499cf0"},"vehicle_type_id":"4","last_reported":1725379911,"current_range_meters":30800,"station_id":"ce4bhr92rcd13ifvqhrg","pricing_plan_id":"cebpf4jnsgd1na2vs0mg"},{"bike_id":"08b644c2-1bb5-483e-8eed-7c84c10cf1ee","system_id":"levelo_inurba_marseille","lat":43.295169,"lon":5.390426,"is_reserved":false,"is_disabled":false,"rental_uris":{"android":"levelo://app?vid=08b644c2-1bb5-483e-8eed-7c84c10cf1ee","ios":"levelo://app?vid=08b644c2-1bb5-483e-8eed-7c84c10cf1ee"},"vehicle_type_id":"4","last_reported":1725379911,"current_range_meters":0,"station_id":"ce4bh3p2rcd13ifvqdp0","pricing_plan_id":"cebpf4jnsgd1na2vs0mg"},{"bike_id":"27868e09-be70-499e-935c-b244f61e83fa","system_id":"levelo_inurba_marseille","lat":43.330442,"lon":5.389148,"is_reserved":false,"is_disabled":false,"rental_uris":{"android":"levelo://app?vid=27868e09-be70-499e-935c-b244f61e83fa","ios":"levelo://app?vid=27868e09-be70-499e-935c-b244f61e83fa"},"vehicle_type_id":"4","last_reported":1725379911,"current_range_meters":2800,"station_id":"ce4bhr92rcd13ifvqhrg","pricing_plan_id":"cebpf4jnsgd1na2vs0mg"},{"bike_id":"8d4f371b-3404-429a-9224-e96cfef1d632","system_id":"levelo_inurba_marseille","lat":43.28962,"lon":5.37835,"is_reserved":false,"is_disabled":false,"rental_uris":{"android":"levelo://app?vid=8d4f371b-3404-429a-9224-e96cfef1d632","ios":"levelo://app?vid=8d4f371b-3404-429a-9224-e96cfef1d632"},"vehicle_type_id":"4","last_reported":1725379911,"current_range_meters":0,"station_id":"ce4bh9p2rcd13ifvqed0","pricing_plan_id":"cebpf4jnsgd1na2vs0mg"},{"bike_id":"426a3035-48a9-4b84-96de-7b12e8710ec1","system_id":"levelo_inurba_marseille","lat":43.30681,"lon":5.39983,"is_reserved":false,"is_disabled":false,"rental_uris":{"android":"levelo://app?vid=426a3035-48a9-4b84-96de-7b12e8710ec1","ios":"levelo://app?vid=426a3035-48a9-4b84-96de-7b12e8710ec1"},"vehicle_type_id":"4","last_reported":1725379911,"current_range_meters":8400,"station_id":"","pricing_plan_id":"cebpf4jnsgd1na2vs0mg"},{"bike_id":"37dfc210-dcd9-461a-a375-c07a10ab18ab","system_id":"levelo_inurba_marseille","lat":43.2901,"lon":5.381269,"is_reserved":false,"is_disabled":false,"rental_uris":{"android":"levelo://app?vid=37dfc210-dcd9-461a-a375-c07a10ab18ab","ios":"levelo://app?vid=37dfc210-dcd9-461a-a375-c07a10ab18ab"},"vehicle_type_id":"4","last_reported":1725379911,"current_range_meters":0,"station_id":"ce4bh4p2rcd13ifvqe1g","pricing_plan_id":"cebpf4jnsgd1na2vs0mg"},{"bike_id":"edd42b2c-2743-4474-a9f8-4e91a843d033","system_id":"levelo_inurba_marseille","lat":43.31047,"lon":5.40082,"is_reserved":false,"is_disabled":false,"rental_uris":{"android":"levelo://app?vid=edd42b2c-2743-4474-a9f8-4e91a843d033","ios":"levelo://app?vid=edd42b2c-2743-4474-a9f8-4e91a843d033"},"vehicle_type_id":"4","last_reported":1725379911,"current_range_meters":20400,"station_id":"","pricing_plan_id":"cebpf4jnsgd1na2vs0mg"},{"bike_id":"5f71e0d8-5ac1-470b-8056-b90574f53c46","system_id":"levelo_inurba_marseille","lat":43.312609,"lon":5.401662,"is_reserved":false,"is_disabled":false,"rental_uris":{"android":"levelo://app?vid=5f71e0d8-5ac1-470b-8056-b90574f53c46","ios":"levelo://app?vid=5f71e0d8-5ac1-470b-8056-b90574f53c46"},"vehicle_type_id":"4","last_reported":1725379911,"current_range_meters":0,"station_id":"ce4bh092rcd13ifvqd30","pricing_plan_id":"cebpf4jnsgd1na2vs0mg"},{"bike_id":"49cd72dc-1622-4ec4-a122-4fa3f613c1a2","system_id":"levelo_inurba_marseille","lat":43.312609,"lon":5.401662,"is_reserved":false,"is_disabled":false,"rental_uris":{"android":"levelo://app?vid=49cd72dc-1622-4ec4-a122-4fa3f613c1a2","ios":"levelo://app?vid=49cd72dc-1622-4ec4-a122-4fa3f613c1a2"},"vehicle_type_id":"4","last_reported":1725379911,"current_range_meters":0,"station_id":"ce4bh092rcd13ifvqd30","pricing_plan_id":"cebpf4jnsgd1na2vs0mg"},{"bike_id":"f18cfd20-394f-46af-8e0c-ed52e6b6b38c","system_id":"levelo_inurba_marseille","lat":43.312609,"lon":5.401662,"is_reserved":false,"is_disabled":false,"rental_uris":{"android":"levelo://app?vid=f18cfd20-394f-46af-8e0c-ed52e6b6b38c","ios":"levelo://app?vid=f18cfd20-394f-46af-8e0c-ed52e6b6b38c"},"vehicle_type_id":"4","last_reported":1725379911,"current_range_meters":31200,"station_id":"ce4bh092rcd13ifvqd30","pricing_plan_id":"cebpf4jnsgd1na2vs0mg"},{"bike_id":"56374aed-132c-4d7a-b1ee-350695c52474","system_id":"levelo_inurba_marseille","lat":43.30933,"lon":5.40147,"is_reserved":false,"is_disabled":false,"rental_uris":{"android":"levelo://app?vid=56374aed-132c-4d7a-b1ee-350695c52474","ios":"levelo://app?vid=56374aed-132c-4d7a-b1ee-350695c52474"},"vehicle_type_id":"4","last_reported":1725379911,"current_range_meters":20400,"station_id":"ce4bgvp2rcd13ifvqct0","pricing_plan_id":"cebpf4jnsgd1na2vs0mg"},{"bike_id":"43cd6c29-9c55-4e75-8ea4-f61cb59669a6","system_id":"levelo_inurba_marseille","lat":43.30641,"lon":5.40078,"is_reserved":false,"is_disabled":false,"rental_uris":{"android":"levelo://app?vid=43cd6c29-9c55-4e75-8ea4-f61cb59669a6","ios":"levelo://app?vid=43cd6c29-9c55-4e75-8ea4-f61cb59669a6"},"vehicle_type_id":"4","last_reported":1725379911,"current_range_meters":0,"station_id":"ce4bh112rcd13ifvqda0","pricing_plan_id":"cebpf4jnsgd1na2vs0mg"},{"bike_id":"88164f25-3a3c-46cd-9770-226015d17618","system_id":"levelo_inurba_marseille","lat":43.30641,"lon":5.40081,"is_reserved":false,"is_disabled":false,"rental_uris":{"android":"levelo://app?vid=88164f25-3a3c-46cd-9770-226015d17618","ios":"levelo://app?vid=88164f25-3a3c-46cd-9770-226015d17618"},"vehicle_type_id":"4","last_reported":1725379911,"current_range_meters":24400,"station_id":"ce4bh112rcd13ifvqda0","pricing_plan_id":"cebpf4jnsgd1na2vs0mg"},{"bike_id":"2dc338e5-0932-49e8-a875-3d71f44712e4","system_id":"levelo_inurba_marseille","lat":43.30642,"lon":5.401031,"is_reserved":false,"is_disabled":false,"rental_uris":{"android":"levelo://app?vid=2dc338e5-0932-49e8-a875-3d71f44712e4","ios":"levelo://app?vid=2dc338e5-0932-49e8-a875-3d71f44712e4"},"vehicle_type_id":"4","last_reported":1725379911,"current_range_meters":4800,"station_id":"ce4bh112rcd13ifvqda0","pricing_plan_id":"cebpf4jnsgd1na2vs0mg"},{"bike_id":"053f9fd2-bc04-42b3-a69d-22d982a41b8d","system_id":"levelo_inurba_marseille","lat":43.288764,"lon":5.378689,"is_reserved":false,"is_disabled":false,"rental_uris":{"android":"levelo://app?vid=053f9fd2-bc04-42b3-a69d-22d982a41b8d","ios":"levelo://app?vid=053f9fd2-bc04-42b3-a69d-22d982a41b8d"},"vehicle_type_id":"4","last_reported":1725379911,"current_range_meters":7200,"station_id":"","pricing_plan_id":"cebpf4jnsgd1na2vs0mg"},{"bike_id":"2c567034-35fa-4bde-8d2b-0025244dd920","system_id":"levelo_inurba_marseille","lat":43.33757,"lon":5.37478,"is_reserved":false,"is_disabled":false,"rental_uris":{"android":"levelo://app?vid=2c567034-35fa-4bde-8d2b-0025244dd920","ios":"levelo://app?vid=2c567034-35fa-4bde-8d2b-0025244dd920"},"vehicle_type_id":"4","last_reported":1725379911,"current_range_meters":8000,"station_id":"","pricing_plan_id":"cebpf4jnsgd1na2vs0mg"},{"bike_id":"281719cb-7acf-4023-b42e-a39b91262c6f","system_id":"levelo_inurba_marseille","lat":43.337613,"lon":5.374713,"is_reserved":false,"is_disabled":false,"rental_uris":{"android":"levelo://app?vid=281719cb-7acf-4023-b42e-a39b91262c6f","ios":"levelo://app?vid=281719cb-7acf-4023-b42e-a39b91262c6f"},"vehicle_type_id":"4","last_reported":1725379911,"current_range_meters":9600,"station_id":"","pricing_plan_id":"cebpf4jnsgd1na2vs0mg"},{"bike_id":"d3ea3af9-6b11-47d4-8df1-656e45234040","system_id":"levelo_inurba_marseille","lat":43.33761,"lon":5.37475,"is_reserved":false,"is_disabled":false,"rental_uris":{"android":"levelo://app?vid=d3ea3af9-6b11-47d4-8df1-656e45234040","ios":"levelo://app?vid=d3ea3af9-6b11-47d4-8df1-656e45234040"},"vehicle_type_id":"4","last_reported":1725379911,"current_range_meters":27600,"station_id":"","pricing_plan_id":"cebpf4jnsgd1na2vs0mg"},{"bike_id":"b329e76f-5320-4a71-8892-296580dce30d","system_id":"levelo_inurba_marseille","lat":43.337606,"lon":5.374892,"is_reserved":false,"is_disabled":false,"rental_uris":{"android":"levelo://app?vid=b329e76f-5320-4a71-8892-296580dce30d","ios":"levelo://app?vid=b329e76f-5320-4a71-8892-296580dce30d"},"vehicle_type_id":"4","last_reported":1725379911,"current_range_meters":24000,"station_id":"","pricing_plan_id":"cebpf4jnsgd1na2vs0mg"},{"bike_id":"faafe71e-1b94-44fc-a69d-26ac65d5d819","system_id":"levelo_inurba_marseille","lat":43.33768,"lon":5.37488,"is_reserved":false,"is_disabled":false,"rental_uris":{"android":"levelo://app?vid=faafe71e-1b94-44fc-a69d-26ac65d5d819","ios":"levelo://app?vid=faafe71e-1b94-44fc-a69d-26ac65d5d819"},"vehicle_type_id":"4","last_reported":1725379911,"current_range_meters":3200,"station_id":"","pricing_plan_id":"cebpf4jnsgd1na2vs0mg"},{"bike_id":"51b15aeb-1440-4ee8-ab88-eae8f3f2fa5d","system_id":"levelo_inurba_marseille","lat":43.301117,"lon":5.398795,"is_reserved":false,"is_disabled":false,"rental_uris":{"android":"levelo://app?vid=51b15aeb-1440-4ee8-ab88-eae8f3f2fa5d","ios":"levelo://app?vid=51b15aeb-1440-4ee8-ab88-eae8f3f2fa5d"},"vehicle_type_id":"4","last_reported":1725379911,"current_range_meters":0,"station_id":"ce4bh0h2rcd13ifvqd40","pricing_plan_id":"cebpf4jnsgd1na2vs0mg"},{"bike_id":"39f229f4-8b78-468c-a24f-6ad28042f1f4","system_id":"levelo_inurba_marseille","lat":43.301117,"lon":5.398795,"is_reserved":false,"is_disabled":false,"rental_uris":{"android":"levelo://app?vid=39f229f4-8b78-468c-a24f-6ad28042f1f4","ios":"levelo://app?vid=39f229f4-8b78-468c-a24f-6ad28042f1f4"},"vehicle_type_id":"4","last_reported":1725379911,"current_range_meters":0,"station_id":"ce4bh0h2rcd13ifvqd40","pricing_plan_id":"cebpf4jnsgd1na2vs0mg"},{"bike_id":"41e89207-ca57-4c5c-97eb-eae20e9ad85d","system_id":"levelo_inurba_marseille","lat":43.28727,"lon":5.36078,"is_reserved":false,"is_disabled":false,"rental_uris":{"android":"levelo://app?vid=41e89207-ca57-4c5c-97eb-eae20e9ad85d","ios":"levelo://app?vid=41e89207-ca57-4c5c-97eb-eae20e9ad85d"},"vehicle_type_id":"4","last_reported":1725379911,"current_range_meters":800,"station_id":"cki0cbj6b192h4jlfktg","pricing_plan_id":"cebpf4jnsgd1na2vs0mg"},{"bike_id":"5d8999df-7fd3-4fc3-a306-0fe451aaead5","system_id":"levelo_inurba_marseille","lat":43.298681,"lon":5.397225,"is_reserved":false,"is_disabled":false,"rental_uris":{"android":"levelo://app?vid=5d8999df-7fd3-4fc3-a306-0fe451aaead5","ios":"levelo://app?vid=5d8999df-7fd3-4fc3-a306-0fe451aaead5"},"vehicle_type_id":"4","last_reported":1725379911,"current_range_meters":0,"station_id":"ce4bh0h2rcd13ifvqd50","pricing_plan_id":"cebpf4jnsgd1na2vs0mg"},{"bike_id":"0e7c6161-e3e8-4894-b34a-bf199e4de046","system_id":"levelo_inurba_marseille","lat":43.298681,"lon":5.397225,"is_reserved":false,"is_disabled":false,"rental_uris":{"android":"levelo://app?vid=0e7c6161-e3e8-4894-b34a-bf199e4de046","ios":"levelo://app?vid=0e7c6161-e3e8-4894-b34a-bf199e4de046"},"vehicle_type_id":"4","last_reported":1725379911,"current_range_meters":0,"station_id":"ce4bh0h2rcd13ifvqd50","pricing_plan_id":"cebpf4jnsgd1na2vs0mg"},{"bike_id":"8c152d6c-f983-4f70-a197-6e463abee4a1","system_id":"levelo_inurba_marseille","lat":43.286593,"lon":5.363346,"is_reserved":false,"is_disabled":false,"rental_uris":{"android":"levelo://app?vid=8c152d6c-f983-4f70-a197-6e463abee4a1","ios":"levelo://app?vid=8c152d6c-f983-4f70-a197-6e463abee4a1"},"vehicle_type_id":"4","last_reported":1725379911,"current_range_meters":2400,"station_id":"ce4bhah2rcd13ifvqej0","pricing_plan_id":"cebpf4jnsgd1na2vs0mg"},{"bike_id":"37de29c8-4d48-4f48-a0c5-aa2819888f60","system_id":"levelo_inurba_marseille","lat":43.302759,"lon":5.400793,"is_reserved":false,"is_disabled":false,"rental_uris":{"android":"levelo://app?vid=37de29c8-4d48-4f48-a0c5-aa2819888f60","ios":"levelo://app?vid=37de29c8-4d48-4f48-a0c5-aa2819888f60"},"vehicle_type_id":"4","last_reported":1725379911,"current_range_meters":0,"station_id":"ce4bgvh2rcd13ifvqcs0","pricing_plan_id":"cebpf4jnsgd1na2vs0mg"},{"bike_id":"3fab744a-8739-4f2f-967e-f31915ccf039","system_id":"levelo_inurba_marseille","lat":43.302759,"lon":5.400793,"is_reserved":false,"is_disabled":false,"rental_uris":{"android":"levelo://app?vid=3fab744a-8739-4f2f-967e-f31915ccf039","ios":"levelo://app?vid=3fab744a-8739-4f2f-967e-f31915ccf039"},"vehicle_type_id":"4","last_reported":1725379911,"current_range_meters":4400,"station_id":"ce4bgvh2rcd13ifvqcs0","pricing_plan_id":"cebpf4jnsgd1na2vs0mg"},{"bike_id":"44ebf490-0e96-4cd9-bc79-9b630a217e75","system_id":"levelo_inurba_marseille","lat":43.29025,"lon":5.386416,"is_reserved":false,"is_disabled":false,"rental_uris":{"android":"levelo://app?vid=44ebf490-0e96-4cd9-bc79-9b630a217e75","ios":"levelo://app?vid=44ebf490-0e96-4cd9-bc79-9b630a217e75"},"vehicle_type_id":"4","last_reported":1725379911,"current_range_meters":0,"station_id":"ce4bh4p2rcd13ifvqe0g","pricing_plan_id":"cebpf4jnsgd1na2vs0mg"},{"bike_id":"48af0417-7af9-4ccd-832f-557709869a9f","system_id":"levelo_inurba_marseille","lat":43.286039,"lon":5.370679,"is_reserved":false,"is_disabled":false,"rental_uris":{"android":"levelo://app?vid=48af0417-7af9-4ccd-832f-557709869a9f","ios":"levelo://app?vid=48af0417-7af9-4ccd-832f-557709869a9f"},"vehicle_type_id":"4","last_reported":1725379911,"current_range_meters":22800,"station_id":"ce4bht12rcd13ifvqi60","pricing_plan_id":"cebpf4jnsgd1na2vs0mg"},{"bike_id":"8bf0a2f6-2b5a-428f-adba-8a0a200c1843","system_id":"levelo_inurba_marseille","lat":43.2872,"lon":5.37932,"is_reserved":false,"is_disabled":false,"rental_uris":{"android":"levelo://app?vid=8bf0a2f6-2b5a-428f-adba-8a0a200c1843","ios":"levelo://app?vid=8bf0a2f6-2b5a-428f-adba-8a0a200c1843"},"vehicle_type_id":"4","last_reported":1725379911,"current_range_meters":0,"station_id":"ce4bh9p2rcd13ifvqec0","pricing_plan_id":"cebpf4jnsgd1na2vs0mg"},{"bike_id":"5271b017-1d55-445e-90eb-055a0fabeae5","system_id":"levelo_inurba_marseille","lat":43.283998,"lon":5.375062,"is_reserved":false,"is_disabled":false,"rental_uris":{"android":"levelo://app?vid=5271b017-1d55-445e-90eb-055a0fabeae5","ios":"levelo://app?vid=5271b017-1d55-445e-90eb-055a0fabeae5"},"vehicle_type_id":"4","last_reported":1725379911,"current_range_meters":12400,"station_id":"ce4bh412rcd13ifvqds0","pricing_plan_id":"cebpf4jnsgd1na2vs0mg"},{"bike_id":"2be6819c-c632-4162-9d01-083c5272666b","system_id":"levelo_inurba_marseille","lat":43.32736,"lon":5.398842,"is_reserved":false,"is_disabled":false,"rental_uris":{"android":"levelo://app?vid=2be6819c-c632-4162-9d01-083c5272666b","ios":"levelo://app?vid=2be6819c-c632-4162-9d01-083c5272666b"},"vehicle_type_id":"4","last_reported":1725379911,"current_range_meters":5600,"station_id":"","pricing_plan_id":"cebpf4jnsgd1na2vs0mg"},{"bike_id":"e392dd9c-56c3-47c2-b23f-9bd2db60b582","system_id":"levelo_inurba_marseille","lat":43.326941,"lon":5.399219,"is_reserved":false,"is_disabled":false,"rental_uris":{"android":"levelo://app?vid=e392dd9c-56c3-47c2-b23f-9bd2db60b582","ios":"levelo://app?vid=e392dd9c-56c3-47c2-b23f-9bd2db60b582"},"vehicle_type_id":"4","last_reported":1725379911,"current_range_meters":29600,"station_id":"","pricing_plan_id":"cebpf4jnsgd1na2vs0mg"},{"bike_id":"6c3075ab-0a09-461a-8d66-fea59697a1b4","system_id":"levelo_inurba_marseille","lat":43.284538,"lon":5.358657,"is_reserved":false,"is_disabled":false,"rental_uris":{"android":"levelo://app?vid=6c3075ab-0a09-461a-8d66-fea59697a1b4","ios":"levelo://app?vid=6c3075ab-0a09-461a-8d66-fea59697a1b4"},"vehicle_type_id":"4","last_reported":1725379911,"current_range_meters":2400,"station_id":"ce4bhah2rcd13ifvqei0","pricing_plan_id":"cebpf4jnsgd1na2vs0mg"},{"bike_id":"77c72519-049e-4360-83b1-12163c2d8ae7","system_id":"levelo_inurba_marseille","lat":43.284534,"lon":5.358662,"is_reserved":false,"is_disabled":false,"rental_uris":{"android":"levelo://app?vid=77c72519-049e-4360-83b1-12163c2d8ae7","ios":"levelo://app?vid=77c72519-049e-4360-83b1-12163c2d8ae7"},"vehicle_type_id":"4","last_reported":1725379911,"current_range_meters":6800,"station_id":"ce4bhah2rcd13ifvqei0","pricing_plan_id":"cebpf4jnsgd1na2vs0mg"},{"bike_id":"1d4bb6c3-c615-466f-a301-8b61e9f48f6e","system_id":"levelo_inurba_marseille","lat":43.284534,"lon":5.358662,"is_reserved":false,"is_disabled":false,"rental_uris":{"android":"levelo://app?vid=1d4bb6c3-c615-466f-a301-8b61e9f48f6e","ios":"levelo://app?vid=1d4bb6c3-c615-466f-a301-8b61e9f48f6e"},"vehicle_type_id":"4","last_reported":1725379911,"current_range_meters":6400,"station_id":"ce4bhah2rcd13ifvqei0","pricing_plan_id":"cebpf4jnsgd1na2vs0mg"},{"bike_id":"10483fa4-615f-4dfd-8856-3276c393109e","system_id":"levelo_inurba_marseille","lat":43.284538,"lon":5.358657,"is_reserved":false,"is_disabled":false,"rental_uris":{"android":"levelo://app?vid=10483fa4-615f-4dfd-8856-3276c393109e","ios":"levelo://app?vid=10483fa4-615f-4dfd-8856-3276c393109e"},"vehicle_type_id":"4","last_reported":1725379911,"current_range_meters":3600,"station_id":"ce4bhah2rcd13ifvqei0","pricing_plan_id":"cebpf4jnsgd1na2vs0mg"},{"bike_id":"b0e2ea91-739c-4222-a603-996f5ee8a98c","system_id":"levelo_inurba_marseille","lat":43.284538,"lon":5.358657,"is_reserved":false,"is_disabled":false,"rental_uris":{"android":"levelo://app?vid=b0e2ea91-739c-4222-a603-996f5ee8a98c","ios":"levelo://app?vid=b0e2ea91-739c-4222-a603-996f5ee8a98c"},"vehicle_type_id":"4","last_reported":1725379911,"current_range_meters":12800,"station_id":"ce4bhah2rcd13ifvqei0","pricing_plan_id":"cebpf4jnsgd1na2vs0mg"},{"bike_id":"2c05178d-64f6-4980-b972-2b37c6423854","system_id":"levelo_inurba_marseille","lat":43.284538,"lon":5.358657,"is_reserved":false,"is_disabled":false,"rental_uris":{"android":"levelo://app?vid=2c05178d-64f6-4980-b972-2b37c6423854","ios":"levelo://app?vid=2c05178d-64f6-4980-b972-2b37c6423854"},"vehicle_type_id":"4","last_reported":1725379911,"current_range_meters":3600,"station_id":"ce4bhah2rcd13ifvqei0","pricing_plan_id":"cebpf4jnsgd1na2vs0mg"},{"bike_id":"683d7d43-21aa-4e15-9139-b45782fdbd32","system_id":"levelo_inurba_marseille","lat":43.303256,"lon":5.404389,"is_reserved":false,"is_disabled":false,"rental_uris":{"android":"levelo://app?vid=683d7d43-21aa-4e15-9139-b45782fdbd32","ios":"levelo://app?vid=683d7d43-21aa-4e15-9139-b45782fdbd32"},"vehicle_type_id":"4","last_reported":1725379911,"current_range_meters":6400,"station_id":"ce4bh012rcd13ifvqd10","pricing_plan_id":"cebpf4jnsgd1na2vs0mg"},{"bike_id":"83a9fc53-4bd3-4dad-8047-32d5583189ce","system_id":"levelo_inurba_marseille","lat":43.303256,"lon":5.404389,"is_reserved":false,"is_disabled":false,"rental_uris":{"android":"levelo://app?vid=83a9fc53-4bd3-4dad-8047-32d5583189ce","ios":"levelo://app?vid=83a9fc53-4bd3-4dad-8047-32d5583189ce"},"vehicle_type_id":"4","last_reported":1725379911,"current_range_meters":4000,"station_id":"ce4bh012rcd13ifvqd10","pricing_plan_id":"cebpf4jnsgd1na2vs0mg"},{"bike_id":"38474345-ef61-4e40-8dde-3e8dfbabdbb8","system_id":"levelo_inurba_marseille","lat":43.285856,"lon":5.350771,"is_reserved":false,"is_disabled":false,"rental_uris":{"android":"levelo://app?vid=38474345-ef61-4e40-8dde-3e8dfbabdbb8","ios":"levelo://app?vid=38474345-ef61-4e40-8dde-3e8dfbabdbb8"},"vehicle_type_id":"4","last_reported":1725379911,"current_range_meters":28400,"station_id":"ce4bhch2rcd13ifvqeug","pricing_plan_id":"cebpf4jnsgd1na2vs0mg"},{"bike_id":"aa90b001-2486-43f2-b0ce-622a8eb08014","system_id":"levelo_inurba_marseille","lat":43.283998,"lon":5.375062,"is_reserved":false,"is_disabled":false,"rental_uris":{"android":"levelo://app?vid=aa90b001-2486-43f2-b0ce-622a8eb08014","ios":"levelo://app?vid=aa90b001-2486-43f2-b0ce-622a8eb08014"},"vehicle_type_id":"4","last_reported":1725379911,"current_range_meters":10800,"station_id":"ce4bh412rcd13ifvqds0","pricing_plan_id":"cebpf4jnsgd1na2vs0mg"},{"bike_id":"b8e5033c-fc8b-4af5-89d4-84d2b0bd7ff0","system_id":"levelo_inurba_marseille","lat":43.283998,"lon":5.375062,"is_reserved":false,"is_disabled":false,"rental_uris":{"android":"levelo://app?vid=b8e5033c-fc8b-4af5-89d4-84d2b0bd7ff0","ios":"levelo://app?vid=b8e5033c-fc8b-4af5-89d4-84d2b0bd7ff0"},"vehicle_type_id":"4","last_reported":1725379911,"current_range_meters":0,"station_id":"ce4bh412rcd13ifvqds0","pricing_plan_id":"cebpf4jnsgd1na2vs0mg"},{"bike_id":"4cadd2ed-3802-40cf-b334-19af3cb052a9","system_id":"levelo_inurba_marseille","lat":43.295713,"lon":5.399639,"is_reserved":false,"is_disabled":false,"rental_uris":{"android":"levelo://app?vid=4cadd2ed-3802-40cf-b334-19af3cb052a9","ios":"levelo://app?vid=4cadd2ed-3802-40cf-b334-19af3cb052a9"},"vehicle_type_id":"4","last_reported":1725379911,"current_range_meters":23200,"station_id":"ce4bh312rcd13ifvqdj0","pricing_plan_id":"cebpf4jnsgd1na2vs0mg"},{"bike_id":"19796791-72dc-4923-b42d-7d8b9c78f9df","system_id":"levelo_inurba_marseille","lat":43.295713,"lon":5.399639,"is_reserved":false,"is_disabled":false,"rental_uris":{"android":"levelo://app?vid=19796791-72dc-4923-b42d-7d8b9c78f9df","ios":"levelo://app?vid=19796791-72dc-4923-b42d-7d8b9c78f9df"},"vehicle_type_id":"4","last_reported":1725379911,"current_range_meters":8400,"station_id":"ce4bh312rcd13ifvqdj0","pricing_plan_id":"cebpf4jnsgd1na2vs0mg"},{"bike_id":"0b1ef5ff-8e4a-4408-a5ef-e329e84e212d","system_id":"levelo_inurba_marseille","lat":43.283998,"lon":5.375062,"is_reserved":false,"is_disabled":false,"rental_uris":{"android":"levelo://app?vid=0b1ef5ff-8e4a-4408-a5ef-e329e84e212d","ios":"levelo://app?vid=0b1ef5ff-8e4a-4408-a5ef-e329e84e212d"},"vehicle_type_id":"4","last_reported":1725379911,"current_range_meters":20800,"station_id":"ce4bh412rcd13ifvqds0","pricing_plan_id":"cebpf4jnsgd1na2vs0mg"},{"bike_id":"1c4d4931-79a5-4d7a-9865-4c73c56e932c","system_id":"levelo_inurba_marseille","lat":43.28673,"lon":5.38651,"is_reserved":false,"is_disabled":false,"rental_uris":{"android":"levelo://app?vid=1c4d4931-79a5-4d7a-9865-4c73c56e932c","ios":"levelo://app?vid=1c4d4931-79a5-4d7a-9865-4c73c56e932c"},"vehicle_type_id":"4","last_reported":1725379911,"current_range_meters":0,"station_id":"ce4bh492rcd13ifvqdug","pricing_plan_id":"cebpf4jnsgd1na2vs0mg"},{"bike_id":"070ff47a-6308-456e-a7fe-17a9c28494de","system_id":"levelo_inurba_marseille","lat":43.28672,"lon":5.38653,"is_reserved":false,"is_disabled":false,"rental_uris":{"android":"levelo://app?vid=070ff47a-6308-456e-a7fe-17a9c28494de","ios":"levelo://app?vid=070ff47a-6308-456e-a7fe-17a9c28494de"},"vehicle_type_id":"4","last_reported":1725379911,"current_range_meters":0,"station_id":"ce4bh492rcd13ifvqdug","pricing_plan_id":"cebpf4jnsgd1na2vs0mg"},{"bike_id":"caa0b2cb-c037-435f-bf65-3f7b01312796","system_id":"levelo_inurba_marseille","lat":43.289307,"lon":5.38406,"is_reserved":false,"is_disabled":false,"rental_uris":{"android":"levelo://app?vid=caa0b2cb-c037-435f-bf65-3f7b01312796","ios":"levelo://app?vid=caa0b2cb-c037-435f-bf65-3f7b01312796"},"vehicle_type_id":"4","last_reported":1725379911,"current_range_meters":10400,"station_id":"ce4bh612rcd13ifvqe6g","pricing_plan_id":"cebpf4jnsgd1na2vs0mg"},{"bike_id":"258b4c27-8e86-421d-b2e1-6eee29b80084","system_id":"levelo_inurba_marseille","lat":43.337163,"lon":5.391693,"is_reserved":false,"is_disabled":false,"rental_uris":{"android":"levelo://app?vid=258b4c27-8e86-421d-b2e1-6eee29b80084","ios":"levelo://app?vid=258b4c27-8e86-421d-b2e1-6eee29b80084"},"vehicle_type_id":"4","last_reported":1725379911,"current_range_meters":2000,"station_id":"ce4bhr92rcd13ifvqhsg","pricing_plan_id":"cebpf4jnsgd1na2vs0mg"},{"bike_id":"0cdbd74e-4b19-4333-9066-0dd99f1bd52a","system_id":"levelo_inurba_marseille","lat":43.33717,"lon":5.391857,"is_reserved":false,"is_disabled":false,"rental_uris":{"android":"levelo://app?vid=0cdbd74e-4b19-4333-9066-0dd99f1bd52a","ios":"levelo://app?vid=0cdbd74e-4b19-4333-9066-0dd99f1bd52a"},"vehicle_type_id":"4","last_reported":1725379911,"current_range_meters":31600,"station_id":"ce4bhr92rcd13ifvqhsg","pricing_plan_id":"cebpf4jnsgd1na2vs0mg"},{"bike_id":"92987675-da7c-45ce-bfce-ff52aa9922f5","system_id":"levelo_inurba_marseille","lat":43.337168,"lon":5.391825,"is_reserved":false,"is_disabled":false,"rental_uris":{"android":"levelo://app?vid=92987675-da7c-45ce-bfce-ff52aa9922f5","ios":"levelo://app?vid=92987675-da7c-45ce-bfce-ff52aa9922f5"},"vehicle_type_id":"4","last_reported":1725379911,"current_range_meters":18000,"station_id":"ce4bhr92rcd13ifvqhsg","pricing_plan_id":"cebpf4jnsgd1na2vs0mg"},{"bike_id":"a882d571-cbea-4a80-b104-6ed8fa69afb0","system_id":"levelo_inurba_marseille","lat":43.33717,"lon":5.391857,"is_reserved":false,"is_disabled":false,"rental_uris":{"android":"levelo://app?vid=a882d571-cbea-4a80-b104-6ed8fa69afb0","ios":"levelo://app?vid=a882d571-cbea-4a80-b104-6ed8fa69afb0"},"vehicle_type_id":"4","last_reported":1725379911,"current_range_meters":21600,"station_id":"ce4bhr92rcd13ifvqhsg","pricing_plan_id":"cebpf4jnsgd1na2vs0mg"},{"bike_id":"ee990774-3d5b-4a3c-ba8f-dc64e577022a","system_id":"levelo_inurba_marseille","lat":43.323464,"lon":5.406297,"is_reserved":false,"is_disabled":false,"rental_uris":{"android":"levelo://app?vid=ee990774-3d5b-4a3c-ba8f-dc64e577022a","ios":"levelo://app?vid=ee990774-3d5b-4a3c-ba8f-dc64e577022a"},"vehicle_type_id":"4","last_reported":1725379911,"current_range_meters":0,"station_id":"ce4bhq92rcd13ifvqhjg","pricing_plan_id":"cebpf4jnsgd1na2vs0mg"},{"bike_id":"39fd1e50-d122-465a-b193-04b75d09cd71","system_id":"levelo_inurba_marseille","lat":43.323464,"lon":5.406297,"is_reserved":false,"is_disabled":false,"rental_uris":{"android":"levelo://app?vid=39fd1e50-d122-465a-b193-04b75d09cd71","ios":"levelo://app?vid=39fd1e50-d122-465a-b193-04b75d09cd71"},"vehicle_type_id":"4","last_reported":1725379911,"current_range_meters":0,"station_id":"ce4bhq92rcd13ifvqhjg","pricing_plan_id":"cebpf4jnsgd1na2vs0mg"},{"bike_id":"447d0503-e93e-4b76-9b78-61159177cb50","system_id":"levelo_inurba_marseille","lat":43.3403,"lon":5.34876,"is_reserved":false,"is_disabled":false,"rental_uris":{"android":"levelo://app?vid=447d0503-e93e-4b76-9b78-61159177cb50","ios":"levelo://app?vid=447d0503-e93e-4b76-9b78-61159177cb50"},"vehicle_type_id":"4","last_reported":1725379911,"current_range_meters":13600,"station_id":"","pricing_plan_id":"cebpf4jnsgd1na2vs0mg"},{"bike_id":"db684f6c-3fda-4d02-8e74-ecd4d341f87f","system_id":"levelo_inurba_marseille","lat":43.284787,"lon":5.384116,"is_reserved":false,"is_disabled":false,"rental_uris":{"android":"levelo://app?vid=db684f6c-3fda-4d02-8e74-ecd4d341f87f","ios":"levelo://app?vid=db684f6c-3fda-4d02-8e74-ecd4d341f87f"},"vehicle_type_id":"4","last_reported":1725379911,"current_range_meters":16800,"station_id":"ce4bh512rcd13ifvqe3g","pricing_plan_id":"cebpf4jnsgd1na2vs0mg"},{"bike_id":"a010e0d6-491f-4684-ab0a-7958d91775fd","system_id":"levelo_inurba_marseille","lat":43.29804,"lon":5.404,"is_reserved":false,"is_disabled":false,"rental_uris":{"android":"levelo://app?vid=a010e0d6-491f-4684-ab0a-7958d91775fd","ios":"levelo://app?vid=a010e0d6-491f-4684-ab0a-7958d91775fd"},"vehicle_type_id":"4","last_reported":1725379911,"current_range_meters":0,"station_id":"ce4bh112rcd13ifvqd90","pricing_plan_id":"cebpf4jnsgd1na2vs0mg"},{"bike_id":"2c34d30b-98cd-4a62-a2a8-57952b3b5427","system_id":"levelo_inurba_marseille","lat":43.28853,"lon":5.39321,"is_reserved":false,"is_disabled":false,"rental_uris":{"android":"levelo://app?vid=2c34d30b-98cd-4a62-a2a8-57952b3b5427","ios":"levelo://app?vid=2c34d30b-98cd-4a62-a2a8-57952b3b5427"},"vehicle_type_id":"4","last_reported":1725379911,"current_range_meters":0,"station_id":"ce4bh2p2rcd13ifvqdi0","pricing_plan_id":"cebpf4jnsgd1na2vs0mg"},{"bike_id":"02fe2a9a-fa44-4276-b5e4-17d99157f988","system_id":"levelo_inurba_marseille","lat":43.28352,"lon":5.380947,"is_reserved":false,"is_disabled":false,"rental_uris":{"android":"levelo://app?vid=02fe2a9a-fa44-4276-b5e4-17d99157f988","ios":"levelo://app?vid=02fe2a9a-fa44-4276-b5e4-17d99157f988"},"vehicle_type_id":"4","last_reported":1725379911,"current_range_meters":0,"station_id":"ce4bh412rcd13ifvqdr0","pricing_plan_id":"cebpf4jnsgd1na2vs0mg"},{"bike_id":"22fbbc45-271e-44e5-bfa0-900fc89e5008","system_id":"levelo_inurba_marseille","lat":43.28428,"lon":5.34991,"is_reserved":false,"is_disabled":false,"rental_uris":{"android":"levelo://app?vid=22fbbc45-271e-44e5-bfa0-900fc89e5008","ios":"levelo://app?vid=22fbbc45-271e-44e5-bfa0-900fc89e5008"},"vehicle_type_id":"4","last_reported":1725379911,"current_range_meters":22800,"station_id":"ce4bhbh2rcd13ifvqepg","pricing_plan_id":"cebpf4jnsgd1na2vs0mg"},{"bike_id":"758d3348-acad-4ae0-9e08-9da456be15a8","system_id":"levelo_inurba_marseille","lat":43.28435,"lon":5.34969,"is_reserved":false,"is_disabled":false,"rental_uris":{"android":"levelo://app?vid=758d3348-acad-4ae0-9e08-9da456be15a8","ios":"levelo://app?vid=758d3348-acad-4ae0-9e08-9da456be15a8"},"vehicle_type_id":"4","last_reported":1725379911,"current_range_meters":1200,"station_id":"ce4bhbh2rcd13ifvqepg","pricing_plan_id":"cebpf4jnsgd1na2vs0mg"},{"bike_id":"42ad859f-b8d7-4679-8455-be17d8fea58d","system_id":"levelo_inurba_marseille","lat":43.28426,"lon":5.3499,"is_reserved":false,"is_disabled":false,"rental_uris":{"android":"levelo://app?vid=42ad859f-b8d7-4679-8455-be17d8fea58d","ios":"levelo://app?vid=42ad859f-b8d7-4679-8455-be17d8fea58d"},"vehicle_type_id":"4","last_reported":1725379911,"current_range_meters":29600,"station_id":"ce4bhbh2rcd13ifvqepg","pricing_plan_id":"cebpf4jnsgd1na2vs0mg"},{"bike_id":"e50af42a-01d8-4eed-97a8-2e27a519e46b","system_id":"levelo_inurba_marseille","lat":43.284253,"lon":5.34987,"is_reserved":false,"is_disabled":false,"rental_uris":{"android":"levelo://app?vid=e50af42a-01d8-4eed-97a8-2e27a519e46b","ios":"levelo://app?vid=e50af42a-01d8-4eed-97a8-2e27a519e46b"},"vehicle_type_id":"4","last_reported":1725379911,"current_range_meters":26400,"station_id":"ce4bhbh2rcd13ifvqepg","pricing_plan_id":"cebpf4jnsgd1na2vs0mg"},{"bike_id":"5aab0393-19ae-45a7-8d4b-cbbe4c5364bd","system_id":"levelo_inurba_marseille","lat":43.284219,"lon":5.349907,"is_reserved":false,"is_disabled":false,"rental_uris":{"android":"levelo://app?vid=5aab0393-19ae-45a7-8d4b-cbbe4c5364bd","ios":"levelo://app?vid=5aab0393-19ae-45a7-8d4b-cbbe4c5364bd"},"vehicle_type_id":"4","last_reported":1725379911,"current_range_meters":1600,"station_id":"ce4bhbh2rcd13ifvqepg","pricing_plan_id":"cebpf4jnsgd1na2vs0mg"},{"bike_id":"129ef8fb-dbd4-4b69-97fd-5afcd3a1842e","system_id":"levelo_inurba_marseille","lat":43.28423,"lon":5.349861,"is_reserved":false,"is_disabled":false,"rental_uris":{"android":"levelo://app?vid=129ef8fb-dbd4-4b69-97fd-5afcd3a1842e","ios":"levelo://app?vid=129ef8fb-dbd4-4b69-97fd-5afcd3a1842e"},"vehicle_type_id":"4","last_reported":1725379911,"current_range_meters":20000,"station_id":"","pricing_plan_id":"cebpf4jnsgd1na2vs0mg"},{"bike_id":"f7362298-f4a5-4b20-8212-f378e2d30c94","system_id":"levelo_inurba_marseille","lat":43.284226,"lon":5.349861,"is_reserved":false,"is_disabled":false,"rental_uris":{"android":"levelo://app?vid=f7362298-f4a5-4b20-8212-f378e2d30c94","ios":"levelo://app?vid=f7362298-f4a5-4b20-8212-f378e2d30c94"},"vehicle_type_id":"4","last_reported":1725379911,"current_range_meters":29600,"station_id":"ce4bhbh2rcd13ifvqepg","pricing_plan_id":"cebpf4jnsgd1na2vs0mg"},{"bike_id":"4b01fcfb-4454-4257-9e19-9c23d9b02974","system_id":"levelo_inurba_marseille","lat":43.28423,"lon":5.34984,"is_reserved":false,"is_disabled":false,"rental_uris":{"android":"levelo://app?vid=4b01fcfb-4454-4257-9e19-9c23d9b02974","ios":"levelo://app?vid=4b01fcfb-4454-4257-9e19-9c23d9b02974"},"vehicle_type_id":"4","last_reported":1725379911,"current_range_meters":28800,"station_id":"ce4bhbh2rcd13ifvqepg","pricing_plan_id":"cebpf4jnsgd1na2vs0mg"},{"bike_id":"8a8ce2e2-bd46-44a9-86cb-00166d601689","system_id":"levelo_inurba_marseille","lat":43.28427,"lon":5.34971,"is_reserved":false,"is_disabled":false,"rental_uris":{"android":"levelo://app?vid=8a8ce2e2-bd46-44a9-86cb-00166d601689","ios":"levelo://app?vid=8a8ce2e2-bd46-44a9-86cb-00166d601689"},"vehicle_type_id":"4","last_reported":1725379911,"current_range_meters":1600,"station_id":"ce4bhbh2rcd13ifvqepg","pricing_plan_id":"cebpf4jnsgd1na2vs0mg"},{"bike_id":"c2276a39-7eb6-4592-b44a-b8f35179f8f3","system_id":"levelo_inurba_marseille","lat":43.28421,"lon":5.34987,"is_reserved":false,"is_disabled":false,"rental_uris":{"android":"levelo://app?vid=c2276a39-7eb6-4592-b44a-b8f35179f8f3","ios":"levelo://app?vid=c2276a39-7eb6-4592-b44a-b8f35179f8f3"},"vehicle_type_id":"4","last_reported":1725379911,"current_range_meters":19200,"station_id":"ce4bhbh2rcd13ifvqepg","pricing_plan_id":"cebpf4jnsgd1na2vs0mg"},{"bike_id":"fadc1bab-cdd0-4b6a-946c-f49cfcc33bf2","system_id":"levelo_inurba_marseille","lat":43.28421,"lon":5.34981,"is_reserved":false,"is_disabled":false,"rental_uris":{"android":"levelo://app?vid=fadc1bab-cdd0-4b6a-946c-f49cfcc33bf2","ios":"levelo://app?vid=fadc1bab-cdd0-4b6a-946c-f49cfcc33bf2"},"vehicle_type_id":"4","last_reported":1725379911,"current_range_meters":19200,"station_id":"ce4bhbh2rcd13ifvqepg","pricing_plan_id":"cebpf4jnsgd1na2vs0mg"},{"bike_id":"52aa0298-c532-408a-a454-82cd2de0ce4a","system_id":"levelo_inurba_marseille","lat":43.28419,"lon":5.34977,"is_reserved":false,"is_disabled":false,"rental_uris":{"android":"levelo://app?vid=52aa0298-c532-408a-a454-82cd2de0ce4a","ios":"levelo://app?vid=52aa0298-c532-408a-a454-82cd2de0ce4a"},"vehicle_type_id":"4","last_reported":1725379911,"current_range_meters":10400,"station_id":"ce4bhbh2rcd13ifvqepg","pricing_plan_id":"cebpf4jnsgd1na2vs0mg"},{"bike_id":"7c17c248-d284-409c-8d7b-1298ebd76b32","system_id":"levelo_inurba_marseille","lat":43.284167,"lon":5.34983,"is_reserved":false,"is_disabled":false,"rental_uris":{"android":"levelo://app?vid=7c17c248-d284-409c-8d7b-1298ebd76b32","ios":"levelo://app?vid=7c17c248-d284-409c-8d7b-1298ebd76b32"},"vehicle_type_id":"4","last_reported":1725379911,"current_range_meters":10000,"station_id":"ce4bhbh2rcd13ifvqepg","pricing_plan_id":"cebpf4jnsgd1na2vs0mg"},{"bike_id":"ade74ce5-ac99-40da-af6b-d8d5f8aa0e06","system_id":"levelo_inurba_marseille","lat":43.28419,"lon":5.34975,"is_reserved":false,"is_disabled":false,"rental_uris":{"android":"levelo://app?vid=ade74ce5-ac99-40da-af6b-d8d5f8aa0e06","ios":"levelo://app?vid=ade74ce5-ac99-40da-af6b-d8d5f8aa0e06"},"vehicle_type_id":"4","last_reported":1725379911,"current_range_meters":10000,"station_id":"ce4bhbh2rcd13ifvqepg","pricing_plan_id":"cebpf4jnsgd1na2vs0mg"},{"bike_id":"ab0e804f-f259-472e-9949-2f7d8be1b924","system_id":"levelo_inurba_marseille","lat":43.284217,"lon":5.349697,"is_reserved":false,"is_disabled":false,"rental_uris":{"android":"levelo://app?vid=ab0e804f-f259-472e-9949-2f7d8be1b924","ios":"levelo://app?vid=ab0e804f-f259-472e-9949-2f7d8be1b924"},"vehicle_type_id":"4","last_reported":1725379911,"current_range_meters":24000,"station_id":"ce4bhbh2rcd13ifvqepg","pricing_plan_id":"cebpf4jnsgd1na2vs0mg"},{"bike_id":"563574bf-6d6b-4580-a35d-e6427641f8fe","system_id":"levelo_inurba_marseille","lat":43.28419,"lon":5.34971,"is_reserved":false,"is_disabled":false,"rental_uris":{"android":"levelo://app?vid=563574bf-6d6b-4580-a35d-e6427641f8fe","ios":"levelo://app?vid=563574bf-6d6b-4580-a35d-e6427641f8fe"},"vehicle_type_id":"4","last_reported":1725379911,"current_range_meters":0,"station_id":"ce4bhbh2rcd13ifvqepg","pricing_plan_id":"cebpf4jnsgd1na2vs0mg"},{"bike_id":"33193deb-b206-4529-9366-d86975def2c7","system_id":"levelo_inurba_marseille","lat":43.28418,"lon":5.34972,"is_reserved":false,"is_disabled":false,"rental_uris":{"android":"levelo://app?vid=33193deb-b206-4529-9366-d86975def2c7","ios":"levelo://app?vid=33193deb-b206-4529-9366-d86975def2c7"},"vehicle_type_id":"4","last_reported":1725379911,"current_range_meters":18800,"station_id":"ce4bhbh2rcd13ifvqepg","pricing_plan_id":"cebpf4jnsgd1na2vs0mg"},{"bike_id":"b0d4ea93-49b2-41b5-8a23-fbd71cee837a","system_id":"levelo_inurba_marseille","lat":43.284154,"lon":5.349762,"is_reserved":false,"is_disabled":false,"rental_uris":{"android":"levelo://app?vid=b0d4ea93-49b2-41b5-8a23-fbd71cee837a","ios":"levelo://app?vid=b0d4ea93-49b2-41b5-8a23-fbd71cee837a"},"vehicle_type_id":"4","last_reported":1725379911,"current_range_meters":22800,"station_id":"ce4bhbh2rcd13ifvqepg","pricing_plan_id":"cebpf4jnsgd1na2vs0mg"},{"bike_id":"fd47aeae-2662-47b5-93cc-2d95d9e6f332","system_id":"levelo_inurba_marseille","lat":43.284153,"lon":5.34976,"is_reserved":false,"is_disabled":false,"rental_uris":{"android":"levelo://app?vid=fd47aeae-2662-47b5-93cc-2d95d9e6f332","ios":"levelo://app?vid=fd47aeae-2662-47b5-93cc-2d95d9e6f332"},"vehicle_type_id":"4","last_reported":1725379911,"current_range_meters":1600,"station_id":"ce4bhbh2rcd13ifvqepg","pricing_plan_id":"cebpf4jnsgd1na2vs0mg"},{"bike_id":"b010a90e-1ac5-4690-abd4-16d56c8f8139","system_id":"levelo_inurba_marseille","lat":43.28413,"lon":5.349797,"is_reserved":false,"is_disabled":false,"rental_uris":{"android":"levelo://app?vid=b010a90e-1ac5-4690-abd4-16d56c8f8139","ios":"levelo://app?vid=b010a90e-1ac5-4690-abd4-16d56c8f8139"},"vehicle_type_id":"4","last_reported":1725379911,"current_range_meters":5200,"station_id":"ce4bhbh2rcd13ifvqepg","pricing_plan_id":"cebpf4jnsgd1na2vs0mg"},{"bike_id":"9cc5aef7-6d6d-4524-8503-4f0feaf919e3","system_id":"levelo_inurba_marseille","lat":43.28412,"lon":5.34976,"is_reserved":false,"is_disabled":false,"rental_uris":{"android":"levelo://app?vid=9cc5aef7-6d6d-4524-8503-4f0feaf919e3","ios":"levelo://app?vid=9cc5aef7-6d6d-4524-8503-4f0feaf919e3"},"vehicle_type_id":"4","last_reported":1725379911,"current_range_meters":3600,"station_id":"ce4bhbh2rcd13ifvqepg","pricing_plan_id":"cebpf4jnsgd1na2vs0mg"},{"bike_id":"a8a51540-1578-4fb4-a6c5-3d69f201b4d7","system_id":"levelo_inurba_marseille","lat":43.284214,"lon":5.349706,"is_reserved":false,"is_disabled":false,"rental_uris":{"android":"levelo://app?vid=a8a51540-1578-4fb4-a6c5-3d69f201b4d7","ios":"levelo://app?vid=a8a51540-1578-4fb4-a6c5-3d69f201b4d7"},"vehicle_type_id":"4","last_reported":1725379911,"current_range_meters":31200,"station_id":"ce4bhbh2rcd13ifvqepg","pricing_plan_id":"cebpf4jnsgd1na2vs0mg"},{"bike_id":"af389c6c-0a81-44f8-a10f-a69b600147c8","system_id":"levelo_inurba_marseille","lat":43.284214,"lon":5.349706,"is_reserved":false,"is_disabled":false,"rental_uris":{"android":"levelo://app?vid=af389c6c-0a81-44f8-a10f-a69b600147c8","ios":"levelo://app?vid=af389c6c-0a81-44f8-a10f-a69b600147c8"},"vehicle_type_id":"4","last_reported":1725379911,"current_range_meters":5200,"station_id":"ce4bhbh2rcd13ifvqepg","pricing_plan_id":"cebpf4jnsgd1na2vs0mg"},{"bike_id":"8d70033e-18f3-416f-a554-89c387aa7732","system_id":"levelo_inurba_marseille","lat":43.28411,"lon":5.34974,"is_reserved":false,"is_disabled":false,"rental_uris":{"android":"levelo://app?vid=8d70033e-18f3-416f-a554-89c387aa7732","ios":"levelo://app?vid=8d70033e-18f3-416f-a554-89c387aa7732"},"vehicle_type_id":"4","last_reported":1725379911,"current_range_meters":0,"station_id":"ce4bhbh2rcd13ifvqepg","pricing_plan_id":"cebpf4jnsgd1na2vs0mg"},{"bike_id":"4bd28b5f-db0c-4a87-921f-1f97eb3ceeb8","system_id":"levelo_inurba_marseille","lat":43.284214,"lon":5.349706,"is_reserved":false,"is_disabled":false,"rental_uris":{"android":"levelo://app?vid=4bd28b5f-db0c-4a87-921f-1f97eb3ceeb8","ios":"levelo://app?vid=4bd28b5f-db0c-4a87-921f-1f97eb3ceeb8"},"vehicle_type_id":"4","last_reported":1725379911,"current_range_meters":0,"station_id":"ce4bhbh2rcd13ifvqepg","pricing_plan_id":"cebpf4jnsgd1na2vs0mg"},{"bike_id":"745315fd-abac-463f-8f09-4bbacf9650f7","system_id":"levelo_inurba_marseille","lat":43.292724,"lon":5.401131,"is_reserved":false,"is_disabled":false,"rental_uris":{"android":"levelo://app?vid=745315fd-abac-463f-8f09-4bbacf9650f7","ios":"levelo://app?vid=745315fd-abac-463f-8f09-4bbacf9650f7"},"vehicle_type_id":"4","last_reported":1725379911,"current_range_meters":5200,"station_id":"ce4bh312rcd13ifvqdk0","pricing_plan_id":"cebpf4jnsgd1na2vs0mg"},{"bike_id":"c24b803c-1476-4b9b-b36a-7247ed4d1de3","system_id":"levelo_inurba_marseille","lat":43.292724,"lon":5.401131,"is_reserved":false,"is_disabled":false,"rental_uris":{"android":"levelo://app?vid=c24b803c-1476-4b9b-b36a-7247ed4d1de3","ios":"levelo://app?vid=c24b803c-1476-4b9b-b36a-7247ed4d1de3"},"vehicle_type_id":"4","last_reported":1725379911,"current_range_meters":3600,"station_id":"ce4bh312rcd13ifvqdk0","pricing_plan_id":"cebpf4jnsgd1na2vs0mg"},{"bike_id":"adf8de18-299a-414c-aa79-0f8720129f3d","system_id":"levelo_inurba_marseille","lat":43.292724,"lon":5.401131,"is_reserved":false,"is_disabled":false,"rental_uris":{"android":"levelo://app?vid=adf8de18-299a-414c-aa79-0f8720129f3d","ios":"levelo://app?vid=adf8de18-299a-414c-aa79-0f8720129f3d"},"vehicle_type_id":"4","last_reported":1725379911,"current_range_meters":0,"station_id":"ce4bh312rcd13ifvqdk0","pricing_plan_id":"cebpf4jnsgd1na2vs0mg"},{"bike_id":"db7b69dd-fc97-4d9d-b1f6-e9b446240be3","system_id":"levelo_inurba_marseille","lat":43.282754,"lon":5.350519,"is_reserved":false,"is_disabled":false,"rental_uris":{"android":"levelo://app?vid=db7b69dd-fc97-4d9d-b1f6-e9b446240be3","ios":"levelo://app?vid=db7b69dd-fc97-4d9d-b1f6-e9b446240be3"},