{"last_updated":1706976533,"ttl":30,"version":"2.2","data":{"bikes":[{"bike_id":"dd31d8b2-67c7-4f47-b851-9b169a47dc1b","system_id":"levelo_inurba_marseille","lat":43.31341,"lon":5.367098,"is_reserved":false,"is_disabled":false,"rental_uris":{"android":"levelo://app?vid=dd31d8b2-67c7-4f47-b851-9b169a47dc1b","ios":"levelo://app?vid=dd31d8b2-67c7-4f47-b851-9b169a47dc1b"},"vehicle_type_id":"4","last_reported":1706976533,"current_range_meters":9600,"station_id":"ce4bgr92rcd13ifvqc6g","pricing_plan_id":"free"},{"bike_id":"adeee7fa-eba6-45d2-b131-91fd592abb19","system_id":"levelo_inurba_marseille","lat":43.31341,"lon":5.367098,"is_reserved":false,"is_disabled":false,"rental_uris":{"android":"levelo://app?vid=adeee7fa-eba6-45d2-b131-91fd592abb19","ios":"levelo://app?vid=adeee7fa-eba6-45d2-b131-91fd592abb19"},"vehicle_type_id":"4","last_reported":1706976533,"current_range_meters":26400,"station_id":"ce4bgr92rcd13ifvqc6g","pricing_plan_id":"free"},{"bike_id":"8075556e-9c83-4ece-b92f-e5e90a5fd8a2","system_id":"levelo_inurba_marseille","lat":43.31306,"lon":5.37258,"is_reserved":false,"is_disabled":false,"rental_uris":{"android":"levelo://app?vid=8075556e-9c83-4ece-b92f-e5e90a5fd8a2","ios":"levelo://app?vid=8075556e-9c83-4ece-b92f-e5e90a5fd8a2"},"vehicle_type_id":"4","last_reported":1706976533,"current_range_meters":0,"station_id":"","pricing_plan_id":"free"},{"bike_id":"12c0e32b-4b08-47e6-bbe1-bfd378097d2d","system_id":"levelo_inurba_marseille","lat":43.309039,"lon":5.371797,"is_reserved":false,"is_disabled":false,"rental_uris":{"android":"levelo://app?vid=12c0e32b-4b08-47e6-bbe1-bfd378097d2d","ios":"levelo://app?vid=12c0e32b-4b08-47e6-bbe1-bfd378097d2d"},"vehicle_type_id":"4","last_reported":1706976533,"current_range_meters":14800,"station_id":"ce4bguh2rcd13ifvqckg","pricing_plan_id":"free"},{"bike_id":"4fdc4787-2348-4dd2-a913-d9d23f13514d","system_id":"levelo_inurba_marseille","lat":43.30543,"lon":5.366965,"is_reserved":false,"is_disabled":false,"rental_uris":{"android":"levelo://app?vid=4fdc4787-2348-4dd2-a913-d9d23f13514d","ios":"levelo://app?vid=4fdc4787-2348-4dd2-a913-d9d23f13514d"},"vehicle_type_id":"4","last_reported":1706976533,"current_range_meters":12800,"station_id":"ce4bgrp2rcd13ifvqc9g","pricing_plan_id":"free"},{"bike_id":"f19aa45b-5590-484a-beba-fe1ca076e825","system_id":"levelo_inurba_marseille","lat":43.30537,"lon":5.367345,"is_reserved":false,"is_disabled":false,"rental_uris":{"android":"levelo://app?vid=f19aa45b-5590-484a-beba-fe1ca076e825","ios":"levelo://app?vid=f19aa45b-5590-484a-beba-fe1ca076e825"},"vehicle_type_id":"4","last_reported":1706976533,"current_range_meters":18000,"station_id":"ce4bgrp2rcd13ifvqc9g","pricing_plan_id":"free"},{"bike_id":"83be4a0e-45a8-40f3-883a-cd43afe6d4fa","system_id":"levelo_inurba_marseille","lat":43.305368,"lon":5.367343,"is_reserved":false,"is_disabled":false,"rental_uris":{"android":"levelo://app?vid=83be4a0e-45a8-40f3-883a-cd43afe6d4fa","ios":"levelo://app?vid=83be4a0e-45a8-40f3-883a-cd43afe6d4fa"},"vehicle_type_id":"4","last_reported":1706976533,"current_range_meters":2800,"station_id":"ce4bgrp2rcd13ifvqc9g","pricing_plan_id":"free"},{"bike_id":"87366842-9c4a-46ae-8064-f384905221b5","system_id":"levelo_inurba_marseille","lat":43.305368,"lon":5.367343,"is_reserved":false,"is_disabled":false,"rental_uris":{"android":"levelo://app?vid=87366842-9c4a-46ae-8064-f384905221b5","ios":"levelo://app?vid=87366842-9c4a-46ae-8064-f384905221b5"},"vehicle_type_id":"4","last_reported":1706976533,"current_range_meters":25600,"station_id":"ce4bgrp2rcd13ifvqc9g","pricing_plan_id":"free"},{"bike_id":"249efe62-f777-4a33-931b-56fc05b3e0c8","system_id":"levelo_inurba_marseille","lat":43.305368,"lon":5.367343,"is_reserved":false,"is_disabled":false,"rental_uris":{"android":"levelo://app?vid=249efe62-f777-4a33-931b-56fc05b3e0c8","ios":"levelo://app?vid=249efe62-f777-4a33-931b-56fc05b3e0c8"},"vehicle_type_id":"4","last_reported":1706976533,"current_range_meters":23600,"station_id":"ce4bgrp2rcd13ifvqc9g","pricing_plan_id":"free"},{"bike_id":"032f702b-f942-4e32-a89e-b41325228666","system_id":"levelo_inurba_marseille","lat":43.305706,"lon":5.365654,"is_reserved":false,"is_disabled":false,"rental_uris":{"android":"levelo://app?vid=032f702b-f942-4e32-a89e-b41325228666","ios":"levelo://app?vid=032f702b-f942-4e32-a89e-b41325228666"},"vehicle_type_id":"4","last_reported":1706976533,"current_range_meters":0,"station_id":"ce4bgs12rcd13ifvqcag","pricing_plan_id":"free"},{"bike_id":"5defaed9-c464-4c06-8d53-9c67d4f030f6","system_id":"levelo_inurba_marseille","lat":43.305712,"lon":5.365641,"is_reserved":false,"is_disabled":false,"rental_uris":{"android":"levelo://app?vid=5defaed9-c464-4c06-8d53-9c67d4f030f6","ios":"levelo://app?vid=5defaed9-c464-4c06-8d53-9c67d4f030f6"},"vehicle_type_id":"4","last_reported":1706976533,"current_range_meters":25200,"station_id":"ce4bgs12rcd13ifvqcag","pricing_plan_id":"free"},{"bike_id":"780145b5-15c9-4095-9d8d-1e7b6cd018c7","system_id":"levelo_inurba_marseille","lat":43.305368,"lon":5.367343,"is_reserved":false,"is_disabled":false,"rental_uris":{"android":"levelo://app?vid=780145b5-15c9-4095-9d8d-1e7b6cd018c7","ios":"levelo://app?vid=780145b5-15c9-4095-9d8d-1e7b6cd018c7"},"vehicle_type_id":"4","last_reported":1706976533,"current_range_meters":13600,"station_id":"ce4bgrp2rcd13ifvqc9g","pricing_plan_id":"free"},{"bike_id":"c681a45d-e5c9-4b9d-9865-375a231de276","system_id":"levelo_inurba_marseille","lat":43.305368,"lon":5.367343,"is_reserved":false,"is_disabled":false,"rental_uris":{"android":"levelo://app?vid=c681a45d-e5c9-4b9d-9865-375a231de276","ios":"levelo://app?vid=c681a45d-e5c9-4b9d-9865-375a231de276"},"vehicle_type_id":"4","last_reported":1706976533,"current_range_meters":5600,"station_id":"ce4bgrp2rcd13ifvqc9g","pricing_plan_id":"free"},{"bike_id":"ea10d8b9-66b3-4d8f-9df5-90c187af6434","system_id":"levelo_inurba_marseille","lat":43.305714,"lon":5.365633,"is_reserved":false,"is_disabled":false,"rental_uris":{"android":"levelo://app?vid=ea10d8b9-66b3-4d8f-9df5-90c187af6434","ios":"levelo://app?vid=ea10d8b9-66b3-4d8f-9df5-90c187af6434"},"vehicle_type_id":"4","last_reported":1706976533,"current_range_meters":3200,"station_id":"ce4bgs12rcd13ifvqcag","pricing_plan_id":"free"},{"bike_id":"4bca769b-3948-4503-9aae-9f5043d6bf5f","system_id":"levelo_inurba_marseille","lat":43.305706,"lon":5.365654,"is_reserved":false,"is_disabled":false,"rental_uris":{"android":"levelo://app?vid=4bca769b-3948-4503-9aae-9f5043d6bf5f","ios":"levelo://app?vid=4bca769b-3948-4503-9aae-9f5043d6bf5f"},"vehicle_type_id":"4","last_reported":1706976533,"current_range_meters":6400,"station_id":"ce4bgs12rcd13ifvqcag","pricing_plan_id":"free"},{"bike_id":"c513f7c7-1844-405c-999d-7b6ee71db436","system_id":"levelo_inurba_marseille","lat":43.305368,"lon":5.367343,"is_reserved":false,"is_disabled":false,"rental_uris":{"android":"levelo://app?vid=c513f7c7-1844-405c-999d-7b6ee71db436","ios":"levelo://app?vid=c513f7c7-1844-405c-999d-7b6ee71db436"},"vehicle_type_id":"4","last_reported":1706976533,"current_range_meters":2400,"station_id":"ce4bgrp2rcd13ifvqc9g","pricing_plan_id":"free"},{"bike_id":"2f233879-9604-437f-876d-6db087a85312","system_id":"levelo_inurba_marseille","lat":43.305706,"lon":5.365654,"is_reserved":false,"is_disabled":false,"rental_uris":{"android":"levelo://app?vid=2f233879-9604-437f-876d-6db087a85312","ios":"levelo://app?vid=2f233879-9604-437f-876d-6db087a85312"},"vehicle_type_id":"4","last_reported":1706976533,"current_range_meters":20800,"station_id":"ce4bgs12rcd13ifvqcag","pricing_plan_id":"free"},{"bike_id":"9c5306dc-dac3-4138-b4d9-e141f26577ee","system_id":"levelo_inurba_marseille","lat":43.305989,"lon":5.37225,"is_reserved":false,"is_disabled":false,"rental_uris":{"android":"levelo://app?vid=9c5306dc-dac3-4138-b4d9-e141f26577ee","ios":"levelo://app?vid=9c5306dc-dac3-4138-b4d9-e141f26577ee"},"vehicle_type_id":"4","last_reported":1706976533,"current_range_meters":30800,"station_id":"ce4bgqh2rcd13ifvqc4g","pricing_plan_id":"free"},{"bike_id":"d3114cd2-2b0b-434a-b9a2-5c6f45862fb0","system_id":"levelo_inurba_marseille","lat":43.311131,"lon":5.377651,"is_reserved":false,"is_disabled":false,"rental_uris":{"android":"levelo://app?vid=d3114cd2-2b0b-434a-b9a2-5c6f45862fb0","ios":"levelo://app?vid=d3114cd2-2b0b-434a-b9a2-5c6f45862fb0"},"vehicle_type_id":"4","last_reported":1706976533,"current_range_meters":0,"station_id":"ce4bgt92rcd13ifvqcg0","pricing_plan_id":"free"},{"bike_id":"519c6cd5-c601-4005-b0b6-3cab6c06f58e","system_id":"levelo_inurba_marseille","lat":43.317075,"lon":5.377367,"is_reserved":false,"is_disabled":false,"rental_uris":{"android":"levelo://app?vid=519c6cd5-c601-4005-b0b6-3cab6c06f58e","ios":"levelo://app?vid=519c6cd5-c601-4005-b0b6-3cab6c06f58e"},"vehicle_type_id":"4","last_reported":1706976533,"current_range_meters":10800,"station_id":"ce4bgth2rcd13ifvqch0","pricing_plan_id":"free"},{"bike_id":"469b4e4a-1e2f-4825-9e49-226014827b4a","system_id":"levelo_inurba_marseille","lat":43.317075,"lon":5.377367,"is_reserved":false,"is_disabled":false,"rental_uris":{"android":"levelo://app?vid=469b4e4a-1e2f-4825-9e49-226014827b4a","ios":"levelo://app?vid=469b4e4a-1e2f-4825-9e49-226014827b4a"},"vehicle_type_id":"4","last_reported":1706976533,"current_range_meters":31200,"station_id":"ce4bgth2rcd13ifvqch0","pricing_plan_id":"free"},{"bike_id":"2223a2e9-8ed4-406b-9608-81717f6783dc","system_id":"levelo_inurba_marseille","lat":43.317075,"lon":5.377367,"is_reserved":false,"is_disabled":false,"rental_uris":{"android":"levelo://app?vid=2223a2e9-8ed4-406b-9608-81717f6783dc","ios":"levelo://app?vid=2223a2e9-8ed4-406b-9608-81717f6783dc"},"vehicle_type_id":"4","last_reported":1706976533,"current_range_meters":24800,"station_id":"ce4bgth2rcd13ifvqch0","pricing_plan_id":"free"},{"bike_id":"5350492e-9a31-4cc2-9dd3-24bb9c6e20c8","system_id":"levelo_inurba_marseille","lat":43.317075,"lon":5.377367,"is_reserved":false,"is_disabled":false,"rental_uris":{"android":"levelo://app?vid=5350492e-9a31-4cc2-9dd3-24bb9c6e20c8","ios":"levelo://app?vid=5350492e-9a31-4cc2-9dd3-24bb9c6e20c8"},"vehicle_type_id":"4","last_reported":1706976533,"current_range_meters":0,"station_id":"ce4bgth2rcd13ifvqch0","pricing_plan_id":"free"},{"bike_id":"9c6a3b25-93af-4894-9cf1-28d03c8f8fdc","system_id":"levelo_inurba_marseille","lat":43.317075,"lon":5.377367,"is_reserved":false,"is_disabled":false,"rental_uris":{"android":"levelo://app?vid=9c6a3b25-93af-4894-9cf1-28d03c8f8fdc","ios":"levelo://app?vid=9c6a3b25-93af-4894-9cf1-28d03c8f8fdc"},"vehicle_type_id":"4","last_reported":1706976533,"current_range_meters":31200,"station_id":"ce4bgth2rcd13ifvqch0","pricing_plan_id":"free"},{"bike_id":"0f833ad1-607f-417a-a09f-4998cd54a18f","system_id":"levelo_inurba_marseille","lat":43.317075,"lon":5.377367,"is_reserved":false,"is_disabled":false,"rental_uris":{"android":"levelo://app?vid=0f833ad1-607f-417a-a09f-4998cd54a18f","ios":"levelo://app?vid=0f833ad1-607f-417a-a09f-4998cd54a18f"},"vehicle_type_id":"4","last_reported":1706976533,"current_range_meters":31600,"station_id":"ce4bgth2rcd13ifvqch0","pricing_plan_id":"free"},{"bike_id":"1758028b-3839-41ff-8741-801b91847b7f","system_id":"levelo_inurba_marseille","lat":43.30304,"lon":5.368987,"is_reserved":false,"is_disabled":false,"rental_uris":{"android":"levelo://app?vid=1758028b-3839-41ff-8741-801b91847b7f","ios":"levelo://app?vid=1758028b-3839-41ff-8741-801b91847b7f"},"vehicle_type_id":"4","last_reported":1706976533,"current_range_meters":28400,"station_id":"ce4bgqh2rcd13ifvqc5g","pricing_plan_id":"free"},{"bike_id":"a1e6055a-1ce6-4880-8e65-97be660ea235","system_id":"levelo_inurba_marseille","lat":43.303046,"lon":5.368981,"is_reserved":false,"is_disabled":false,"rental_uris":{"android":"levelo://app?vid=a1e6055a-1ce6-4880-8e65-97be660ea235","ios":"levelo://app?vid=a1e6055a-1ce6-4880-8e65-97be660ea235"},"vehicle_type_id":"4","last_reported":1706976533,"current_range_meters":0,"station_id":"ce4bgqh2rcd13ifvqc5g","pricing_plan_id":"free"},{"bike_id":"5a385c5e-6ba2-43f8-baf9-69715afd9e56","system_id":"levelo_inurba_marseille","lat":43.30304,"lon":5.368987,"is_reserved":false,"is_disabled":false,"rental_uris":{"android":"levelo://app?vid=5a385c5e-6ba2-43f8-baf9-69715afd9e56","ios":"levelo://app?vid=5a385c5e-6ba2-43f8-baf9-69715afd9e56"},"vehicle_type_id":"4","last_reported":1706976533,"current_range_meters":19600,"station_id":"ce4bgqh2rcd13ifvqc5g","pricing_plan_id":"free"},{"bike_id":"989430b1-6ba5-4daa-b000-32eb82164555","system_id":"levelo_inurba_marseille","lat":43.30304,"lon":5.368987,"is_reserved":false,"is_disabled":false,"rental_uris":{"android":"levelo://app?vid=989430b1-6ba5-4daa-b000-32eb82164555","ios":"levelo://app?vid=989430b1-6ba5-4daa-b000-32eb82164555"},"vehicle_type_id":"4","last_reported":1706976533,"current_range_meters":25600,"station_id":"ce4bgqh2rcd13ifvqc5g","pricing_plan_id":"free"},{"bike_id":"58bfae03-2b26-4f97-808d-5d5aa9891d71","system_id":"levelo_inurba_marseille","lat":43.301939,"lon":5.366286,"is_reserved":false,"is_disabled":false,"rental_uris":{"android":"levelo://app?vid=58bfae03-2b26-4f97-808d-5d5aa9891d71","ios":"levelo://app?vid=58bfae03-2b26-4f97-808d-5d5aa9891d71"},"vehicle_type_id":"4","last_reported":1706976533,"current_range_meters":16000,"station_id":"ce4bgrh2rcd13ifvqc8g","pricing_plan_id":"free"},{"bike_id":"516fbcae-81f9-4f1b-8d23-38ea8dd0d3ee","system_id":"levelo_inurba_marseille","lat":43.301939,"lon":5.366286,"is_reserved":false,"is_disabled":false,"rental_uris":{"android":"levelo://app?vid=516fbcae-81f9-4f1b-8d23-38ea8dd0d3ee","ios":"levelo://app?vid=516fbcae-81f9-4f1b-8d23-38ea8dd0d3ee"},"vehicle_type_id":"4","last_reported":1706976533,"current_range_meters":7200,"station_id":"ce4bgrh2rcd13ifvqc8g","pricing_plan_id":"free"},{"bike_id":"999d01b7-b4eb-4792-b3d8-8d8ae05ad737","system_id":"levelo_inurba_marseille","lat":43.301939,"lon":5.366286,"is_reserved":false,"is_disabled":false,"rental_uris":{"android":"levelo://app?vid=999d01b7-b4eb-4792-b3d8-8d8ae05ad737","ios":"levelo://app?vid=999d01b7-b4eb-4792-b3d8-8d8ae05ad737"},"vehicle_type_id":"4","last_reported":1706976533,"current_range_meters":18800,"station_id":"ce4bgrh2rcd13ifvqc8g","pricing_plan_id":"free"},{"bike_id":"02e5c3ba-d57f-45cd-83a5-34e8a95ace48","system_id":"levelo_inurba_marseille","lat":43.30192,"lon":5.36461,"is_reserved":false,"is_disabled":false,"rental_uris":{"android":"levelo://app?vid=02e5c3ba-d57f-45cd-83a5-34e8a95ace48","ios":"levelo://app?vid=02e5c3ba-d57f-45cd-83a5-34e8a95ace48"},"vehicle_type_id":"4","last_reported":1706976533,"current_range_meters":28000,"station_id":"","pricing_plan_id":"free"},{"bike_id":"82d9e6ba-21fb-4cd0-886f-3018932b9046","system_id":"levelo_inurba_marseille","lat":43.308012,"lon":5.381511,"is_reserved":false,"is_disabled":false,"rental_uris":{"android":"levelo://app?vid=82d9e6ba-21fb-4cd0-886f-3018932b9046","ios":"levelo://app?vid=82d9e6ba-21fb-4cd0-886f-3018932b9046"},"vehicle_type_id":"4","last_reported":1706976533,"current_range_meters":27600,"station_id":"ce4bgt12rcd13ifvqce0","pricing_plan_id":"free"},{"bike_id":"7f0719ad-37e8-4208-9c7d-d964e68d2be0","system_id":"levelo_inurba_marseille","lat":43.30468,"lon":5.37909,"is_reserved":false,"is_disabled":false,"rental_uris":{"android":"levelo://app?vid=7f0719ad-37e8-4208-9c7d-d964e68d2be0","ios":"levelo://app?vid=7f0719ad-37e8-4208-9c7d-d964e68d2be0"},"vehicle_type_id":"4","last_reported":1706976533,"current_range_meters":0,"station_id":"ce4bgup2rcd13ifvqcn0","pricing_plan_id":"free"},{"bike_id":"639a4c3e-bcca-4436-a2bd-00d15d5c46b9","system_id":"levelo_inurba_marseille","lat":43.304606,"lon":5.379026,"is_reserved":false,"is_disabled":false,"rental_uris":{"android":"levelo://app?vid=639a4c3e-bcca-4436-a2bd-00d15d5c46b9","ios":"levelo://app?vid=639a4c3e-bcca-4436-a2bd-00d15d5c46b9"},"vehicle_type_id":"4","last_reported":1706976533,"current_range_meters":12800,"station_id":"ce4bgup2rcd13ifvqcn0","pricing_plan_id":"free"},{"bike_id":"68740613-038a-4abc-b602-45285c4bde66","system_id":"levelo_inurba_marseille","lat":43.301429,"lon":5.37413,"is_reserved":false,"is_disabled":false,"rental_uris":{"android":"levelo://app?vid=68740613-038a-4abc-b602-45285c4bde66","ios":"levelo://app?vid=68740613-038a-4abc-b602-45285c4bde66"},"vehicle_type_id":"4","last_reported":1706976533,"current_range_meters":23200,"station_id":"ce4bgs92rcd13ifvqcc0","pricing_plan_id":"free"},{"bike_id":"3fe67b46-a2bc-4849-9db0-27b8ec2f83e8","system_id":"levelo_inurba_marseille","lat":43.30143,"lon":5.37413,"is_reserved":false,"is_disabled":false,"rental_uris":{"android":"levelo://app?vid=3fe67b46-a2bc-4849-9db0-27b8ec2f83e8","ios":"levelo://app?vid=3fe67b46-a2bc-4849-9db0-27b8ec2f83e8"},"vehicle_type_id":"4","last_reported":1706976533,"current_range_meters":800,"station_id":"ce4bgs92rcd13ifvqcc0","pricing_plan_id":"free"},{"bike_id":"245843ad-bfeb-465e-a2d5-e97ffa7d3f53","system_id":"levelo_inurba_marseille","lat":43.31362,"lon":5.38476,"is_reserved":false,"is_disabled":false,"rental_uris":{"android":"levelo://app?vid=245843ad-bfeb-465e-a2d5-e97ffa7d3f53","ios":"levelo://app?vid=245843ad-bfeb-465e-a2d5-e97ffa7d3f53"},"vehicle_type_id":"4","last_reported":1706976533,"current_range_meters":29200,"station_id":"ce4bgt92rcd13ifvqcf0","pricing_plan_id":"free"},{"bike_id":"89e04beb-5ab6-4e6f-87d3-9f5a263490ed","system_id":"levelo_inurba_marseille","lat":43.29841,"lon":5.3627,"is_reserved":false,"is_disabled":false,"rental_uris":{"android":"levelo://app?vid=89e04beb-5ab6-4e6f-87d3-9f5a263490ed","ios":"levelo://app?vid=89e04beb-5ab6-4e6f-87d3-9f5a263490ed"},"vehicle_type_id":"4","last_reported":1706976533,"current_range_meters":0,"station_id":"ce4bgpp2rcd13ifvqc3g","pricing_plan_id":"free"},{"bike_id":"42b74482-c050-4d2d-9c8e-d4ebe1eb1e2d","system_id":"levelo_inurba_marseille","lat":43.322872,"lon":5.382756,"is_reserved":false,"is_disabled":false,"rental_uris":{"android":"levelo://app?vid=42b74482-c050-4d2d-9c8e-d4ebe1eb1e2d","ios":"levelo://app?vid=42b74482-c050-4d2d-9c8e-d4ebe1eb1e2d"},"vehicle_type_id":"4","last_reported":1706976533,"current_range_meters":28000,"station_id":"ce4bhr12rcd13ifvqhqg","pricing_plan_id":"free"},{"bike_id":"8b023912-5267-4e1c-a403-4d70b425cebe","system_id":"levelo_inurba_marseille","lat":43.322872,"lon":5.382756,"is_reserved":false,"is_disabled":false,"rental_uris":{"android":"levelo://app?vid=8b023912-5267-4e1c-a403-4d70b425cebe","ios":"levelo://app?vid=8b023912-5267-4e1c-a403-4d70b425cebe"},"vehicle_type_id":"4","last_reported":1706976533,"current_range_meters":30000,"station_id":"ce4bhr12rcd13ifvqhqg","pricing_plan_id":"free"},{"bike_id":"757c94ef-0260-4e65-8f42-9a2ff02436ff","system_id":"levelo_inurba_marseille","lat":43.32822,"lon":5.36676,"is_reserved":false,"is_disabled":false,"rental_uris":{"android":"levelo://app?vid=757c94ef-0260-4e65-8f42-9a2ff02436ff","ios":"levelo://app?vid=757c94ef-0260-4e65-8f42-9a2ff02436ff"},"vehicle_type_id":"4","last_reported":1706976533,"current_range_meters":400,"station_id":"ce4bhs92rcd13ifvqi0g","pricing_plan_id":"free"},{"bike_id":"0249c266-74a2-4238-9280-406529c4d484","system_id":"levelo_inurba_marseille","lat":43.328371,"lon":5.366909,"is_reserved":false,"is_disabled":false,"rental_uris":{"android":"levelo://app?vid=0249c266-74a2-4238-9280-406529c4d484","ios":"levelo://app?vid=0249c266-74a2-4238-9280-406529c4d484"},"vehicle_type_id":"4","last_reported":1706976533,"current_range_meters":23200,"station_id":"ce4bhs92rcd13ifvqi0g","pricing_plan_id":"free"},{"bike_id":"1900e2ea-9239-49b1-933e-57903fa99707","system_id":"levelo_inurba_marseille","lat":43.32826,"lon":5.36695,"is_reserved":false,"is_disabled":false,"rental_uris":{"android":"levelo://app?vid=1900e2ea-9239-49b1-933e-57903fa99707","ios":"levelo://app?vid=1900e2ea-9239-49b1-933e-57903fa99707"},"vehicle_type_id":"4","last_reported":1706976533,"current_range_meters":14400,"station_id":"ce4bhs92rcd13ifvqi0g","pricing_plan_id":"free"},{"bike_id":"681af831-2de5-4880-a072-d1ea4a907bf9","system_id":"levelo_inurba_marseille","lat":43.328371,"lon":5.366909,"is_reserved":false,"is_disabled":false,"rental_uris":{"android":"levelo://app?vid=681af831-2de5-4880-a072-d1ea4a907bf9","ios":"levelo://app?vid=681af831-2de5-4880-a072-d1ea4a907bf9"},"vehicle_type_id":"4","last_reported":1706976533,"current_range_meters":14800,"station_id":"ce4bhs92rcd13ifvqi0g","pricing_plan_id":"free"},{"bike_id":"be4d936a-ff9b-4c00-a254-3f5f3221bb6a","system_id":"levelo_inurba_marseille","lat":43.328371,"lon":5.366909,"is_reserved":false,"is_disabled":false,"rental_uris":{"android":"levelo://app?vid=be4d936a-ff9b-4c00-a254-3f5f3221bb6a","ios":"levelo://app?vid=be4d936a-ff9b-4c00-a254-3f5f3221bb6a"},"vehicle_type_id":"4","last_reported":1706976533,"current_range_meters":16400,"station_id":"ce4bhs92rcd13ifvqi0g","pricing_plan_id":"free"},{"bike_id":"e6dd00ea-9cad-4044-800a-7e90ad8c2a7f","system_id":"levelo_inurba_marseille","lat":43.328274,"lon":5.36682,"is_reserved":false,"is_disabled":false,"rental_uris":{"android":"levelo://app?vid=e6dd00ea-9cad-4044-800a-7e90ad8c2a7f","ios":"levelo://app?vid=e6dd00ea-9cad-4044-800a-7e90ad8c2a7f"},"vehicle_type_id":"4","last_reported":1706976533,"current_range_meters":6800,"station_id":"ce4bhs92rcd13ifvqi0g","pricing_plan_id":"free"},{"bike_id":"cd766519-893f-42bc-9d4d-40ec2595fe3b","system_id":"levelo_inurba_marseille","lat":43.328299,"lon":5.366797,"is_reserved":false,"is_disabled":false,"rental_uris":{"android":"levelo://app?vid=cd766519-893f-42bc-9d4d-40ec2595fe3b","ios":"levelo://app?vid=cd766519-893f-42bc-9d4d-40ec2595fe3b"},"vehicle_type_id":"4","last_reported":1706976533,"current_range_meters":10000,"station_id":"ce4bhs92rcd13ifvqi0g","pricing_plan_id":"free"},{"bike_id":"4c60f124-983d-4709-a95c-31ae5c64ae30","system_id":"levelo_inurba_marseille","lat":43.328305,"lon":5.366804,"is_reserved":false,"is_disabled":false,"rental_uris":{"android":"levelo://app?vid=4c60f124-983d-4709-a95c-31ae5c64ae30","ios":"levelo://app?vid=4c60f124-983d-4709-a95c-31ae5c64ae30"},"vehicle_type_id":"4","last_reported":1706976533,"current_range_meters":800,"station_id":"ce4bhs92rcd13ifvqi0g","pricing_plan_id":"free"},{"bike_id":"3d93fe8e-d71c-4bfd-8828-be44199601a3","system_id":"levelo_inurba_marseille","lat":43.297163,"lon":5.365866,"is_reserved":false,"is_disabled":false,"rental_uris":{"android":"levelo://app?vid=3d93fe8e-d71c-4bfd-8828-be44199601a3","ios":"levelo://app?vid=3d93fe8e-d71c-4bfd-8828-be44199601a3"},"vehicle_type_id":"4","last_reported":1706976533,"current_range_meters":3200,"station_id":"ce4bgn12rcd13ifvqbt0","pricing_plan_id":"free"},{"bike_id":"6a79ba7c-5aa0-488d-b0b1-16e33fe8044f","system_id":"levelo_inurba_marseille","lat":43.29573,"lon":5.367355,"is_reserved":false,"is_disabled":false,"rental_uris":{"android":"levelo://app?vid=6a79ba7c-5aa0-488d-b0b1-16e33fe8044f","ios":"levelo://app?vid=6a79ba7c-5aa0-488d-b0b1-16e33fe8044f"},"vehicle_type_id":"4","last_reported":1706976533,"current_range_meters":21600,"station_id":"ce4bgph2rcd13ifvqc2g","pricing_plan_id":"free"},{"bike_id":"83f6767a-3668-4aca-9807-2fda2e569bad","system_id":"levelo_inurba_marseille","lat":43.29573,"lon":5.367355,"is_reserved":false,"is_disabled":false,"rental_uris":{"android":"levelo://app?vid=83f6767a-3668-4aca-9807-2fda2e569bad","ios":"levelo://app?vid=83f6767a-3668-4aca-9807-2fda2e569bad"},"vehicle_type_id":"4","last_reported":1706976533,"current_range_meters":17600,"station_id":"ce4bgph2rcd13ifvqc2g","pricing_plan_id":"free"},{"bike_id":"ed3c3e34-0f02-4461-bca4-425624e9cc79","system_id":"levelo_inurba_marseille","lat":43.299028,"lon":5.381509,"is_reserved":false,"is_disabled":false,"rental_uris":{"android":"levelo://app?vid=ed3c3e34-0f02-4461-bca4-425624e9cc79","ios":"levelo://app?vid=ed3c3e34-0f02-4461-bca4-425624e9cc79"},"vehicle_type_id":"4","last_reported":1706976533,"current_range_meters":20000,"station_id":"ce4bgj12rcd13ifvqbc0","pricing_plan_id":"free"},{"bike_id":"aa9e87e8-1ef2-4f3a-b694-362549a2a571","system_id":"levelo_inurba_marseille","lat":43.299028,"lon":5.381509,"is_reserved":false,"is_disabled":false,"rental_uris":{"android":"levelo://app?vid=aa9e87e8-1ef2-4f3a-b694-362549a2a571","ios":"levelo://app?vid=aa9e87e8-1ef2-4f3a-b694-362549a2a571"},"vehicle_type_id":"4","last_reported":1706976533,"current_range_meters":21600,"station_id":"ce4bgj12rcd13ifvqbc0","pricing_plan_id":"free"},{"bike_id":"106fe314-0813-4817-8722-724f217949ab","system_id":"levelo_inurba_marseille","lat":43.31754,"lon":5.39018,"is_reserved":false,"is_disabled":false,"rental_uris":{"android":"levelo://app?vid=106fe314-0813-4817-8722-724f217949ab","ios":"levelo://app?vid=106fe314-0813-4817-8722-724f217949ab"},"vehicle_type_id":"4","last_reported":1706976533,"current_range_meters":23600,"station_id":"ce4bhqp2rcd13ifvqhng","pricing_plan_id":"free"},{"bike_id":"86eba5ee-3f3e-465e-879d-a26eca611b6f","system_id":"levelo_inurba_marseille","lat":43.31824,"lon":5.39013,"is_reserved":false,"is_disabled":false,"rental_uris":{"android":"levelo://app?vid=86eba5ee-3f3e-465e-879d-a26eca611b6f","ios":"levelo://app?vid=86eba5ee-3f3e-465e-879d-a26eca611b6f"},"vehicle_type_id":"4","last_reported":1706976533,"current_range_meters":21200,"station_id":"","pricing_plan_id":"free"},{"bike_id":"a7e90caf-d901-466d-aceb-e73882c34d21","system_id":"levelo_inurba_marseille","lat":43.298037,"lon":5.381066,"is_reserved":false,"is_disabled":false,"rental_uris":{"android":"levelo://app?vid=a7e90caf-d901-466d-aceb-e73882c34d21","ios":"levelo://app?vid=a7e90caf-d901-466d-aceb-e73882c34d21"},"vehicle_type_id":"4","last_reported":1706976533,"current_range_meters":1200,"station_id":"ce4bgip2rcd13ifvqbb0","pricing_plan_id":"free"},{"bike_id":"9f07158d-6a2d-4e81-95ba-e339fae430a8","system_id":"levelo_inurba_marseille","lat":43.29568,"lon":5.37515,"is_reserved":false,"is_disabled":false,"rental_uris":{"android":"levelo://app?vid=9f07158d-6a2d-4e81-95ba-e339fae430a8","ios":"levelo://app?vid=9f07158d-6a2d-4e81-95ba-e339fae430a8"},"vehicle_type_id":"4","last_reported":1706976533,"current_range_meters":0,"station_id":"ce4bgh92rcd13ifvqb50","pricing_plan_id":"free"},{"bike_id":"479f97f7-e150-467f-b0b1-4d038abffe76","system_id":"levelo_inurba_marseille","lat":43.304274,"lon":5.388873,"is_reserved":false,"is_disabled":false,"rental_uris":{"android":"levelo://app?vid=479f97f7-e150-467f-b0b1-4d038abffe76","ios":"levelo://app?vid=479f97f7-e150-467f-b0b1-4d038abffe76"},"vehicle_type_id":"4","last_reported":1706976533,"current_range_meters":22400,"station_id":"ce4bgk12rcd13ifvqbi0","pricing_plan_id":"free"},{"bike_id":"ca0a0875-6f74-4ad8-ae62-6d81fc8a197d","system_id":"levelo_inurba_marseille","lat":43.296263,"lon":5.377094,"is_reserved":false,"is_disabled":false,"rental_uris":{"android":"levelo://app?vid=ca0a0875-6f74-4ad8-ae62-6d81fc8a197d","ios":"levelo://app?vid=ca0a0875-6f74-4ad8-ae62-6d81fc8a197d"},"vehicle_type_id":"4","last_reported":1706976533,"current_range_meters":800,"station_id":"ce4bgi92rcd13ifvqb90","pricing_plan_id":"free"},{"bike_id":"f0573075-89cb-458c-97ef-c44b3a23c833","system_id":"levelo_inurba_marseille","lat":43.296263,"lon":5.377094,"is_reserved":false,"is_disabled":false,"rental_uris":{"android":"levelo://app?vid=f0573075-89cb-458c-97ef-c44b3a23c833","ios":"levelo://app?vid=f0573075-89cb-458c-97ef-c44b3a23c833"},"vehicle_type_id":"4","last_reported":1706976533,"current_range_meters":10800,"station_id":"ce4bgi92rcd13ifvqb90","pricing_plan_id":"free"},{"bike_id":"5b87bbd3-1c30-4570-baac-0957f6fb3abc","system_id":"levelo_inurba_marseille","lat":43.32367,"lon":5.388836,"is_reserved":false,"is_disabled":false,"rental_uris":{"android":"levelo://app?vid=5b87bbd3-1c30-4570-baac-0957f6fb3abc","ios":"levelo://app?vid=5b87bbd3-1c30-4570-baac-0957f6fb3abc"},"vehicle_type_id":"4","last_reported":1706976533,"current_range_meters":2800,"station_id":"ce4bhqp2rcd13ifvqhog","pricing_plan_id":"free"},{"bike_id":"c6478534-8a92-48aa-87e2-bf565bc04fb6","system_id":"levelo_inurba_marseille","lat":43.32364,"lon":5.38876,"is_reserved":false,"is_disabled":false,"rental_uris":{"android":"levelo://app?vid=c6478534-8a92-48aa-87e2-bf565bc04fb6","ios":"levelo://app?vid=c6478534-8a92-48aa-87e2-bf565bc04fb6"},"vehicle_type_id":"4","last_reported":1706976533,"current_range_meters":6800,"station_id":"ce4bhqp2rcd13ifvqhog","pricing_plan_id":"free"},{"bike_id":"6000f0dc-1f4b-4a79-83b1-26d1a94d5811","system_id":"levelo_inurba_marseille","lat":43.32361,"lon":5.38879,"is_reserved":false,"is_disabled":false,"rental_uris":{"android":"levelo://app?vid=6000f0dc-1f4b-4a79-83b1-26d1a94d5811","ios":"levelo://app?vid=6000f0dc-1f4b-4a79-83b1-26d1a94d5811"},"vehicle_type_id":"4","last_reported":1706976533,"current_range_meters":6800,"station_id":"ce4bhqp2rcd13ifvqhog","pricing_plan_id":"free"},{"bike_id":"bd7baa57-26d7-4c18-b549-ec7ad71dded2","system_id":"levelo_inurba_marseille","lat":43.311024,"lon":5.3933,"is_reserved":false,"is_disabled":false,"rental_uris":{"android":"levelo://app?vid=bd7baa57-26d7-4c18-b549-ec7ad71dded2","ios":"levelo://app?vid=bd7baa57-26d7-4c18-b549-ec7ad71dded2"},"vehicle_type_id":"4","last_reported":1706976533,"current_range_meters":0,"station_id":"","pricing_plan_id":"free"},{"bike_id":"f7f8fbd6-aac4-479c-9229-6747d802c06f","system_id":"levelo_inurba_marseille","lat":43.32363,"lon":5.38881,"is_reserved":false,"is_disabled":false,"rental_uris":{"android":"levelo://app?vid=f7f8fbd6-aac4-479c-9229-6747d802c06f","ios":"levelo://app?vid=f7f8fbd6-aac4-479c-9229-6747d802c06f"},"vehicle_type_id":"4","last_reported":1706976533,"current_range_meters":2000,"station_id":"ce4bhqp2rcd13ifvqhog","pricing_plan_id":"free"},{"bike_id":"1aca591f-66c1-4cab-8b35-fdb227e8bbbc","system_id":"levelo_inurba_marseille","lat":43.32367,"lon":5.388836,"is_reserved":false,"is_disabled":false,"rental_uris":{"android":"levelo://app?vid=1aca591f-66c1-4cab-8b35-fdb227e8bbbc","ios":"levelo://app?vid=1aca591f-66c1-4cab-8b35-fdb227e8bbbc"},"vehicle_type_id":"4","last_reported":1706976533,"current_range_meters":30400,"station_id":"ce4bhqp2rcd13ifvqhog","pricing_plan_id":"free"},{"bike_id":"9b081c91-637e-47ff-a6d8-ba13bb5f1be4","system_id":"levelo_inurba_marseille","lat":43.32367,"lon":5.388836,"is_reserved":false,"is_disabled":false,"rental_uris":{"android":"levelo://app?vid=9b081c91-637e-47ff-a6d8-ba13bb5f1be4","ios":"levelo://app?vid=9b081c91-637e-47ff-a6d8-ba13bb5f1be4"},"vehicle_type_id":"4","last_reported":1706976533,"current_range_meters":30800,"station_id":"ce4bhqp2rcd13ifvqhog","pricing_plan_id":"free"},{"bike_id":"9d5ab8ce-362b-4e90-b7d9-93b5c9d560df","system_id":"levelo_inurba_marseille","lat":43.29602,"lon":5.381084,"is_reserved":false,"is_disabled":false,"rental_uris":{"android":"levelo://app?vid=9d5ab8ce-362b-4e90-b7d9-93b5c9d560df","ios":"levelo://app?vid=9d5ab8ce-362b-4e90-b7d9-93b5c9d560df"},"vehicle_type_id":"4","last_reported":1706976533,"current_range_meters":14800,"station_id":"ce4bgl12rcd13ifvqbo0","pricing_plan_id":"free"},{"bike_id":"57d7f2ec-1264-46d7-9c5a-5db957cdcc7b","system_id":"levelo_inurba_marseille","lat":43.29601,"lon":5.381084,"is_reserved":false,"is_disabled":false,"rental_uris":{"android":"levelo://app?vid=57d7f2ec-1264-46d7-9c5a-5db957cdcc7b","ios":"levelo://app?vid=57d7f2ec-1264-46d7-9c5a-5db957cdcc7b"},"vehicle_type_id":"4","last_reported":1706976533,"current_range_meters":31200,"station_id":"ce4bgl12rcd13ifvqbo0","pricing_plan_id":"free"},{"bike_id":"e9b449e1-ce7a-4949-b288-6b3f2abca048","system_id":"levelo_inurba_marseille","lat":43.292745,"lon":5.368523,"is_reserved":false,"is_disabled":false,"rental_uris":{"android":"levelo://app?vid=e9b449e1-ce7a-4949-b288-6b3f2abca048","ios":"levelo://app?vid=e9b449e1-ce7a-4949-b288-6b3f2abca048"},"vehicle_type_id":"4","last_reported":1706976533,"current_range_meters":7600,"station_id":"ce4bhbp2rcd13ifvqesg","pricing_plan_id":"free"},{"bike_id":"05c47222-51c1-436d-84d4-3200f7a42fe0","system_id":"levelo_inurba_marseille","lat":43.292749,"lon":5.368402,"is_reserved":false,"is_disabled":false,"rental_uris":{"android":"levelo://app?vid=05c47222-51c1-436d-84d4-3200f7a42fe0","ios":"levelo://app?vid=05c47222-51c1-436d-84d4-3200f7a42fe0"},"vehicle_type_id":"4","last_reported":1706976533,"current_range_meters":6800,"station_id":"ce4bhbp2rcd13ifvqesg","pricing_plan_id":"free"},{"bike_id":"30d734d1-cde3-41dd-99a9-d732e6cd0369","system_id":"levelo_inurba_marseille","lat":43.29273,"lon":5.36847,"is_reserved":false,"is_disabled":false,"rental_uris":{"android":"levelo://app?vid=30d734d1-cde3-41dd-99a9-d732e6cd0369","ios":"levelo://app?vid=30d734d1-cde3-41dd-99a9-d732e6cd0369"},"vehicle_type_id":"4","last_reported":1706976533,"current_range_meters":16000,"station_id":"ce4bhbp2rcd13ifvqesg","pricing_plan_id":"free"},{"bike_id":"e9f4acbe-aa62-41ef-80f6-56b90053ff96","system_id":"levelo_inurba_marseille","lat":43.292749,"lon":5.368402,"is_reserved":false,"is_disabled":false,"rental_uris":{"android":"levelo://app?vid=e9f4acbe-aa62-41ef-80f6-56b90053ff96","ios":"levelo://app?vid=e9f4acbe-aa62-41ef-80f6-56b90053ff96"},"vehicle_type_id":"4","last_reported":1706976533,"current_range_meters":4400,"station_id":"ce4bhbp2rcd13ifvqesg","pricing_plan_id":"free"},{"bike_id":"d016590c-0969-4fce-aba5-3a463ee1b8b7","system_id":"levelo_inurba_marseille","lat":43.292749,"lon":5.368402,"is_reserved":false,"is_disabled":false,"rental_uris":{"android":"levelo://app?vid=d016590c-0969-4fce-aba5-3a463ee1b8b7","ios":"levelo://app?vid=d016590c-0969-4fce-aba5-3a463ee1b8b7"},"vehicle_type_id":"4","last_reported":1706976533,"current_range_meters":14800,"station_id":"ce4bhbp2rcd13ifvqesg","pricing_plan_id":"free"},{"bike_id":"8cac4494-d2d5-4fe6-a433-c062e3372cbf","system_id":"levelo_inurba_marseille","lat":43.30306,"lon":5.39212,"is_reserved":false,"is_disabled":false,"rental_uris":{"android":"levelo://app?vid=8cac4494-d2d5-4fe6-a433-c062e3372cbf","ios":"levelo://app?vid=8cac4494-d2d5-4fe6-a433-c062e3372cbf"},"vehicle_type_id":"4","last_reported":1706976533,"current_range_meters":27600,"station_id":"ce4bgkh2rcd13ifvqbk0","pricing_plan_id":"free"},{"bike_id":"b2ab767c-0918-460c-9f23-61003a04e925","system_id":"levelo_inurba_marseille","lat":43.300852,"lon":5.390859,"is_reserved":false,"is_disabled":false,"rental_uris":{"android":"levelo://app?vid=b2ab767c-0918-460c-9f23-61003a04e925","ios":"levelo://app?vid=b2ab767c-0918-460c-9f23-61003a04e925"},"vehicle_type_id":"4","last_reported":1706976533,"current_range_meters":0,"station_id":"ce4bh192rcd13ifvqdb0","pricing_plan_id":"free"},{"bike_id":"f20ebac8-851c-4e23-93e7-e3113c7f799a","system_id":"levelo_inurba_marseille","lat":43.293009,"lon":5.374584,"is_reserved":false,"is_disabled":false,"rental_uris":{"android":"levelo://app?vid=f20ebac8-851c-4e23-93e7-e3113c7f799a","ios":"levelo://app?vid=f20ebac8-851c-4e23-93e7-e3113c7f799a"},"vehicle_type_id":"4","last_reported":1706976533,"current_range_meters":12400,"station_id":"ce4bgi12rcd13ifvqb70","pricing_plan_id":"free"},{"bike_id":"90190fbd-f073-40ac-aeec-1c5257224979","system_id":"levelo_inurba_marseille","lat":43.292311,"lon":5.360731,"is_reserved":false,"is_disabled":false,"rental_uris":{"android":"levelo://app?vid=90190fbd-f073-40ac-aeec-1c5257224979","ios":"levelo://app?vid=90190fbd-f073-40ac-aeec-1c5257224979"},"vehicle_type_id":"4","last_reported":1706976533,"current_range_meters":400,"station_id":"ce4bhbh2rcd13ifvqeqg","pricing_plan_id":"free"},{"bike_id":"447c6f74-4369-4f45-af2e-16475b204aa1","system_id":"levelo_inurba_marseille","lat":43.291671,"lon":5.371575,"is_reserved":false,"is_disabled":false,"rental_uris":{"android":"levelo://app?vid=447c6f74-4369-4f45-af2e-16475b204aa1","ios":"levelo://app?vid=447c6f74-4369-4f45-af2e-16475b204aa1"},"vehicle_type_id":"4","last_reported":1706976533,"current_range_meters":20000,"station_id":"ce4bha92rcd13ifvqeh0","pricing_plan_id":"free"},{"bike_id":"89182b56-1501-4349-b5f5-4e656b1f8aeb","system_id":"levelo_inurba_marseille","lat":43.313268,"lon":5.396859,"is_reserved":false,"is_disabled":false,"rental_uris":{"android":"levelo://app?vid=89182b56-1501-4349-b5f5-4e656b1f8aeb","ios":"levelo://app?vid=89182b56-1501-4349-b5f5-4e656b1f8aeb"},"vehicle_type_id":"4","last_reported":1706976533,"current_range_meters":29600,"station_id":"","pricing_plan_id":"free"},{"bike_id":"385cce40-55a3-43b8-a035-9dc360438cdd","system_id":"levelo_inurba_marseille","lat":43.308846,"lon":5.396385,"is_reserved":false,"is_disabled":false,"rental_uris":{"android":"levelo://app?vid=385cce40-55a3-43b8-a035-9dc360438cdd","ios":"levelo://app?vid=385cce40-55a3-43b8-a035-9dc360438cdd"},"vehicle_type_id":"4","last_reported":1706976533,"current_range_meters":0,"station_id":"ce4bh012rcd13ifvqcv0","pricing_plan_id":"free"},{"bike_id":"0e42796f-e552-4369-8092-90e8640fc672","system_id":"levelo_inurba_marseille","lat":43.3133,"lon":5.39691,"is_reserved":false,"is_disabled":false,"rental_uris":{"android":"levelo://app?vid=0e42796f-e552-4369-8092-90e8640fc672","ios":"levelo://app?vid=0e42796f-e552-4369-8092-90e8640fc672"},"vehicle_type_id":"4","last_reported":1706976533,"current_range_meters":25200,"station_id":"ce4bgvp2rcd13ifvqcu0","pricing_plan_id":"free"},{"bike_id":"85acc7d0-6b3c-412f-b1a2-1cf6b89daa53","system_id":"levelo_inurba_marseille","lat":43.2919,"lon":5.35798,"is_reserved":false,"is_disabled":false,"rental_uris":{"android":"levelo://app?vid=85acc7d0-6b3c-412f-b1a2-1cf6b89daa53","ios":"levelo://app?vid=85acc7d0-6b3c-412f-b1a2-1cf6b89daa53"},"vehicle_type_id":"4","last_reported":1706976533,"current_range_meters":0,"station_id":"ce4bhb12rcd13ifvqel0","pricing_plan_id":"free"},{"bike_id":"403a58ed-b8c2-4a35-a452-dd211205ee71","system_id":"levelo_inurba_marseille","lat":43.31331,"lon":5.39693,"is_reserved":false,"is_disabled":false,"rental_uris":{"android":"levelo://app?vid=403a58ed-b8c2-4a35-a452-dd211205ee71","ios":"levelo://app?vid=403a58ed-b8c2-4a35-a452-dd211205ee71"},"vehicle_type_id":"4","last_reported":1706976533,"current_range_meters":23200,"station_id":"ce4bgvp2rcd13ifvqcu0","pricing_plan_id":"free"},{"bike_id":"7f07a0ad-a4d1-41f4-8119-62d5cafbfdd2","system_id":"levelo_inurba_marseille","lat":43.313254,"lon":5.396933,"is_reserved":false,"is_disabled":false,"rental_uris":{"android":"levelo://app?vid=7f07a0ad-a4d1-41f4-8119-62d5cafbfdd2","ios":"levelo://app?vid=7f07a0ad-a4d1-41f4-8119-62d5cafbfdd2"},"vehicle_type_id":"4","last_reported":1706976533,"current_range_meters":25200,"station_id":"ce4bgvp2rcd13ifvqcu0","pricing_plan_id":"free"},{"bike_id":"c95ee4b8-2f00-4d5b-8a62-f2da9d4fde89","system_id":"levelo_inurba_marseille","lat":43.309038,"lon":5.396546,"is_reserved":false,"is_disabled":false,"rental_uris":{"android":"levelo://app?vid=c95ee4b8-2f00-4d5b-8a62-f2da9d4fde89","ios":"levelo://app?vid=c95ee4b8-2f00-4d5b-8a62-f2da9d4fde89"},"vehicle_type_id":"4","last_reported":1706976533,"current_range_meters":25200,"station_id":"ce4bh012rcd13ifvqcv0","pricing_plan_id":"free"},{"bike_id":"2b3a9ca1-b204-4961-96de-4bb4ad008bb4","system_id":"levelo_inurba_marseille","lat":43.31326,"lon":5.39698,"is_reserved":false,"is_disabled":false,"rental_uris":{"android":"levelo://app?vid=2b3a9ca1-b204-4961-96de-4bb4ad008bb4","ios":"levelo://app?vid=2b3a9ca1-b204-4961-96de-4bb4ad008bb4"},"vehicle_type_id":"4","last_reported":1706976533,"current_range_meters":2800,"station_id":"ce4bgvp2rcd13ifvqcu0","pricing_plan_id":"free"},{"bike_id":"254cd63f-e1e8-43be-9a0a-2f9a9951ed90","system_id":"levelo_inurba_marseille","lat":43.309038,"lon":5.396546,"is_reserved":false,"is_disabled":false,"rental_uris":{"android":"levelo://app?vid=254cd63f-e1e8-43be-9a0a-2f9a9951ed90","ios":"levelo://app?vid=254cd63f-e1e8-43be-9a0a-2f9a9951ed90"},"vehicle_type_id":"4","last_reported":1706976533,"current_range_meters":13200,"station_id":"ce4bh012rcd13ifvqcv0","pricing_plan_id":"free"},{"bike_id":"ce6f842b-58d8-488c-a25e-c04f560b492c","system_id":"levelo_inurba_marseille","lat":43.29529,"lon":5.385581,"is_reserved":false,"is_disabled":false,"rental_uris":{"android":"levelo://app?vid=ce6f842b-58d8-488c-a25e-c04f560b492c","ios":"levelo://app?vid=ce6f842b-58d8-488c-a25e-c04f560b492c"},"vehicle_type_id":"4","last_reported":1706976533,"current_range_meters":5200,"station_id":"ce4bgih2rcd13ifvqba0","pricing_plan_id":"free"},{"bike_id":"54f7a567-c876-4280-911c-ab45c288c0c7","system_id":"levelo_inurba_marseille","lat":43.290779,"lon":5.371482,"is_reserved":false,"is_disabled":false,"rental_uris":{"android":"levelo://app?vid=54f7a567-c876-4280-911c-ab45c288c0c7","ios":"levelo://app?vid=54f7a567-c876-4280-911c-ab45c288c0c7"},"vehicle_type_id":"4","last_reported":1706976533,"current_range_meters":1200,"station_id":"ce4bh5p2rcd13ifvqe4g","pricing_plan_id":"free"},{"bike_id":"56af6464-6273-4ae4-9608-4d9e51c0fdff","system_id":"levelo_inurba_marseille","lat":43.302008,"lon":5.394694,"is_reserved":false,"is_disabled":false,"rental_uris":{"android":"levelo://app?vid=56af6464-6273-4ae4-9608-4d9e51c0fdff","ios":"levelo://app?vid=56af6464-6273-4ae4-9608-4d9e51c0fdff"},"vehicle_type_id":"4","last_reported":1706976533,"current_range_meters":8000,"station_id":"ce4bh0p2rcd13ifvqd70","pricing_plan_id":"free"},{"bike_id":"7c755874-04f4-49a7-881c-3dccfea2f0df","system_id":"levelo_inurba_marseille","lat":43.290441,"lon":5.359123,"is_reserved":false,"is_disabled":false,"rental_uris":{"android":"levelo://app?vid=7c755874-04f4-49a7-881c-3dccfea2f0df","ios":"levelo://app?vid=7c755874-04f4-49a7-881c-3dccfea2f0df"},"vehicle_type_id":"4","last_reported":1706976533,"current_range_meters":2000,"station_id":"","pricing_plan_id":"free"},{"bike_id":"bdf477bc-8acc-4ce4-a7c8-4764b12411c1","system_id":"levelo_inurba_marseille","lat":43.294153,"lon":5.386305,"is_reserved":false,"is_disabled":false,"rental_uris":{"android":"levelo://app?vid=bdf477bc-8acc-4ce4-a7c8-4764b12411c1","ios":"levelo://app?vid=bdf477bc-8acc-4ce4-a7c8-4764b12411c1"},"vehicle_type_id":"4","last_reported":1706976533,"current_range_meters":4400,"station_id":"ce4bh2h2rcd13ifvqdh0","pricing_plan_id":"free"},{"bike_id":"58baef54-e0ed-494b-88ce-fb7f74ad99a8","system_id":"levelo_inurba_marseille","lat":43.290327,"lon":5.375711,"is_reserved":false,"is_disabled":false,"rental_uris":{"android":"levelo://app?vid=58baef54-e0ed-494b-88ce-fb7f74ad99a8","ios":"levelo://app?vid=58baef54-e0ed-494b-88ce-fb7f74ad99a8"},"vehicle_type_id":"4","last_reported":1706976533,"current_range_meters":6000,"station_id":"ce4bh692rcd13ifvqe90","pricing_plan_id":"free"},{"bike_id":"1a413eb8-476b-40ba-8ce7-d351d7167122","system_id":"levelo_inurba_marseille","lat":43.290327,"lon":5.375711,"is_reserved":false,"is_disabled":false,"rental_uris":{"android":"levelo://app?vid=1a413eb8-476b-40ba-8ce7-d351d7167122","ios":"levelo://app?vid=1a413eb8-476b-40ba-8ce7-d351d7167122"},"vehicle_type_id":"4","last_reported":1706976533,"current_range_meters":25600,"station_id":"ce4bh692rcd13ifvqe90","pricing_plan_id":"free"},{"bike_id":"f17f3900-702f-447d-826f-bfeee0e359ef","system_id":"levelo_inurba_marseille","lat":43.294162,"lon":5.386292,"is_reserved":false,"is_disabled":false,"rental_uris":{"android":"levelo://app?vid=f17f3900-702f-447d-826f-bfeee0e359ef","ios":"levelo://app?vid=f17f3900-702f-447d-826f-bfeee0e359ef"},"vehicle_type_id":"4","last_reported":1706976533,"current_range_meters":20800,"station_id":"ce4bh2h2rcd13ifvqdh0","pricing_plan_id":"free"},{"bike_id":"15bcc778-adfc-4fa6-b7c2-794ada519a5a","system_id":"levelo_inurba_marseille","lat":43.290327,"lon":5.375711,"is_reserved":false,"is_disabled":false,"rental_uris":{"android":"levelo://app?vid=15bcc778-adfc-4fa6-b7c2-794ada519a5a","ios":"levelo://app?vid=15bcc778-adfc-4fa6-b7c2-794ada519a5a"},"vehicle_type_id":"4","last_reported":1706976533,"current_range_meters":16000,"station_id":"ce4bh692rcd13ifvqe90","pricing_plan_id":"free"},{"bike_id":"36fa39c8-65fd-40cb-a311-6cc8fa699c40","system_id":"levelo_inurba_marseille","lat":43.294162,"lon":5.386292,"is_reserved":false,"is_disabled":false,"rental_uris":{"android":"levelo://app?vid=36fa39c8-65fd-40cb-a311-6cc8fa699c40","ios":"levelo://app?vid=36fa39c8-65fd-40cb-a311-6cc8fa699c40"},"vehicle_type_id":"4","last_reported":1706976533,"current_range_meters":19600,"station_id":"ce4bh2h2rcd13ifvqdh0","pricing_plan_id":"free"},{"bike_id":"01764097-efc2-4bf5-9a9a-69c269710e26","system_id":"levelo_inurba_marseille","lat":43.289184,"lon":5.366408,"is_reserved":false,"is_disabled":false,"rental_uris":{"android":"levelo://app?vid=01764097-efc2-4bf5-9a9a-69c269710e26","ios":"levelo://app?vid=01764097-efc2-4bf5-9a9a-69c269710e26"},"vehicle_type_id":"4","last_reported":1706976533,"current_range_meters":1600,"station_id":"ce4bhap2rcd13ifvqek0","pricing_plan_id":"free"},{"bike_id":"50e9fde4-1cb0-49f2-9437-7f73535913ae","system_id":"levelo_inurba_marseille","lat":43.304296,"lon":5.397513,"is_reserved":false,"is_disabled":false,"rental_uris":{"android":"levelo://app?vid=50e9fde4-1cb0-49f2-9437-7f73535913ae","ios":"levelo://app?vid=50e9fde4-1cb0-49f2-9437-7f73535913ae"},"vehicle_type_id":"4","last_reported":1706976533,"current_range_meters":23200,"station_id":"ce4bh092rcd13ifvqd20","pricing_plan_id":"free"},{"bike_id":"f9d5d05c-03c7-490f-94f5-7f3e107031f5","system_id":"levelo_inurba_marseille","lat":43.317557,"lon":5.390173,"is_reserved":false,"is_disabled":false,"rental_uris":{"android":"levelo://app?vid=f9d5d05c-03c7-490f-94f5-7f3e107031f5","ios":"levelo://app?vid=f9d5d05c-03c7-490f-94f5-7f3e107031f5"},"vehicle_type_id":"4","last_reported":1706976533,"current_range_meters":1600,"station_id":"ce4bhqp2rcd13ifvqhng","pricing_plan_id":"free"},{"bike_id":"af8687d5-5ac4-4d8e-b7bc-c525c1123df6","system_id":"levelo_inurba_marseille","lat":43.290104,"lon":5.356111,"is_reserved":false,"is_disabled":false,"rental_uris":{"android":"levelo://app?vid=af8687d5-5ac4-4d8e-b7bc-c525c1123df6","ios":"levelo://app?vid=af8687d5-5ac4-4d8e-b7bc-c525c1123df6"},"vehicle_type_id":"4","last_reported":1706976533,"current_range_meters":17200,"station_id":"ce4bhb92rcd13ifvqen0","pricing_plan_id":"free"},{"bike_id":"d24046aa-b8a1-4a0f-8adb-d83e00e1e006","system_id":"levelo_inurba_marseille","lat":43.29005,"lon":5.35612,"is_reserved":false,"is_disabled":false,"rental_uris":{"android":"levelo://app?vid=d24046aa-b8a1-4a0f-8adb-d83e00e1e006","ios":"levelo://app?vid=d24046aa-b8a1-4a0f-8adb-d83e00e1e006"},"vehicle_type_id":"4","last_reported":1706976533,"current_range_meters":25600,"station_id":"ce4bhb92rcd13ifvqen0","pricing_plan_id":"free"},{"bike_id":"1a0f6117-1c0a-458d-839c-0d025273725d","system_id":"levelo_inurba_marseille","lat":43.29004,"lon":5.35612,"is_reserved":false,"is_disabled":false,"rental_uris":{"android":"levelo://app?vid=1a0f6117-1c0a-458d-839c-0d025273725d","ios":"levelo://app?vid=1a0f6117-1c0a-458d-839c-0d025273725d"},"vehicle_type_id":"4","last_reported":1706976533,"current_range_meters":11200,"station_id":"ce4bhb92rcd13ifvqen0","pricing_plan_id":"free"},{"bike_id":"5143ee7a-1168-45fb-a137-30a87cc87060","system_id":"levelo_inurba_marseille","lat":43.29004,"lon":5.35608,"is_reserved":false,"is_disabled":false,"rental_uris":{"android":"levelo://app?vid=5143ee7a-1168-45fb-a137-30a87cc87060","ios":"levelo://app?vid=5143ee7a-1168-45fb-a137-30a87cc87060"},"vehicle_type_id":"4","last_reported":1706976533,"current_range_meters":24000,"station_id":"ce4bhb92rcd13ifvqen0","pricing_plan_id":"free"},{"bike_id":"a643c3d7-46fd-4c94-871c-2203f4c2b7cc","system_id":"levelo_inurba_marseille","lat":43.289743,"lon":5.378304,"is_reserved":false,"is_disabled":false,"rental_uris":{"android":"levelo://app?vid=a643c3d7-46fd-4c94-871c-2203f4c2b7cc","ios":"levelo://app?vid=a643c3d7-46fd-4c94-871c-2203f4c2b7cc"},"vehicle_type_id":"4","last_reported":1706976533,"current_range_meters":2400,"station_id":"ce4bh9p2rcd13ifvqed0","pricing_plan_id":"free"},{"bike_id":"b116291d-e3ae-42d4-aeb4-67590c6fbd4c","system_id":"levelo_inurba_marseille","lat":43.28998,"lon":5.35611,"is_reserved":false,"is_disabled":false,"rental_uris":{"android":"levelo://app?vid=b116291d-e3ae-42d4-aeb4-67590c6fbd4c","ios":"levelo://app?vid=b116291d-e3ae-42d4-aeb4-67590c6fbd4c"},"vehicle_type_id":"4","last_reported":1706976533,"current_range_meters":2400,"station_id":"ce4bhb92rcd13ifvqen0","pricing_plan_id":"free"},{"bike_id":"341cf330-780b-4413-a868-8eb78eb76627","system_id":"levelo_inurba_marseille","lat":43.29772,"lon":5.39337,"is_reserved":false,"is_disabled":false,"rental_uris":{"android":"levelo://app?vid=341cf330-780b-4413-a868-8eb78eb76627","ios":"levelo://app?vid=341cf330-780b-4413-a868-8eb78eb76627"},"vehicle_type_id":"4","last_reported":1706976533,"current_range_meters":16400,"station_id":"chh1huq6cuj3fo74tm60","pricing_plan_id":"free"},{"bike_id":"b2ad9a2f-b3b9-41e6-a4dc-0b0347eec2c5","system_id":"levelo_inurba_marseille","lat":43.330442,"lon":5.389148,"is_reserved":false,"is_disabled":false,"rental_uris":{"android":"levelo://app?vid=b2ad9a2f-b3b9-41e6-a4dc-0b0347eec2c5","ios":"levelo://app?vid=b2ad9a2f-b3b9-41e6-a4dc-0b0347eec2c5"},"vehicle_type_id":"4","last_reported":1706976533,"current_range_meters":0,"station_id":"ce4bhr92rcd13ifvqhrg","pricing_plan_id":"free"},{"bike_id":"46aa3855-f548-4a7e-b5af-29c40e22bef0","system_id":"levelo_inurba_marseille","lat":43.330442,"lon":5.389148,"is_reserved":false,"is_disabled":false,"rental_uris":{"android":"levelo://app?vid=46aa3855-f548-4a7e-b5af-29c40e22bef0","ios":"levelo://app?vid=46aa3855-f548-4a7e-b5af-29c40e22bef0"},"vehicle_type_id":"4","last_reported":1706976533,"current_range_meters":26400,"station_id":"ce4bhr92rcd13ifvqhrg","pricing_plan_id":"free"},{"bike_id":"734accf9-f92d-4b23-8b80-c8be2bbba114","system_id":"levelo_inurba_marseille","lat":43.28856,"lon":5.358371,"is_reserved":false,"is_disabled":false,"rental_uris":{"android":"levelo://app?vid=734accf9-f92d-4b23-8b80-c8be2bbba114","ios":"levelo://app?vid=734accf9-f92d-4b23-8b80-c8be2bbba114"},"vehicle_type_id":"4","last_reported":1706976533,"current_range_meters":13200,"station_id":"ce4bhb12rcd13ifvqem0","pricing_plan_id":"free"},{"bike_id":"9b628159-75cb-4047-b1bf-bbe3ae8b658c","system_id":"levelo_inurba_marseille","lat":43.28856,"lon":5.358371,"is_reserved":false,"is_disabled":false,"rental_uris":{"android":"levelo://app?vid=9b628159-75cb-4047-b1bf-bbe3ae8b658c","ios":"levelo://app?vid=9b628159-75cb-4047-b1bf-bbe3ae8b658c"},"vehicle_type_id":"4","last_reported":1706976533,"current_range_meters":12000,"station_id":"ce4bhb12rcd13ifvqem0","pricing_plan_id":"free"},{"bike_id":"c6776248-4950-445f-9307-ae6dd6fb03af","system_id":"levelo_inurba_marseille","lat":43.33738,"lon":5.37457,"is_reserved":false,"is_disabled":false,"rental_uris":{"android":"levelo://app?vid=c6776248-4950-445f-9307-ae6dd6fb03af","ios":"levelo://app?vid=c6776248-4950-445f-9307-ae6dd6fb03af"},"vehicle_type_id":"4","last_reported":1706976533,"current_range_meters":28400,"station_id":"","pricing_plan_id":"free"},{"bike_id":"71cdacff-691a-4c17-b4dc-b288c17c429e","system_id":"levelo_inurba_marseille","lat":43.30642,"lon":5.401031,"is_reserved":false,"is_disabled":false,"rental_uris":{"android":"levelo://app?vid=71cdacff-691a-4c17-b4dc-b288c17c429e","ios":"levelo://app?vid=71cdacff-691a-4c17-b4dc-b288c17c429e"},"vehicle_type_id":"4","last_reported":1706976533,"current_range_meters":4000,"station_id":"ce4bh112rcd13ifvqda0","pricing_plan_id":"free"},{"bike_id":"d476ee8f-163b-46a0-87e8-43947fcbd3df","system_id":"levelo_inurba_marseille","lat":43.312609,"lon":5.401662,"is_reserved":false,"is_disabled":false,"rental_uris":{"android":"levelo://app?vid=d476ee8f-163b-46a0-87e8-43947fcbd3df","ios":"levelo://app?vid=d476ee8f-163b-46a0-87e8-43947fcbd3df"},"vehicle_type_id":"4","last_reported":1706976533,"current_range_meters":9600,"station_id":"ce4bh092rcd13ifvqd30","pricing_plan_id":"free"},{"bike_id":"88905e0c-819d-4d98-bb3a-59a79c434d33","system_id":"levelo_inurba_marseille","lat":43.306412,"lon":5.401035,"is_reserved":false,"is_disabled":false,"rental_uris":{"android":"levelo://app?vid=88905e0c-819d-4d98-bb3a-59a79c434d33","ios":"levelo://app?vid=88905e0c-819d-4d98-bb3a-59a79c434d33"},"vehicle_type_id":"4","last_reported":1706976533,"current_range_meters":16400,"station_id":"ce4bh112rcd13ifvqda0","pricing_plan_id":"free"},{"bike_id":"b5c8cd35-34dd-45ee-b3e7-3050ef3cbe6a","system_id":"levelo_inurba_marseille","lat":43.337673,"lon":5.374918,"is_reserved":false,"is_disabled":false,"rental_uris":{"android":"levelo://app?vid=b5c8cd35-34dd-45ee-b3e7-3050ef3cbe6a","ios":"levelo://app?vid=b5c8cd35-34dd-45ee-b3e7-3050ef3cbe6a"},"vehicle_type_id":"4","last_reported":1706976533,"current_range_meters":15600,"station_id":"","pricing_plan_id":"free"},{"bike_id":"fab757dc-1a4e-42e9-b3d6-683fa9536a73","system_id":"levelo_inurba_marseille","lat":43.286591,"lon":5.363346,"is_reserved":false,"is_disabled":false,"rental_uris":{"android":"levelo://app?vid=fab757dc-1a4e-42e9-b3d6-683fa9536a73","ios":"levelo://app?vid=fab757dc-1a4e-42e9-b3d6-683fa9536a73"},"vehicle_type_id":"4","last_reported":1706976533,"current_range_meters":26400,"station_id":"ce4bhah2rcd13ifvqej0","pricing_plan_id":"free"},{"bike_id":"deba24a2-f158-4507-a8a0-b4a7ec0d33e5","system_id":"levelo_inurba_marseille","lat":43.286593,"lon":5.363346,"is_reserved":false,"is_disabled":false,"rental_uris":{"android":"levelo://app?vid=deba24a2-f158-4507-a8a0-b4a7ec0d33e5","ios":"levelo://app?vid=deba24a2-f158-4507-a8a0-b4a7ec0d33e5"},"vehicle_type_id":"4","last_reported":1706976533,"current_range_meters":8800,"station_id":"ce4bhah2rcd13ifvqej0","pricing_plan_id":"free"},{"bike_id":"c3544dcd-9c6e-433b-aca7-6fcded757c5b","system_id":"levelo_inurba_marseille","lat":43.286961,"lon":5.373785,"is_reserved":false,"is_disabled":false,"rental_uris":{"android":"levelo://app?vid=c3544dcd-9c6e-433b-aca7-6fcded757c5b","ios":"levelo://app?vid=c3544dcd-9c6e-433b-aca7-6fcded757c5b"},"vehicle_type_id":"4","last_reported":1706976533,"current_range_meters":15200,"station_id":"ce4bh3p2rcd13ifvqdq0","pricing_plan_id":"free"},{"bike_id":"48346ea9-620b-4d5b-811e-a6b3a3a0b0e9","system_id":"levelo_inurba_marseille","lat":43.286593,"lon":5.363346,"is_reserved":false,"is_disabled":false,"rental_uris":{"android":"levelo://app?vid=48346ea9-620b-4d5b-811e-a6b3a3a0b0e9","ios":"levelo://app?vid=48346ea9-620b-4d5b-811e-a6b3a3a0b0e9"},"vehicle_type_id":"4","last_reported":1706976533,"current_range_meters":8800,"station_id":"ce4bhah2rcd13ifvqej0","pricing_plan_id":"free"},{"bike_id":"b64a0e0c-4a08-451b-b720-6596dc78d92a","system_id":"levelo_inurba_marseille","lat":43.286961,"lon":5.373785,"is_reserved":false,"is_disabled":false,"rental_uris":{"android":"levelo://app?vid=b64a0e0c-4a08-451b-b720-6596dc78d92a","ios":"levelo://app?vid=b64a0e0c-4a08-451b-b720-6596dc78d92a"},"vehicle_type_id":"4","last_reported":1706976533,"current_range_meters":19600,"station_id":"ce4bh3p2rcd13ifvqdq0","pricing_plan_id":"free"},{"bike_id":"b23f476e-ace7-421c-a19d-c436187b9b53","system_id":"levelo_inurba_marseille","lat":43.286591,"lon":5.363346,"is_reserved":false,"is_disabled":false,"rental_uris":{"android":"levelo://app?vid=b23f476e-ace7-421c-a19d-c436187b9b53","ios":"levelo://app?vid=b23f476e-ace7-421c-a19d-c436187b9b53"},"vehicle_type_id":"4","last_reported":1706976533,"current_range_meters":21200,"station_id":"ce4bhah2rcd13ifvqej0","pricing_plan_id":"free"},{"bike_id":"1c842120-0087-49ab-a546-05df07744270","system_id":"levelo_inurba_marseille","lat":43.286953,"lon":5.373877,"is_reserved":false,"is_disabled":false,"rental_uris":{"android":"levelo://app?vid=1c842120-0087-49ab-a546-05df07744270","ios":"levelo://app?vid=1c842120-0087-49ab-a546-05df07744270"},"vehicle_type_id":"4","last_reported":1706976533,"current_range_meters":0,"station_id":"ce4bh3p2rcd13ifvqdq0","pricing_plan_id":"free"},{"bike_id":"69840110-3214-4e91-8821-fa9c005aa816","system_id":"levelo_inurba_marseille","lat":43.295196,"lon":5.39397,"is_reserved":false,"is_disabled":false,"rental_uris":{"android":"levelo://app?vid=69840110-3214-4e91-8821-fa9c005aa816","ios":"levelo://app?vid=69840110-3214-4e91-8821-fa9c005aa816"},"vehicle_type_id":"4","last_reported":1706976533,"current_range_meters":21200,"station_id":"ce4bh292rcd13ifvqdf0","pricing_plan_id":"free"},{"bike_id":"6d83b542-7c96-49e8-9919-0a97b555e68e","system_id":"levelo_inurba_marseille","lat":43.295196,"lon":5.39397,"is_reserved":false,"is_disabled":false,"rental_uris":{"android":"levelo://app?vid=6d83b542-7c96-49e8-9919-0a97b555e68e","ios":"levelo://app?vid=6d83b542-7c96-49e8-9919-0a97b555e68e"},"vehicle_type_id":"4","last_reported":1706976533,"current_range_meters":4000,"station_id":"ce4bh292rcd13ifvqdf0","pricing_plan_id":"free"},{"bike_id":"1c323161-ebf0-4ef0-b577-9d457ff3c621","system_id":"levelo_inurba_marseille","lat":43.302759,"lon":5.400793,"is_reserved":false,"is_disabled":false,"rental_uris":{"android":"levelo://app?vid=1c323161-ebf0-4ef0-b577-9d457ff3c621","ios":"levelo://app?vid=1c323161-ebf0-4ef0-b577-9d457ff3c621"},"vehicle_type_id":"4","last_reported":1706976533,"current_range_meters":1600,"station_id":"ce4bgvh2rcd13ifvqcs0","pricing_plan_id":"free"},{"bike_id":"420554ef-ad22-4a39-890d-957385c71385","system_id":"levelo_inurba_marseille","lat":43.286039,"lon":5.370679,"is_reserved":false,"is_disabled":false,"rental_uris":{"android":"levelo://app?vid=420554ef-ad22-4a39-890d-957385c71385","ios":"levelo://app?vid=420554ef-ad22-4a39-890d-957385c71385"},"vehicle_type_id":"4","last_reported":1706976533,"current_range_meters":12400,"station_id":"ce4bht12rcd13ifvqi60","pricing_plan_id":"free"},{"bike_id":"8efa5f53-91cd-4953-bfb4-4764ce48a9bd","system_id":"levelo_inurba_marseille","lat":43.28607,"lon":5.37066,"is_reserved":false,"is_disabled":false,"rental_uris":{"android":"levelo://app?vid=8efa5f53-91cd-4953-bfb4-4764ce48a9bd","ios":"levelo://app?vid=8efa5f53-91cd-4953-bfb4-4764ce48a9bd"},"vehicle_type_id":"4","last_reported":1706976533,"current_range_meters":8800,"station_id":"ce4bht12rcd13ifvqi60","pricing_plan_id":"free"},{"bike_id":"1ba24afe-bffc-46c5-a01d-22f391322eac","system_id":"levelo_inurba_marseille","lat":43.28606,"lon":5.37062,"is_reserved":false,"is_disabled":false,"rental_uris":{"android":"levelo://app?vid=1ba24afe-bffc-46c5-a01d-22f391322eac","ios":"levelo://app?vid=1ba24afe-bffc-46c5-a01d-22f391322eac"},"vehicle_type_id":"4","last_reported":1706976533,"current_range_meters":12800,"station_id":"ce4bht12rcd13ifvqi60","pricing_plan_id":"free"},{"bike_id":"84aef382-a40b-4691-984b-9859a74815a4","system_id":"levelo_inurba_marseille","lat":43.287185,"lon":5.379373,"is_reserved":false,"is_disabled":false,"rental_uris":{"android":"levelo://app?vid=84aef382-a40b-4691-984b-9859a74815a4","ios":"levelo://app?vid=84aef382-a40b-4691-984b-9859a74815a4"},"vehicle_type_id":"4","last_reported":1706976533,"current_range_meters":4400,"station_id":"ce4bh9p2rcd13ifvqec0","pricing_plan_id":"free"},{"bike_id":"a26ac013-c02d-4b0e-96f8-fb00f0349ba0","system_id":"levelo_inurba_marseille","lat":43.316828,"lon":5.404723,"is_reserved":false,"is_disabled":false,"rental_uris":{"android":"levelo://app?vid=a26ac013-c02d-4b0e-96f8-fb00f0349ba0","ios":"levelo://app?vid=a26ac013-c02d-4b0e-96f8-fb00f0349ba0"},"vehicle_type_id":"4","last_reported":1706976533,"current_range_meters":26000,"station_id":"ce4bh012rcd13ifvqd00","pricing_plan_id":"free"},{"bike_id":"adf4f410-cc9e-4e0f-ae10-87ff720620f9","system_id":"levelo_inurba_marseille","lat":43.316828,"lon":5.404723,"is_reserved":false,"is_disabled":false,"rental_uris":{"android":"levelo://app?vid=adf4f410-cc9e-4e0f-ae10-87ff720620f9","ios":"levelo://app?vid=adf4f410-cc9e-4e0f-ae10-87ff720620f9"},"vehicle_type_id":"4","last_reported":1706976533,"current_range_meters":0,"station_id":"ce4bh012rcd13ifvqd00","pricing_plan_id":"free"},{"bike_id":"c481decd-572d-4697-940f-0aa9c00b06ef","system_id":"levelo_inurba_marseille","lat":43.291994,"lon":5.392907,"is_reserved":false,"is_disabled":false,"rental_uris":{"android":"levelo://app?vid=c481decd-572d-4697-940f-0aa9c00b06ef","ios":"levelo://app?vid=c481decd-572d-4697-940f-0aa9c00b06ef"},"vehicle_type_id":"4","last_reported":1706976533,"current_range_meters":4400,"station_id":"ce4bh192rcd13ifvqdd0","pricing_plan_id":"free"},{"bike_id":"1fb8de4d-b1d7-4b5a-9cf2-b2a3dc4ef13d","system_id":"levelo_inurba_marseille","lat":43.289184,"lon":5.366408,"is_reserved":false,"is_disabled":false,"rental_uris":{"android":"levelo://app?vid=1fb8de4d-b1d7-4b5a-9cf2-b2a3dc4ef13d","ios":"levelo://app?vid=1fb8de4d-b1d7-4b5a-9cf2-b2a3dc4ef13d"},"vehicle_type_id":"4","last_reported":1706976533,"current_range_meters":0,"station_id":"ce4bhap2rcd13ifvqek0","pricing_plan_id":"free"},{"bike_id":"c9355f1e-50a3-423f-a6c5-52f1773c969c","system_id":"levelo_inurba_marseille","lat":43.286394,"lon":5.35133,"is_reserved":false,"is_disabled":false,"rental_uris":{"android":"levelo://app?vid=c9355f1e-50a3-423f-a6c5-52f1773c969c","ios":"levelo://app?vid=c9355f1e-50a3-423f-a6c5-52f1773c969c"},"vehicle_type_id":"4","last_reported":1706976533,"current_range_meters":4800,"station_id":"","pricing_plan_id":"free"},{"bike_id":"5fd32193-7dc0-4af5-98c5-063260bd5748","system_id":"levelo_inurba_marseille","lat":43.284538,"lon":5.358657,"is_reserved":false,"is_disabled":false,"rental_uris":{"android":"levelo://app?vid=5fd32193-7dc0-4af5-98c5-063260bd5748","ios":"levelo://app?vid=5fd32193-7dc0-4af5-98c5-063260bd5748"},"vehicle_type_id":"4","last_reported":1706976533,"current_range_meters":0,"station_id":"ce4bhah2rcd13ifvqei0","pricing_plan_id":"free"},{"bike_id":"fa164325-3c50-4274-b827-67e6f62d87f0","system_id":"levelo_inurba_marseille","lat":43.28458,"lon":5.35882,"is_reserved":false,"is_disabled":false,"rental_uris":{"android":"levelo://app?vid=fa164325-3c50-4274-b827-67e6f62d87f0","ios":"levelo://app?vid=fa164325-3c50-4274-b827-67e6f62d87f0"},"vehicle_type_id":"4","last_reported":1706976533,"current_range_meters":9200,"station_id":"ce4bhah2rcd13ifvqei0","pricing_plan_id":"free"},{"bike_id":"bbd4ad75-a710-4e3d-807d-70cca2d8042f","system_id":"levelo_inurba_marseille","lat":43.284538,"lon":5.358657,"is_reserved":false,"is_disabled":false,"rental_uris":{"android":"levelo://app?vid=bbd4ad75-a710-4e3d-807d-70cca2d8042f","ios":"levelo://app?vid=bbd4ad75-a710-4e3d-807d-70cca2d8042f"},"vehicle_type_id":"4","last_reported":1706976533,"current_range_meters":4800,"station_id":"ce4bhah2rcd13ifvqei0","pricing_plan_id":"free"},{"bike_id":"e8cf7bfc-cc76-4ffe-8979-bab1a3d2b34e","system_id":"levelo_inurba_marseille","lat":43.286207,"lon":5.351065,"is_reserved":false,"is_disabled":false,"rental_uris":{"android":"levelo://app?vid=e8cf7bfc-cc76-4ffe-8979-bab1a3d2b34e","ios":"levelo://app?vid=e8cf7bfc-cc76-4ffe-8979-bab1a3d2b34e"},"vehicle_type_id":"4","last_reported":1706976533,"current_range_meters":27200,"station_id":"ce4bhch2rcd13ifvqeug","pricing_plan_id":"free"},{"bike_id":"3acba56f-7d41-4d1e-8f4d-47fff39e046e","system_id":"levelo_inurba_marseille","lat":43.28615,"lon":5.35108,"is_reserved":false,"is_disabled":false,"rental_uris":{"android":"levelo://app?vid=3acba56f-7d41-4d1e-8f4d-47fff39e046e","ios":"levelo://app?vid=3acba56f-7d41-4d1e-8f4d-47fff39e046e"},"vehicle_type_id":"4","last_reported":1706976533,"current_range_meters":28000,"station_id":"ce4bhch2rcd13ifvqeug","pricing_plan_id":"free"},{"bike_id":"7c9ea006-5c8c-4055-9552-c4e575d372ff","system_id":"levelo_inurba_marseille","lat":43.285856,"lon":5.350771,"is_reserved":false,"is_disabled":false,"rental_uris":{"android":"levelo://app?vid=7c9ea006-5c8c-4055-9552-c4e575d372ff","ios":"levelo://app?vid=7c9ea006-5c8c-4055-9552-c4e575d372ff"},"vehicle_type_id":"4","last_reported":1706976533,"current_range_meters":0,"station_id":"ce4bhch2rcd13ifvqeug","pricing_plan_id":"free"},{"bike_id":"f50d37d3-1fa2-4a71-80d7-dc61c03f7d7d","system_id":"levelo_inurba_marseille","lat":43.28615,"lon":5.35104,"is_reserved":false,"is_disabled":false,"rental_uris":{"android":"levelo://app?vid=f50d37d3-1fa2-4a71-80d7-dc61c03f7d7d","ios":"levelo://app?vid=f50d37d3-1fa2-4a71-80d7-dc61c03f7d7d"},"vehicle_type_id":"4","last_reported":1706976533,"current_range_meters":6400,"station_id":"ce4bhch2rcd13ifvqeug","pricing_plan_id":"free"},{"bike_id":"b1f65f26-b534-4773-9558-d32269bcd644","system_id":"levelo_inurba_marseille","lat":43.28612,"lon":5.3511,"is_reserved":false,"is_disabled":false,"rental_uris":{"android":"levelo://app?vid=b1f65f26-b534-4773-9558-d32269bcd644","ios":"levelo://app?vid=b1f65f26-b534-4773-9558-d32269bcd644"},"vehicle_type_id":"4","last_reported":1706976533,"current_range_meters":10800,"station_id":"ce4bhch2rcd13ifvqeug","pricing_plan_id":"free"},{"bike_id":"1d4ccf09-c943-4f5e-938d-186c3ee6db43","system_id":"levelo_inurba_marseille","lat":43.283998,"lon":5.375062,"is_reserved":false,"is_disabled":false,"rental_uris":{"android":"levelo://app?vid=1d4ccf09-c943-4f5e-938d-186c3ee6db43","ios":"levelo://app?vid=1d4ccf09-c943-4f5e-938d-186c3ee6db43"},"vehicle_type_id":"4","last_reported":1706976533,"current_range_meters":5600,"station_id":"ce4bh412rcd13ifvqds0","pricing_plan_id":"free"},{"bike_id":"e18ada52-53e6-439e-ac48-af2d2283ab00","system_id":"levelo_inurba_marseille","lat":43.286613,"lon":5.386302,"is_reserved":false,"is_disabled":false,"rental_uris":{"android":"levelo://app?vid=e18ada52-53e6-439e-ac48-af2d2283ab00","ios":"levelo://app?vid=e18ada52-53e6-439e-ac48-af2d2283ab00"},"vehicle_type_id":"4","last_reported":1706976533,"current_range_meters":30400,"station_id":"ce4bh492rcd13ifvqdug","pricing_plan_id":"free"},{"bike_id":"0215920d-9eb8-422c-af49-bc1f6bdb2881","system_id":"levelo_inurba_marseille","lat":43.286595,"lon":5.386795,"is_reserved":false,"is_disabled":false,"rental_uris":{"android":"levelo://app?vid=0215920d-9eb8-422c-af49-bc1f6bdb2881","ios":"levelo://app?vid=0215920d-9eb8-422c-af49-bc1f6bdb2881"},"vehicle_type_id":"4","last_reported":1706976533,"current_range_meters":1600,"station_id":"ce4bh492rcd13ifvqdug","pricing_plan_id":"free"},{"bike_id":"3c58f18d-b5bf-40f3-bd04-17a6bdfcc283","system_id":"levelo_inurba_marseille","lat":43.32279,"lon":5.40633,"is_reserved":false,"is_disabled":false,"rental_uris":{"android":"levelo://app?vid=3c58f18d-b5bf-40f3-bd04-17a6bdfcc283","ios":"levelo://app?vid=3c58f18d-b5bf-40f3-bd04-17a6bdfcc283"},"vehicle_type_id":"4","last_reported":1706976533,"current_range_meters":5600,"station_id":"","pricing_plan_id":"free"},{"bike_id":"0dfdf9e3-2510-4f67-b50d-c67f94231c81","system_id":"levelo_inurba_marseille","lat":43.33717,"lon":5.391857,"is_reserved":false,"is_disabled":false,"rental_uris":{"android":"levelo://app?vid=0dfdf9e3-2510-4f67-b50d-c67f94231c81","ios":"levelo://app?vid=0dfdf9e3-2510-4f67-b50d-c67f94231c81"},"vehicle_type_id":"4","last_reported":1706976533,"current_range_meters":30400,"station_id":"ce4bhr92rcd13ifvqhsg","pricing_plan_id":"free"},{"bike_id":"0bd6371c-12e2-4495-926b-6a470063f923","system_id":"levelo_inurba_marseille","lat":43.323464,"lon":5.406297,"is_reserved":false,"is_disabled":false,"rental_uris":{"android":"levelo://app?vid=0bd6371c-12e2-4495-926b-6a470063f923","ios":"levelo://app?vid=0bd6371c-12e2-4495-926b-6a470063f923"},"vehicle_type_id":"4","last_reported":1706976533,"current_range_meters":4000,"station_id":"ce4bhq92rcd13ifvqhjg","pricing_plan_id":"free"},{"bike_id":"d923be26-cf80-4ddf-bc64-8d9a88caec3f","system_id":"levelo_inurba_marseille","lat":43.337168,"lon":5.391825,"is_reserved":false,"is_disabled":false,"rental_uris":{"android":"levelo://app?vid=d923be26-cf80-4ddf-bc64-8d9a88caec3f","ios":"levelo://app?vid=d923be26-cf80-4ddf-bc64-8d9a88caec3f"},"vehicle_type_id":"4","last_reported":1706976533,"current_range_meters":30400,"station_id":"ce4bhr92rcd13ifvqhsg","pricing_plan_id":"free"},{"bike_id":"5c0fd5c3-3025-4b0a-b773-fec12c2042a9","system_id":"levelo_inurba_marseille","lat":43.323464,"lon":5.406297,"is_reserved":false,"is_disabled":false,"rental_uris":{"android":"levelo://app?vid=5c0fd5c3-3025-4b0a-b773-fec12c2042a9","ios":"levelo://app?vid=5c0fd5c3-3025-4b0a-b773-fec12c2042a9"},"vehicle_type_id":"4","last_reported":1706976533,"current_range_meters":9600,"station_id":"ce4bhq92rcd13ifvqhjg","pricing_plan_id":"free"},{"bike_id":"f61c759f-e4bd-421b-9e16-14012a350ccf","system_id":"levelo_inurba_marseille","lat":43.288497,"lon":5.393089,"is_reserved":false,"is_disabled":false,"rental_uris":{"android":"levelo://app?vid=f61c759f-e4bd-421b-9e16-14012a350ccf","ios":"levelo://app?vid=f61c759f-e4bd-421b-9e16-14012a350ccf"},"vehicle_type_id":"4","last_reported":1706976533,"current_range_meters":20800,"station_id":"ce4bh2p2rcd13ifvqdi0","pricing_plan_id":"free"},{"bike_id":"9d0f0088-9408-4269-b0c3-12e4bb887cf2","system_id":"levelo_inurba_marseille","lat":43.33734,"lon":5.391813,"is_reserved":false,"is_disabled":false,"rental_uris":{"android":"levelo://app?vid=9d0f0088-9408-4269-b0c3-12e4bb887cf2","ios":"levelo://app?vid=9d0f0088-9408-4269-b0c3-12e4bb887cf2"},"vehicle_type_id":"4","last_reported":1706976533,"current_range_meters":0,"station_id":"ce4bhr92rcd13ifvqhsg","pricing_plan_id":"free"},{"bike_id":"ce6e5f32-c926-4850-9832-de0867d0c841","system_id":"levelo_inurba_marseille","lat":43.28477,"lon":5.38397,"is_reserved":false,"is_disabled":false,"rental_uris":{"android":"levelo://app?vid=ce6e5f32-c926-4850-9832-de0867d0c841","ios":"levelo://app?vid=ce6e5f32-c926-4850-9832-de0867d0c841"},"vehicle_type_id":"4","last_reported":1706976533,"current_range_meters":22000,"station_id":"ce4bh512rcd13ifvqe3g","pricing_plan_id":"free"},{"bike_id":"afada3bf-b71e-41c4-9ff3-8fa6bd60c985","system_id":"levelo_inurba_marseille","lat":43.284793,"lon":5.384113,"is_reserved":false,"is_disabled":false,"rental_uris":{"android":"levelo://app?vid=afada3bf-b71e-41c4-9ff3-8fa6bd60c985","ios":"levelo://app?vid=afada3bf-b71e-41c4-9ff3-8fa6bd60c985"},"vehicle_type_id":"4","last_reported":1706976533,"current_range_meters":2400,"station_id":"ce4bh512rcd13ifvqe3g","pricing_plan_id":"free"},{"bike_id":"8f658ab6-8fed-4977-8e88-a981133a25a8","system_id":"levelo_inurba_marseille","lat":43.33325,"lon":5.39821,"is_reserved":false,"is_disabled":false,"rental_uris":{"android":"levelo://app?vid=8f658ab6-8fed-4977-8e88-a981133a25a8","ios":"levelo://app?vid=8f658ab6-8fed-4977-8e88-a981133a25a8"},"vehicle_type_id":"4","last_reported":1706976533,"current_range_meters":3600,"station_id":"","pricing_plan_id":"free"},{"bike_id":"513c7a96-96f2-4f2a-aa1b-207775af72bc","system_id":"levelo_inurba_marseille","lat":43.28474,"lon":5.38416,"is_reserved":false,"is_disabled":false,"rental_uris":{"android":"levelo://app?vid=513c7a96-96f2-4f2a-aa1b-207775af72bc","ios":"levelo://app?vid=513c7a96-96f2-4f2a-aa1b-207775af72bc"},"vehicle_type_id":"4","last_reported":1706976533,"current_range_meters":0,"station_id":"ce4bh512rcd13ifvqe3g","pricing_plan_id":"free"},{"bike_id":"bf7da45a-6276-45d6-872b-0c52f4534949","system_id":"levelo_inurba_marseille","lat":43.284787,"lon":5.384116,"is_reserved":false,"is_disabled":false,"rental_uris":{"android":"levelo://app?vid=bf7da45a-6276-45d6-872b-0c52f4534949","ios":"levelo://app?vid=bf7da45a-6276-45d6-872b-0c52f4534949"},"vehicle_type_id":"4","last_reported":1706976533,"current_range_meters":24400,"station_id":"ce4bh512rcd13ifvqe3g","pricing_plan_id":"free"},{"bike_id":"16c04c5f-9677-4f94-a7d2-3ccda1cf2051","system_id":"levelo_inurba_marseille","lat":43.288501,"lon":5.393087,"is_reserved":false,"is_disabled":false,"rental_uris":{"android":"levelo://app?vid=16c04c5f-9677-4f94-a7d2-3ccda1cf2051","ios":"levelo://app?vid=16c04c5f-9677-4f94-a7d2-3ccda1cf2051"},"vehicle_type_id":"4","last_reported":1706976533,"current_range_meters":5200,"station_id":"ce4bh2p2rcd13ifvqdi0","pricing_plan_id":"free"},{"bike_id":"17e90439-bd4e-4683-8459-1c22d29d2b32","system_id":"levelo_inurba_marseille","lat":43.283498,"lon":5.380948,"is_reserved":false,"is_disabled":false,"rental_uris":{"android":"levelo://app?vid=17e90439-bd4e-4683-8459-1c22d29d2b32","ios":"levelo://app?vid=17e90439-bd4e-4683-8459-1c22d29d2b32"},"vehicle_type_id":"4","last_reported":1706976533,"current_range_meters":18800,"station_id":"ce4bh412rcd13ifvqdr0","pricing_plan_id":"free"},{"bike_id":"f25fe706-8e07-4bae-9c51-6fb1f7e5ddb5","system_id":"levelo_inurba_marseille","lat":43.284214,"lon":5.349706,"is_reserved":false,"is_disabled":false,"rental_uris":{"android":"levelo://app?vid=f25fe706-8e07-4bae-9c51-6fb1f7e5ddb5","ios":"levelo://app?vid=f25fe706-8e07-4bae-9c51-6fb1f7e5ddb5"},"vehicle_type_id":"4","last_reported":1706976533,"current_range_meters":30800,"station_id":"ce4bhbh2rcd13ifvqepg","pricing_plan_id":"free"},{"bike_id":"a9265602-ca1a-486f-a9cb-f50e131baf4b","system_id":"levelo_inurba_marseille","lat":43.284219,"lon":5.3497,"is_reserved":false,"is_disabled":false,"rental_uris":{"android":"levelo://app?vid=a9265602-ca1a-486f-a9cb-f50e131baf4b","ios":"levelo://app?vid=a9265602-ca1a-486f-a9cb-f50e131baf4b"},"vehicle_type_id":"4","last_reported":1706976533,"current_range_meters":18800,"station_id":"ce4bhbh2rcd13ifvqepg","pricing_plan_id":"free"},{"bike_id":"a0837bd7-0ba0-4658-8bc8-1138e89bd5ec","system_id":"levelo_inurba_marseille","lat":43.284214,"lon":5.349706,"is_reserved":false,"is_disabled":false,"rental_uris":{"android":"levelo://app?vid=a0837bd7-0ba0-4658-8bc8-1138e89bd5ec","ios":"levelo://app?vid=a0837bd7-0ba0-4658-8bc8-1138e89bd5ec"},"vehicle_type_id":"4","last_reported":1706976533,"current_range_meters":30400,"station_id":"ce4bhbh2rcd13ifvqepg","pricing_plan_id":"free"},{"bike_id":"e81fda78-3ad2-4c95-89de-f8b5f9d62592","system_id":"levelo_inurba_marseille","lat":43.284219,"lon":5.3497,"is_reserved":false,"is_disabled":false,"rental_uris":{"android":"levelo://app?vid=e81fda78-3ad2-4c95-89de-f8b5f9d62592","ios":"levelo://app?vid=e81fda78-3ad2-4c95-89de-f8b5f9d62592"},"vehicle_type_id":"4","last_reported":1706976533,"current_range_meters":2800,"station_id":"ce4bhbh2rcd13ifvqepg","pricing_plan_id":"free"},{"bike_id":"fc1cdba1-7073-474d-a650-3572ed96f3a0","system_id":"levelo_inurba_marseille","lat":43.284214,"lon":5.349706,"is_reserved":false,"is_disabled":false,"rental_uris":{"android":"levelo://app?vid=fc1cdba1-7073-474d-a650-3572ed96f3a0","ios":"levelo://app?vid=fc1cdba1-7073-474d-a650-3572ed96f3a0"},"vehicle_type_id":"4","last_reported":1706976533,"current_range_meters":28400,"station_id":"ce4bhbh2rcd13ifvqepg","pricing_plan_id":"free"},{"bike_id":"1cc439a9-f5ef-4b1a-a9cc-f82cb1b58260","system_id":"levelo_inurba_marseille","lat":43.284217,"lon":5.349697,"is_reserved":false,"is_disabled":false,"rental_uris":{"android":"levelo://app?vid=1cc439a9-f5ef-4b1a-a9cc-f82cb1b58260","ios":"levelo://app?vid=1cc439a9-f5ef-4b1a-a9cc-f82cb1b58260"},"vehicle_type_id":"4","last_reported":1706976533,"current_range_meters":11600,"station_id":"ce4bhbh2rcd13ifvqepg","pricing_plan_id":"free"},{"bike_id":"cd25ba97-cde5-43b1-9469-1606388291d4","system_id":"levelo_inurba_marseille","lat":43.284248,"lon":5.349804,"is_reserved":false,"is_disabled":false,"rental_uris":{"android":"levelo://app?vid=cd25ba97-cde5-43b1-9469-1606388291d4","ios":"levelo://app?vid=cd25ba97-cde5-43b1-9469-1606388291d4"},"vehicle_type_id":"4","last_reported":1706976533,"current_range_meters":25200,"station_id":"","pricing_plan_id":"free"},{"bike_id":"e97d6c42-3152-49cb-b241-53458692addf","system_id":"levelo_inurba_marseille","lat":43.284219,"lon":5.3497,"is_reserved":false,"is_disabled":false,"rental_uris":{"android":"levelo://app?vid=e97d6c42-3152-49cb-b241-53458692addf","ios":"levelo://app?vid=e97d6c42-3152-49cb-b241-53458692addf"},"vehicle_type_id":"4","last_reported":1706976533,"current_range_meters":29200,"station_id":"ce4bhbh2rcd13ifvqepg","pricing_plan_id":"free"},{"bike_id":"156b8989-570b-4134-9713-3005cee093ff","system_id":"levelo_inurba_marseille","lat":43.284219,"lon":5.3497,"is_reserved":false,"is_disabled":false,"rental_uris":{"android":"levelo://app?vid=156b8989-570b-4134-9713-3005cee093ff","ios":"levelo://app?vid=156b8989-570b-4134-9713-3005cee093ff"},"vehicle_type_id":"4","last_reported":1706976533,"current_range_meters":18000,"station_id":"ce4bhbh2rcd13ifvqepg","pricing_plan_id":"free"},{"bike_id":"5f83095c-a9b8-47bb-8f0f-3d7d252d6f41","system_id":"levelo_inurba_marseille","lat":43.284217,"lon":5.349697,"is_reserved":false,"is_disabled":false,"rental_uris":{"android":"levelo://app?vid=5f83095c-a9b8-47bb-8f0f-3d7d252d6f41","ios":"levelo://app?vid=5f83095c-a9b8-47bb-8f0f-3d7d252d6f41"},"vehicle_type_id":"4","last_reported":1706976533,"current_range_meters":30800,"station_id":"ce4bhbh2rcd13ifvqepg","pricing_plan_id":"free"},{"bike_id":"06fe7256-1c61-4a08-a7c3-6d5d924747a3","system_id":"levelo_inurba_marseille","lat":43.284217,"lon":5.349697,"is_reserved":false,"is_disabled":false,"rental_uris":{"android":"levelo://app?vid=06fe7256-1c61-4a08-a7c3-6d5d924747a3","ios":"levelo://app?vid=06fe7256-1c61-4a08-a7c3-6d5d924747a3"},"vehicle_type_id":"4","last_reported":1706976533,"current_range_meters":14800,"station_id":"ce4bhbh2rcd13ifvqepg","pricing_plan_id":"free"},{"bike_id":"3cd82ac4-9c5c-43d8-9aa7-3995c91140ca","system_id":"levelo_inurba_marseille","lat":43.284217,"lon":5.349697,"is_reserved":false,"is_disabled":false,"rental_uris":{"android":"levelo://app?vid=3cd82ac4-9c5c-43d8-9aa7-3995c91140ca","ios":"levelo://app?vid=3cd82ac4-9c5c-43d8-9aa7-3995c91140ca"},"vehicle_type_id":"4","last_reported":1706976533,"current_range_meters":4800,"station_id":"ce4bhbh2rcd13ifvqepg","pricing_plan_id":"free"},{"bike_id":"0be6e474-b3bc-46ed-9fe4-60a2663873b6","system_id":"levelo_inurba_marseille","lat":43.284219,"lon":5.3497,"is_reserved":false,"is_disabled":false,"rental_uris":{"android":"levelo://app?vid=0be6e474-b3bc-46ed-9fe4-60a2663873b6","ios":"levelo://app?vid=0be6e474-b3bc-46ed-9fe4-60a2663873b6"},"vehicle_type_id":"4","last_reported":1706976533,"current_range_meters":31200,"station_id":"ce4bhbh2rcd13ifvqepg","pricing_plan_id":"free"},{"bike_id":"959abf97-6028-4757-a48e-314f23010a3e","system_id":"levelo_inurba_marseille","lat":43.284217,"lon":5.349697,"is_reserved":false,"is_disabled":false,"rental_uris":{"android":"levelo://app?vid=959abf97-6028-4757-a48e-314f23010a3e","ios":"levelo://app?vid=959abf97-6028-4757-a48e-314f23010a3e"},"vehicle_type_id":"4","last_reported":1706976533,"current_range_meters":20800,"station_id":"ce4bhbh2rcd13ifvqepg","pricing_plan_id":"free"},{"bike_id":"27f606fa-9da5-467d-a595-75fd2d2bda25","system_id":"levelo_inurba_marseille","lat":43.284214,"lon":5.349706,"is_reserved":false,"is_disabled":false,"rental_uris":{"android":"levelo://app?vid=27f606fa-9da5-467d-a595-75fd2d2bda25","ios":"levelo://app?vid=27f606fa-9da5-467d-a595-75fd2d2bda25"},"vehicle_type_id":"4","last_reported":1706976533,"current_range_meters":15200,"station_id":"ce4bhbh2rcd13ifvqepg","pricing_plan_id":"free"},{"bike_id":"fb20013a-deac-44e9-a92b-7dd549096949","system_id":"levelo_inurba_marseille","lat":43.284214,"lon":5.349706,"is_reserved":false,"is_disabled":false,"rental_uris":{"android":"levelo://app?vid=fb20013a-deac-44e9-a92b-7dd549096949","ios":"levelo://app?vid=fb20013a-deac-44e9-a92b-7dd549096949"},"vehicle_type_id":"4","last_reported":1706976533,"current_range_meters":3600,"station_id":"ce4bhbh2rcd13ifvqepg","pricing_plan_id":"free"},{"bike_id":"21edbebf-9ec1-44a4-8da6-5deaf5d07014","system_id":"levelo_inurba_marseille","lat":43.284217,"lon":5.349697,"is_reserved":false,"is_disabled":false,"rental_uris":{"android":"levelo://app?vid=21edbebf-9ec1-44a4-8da6-5deaf5d07014","ios":"levelo://app?vid=21edbebf-9ec1-44a4-8da6-5deaf5d07014"},"vehicle_type_id":"4","last_reported":1706976533,"current_range_meters":18400,"station_id":"ce4bhbh2rcd13ifvqepg","pricing_plan_id":"free"},{"bike_id":"a8575ba1-986f-4b7e-a3b9-ff152619ea6f","system_id":"levelo_inurba_marseille","lat":43.284217,"lon":5.349697,"is_reserved":false,"is_disabled":false,"rental_uris":{"android":"levelo://app?vid=a8575ba1-986f-4b7e-a3b9-ff152619ea6f","ios":"levelo://app?vid=a8575ba1-986f-4b7e-a3b9-ff152619ea6f"},"vehicle_type_id":"4","last_reported":1706976533,"current_range_meters":27200,"station_id":"ce4bhbh2rcd13ifvqepg","pricing_plan_id":"free"},{"bike_id":"568b06ae-4a1e-42a7-bcd1-1749dee5a8f5","system_id":"levelo_inurba_marseille","lat":43.284217,"lon":5.349697,"is_reserved":false,"is_disabled":false,"rental_uris":{"android":"levelo://app?vid=568b06ae-4a1e-42a7-bcd1-1749dee5a8f5","ios":"levelo://app?vid=568b06ae-4a1e-42a7-bcd1-1749dee5a8f5"},"vehicle_type_id":"4","last_reported":1706976533,"current_range_meters":28800,"station_id":"ce4bhbh2rcd13ifvqepg","pricing_plan_id":"free"},{"bike_id":"7610c9fd-8fe4-4811-9e04-d9c553390b19","system_id":"levelo_inurba_marseille","lat":43.284214,"lon":5.349706,"is_reserved":false,"is_disabled":false,"rental_uris":{"android":"levelo://app?vid=7610c9fd-8fe4-4811-9e04-d9c553390b19","ios":"levelo://app?vid=7610c9fd-8fe4-4811-9e04-d9c553390b19"},"vehicle_type_id":"4","last_reported":1706976533,"current_range_meters":6000,"station_id":"ce4bhbh2rcd13ifvqepg","pricing_plan_id":"free"},{"bike_id":"27e2b6fc-3f51-4478-b43e-2a694b3f5f8c","system_id":"levelo_inurba_marseille","lat":43.284217,"lon":5.349697,"is_reserved":false,"is_disabled":false,"rental_uris":{"android":"levelo://app?vid=27e2b6fc-3f51-4478-b43e-2a694b3f5f8c","ios":"levelo://app?vid=27e2b6fc-3f51-4478-b43e-2a694b3f5f8c"},"vehicle_type_id":"4","last_reported":1706976533,"current_range_meters":1200,"station_id":"ce4bhbh2rcd13ifvqepg","pricing_plan_id":"free"},{"bike_id":"67bc4691-0f59-4647-b6f9-e49fb81862fa","system_id":"levelo_inurba_marseille","lat":43.284214,"lon":5.349706,"is_reserved":false,"is_disabled":false,"rental_uris":{"android":"levelo://app?vid=67bc4691-0f59-4647-b6f9-e49fb81862fa","ios":"levelo://app?vid=67bc4691-0f59-4647-b6f9-e49fb81862fa"},"vehicle_type_id":"4","last_reported":1706976533,"current_range_meters":24000,"station_id":"ce4bhbh2rcd13ifvqepg","pricing_plan_id":"free"},{"bike_id":"ccb4d557-dd52-405c-b397-aa6898a311c7","system_id":"levelo_inurba_marseille","lat":43.283494,"lon":5.380945,"is_reserved":false,"is_disabled":false,"rental_uris":{"android":"levelo://app?vid=ccb4d557-dd52-405c-b397-aa6898a311c7","ios":"levelo://app?vid=ccb4d557-dd52-405c-b397-aa6898a311c7"},"vehicle_type_id":"4","last_reported":1706976533,"current_range_meters":5200,"station_id":"ce4bh412rcd13ifvqdr0","pricing_plan_id":"free"},{"bike_id":"2099c22e-616e-451a-b0fc-c44bcc5eca7f","system_id":"levelo_inurba_marseille","lat":43.282744,"lon":5.350533,"is_reserved":false,"is_disabled":false,"rental_uris":{"android":"levelo://app?vid=2099c22e-616e-451a-b0fc-c44bcc5eca7f","ios":"levelo://app?vid=2099c22e-616e-451a-b0fc-c44bcc5eca7f"},"vehicle_type_id":"4","last_reported":1706976533,"current_range_meters":16800,"station_id":"ce4bhbp2rcd13ifvqerg","pricing_plan_id":"free"},{"bike_id":"b4ad84da-4566-4c6b-9823-b0d5500cc214","system_id":"levelo_inurba_marseille","lat":43.28277,"lon":5.35076,"is_reserved":false,"is_disabled":false,"rental_uris":{"android":"levelo://app?vid=b4ad84da-4566-4c6b-9823-b0d5500cc214","ios":"levelo://app?vid=b4ad84da-4566-4c6b-9823-b0d5500cc214"},"vehicle_type_id":"4","last_reported":1706976533,"current_range_meters":15200,"station_id":"ce4bhbp2rcd13ifvqerg","pricing_plan_id":"free"},{"bike_id":"eba9a6ca-7d2d-4284-9fcc-fdbf677eaf68","system_id":"levelo_inurba_marseille","lat":43.282798,"lon":5.350598,"is_reserved":false,"is_disabled":false,"rental_uris":{"android":"levelo://app?vid=eba9a6ca-7d2d-4284-9fcc-fdbf677eaf68","ios":"levelo://app?vid=eba9a6ca-7d2d-4284-9fcc-fdbf677eaf68"},"vehicle_type_id":"4","last_reported":1706976533,"current_range_meters":4000,"station_id":"ce4bhbp2rcd13ifvqerg","pricing_plan_id":"free"},{"bike_id":"0ec7454f-d3b4-4a37-b9f3-f8d6c0a2dc33","system_id":"levelo_inurba_marseille","lat":43.282744,"lon":5.350533,"is_reserved":false,"is_disabled":false,"rental_uris":{"android":"levelo://app?vid=0ec7454f-d3b4-4a37-b9f3-f8d6c0a2dc33","ios":"levelo://app?vid=0ec7454f-d3b4-4a37-b9f3-f8d6c0a2dc33"},"vehicle_type_id":"4","last_reported":1706976533,"current_range_meters":30400,"station_id":"ce4bhbp2rcd13ifvqerg","pricing_plan_id":"free"},{"bike_id":"23ea676a-fcac-4a60-8fa6-024563b1b935","system_id":"levelo_inurba_marseille","lat":43.282776,"lon":5.350627,"is_reserved":false,"is_disabled":false,"rental_uris":{"android":"levelo://app?vid=23ea676a-fcac-4a60-8fa6-024563b1b935","ios":"levelo://app?vid=23ea676a-fcac-4a60-8fa6-024563b1b935"},"vehicle_type_id":"4","last_reported":1706976533,"current_range_meters":16800,"station_id":"ce4bhbp2rcd13ifvqerg","pricing_plan_id":"free"},{"bike_id":"1908eaf0-c33f-48ba-8a14-6fe0bfb17fd6","system_id":"levelo_inurba_marseille","lat":43.282784,"lon":5.35057,"is_reserved":false,"is_disabled":false,"rental_uris":{"android":"levelo://app?vid=1908eaf0-c33f-48ba-8a14-6fe0bfb17fd6","ios":"levelo://app?vid=1908eaf0-c33f-48ba-8a14-6fe0bfb17fd6"},"vehicle_type_id":"4","last_reported":1706976533,"current_range_meters":23200,"station_id":"ce4bhbp2rcd13ifvqerg","pricing_plan_id":"free"},{"bike_id":"5b5db724-2f3e-4a46-8da5-c347e31f4f77","system_id":"levelo_inurba_marseille","lat":43.282754,"lon":5.350519,"is_reserved":false,"is_disabled":false,"rental_uris":{"android":"levelo://app?vid=5b5db724-2f3e-4a46-8da5-c347e31f4f77","ios":"levelo://app?vid=5b5db724-2f3e-4a46-8da5-c347e31f4f77"},"vehicle_type_id":"4","last_reported":1706976533,"current_range_meters":10400,"station_id":"ce4bhbp2rcd13ifvqerg","pricing_plan_id":"free"},{"bike_id":"a53500e5-cb68-42e3-9d85-b55fa4d64029","system_id":"levelo_inurba_marseille","lat":43.28276,"lon":5.35056,"is_reserved":false,"is_disabled":false,"rental_uris":{"android":"levelo://app?vid=a53500e5-cb68-42e3-9d85-b55fa4d64029","ios":"levelo://app?vid=a53500e5-cb68-42e3-9d85-b55fa4d64029"},"vehicle_type_id":"4","last_reported":1706976533,"current_range_meters":24000,"station_id":"ce4bhbp2rcd13ifvqerg","pricing_plan_id":"free"},{"bike_id":"b012a466-788c-4b90-8ad3-ffa9b40a6699","system_id":"levelo_inurba_marseille","lat":43.282736,"lon":5.350638,"is_reserved":false,"is_disabled":false,"rental_uris":{"android":"levelo://app?vid=b012a466-788c-4b90-8ad3-ffa9b40a6699","ios":"levelo://app?vid=b012a466-788c-4b90-8ad3-ffa9b40a6699"},"vehicle_type_id":"4","last_reported":1706976533,"current_range_meters":22400,"station_id":"ce4bhbp2rcd13ifvqerg","pricing_plan_id":"free"},{"bike_id":"fe43bbe2-4837-48d0-b95f-304bea13f7af","system_id":"levelo_inurba_marseille","lat":43.2827,"lon":5.35076,"is_reserved":false,"is_disabled":false,"rental_uris":{"android":"levelo://app?vid=fe43bbe2-4837-48d0-b95f-304bea13f7af","ios":"levelo://app?vid=fe43bbe2-4837-48d0-b95f-304bea13f7af"},"vehicle_type_id":"4","last_reported":1706976533,"current_range_meters":4400,"station_id":"ce4bhbp2rcd13ifvqerg","pricing_plan_id":"free"},{"bike_id":"c7ecb29c-58b0-431e-afeb-e53130432376","system_id":"levelo_inurba_marseille","lat":43.28269,"lon":5.35075,"is_reserved":false,"is_disabled":false,"rental_uris":{"android":"levelo://app?vid=c7ecb29c-58b0-431e-afeb-e53130432376","ios":"levelo://app?vid=c7ecb29c-58b0-431e-afeb-e53130432376"},"vehicle_type_id":"4","last_reported":1706976533,"current_range_meters":3200,"station_id":"ce4bhbp2rcd13ifvqerg","pricing_plan_id":"free"},{"bike_id":"74dc5131-df35-4302-aecb-cef0e1b2c627","system_id":"levelo_inurba_marseille","lat":43.282701,"lon":5.350661,"is_reserved":false,"is_disabled":false,"rental_uris":{"android":"levelo://app?vid=74dc5131-df35-4302-aecb-cef0e1b2c627","ios":"levelo://app?vid=74dc5131-df35-4302-aecb-cef0e1b2c627"},"vehicle_type_id":"4","last_reported":1706976533,"current_range_meters":2000,"station_id":"ce4bhbp2rcd13ifvqerg","pricing_plan_id":"free"},{"bike_id":"6484a36d-562d-42e7-8a11-36f800ebe1ae","system_id":"levelo_inurba_marseille","lat":43.28269,"lon":5.35069,"is_reserved":false,"is_disabled":false,"rental_uris":{"android":"levelo://app?vid=6484a36d-562d-42e7-8a11-36f800ebe1ae","ios":"levelo://app?vid=6484a36d-562d-42e7-8a11-36f800ebe1ae"},"vehicle_type_id":"4","last_reported":1706976533,"current_range_meters":1200,"station_id":"ce4bhbp2rcd13ifvqerg","pricing_plan_id":"free"},{"bike_id":"ec7e15a2-0b23-4eac-8b3b-c1e17a4a48f0","system_id":"levelo_inurba_marseille","lat":43.282744,"lon":5.350533,"is_reserved":false,"is_disabled":false,"rental_uris":{"android":"levelo://app?vid=ec7e15a2-0b23-4eac-8b3b-c1e17a4a48f0","ios":"levelo://app?vid=ec7e15a2-0b23-4eac-8b3b-c1e17a4a48f0"},"vehicle_type_id":"4","last_reported":1706976533,"current_range_meters":24000,"station_id":"ce4bhbp2rcd13ifvqerg","pricing_plan_id":"free"},{"bike_id":"b1761a25-c86e-4507-bd92-12e2cfd8bced","system_id":"levelo_inurba_marseille","lat":43.282722,"lon":5.350574,"is_reserved":false,"is_disabled":false,"rental_uris":{"android":"levelo://app?vid=b1761a25-c86e-4507-bd92-12e2cfd8bced","ios":"levelo://app?vid=b1761a25-c86e-4507-bd92-12e2cfd8bced"},"vehicle_type_id":"4","last_reported":1706976533,"current_range_meters":2000,"station_id":"ce4bhbp2rcd13ifvqerg","pricing_plan_id":"free"},{"bike_id":"3cd8c0f1-f246-4e8d-bebd-b474033301b0","system_id":"levelo_inurba_marseille","lat":43.2827,"lon":5.35064,"is_reserved":false,"is_disabled":false,"rental_uris":{"android":"levelo://app?vid=3cd8c0f1-f246-4e8d-bebd-b474033301b0","ios":"levelo://app?vid=3cd8c0f1-f246-4e8d-bebd-b474033301b0"},"vehicle_type_id":"4","last_reported":1706976533,"current_range_meters":1200,"station_id":"ce4bhbp2rcd13ifvqerg","pricing_plan_id":"free"},{"bike_id":"365dd833-5a93-48c8-867e-1e30d28ea998","system_id":"levelo_inurba_marseille","lat":43.2827,"lon":5.35064,"is_reserved":false,"is_disabled":false,"rental_uris":{"android":"levelo://app?vid=365dd833-5a93-48c8-867e-1e30d28ea998","ios":"levelo://app?vid=365dd833-5a93-48c8-867e-1e30d28ea998"},"vehicle_type_id":"4","last_reported":1706976533,"current_range_meters":7200,"station_id":"ce4bhbp2rcd13ifvqerg","pricing_plan_id":"free"},{"bike_id":"22c842cc-184e-48b4-833b-1dc6adec8a8c","system_id":"levelo_inurba_marseille","lat":43.28267,"lon":5.350687,"is_reserved":false,"is_disabled":false,"rental_uris":{"android":"levelo://app?vid=22c842cc-184e-48b4-833b-1dc6adec8a8c","ios":"levelo://app?vid=22c842cc-184e-48b4-833b-1dc6adec8a8c"},"vehicle_type_id":"4","last_reported":1706976533,"current_range_meters":30800,"station_id":"ce4bhbp2rcd13ifvqerg","pricing_plan_id":"free"},{"bike_id":"272ba123-ece3-4c53-a021-aead848c9f13","system_id":"levelo_inurba_marseille","lat":43.28265,"lon":5.35073,"is_reserved":false,"is_disabled":false,"rental_uris":{"android":"levelo://app?vid=272ba123-ece3-4c53-a021-aead848c9f13","ios":"levelo://app?vid=272ba123-ece3-4c53-a021-aead848c9f13"},"vehicle_type_id":"4","last_reported":1706976533,"current_range_meters":28400,"station_id":"ce4bhbp2rcd13ifvqerg","pricing_plan_id":"free"},{"bike_id":"3e4cca01-00f1-406d-84fd-21b12722b2ed","system_id":"levelo_inurba_marseille","lat":43.28266,"lon":5.35069,"is_reserved":false,"is_disabled":false,"rental_uris":{"android":"levelo://app?vid=3e4cca01-00f1-406d-84fd-21b12722b2ed","ios":"levelo://app?vid=3e4cca01-00f1-406d-84fd-21b12722b2ed"},"vehicle_type_id":"4","last_reported":1706976533,"current_range_meters":5200,"station_id":"ce4bhbp2rcd13ifvqerg","pricing_plan_id":"free"},{"bike_id":"b5dce663-6fec-4b85-bd02-183996b75b5d","system_id":"levelo_inurba_marseille","lat":43.28267,"lon":5.35056,"is_reserved":false,"is_disabled":false,"rental_uris":{"android":"levelo://app?vid=b5dce663-6fec-4b85-bd02-183996b75b5d","ios":"levelo://app?vid=b5dce663-6fec-4b85-bd02-183996b75b5d"},"vehicle_type_id":"4","last_reported":1706976533,"current_range_meters":11200,"station_id":"ce4bhbp2rcd13ifvqerg","pricing_plan_id":"free"},{"bike_id":"80815ced-6a13-49d3-b96b-6be777fea3f2","system_id":"levelo_inurba_marseille","lat":43.283502,"lon":5.386471,"is_reserved":false,"is_disabled":false,"rental_uris":{"android":"levelo://app?vid=80815ced-6a13-49d3-b96b-6be777fea3f2","ios":"levelo://app?vid=80815ced-6a13-49d3-b96b-6be777fea3f2"},"vehicle_type_id":"4","last_reported":1706976533,"current_range_meters":10800,"station_id":"ce4bh492rcd13ifvqdvg","pricing_plan_id":"free"},{"bike_id":"004c7741-8475-473d-84c9-9dc971258451","system_id":"levelo_inurba_marseille","lat":43.28039,"lon":5.369297,"is_reserved":false,"is_disabled":false,"rental_uris":{"android":"levelo://app?vid=004c7741-8475-473d-84c9-9dc971258451","ios":"levelo://app?vid=004c7741-8475-473d-84c9-9dc971258451"},"vehicle_type_id":"4","last_reported":1706976533,"current_range_meters":20400,"station_id":"ce4bha12rcd13ifvqef0","pricing_plan_id":"free"},{"bike_id":"382d9ffc-1ce4-4ffd-a2b5-791bb99576ca","system_id":"levelo_inurba_marseille","lat":43.280382,"lon":5.369291,"is_reserved":false,"is_disabled":false,"rental_uris":{"android":"levelo://app?vid=382d9ffc-1ce4-4ffd-a2b5-791bb99576ca","ios":"levelo://app?vid=382d9ffc-1ce4-4ffd-a2b5-791bb99576ca"},"vehicle_type_id":"4","last_reported":1706976533,"current_range_meters":27600,"station_id":"ce4bha12rcd13ifvqef0","pricing_plan_id":"free"},{"bike_id":"8f6882c4-4054-4728-93c0-8dc8e46e2ac7","system_id":"levelo_inurba_marseille","lat":43.281044,"lon":5.378308,"is_reserved":false,"is_disabled":false,"rental_uris":{"android":"levelo://app?vid=8f6882c4-4054-4728-93c0-8dc8e46e2ac7","ios":"levelo://app?vid=8f6882c4-4054-4728-93c0-8dc8e46e2ac7"},"vehicle_type_id":"4","last_reported":1706976533,"current_range_meters":19200,"station_id":"ce4bha12rcd13ifvqee0","pricing_plan_id":"free"},{"bike_id":"df25b683-1059-413a-986d-956b1d829eaf","system_id":"levelo_inurba_marseille","lat":43.281044,"lon":5.378308,"is_reserved":false,"is_disabled":false,"rental_uris":{"android":"levelo://app?vid=df25b683-1059-413a-986d-956b1d829eaf","ios":"levelo://app?vid=df25b683-1059-413a-986d-956b1d829eaf"},"vehicle_type_id":"4","last_reported":1706976533,"current_range_meters":20800,"station_id":"ce4bha12rcd13ifvqee0","pricing_plan_id":"free"},{"bike_id":"523c8b62-a394-427c-83ac-1e8f246890d3","system_id":"levelo_inurba_marseille","lat":43.281744,"lon":5.383045,"is_reserved":false,"is_disabled":false,"rental_uris":{"android":"levelo://app?vid=523c8b62-a394-427c-83ac-1e8f246890d3","ios":"levelo://app?vid=523c8b62-a394-427c-83ac-1e8f246890d3"},"vehicle_type_id":"4","last_reported":1706976533,"current_range_meters":5600,"station_id":"","pricing_plan_id":"free"},{"bike_id":"b84a83e5-4133-4a6b-9257-0f036e02ea7a","system_id":"levelo_inurba_marseille","lat":43.2844,"lon":5.39183,"is_reserved":false,"is_disabled":false,"rental_uris":{"android":"levelo://app?vid=b84a83e5-4133-4a6b-9257-0f036e02ea7a","ios":"levelo://app?vid=b84a83e5-4133-4a6b-9257-0f036e02ea7a"},"vehicle_type_id":"4","last_reported":1706976533,"current_range_meters":31200,"station_id":"ce4bhoh2rcd13ifvqh5g","pricing_plan_id":"free"},{"bike_id":"e648d796-1876-4555-b36f-9ec97bce0aa8","system_id":"levelo_inurba_marseille","lat":43.280729,"lon":5.352424,"is_reserved":false,"is_disabled":false,"rental_uris":{"android":"levelo://app?vid=e648d796-1876-4555-b36f-9ec97bce0aa8","ios":"levelo://app?vid=e648d796-1876-4555-b36f-9ec97bce0aa8"},"vehicle_type_id":"4","last_reported":1706976533,"current_range_meters":0,"station_id":"","pricing_plan_id":"free"},{"bike_id":"0bc731ec-452d-4086-8dd0-a0aae3bb7257","system_id":"levelo_inurba_marseille","lat":43.28573,"lon":5.394992,"is_reserved":false,"is_disabled":false,"rental_uris":{"android":"levelo://app?vid=0bc731ec-452d-4086-8dd0-a0aae3bb7257","ios":"levelo://app?vid=0bc731ec-452d-4086-8dd0-a0aae3bb7257"},"vehicle_type_id":"4","last_reported":1706976533,"current_range_meters":6000,"station_id":"ce4bh292rcd13ifvqdg0","pricing_plan_id":"free"},{"bike_id":"90027e4f-fb1b-4a35-a1b2-a80562f0ead7","system_id":"levelo_inurba_marseille","lat":43.28573,"lon":5.394992,"is_reserved":false,"is_disabled":false,"rental_uris":{"android":"levelo://app?vid=90027e4f-fb1b-4a35-a1b2-a80562f0ead7","ios":"levelo://app?vid=90027e4f-fb1b-4a35-a1b2-a80562f0ead7"},"vehicle_type_id":"4","last_reported":1706976533,"current_range_meters":11600,"station_id":"ce4bh292rcd13ifvqdg0","pricing_plan_id":"free"},{"bike_id":"f96e3430-9f2e-41b2-87b7-9b93a11280d9","system_id":"levelo_inurba_marseille","lat":43.326605,"lon":5.409903,"is_reserved":false,"is_disabled":false,"rental_uris":{"android":"levelo://app?vid=f96e3430-9f2e-41b2-87b7-9b93a11280d9","ios":"levelo://app?vid=f96e3430-9f2e-41b2-87b7-9b93a11280d9"},"vehicle_type_id":"4","last_reported":1706976533,"current_range_meters":30400,"station_id":"ce4bhpp2rcd13ifvqhgg","pricing_plan_id":"free"},{"bike_id":"33c5ead6-fc18-4711-b2cc-1fe564d76517","system_id":"levelo_inurba_marseille","lat":43.279087,"lon":5.380114,"is_reserved":false,"is_disabled":false,"rental_uris":{"android":"levelo://app?vid=33c5ead6-fc18-4711-b2cc-1fe564d76517","ios":"levelo://app?vid=33c5ead6-fc18-4711-b2cc-1fe564d76517"},"vehicle_type_id":"4","last_reported":1706976533,"current_range_meters":26000,"station_id":"ce4bhf92rcd13ifvqf50","pricing_plan_id":"free"},{"bike_id":"de90ddec-1a33-4703-9c6d-3e9c7127fedd","system_id":"levelo_inurba_marseille","lat":43.287154,"lon":5.399979,"is_reserved":false,"is_disabled":false,"rental_uris":{"android":"levelo://app?vid=de90ddec-1a33-4703-9c6d-3e9c7127fedd","ios":"levelo://app?vid=de90ddec-1a33-4703-9c6d-3e9c7127fedd"},"vehicle_type_id":"4","last_reported":1706976533,"current_range_meters":29200,"station_id":"ce4bho92rcd13ifvqh3g","pricing_plan_id":"free"},{"bike_id":"bd7380b5-7859-409a-9521-5f7b593411f2","system_id":"levelo_inurba_marseille","lat":43.320045,"lon":5.415048,"is_reserved":false,"is_disabled":false,"rental_uris":{"android":"levelo://app?vid=bd7380b5-7859-409a-9521-5f7b593411f2","ios":"levelo://app?vid=bd7380b5-7859-409a-9521-5f7b593411f2"},"vehicle_type_id":"4","last_reported":1706976533,"current_range_meters":7200,"station_id":"ce4bhq92rcd13ifvqhkg","pricing_plan_id":"free"},{"bike_id":"1c6c11c3-321c-4f7a-89af-8562eafb03ce","system_id":"levelo_inurba_marseille","lat":43.320045,"lon":5.415046,"is_reserved":false,"is_disabled":false,"rental_uris":{"android":"levelo://app?vid=1c6c11c3-321c-4f7a-89af-8562eafb03ce","ios":"levelo://app?vid=1c6c11c3-321c-4f7a-89af-8562eafb03ce"},"vehicle_type_id":"4","last_reported":1706976533,"current_range_meters":29200,"station_id":"ce4bhq92rcd13ifvqhkg","pricing_plan_id":"free"},{"bike_id":"727367bf-d928-4051-b094-deec5d376ddc","system_id":"levelo_inurba_marseille","lat":43.299577,"lon":5.413277,"is_reserved":false,"is_disabled":false,"rental_uris":{"android":"levelo://app?vid=727367bf-d928-4051-b094-deec5d376ddc","ios":"levelo://app?vid=727367bf-d928-4051-b094-deec5d376ddc"},"vehicle_type_id":"4","last_reported":1706976533,"current_range_meters":11200,"station_id":"ce4bhp12rcd13ifvqh9g","pricing_plan_id":"free"},{"bike_id":"04809f31-9c8f-4887-90d9-a6aaddf09e5a","system_id":"levelo_inurba_marseille","lat":43.299577,"lon":5.413277,"is_reserved":false,"is_disabled":false,"rental_uris":{"android":"levelo://app?vid=04809f31-9c8f-4887-90d9-a6aaddf09e5a","ios":"levelo://app?vid=04809f31-9c8f-4887-90d9-a6aaddf09e5a"},"vehicle_type_id":"4","last_reported":1706976533,"current_range_meters":30000,"station_id":"ce4bhp12rcd13ifvqh9g","pricing_plan_id":"free"},{"bike_id":"1dc77b5e-9a4d-4d01-923e-8f1f98e837ff","system_id":"levelo_inurba_marseille","lat":43.27977,"lon":5.3874,"is_reserved":false,"is_disabled":false,"rental_uris":{"android":"levelo://app?vid=1dc77b5e-9a4d-4d01-923e-8f1f98e837ff","ios":"levelo://app?vid=1dc77b5e-9a4d-4d01-923e-8f1f98e837ff"},"vehicle_type_id":"4","last_reported":1706976533,"current_range_meters":0,"station_id":"ce4bhg12rcd13ifvqf80","pricing_plan_id":"free"},{"bike_id":"e2a4e01e-13fd-400b-856f-c40bb6d01387","system_id":"levelo_inurba_marseille","lat":43.27618,"lon":5.361009,"is_reserved":false,"is_disabled":false,"rental_uris":{"android":"levelo://app?vid=e2a4e01e-13fd-400b-856f-c40bb6d01387","ios":"levelo://app?vid=e2a4e01e-13fd-400b-856f-c40bb6d01387"},"vehicle_type_id":"4","last_reported":1706976533,"current_range_meters":30000,"station_id":"ce4bgj92rcd13ifvqbe0","pricing_plan_id":"free"},{"bike_id":"071793e4-f3d7-4153-8ac5-b9fec2705913","system_id":"levelo_inurba_marseille","lat":43.27618,"lon":5.361009,"is_reserved":false,"is_disabled":false,"rental_uris":{"android":"levelo://app?vid=071793e4-f3d7-4153-8ac5-b9fec2705913","ios":"levelo://app?vid=071793e4-f3d7-4153-8ac5-b9fec2705913"},