{"last_updated":1761430119,"ttl":60,"version":"2.2","data":{"bikes":[{"bike_id":"e08d4553-4c0b-4986-8aac-0bde0cbffe65","system_id":"levelo_inurba_marseille","lat":43.28942,"lon":5.39646,"is_reserved":false,"is_disabled":true,"rental_uris":{"android":"levelo://app?vid=e08d4553-4c0b-4986-8aac-0bde0cbffe65","ios":"levelo://app?vid=e08d4553-4c0b-4986-8aac-0bde0cbffe65"},"vehicle_type_id":"4","last_reported":1761430119,"current_range_meters":2800,"station_id":"ce4bh3h2rcd13ifvqdn0","pricing_plan_id":"cebpf4jnsgd1na2vs0mg"},{"bike_id":"85afcb9d-9b6c-4a84-8c6c-3218f3337a86","system_id":"levelo_inurba_marseille","lat":43.24893,"lon":5.3896,"is_reserved":false,"is_disabled":false,"rental_uris":{"android":"levelo://app?vid=85afcb9d-9b6c-4a84-8c6c-3218f3337a86","ios":"levelo://app?vid=85afcb9d-9b6c-4a84-8c6c-3218f3337a86"},"vehicle_type_id":"4","last_reported":1761430119,"current_range_meters":2800,"station_id":"","pricing_plan_id":"cebpf4jnsgd1na2vs0mg"},{"bike_id":"323bf2de-3bb4-4b4c-b330-b19ea807dbf5","system_id":"levelo_inurba_marseille","lat":43.32997,"lon":5.42953,"is_reserved":false,"is_disabled":false,"rental_uris":{"android":"levelo://app?vid=323bf2de-3bb4-4b4c-b330-b19ea807dbf5","ios":"levelo://app?vid=323bf2de-3bb4-4b4c-b330-b19ea807dbf5"},"vehicle_type_id":"4","last_reported":1761430119,"current_range_meters":2800,"station_id":"","pricing_plan_id":"cebpf4jnsgd1na2vs0mg"},{"bike_id":"17bd9fff-f8a7-45af-8120-cab272292f42","system_id":"levelo_inurba_marseille","lat":43.28471,"lon":5.48404,"is_reserved":false,"is_disabled":false,"rental_uris":{"android":"levelo://app?vid=17bd9fff-f8a7-45af-8120-cab272292f42","ios":"levelo://app?vid=17bd9fff-f8a7-45af-8120-cab272292f42"},"vehicle_type_id":"4","last_reported":1761430119,"current_range_meters":2800,"station_id":"st_d3svhcjqgbts73a3dn0g","pricing_plan_id":"cebpf4jnsgd1na2vs0mg"},{"bike_id":"08a72e1f-ac76-4079-b6a1-65ff0bdda97d","system_id":"levelo_inurba_marseille","lat":43.32477,"lon":5.36574,"is_reserved":false,"is_disabled":false,"rental_uris":{"android":"levelo://app?vid=08a72e1f-ac76-4079-b6a1-65ff0bdda97d","ios":"levelo://app?vid=08a72e1f-ac76-4079-b6a1-65ff0bdda97d"},"vehicle_type_id":"4","last_reported":1761430119,"current_range_meters":3600,"station_id":"ce4bhs12rcd13ifvqhvg","pricing_plan_id":"cebpf4jnsgd1na2vs0mg"},{"bike_id":"8504096e-568d-467f-a038-ca9bbb9a8300","system_id":"levelo_inurba_marseille","lat":43.29878,"lon":5.37606,"is_reserved":false,"is_disabled":false,"rental_uris":{"android":"levelo://app?vid=8504096e-568d-467f-a038-ca9bbb9a8300","ios":"levelo://app?vid=8504096e-568d-467f-a038-ca9bbb9a8300"},"vehicle_type_id":"4","last_reported":1761430119,"current_range_meters":3600,"station_id":"","pricing_plan_id":"cebpf4jnsgd1na2vs0mg"},{"bike_id":"d1e4b9a6-0d73-4699-b946-bacfe0253dbc","system_id":"levelo_inurba_marseille","lat":43.27067,"lon":5.38306,"is_reserved":false,"is_disabled":false,"rental_uris":{"android":"levelo://app?vid=d1e4b9a6-0d73-4699-b946-bacfe0253dbc","ios":"levelo://app?vid=d1e4b9a6-0d73-4699-b946-bacfe0253dbc"},"vehicle_type_id":"4","last_reported":1761430119,"current_range_meters":4000,"station_id":"st_d3n2fo6cfp8s73cte1j0","pricing_plan_id":"cebpf4jnsgd1na2vs0mg"},{"bike_id":"00fd3c6a-780c-49dc-9993-d4de69c9b57a","system_id":"levelo_inurba_marseille","lat":43.310738,"lon":5.37455,"is_reserved":false,"is_disabled":false,"rental_uris":{"android":"levelo://app?vid=00fd3c6a-780c-49dc-9993-d4de69c9b57a","ios":"levelo://app?vid=00fd3c6a-780c-49dc-9993-d4de69c9b57a"},"vehicle_type_id":"4","last_reported":1761430119,"current_range_meters":4400,"station_id":"","pricing_plan_id":"cebpf4jnsgd1na2vs0mg"},{"bike_id":"b9764ed2-f91a-421e-b54e-d7527bd8af22","system_id":"levelo_inurba_marseille","lat":43.29811,"lon":5.36588,"is_reserved":false,"is_disabled":false,"rental_uris":{"android":"levelo://app?vid=b9764ed2-f91a-421e-b54e-d7527bd8af22","ios":"levelo://app?vid=b9764ed2-f91a-421e-b54e-d7527bd8af22"},"vehicle_type_id":"4","last_reported":1761430119,"current_range_meters":4800,"station_id":"","pricing_plan_id":"cebpf4jnsgd1na2vs0mg"},{"bike_id":"8bcacd78-80de-4026-af75-b37ebe3030fe","system_id":"levelo_inurba_marseille","lat":43.334756,"lon":5.404255,"is_reserved":false,"is_disabled":false,"rental_uris":{"android":"levelo://app?vid=8bcacd78-80de-4026-af75-b37ebe3030fe","ios":"levelo://app?vid=8bcacd78-80de-4026-af75-b37ebe3030fe"},"vehicle_type_id":"4","last_reported":1761430119,"current_range_meters":4800,"station_id":"","pricing_plan_id":"cebpf4jnsgd1na2vs0mg"},{"bike_id":"645a2134-62e6-4999-a39e-f5da207de569","system_id":"levelo_inurba_marseille","lat":43.30078,"lon":5.39089,"is_reserved":false,"is_disabled":false,"rental_uris":{"android":"levelo://app?vid=645a2134-62e6-4999-a39e-f5da207de569","ios":"levelo://app?vid=645a2134-62e6-4999-a39e-f5da207de569"},"vehicle_type_id":"4","last_reported":1761430119,"current_range_meters":5600,"station_id":"ce4bh192rcd13ifvqdb0","pricing_plan_id":"cebpf4jnsgd1na2vs0mg"},{"bike_id":"cb14a91a-e5a7-4fa2-9c1d-b1acec3d3362","system_id":"levelo_inurba_marseille","lat":43.24177,"lon":5.36395,"is_reserved":false,"is_disabled":false,"rental_uris":{"android":"levelo://app?vid=cb14a91a-e5a7-4fa2-9c1d-b1acec3d3362","ios":"levelo://app?vid=cb14a91a-e5a7-4fa2-9c1d-b1acec3d3362"},"vehicle_type_id":"4","last_reported":1761430119,"current_range_meters":5600,"station_id":"cpo36qri1sfpv3e86is0","pricing_plan_id":"cebpf4jnsgd1na2vs0mg"},{"bike_id":"eea7930f-7dc8-48a5-93d4-e23ad615befa","system_id":"levelo_inurba_marseille","lat":43.29029,"lon":5.38144,"is_reserved":false,"is_disabled":false,"rental_uris":{"android":"levelo://app?vid=eea7930f-7dc8-48a5-93d4-e23ad615befa","ios":"levelo://app?vid=eea7930f-7dc8-48a5-93d4-e23ad615befa"},"vehicle_type_id":"4","last_reported":1761430119,"current_range_meters":5600,"station_id":"ce4bh4p2rcd13ifvqe1g","pricing_plan_id":"cebpf4jnsgd1na2vs0mg"},{"bike_id":"ef9f94b6-49db-4195-b862-563223e2ba3d","system_id":"levelo_inurba_marseille","lat":43.21737,"lon":5.34604,"is_reserved":false,"is_disabled":false,"rental_uris":{"android":"levelo://app?vid=ef9f94b6-49db-4195-b862-563223e2ba3d","ios":"levelo://app?vid=ef9f94b6-49db-4195-b862-563223e2ba3d"},"vehicle_type_id":"4","last_reported":1761430119,"current_range_meters":6000,"station_id":"st_cvj6r9ubvosntc0bgbag","pricing_plan_id":"cebpf4jnsgd1na2vs0mg"},{"bike_id":"9881c788-42a8-46f5-8ccc-580a73583155","system_id":"levelo_inurba_marseille","lat":43.32048,"lon":5.40907,"is_reserved":false,"is_disabled":false,"rental_uris":{"android":"levelo://app?vid=9881c788-42a8-46f5-8ccc-580a73583155","ios":"levelo://app?vid=9881c788-42a8-46f5-8ccc-580a73583155"},"vehicle_type_id":"4","last_reported":1761430119,"current_range_meters":6000,"station_id":"","pricing_plan_id":"cebpf4jnsgd1na2vs0mg"},{"bike_id":"e28b01bc-016a-40f4-9cc2-b2c4a99d4b8e","system_id":"levelo_inurba_marseille","lat":43.29281,"lon":5.40121,"is_reserved":false,"is_disabled":false,"rental_uris":{"android":"levelo://app?vid=e28b01bc-016a-40f4-9cc2-b2c4a99d4b8e","ios":"levelo://app?vid=e28b01bc-016a-40f4-9cc2-b2c4a99d4b8e"},"vehicle_type_id":"4","last_reported":1761430119,"current_range_meters":6400,"station_id":"ce4bh312rcd13ifvqdk0","pricing_plan_id":"cebpf4jnsgd1na2vs0mg"},{"bike_id":"2842f5fd-7b05-4b47-909c-5ee54d7d3bc5","system_id":"levelo_inurba_marseille","lat":43.32457,"lon":5.4273,"is_reserved":false,"is_disabled":false,"rental_uris":{"android":"levelo://app?vid=2842f5fd-7b05-4b47-909c-5ee54d7d3bc5","ios":"levelo://app?vid=2842f5fd-7b05-4b47-909c-5ee54d7d3bc5"},"vehicle_type_id":"4","last_reported":1761430119,"current_range_meters":6400,"station_id":"","pricing_plan_id":"cebpf4jnsgd1na2vs0mg"},{"bike_id":"139d020b-78f9-452a-b9f6-07a4ecc161b4","system_id":"levelo_inurba_marseille","lat":43.24539,"lon":5.39497,"is_reserved":false,"is_disabled":false,"rental_uris":{"android":"levelo://app?vid=139d020b-78f9-452a-b9f6-07a4ecc161b4","ios":"levelo://app?vid=139d020b-78f9-452a-b9f6-07a4ecc161b4"},"vehicle_type_id":"4","last_reported":1761430119,"current_range_meters":6400,"station_id":"ce4bhlp2rcd13ifvqgjg","pricing_plan_id":"cebpf4jnsgd1na2vs0mg"},{"bike_id":"af37cf42-0c62-43d0-bb3a-42bf13c7a169","system_id":"levelo_inurba_marseille","lat":43.27917,"lon":5.39562,"is_reserved":false,"is_disabled":false,"rental_uris":{"android":"levelo://app?vid=af37cf42-0c62-43d0-bb3a-42bf13c7a169","ios":"levelo://app?vid=af37cf42-0c62-43d0-bb3a-42bf13c7a169"},"vehicle_type_id":"4","last_reported":1761430119,"current_range_meters":6400,"station_id":"ce4bhf92rcd13ifvqf40","pricing_plan_id":"cebpf4jnsgd1na2vs0mg"},{"bike_id":"4cc0edfc-ff46-4c96-9438-209e9afb380b","system_id":"levelo_inurba_marseille","lat":43.28196,"lon":5.37265,"is_reserved":false,"is_disabled":false,"rental_uris":{"android":"levelo://app?vid=4cc0edfc-ff46-4c96-9438-209e9afb380b","ios":"levelo://app?vid=4cc0edfc-ff46-4c96-9438-209e9afb380b"},"vehicle_type_id":"4","last_reported":1761430119,"current_range_meters":6800,"station_id":"","pricing_plan_id":"cebpf4jnsgd1na2vs0mg"},{"bike_id":"31db15ab-ab00-40f3-a657-86700e178a92","system_id":"levelo_inurba_marseille","lat":43.24386,"lon":5.37053,"is_reserved":false,"is_disabled":false,"rental_uris":{"android":"levelo://app?vid=31db15ab-ab00-40f3-a657-86700e178a92","ios":"levelo://app?vid=31db15ab-ab00-40f3-a657-86700e178a92"},"vehicle_type_id":"4","last_reported":1761430119,"current_range_meters":6800,"station_id":"ce4bhhh2rcd13ifvqfk0","pricing_plan_id":"cebpf4jnsgd1na2vs0mg"},{"bike_id":"075437ac-c0f1-460f-b642-0f80c1075d0a","system_id":"levelo_inurba_marseille","lat":43.2418,"lon":5.39736,"is_reserved":false,"is_disabled":false,"rental_uris":{"android":"levelo://app?vid=075437ac-c0f1-460f-b642-0f80c1075d0a","ios":"levelo://app?vid=075437ac-c0f1-460f-b642-0f80c1075d0a"},"vehicle_type_id":"4","last_reported":1761430119,"current_range_meters":6800,"station_id":"ce4bhn12rcd13ifvqgpg","pricing_plan_id":"cebpf4jnsgd1na2vs0mg"},{"bike_id":"23eeae47-ea25-4ef9-b222-187873d49cea","system_id":"levelo_inurba_marseille","lat":43.3169,"lon":5.40468,"is_reserved":false,"is_disabled":false,"rental_uris":{"android":"levelo://app?vid=23eeae47-ea25-4ef9-b222-187873d49cea","ios":"levelo://app?vid=23eeae47-ea25-4ef9-b222-187873d49cea"},"vehicle_type_id":"4","last_reported":1761430119,"current_range_meters":6800,"station_id":"ce4bh012rcd13ifvqd00","pricing_plan_id":"cebpf4jnsgd1na2vs0mg"},{"bike_id":"5b24dd96-436b-428c-9566-6f84c4ddc32f","system_id":"levelo_inurba_marseille","lat":43.284811,"lon":5.384158,"is_reserved":false,"is_disabled":false,"rental_uris":{"android":"levelo://app?vid=5b24dd96-436b-428c-9566-6f84c4ddc32f","ios":"levelo://app?vid=5b24dd96-436b-428c-9566-6f84c4ddc32f"},"vehicle_type_id":"4","last_reported":1761430119,"current_range_meters":6800,"station_id":"ce4bh512rcd13ifvqe3g","pricing_plan_id":"cebpf4jnsgd1na2vs0mg"},{"bike_id":"ed822868-df0a-407a-9755-943db2d77528","system_id":"levelo_inurba_marseille","lat":43.29393,"lon":5.37264,"is_reserved":false,"is_disabled":false,"rental_uris":{"android":"levelo://app?vid=ed822868-df0a-407a-9755-943db2d77528","ios":"levelo://app?vid=ed822868-df0a-407a-9755-943db2d77528"},"vehicle_type_id":"4","last_reported":1761430119,"current_range_meters":7200,"station_id":"","pricing_plan_id":"cebpf4jnsgd1na2vs0mg"},{"bike_id":"f5f241f8-ada0-4f4f-a20a-100040a9876f","system_id":"levelo_inurba_marseille","lat":43.24178,"lon":5.39735,"is_reserved":false,"is_disabled":false,"rental_uris":{"android":"levelo://app?vid=f5f241f8-ada0-4f4f-a20a-100040a9876f","ios":"levelo://app?vid=f5f241f8-ada0-4f4f-a20a-100040a9876f"},"vehicle_type_id":"4","last_reported":1761430119,"current_range_meters":7200,"station_id":"ce4bhn12rcd13ifvqgpg","pricing_plan_id":"cebpf4jnsgd1na2vs0mg"},{"bike_id":"9350e66e-1bd1-439d-9cc0-822125878999","system_id":"levelo_inurba_marseille","lat":43.29758,"lon":5.4277,"is_reserved":false,"is_disabled":false,"rental_uris":{"android":"levelo://app?vid=9350e66e-1bd1-439d-9cc0-822125878999","ios":"levelo://app?vid=9350e66e-1bd1-439d-9cc0-822125878999"},"vehicle_type_id":"4","last_reported":1761430119,"current_range_meters":7200,"station_id":"st_d3md5207bmas73dh9klg","pricing_plan_id":"cebpf4jnsgd1na2vs0mg"},{"bike_id":"e35e1247-2ec0-4206-a360-6aaa534a130f","system_id":"levelo_inurba_marseille","lat":43.28419,"lon":5.48468,"is_reserved":false,"is_disabled":false,"rental_uris":{"android":"levelo://app?vid=e35e1247-2ec0-4206-a360-6aaa534a130f","ios":"levelo://app?vid=e35e1247-2ec0-4206-a360-6aaa534a130f"},"vehicle_type_id":"4","last_reported":1761430119,"current_range_meters":7200,"station_id":"st_d3svhcjqgbts73a3dn0g","pricing_plan_id":"cebpf4jnsgd1na2vs0mg"},{"bike_id":"120ff619-a55e-400f-961f-a43081db1a2f","system_id":"levelo_inurba_marseille","lat":43.29895,"lon":5.43656,"is_reserved":false,"is_disabled":false,"rental_uris":{"android":"levelo://app?vid=120ff619-a55e-400f-961f-a43081db1a2f","ios":"levelo://app?vid=120ff619-a55e-400f-961f-a43081db1a2f"},"vehicle_type_id":"4","last_reported":1761430119,"current_range_meters":8000,"station_id":"ce4bhpp2rcd13ifvqhfg","pricing_plan_id":"cebpf4jnsgd1na2vs0mg"},{"bike_id":"5f9debc0-c360-4a2e-b517-592e9a0c2818","system_id":"levelo_inurba_marseille","lat":43.3294,"lon":5.4275,"is_reserved":false,"is_disabled":false,"rental_uris":{"android":"levelo://app?vid=5f9debc0-c360-4a2e-b517-592e9a0c2818","ios":"levelo://app?vid=5f9debc0-c360-4a2e-b517-592e9a0c2818"},"vehicle_type_id":"4","last_reported":1761430119,"current_range_meters":8000,"station_id":"","pricing_plan_id":"cebpf4jnsgd1na2vs0mg"},{"bike_id":"b860ca80-3293-461a-89e9-50273b6d2be3","system_id":"levelo_inurba_marseille","lat":43.289499,"lon":5.363901,"is_reserved":false,"is_disabled":false,"rental_uris":{"android":"levelo://app?vid=b860ca80-3293-461a-89e9-50273b6d2be3","ios":"levelo://app?vid=b860ca80-3293-461a-89e9-50273b6d2be3"},"vehicle_type_id":"4","last_reported":1761430119,"current_range_meters":8400,"station_id":"ce4bhc92rcd13ifvqetg","pricing_plan_id":"cebpf4jnsgd1na2vs0mg"},{"bike_id":"6398fd05-47e5-41f8-95bf-116d17d1d757","system_id":"levelo_inurba_marseille","lat":43.292603,"lon":5.384447,"is_reserved":false,"is_disabled":false,"rental_uris":{"android":"levelo://app?vid=6398fd05-47e5-41f8-95bf-116d17d1d757","ios":"levelo://app?vid=6398fd05-47e5-41f8-95bf-116d17d1d757"},"vehicle_type_id":"4","last_reported":1761430119,"current_range_meters":8400,"station_id":"","pricing_plan_id":"cebpf4jnsgd1na2vs0mg"},{"bike_id":"fa063608-29c2-42ab-95b5-2fc82231eea9","system_id":"levelo_inurba_marseille","lat":43.21207,"lon":5.35067,"is_reserved":false,"is_disabled":true,"rental_uris":{"android":"levelo://app?vid=fa063608-29c2-42ab-95b5-2fc82231eea9","ios":"levelo://app?vid=fa063608-29c2-42ab-95b5-2fc82231eea9"},"vehicle_type_id":"4","last_reported":1761430119,"current_range_meters":8400,"station_id":"st_cvj6sg6p6f1abm77japg","pricing_plan_id":"cebpf4jnsgd1na2vs0mg"},{"bike_id":"f29d6472-2392-452d-bfd5-4272345682cf","system_id":"levelo_inurba_marseille","lat":43.31882,"lon":5.40737,"is_reserved":false,"is_disabled":false,"rental_uris":{"android":"levelo://app?vid=f29d6472-2392-452d-bfd5-4272345682cf","ios":"levelo://app?vid=f29d6472-2392-452d-bfd5-4272345682cf"},"vehicle_type_id":"4","last_reported":1761430119,"current_range_meters":8400,"station_id":"ce4bhq12rcd13ifvqhig","pricing_plan_id":"cebpf4jnsgd1na2vs0mg"},{"bike_id":"4f5c5045-2f2c-4ab7-ad8b-eeba1d52fe66","system_id":"levelo_inurba_marseille","lat":43.31077,"lon":5.37481,"is_reserved":false,"is_disabled":false,"rental_uris":{"android":"levelo://app?vid=4f5c5045-2f2c-4ab7-ad8b-eeba1d52fe66","ios":"levelo://app?vid=4f5c5045-2f2c-4ab7-ad8b-eeba1d52fe66"},"vehicle_type_id":"4","last_reported":1761430119,"current_range_meters":8800,"station_id":"","pricing_plan_id":"cebpf4jnsgd1na2vs0mg"},{"bike_id":"e94f57f2-601c-4cad-a187-6e953770aa25","system_id":"levelo_inurba_marseille","lat":43.31221,"lon":5.37846,"is_reserved":false,"is_disabled":false,"rental_uris":{"android":"levelo://app?vid=e94f57f2-601c-4cad-a187-6e953770aa25","ios":"levelo://app?vid=e94f57f2-601c-4cad-a187-6e953770aa25"},"vehicle_type_id":"4","last_reported":1761430119,"current_range_meters":8800,"station_id":"","pricing_plan_id":"cebpf4jnsgd1na2vs0mg"},{"bike_id":"63607eb3-248e-4001-9ec1-0690f1f9728e","system_id":"levelo_inurba_marseille","lat":43.26203,"lon":5.37449,"is_reserved":false,"is_disabled":false,"rental_uris":{"android":"levelo://app?vid=63607eb3-248e-4001-9ec1-0690f1f9728e","ios":"levelo://app?vid=63607eb3-248e-4001-9ec1-0690f1f9728e"},"vehicle_type_id":"4","last_reported":1761430119,"current_range_meters":9200,"station_id":"ce4bhgp2rcd13ifvqfc0","pricing_plan_id":"cebpf4jnsgd1na2vs0mg"},{"bike_id":"a35a4922-b803-4cd9-8623-7e895c294787","system_id":"levelo_inurba_marseille","lat":43.29818,"lon":5.38256,"is_reserved":false,"is_disabled":true,"rental_uris":{"android":"levelo://app?vid=a35a4922-b803-4cd9-8623-7e895c294787","ios":"levelo://app?vid=a35a4922-b803-4cd9-8623-7e895c294787"},"vehicle_type_id":"4","last_reported":1761430119,"current_range_meters":9200,"station_id":"","pricing_plan_id":"cebpf4jnsgd1na2vs0mg"},{"bike_id":"5334db16-532d-447f-bed6-9cfa8d288895","system_id":"levelo_inurba_marseille","lat":43.25455,"lon":5.41561,"is_reserved":false,"is_disabled":false,"rental_uris":{"android":"levelo://app?vid=5334db16-532d-447f-bed6-9cfa8d288895","ios":"levelo://app?vid=5334db16-532d-447f-bed6-9cfa8d288895"},"vehicle_type_id":"4","last_reported":1761430119,"current_range_meters":9600,"station_id":"","pricing_plan_id":"cebpf4jnsgd1na2vs0mg"},{"bike_id":"63496c9e-d690-4500-b92f-a176f5c5177f","system_id":"levelo_inurba_marseille","lat":43.30605,"lon":5.37236,"is_reserved":false,"is_disabled":false,"rental_uris":{"android":"levelo://app?vid=63496c9e-d690-4500-b92f-a176f5c5177f","ios":"levelo://app?vid=63496c9e-d690-4500-b92f-a176f5c5177f"},"vehicle_type_id":"4","last_reported":1761430119,"current_range_meters":9600,"station_id":"ce4bgqh2rcd13ifvqc4g","pricing_plan_id":"cebpf4jnsgd1na2vs0mg"},{"bike_id":"7818236f-a5a6-4b5f-8f2d-4546cbb27187","system_id":"levelo_inurba_marseille","lat":43.28003,"lon":5.41675,"is_reserved":false,"is_disabled":false,"rental_uris":{"android":"levelo://app?vid=7818236f-a5a6-4b5f-8f2d-4546cbb27187","ios":"levelo://app?vid=7818236f-a5a6-4b5f-8f2d-4546cbb27187"},"vehicle_type_id":"4","last_reported":1761430119,"current_range_meters":9600,"station_id":"ce4bho12rcd13ifvqh1g","pricing_plan_id":"cebpf4jnsgd1na2vs0mg"},{"bike_id":"cd4f6c63-3107-4d7e-91c2-ae0080762823","system_id":"levelo_inurba_marseille","lat":43.275783,"lon":5.36069,"is_reserved":false,"is_disabled":false,"rental_uris":{"android":"levelo://app?vid=cd4f6c63-3107-4d7e-91c2-ae0080762823","ios":"levelo://app?vid=cd4f6c63-3107-4d7e-91c2-ae0080762823"},"vehicle_type_id":"4","last_reported":1761430119,"current_range_meters":9600,"station_id":"ce4bgj92rcd13ifvqbe0","pricing_plan_id":"cebpf4jnsgd1na2vs0mg"},{"bike_id":"7cd91938-3219-470e-835d-7418891d9874","system_id":"levelo_inurba_marseille","lat":43.265542,"lon":5.372883,"is_reserved":false,"is_disabled":false,"rental_uris":{"android":"levelo://app?vid=7cd91938-3219-470e-835d-7418891d9874","ios":"levelo://app?vid=7cd91938-3219-470e-835d-7418891d9874"},"vehicle_type_id":"4","last_reported":1761430119,"current_range_meters":9600,"station_id":"ce4bhg12rcd13ifvqf70","pricing_plan_id":"cebpf4jnsgd1na2vs0mg"},{"bike_id":"35265f4c-885e-4c6f-8031-9447464fe5d1","system_id":"levelo_inurba_marseille","lat":43.3021,"lon":5.3947,"is_reserved":false,"is_disabled":false,"rental_uris":{"android":"levelo://app?vid=35265f4c-885e-4c6f-8031-9447464fe5d1","ios":"levelo://app?vid=35265f4c-885e-4c6f-8031-9447464fe5d1"},"vehicle_type_id":"4","last_reported":1761430119,"current_range_meters":9600,"station_id":"ce4bh0p2rcd13ifvqd70","pricing_plan_id":"cebpf4jnsgd1na2vs0mg"},{"bike_id":"b271dec7-e9c0-4031-a78b-d3a50b11d54a","system_id":"levelo_inurba_marseille","lat":43.28677,"lon":5.41257,"is_reserved":false,"is_disabled":false,"rental_uris":{"android":"levelo://app?vid=b271dec7-e9c0-4031-a78b-d3a50b11d54a","ios":"levelo://app?vid=b271dec7-e9c0-4031-a78b-d3a50b11d54a"},"vehicle_type_id":"4","last_reported":1761430119,"current_range_meters":9600,"station_id":"","pricing_plan_id":"cebpf4jnsgd1na2vs0mg"},{"bike_id":"f6b5a2e1-d1b6-4263-b587-e4b6c5cf13a1","system_id":"levelo_inurba_marseille","lat":43.29266,"lon":5.38442,"is_reserved":false,"is_disabled":false,"rental_uris":{"android":"levelo://app?vid=f6b5a2e1-d1b6-4263-b587-e4b6c5cf13a1","ios":"levelo://app?vid=f6b5a2e1-d1b6-4263-b587-e4b6c5cf13a1"},"vehicle_type_id":"4","last_reported":1761430119,"current_range_meters":10000,"station_id":"ce4bh692rcd13ifvqea0","pricing_plan_id":"cebpf4jnsgd1na2vs0mg"},{"bike_id":"56fe2f21-b9a7-4dc3-9e53-b5e939d57d6a","system_id":"levelo_inurba_marseille","lat":43.27495,"lon":5.42453,"is_reserved":false,"is_disabled":false,"rental_uris":{"android":"levelo://app?vid=56fe2f21-b9a7-4dc3-9e53-b5e939d57d6a","ios":"levelo://app?vid=56fe2f21-b9a7-4dc3-9e53-b5e939d57d6a"},"vehicle_type_id":"4","last_reported":1761430119,"current_range_meters":10000,"station_id":"ce4bhn92rcd13ifvqgrg","pricing_plan_id":"cebpf4jnsgd1na2vs0mg"},{"bike_id":"8e84a817-6d2a-4cee-8314-23a2149e4760","system_id":"levelo_inurba_marseille","lat":43.29884,"lon":5.38908,"is_reserved":false,"is_disabled":false,"rental_uris":{"android":"levelo://app?vid=8e84a817-6d2a-4cee-8314-23a2149e4760","ios":"levelo://app?vid=8e84a817-6d2a-4cee-8314-23a2149e4760"},"vehicle_type_id":"4","last_reported":1761430119,"current_range_meters":10000,"station_id":"ce4bh392rcd13ifvqdl0","pricing_plan_id":"cebpf4jnsgd1na2vs0mg"},{"bike_id":"b056823b-b2ba-4b43-8bfe-f16b3ae20a99","system_id":"levelo_inurba_marseille","lat":43.3148,"lon":5.37307,"is_reserved":false,"is_disabled":false,"rental_uris":{"android":"levelo://app?vid=b056823b-b2ba-4b43-8bfe-f16b3ae20a99","ios":"levelo://app?vid=b056823b-b2ba-4b43-8bfe-f16b3ae20a99"},"vehicle_type_id":"4","last_reported":1761430119,"current_range_meters":10000,"station_id":"ce4bgt12rcd13ifvqcd0","pricing_plan_id":"cebpf4jnsgd1na2vs0mg"},{"bike_id":"9d964ec4-c537-4f1d-b21c-451d3f46b1bf","system_id":"levelo_inurba_marseille","lat":43.29893,"lon":5.37896,"is_reserved":false,"is_disabled":false,"rental_uris":{"android":"levelo://app?vid=9d964ec4-c537-4f1d-b21c-451d3f46b1bf","ios":"levelo://app?vid=9d964ec4-c537-4f1d-b21c-451d3f46b1bf"},"vehicle_type_id":"4","last_reported":1761430119,"current_range_meters":10000,"station_id":"","pricing_plan_id":"cebpf4jnsgd1na2vs0mg"},{"bike_id":"8be6a47c-9542-4fed-8109-f6d91a0f2b3f","system_id":"levelo_inurba_marseille","lat":43.29174,"lon":5.37161,"is_reserved":false,"is_disabled":false,"rental_uris":{"android":"levelo://app?vid=8be6a47c-9542-4fed-8109-f6d91a0f2b3f","ios":"levelo://app?vid=8be6a47c-9542-4fed-8109-f6d91a0f2b3f"},"vehicle_type_id":"4","last_reported":1761430119,"current_range_meters":10800,"station_id":"ce4bha92rcd13ifvqeh0","pricing_plan_id":"cebpf4jnsgd1na2vs0mg"},{"bike_id":"a2aa83e4-e905-4b86-8f17-afb82d64d8e1","system_id":"levelo_inurba_marseille","lat":43.304338,"lon":5.379081,"is_reserved":false,"is_disabled":false,"rental_uris":{"android":"levelo://app?vid=a2aa83e4-e905-4b86-8f17-afb82d64d8e1","ios":"levelo://app?vid=a2aa83e4-e905-4b86-8f17-afb82d64d8e1"},"vehicle_type_id":"4","last_reported":1761430119,"current_range_meters":11200,"station_id":"ce4bgup2rcd13ifvqcn0","pricing_plan_id":"cebpf4jnsgd1na2vs0mg"},{"bike_id":"43117888-69d1-4bc6-a73a-697554e4a08e","system_id":"levelo_inurba_marseille","lat":43.25262,"lon":5.37769,"is_reserved":false,"is_disabled":false,"rental_uris":{"android":"levelo://app?vid=43117888-69d1-4bc6-a73a-697554e4a08e","ios":"levelo://app?vid=43117888-69d1-4bc6-a73a-697554e4a08e"},"vehicle_type_id":"4","last_reported":1761430119,"current_range_meters":11600,"station_id":"","pricing_plan_id":"cebpf4jnsgd1na2vs0mg"},{"bike_id":"a6b4c6e9-c30b-47c2-a9fb-7a78b8398135","system_id":"levelo_inurba_marseille","lat":43.28271,"lon":5.35061,"is_reserved":false,"is_disabled":false,"rental_uris":{"android":"levelo://app?vid=a6b4c6e9-c30b-47c2-a9fb-7a78b8398135","ios":"levelo://app?vid=a6b4c6e9-c30b-47c2-a9fb-7a78b8398135"},"vehicle_type_id":"4","last_reported":1761430119,"current_range_meters":11600,"station_id":"ce4bhbp2rcd13ifvqerg","pricing_plan_id":"cebpf4jnsgd1na2vs0mg"},{"bike_id":"96a7d412-b1be-4c3f-822c-36dbc72c6cea","system_id":"levelo_inurba_marseille","lat":43.29579,"lon":5.39971,"is_reserved":false,"is_disabled":false,"rental_uris":{"android":"levelo://app?vid=96a7d412-b1be-4c3f-822c-36dbc72c6cea","ios":"levelo://app?vid=96a7d412-b1be-4c3f-822c-36dbc72c6cea"},"vehicle_type_id":"4","last_reported":1761430119,"current_range_meters":11600,"station_id":"ce4bh312rcd13ifvqdj0","pricing_plan_id":"cebpf4jnsgd1na2vs0mg"},{"bike_id":"35335b39-3067-4cd3-9d26-2f9a88d1c02b","system_id":"levelo_inurba_marseille","lat":43.29527,"lon":5.39045,"is_reserved":false,"is_disabled":false,"rental_uris":{"android":"levelo://app?vid=35335b39-3067-4cd3-9d26-2f9a88d1c02b","ios":"levelo://app?vid=35335b39-3067-4cd3-9d26-2f9a88d1c02b"},"vehicle_type_id":"4","last_reported":1761430119,"current_range_meters":11600,"station_id":"ce4bh3p2rcd13ifvqdp0","pricing_plan_id":"cebpf4jnsgd1na2vs0mg"},{"bike_id":"dab36927-4328-48fa-bffb-145a737de07e","system_id":"levelo_inurba_marseille","lat":43.30809,"lon":5.43537,"is_reserved":false,"is_disabled":true,"rental_uris":{"android":"levelo://app?vid=dab36927-4328-48fa-bffb-145a737de07e","ios":"levelo://app?vid=dab36927-4328-48fa-bffb-145a737de07e"},"vehicle_type_id":"4","last_reported":1761430119,"current_range_meters":12000,"station_id":"ce4bhph2rcd13ifvqheg","pricing_plan_id":"cebpf4jnsgd1na2vs0mg"},{"bike_id":"bb27bfe2-5f13-4832-a5f4-33677ca2d5b0","system_id":"levelo_inurba_marseille","lat":43.26215,"lon":5.37432,"is_reserved":false,"is_disabled":false,"rental_uris":{"android":"levelo://app?vid=bb27bfe2-5f13-4832-a5f4-33677ca2d5b0","ios":"levelo://app?vid=bb27bfe2-5f13-4832-a5f4-33677ca2d5b0"},"vehicle_type_id":"4","last_reported":1761430119,"current_range_meters":12000,"station_id":"ce4bhgp2rcd13ifvqfc0","pricing_plan_id":"cebpf4jnsgd1na2vs0mg"},{"bike_id":"5b91766d-91d0-4602-8be6-6a369c10831e","system_id":"levelo_inurba_marseille","lat":43.23788,"lon":5.36641,"is_reserved":false,"is_disabled":false,"rental_uris":{"android":"levelo://app?vid=5b91766d-91d0-4602-8be6-6a369c10831e","ios":"levelo://app?vid=5b91766d-91d0-4602-8be6-6a369c10831e"},"vehicle_type_id":"4","last_reported":1761430119,"current_range_meters":12000,"station_id":"st_d3nk18o9ro0c73en2l3g","pricing_plan_id":"cebpf4jnsgd1na2vs0mg"},{"bike_id":"c9f77e6f-0601-4ca6-bbcc-b44404cdcac3","system_id":"levelo_inurba_marseille","lat":43.290306,"lon":5.386492,"is_reserved":false,"is_disabled":false,"rental_uris":{"android":"levelo://app?vid=c9f77e6f-0601-4ca6-bbcc-b44404cdcac3","ios":"levelo://app?vid=c9f77e6f-0601-4ca6-bbcc-b44404cdcac3"},"vehicle_type_id":"4","last_reported":1761430119,"current_range_meters":12000,"station_id":"ce4bh4p2rcd13ifvqe0g","pricing_plan_id":"cebpf4jnsgd1na2vs0mg"},{"bike_id":"f5fe15d2-0744-4b64-9022-8cc4d29d3f35","system_id":"levelo_inurba_marseille","lat":43.29407,"lon":5.387,"is_reserved":false,"is_disabled":false,"rental_uris":{"android":"levelo://app?vid=f5fe15d2-0744-4b64-9022-8cc4d29d3f35","ios":"levelo://app?vid=f5fe15d2-0744-4b64-9022-8cc4d29d3f35"},"vehicle_type_id":"4","last_reported":1761430119,"current_range_meters":12000,"station_id":"","pricing_plan_id":"cebpf4jnsgd1na2vs0mg"},{"bike_id":"8c35a7e4-8378-4fdf-b42f-02e88b6199ca","system_id":"levelo_inurba_marseille","lat":43.32101,"lon":5.3676,"is_reserved":false,"is_disabled":false,"rental_uris":{"android":"levelo://app?vid=8c35a7e4-8378-4fdf-b42f-02e88b6199ca","ios":"levelo://app?vid=8c35a7e4-8378-4fdf-b42f-02e88b6199ca"},"vehicle_type_id":"4","last_reported":1761430119,"current_range_meters":12000,"station_id":"ce4bhrh2rcd13ifvqhug","pricing_plan_id":"cebpf4jnsgd1na2vs0mg"},{"bike_id":"1a8a4bd1-ee63-4b53-836d-d34ac5fae822","system_id":"levelo_inurba_marseille","lat":43.29539,"lon":5.38546,"is_reserved":false,"is_disabled":false,"rental_uris":{"android":"levelo://app?vid=1a8a4bd1-ee63-4b53-836d-d34ac5fae822","ios":"levelo://app?vid=1a8a4bd1-ee63-4b53-836d-d34ac5fae822"},"vehicle_type_id":"4","last_reported":1761430119,"current_range_meters":12400,"station_id":"ce4bgih2rcd13ifvqba0","pricing_plan_id":"cebpf4jnsgd1na2vs0mg"},{"bike_id":"23641c40-293a-41a0-ba10-0e1994516b0a","system_id":"levelo_inurba_marseille","lat":43.28618,"lon":5.35103,"is_reserved":false,"is_disabled":false,"rental_uris":{"android":"levelo://app?vid=23641c40-293a-41a0-ba10-0e1994516b0a","ios":"levelo://app?vid=23641c40-293a-41a0-ba10-0e1994516b0a"},"vehicle_type_id":"4","last_reported":1761430119,"current_range_meters":12400,"station_id":"ce4bhch2rcd13ifvqeug","pricing_plan_id":"cebpf4jnsgd1na2vs0mg"},{"bike_id":"f39598b4-29ff-4f21-be45-0a249ecf2690","system_id":"levelo_inurba_marseille","lat":43.27924,"lon":5.39581,"is_reserved":false,"is_disabled":false,"rental_uris":{"android":"levelo://app?vid=f39598b4-29ff-4f21-be45-0a249ecf2690","ios":"levelo://app?vid=f39598b4-29ff-4f21-be45-0a249ecf2690"},"vehicle_type_id":"4","last_reported":1761430119,"current_range_meters":12800,"station_id":"ce4bhf92rcd13ifvqf40","pricing_plan_id":"cebpf4jnsgd1na2vs0mg"},{"bike_id":"d3145067-3ca0-4e72-b01a-ef78c0959aad","system_id":"levelo_inurba_marseille","lat":43.30238,"lon":5.4005,"is_reserved":false,"is_disabled":true,"rental_uris":{"android":"levelo://app?vid=d3145067-3ca0-4e72-b01a-ef78c0959aad","ios":"levelo://app?vid=d3145067-3ca0-4e72-b01a-ef78c0959aad"},"vehicle_type_id":"4","last_reported":1761430119,"current_range_meters":13600,"station_id":"ce4bgvh2rcd13ifvqcs0","pricing_plan_id":"cebpf4jnsgd1na2vs0mg"},{"bike_id":"d6ee98be-5a2b-4a21-8842-25deb9254195","system_id":"levelo_inurba_marseille","lat":43.27077,"lon":5.42276,"is_reserved":false,"is_disabled":false,"rental_uris":{"android":"levelo://app?vid=d6ee98be-5a2b-4a21-8842-25deb9254195","ios":"levelo://app?vid=d6ee98be-5a2b-4a21-8842-25deb9254195"},"vehicle_type_id":"4","last_reported":1761430119,"current_range_meters":14000,"station_id":"ce4bhk92rcd13ifvqgb0","pricing_plan_id":"cebpf4jnsgd1na2vs0mg"},{"bike_id":"51f6b392-8d0d-41b5-9bf6-76a949608beb","system_id":"levelo_inurba_marseille","lat":43.25333,"lon":5.42156,"is_reserved":false,"is_disabled":false,"rental_uris":{"android":"levelo://app?vid=51f6b392-8d0d-41b5-9bf6-76a949608beb","ios":"levelo://app?vid=51f6b392-8d0d-41b5-9bf6-76a949608beb"},"vehicle_type_id":"4","last_reported":1761430119,"current_range_meters":14000,"station_id":"st_d2m65c5bi1j21697t3ng","pricing_plan_id":"cebpf4jnsgd1na2vs0mg"},{"bike_id":"d0d97312-c0ce-4e35-b465-0113c6bd0b31","system_id":"levelo_inurba_marseille","lat":43.2396,"lon":5.36638,"is_reserved":false,"is_disabled":false,"rental_uris":{"android":"levelo://app?vid=d0d97312-c0ce-4e35-b465-0113c6bd0b31","ios":"levelo://app?vid=d0d97312-c0ce-4e35-b465-0113c6bd0b31"},"vehicle_type_id":"4","last_reported":1761430119,"current_range_meters":14000,"station_id":"ce4bhi12rcd13ifvqfp0","pricing_plan_id":"cebpf4jnsgd1na2vs0mg"},{"bike_id":"22e1aad4-c090-4ecd-8ba6-0319da6ce974","system_id":"levelo_inurba_marseille","lat":43.29049,"lon":5.35901,"is_reserved":false,"is_disabled":false,"rental_uris":{"android":"levelo://app?vid=22e1aad4-c090-4ecd-8ba6-0319da6ce974","ios":"levelo://app?vid=22e1aad4-c090-4ecd-8ba6-0319da6ce974"},"vehicle_type_id":"4","last_reported":1761430119,"current_range_meters":14400,"station_id":"ce4bha92rcd13ifvqeg0","pricing_plan_id":"cebpf4jnsgd1na2vs0mg"},{"bike_id":"6b8486c6-4cdf-4138-b813-f784534597ae","system_id":"levelo_inurba_marseille","lat":43.32111,"lon":5.36746,"is_reserved":false,"is_disabled":false,"rental_uris":{"android":"levelo://app?vid=6b8486c6-4cdf-4138-b813-f784534597ae","ios":"levelo://app?vid=6b8486c6-4cdf-4138-b813-f784534597ae"},"vehicle_type_id":"4","last_reported":1761430119,"current_range_meters":14800,"station_id":"ce4bhrh2rcd13ifvqhug","pricing_plan_id":"cebpf4jnsgd1na2vs0mg"},{"bike_id":"086e41c1-adb0-475d-8d23-b2b1b1afd76a","system_id":"levelo_inurba_marseille","lat":43.26227,"lon":5.40456,"is_reserved":false,"is_disabled":false,"rental_uris":{"android":"levelo://app?vid=086e41c1-adb0-475d-8d23-b2b1b1afd76a","ios":"levelo://app?vid=086e41c1-adb0-475d-8d23-b2b1b1afd76a"},"vehicle_type_id":"4","last_reported":1761430119,"current_range_meters":14800,"station_id":"ce4bhmh2rcd13ifvqgmg","pricing_plan_id":"cebpf4jnsgd1na2vs0mg"},{"bike_id":"ab097f15-aad4-45c1-872b-28a77488204a","system_id":"levelo_inurba_marseille","lat":43.29898,"lon":5.43665,"is_reserved":false,"is_disabled":false,"rental_uris":{"android":"levelo://app?vid=ab097f15-aad4-45c1-872b-28a77488204a","ios":"levelo://app?vid=ab097f15-aad4-45c1-872b-28a77488204a"},"vehicle_type_id":"4","last_reported":1761430119,"current_range_meters":14800,"station_id":"ce4bhpp2rcd13ifvqhfg","pricing_plan_id":"cebpf4jnsgd1na2vs0mg"},{"bike_id":"b91d172c-6da4-4d2e-be3b-0dd32a057d94","system_id":"levelo_inurba_marseille","lat":43.29537,"lon":5.38551,"is_reserved":false,"is_disabled":false,"rental_uris":{"android":"levelo://app?vid=b91d172c-6da4-4d2e-be3b-0dd32a057d94","ios":"levelo://app?vid=b91d172c-6da4-4d2e-be3b-0dd32a057d94"},"vehicle_type_id":"4","last_reported":1761430119,"current_range_meters":14800,"station_id":"ce4bgih2rcd13ifvqba0","pricing_plan_id":"cebpf4jnsgd1na2vs0mg"},{"bike_id":"05fdd635-c7dc-48e9-9da1-ac81a4c458a2","system_id":"levelo_inurba_marseille","lat":43.295107,"lon":5.388655,"is_reserved":false,"is_disabled":false,"rental_uris":{"android":"levelo://app?vid=05fdd635-c7dc-48e9-9da1-ac81a4c458a2","ios":"levelo://app?vid=05fdd635-c7dc-48e9-9da1-ac81a4c458a2"},"vehicle_type_id":"4","last_reported":1761430119,"current_range_meters":14800,"station_id":"ce4bh3p2rcd13ifvqdp0","pricing_plan_id":"cebpf4jnsgd1na2vs0mg"},{"bike_id":"3dae4e58-acf8-461b-bdbd-4903b9e132b1","system_id":"levelo_inurba_marseille","lat":43.31986,"lon":5.38135,"is_reserved":false,"is_disabled":false,"rental_uris":{"android":"levelo://app?vid=3dae4e58-acf8-461b-bdbd-4903b9e132b1","ios":"levelo://app?vid=3dae4e58-acf8-461b-bdbd-4903b9e132b1"},"vehicle_type_id":"4","last_reported":1761430119,"current_range_meters":15200,"station_id":"ce4bhr12rcd13ifvqhpg","pricing_plan_id":"cebpf4jnsgd1na2vs0mg"},{"bike_id":"3ad4d97d-497f-4447-841e-5d883753625f","system_id":"levelo_inurba_marseille","lat":43.28273,"lon":5.35073,"is_reserved":false,"is_disabled":false,"rental_uris":{"android":"levelo://app?vid=3ad4d97d-497f-4447-841e-5d883753625f","ios":"levelo://app?vid=3ad4d97d-497f-4447-841e-5d883753625f"},"vehicle_type_id":"4","last_reported":1761430119,"current_range_meters":15200,"station_id":"ce4bhbp2rcd13ifvqerg","pricing_plan_id":"cebpf4jnsgd1na2vs0mg"},{"bike_id":"e42e3f31-fbf7-4040-bb41-121a08b42ff8","system_id":"levelo_inurba_marseille","lat":43.29267,"lon":5.38443,"is_reserved":false,"is_disabled":false,"rental_uris":{"android":"levelo://app?vid=e42e3f31-fbf7-4040-bb41-121a08b42ff8","ios":"levelo://app?vid=e42e3f31-fbf7-4040-bb41-121a08b42ff8"},"vehicle_type_id":"4","last_reported":1761430119,"current_range_meters":15200,"station_id":"ce4bh692rcd13ifvqea0","pricing_plan_id":"cebpf4jnsgd1na2vs0mg"},{"bike_id":"37d5d3c7-5b21-4af5-9cc6-eb8440c64f7e","system_id":"levelo_inurba_marseille","lat":43.294452,"lon":5.397484,"is_reserved":false,"is_disabled":false,"rental_uris":{"android":"levelo://app?vid=37d5d3c7-5b21-4af5-9cc6-eb8440c64f7e","ios":"levelo://app?vid=37d5d3c7-5b21-4af5-9cc6-eb8440c64f7e"},"vehicle_type_id":"4","last_reported":1761430119,"current_range_meters":15200,"station_id":"ce4bh3h2rcd13ifvqdo0","pricing_plan_id":"cebpf4jnsgd1na2vs0mg"},{"bike_id":"2dd98e6f-9b04-409b-bcdc-47a93c2397d4","system_id":"levelo_inurba_marseille","lat":43.2928,"lon":5.38431,"is_reserved":false,"is_disabled":false,"rental_uris":{"android":"levelo://app?vid=2dd98e6f-9b04-409b-bcdc-47a93c2397d4","ios":"levelo://app?vid=2dd98e6f-9b04-409b-bcdc-47a93c2397d4"},"vehicle_type_id":"4","last_reported":1761430119,"current_range_meters":15200,"station_id":"ce4bh692rcd13ifvqea0","pricing_plan_id":"cebpf4jnsgd1na2vs0mg"},{"bike_id":"e440e169-cb94-4246-8567-2cdb3c8eb6a0","system_id":"levelo_inurba_marseille","lat":43.30461,"lon":5.379,"is_reserved":false,"is_disabled":false,"rental_uris":{"android":"levelo://app?vid=e440e169-cb94-4246-8567-2cdb3c8eb6a0","ios":"levelo://app?vid=e440e169-cb94-4246-8567-2cdb3c8eb6a0"},"vehicle_type_id":"4","last_reported":1761430119,"current_range_meters":15200,"station_id":"ce4bgup2rcd13ifvqcn0","pricing_plan_id":"cebpf4jnsgd1na2vs0mg"},{"bike_id":"875ed736-33ec-4fd9-9ccc-07f69a3506cb","system_id":"levelo_inurba_marseille","lat":43.24558,"lon":5.39529,"is_reserved":false,"is_disabled":false,"rental_uris":{"android":"levelo://app?vid=875ed736-33ec-4fd9-9ccc-07f69a3506cb","ios":"levelo://app?vid=875ed736-33ec-4fd9-9ccc-07f69a3506cb"},"vehicle_type_id":"4","last_reported":1761430119,"current_range_meters":15200,"station_id":"ce4bhlp2rcd13ifvqgjg","pricing_plan_id":"cebpf4jnsgd1na2vs0mg"},{"bike_id":"2d2b3a0d-5fe0-4130-853e-b3238745f69f","system_id":"levelo_inurba_marseille","lat":43.26599,"lon":5.39076,"is_reserved":false,"is_disabled":false,"rental_uris":{"android":"levelo://app?vid=2d2b3a0d-5fe0-4130-853e-b3238745f69f","ios":"levelo://app?vid=2d2b3a0d-5fe0-4130-853e-b3238745f69f"},"vehicle_type_id":"4","last_reported":1761430119,"current_range_meters":15200,"station_id":"ce4bhe12rcd13ifvqf30","pricing_plan_id":"cebpf4jnsgd1na2vs0mg"},{"bike_id":"c373113c-6187-438d-b108-3349f6498547","system_id":"levelo_inurba_marseille","lat":43.29054,"lon":5.35914,"is_reserved":false,"is_disabled":false,"rental_uris":{"android":"levelo://app?vid=c373113c-6187-438d-b108-3349f6498547","ios":"levelo://app?vid=c373113c-6187-438d-b108-3349f6498547"},"vehicle_type_id":"4","last_reported":1761430119,"current_range_meters":16000,"station_id":"ce4bha92rcd13ifvqeg0","pricing_plan_id":"cebpf4jnsgd1na2vs0mg"},{"bike_id":"3cc54c1d-71ff-4f82-bf53-5c25775d2246","system_id":"levelo_inurba_marseille","lat":43.32112,"lon":5.36768,"is_reserved":false,"is_disabled":false,"rental_uris":{"android":"levelo://app?vid=3cc54c1d-71ff-4f82-bf53-5c25775d2246","ios":"levelo://app?vid=3cc54c1d-71ff-4f82-bf53-5c25775d2246"},"vehicle_type_id":"4","last_reported":1761430119,"current_range_meters":16000,"station_id":"ce4bhrh2rcd13ifvqhug","pricing_plan_id":"cebpf4jnsgd1na2vs0mg"},{"bike_id":"698f751c-6eba-40a9-b0d0-d224a6319734","system_id":"levelo_inurba_marseille","lat":43.29576,"lon":5.39969,"is_reserved":false,"is_disabled":false,"rental_uris":{"android":"levelo://app?vid=698f751c-6eba-40a9-b0d0-d224a6319734","ios":"levelo://app?vid=698f751c-6eba-40a9-b0d0-d224a6319734"},"vehicle_type_id":"4","last_reported":1761430119,"current_range_meters":16000,"station_id":"ce4bh312rcd13ifvqdj0","pricing_plan_id":"cebpf4jnsgd1na2vs0mg"},{"bike_id":"b7cd284d-3722-47c9-8280-2128a29419fc","system_id":"levelo_inurba_marseille","lat":43.289372,"lon":5.366301,"is_reserved":false,"is_disabled":false,"rental_uris":{"android":"levelo://app?vid=b7cd284d-3722-47c9-8280-2128a29419fc","ios":"levelo://app?vid=b7cd284d-3722-47c9-8280-2128a29419fc"},"vehicle_type_id":"4","last_reported":1761430119,"current_range_meters":16000,"station_id":"ce4bhap2rcd13ifvqek0","pricing_plan_id":"cebpf4jnsgd1na2vs0mg"},{"bike_id":"335dd727-035b-4ad5-b907-2376cf28a822","system_id":"levelo_inurba_marseille","lat":43.30425,"lon":5.39746,"is_reserved":false,"is_disabled":false,"rental_uris":{"android":"levelo://app?vid=335dd727-035b-4ad5-b907-2376cf28a822","ios":"levelo://app?vid=335dd727-035b-4ad5-b907-2376cf28a822"},"vehicle_type_id":"4","last_reported":1761430119,"current_range_meters":16000,"station_id":"ce4bh092rcd13ifvqd20","pricing_plan_id":"cebpf4jnsgd1na2vs0mg"},{"bike_id":"57b2114c-449f-4063-b3fa-9cdb1665b6ea","system_id":"levelo_inurba_marseille","lat":43.29294,"lon":5.38435,"is_reserved":false,"is_disabled":false,"rental_uris":{"android":"levelo://app?vid=57b2114c-449f-4063-b3fa-9cdb1665b6ea","ios":"levelo://app?vid=57b2114c-449f-4063-b3fa-9cdb1665b6ea"},"vehicle_type_id":"4","last_reported":1761430119,"current_range_meters":16400,"station_id":"ce4bh692rcd13ifvqea0","pricing_plan_id":"cebpf4jnsgd1na2vs0mg"},{"bike_id":"c0b81f28-bbba-4247-a74b-c55a34b31846","system_id":"levelo_inurba_marseille","lat":43.33258,"lon":5.41086,"is_reserved":false,"is_disabled":false,"rental_uris":{"android":"levelo://app?vid=c0b81f28-bbba-4247-a74b-c55a34b31846","ios":"levelo://app?vid=c0b81f28-bbba-4247-a74b-c55a34b31846"},"vehicle_type_id":"4","last_reported":1761430119,"current_range_meters":16400,"station_id":"","pricing_plan_id":"cebpf4jnsgd1na2vs0mg"},{"bike_id":"29b38a45-3e07-40c1-b8b1-5f85b487711f","system_id":"levelo_inurba_marseille","lat":43.31231,"lon":5.40396,"is_reserved":false,"is_disabled":false,"rental_uris":{"android":"levelo://app?vid=29b38a45-3e07-40c1-b8b1-5f85b487711f","ios":"levelo://app?vid=29b38a45-3e07-40c1-b8b1-5f85b487711f"},"vehicle_type_id":"4","last_reported":1761430119,"current_range_meters":16400,"station_id":"","pricing_plan_id":"cebpf4jnsgd1na2vs0mg"},{"bike_id":"e3c37ef6-fc8d-40f6-aaa7-3e531d410441","system_id":"levelo_inurba_marseille","lat":43.3374,"lon":5.39167,"is_reserved":false,"is_disabled":false,"rental_uris":{"android":"levelo://app?vid=e3c37ef6-fc8d-40f6-aaa7-3e531d410441","ios":"levelo://app?vid=e3c37ef6-fc8d-40f6-aaa7-3e531d410441"},"vehicle_type_id":"4","last_reported":1761430119,"current_range_meters":16400,"station_id":"ce4bhr92rcd13ifvqhsg","pricing_plan_id":"cebpf4jnsgd1na2vs0mg"},{"bike_id":"cbcdd39f-b16b-4830-bef7-1f20f112a7de","system_id":"levelo_inurba_marseille","lat":43.319954,"lon":5.381525,"is_reserved":false,"is_disabled":false,"rental_uris":{"android":"levelo://app?vid=cbcdd39f-b16b-4830-bef7-1f20f112a7de","ios":"levelo://app?vid=cbcdd39f-b16b-4830-bef7-1f20f112a7de"},"vehicle_type_id":"4","last_reported":1761430119,"current_range_meters":16400,"station_id":"ce4bhr12rcd13ifvqhpg","pricing_plan_id":"cebpf4jnsgd1na2vs0mg"},{"bike_id":"900ab184-d5eb-4bfe-873b-8cdca2a52913","system_id":"levelo_inurba_marseille","lat":43.3211,"lon":5.36771,"is_reserved":false,"is_disabled":false,"rental_uris":{"android":"levelo://app?vid=900ab184-d5eb-4bfe-873b-8cdca2a52913","ios":"levelo://app?vid=900ab184-d5eb-4bfe-873b-8cdca2a52913"},"vehicle_type_id":"4","last_reported":1761430119,"current_range_meters":16400,"station_id":"ce4bhrh2rcd13ifvqhug","pricing_plan_id":"cebpf4jnsgd1na2vs0mg"},{"bike_id":"e4746a2d-9cd3-46c8-bf0e-3a10fdb16ced","system_id":"levelo_inurba_marseille","lat":43.3236,"lon":5.36765,"is_reserved":false,"is_disabled":false,"rental_uris":{"android":"levelo://app?vid=e4746a2d-9cd3-46c8-bf0e-3a10fdb16ced","ios":"levelo://app?vid=e4746a2d-9cd3-46c8-bf0e-3a10fdb16ced"},"vehicle_type_id":"4","last_reported":1761430119,"current_range_meters":16400,"station_id":"ce4bhsh2rcd13ifvqi2g","pricing_plan_id":"cebpf4jnsgd1na2vs0mg"},{"bike_id":"bf526c33-28dd-4a6a-a10d-b02e3c57c12e","system_id":"levelo_inurba_marseille","lat":43.239614,"lon":5.366271,"is_reserved":false,"is_disabled":false,"rental_uris":{"android":"levelo://app?vid=bf526c33-28dd-4a6a-a10d-b02e3c57c12e","ios":"levelo://app?vid=bf526c33-28dd-4a6a-a10d-b02e3c57c12e"},"vehicle_type_id":"4","last_reported":1761430119,"current_range_meters":16400,"station_id":"ce4bhi12rcd13ifvqfp0","pricing_plan_id":"cebpf4jnsgd1na2vs0mg"},{"bike_id":"f72a00f1-1fed-4f6c-b4b5-8473dfdb4606","system_id":"levelo_inurba_marseille","lat":43.29687,"lon":5.40371,"is_reserved":false,"is_disabled":false,"rental_uris":{"android":"levelo://app?vid=f72a00f1-1fed-4f6c-b4b5-8473dfdb4606","ios":"levelo://app?vid=f72a00f1-1fed-4f6c-b4b5-8473dfdb4606"},"vehicle_type_id":"4","last_reported":1761430119,"current_range_meters":16400,"station_id":"","pricing_plan_id":"cebpf4jnsgd1na2vs0mg"},{"bike_id":"c1e63f6e-1577-42f4-bd8d-f7b905652e5c","system_id":"levelo_inurba_marseille","lat":43.31365,"lon":5.38501,"is_reserved":false,"is_disabled":false,"rental_uris":{"android":"levelo://app?vid=c1e63f6e-1577-42f4-bd8d-f7b905652e5c","ios":"levelo://app?vid=c1e63f6e-1577-42f4-bd8d-f7b905652e5c"},"vehicle_type_id":"4","last_reported":1761430119,"current_range_meters":16400,"station_id":"ce4bgt92rcd13ifvqcf0","pricing_plan_id":"cebpf4jnsgd1na2vs0mg"},{"bike_id":"e5bd73c9-d2fd-429b-a719-e50033314cf7","system_id":"levelo_inurba_marseille","lat":43.22585,"lon":5.41632,"is_reserved":false,"is_disabled":false,"rental_uris":{"android":"levelo://app?vid=e5bd73c9-d2fd-429b-a719-e50033314cf7","ios":"levelo://app?vid=e5bd73c9-d2fd-429b-a719-e50033314cf7"},"vehicle_type_id":"4","last_reported":1761430119,"current_range_meters":16400,"station_id":"st_d2o4gvlbi1j2169b742g","pricing_plan_id":"cebpf4jnsgd1na2vs0mg"},{"bike_id":"12cefd40-c26f-402c-b50f-33cfb17b8e9f","system_id":"levelo_inurba_marseille","lat":43.2596,"lon":5.37541,"is_reserved":false,"is_disabled":false,"rental_uris":{"android":"levelo://app?vid=12cefd40-c26f-402c-b50f-33cfb17b8e9f","ios":"levelo://app?vid=12cefd40-c26f-402c-b50f-33cfb17b8e9f"},"vehicle_type_id":"4","last_reported":1761430119,"current_range_meters":16800,"station_id":"","pricing_plan_id":"cebpf4jnsgd1na2vs0mg"},{"bike_id":"731aeccc-0da2-4fe8-a5e2-94574eb41cd3","system_id":"levelo_inurba_marseille","lat":43.278336,"lon":5.392022,"is_reserved":false,"is_disabled":false,"rental_uris":{"android":"levelo://app?vid=731aeccc-0da2-4fe8-a5e2-94574eb41cd3","ios":"levelo://app?vid=731aeccc-0da2-4fe8-a5e2-94574eb41cd3"},"vehicle_type_id":"4","last_reported":1761430119,"current_range_meters":16800,"station_id":"ce4bhjp2rcd13ifvqga0","pricing_plan_id":"cebpf4jnsgd1na2vs0mg"},{"bike_id":"131383a1-8a4f-43bc-87be-c4279527b101","system_id":"levelo_inurba_marseille","lat":43.28445,"lon":5.35922,"is_reserved":false,"is_disabled":false,"rental_uris":{"android":"levelo://app?vid=131383a1-8a4f-43bc-87be-c4279527b101","ios":"levelo://app?vid=131383a1-8a4f-43bc-87be-c4279527b101"},"vehicle_type_id":"4","last_reported":1761430119,"current_range_meters":16800,"station_id":"ce4bhah2rcd13ifvqei0","pricing_plan_id":"cebpf4jnsgd1na2vs0mg"},{"bike_id":"fc6e8bed-1b4a-4029-be58-15e852f6bfc0","system_id":"levelo_inurba_marseille","lat":43.28103,"lon":5.37833,"is_reserved":false,"is_disabled":false,"rental_uris":{"android":"levelo://app?vid=fc6e8bed-1b4a-4029-be58-15e852f6bfc0","ios":"levelo://app?vid=fc6e8bed-1b4a-4029-be58-15e852f6bfc0"},"vehicle_type_id":"4","last_reported":1761430119,"current_range_meters":16800,"station_id":"ce4bha12rcd13ifvqee0","pricing_plan_id":"cebpf4jnsgd1na2vs0mg"},{"bike_id":"41d45b45-3a52-4b5a-b2b3-1e62d5490ada","system_id":"levelo_inurba_marseille","lat":43.28524,"lon":5.44102,"is_reserved":false,"is_disabled":false,"rental_uris":{"android":"levelo://app?vid=41d45b45-3a52-4b5a-b2b3-1e62d5490ada","ios":"levelo://app?vid=41d45b45-3a52-4b5a-b2b3-1e62d5490ada"},"vehicle_type_id":"4","last_reported":1761430119,"current_range_meters":16800,"station_id":"st_d3j3df2ikq2c7380ej80","pricing_plan_id":"cebpf4jnsgd1na2vs0mg"},{"bike_id":"f4b45689-f60b-46ec-8d93-fde864eb88cf","system_id":"levelo_inurba_marseille","lat":43.27972,"lon":5.41003,"is_reserved":false,"is_disabled":false,"rental_uris":{"android":"levelo://app?vid=f4b45689-f60b-46ec-8d93-fde864eb88cf","ios":"levelo://app?vid=f4b45689-f60b-46ec-8d93-fde864eb88cf"},"vehicle_type_id":"4","last_reported":1761430119,"current_range_meters":16800,"station_id":"ce4bhnp2rcd13ifvqh0g","pricing_plan_id":"cebpf4jnsgd1na2vs0mg"},{"bike_id":"3f427bb6-4893-4874-84c4-82bff6116b3b","system_id":"levelo_inurba_marseille","lat":43.286882,"lon":5.373911,"is_reserved":false,"is_disabled":false,"rental_uris":{"android":"levelo://app?vid=3f427bb6-4893-4874-84c4-82bff6116b3b","ios":"levelo://app?vid=3f427bb6-4893-4874-84c4-82bff6116b3b"},"vehicle_type_id":"4","last_reported":1761430119,"current_range_meters":16800,"station_id":"ce4bh3p2rcd13ifvqdq0","pricing_plan_id":"cebpf4jnsgd1na2vs0mg"},{"bike_id":"e82be46c-20d7-441a-9352-cd301f47ee13","system_id":"levelo_inurba_marseille","lat":43.29265,"lon":5.38443,"is_reserved":false,"is_disabled":false,"rental_uris":{"android":"levelo://app?vid=e82be46c-20d7-441a-9352-cd301f47ee13","ios":"levelo://app?vid=e82be46c-20d7-441a-9352-cd301f47ee13"},"vehicle_type_id":"4","last_reported":1761430119,"current_range_meters":16800,"station_id":"ce4bh692rcd13ifvqea0","pricing_plan_id":"cebpf4jnsgd1na2vs0mg"},{"bike_id":"e4ccce50-4824-4895-aa8c-033835526f23","system_id":"levelo_inurba_marseille","lat":43.31876,"lon":5.39988,"is_reserved":false,"is_disabled":false,"rental_uris":{"android":"levelo://app?vid=e4ccce50-4824-4895-aa8c-033835526f23","ios":"levelo://app?vid=e4ccce50-4824-4895-aa8c-033835526f23"},"vehicle_type_id":"4","last_reported":1761430119,"current_range_meters":16800,"station_id":"","pricing_plan_id":"cebpf4jnsgd1na2vs0mg"},{"bike_id":"2e00394c-eb6e-4219-b27d-ea32ae2817c6","system_id":"levelo_inurba_marseille","lat":43.26206,"lon":5.37934,"is_reserved":false,"is_disabled":false,"rental_uris":{"android":"levelo://app?vid=2e00394c-eb6e-4219-b27d-ea32ae2817c6","ios":"levelo://app?vid=2e00394c-eb6e-4219-b27d-ea32ae2817c6"},"vehicle_type_id":"4","last_reported":1761430119,"current_range_meters":17200,"station_id":"ce4bhjp2rcd13ifvqg90","pricing_plan_id":"cebpf4jnsgd1na2vs0mg"},{"bike_id":"97533c45-dda9-4e95-a5e5-85a688cc8872","system_id":"levelo_inurba_marseille","lat":43.28928,"lon":5.38408,"is_reserved":false,"is_disabled":false,"rental_uris":{"android":"levelo://app?vid=97533c45-dda9-4e95-a5e5-85a688cc8872","ios":"levelo://app?vid=97533c45-dda9-4e95-a5e5-85a688cc8872"},"vehicle_type_id":"4","last_reported":1761430119,"current_range_meters":17200,"station_id":"ce4bh612rcd13ifvqe6g","pricing_plan_id":"cebpf4jnsgd1na2vs0mg"},{"bike_id":"3fbd66b1-e2a9-4be3-b923-94252387751e","system_id":"levelo_inurba_marseille","lat":43.27915,"lon":5.39579,"is_reserved":false,"is_disabled":false,"rental_uris":{"android":"levelo://app?vid=3fbd66b1-e2a9-4be3-b923-94252387751e","ios":"levelo://app?vid=3fbd66b1-e2a9-4be3-b923-94252387751e"},"vehicle_type_id":"4","last_reported":1761430119,"current_range_meters":17200,"station_id":"ce4bhf92rcd13ifvqf40","pricing_plan_id":"cebpf4jnsgd1na2vs0mg"},{"bike_id":"6586bf90-b8c4-4eb8-89d5-5af30c464a58","system_id":"levelo_inurba_marseille","lat":43.28701,"lon":5.39981,"is_reserved":false,"is_disabled":false,"rental_uris":{"android":"levelo://app?vid=6586bf90-b8c4-4eb8-89d5-5af30c464a58","ios":"levelo://app?vid=6586bf90-b8c4-4eb8-89d5-5af30c464a58"},"vehicle_type_id":"4","last_reported":1761430119,"current_range_meters":17200,"station_id":"ce4bho92rcd13ifvqh3g","pricing_plan_id":"cebpf4jnsgd1na2vs0mg"},{"bike_id":"33768696-a2d3-45cb-a560-e61f09030a44","system_id":"levelo_inurba_marseille","lat":43.28701,"lon":5.39985,"is_reserved":false,"is_disabled":false,"rental_uris":{"android":"levelo://app?vid=33768696-a2d3-45cb-a560-e61f09030a44","ios":"levelo://app?vid=33768696-a2d3-45cb-a560-e61f09030a44"},"vehicle_type_id":"4","last_reported":1761430119,"current_range_meters":17200,"station_id":"ce4bho92rcd13ifvqh3g","pricing_plan_id":"cebpf4jnsgd1na2vs0mg"},{"bike_id":"b011335d-d389-4c4b-a9e3-36d2c96db3fa","system_id":"levelo_inurba_marseille","lat":43.33625,"lon":5.36302,"is_reserved":false,"is_disabled":false,"rental_uris":{"android":"levelo://app?vid=b011335d-d389-4c4b-a9e3-36d2c96db3fa","ios":"levelo://app?vid=b011335d-d389-4c4b-a9e3-36d2c96db3fa"},"vehicle_type_id":"4","last_reported":1761430119,"current_range_meters":17200,"station_id":"","pricing_plan_id":"cebpf4jnsgd1na2vs0mg"},{"bike_id":"00519060-4a73-4156-8380-2e965edfa37b","system_id":"levelo_inurba_marseille","lat":43.24552,"lon":5.39525,"is_reserved":false,"is_disabled":false,"rental_uris":{"android":"levelo://app?vid=00519060-4a73-4156-8380-2e965edfa37b","ios":"levelo://app?vid=00519060-4a73-4156-8380-2e965edfa37b"},"vehicle_type_id":"4","last_reported":1761430119,"current_range_meters":17200,"station_id":"ce4bhlp2rcd13ifvqgjg","pricing_plan_id":"cebpf4jnsgd1na2vs0mg"},{"bike_id":"5da8cbaf-b985-4ba0-9fa1-96599799e17c","system_id":"levelo_inurba_marseille","lat":43.28938,"lon":5.36628,"is_reserved":false,"is_disabled":false,"rental_uris":{"android":"levelo://app?vid=5da8cbaf-b985-4ba0-9fa1-96599799e17c","ios":"levelo://app?vid=5da8cbaf-b985-4ba0-9fa1-96599799e17c"},"vehicle_type_id":"4","last_reported":1761430119,"current_range_meters":17200,"station_id":"ce4bhap2rcd13ifvqek0","pricing_plan_id":"cebpf4jnsgd1na2vs0mg"},{"bike_id":"bd669768-3f06-4c56-83c6-18e704beb8c4","system_id":"levelo_inurba_marseille","lat":43.28417,"lon":5.34981,"is_reserved":false,"is_disabled":false,"rental_uris":{"android":"levelo://app?vid=bd669768-3f06-4c56-83c6-18e704beb8c4","ios":"levelo://app?vid=bd669768-3f06-4c56-83c6-18e704beb8c4"},"vehicle_type_id":"4","last_reported":1761430119,"current_range_meters":17200,"station_id":"ce4bhbh2rcd13ifvqepg","pricing_plan_id":"cebpf4jnsgd1na2vs0mg"},{"bike_id":"076b1675-da23-4da2-8566-0b033b3d5601","system_id":"levelo_inurba_marseille","lat":43.28708,"lon":5.39993,"is_reserved":false,"is_disabled":false,"rental_uris":{"android":"levelo://app?vid=076b1675-da23-4da2-8566-0b033b3d5601","ios":"levelo://app?vid=076b1675-da23-4da2-8566-0b033b3d5601"},"vehicle_type_id":"4","last_reported":1761430119,"current_range_meters":17200,"station_id":"ce4bho92rcd13ifvqh3g","pricing_plan_id":"cebpf4jnsgd1na2vs0mg"},{"bike_id":"3da36b46-32f0-4723-8f3b-8cba39a84287","system_id":"levelo_inurba_marseille","lat":43.24387,"lon":5.37048,"is_reserved":false,"is_disabled":false,"rental_uris":{"android":"levelo://app?vid=3da36b46-32f0-4723-8f3b-8cba39a84287","ios":"levelo://app?vid=3da36b46-32f0-4723-8f3b-8cba39a84287"},"vehicle_type_id":"4","last_reported":1761430119,"current_range_meters":17200,"station_id":"ce4bhhh2rcd13ifvqfk0","pricing_plan_id":"cebpf4jnsgd1na2vs0mg"},{"bike_id":"de5cece4-6186-4ccb-b70e-a25e8bd3fc86","system_id":"levelo_inurba_marseille","lat":43.337444,"lon":5.374475,"is_reserved":false,"is_disabled":false,"rental_uris":{"android":"levelo://app?vid=de5cece4-6186-4ccb-b70e-a25e8bd3fc86","ios":"levelo://app?vid=de5cece4-6186-4ccb-b70e-a25e8bd3fc86"},"vehicle_type_id":"4","last_reported":1761430119,"current_range_meters":17200,"station_id":"","pricing_plan_id":"cebpf4jnsgd1na2vs0mg"},{"bike_id":"21bdcc57-733f-425b-bd24-99c799d60436","system_id":"levelo_inurba_marseille","lat":43.27382,"lon":5.3625,"is_reserved":false,"is_disabled":false,"rental_uris":{"android":"levelo://app?vid=21bdcc57-733f-425b-bd24-99c799d60436","ios":"levelo://app?vid=21bdcc57-733f-425b-bd24-99c799d60436"},"vehicle_type_id":"4","last_reported":1761430119,"current_range_meters":17600,"station_id":"ce4bhbh2rcd13ifvqeo0","pricing_plan_id":"cebpf4jnsgd1na2vs0mg"},{"bike_id":"476ede32-cfdc-42f2-8cc1-233e266f9923","system_id":"levelo_inurba_marseille","lat":43.295699,"lon":5.37555,"is_reserved":false,"is_disabled":false,"rental_uris":{"android":"levelo://app?vid=476ede32-cfdc-42f2-8cc1-233e266f9923","ios":"levelo://app?vid=476ede32-cfdc-42f2-8cc1-233e266f9923"},"vehicle_type_id":"4","last_reported":1761430119,"current_range_meters":17600,"station_id":"","pricing_plan_id":"cebpf4jnsgd1na2vs0mg"},{"bike_id":"dca84940-25ee-480a-9a81-b091baa19546","system_id":"levelo_inurba_marseille","lat":43.241785,"lon":5.3973,"is_reserved":false,"is_disabled":false,"rental_uris":{"android":"levelo://app?vid=dca84940-25ee-480a-9a81-b091baa19546","ios":"levelo://app?vid=dca84940-25ee-480a-9a81-b091baa19546"},"vehicle_type_id":"4","last_reported":1761430119,"current_range_meters":17600,"station_id":"ce4bhn12rcd13ifvqgpg","pricing_plan_id":"cebpf4jnsgd1na2vs0mg"},{"bike_id":"10801799-7a82-40c9-a283-2cfdf35412b0","system_id":"levelo_inurba_marseille","lat":43.29253,"lon":5.38452,"is_reserved":false,"is_disabled":false,"rental_uris":{"android":"levelo://app?vid=10801799-7a82-40c9-a283-2cfdf35412b0","ios":"levelo://app?vid=10801799-7a82-40c9-a283-2cfdf35412b0"},"vehicle_type_id":"4","last_reported":1761430119,"current_range_meters":17600,"station_id":"ce4bh692rcd13ifvqea0","pricing_plan_id":"cebpf4jnsgd1na2vs0mg"},{"bike_id":"67f8857f-0853-46d2-b9ef-96c5ce2639bc","system_id":"levelo_inurba_marseille","lat":43.23051,"lon":5.35481,"is_reserved":false,"is_disabled":false,"rental_uris":{"android":"levelo://app?vid=67f8857f-0853-46d2-b9ef-96c5ce2639bc","ios":"levelo://app?vid=67f8857f-0853-46d2-b9ef-96c5ce2639bc"},"vehicle_type_id":"4","last_reported":1761430119,"current_range_meters":17600,"station_id":"cpo3342slgdg3j2ifvpg","pricing_plan_id":"cebpf4jnsgd1na2vs0mg"},{"bike_id":"330641b7-d906-48db-bce9-0f980fac0407","system_id":"levelo_inurba_marseille","lat":43.25086,"lon":5.39528,"is_reserved":false,"is_disabled":false,"rental_uris":{"android":"levelo://app?vid=330641b7-d906-48db-bce9-0f980fac0407","ios":"levelo://app?vid=330641b7-d906-48db-bce9-0f980fac0407"},"vehicle_type_id":"4","last_reported":1761430119,"current_range_meters":17600,"station_id":"ce4bhm12rcd13ifvqgkg","pricing_plan_id":"cebpf4jnsgd1na2vs0mg"},{"bike_id":"4a003757-c8b1-4411-bc6b-5cac33b2bc07","system_id":"levelo_inurba_marseille","lat":43.31757,"lon":5.3901,"is_reserved":false,"is_disabled":false,"rental_uris":{"android":"levelo://app?vid=4a003757-c8b1-4411-bc6b-5cac33b2bc07","ios":"levelo://app?vid=4a003757-c8b1-4411-bc6b-5cac33b2bc07"},"vehicle_type_id":"4","last_reported":1761430119,"current_range_meters":17600,"station_id":"ce4bhqp2rcd13ifvqhng","pricing_plan_id":"cebpf4jnsgd1na2vs0mg"},{"bike_id":"e5aafa61-e384-4c69-800b-fe726c41fdc6","system_id":"levelo_inurba_marseille","lat":43.29989,"lon":5.38496,"is_reserved":false,"is_disabled":true,"rental_uris":{"android":"levelo://app?vid=e5aafa61-e384-4c69-800b-fe726c41fdc6","ios":"levelo://app?vid=e5aafa61-e384-4c69-800b-fe726c41fdc6"},"vehicle_type_id":"4","last_reported":1761430119,"current_range_meters":17600,"station_id":"ce4bgj92rcd13ifvqbd0","pricing_plan_id":"cebpf4jnsgd1na2vs0mg"},{"bike_id":"4344a96b-584d-49d5-ae96-eaf43db9b361","system_id":"levelo_inurba_marseille","lat":43.289337,"lon":5.366369,"is_reserved":false,"is_disabled":false,"rental_uris":{"android":"levelo://app?vid=4344a96b-584d-49d5-ae96-eaf43db9b361","ios":"levelo://app?vid=4344a96b-584d-49d5-ae96-eaf43db9b361"},"vehicle_type_id":"4","last_reported":1761430119,"current_range_meters":17600,"station_id":"ce4bhap2rcd13ifvqek0","pricing_plan_id":"cebpf4jnsgd1na2vs0mg"},{"bike_id":"0bea8d9d-ec4d-4374-8316-4d8d94e5b8d5","system_id":"levelo_inurba_marseille","lat":43.24803,"lon":5.37462,"is_reserved":false,"is_disabled":false,"rental_uris":{"android":"levelo://app?vid=0bea8d9d-ec4d-4374-8316-4d8d94e5b8d5","ios":"levelo://app?vid=0bea8d9d-ec4d-4374-8316-4d8d94e5b8d5"},"vehicle_type_id":"4","last_reported":1761430119,"current_range_meters":18000,"station_id":"ce4bhgh2rcd13ifvqfb0","pricing_plan_id":"cebpf4jnsgd1na2vs0mg"},{"bike_id":"1ffe1259-bda0-45d2-bfd5-822026a61c98","system_id":"levelo_inurba_marseille","lat":43.2509,"lon":5.39522,"is_reserved":false,"is_disabled":false,"rental_uris":{"android":"levelo://app?vid=1ffe1259-bda0-45d2-bfd5-822026a61c98","ios":"levelo://app?vid=1ffe1259-bda0-45d2-bfd5-822026a61c98"},"vehicle_type_id":"4","last_reported":1761430119,"current_range_meters":18000,"station_id":"ce4bhm12rcd13ifvqgkg","pricing_plan_id":"cebpf4jnsgd1na2vs0mg"},{"bike_id":"8847af5d-c1ad-4d8d-a5c1-273c3b41c105","system_id":"levelo_inurba_marseille","lat":43.32274,"lon":5.41947,"is_reserved":false,"is_disabled":false,"rental_uris":{"android":"levelo://app?vid=8847af5d-c1ad-4d8d-a5c1-273c3b41c105","ios":"levelo://app?vid=8847af5d-c1ad-4d8d-a5c1-273c3b41c105"},"vehicle_type_id":"4","last_reported":1761430119,"current_range_meters":18000,"station_id":"","pricing_plan_id":"cebpf4jnsgd1na2vs0mg"},{"bike_id":"fd52f88f-5667-4ebb-b261-c3cd6e6d51b3","system_id":"levelo_inurba_marseille","lat":43.31359,"lon":5.38503,"is_reserved":false,"is_disabled":false,"rental_uris":{"android":"levelo://app?vid=fd52f88f-5667-4ebb-b261-c3cd6e6d51b3","ios":"levelo://app?vid=fd52f88f-5667-4ebb-b261-c3cd6e6d51b3"},"vehicle_type_id":"4","last_reported":1761430119,"current_range_meters":18000,"station_id":"ce4bgt92rcd13ifvqcf0","pricing_plan_id":"cebpf4jnsgd1na2vs0mg"},{"bike_id":"46b0db6c-35c8-470b-a45d-db7e7afa9bfd","system_id":"levelo_inurba_marseille","lat":43.2841,"lon":5.37509,"is_reserved":false,"is_disabled":true,"rental_uris":{"android":"levelo://app?vid=46b0db6c-35c8-470b-a45d-db7e7afa9bfd","ios":"levelo://app?vid=46b0db6c-35c8-470b-a45d-db7e7afa9bfd"},"vehicle_type_id":"4","last_reported":1761430119,"current_range_meters":18000,"station_id":"ce4bh412rcd13ifvqds0","pricing_plan_id":"cebpf4jnsgd1na2vs0mg"},{"bike_id":"3dc6de87-d352-4e81-af64-7aa908c9d14f","system_id":"levelo_inurba_marseille","lat":43.29526,"lon":5.39032,"is_reserved":false,"is_disabled":false,"rental_uris":{"android":"levelo://app?vid=3dc6de87-d352-4e81-af64-7aa908c9d14f","ios":"levelo://app?vid=3dc6de87-d352-4e81-af64-7aa908c9d14f"},"vehicle_type_id":"4","last_reported":1761430119,"current_range_meters":18000,"station_id":"ce4bh3p2rcd13ifvqdp0","pricing_plan_id":"cebpf4jnsgd1na2vs0mg"},{"bike_id":"7a1877e8-1310-4142-900d-3cea9a2ef65f","system_id":"levelo_inurba_marseille","lat":43.29485,"lon":5.4331,"is_reserved":false,"is_disabled":false,"rental_uris":{"android":"levelo://app?vid=7a1877e8-1310-4142-900d-3cea9a2ef65f","ios":"levelo://app?vid=7a1877e8-1310-4142-900d-3cea9a2ef65f"},"vehicle_type_id":"4","last_reported":1761430119,"current_range_meters":18000,"station_id":"st_d3j5ugp08ojc73fj9d10","pricing_plan_id":"cebpf4jnsgd1na2vs0mg"},{"bike_id":"d2baae2c-7183-4875-a33e-ff83bc980382","system_id":"levelo_inurba_marseille","lat":43.29281,"lon":5.38452,"is_reserved":false,"is_disabled":false,"rental_uris":{"android":"levelo://app?vid=d2baae2c-7183-4875-a33e-ff83bc980382","ios":"levelo://app?vid=d2baae2c-7183-4875-a33e-ff83bc980382"},"vehicle_type_id":"4","last_reported":1761430119,"current_range_meters":18000,"station_id":"ce4bh692rcd13ifvqea0","pricing_plan_id":"cebpf4jnsgd1na2vs0mg"},{"bike_id":"f759c46e-a067-48f5-aacc-2b66dddb836a","system_id":"levelo_inurba_marseille","lat":43.30776,"lon":5.42451,"is_reserved":false,"is_disabled":false,"rental_uris":{"android":"levelo://app?vid=f759c46e-a067-48f5-aacc-2b66dddb836a","ios":"levelo://app?vid=f759c46e-a067-48f5-aacc-2b66dddb836a"},"vehicle_type_id":"4","last_reported":1761430119,"current_range_meters":18000,"station_id":"st_cvj6ca6bvosntc0bfgr0","pricing_plan_id":"cebpf4jnsgd1na2vs0mg"},{"bike_id":"7ebb4a77-9058-4726-915d-018c57111d93","system_id":"levelo_inurba_marseille","lat":43.31326,"lon":5.39692,"is_reserved":false,"is_disabled":false,"rental_uris":{"android":"levelo://app?vid=7ebb4a77-9058-4726-915d-018c57111d93","ios":"levelo://app?vid=7ebb4a77-9058-4726-915d-018c57111d93"},"vehicle_type_id":"4","last_reported":1761430119,"current_range_meters":18000,"station_id":"ce4bgvp2rcd13ifvqcu0","pricing_plan_id":"cebpf4jnsgd1na2vs0mg"},{"bike_id":"64b75b4a-3497-4861-8cc2-90dd62cd9f5e","system_id":"levelo_inurba_marseille","lat":43.29494,"lon":5.433,"is_reserved":false,"is_disabled":false,"rental_uris":{"android":"levelo://app?vid=64b75b4a-3497-4861-8cc2-90dd62cd9f5e","ios":"levelo://app?vid=64b75b4a-3497-4861-8cc2-90dd62cd9f5e"},"vehicle_type_id":"4","last_reported":1761430119,"current_range_meters":18000,"station_id":"st_d3j5ugp08ojc73fj9d10","pricing_plan_id":"cebpf4jnsgd1na2vs0mg"},{"bike_id":"03ecb59b-8b34-470d-8ad8-07776e33a352","system_id":"levelo_inurba_marseille","lat":43.28718,"lon":5.37954,"is_reserved":false,"is_disabled":false,"rental_uris":{"android":"levelo://app?vid=03ecb59b-8b34-470d-8ad8-07776e33a352","ios":"levelo://app?vid=03ecb59b-8b34-470d-8ad8-07776e33a352"},"vehicle_type_id":"4","last_reported":1761430119,"current_range_meters":18000,"station_id":"ce4bh9p2rcd13ifvqec0","pricing_plan_id":"cebpf4jnsgd1na2vs0mg"},{"bike_id":"fc900bb4-539d-4c37-92c1-81891d689b0b","system_id":"levelo_inurba_marseille","lat":43.260277,"lon":5.375498,"is_reserved":false,"is_disabled":false,"rental_uris":{"android":"levelo://app?vid=fc900bb4-539d-4c37-92c1-81891d689b0b","ios":"levelo://app?vid=fc900bb4-539d-4c37-92c1-81891d689b0b"},"vehicle_type_id":"4","last_reported":1761430119,"current_range_meters":18000,"station_id":"ce4bhgh2rcd13ifvqfa0","pricing_plan_id":"cebpf4jnsgd1na2vs0mg"},{"bike_id":"c124d4a0-9e47-48ec-ad7a-ea36eb6e5d35","system_id":"levelo_inurba_marseille","lat":43.2439,"lon":5.37058,"is_reserved":false,"is_disabled":false,"rental_uris":{"android":"levelo://app?vid=c124d4a0-9e47-48ec-ad7a-ea36eb6e5d35","ios":"levelo://app?vid=c124d4a0-9e47-48ec-ad7a-ea36eb6e5d35"},"vehicle_type_id":"4","last_reported":1761430119,"current_range_meters":18000,"station_id":"ce4bhhh2rcd13ifvqfk0","pricing_plan_id":"cebpf4jnsgd1na2vs0mg"},{"bike_id":"e8c9a1ee-ed6f-4541-9142-80413064a185","system_id":"levelo_inurba_marseille","lat":43.32375,"lon":5.38888,"is_reserved":false,"is_disabled":false,"rental_uris":{"android":"levelo://app?vid=e8c9a1ee-ed6f-4541-9142-80413064a185","ios":"levelo://app?vid=e8c9a1ee-ed6f-4541-9142-80413064a185"},"vehicle_type_id":"4","last_reported":1761430119,"current_range_meters":18000,"station_id":"ce4bhqp2rcd13ifvqhog","pricing_plan_id":"cebpf4jnsgd1na2vs0mg"},{"bike_id":"21f1f5d9-bbd3-4aba-be99-97a436f236b8","system_id":"levelo_inurba_marseille","lat":43.30583,"lon":5.37229,"is_reserved":false,"is_disabled":false,"rental_uris":{"android":"levelo://app?vid=21f1f5d9-bbd3-4aba-be99-97a436f236b8","ios":"levelo://app?vid=21f1f5d9-bbd3-4aba-be99-97a436f236b8"},"vehicle_type_id":"4","last_reported":1761430119,"current_range_meters":18800,"station_id":"ce4bgqh2rcd13ifvqc4g","pricing_plan_id":"cebpf4jnsgd1na2vs0mg"},{"bike_id":"72760127-c5c9-4c49-a253-e7e879fb7a2d","system_id":"levelo_inurba_marseille","lat":43.31668,"lon":5.40439,"is_reserved":false,"is_disabled":false,"rental_uris":{"android":"levelo://app?vid=72760127-c5c9-4c49-a253-e7e879fb7a2d","ios":"levelo://app?vid=72760127-c5c9-4c49-a253-e7e879fb7a2d"},"vehicle_type_id":"4","last_reported":1761430119,"current_range_meters":18800,"station_id":"ce4bh012rcd13ifvqd00","pricing_plan_id":"cebpf4jnsgd1na2vs0mg"},{"bike_id":"a70a5c56-54da-4a9c-92ae-4bd04c5f57d9","system_id":"levelo_inurba_marseille","lat":43.29894,"lon":5.43665,"is_reserved":false,"is_disabled":false,"rental_uris":{"android":"levelo://app?vid=a70a5c56-54da-4a9c-92ae-4bd04c5f57d9","ios":"levelo://app?vid=a70a5c56-54da-4a9c-92ae-4bd04c5f57d9"},"vehicle_type_id":"4","last_reported":1761430119,"current_range_meters":18800,"station_id":"ce4bhpp2rcd13ifvqhfg","pricing_plan_id":"cebpf4jnsgd1na2vs0mg"},{"bike_id":"317107fa-306d-4b8d-9380-a16cd06486ce","system_id":"levelo_inurba_marseille","lat":43.28467,"lon":5.35897,"is_reserved":false,"is_disabled":true,"rental_uris":{"android":"levelo://app?vid=317107fa-306d-4b8d-9380-a16cd06486ce","ios":"levelo://app?vid=317107fa-306d-4b8d-9380-a16cd06486ce"},"vehicle_type_id":"4","last_reported":1761430119,"current_range_meters":18800,"station_id":"ce4bhah2rcd13ifvqei0","pricing_plan_id":"cebpf4jnsgd1na2vs0mg"},{"bike_id":"26c6a81a-4568-4934-a001-6703f4c6d2e7","system_id":"levelo_inurba_marseille","lat":43.3138,"lon":5.38498,"is_reserved":false,"is_disabled":false,"rental_uris":{"android":"levelo://app?vid=26c6a81a-4568-4934-a001-6703f4c6d2e7","ios":"levelo://app?vid=26c6a81a-4568-4934-a001-6703f4c6d2e7"},"vehicle_type_id":"4","last_reported":1761430119,"current_range_meters":18800,"station_id":"ce4bgt92rcd13ifvqcf0","pricing_plan_id":"cebpf4jnsgd1na2vs0mg"},{"bike_id":"a8dfa27f-ebef-4d00-a208-924667e6dcc9","system_id":"levelo_inurba_marseille","lat":43.293823,"lon":5.383355,"is_reserved":false,"is_disabled":false,"rental_uris":{"android":"levelo://app?vid=a8dfa27f-ebef-4d00-a208-924667e6dcc9","ios":"levelo://app?vid=a8dfa27f-ebef-4d00-a208-924667e6dcc9"},"vehicle_type_id":"4","last_reported":1761430119,"current_range_meters":18800,"station_id":"ce4bgvp2rcd13ifvqct0","pricing_plan_id":"cebpf4jnsgd1na2vs0mg"},{"bike_id":"0010e2eb-8151-4739-b0c4-132bbf5d6436","system_id":"levelo_inurba_marseille","lat":43.27996,"lon":5.41663,"is_reserved":false,"is_disabled":false,"rental_uris":{"android":"levelo://app?vid=0010e2eb-8151-4739-b0c4-132bbf5d6436","ios":"levelo://app?vid=0010e2eb-8151-4739-b0c4-132bbf5d6436"},"vehicle_type_id":"4","last_reported":1761430119,"current_range_meters":19200,"station_id":"ce4bho12rcd13ifvqh1g","pricing_plan_id":"cebpf4jnsgd1na2vs0mg"},{"bike_id":"889ac29b-69d5-40c6-b45d-9a6c54e637d9","system_id":"levelo_inurba_marseille","lat":43.29532,"lon":5.3855,"is_reserved":false,"is_disabled":false,"rental_uris":{"android":"levelo://app?vid=889ac29b-69d5-40c6-b45d-9a6c54e637d9","ios":"levelo://app?vid=889ac29b-69d5-40c6-b45d-9a6c54e637d9"},"vehicle_type_id":"4","last_reported":1761430119,"current_range_meters":19200,"station_id":"ce4bgih2rcd13ifvqba0","pricing_plan_id":"cebpf4jnsgd1na2vs0mg"},{"bike_id":"af9e12e7-38b8-459b-8665-a09998ee41f3","system_id":"levelo_inurba_marseille","lat":43.24657,"lon":5.38895,"is_reserved":false,"is_disabled":false,"rental_uris":{"android":"levelo://app?vid=af9e12e7-38b8-459b-8665-a09998ee41f3","ios":"levelo://app?vid=af9e12e7-38b8-459b-8665-a09998ee41f3"},"vehicle_type_id":"4","last_reported":1761430119,"current_range_meters":19200,"station_id":"ce4bhg12rcd13ifvqf60","pricing_plan_id":"cebpf4jnsgd1na2vs0mg"},{"bike_id":"22448999-2d5c-41a9-8bf4-9cabf639221a","system_id":"levelo_inurba_marseille","lat":43.27804,"lon":5.39558,"is_reserved":false,"is_disabled":false,"rental_uris":{"android":"levelo://app?vid=22448999-2d5c-41a9-8bf4-9cabf639221a","ios":"levelo://app?vid=22448999-2d5c-41a9-8bf4-9cabf639221a"},"vehicle_type_id":"4","last_reported":1761430119,"current_range_meters":19200,"station_id":"","pricing_plan_id":"cebpf4jnsgd1na2vs0mg"},{"bike_id":"03066392-0d25-4174-8a09-d2927fc1a45a","system_id":"levelo_inurba_marseille","lat":43.31662,"lon":5.40421,"is_reserved":false,"is_disabled":false,"rental_uris":{"android":"levelo://app?vid=03066392-0d25-4174-8a09-d2927fc1a45a","ios":"levelo://app?vid=03066392-0d25-4174-8a09-d2927fc1a45a"},"vehicle_type_id":"4","last_reported":1761430119,"current_range_meters":19200,"station_id":"ce4bh012rcd13ifvqd00","pricing_plan_id":"cebpf4jnsgd1na2vs0mg"},{"bike_id":"aafd9988-6a3b-48ed-b180-77a5c4b80478","system_id":"levelo_inurba_marseille","lat":43.29524,"lon":5.38719,"is_reserved":false,"is_disabled":false,"rental_uris":{"android":"levelo://app?vid=aafd9988-6a3b-48ed-b180-77a5c4b80478","ios":"levelo://app?vid=aafd9988-6a3b-48ed-b180-77a5c4b80478"},"vehicle_type_id":"4","last_reported":1761430119,"current_range_meters":19200,"station_id":"","pricing_plan_id":"cebpf4jnsgd1na2vs0mg"},{"bike_id":"1c18cac1-a78c-48f3-8ede-93a5617120b1","system_id":"levelo_inurba_marseille","lat":43.32487,"lon":5.36586,"is_reserved":false,"is_disabled":false,"rental_uris":{"android":"levelo://app?vid=1c18cac1-a78c-48f3-8ede-93a5617120b1","ios":"levelo://app?vid=1c18cac1-a78c-48f3-8ede-93a5617120b1"},"vehicle_type_id":"4","last_reported":1761430119,"current_range_meters":19200,"station_id":"ce4bhs12rcd13ifvqhvg","pricing_plan_id":"cebpf4jnsgd1na2vs0mg"},{"bike_id":"d5e38b64-fe4a-4e9f-960e-74472bb4694e","system_id":"levelo_inurba_marseille","lat":43.309117,"lon":5.391134,"is_reserved":false,"is_disabled":false,"rental_uris":{"android":"levelo://app?vid=d5e38b64-fe4a-4e9f-960e-74472bb4694e","ios":"levelo://app?vid=d5e38b64-fe4a-4e9f-960e-74472bb4694e"},"vehicle_type_id":"4","last_reported":1761430119,"current_range_meters":19200,"station_id":"ce4bgup2rcd13ifvqco0","pricing_plan_id":"cebpf4jnsgd1na2vs0mg"},{"bike_id":"9b324603-bb55-48dd-91f7-76db80054a58","system_id":"levelo_inurba_marseille","lat":43.28854,"lon":5.39322,"is_reserved":false,"is_disabled":false,"rental_uris":{"android":"levelo://app?vid=9b324603-bb55-48dd-91f7-76db80054a58","ios":"levelo://app?vid=9b324603-bb55-48dd-91f7-76db80054a58"},"vehicle_type_id":"4","last_reported":1761430119,"current_range_meters":19200,"station_id":"ce4bh2p2rcd13ifvqdi0","pricing_plan_id":"cebpf4jnsgd1na2vs0mg"},{"bike_id":"8f1595ee-0c39-45ec-bd05-7feb852a34d8","system_id":"levelo_inurba_marseille","lat":43.25087,"lon":5.39506,"is_reserved":false,"is_disabled":false,"rental_uris":{"android":"levelo://app?vid=8f1595ee-0c39-45ec-bd05-7feb852a34d8","ios":"levelo://app?vid=8f1595ee-0c39-45ec-bd05-7feb852a34d8"},"vehicle_type_id":"4","last_reported":1761430119,"current_range_meters":19600,"station_id":"ce4bhm12rcd13ifvqgkg","pricing_plan_id":"cebpf4jnsgd1na2vs0mg"},{"bike_id":"53619b52-f6a4-4a36-9715-aa47e9e64dbc","system_id":"levelo_inurba_marseille","lat":43.2926,"lon":5.384382,"is_reserved":false,"is_disabled":true,"rental_uris":{"android":"levelo://app?vid=53619b52-f6a4-4a36-9715-aa47e9e64dbc","ios":"levelo://app?vid=53619b52-f6a4-4a36-9715-aa47e9e64dbc"},"vehicle_type_id":"4","last_reported":1761430119,"current_range_meters":19600,"station_id":"ce4bh692rcd13ifvqea0","pricing_plan_id":"cebpf4jnsgd1na2vs0mg"},{"bike_id":"0b632229-a055-47ab-8480-74163d75c930","system_id":"levelo_inurba_marseille","lat":43.24677,"lon":5.38154,"is_reserved":false,"is_disabled":false,"rental_uris":{"android":"levelo://app?vid=0b632229-a055-47ab-8480-74163d75c930","ios":"levelo://app?vid=0b632229-a055-47ab-8480-74163d75c930"},"vehicle_type_id":"4","last_reported":1761430119,"current_range_meters":19600,"station_id":"ce4bhih2rcd13ifvqfr0","pricing_plan_id":"cebpf4jnsgd1na2vs0mg"},{"bike_id":"efe19320-3164-4fe6-a0cf-a501dbdc20bf","system_id":"levelo_inurba_marseille","lat":43.28856,"lon":5.39297,"is_reserved":false,"is_disabled":false,"rental_uris":{"android":"levelo://app?vid=efe19320-3164-4fe6-a0cf-a501dbdc20bf","ios":"levelo://app?vid=efe19320-3164-4fe6-a0cf-a501dbdc20bf"},"vehicle_type_id":"4","last_reported":1761430119,"current_range_meters":19600,"station_id":"ce4bh2p2rcd13ifvqdi0","pricing_plan_id":"cebpf4jnsgd1na2vs0mg"},{"bike_id":"7f389dfa-e0ac-4ffa-a888-5a224a168bfb","system_id":"levelo_inurba_marseille","lat":43.24682,"lon":5.38133,"is_reserved":false,"is_disabled":false,"rental_uris":{"android":"levelo://app?vid=7f389dfa-e0ac-4ffa-a888-5a224a168bfb","ios":"levelo://app?vid=7f389dfa-e0ac-4ffa-a888-5a224a168bfb"},"vehicle_type_id":"4","last_reported":1761430119,"current_range_meters":19600,"station_id":"ce4bhih2rcd13ifvqfr0","pricing_plan_id":"cebpf4jnsgd1na2vs0mg"},{"bike_id":"ad166e8d-320f-47c2-bfd9-9e014a946d21","system_id":"levelo_inurba_marseille","lat":43.27814,"lon":5.40716,"is_reserved":false,"is_disabled":true,"rental_uris":{"android":"levelo://app?vid=ad166e8d-320f-47c2-bfd9-9e014a946d21","ios":"levelo://app?vid=ad166e8d-320f-47c2-bfd9-9e014a946d21"},"vehicle_type_id":"4","last_reported":1761430119,"current_range_meters":19600,"station_id":"ce4bhnh2rcd13ifvqgtg","pricing_plan_id":"cebpf4jnsgd1na2vs0mg"},{"bike_id":"b711399f-b3e7-48ed-b950-30750d9f548b","system_id":"levelo_inurba_marseille","lat":43.31074,"lon":5.3836,"is_reserved":false,"is_disabled":false,"rental_uris":{"android":"levelo://app?vid=b711399f-b3e7-48ed-b950-30750d9f548b","ios":"levelo://app?vid=b711399f-b3e7-48ed-b950-30750d9f548b"},"vehicle_type_id":"4","last_reported":1761430119,"current_range_meters":19600,"station_id":"ce4bgv92rcd13ifvqcr0","pricing_plan_id":"cebpf4jnsgd1na2vs0mg"},{"bike_id":"5ee9edc8-dc97-44a6-876e-7a09b34dd265","system_id":"levelo_inurba_marseille","lat":43.29567,"lon":5.42291,"is_reserved":false,"is_disabled":true,"rental_uris":{"android":"levelo://app?vid=5ee9edc8-dc97-44a6-876e-7a09b34dd265","ios":"levelo://app?vid=5ee9edc8-dc97-44a6-876e-7a09b34dd265"},"vehicle_type_id":"4","last_reported":1761430119,"current_range_meters":20000,"station_id":"ce4bhph2rcd13ifvqhdg","pricing_plan_id":"cebpf4jnsgd1na2vs0mg"},{"bike_id":"eb0d9e20-fe6c-486a-9aa2-e7330d4e9d8e","system_id":"levelo_inurba_marseille","lat":43.23965,"lon":5.3663,"is_reserved":false,"is_disabled":false,"rental_uris":{"android":"levelo://app?vid=eb0d9e20-fe6c-486a-9aa2-e7330d4e9d8e","ios":"levelo://app?vid=eb0d9e20-fe6c-486a-9aa2-e7330d4e9d8e"},"vehicle_type_id":"4","last_reported":1761430119,"current_range_meters":20000,"station_id":"ce4bhi12rcd13ifvqfp0","pricing_plan_id":"cebpf4jnsgd1na2vs0mg"},{"bike_id":"f0f7912f-ecbe-43f2-add3-c17e52e42cfe","system_id":"levelo_inurba_marseille","lat":43.2407,"lon":5.37762,"is_reserved":false,"is_disabled":false,"rental_uris":{"android":"levelo://app?vid=f0f7912f-ecbe-43f2-add3-c17e52e42cfe","ios":"levelo://app?vid=f0f7912f-ecbe-43f2-add3-c17e52e42cfe"},"vehicle_type_id":"4","last_reported":1761430119,"current_range_meters":20000,"station_id":"ce4bhnp2rcd13ifvqgvg","pricing_plan_id":"cebpf4jnsgd1na2vs0mg"},{"bike_id":"2c0097ca-090c-4a7e-b26c-67d4d8699054","system_id":"levelo_inurba_marseille","lat":43.29535,"lon":5.3854,"is_reserved":false,"is_disabled":false,"rental_uris":{"android":"levelo://app?vid=2c0097ca-090c-4a7e-b26c-67d4d8699054","ios":"levelo://app?vid=2c0097ca-090c-4a7e-b26c-67d4d8699054"},"vehicle_type_id":"4","last_reported":1761430119,"current_range_meters":20000,"station_id":"ce4bgih2rcd13ifvqba0","pricing_plan_id":"cebpf4jnsgd1na2vs0mg"},{"bike_id":"fdb244f8-24f8-4868-930e-15ddf0c2389f","system_id":"levelo_inurba_marseille","lat":43.295288,"lon":5.385407,"is_reserved":false,"is_disabled":false,"rental_uris":{"android":"levelo://app?vid=fdb244f8-24f8-4868-930e-15ddf0c2389f","ios":"levelo://app?vid=fdb244f8-24f8-4868-930e-15ddf0c2389f"},"vehicle_type_id":"4","last_reported":1761430119,"current_range_meters":20000,"station_id":"ce4bgih2rcd13ifvqba0","pricing_plan_id":"cebpf4jnsgd1na2vs0mg"},{"bike_id":"965987ab-cf18-46d5-bddb-f2769a131c96","system_id":"levelo_inurba_marseille","lat":43.29541,"lon":5.38541,"is_reserved":false,"is_disabled":false,"rental_uris":{"android":"levelo://app?vid=965987ab-cf18-46d5-bddb-f2769a131c96","ios":"levelo://app?vid=965987ab-cf18-46d5-bddb-f2769a131c96"},"vehicle_type_id":"4","last_reported":1761430119,"current_range_meters":20000,"station_id":"ce4bgih2rcd13ifvqba0","pricing_plan_id":"cebpf4jnsgd1na2vs0mg"},{"bike_id":"ce15d64c-7bd4-4017-a01a-0dc353c2995b","system_id":"levelo_inurba_marseille","lat":43.28127,"lon":5.35027,"is_reserved":false,"is_disabled":false,"rental_uris":{"android":"levelo://app?vid=ce15d64c-7bd4-4017-a01a-0dc353c2995b","ios":"levelo://app?vid=ce15d64c-7bd4-4017-a01a-0dc353c2995b"},"vehicle_type_id":"4","last_reported":1761430119,"current_range_meters":20000,"station_id":"","pricing_plan_id":"cebpf4jnsgd1na2vs0mg"},{"bike_id":"734eee21-366f-4d24-8e72-343b17e38fe9","system_id":"levelo_inurba_marseille","lat":43.28436,"lon":5.39168,"is_reserved":false,"is_disabled":false,"rental_uris":{"android":"levelo://app?vid=734eee21-366f-4d24-8e72-343b17e38fe9","ios":"levelo://app?vid=734eee21-366f-4d24-8e72-343b17e38fe9"},"vehicle_type_id":"4","last_reported":1761430119,"current_range_meters":20400,"station_id":"ce4bhoh2rcd13ifvqh5g","pricing_plan_id":"cebpf4jnsgd1na2vs0mg"},{"bike_id":"609e8845-7ae3-4c4f-97f5-856dd3a8b490","system_id":"levelo_inurba_marseille","lat":43.28869,"lon":5.425137,"is_reserved":false,"is_disabled":false,"rental_uris":{"android":"levelo://app?vid=609e8845-7ae3-4c4f-97f5-856dd3a8b490","ios":"levelo://app?vid=609e8845-7ae3-4c4f-97f5-856dd3a8b490"},"vehicle_type_id":"4","last_reported":1761430119,"current_range_meters":20400,"station_id":"st_d3b462108ojc7389ooeg","pricing_plan_id":"cebpf4jnsgd1na2vs0mg"},{"bike_id":"011f8359-2cd5-41cc-9aea-8e0f50f354d0","system_id":"levelo_inurba_marseille","lat":43.29876,"lon":5.39738,"is_reserved":false,"is_disabled":false,"rental_uris":{"android":"levelo://app?vid=011f8359-2cd5-41cc-9aea-8e0f50f354d0","ios":"levelo://app?vid=011f8359-2cd5-41cc-9aea-8e0f50f354d0"},"vehicle_type_id":"4","last_reported":1761430119,"current_range_meters":20400,"station_id":"ce4bh0h2rcd13ifvqd50","pricing_plan_id":"cebpf4jnsgd1na2vs0mg"},{"bike_id":"bac1245a-88c1-4fe5-baae-0f4a8b74990b","system_id":"levelo_inurba_marseille","lat":43.24641,"lon":5.38884,"is_reserved":false,"is_disabled":false,"rental_uris":{"android":"levelo://app?vid=bac1245a-88c1-4fe5-baae-0f4a8b74990b","ios":"levelo://app?vid=bac1245a-88c1-4fe5-baae-0f4a8b74990b"},"vehicle_type_id":"4","last_reported":1761430119,"current_range_meters":20400,"station_id":"ce4bhg12rcd13ifvqf60","pricing_plan_id":"cebpf4jnsgd1na2vs0mg"},{"bike_id":"dd49c643-708e-4930-9902-c0a947f622bd","system_id":"levelo_inurba_marseille","lat":43.23061,"lon":5.35486,"is_reserved":false,"is_disabled":false,"rental_uris":{"android":"levelo://app?vid=dd49c643-708e-4930-9902-c0a947f622bd","ios":"levelo://app?vid=dd49c643-708e-4930-9902-c0a947f622bd"},"vehicle_type_id":"4","last_reported":1761430119,"current_range_meters":20400,"station_id":"cpo3342slgdg3j2ifvpg","pricing_plan_id":"cebpf4jnsgd1na2vs0mg"},{"bike_id":"f6f41915-49e3-4fb8-8c5c-96d42e084e15","system_id":"levelo_inurba_marseille","lat":43.32034,"lon":5.37092,"is_reserved":false,"is_disabled":false,"rental_uris":{"android":"levelo://app?vid=f6f41915-49e3-4fb8-8c5c-96d42e084e15","ios":"levelo://app?vid=f6f41915-49e3-4fb8-8c5c-96d42e084e15"},"vehicle_type_id":"4","last_reported":1761430119,"current_range_meters":20400,"station_id":"","pricing_plan_id":"cebpf4jnsgd1na2vs0mg"},{"bike_id":"d0409918-89ae-4e78-89e4-a5a866ad0b20","system_id":"levelo_inurba_marseille","lat":43.287292,"lon":5.360932,"is_reserved":false,"is_disabled":false,"rental_uris":{"android":"levelo://app?vid=d0409918-89ae-4e78-89e4-a5a866ad0b20","ios":"levelo://app?vid=d0409918-89ae-4e78-89e4-a5a866ad0b20"},"vehicle_type_id":"4","last_reported":1761430119,"current_range_meters":20400,"station_id":"cki0cbj6b192h4jlfktg","pricing_plan_id":"cebpf4jnsgd1na2vs0mg"},{"bike_id":"71164ecd-e67a-4c0e-b650-133fdd708a3c","system_id":"levelo_inurba_marseille","lat":43.28929,"lon":5.38392,"is_reserved":false,"is_disabled":false,"rental_uris":{"android":"levelo://app?vid=71164ecd-e67a-4c0e-b650-133fdd708a3c","ios":"levelo://app?vid=71164ecd-e67a-4c0e-b650-133fdd708a3c"},"vehicle_type_id":"4","last_reported":1761430119,"current_range_meters":20400,"station_id":"ce4bh612rcd13ifvqe6g","pricing_plan_id":"cebpf4jnsgd1na2vs0mg"},{"bike_id":"0df65b60-541b-4485-8343-c851e6de5b07","system_id":"levelo_inurba_marseille","lat":43.30615,"lon":5.3723,"is_reserved":false,"is_disabled":false,"rental_uris":{"android":"levelo://app?vid=0df65b60-541b-4485-8343-c851e6de5b07","ios":"levelo://app?vid=0df65b60-541b-4485-8343-c851e6de5b07"},"vehicle_type_id":"4","last_reported":1761430119,"current_range_meters":20400,"station_id":"ce4bgqh2rcd13ifvqc4g","pricing_plan_id":"cebpf4jnsgd1na2vs0mg"},{"bike_id":"7165d414-e8a5-415f-8a72-9e3295be2a67","system_id":"levelo_inurba_marseille","lat":43.31046,"lon":5.37901,"is_reserved":false,"is_disabled":false,"rental_uris":{"android":"levelo://app?vid=7165d414-e8a5-415f-8a72-9e3295be2a67","ios":"levelo://app?vid=7165d414-e8a5-415f-8a72-9e3295be2a67"},"vehicle_type_id":"4","last_reported":1761430119,"current_range_meters":20800,"station_id":"","pricing_plan_id":"cebpf4jnsgd1na2vs0mg"},{"bike_id":"cf2edc85-5546-4730-8729-79cad6d71f12","system_id":"levelo_inurba_marseille","lat":43.31363,"lon":5.38505,"is_reserved":false,"is_disabled":false,"rental_uris":{"android":"levelo://app?vid=cf2edc85-5546-4730-8729-79cad6d71f12","ios":"levelo://app?vid=cf2edc85-5546-4730-8729-79cad6d71f12"},"vehicle_type_id":"4","last_reported":1761430119,"current_range_meters":20800,"station_id":"ce4bgt92rcd13ifvqcf0","pricing_plan_id":"cebpf4jnsgd1na2vs0mg"},{"bike_id":"4f41b4f0-5efe-4188-9692-084e2e946b9c","system_id":"levelo_inurba_marseille","lat":43.29267,"lon":5.40905,"is_reserved":false,"is_disabled":false,"rental_uris":{"android":"levelo://app?vid=4f41b4f0-5efe-4188-9692-084e2e946b9c","ios":"levelo://app?vid=4f41b4f0-5efe-4188-9692-084e2e946b9c"},"vehicle_type_id":"4","last_reported":1761430119,"current_range_meters":20800,"station_id":"ce4bh192rcd13ifvqdc0","pricing_plan_id":"cebpf4jnsgd1na2vs0mg"},{"bike_id":"5a0cb195-a73c-4a21-8028-b8d9bbb6ae2b","system_id":"levelo_inurba_marseille","lat":43.2982,"lon":5.44052,"is_reserved":false,"is_disabled":false,"rental_uris":{"android":"levelo://app?vid=5a0cb195-a73c-4a21-8028-b8d9bbb6ae2b","ios":"levelo://app?vid=5a0cb195-a73c-4a21-8028-b8d9bbb6ae2b"},"vehicle_type_id":"4","last_reported":1761430119,"current_range_meters":21600,"station_id":"st_d3jp68qikq2c7381ktn0","pricing_plan_id":"cebpf4jnsgd1na2vs0mg"},{"bike_id":"36d7fbc3-e4e1-4b61-8e94-e74b2c6446ca","system_id":"levelo_inurba_marseille","lat":43.25512,"lon":5.37652,"is_reserved":false,"is_disabled":true,"rental_uris":{"android":"levelo://app?vid=36d7fbc3-e4e1-4b61-8e94-e74b2c6446ca","ios":"levelo://app?vid=36d7fbc3-e4e1-4b61-8e94-e74b2c6446ca"},"vehicle_type_id":"4","last_reported":1761430119,"current_range_meters":21600,"station_id":"ce4bhh12rcd13ifvqff0","pricing_plan_id":"cebpf4jnsgd1na2vs0mg"},{"bike_id":"896813b7-ae4b-4400-b7a7-5dbe7bf0cc6e","system_id":"levelo_inurba_marseille","lat":43.3045,"lon":5.38902,"is_reserved":false,"is_disabled":false,"rental_uris":{"android":"levelo://app?vid=896813b7-ae4b-4400-b7a7-5dbe7bf0cc6e","ios":"levelo://app?vid=896813b7-ae4b-4400-b7a7-5dbe7bf0cc6e"},"vehicle_type_id":"4","last_reported":1761430119,"current_range_meters":21600,"station_id":"ce4bgk12rcd13ifvqbi0","pricing_plan_id":"cebpf4jnsgd1na2vs0mg"},{"bike_id":"94aaf935-55ff-4431-b612-265a39fb330c","system_id":"levelo_inurba_marseille","lat":43.29028,"lon":5.38643,"is_reserved":false,"is_disabled":true,"rental_uris":{"android":"levelo://app?vid=94aaf935-55ff-4431-b612-265a39fb330c","ios":"levelo://app?vid=94aaf935-55ff-4431-b612-265a39fb330c"},"vehicle_type_id":"4","last_reported":1761430119,"current_range_meters":21600,"station_id":"ce4bh4p2rcd13ifvqe0g","pricing_plan_id":"cebpf4jnsgd1na2vs0mg"},{"bike_id":"db9de1fc-21ad-43f6-9eec-77de2c93e6d8","system_id":"levelo_inurba_marseille","lat":43.22934,"lon":5.35376,"is_reserved":false,"is_disabled":false,"rental_uris":{"android":"levelo://app?vid=db9de1fc-21ad-43f6-9eec-77de2c93e6d8","ios":"levelo://app?vid=db9de1fc-21ad-43f6-9eec-77de2c93e6d8"},"vehicle_type_id":"4","last_reported":1761430119,"current_range_meters":21600,"station_id":"cpo3532slgdg3j2ikp40","pricing_plan_id":"cebpf4jnsgd1na2vs0mg"},{"bike_id":"26c48375-1e6e-43b2-9750-bd0ef6e16469","system_id":"levelo_inurba_marseille","lat":43.22562,"lon":5.41623,"is_reserved":false,"is_disabled":false,"rental_uris":{"android":"levelo://app?vid=26c48375-1e6e-43b2-9750-bd0ef6e16469","ios":"levelo://app?vid=26c48375-1e6e-43b2-9750-bd0ef6e16469"},"vehicle_type_id":"4","last_reported":1761430119,"current_range_meters":21600,"station_id":"st_d2o4gvlbi1j2169b742g","pricing_plan_id":"cebpf4jnsgd1na2vs0mg"},{"bike_id":"e92a5181-3093-4535-adde-2230374de0aa","system_id":"levelo_inurba_marseille","lat":43.31401,"lon":5.37695,"is_reserved":false,"is_disabled":false,"rental_uris":{"android":"levelo://app?vid=e92a5181-3093-4535-adde-2230374de0aa","ios":"levelo://app?vid=e92a5181-3093-4535-adde-2230374de0aa"},"vehicle_type_id":"4","last_reported":1761430119,"current_range_meters":21600,"station_id":"","pricing_plan_id":"cebpf4jnsgd1na2vs0mg"},{"bike_id":"611000ca-5aa7-40da-a0d2-9b3c8da9f53a","system_id":"levelo_inurba_marseille","lat":43.25087,"lon":5.39513,"is_reserved":false,"is_disabled":false,"rental_uris":{"android":"levelo://app?vid=611000ca-5aa7-40da-a0d2-9b3c8da9f53a","ios":"levelo://app?vid=611000ca-5aa7-40da-a0d2-9b3c8da9f53a"},"vehicle_type_id":"4","last_reported":1761430119,"current_range_meters":21600,"station_id":"ce4bhm12rcd13ifvqgkg","pricing_plan_id":"cebpf4jnsgd1na2vs0mg"},{"bike_id":"57ca58d2-a246-47f5-96f9-305303905ce3","system_id":"levelo_inurba_marseille","lat":43.28458,"lon":5.35883,"is_reserved":false,"is_disabled":false,"rental_uris":{"android":"levelo://app?vid=57ca58d2-a246-47f5-96f9-305303905ce3","ios":"levelo://app?vid=57ca58d2-a246-47f5-96f9-305303905ce3"},"vehicle_type_id":"4","last_reported":1761430119,"current_range_meters":21600,"station_id":"ce4bhah2rcd13ifvqei0","pricing_plan_id":"cebpf4jnsgd1na2vs0mg"},{"bike_id":"c5605e44-b6b6-49a1-8a1c-805679fcc176","system_id":"levelo_inurba_marseille","lat":43.27949,"lon":5.41049,"is_reserved":false,"is_disabled":false,"rental_uris":{"android":"levelo://app?vid=c5605e44-b6b6-49a1-8a1c-805679fcc176","ios":"levelo://app?vid=c5605e44-b6b6-49a1-8a1c-805679fcc176"},"vehicle_type_id":"4","last_reported":1761430119,"current_range_meters":21600,"station_id":"ce4bhnp2rcd13ifvqh0g","pricing_plan_id":"cebpf4jnsgd1na2vs0mg"},{"bike_id":"c7dc7d8a-05e2-4ea3-8adc-2dd23fbc4f29","system_id":"levelo_inurba_marseille","lat":43.28152,"lon":5.42636,"is_reserved":false,"is_disabled":false,"rental_uris":{"android":"levelo://app?vid=c7dc7d8a-05e2-4ea3-8adc-2dd23fbc4f29","ios":"levelo://app?vid=c7dc7d8a-05e2-4ea3-8adc-2dd23fbc4f29"},"vehicle_type_id":"4","last_reported":1761430119,"current_range_meters":22000,"station_id":"ce4bhnh2rcd13ifvqgug","pricing_plan_id":"cebpf4jnsgd1na2vs0mg"},{"bike_id":"79f9cde6-2fc1-438e-a896-83f6555a03e6","system_id":"levelo_inurba_marseille","lat":43.32071,"lon":5.36757,"is_reserved":false,"is_disabled":false,"rental_uris":{"android":"levelo://app?vid=79f9cde6-2fc1-438e-a896-83f6555a03e6","ios":"levelo://app?vid=79f9cde6-2fc1-438e-a896-83f6555a03e6"},"vehicle_type_id":"4","last_reported":1761430119,"current_range_meters":22000,"station_id":"ce4bhrh2rcd13ifvqhug","pricing_plan_id":"cebpf4jnsgd1na2vs0mg"},{"bike_id":"c1c167dd-f5e3-43a8-a933-1a6a5ed79d07","system_id":"levelo_inurba_marseille","lat":43.23058,"lon":5.35492,"is_reserved":false,"is_disabled":false,"rental_uris":{"android":"levelo://app?vid=c1c167dd-f5e3-43a8-a933-1a6a5ed79d07","ios":"levelo://app?vid=c1c167dd-f5e3-43a8-a933-1a6a5ed79d07"},"vehicle_type_id":"4","last_reported":1761430119,"current_range_meters":22000,"station_id":"cpo3342slgdg3j2ifvpg","pricing_plan_id":"cebpf4jnsgd1na2vs0mg"},{"bike_id":"da945370-32c7-4765-8b8c-dadee680d38e","system_id":"levelo_inurba_marseille","lat":43.34058,"lon":5.40415,"is_reserved":false,"is_disabled":false,"rental_uris":{"android":"levelo://app?vid=da945370-32c7-4765-8b8c-dadee680d38e","ios":"levelo://app?vid=da945370-32c7-4765-8b8c-dadee680d38e"},"vehicle_type_id":"4","last_reported":1761430119,"current_range_meters":22000,"station_id":"","pricing_plan_id":"cebpf4jnsgd1na2vs0mg"},{"bike_id":"12baa51d-671b-4fe3-98f3-4be0dad55dd7","system_id":"levelo_inurba_marseille","lat":43.29546,"lon":5.38542,"is_reserved":false,"is_disabled":false,"rental_uris":{"android":"levelo://app?vid=12baa51d-671b-4fe3-98f3-4be0dad55dd7","ios":"levelo://app?vid=12baa51d-671b-4fe3-98f3-4be0dad55dd7"},"vehicle_type_id":"4","last_reported":1761430119,"current_range_meters":22000,"station_id":"ce4bgih2rcd13ifvqba0","pricing_plan_id":"cebpf4jnsgd1na2vs0mg"},{"bike_id":"edf64e3a-0301-492c-ab13-91b1eb59d647","system_id":"levelo_inurba_marseille","lat":43.300568,"lon":5.365916,"is_reserved":false,"is_disabled":false,"rental_uris":{"android":"levelo://app?vid=edf64e3a-0301-492c-ab13-91b1eb59d647","ios":"levelo://app?vid=edf64e3a-0301-492c-ab13-91b1eb59d647"},"vehicle_type_id":"4","last_reported":1761430119,"current_range_meters":22000,"station_id":"ce4bhhp2rcd13ifvqfm0","pricing_plan_id":"cebpf4jnsgd1na2vs0mg"},{"bike_id":"10f9a497-43da-4f87-8205-e575e63c283d","system_id":"levelo_inurba_marseille","lat":43.29536,"lon":5.38538,"is_reserved":false,"is_disabled":false,"rental_uris":{"android":"levelo://app?vid=10f9a497-43da-4f87-8205-e575e63c283d","ios":"levelo://app?vid=10f9a497-43da-4f87-8205-e575e63c283d"},"vehicle_type_id":"4","last_reported":1761430119,"current_range_meters":22000,"station_id":"ce4bgih2rcd13ifvqba0","pricing_plan_id":"cebpf4jnsgd1na2vs0mg"},{"bike_id":"fc415666-0eee-42cf-ad7e-559eb9802048","system_id":"levelo_inurba_marseille","lat":43.31097,"lon":5.37487,"is_reserved":false,"is_disabled":false,"rental_uris":{"android":"levelo://app?vid=fc415666-0eee-42cf-ad7e-559eb9802048","ios":"levelo://app?vid=fc415666-0eee-42cf-ad7e-559eb9802048"},"vehicle_type_id":"4","last_reported":1761430119,"current_range_meters":22400,"station_id":"","pricing_plan_id":"cebpf4jnsgd1na2vs0mg"},{"bike_id":"26a33dcf-50de-4561-a5e9-8254886f89ed","system_id":"levelo_inurba_marseille","lat":43.24326,"lon":5.39206,"is_reserved":false,"is_disabled":false,"rental_uris":{"android":"levelo://app?vid=26a33dcf-50de-4561-a5e9-8254886f89ed","ios":"levelo://app?vid=26a33dcf-50de-4561-a5e9-8254886f89ed"},"vehicle_type_id":"4","last_reported":1761430119,"current_range_meters":22400,"station_id":"","pricing_plan_id":"cebpf4jnsgd1na2vs0mg"},{"bike_id":"83106217-f024-4381-9607-50194d3370ce","system_id":"levelo_inurba_marseille","lat":43.24161,"lon":5.36405,"is_reserved":false,"is_disabled":false,"rental_uris":{"android":"levelo://app?vid=83106217-f024-4381-9607-50194d3370ce","ios":"levelo://app?vid=83106217-f024-4381-9607-50194d3370ce"},"vehicle_type_id":"4","last_reported":1761430119,"current_range_meters":22400,"station_id":"cpo36qri1sfpv3e86is0","pricing_plan_id":"cebpf4jnsgd1na2vs0mg"},{"bike_id":"ffdaa7ef-ff81-4748-8ecb-d6de1f658448","system_id":"levelo_inurba_marseille","lat":43.29975,"lon":5.37185,"is_reserved":false,"is_disabled":false,"rental_uris":{"android":"levelo://app?vid=ffdaa7ef-ff81-4748-8ecb-d6de1f658448","ios":"levelo://app?vid=ffdaa7ef-ff81-4748-8ecb-d6de1f658448"},"vehicle_type_id":"4","last_reported":1761430119,"current_range_meters":22400,"station_id":"ce4bgr92rcd13ifvqc7g","pricing_plan_id":"cebpf4jnsgd1na2vs0mg"},{"bike_id":"dea76e1b-a01d-415a-8864-695f90f26959","system_id":"levelo_inurba_marseille","lat":43.26367,"lon":5.39656,"is_reserved":false,"is_disabled":false,"rental_uris":{"android":"levelo://app?vid=dea76e1b-a01d-415a-8864-695f90f26959","ios":"levelo://app?vid=dea76e1b-a01d-415a-8864-695f90f26959"},"vehicle_type_id":"4","last_reported":1761430119,"current_range_meters":22400,"station_id":"","pricing_plan_id":"cebpf4jnsgd1na2vs0mg"},{"bike_id":"52e18c7a-cb2d-4922-b27d-db3062306fa6","system_id":"levelo_inurba_marseille","lat":43.2843,"lon":5.3751,"is_reserved":false,"is_disabled":false,"rental_uris":{"android":"levelo://app?vid=52e18c7a-cb2d-4922-b27d-db3062306fa6","ios":"levelo://app?vid=52e18c7a-cb2d-4922-b27d-db3062306fa6"},"vehicle_type_id":"4","last_reported":1761430119,"current_range_meters":22800,"station_id":"ce4bh412rcd13ifvqds0","pricing_plan_id":"cebpf4jnsgd1na2vs0mg"},{"bike_id":"24d12bd0-1b07-456e-80e8-a51ffad7e62f","system_id":"levelo_inurba_marseille","lat":43.30204,"lon":5.36648,"is_reserved":false,"is_disabled":false,"rental_uris":{"android":"levelo://app?vid=24d12bd0-1b07-456e-80e8-a51ffad7e62f","ios":"levelo://app?vid=24d12bd0-1b07-456e-80e8-a51ffad7e62f"},"vehicle_type_id":"4","last_reported":1761430119,"current_range_meters":22800,"station_id":"ce4bgrh2rcd13ifvqc8g","pricing_plan_id":"cebpf4jnsgd1na2vs0mg"},{"bike_id":"c14546cf-ba68-4500-ba89-25bb27397600","system_id":"levelo_inurba_marseille","lat":43.309554,"lon":5.390403,"is_reserved":false,"is_disabled":false,"rental_uris":{"android":"levelo://app?vid=c14546cf-ba68-4500-ba89-25bb27397600","ios":"levelo://app?vid=c14546cf-ba68-4500-ba89-25bb27397600"},"vehicle_type_id":"4","last_reported":1761430119,"current_range_meters":22800,"station_id":"ce4bgup2rcd13ifvqco0","pricing_plan_id":"cebpf4jnsgd1na2vs0mg"},{"bike_id":"93ef566c-0909-48d1-8deb-d11c9c5aea5b","system_id":"levelo_inurba_marseille","lat":43.32366,"lon":5.367,"is_reserved":false,"is_disabled":false,"rental_uris":{"android":"levelo://app?vid=93ef566c-0909-48d1-8deb-d11c9c5aea5b","ios":"levelo://app?vid=93ef566c-0909-48d1-8deb-d11c9c5aea5b"},"vehicle_type_id":"4","last_reported":1761430119,"current_range_meters":22800,"station_id":"ce4bhsh2rcd13ifvqi2g","pricing_plan_id":"cebpf4jnsgd1na2vs0mg"},{"bike_id":"bb3d6f43-fe8d-4027-a7f4-02cf8b0450bf","system_id":"levelo_inurba_marseille","lat":43.28862,"lon":5.35863,"is_reserved":false,"is_disabled":true,"rental_uris":{"android":"levelo://app?vid=bb3d6f43-fe8d-4027-a7f4-02cf8b0450bf","ios":"levelo://app?vid=bb3d6f43-fe8d-4027-a7f4-02cf8b0450bf"},"vehicle_type_id":"4","last_reported":1761430119,"current_range_meters":22800,"station_id":"ce4bhb12rcd13ifvqem0","pricing_plan_id":"cebpf4jnsgd1na2vs0mg"},{"bike_id":"aad1eb78-e823-44b9-b9b9-b9dc9d350bda","system_id":"levelo_inurba_marseille","lat":43.30606,"lon":5.37214,"is_reserved":false,"is_disabled":false,"rental_uris":{"android":"levelo://app?vid=aad1eb78-e823-44b9-b9b9-b9dc9d350bda","ios":"levelo://app?vid=aad1eb78-e823-44b9-b9b9-b9dc9d350bda"},"vehicle_type_id":"4","last_reported":1761430119,"current_range_meters":22800,"station_id":"ce4bgqh2rcd13ifvqc4g","pricing_plan_id":"cebpf4jnsgd1na2vs0mg"},{"bike_id":"2502b3a6-fbd1-4829-9816-afdaf20d8531","system_id":"levelo_inurba_marseille","lat":43.29533,"lon":5.38552,"is_reserved":false,"is_disabled":false,"rental_uris":{"android":"levelo://app?vid=2502b3a6-fbd1-4829-9816-afdaf20d8531","ios":"levelo://app?vid=2502b3a6-fbd1-4829-9816-afdaf20d8531"},"vehicle_type_id":"4","last_reported":1761430119,"current_range_meters":22800,"station_id":"ce4bgih2rcd13ifvqba0","pricing_plan_id":"cebpf4jnsgd1na2vs0mg"},{"bike_id":"a1617119-cd47-4ba2-b3fd-d3214485d3fa","system_id":"levelo_inurba_marseille","lat":43.229253,"lon":5.353763,"is_reserved":false,"is_disabled":false,"rental_uris":{"android":"levelo://app?vid=a1617119-cd47-4ba2-b3fd-d3214485d3fa","ios":"levelo://app?vid=a1617119-cd47-4ba2-b3fd-d3214485d3fa"},"vehicle_type_id":"4","last_reported":1761430119,"current_range_meters":22800,"station_id":"cpo3532slgdg3j2ikp40","pricing_plan_id":"cebpf4jnsgd1na2vs0mg"},{"bike_id":"40820473-01c5-497d-8745-d31802356859","system_id":"levelo_inurba_marseille","lat":43.29537,"lon":5.38544,"is_reserved":false,"is_disabled":false,"rental_uris":{"android":"levelo://app?vid=40820473-01c5-497d-8745-d31802356859","ios":"levelo://app?vid=40820473-01c5-497d-8745-d31802356859"},"vehicle_type_id":"4","last_reported":1761430119,"current_range_meters":22800,"station_id":"ce4bgih2rcd13ifvqba0","pricing_plan_id":"cebpf4jnsgd1na2vs0mg"},{"bike_id":"74440bb7-72c3-4ad8-9dec-9a57ed6d17c9","system_id":"levelo_inurba_marseille","lat":43.32381,"lon":5.38875,"is_reserved":false,"is_disabled":false,"rental_uris":{"android":"levelo://app?vid=74440bb7-72c3-4ad8-9dec-9a57ed6d17c9","ios":"levelo://app?vid=74440bb7-72c3-4ad8-9dec-9a57ed6d17c9"},"vehicle_type_id":"4","last_reported":1761430119,"current_range_meters":22800,"station_id":"ce4bhqp2rcd13ifvqhog","pricing_plan_id":"cebpf4jnsgd1na2vs0mg"},{"bike_id":"3bbf0ac0-530a-490c-8628-abdb3b178099","system_id":"levelo_inurba_marseille","lat":43.30325,"lon":5.36906,"is_reserved":false,"is_disabled":false,"rental_uris":{"android":"levelo://app?vid=3bbf0ac0-530a-490c-8628-abdb3b178099","ios":"levelo://app?vid=3bbf0ac0-530a-490c-8628-abdb3b178099"},"vehicle_type_id":"4","last_reported":1761430119,"current_range_meters":22800,"station_id":"ce4bgqh2rcd13ifvqc5g","pricing_plan_id":"cebpf4jnsgd1na2vs0mg"},{"bike_id":"7bdbe546-4083-44a2-9732-536b205bbb90","system_id":"levelo_inurba_marseille","lat":43.289673,"lon":5.37833,"is_reserved":false,"is_disabled":false,"rental_uris":{"android":"levelo://app?vid=7bdbe546-4083-44a2-9732-536b205bbb90","ios":"levelo://app?vid=7bdbe546-4083-44a2-9732-536b205bbb90"},"vehicle_type_id":"4","last_reported":1761430119,"current_range_meters":22800,"station_id":"ce4bh9p2rcd13ifvqed0","pricing_plan_id":"cebpf4jnsgd1na2vs0mg"},{"bike_id":"50c41fd9-15b8-47fc-9776-e10bad83b525","system_id":"levelo_inurba_marseille","lat":43.313279,"lon":5.396908,"is_reserved":false,"is_disabled":false,"rental_uris":{"android":"levelo://app?vid=50c41fd9-15b8-47fc-9776-e10bad83b525","ios":"levelo://app?vid=50c41fd9-15b8-47fc-9776-e10bad83b525"},"vehicle_type_id":"4","last_reported":1761430119,"current_range_meters":23200,"station_id":"ce4bgvp2rcd13ifvqcu0","pricing_plan_id":"cebpf4jnsgd1na2vs0mg"},