{"last_updated":1704315984,"ttl":30,"version":"2.2","data":{"bikes":[{"bike_id":"16469d52-b520-4674-bb43-573115387718","system_id":"levelo_inurba_marseille","lat":43.31224,"lon":5.36853,"is_reserved":false,"is_disabled":false,"rental_uris":{"android":"levelo://app?vid=16469d52-b520-4674-bb43-573115387718","ios":"levelo://app?vid=16469d52-b520-4674-bb43-573115387718"},"vehicle_type_id":"4","last_reported":1704315984,"current_range_meters":14800,"station_id":"ce4bgl92rcd13ifvqbq0","pricing_plan_id":"free"},{"bike_id":"730d1160-642a-4735-aeaa-50a5925460fe","system_id":"levelo_inurba_marseille","lat":43.31228,"lon":5.36857,"is_reserved":false,"is_disabled":false,"rental_uris":{"android":"levelo://app?vid=730d1160-642a-4735-aeaa-50a5925460fe","ios":"levelo://app?vid=730d1160-642a-4735-aeaa-50a5925460fe"},"vehicle_type_id":"4","last_reported":1704315984,"current_range_meters":18800,"station_id":"ce4bgl92rcd13ifvqbq0","pricing_plan_id":"free"},{"bike_id":"153cfced-da78-4fe4-8efb-59d7aec8d95e","system_id":"levelo_inurba_marseille","lat":43.309076,"lon":5.368465,"is_reserved":false,"is_disabled":false,"rental_uris":{"android":"levelo://app?vid=153cfced-da78-4fe4-8efb-59d7aec8d95e","ios":"levelo://app?vid=153cfced-da78-4fe4-8efb-59d7aec8d95e"},"vehicle_type_id":"4","last_reported":1704315984,"current_range_meters":19200,"station_id":"ce4bgn92rcd13ifvqbvg","pricing_plan_id":"free"},{"bike_id":"3113e6a1-21b3-4e2b-a947-a55ab5b8868b","system_id":"levelo_inurba_marseille","lat":43.314811,"lon":5.373103,"is_reserved":false,"is_disabled":false,"rental_uris":{"android":"levelo://app?vid=3113e6a1-21b3-4e2b-a947-a55ab5b8868b","ios":"levelo://app?vid=3113e6a1-21b3-4e2b-a947-a55ab5b8868b"},"vehicle_type_id":"4","last_reported":1704315984,"current_range_meters":26800,"station_id":"ce4bgt12rcd13ifvqcd0","pricing_plan_id":"free"},{"bike_id":"f39af422-b66f-40df-905d-211a51d2db7d","system_id":"levelo_inurba_marseille","lat":43.314811,"lon":5.373104,"is_reserved":false,"is_disabled":false,"rental_uris":{"android":"levelo://app?vid=f39af422-b66f-40df-905d-211a51d2db7d","ios":"levelo://app?vid=f39af422-b66f-40df-905d-211a51d2db7d"},"vehicle_type_id":"4","last_reported":1704315984,"current_range_meters":17600,"station_id":"ce4bgt12rcd13ifvqcd0","pricing_plan_id":"free"},{"bike_id":"8edfe687-5585-4091-b57b-785d87cd81a0","system_id":"levelo_inurba_marseille","lat":43.314811,"lon":5.373104,"is_reserved":false,"is_disabled":false,"rental_uris":{"android":"levelo://app?vid=8edfe687-5585-4091-b57b-785d87cd81a0","ios":"levelo://app?vid=8edfe687-5585-4091-b57b-785d87cd81a0"},"vehicle_type_id":"4","last_reported":1704315984,"current_range_meters":20400,"station_id":"ce4bgt12rcd13ifvqcd0","pricing_plan_id":"free"},{"bike_id":"d5473b7a-0a89-4a27-934b-61f957cbc11d","system_id":"levelo_inurba_marseille","lat":43.309039,"lon":5.371797,"is_reserved":false,"is_disabled":false,"rental_uris":{"android":"levelo://app?vid=d5473b7a-0a89-4a27-934b-61f957cbc11d","ios":"levelo://app?vid=d5473b7a-0a89-4a27-934b-61f957cbc11d"},"vehicle_type_id":"4","last_reported":1704315984,"current_range_meters":22800,"station_id":"ce4bguh2rcd13ifvqckg","pricing_plan_id":"free"},{"bike_id":"de2d62fc-c4ac-4f9d-addc-3c268404097a","system_id":"levelo_inurba_marseille","lat":43.308937,"lon":5.37197,"is_reserved":false,"is_disabled":false,"rental_uris":{"android":"levelo://app?vid=de2d62fc-c4ac-4f9d-addc-3c268404097a","ios":"levelo://app?vid=de2d62fc-c4ac-4f9d-addc-3c268404097a"},"vehicle_type_id":"4","last_reported":1704315984,"current_range_meters":4400,"station_id":"ce4bguh2rcd13ifvqckg","pricing_plan_id":"free"},{"bike_id":"f72bdd9a-3e91-4d57-b03b-8ebf21ed4a57","system_id":"levelo_inurba_marseille","lat":43.305714,"lon":5.365633,"is_reserved":false,"is_disabled":false,"rental_uris":{"android":"levelo://app?vid=f72bdd9a-3e91-4d57-b03b-8ebf21ed4a57","ios":"levelo://app?vid=f72bdd9a-3e91-4d57-b03b-8ebf21ed4a57"},"vehicle_type_id":"4","last_reported":1704315984,"current_range_meters":17600,"station_id":"ce4bgs12rcd13ifvqcag","pricing_plan_id":"free"},{"bike_id":"029150ca-9c0a-41c0-94e4-b569af2fd908","system_id":"levelo_inurba_marseille","lat":43.305989,"lon":5.37225,"is_reserved":false,"is_disabled":false,"rental_uris":{"android":"levelo://app?vid=029150ca-9c0a-41c0-94e4-b569af2fd908","ios":"levelo://app?vid=029150ca-9c0a-41c0-94e4-b569af2fd908"},"vehicle_type_id":"4","last_reported":1704315984,"current_range_meters":4800,"station_id":"ce4bgqh2rcd13ifvqc4g","pricing_plan_id":"free"},{"bike_id":"ea0ed30b-dcd6-4d0a-b654-45baa2c5c7a0","system_id":"levelo_inurba_marseille","lat":43.305989,"lon":5.37225,"is_reserved":false,"is_disabled":false,"rental_uris":{"android":"levelo://app?vid=ea0ed30b-dcd6-4d0a-b654-45baa2c5c7a0","ios":"levelo://app?vid=ea0ed30b-dcd6-4d0a-b654-45baa2c5c7a0"},"vehicle_type_id":"4","last_reported":1704315984,"current_range_meters":19200,"station_id":"ce4bgqh2rcd13ifvqc4g","pricing_plan_id":"free"},{"bike_id":"821cd0b3-d44b-4686-8f87-f7ed2a01460f","system_id":"levelo_inurba_marseille","lat":43.311131,"lon":5.377651,"is_reserved":false,"is_disabled":false,"rental_uris":{"android":"levelo://app?vid=821cd0b3-d44b-4686-8f87-f7ed2a01460f","ios":"levelo://app?vid=821cd0b3-d44b-4686-8f87-f7ed2a01460f"},"vehicle_type_id":"4","last_reported":1704315984,"current_range_meters":13600,"station_id":"ce4bgt92rcd13ifvqcg0","pricing_plan_id":"free"},{"bike_id":"35dcad53-0f03-4c82-a9b3-601c41a595fa","system_id":"levelo_inurba_marseille","lat":43.311131,"lon":5.377651,"is_reserved":false,"is_disabled":false,"rental_uris":{"android":"levelo://app?vid=35dcad53-0f03-4c82-a9b3-601c41a595fa","ios":"levelo://app?vid=35dcad53-0f03-4c82-a9b3-601c41a595fa"},"vehicle_type_id":"4","last_reported":1704315984,"current_range_meters":800,"station_id":"ce4bgt92rcd13ifvqcg0","pricing_plan_id":"free"},{"bike_id":"5a5f6380-591d-4db3-97a4-c1697f7ea939","system_id":"levelo_inurba_marseille","lat":43.308425,"lon":5.37647,"is_reserved":false,"is_disabled":false,"rental_uris":{"android":"levelo://app?vid=5a5f6380-591d-4db3-97a4-c1697f7ea939","ios":"levelo://app?vid=5a5f6380-591d-4db3-97a4-c1697f7ea939"},"vehicle_type_id":"4","last_reported":1704315984,"current_range_meters":11600,"station_id":"","pricing_plan_id":"free"},{"bike_id":"f8f04d9a-5e4f-4390-96ab-e6a180f7e1bf","system_id":"levelo_inurba_marseille","lat":43.307945,"lon":5.376487,"is_reserved":false,"is_disabled":false,"rental_uris":{"android":"levelo://app?vid=f8f04d9a-5e4f-4390-96ab-e6a180f7e1bf","ios":"levelo://app?vid=f8f04d9a-5e4f-4390-96ab-e6a180f7e1bf"},"vehicle_type_id":"4","last_reported":1704315984,"current_range_meters":28400,"station_id":"ce4bgv92rcd13ifvqcq0","pricing_plan_id":"free"},{"bike_id":"058bdd97-c16f-4848-aacc-95a7a29e30e6","system_id":"levelo_inurba_marseille","lat":43.317075,"lon":5.377367,"is_reserved":false,"is_disabled":false,"rental_uris":{"android":"levelo://app?vid=058bdd97-c16f-4848-aacc-95a7a29e30e6","ios":"levelo://app?vid=058bdd97-c16f-4848-aacc-95a7a29e30e6"},"vehicle_type_id":"4","last_reported":1704315984,"current_range_meters":30400,"station_id":"ce4bgth2rcd13ifvqch0","pricing_plan_id":"free"},{"bike_id":"c4e90871-bb94-4085-82dc-ccbd997a22ca","system_id":"levelo_inurba_marseille","lat":43.315281,"lon":5.379068,"is_reserved":false,"is_disabled":false,"rental_uris":{"android":"levelo://app?vid=c4e90871-bb94-4085-82dc-ccbd997a22ca","ios":"levelo://app?vid=c4e90871-bb94-4085-82dc-ccbd997a22ca"},"vehicle_type_id":"4","last_reported":1704315984,"current_range_meters":22000,"station_id":"","pricing_plan_id":"free"},{"bike_id":"4810d17d-15f2-4699-980f-89ebf8877f7a","system_id":"levelo_inurba_marseille","lat":43.315282,"lon":5.38025,"is_reserved":false,"is_disabled":false,"rental_uris":{"android":"levelo://app?vid=4810d17d-15f2-4699-980f-89ebf8877f7a","ios":"levelo://app?vid=4810d17d-15f2-4699-980f-89ebf8877f7a"},"vehicle_type_id":"4","last_reported":1704315984,"current_range_meters":29200,"station_id":"ce4bhsp2rcd13ifvqi50","pricing_plan_id":"free"},{"bike_id":"6f7a9df3-be8f-408f-b2d0-56aead9dfa02","system_id":"levelo_inurba_marseille","lat":43.31527,"lon":5.38038,"is_reserved":false,"is_disabled":false,"rental_uris":{"android":"levelo://app?vid=6f7a9df3-be8f-408f-b2d0-56aead9dfa02","ios":"levelo://app?vid=6f7a9df3-be8f-408f-b2d0-56aead9dfa02"},"vehicle_type_id":"4","last_reported":1704315984,"current_range_meters":5600,"station_id":"ce4bhsp2rcd13ifvqi50","pricing_plan_id":"free"},{"bike_id":"f00ec391-2e9c-4b93-bbc5-c2f5c07f0df2","system_id":"levelo_inurba_marseille","lat":43.308012,"lon":5.381511,"is_reserved":false,"is_disabled":false,"rental_uris":{"android":"levelo://app?vid=f00ec391-2e9c-4b93-bbc5-c2f5c07f0df2","ios":"levelo://app?vid=f00ec391-2e9c-4b93-bbc5-c2f5c07f0df2"},"vehicle_type_id":"4","last_reported":1704315984,"current_range_meters":0,"station_id":"ce4bgt12rcd13ifvqce0","pricing_plan_id":"free"},{"bike_id":"def18616-1003-48a1-be5e-2c4ea9d3a400","system_id":"levelo_inurba_marseille","lat":43.308012,"lon":5.381511,"is_reserved":false,"is_disabled":false,"rental_uris":{"android":"levelo://app?vid=def18616-1003-48a1-be5e-2c4ea9d3a400","ios":"levelo://app?vid=def18616-1003-48a1-be5e-2c4ea9d3a400"},"vehicle_type_id":"4","last_reported":1704315984,"current_range_meters":26400,"station_id":"ce4bgt12rcd13ifvqce0","pricing_plan_id":"free"},{"bike_id":"bdc5cbf5-91b3-4deb-8c7b-88216ee49a0e","system_id":"levelo_inurba_marseille","lat":43.308012,"lon":5.381511,"is_reserved":false,"is_disabled":false,"rental_uris":{"android":"levelo://app?vid=bdc5cbf5-91b3-4deb-8c7b-88216ee49a0e","ios":"levelo://app?vid=bdc5cbf5-91b3-4deb-8c7b-88216ee49a0e"},"vehicle_type_id":"4","last_reported":1704315984,"current_range_meters":6000,"station_id":"ce4bgt12rcd13ifvqce0","pricing_plan_id":"free"},{"bike_id":"39f6ae80-8fb6-46e9-8bcc-cdcc5734c67a","system_id":"levelo_inurba_marseille","lat":43.308012,"lon":5.381511,"is_reserved":false,"is_disabled":false,"rental_uris":{"android":"levelo://app?vid=39f6ae80-8fb6-46e9-8bcc-cdcc5734c67a","ios":"levelo://app?vid=39f6ae80-8fb6-46e9-8bcc-cdcc5734c67a"},"vehicle_type_id":"4","last_reported":1704315984,"current_range_meters":26000,"station_id":"ce4bgt12rcd13ifvqce0","pricing_plan_id":"free"},{"bike_id":"5377074b-30e2-4d67-825b-9deb3b1dbed3","system_id":"levelo_inurba_marseille","lat":43.304708,"lon":5.379039,"is_reserved":false,"is_disabled":false,"rental_uris":{"android":"levelo://app?vid=5377074b-30e2-4d67-825b-9deb3b1dbed3","ios":"levelo://app?vid=5377074b-30e2-4d67-825b-9deb3b1dbed3"},"vehicle_type_id":"4","last_reported":1704315984,"current_range_meters":6000,"station_id":"","pricing_plan_id":"free"},{"bike_id":"a4535830-2f3b-479e-a939-f97547203e35","system_id":"levelo_inurba_marseille","lat":43.3136,"lon":5.38335,"is_reserved":false,"is_disabled":false,"rental_uris":{"android":"levelo://app?vid=a4535830-2f3b-479e-a939-f97547203e35","ios":"levelo://app?vid=a4535830-2f3b-479e-a939-f97547203e35"},"vehicle_type_id":"4","last_reported":1704315984,"current_range_meters":4400,"station_id":"","pricing_plan_id":"free"},{"bike_id":"816e8d7f-4111-4d6f-8f15-7775b02a72db","system_id":"levelo_inurba_marseille","lat":43.304606,"lon":5.379026,"is_reserved":false,"is_disabled":false,"rental_uris":{"android":"levelo://app?vid=816e8d7f-4111-4d6f-8f15-7775b02a72db","ios":"levelo://app?vid=816e8d7f-4111-4d6f-8f15-7775b02a72db"},"vehicle_type_id":"4","last_reported":1704315984,"current_range_meters":27200,"station_id":"ce4bgup2rcd13ifvqcn0","pricing_plan_id":"free"},{"bike_id":"46860f54-e377-43be-9a00-4a59e724fcce","system_id":"levelo_inurba_marseille","lat":43.324771,"lon":5.36557,"is_reserved":false,"is_disabled":false,"rental_uris":{"android":"levelo://app?vid=46860f54-e377-43be-9a00-4a59e724fcce","ios":"levelo://app?vid=46860f54-e377-43be-9a00-4a59e724fcce"},"vehicle_type_id":"4","last_reported":1704315984,"current_range_meters":20800,"station_id":"ce4bhs12rcd13ifvqhvg","pricing_plan_id":"free"},{"bike_id":"2a6911e4-99f7-4853-9039-ac05cf0c6d2a","system_id":"levelo_inurba_marseille","lat":43.319935,"lon":5.381699,"is_reserved":false,"is_disabled":false,"rental_uris":{"android":"levelo://app?vid=2a6911e4-99f7-4853-9039-ac05cf0c6d2a","ios":"levelo://app?vid=2a6911e4-99f7-4853-9039-ac05cf0c6d2a"},"vehicle_type_id":"4","last_reported":1704315984,"current_range_meters":29600,"station_id":"ce4bhr12rcd13ifvqhpg","pricing_plan_id":"free"},{"bike_id":"a9ec24e9-bba6-40c5-9fa6-b3c57d576f31","system_id":"levelo_inurba_marseille","lat":43.319935,"lon":5.381699,"is_reserved":false,"is_disabled":false,"rental_uris":{"android":"levelo://app?vid=a9ec24e9-bba6-40c5-9fa6-b3c57d576f31","ios":"levelo://app?vid=a9ec24e9-bba6-40c5-9fa6-b3c57d576f31"},"vehicle_type_id":"4","last_reported":1704315984,"current_range_meters":6800,"station_id":"ce4bhr12rcd13ifvqhpg","pricing_plan_id":"free"},{"bike_id":"442c1b48-0c9d-41d7-80ff-51493b8682d0","system_id":"levelo_inurba_marseille","lat":43.319935,"lon":5.381699,"is_reserved":false,"is_disabled":false,"rental_uris":{"android":"levelo://app?vid=442c1b48-0c9d-41d7-80ff-51493b8682d0","ios":"levelo://app?vid=442c1b48-0c9d-41d7-80ff-51493b8682d0"},"vehicle_type_id":"4","last_reported":1704315984,"current_range_meters":16000,"station_id":"ce4bhr12rcd13ifvqhpg","pricing_plan_id":"free"},{"bike_id":"1c6e55bf-6b0c-4848-96ae-9e712df180c6","system_id":"levelo_inurba_marseille","lat":43.319935,"lon":5.381699,"is_reserved":false,"is_disabled":false,"rental_uris":{"android":"levelo://app?vid=1c6e55bf-6b0c-4848-96ae-9e712df180c6","ios":"levelo://app?vid=1c6e55bf-6b0c-4848-96ae-9e712df180c6"},"vehicle_type_id":"4","last_reported":1704315984,"current_range_meters":30800,"station_id":"ce4bhr12rcd13ifvqhpg","pricing_plan_id":"free"},{"bike_id":"aa22fab9-c356-4c89-9545-5bc70264c905","system_id":"levelo_inurba_marseille","lat":43.313571,"lon":5.384829,"is_reserved":false,"is_disabled":false,"rental_uris":{"android":"levelo://app?vid=aa22fab9-c356-4c89-9545-5bc70264c905","ios":"levelo://app?vid=aa22fab9-c356-4c89-9545-5bc70264c905"},"vehicle_type_id":"4","last_reported":1704315984,"current_range_meters":26000,"station_id":"ce4bgt92rcd13ifvqcf0","pricing_plan_id":"free"},{"bike_id":"17504bde-947a-4cd6-98b3-9a4c66aca99b","system_id":"levelo_inurba_marseille","lat":43.313827,"lon":5.385007,"is_reserved":false,"is_disabled":false,"rental_uris":{"android":"levelo://app?vid=17504bde-947a-4cd6-98b3-9a4c66aca99b","ios":"levelo://app?vid=17504bde-947a-4cd6-98b3-9a4c66aca99b"},"vehicle_type_id":"4","last_reported":1704315984,"current_range_meters":16000,"station_id":"ce4bgt92rcd13ifvqcf0","pricing_plan_id":"free"},{"bike_id":"69cfb051-1d59-4b26-8b69-7eca67089199","system_id":"levelo_inurba_marseille","lat":43.299222,"lon":5.365554,"is_reserved":false,"is_disabled":false,"rental_uris":{"android":"levelo://app?vid=69cfb051-1d59-4b26-8b69-7eca67089199","ios":"levelo://app?vid=69cfb051-1d59-4b26-8b69-7eca67089199"},"vehicle_type_id":"4","last_reported":1704315984,"current_range_meters":8400,"station_id":"ce4bgm92rcd13ifvqbr0","pricing_plan_id":"free"},{"bike_id":"b3f9544a-1e9b-411f-bb3c-1dd30e9dc17e","system_id":"levelo_inurba_marseille","lat":43.299222,"lon":5.365554,"is_reserved":false,"is_disabled":false,"rental_uris":{"android":"levelo://app?vid=b3f9544a-1e9b-411f-bb3c-1dd30e9dc17e","ios":"levelo://app?vid=b3f9544a-1e9b-411f-bb3c-1dd30e9dc17e"},"vehicle_type_id":"4","last_reported":1704315984,"current_range_meters":9200,"station_id":"ce4bgm92rcd13ifvqbr0","pricing_plan_id":"free"},{"bike_id":"61887c1f-7d67-4ccc-bb0e-afba73772952","system_id":"levelo_inurba_marseille","lat":43.299222,"lon":5.365554,"is_reserved":false,"is_disabled":false,"rental_uris":{"android":"levelo://app?vid=61887c1f-7d67-4ccc-bb0e-afba73772952","ios":"levelo://app?vid=61887c1f-7d67-4ccc-bb0e-afba73772952"},"vehicle_type_id":"4","last_reported":1704315984,"current_range_meters":2400,"station_id":"ce4bgm92rcd13ifvqbr0","pricing_plan_id":"free"},{"bike_id":"355b9567-2c3e-41c6-b49a-73fc7ab389d4","system_id":"levelo_inurba_marseille","lat":43.305378,"lon":5.384236,"is_reserved":false,"is_disabled":false,"rental_uris":{"android":"levelo://app?vid=355b9567-2c3e-41c6-b49a-73fc7ab389d4","ios":"levelo://app?vid=355b9567-2c3e-41c6-b49a-73fc7ab389d4"},"vehicle_type_id":"4","last_reported":1704315984,"current_range_meters":18000,"station_id":"ce4bgg92rcd13ifvqb30","pricing_plan_id":"free"},{"bike_id":"7c3f43a3-7000-4ef9-80b8-019a75d80b23","system_id":"levelo_inurba_marseille","lat":43.299243,"lon":5.374807,"is_reserved":false,"is_disabled":false,"rental_uris":{"android":"levelo://app?vid=7c3f43a3-7000-4ef9-80b8-019a75d80b23","ios":"levelo://app?vid=7c3f43a3-7000-4ef9-80b8-019a75d80b23"},"vehicle_type_id":"4","last_reported":1704315984,"current_range_meters":7600,"station_id":"ce4bgjh2rcd13ifvqbg0","pricing_plan_id":"free"},{"bike_id":"ab6853a7-f04a-48cf-a788-ef955283a752","system_id":"levelo_inurba_marseille","lat":43.299243,"lon":5.374807,"is_reserved":false,"is_disabled":false,"rental_uris":{"android":"levelo://app?vid=ab6853a7-f04a-48cf-a788-ef955283a752","ios":"levelo://app?vid=ab6853a7-f04a-48cf-a788-ef955283a752"},"vehicle_type_id":"4","last_reported":1704315984,"current_range_meters":17200,"station_id":"ce4bgjh2rcd13ifvqbg0","pricing_plan_id":"free"},{"bike_id":"5b3857c6-4577-43e4-8a50-82608903cc98","system_id":"levelo_inurba_marseille","lat":43.299243,"lon":5.37481,"is_reserved":false,"is_disabled":false,"rental_uris":{"android":"levelo://app?vid=5b3857c6-4577-43e4-8a50-82608903cc98","ios":"levelo://app?vid=5b3857c6-4577-43e4-8a50-82608903cc98"},"vehicle_type_id":"4","last_reported":1704315984,"current_range_meters":8000,"station_id":"ce4bgjh2rcd13ifvqbg0","pricing_plan_id":"free"},{"bike_id":"e1bbe910-db4c-4702-a80c-ef915abf4b00","system_id":"levelo_inurba_marseille","lat":43.311722,"lon":5.387247,"is_reserved":false,"is_disabled":false,"rental_uris":{"android":"levelo://app?vid=e1bbe910-db4c-4702-a80c-ef915abf4b00","ios":"levelo://app?vid=e1bbe910-db4c-4702-a80c-ef915abf4b00"},"vehicle_type_id":"4","last_reported":1704315984,"current_range_meters":20000,"station_id":"ce4bgv12rcd13ifvqcp0","pricing_plan_id":"free"},{"bike_id":"726066eb-7f00-41f3-838f-2a00b3ef939c","system_id":"levelo_inurba_marseille","lat":43.299243,"lon":5.37481,"is_reserved":false,"is_disabled":false,"rental_uris":{"android":"levelo://app?vid=726066eb-7f00-41f3-838f-2a00b3ef939c","ios":"levelo://app?vid=726066eb-7f00-41f3-838f-2a00b3ef939c"},"vehicle_type_id":"4","last_reported":1704315984,"current_range_meters":0,"station_id":"ce4bgjh2rcd13ifvqbg0","pricing_plan_id":"free"},{"bike_id":"d0866ac8-0a3a-4dc8-aea2-016d64b9db9a","system_id":"levelo_inurba_marseille","lat":43.311722,"lon":5.387247,"is_reserved":false,"is_disabled":false,"rental_uris":{"android":"levelo://app?vid=d0866ac8-0a3a-4dc8-aea2-016d64b9db9a","ios":"levelo://app?vid=d0866ac8-0a3a-4dc8-aea2-016d64b9db9a"},"vehicle_type_id":"4","last_reported":1704315984,"current_range_meters":5200,"station_id":"ce4bgv12rcd13ifvqcp0","pricing_plan_id":"free"},{"bike_id":"0233118d-6be7-4240-a1a5-35a788f46e67","system_id":"levelo_inurba_marseille","lat":43.31177,"lon":5.38721,"is_reserved":false,"is_disabled":false,"rental_uris":{"android":"levelo://app?vid=0233118d-6be7-4240-a1a5-35a788f46e67","ios":"levelo://app?vid=0233118d-6be7-4240-a1a5-35a788f46e67"},"vehicle_type_id":"4","last_reported":1704315984,"current_range_meters":4400,"station_id":"ce4bgv12rcd13ifvqcp0","pricing_plan_id":"free"},{"bike_id":"7e0f7b46-416f-497c-8e32-2a4e2c709f37","system_id":"levelo_inurba_marseille","lat":43.311722,"lon":5.387247,"is_reserved":false,"is_disabled":false,"rental_uris":{"android":"levelo://app?vid=7e0f7b46-416f-497c-8e32-2a4e2c709f37","ios":"levelo://app?vid=7e0f7b46-416f-497c-8e32-2a4e2c709f37"},"vehicle_type_id":"4","last_reported":1704315984,"current_range_meters":7600,"station_id":"ce4bgv12rcd13ifvqcp0","pricing_plan_id":"free"},{"bike_id":"0fd1a754-34d0-4db5-92ef-c7d51180155b","system_id":"levelo_inurba_marseille","lat":43.322872,"lon":5.382756,"is_reserved":false,"is_disabled":false,"rental_uris":{"android":"levelo://app?vid=0fd1a754-34d0-4db5-92ef-c7d51180155b","ios":"levelo://app?vid=0fd1a754-34d0-4db5-92ef-c7d51180155b"},"vehicle_type_id":"4","last_reported":1704315984,"current_range_meters":20000,"station_id":"ce4bhr12rcd13ifvqhqg","pricing_plan_id":"free"},{"bike_id":"b3dc36b5-78bd-4891-ba38-a66f92777aa9","system_id":"levelo_inurba_marseille","lat":43.322872,"lon":5.382756,"is_reserved":false,"is_disabled":false,"rental_uris":{"android":"levelo://app?vid=b3dc36b5-78bd-4891-ba38-a66f92777aa9","ios":"levelo://app?vid=b3dc36b5-78bd-4891-ba38-a66f92777aa9"},"vehicle_type_id":"4","last_reported":1704315984,"current_range_meters":8000,"station_id":"ce4bhr12rcd13ifvqhqg","pricing_plan_id":"free"},{"bike_id":"f53e7a9d-7ee6-4428-85bd-3db5d7cc3975","system_id":"levelo_inurba_marseille","lat":43.322872,"lon":5.382756,"is_reserved":false,"is_disabled":false,"rental_uris":{"android":"levelo://app?vid=f53e7a9d-7ee6-4428-85bd-3db5d7cc3975","ios":"levelo://app?vid=f53e7a9d-7ee6-4428-85bd-3db5d7cc3975"},"vehicle_type_id":"4","last_reported":1704315984,"current_range_meters":23600,"station_id":"ce4bhr12rcd13ifvqhqg","pricing_plan_id":"free"},{"bike_id":"b1b531a6-b271-457f-a47c-b5f17d57c6b0","system_id":"levelo_inurba_marseille","lat":43.322872,"lon":5.382756,"is_reserved":false,"is_disabled":false,"rental_uris":{"android":"levelo://app?vid=b1b531a6-b271-457f-a47c-b5f17d57c6b0","ios":"levelo://app?vid=b1b531a6-b271-457f-a47c-b5f17d57c6b0"},"vehicle_type_id":"4","last_reported":1704315984,"current_range_meters":24000,"station_id":"ce4bhr12rcd13ifvqhqg","pricing_plan_id":"free"},{"bike_id":"e344a4f8-37b0-4824-b7de-a9d0470bf846","system_id":"levelo_inurba_marseille","lat":43.322872,"lon":5.382756,"is_reserved":false,"is_disabled":false,"rental_uris":{"android":"levelo://app?vid=e344a4f8-37b0-4824-b7de-a9d0470bf846","ios":"levelo://app?vid=e344a4f8-37b0-4824-b7de-a9d0470bf846"},"vehicle_type_id":"4","last_reported":1704315984,"current_range_meters":31600,"station_id":"ce4bhr12rcd13ifvqhqg","pricing_plan_id":"free"},{"bike_id":"95e60a05-c3f6-42d6-b8d8-8e09a3364abf","system_id":"levelo_inurba_marseille","lat":43.328371,"lon":5.366909,"is_reserved":false,"is_disabled":false,"rental_uris":{"android":"levelo://app?vid=95e60a05-c3f6-42d6-b8d8-8e09a3364abf","ios":"levelo://app?vid=95e60a05-c3f6-42d6-b8d8-8e09a3364abf"},"vehicle_type_id":"4","last_reported":1704315984,"current_range_meters":15600,"station_id":"ce4bhs92rcd13ifvqi0g","pricing_plan_id":"free"},{"bike_id":"370cccf7-c9ba-46c2-819b-c8e8cacc4c21","system_id":"levelo_inurba_marseille","lat":43.3277,"lon":5.37458,"is_reserved":false,"is_disabled":false,"rental_uris":{"android":"levelo://app?vid=370cccf7-c9ba-46c2-819b-c8e8cacc4c21","ios":"levelo://app?vid=370cccf7-c9ba-46c2-819b-c8e8cacc4c21"},"vehicle_type_id":"4","last_reported":1704315984,"current_range_meters":3600,"station_id":"","pricing_plan_id":"free"},{"bike_id":"f1908e61-5202-43e3-bf16-d91f711a0b5b","system_id":"levelo_inurba_marseille","lat":43.2968,"lon":5.37291,"is_reserved":false,"is_disabled":false,"rental_uris":{"android":"levelo://app?vid=f1908e61-5202-43e3-bf16-d91f711a0b5b","ios":"levelo://app?vid=f1908e61-5202-43e3-bf16-d91f711a0b5b"},"vehicle_type_id":"4","last_reported":1704315984,"current_range_meters":22400,"station_id":"ce4bgk12rcd13ifvqbj0","pricing_plan_id":"free"},{"bike_id":"2e27cae9-fcd5-4248-9e88-4d26cf63acc3","system_id":"levelo_inurba_marseille","lat":43.29586,"lon":5.36729,"is_reserved":false,"is_disabled":false,"rental_uris":{"android":"levelo://app?vid=2e27cae9-fcd5-4248-9e88-4d26cf63acc3","ios":"levelo://app?vid=2e27cae9-fcd5-4248-9e88-4d26cf63acc3"},"vehicle_type_id":"4","last_reported":1704315984,"current_range_meters":24000,"station_id":"ce4bgph2rcd13ifvqc2g","pricing_plan_id":"free"},{"bike_id":"2a44d833-8ea0-4593-90e6-37854019817a","system_id":"levelo_inurba_marseille","lat":43.309589,"lon":5.390258,"is_reserved":false,"is_disabled":false,"rental_uris":{"android":"levelo://app?vid=2a44d833-8ea0-4593-90e6-37854019817a","ios":"levelo://app?vid=2a44d833-8ea0-4593-90e6-37854019817a"},"vehicle_type_id":"4","last_reported":1704315984,"current_range_meters":15600,"station_id":"ce4bgup2rcd13ifvqco0","pricing_plan_id":"free"},{"bike_id":"4b57a785-c2d7-4cf0-8023-6c96ec591992","system_id":"levelo_inurba_marseille","lat":43.296921,"lon":5.376579,"is_reserved":false,"is_disabled":false,"rental_uris":{"android":"levelo://app?vid=4b57a785-c2d7-4cf0-8023-6c96ec591992","ios":"levelo://app?vid=4b57a785-c2d7-4cf0-8023-6c96ec591992"},"vehicle_type_id":"4","last_reported":1704315984,"current_range_meters":7200,"station_id":"ce4bgkh2rcd13ifvqbl0","pricing_plan_id":"free"},{"bike_id":"3d4ee389-4467-4d7e-989a-c42b22d51f73","system_id":"levelo_inurba_marseille","lat":43.317557,"lon":5.390173,"is_reserved":false,"is_disabled":false,"rental_uris":{"android":"levelo://app?vid=3d4ee389-4467-4d7e-989a-c42b22d51f73","ios":"levelo://app?vid=3d4ee389-4467-4d7e-989a-c42b22d51f73"},"vehicle_type_id":"4","last_reported":1704315984,"current_range_meters":31200,"station_id":"ce4bhqp2rcd13ifvqhng","pricing_plan_id":"free"},{"bike_id":"c45955cd-c08a-44c9-a8aa-d6757945c061","system_id":"levelo_inurba_marseille","lat":43.317557,"lon":5.390173,"is_reserved":false,"is_disabled":false,"rental_uris":{"android":"levelo://app?vid=c45955cd-c08a-44c9-a8aa-d6757945c061","ios":"levelo://app?vid=c45955cd-c08a-44c9-a8aa-d6757945c061"},"vehicle_type_id":"4","last_reported":1704315984,"current_range_meters":31200,"station_id":"ce4bhqp2rcd13ifvqhng","pricing_plan_id":"free"},{"bike_id":"3d30498a-8c9f-4204-bcaa-53a96cd07ba1","system_id":"levelo_inurba_marseille","lat":43.298037,"lon":5.381066,"is_reserved":false,"is_disabled":false,"rental_uris":{"android":"levelo://app?vid=3d30498a-8c9f-4204-bcaa-53a96cd07ba1","ios":"levelo://app?vid=3d30498a-8c9f-4204-bcaa-53a96cd07ba1"},"vehicle_type_id":"4","last_reported":1704315984,"current_range_meters":1200,"station_id":"ce4bgip2rcd13ifvqbb0","pricing_plan_id":"free"},{"bike_id":"d60802d6-4f47-444a-b234-883690eec05b","system_id":"levelo_inurba_marseille","lat":43.33062,"lon":5.3627,"is_reserved":false,"is_disabled":false,"rental_uris":{"android":"levelo://app?vid=d60802d6-4f47-444a-b234-883690eec05b","ios":"levelo://app?vid=d60802d6-4f47-444a-b234-883690eec05b"},"vehicle_type_id":"4","last_reported":1704315984,"current_range_meters":10400,"station_id":"","pricing_plan_id":"free"},{"bike_id":"a0d22964-7847-4b8d-8895-d8ffa1dadc61","system_id":"levelo_inurba_marseille","lat":43.299707,"lon":5.384859,"is_reserved":false,"is_disabled":false,"rental_uris":{"android":"levelo://app?vid=a0d22964-7847-4b8d-8895-d8ffa1dadc61","ios":"levelo://app?vid=a0d22964-7847-4b8d-8895-d8ffa1dadc61"},"vehicle_type_id":"4","last_reported":1704315984,"current_range_meters":14400,"station_id":"ce4bgj92rcd13ifvqbd0","pricing_plan_id":"free"},{"bike_id":"7119845d-00aa-4d9f-be8c-fc97d41f1380","system_id":"levelo_inurba_marseille","lat":43.297594,"lon":5.381134,"is_reserved":false,"is_disabled":false,"rental_uris":{"android":"levelo://app?vid=7119845d-00aa-4d9f-be8c-fc97d41f1380","ios":"levelo://app?vid=7119845d-00aa-4d9f-be8c-fc97d41f1380"},"vehicle_type_id":"4","last_reported":1704315984,"current_range_meters":0,"station_id":"ce4bgip2rcd13ifvqbb0","pricing_plan_id":"free"},{"bike_id":"377c0a28-707b-43ea-9944-7def16847335","system_id":"levelo_inurba_marseille","lat":43.299707,"lon":5.384859,"is_reserved":false,"is_disabled":false,"rental_uris":{"android":"levelo://app?vid=377c0a28-707b-43ea-9944-7def16847335","ios":"levelo://app?vid=377c0a28-707b-43ea-9944-7def16847335"},"vehicle_type_id":"4","last_reported":1704315984,"current_range_meters":22400,"station_id":"ce4bgj92rcd13ifvqbd0","pricing_plan_id":"free"},{"bike_id":"d55ac054-7cdc-43ab-851e-b7d7c733a8f2","system_id":"levelo_inurba_marseille","lat":43.295279,"lon":5.375048,"is_reserved":false,"is_disabled":false,"rental_uris":{"android":"levelo://app?vid=d55ac054-7cdc-43ab-851e-b7d7c733a8f2","ios":"levelo://app?vid=d55ac054-7cdc-43ab-851e-b7d7c733a8f2"},"vehicle_type_id":"4","last_reported":1704315984,"current_range_meters":14000,"station_id":"ce4bgkp2rcd13ifvqbmg","pricing_plan_id":"free"},{"bike_id":"dada0641-da08-49ea-9247-0a9844120218","system_id":"levelo_inurba_marseille","lat":43.295279,"lon":5.375048,"is_reserved":false,"is_disabled":false,"rental_uris":{"android":"levelo://app?vid=dada0641-da08-49ea-9247-0a9844120218","ios":"levelo://app?vid=dada0641-da08-49ea-9247-0a9844120218"},"vehicle_type_id":"4","last_reported":1704315984,"current_range_meters":5200,"station_id":"ce4bgkp2rcd13ifvqbmg","pricing_plan_id":"free"},{"bike_id":"663c0a7e-890f-4ec8-b5d3-9a51bf6b0cb2","system_id":"levelo_inurba_marseille","lat":43.32367,"lon":5.388836,"is_reserved":false,"is_disabled":false,"rental_uris":{"android":"levelo://app?vid=663c0a7e-890f-4ec8-b5d3-9a51bf6b0cb2","ios":"levelo://app?vid=663c0a7e-890f-4ec8-b5d3-9a51bf6b0cb2"},"vehicle_type_id":"4","last_reported":1704315984,"current_range_meters":16400,"station_id":"ce4bhqp2rcd13ifvqhog","pricing_plan_id":"free"},{"bike_id":"2352bbd5-b392-4f4b-8fe1-9f862c3443c5","system_id":"levelo_inurba_marseille","lat":43.293259,"lon":5.371586,"is_reserved":false,"is_disabled":false,"rental_uris":{"android":"levelo://app?vid=2352bbd5-b392-4f4b-8fe1-9f862c3443c5","ios":"levelo://app?vid=2352bbd5-b392-4f4b-8fe1-9f862c3443c5"},"vehicle_type_id":"4","last_reported":1704315984,"current_range_meters":18400,"station_id":"ce4bgh92rcd13ifvqb40","pricing_plan_id":"free"},{"bike_id":"383db839-8b4e-4be8-ba98-4cb5074636fe","system_id":"levelo_inurba_marseille","lat":43.293259,"lon":5.371586,"is_reserved":false,"is_disabled":false,"rental_uris":{"android":"levelo://app?vid=383db839-8b4e-4be8-ba98-4cb5074636fe","ios":"levelo://app?vid=383db839-8b4e-4be8-ba98-4cb5074636fe"},"vehicle_type_id":"4","last_reported":1704315984,"current_range_meters":23200,"station_id":"ce4bgh92rcd13ifvqb40","pricing_plan_id":"free"},{"bike_id":"717e6596-52fd-4175-ba4a-2552ab0977d6","system_id":"levelo_inurba_marseille","lat":43.293259,"lon":5.371586,"is_reserved":false,"is_disabled":false,"rental_uris":{"android":"levelo://app?vid=717e6596-52fd-4175-ba4a-2552ab0977d6","ios":"levelo://app?vid=717e6596-52fd-4175-ba4a-2552ab0977d6"},"vehicle_type_id":"4","last_reported":1704315984,"current_range_meters":17600,"station_id":"ce4bgh92rcd13ifvqb40","pricing_plan_id":"free"},{"bike_id":"2348fb1f-80fe-4bfe-ae46-2b6fd3f5fd7c","system_id":"levelo_inurba_marseille","lat":43.305994,"lon":5.393687,"is_reserved":false,"is_disabled":false,"rental_uris":{"android":"levelo://app?vid=2348fb1f-80fe-4bfe-ae46-2b6fd3f5fd7c","ios":"levelo://app?vid=2348fb1f-80fe-4bfe-ae46-2b6fd3f5fd7c"},"vehicle_type_id":"4","last_reported":1704315984,"current_range_meters":19600,"station_id":"ce4bh0p2rcd13ifvqd80","pricing_plan_id":"free"},{"bike_id":"841d87f1-853c-4cc4-a6ab-5ce12ca07038","system_id":"levelo_inurba_marseille","lat":43.301793,"lon":5.390903,"is_reserved":false,"is_disabled":false,"rental_uris":{"android":"levelo://app?vid=841d87f1-853c-4cc4-a6ab-5ce12ca07038","ios":"levelo://app?vid=841d87f1-853c-4cc4-a6ab-5ce12ca07038"},"vehicle_type_id":"4","last_reported":1704315984,"current_range_meters":20400,"station_id":"","pricing_plan_id":"free"},{"bike_id":"daf5f2d4-5b69-414a-8823-07d6055e9504","system_id":"levelo_inurba_marseille","lat":43.305994,"lon":5.393687,"is_reserved":false,"is_disabled":false,"rental_uris":{"android":"levelo://app?vid=daf5f2d4-5b69-414a-8823-07d6055e9504","ios":"levelo://app?vid=daf5f2d4-5b69-414a-8823-07d6055e9504"},"vehicle_type_id":"4","last_reported":1704315984,"current_range_meters":20800,"station_id":"ce4bh0p2rcd13ifvqd80","pricing_plan_id":"free"},{"bike_id":"604d52a4-7041-4d46-85c2-1560c1c5b423","system_id":"levelo_inurba_marseille","lat":43.2936,"lon":5.37835,"is_reserved":false,"is_disabled":false,"rental_uris":{"android":"levelo://app?vid=604d52a4-7041-4d46-85c2-1560c1c5b423","ios":"levelo://app?vid=604d52a4-7041-4d46-85c2-1560c1c5b423"},"vehicle_type_id":"4","last_reported":1704315984,"current_range_meters":26000,"station_id":"ce4bgjh2rcd13ifvqbf0","pricing_plan_id":"free"},{"bike_id":"07053a61-971a-4ec9-8643-7513c93a6b7f","system_id":"levelo_inurba_marseille","lat":43.2936,"lon":5.37835,"is_reserved":false,"is_disabled":false,"rental_uris":{"android":"levelo://app?vid=07053a61-971a-4ec9-8643-7513c93a6b7f","ios":"levelo://app?vid=07053a61-971a-4ec9-8643-7513c93a6b7f"},"vehicle_type_id":"4","last_reported":1704315984,"current_range_meters":16400,"station_id":"ce4bgjh2rcd13ifvqbf0","pricing_plan_id":"free"},{"bike_id":"36ddabe9-9c56-4b06-98bb-2dec7a55761a","system_id":"levelo_inurba_marseille","lat":43.293725,"lon":5.378615,"is_reserved":false,"is_disabled":false,"rental_uris":{"android":"levelo://app?vid=36ddabe9-9c56-4b06-98bb-2dec7a55761a","ios":"levelo://app?vid=36ddabe9-9c56-4b06-98bb-2dec7a55761a"},"vehicle_type_id":"4","last_reported":1704315984,"current_range_meters":0,"station_id":"ce4bgjh2rcd13ifvqbf0","pricing_plan_id":"free"},{"bike_id":"c60b64fb-6c48-462a-a040-31de6da1099b","system_id":"levelo_inurba_marseille","lat":43.302992,"lon":5.392136,"is_reserved":false,"is_disabled":false,"rental_uris":{"android":"levelo://app?vid=c60b64fb-6c48-462a-a040-31de6da1099b","ios":"levelo://app?vid=c60b64fb-6c48-462a-a040-31de6da1099b"},"vehicle_type_id":"4","last_reported":1704315984,"current_range_meters":11600,"station_id":"ce4bgkh2rcd13ifvqbk0","pricing_plan_id":"free"},{"bike_id":"e09ca7aa-d518-4ba0-9494-0e43ce4f87ac","system_id":"levelo_inurba_marseille","lat":43.292311,"lon":5.360731,"is_reserved":false,"is_disabled":false,"rental_uris":{"android":"levelo://app?vid=e09ca7aa-d518-4ba0-9494-0e43ce4f87ac","ios":"levelo://app?vid=e09ca7aa-d518-4ba0-9494-0e43ce4f87ac"},"vehicle_type_id":"4","last_reported":1704315984,"current_range_meters":10800,"station_id":"ce4bhbh2rcd13ifvqeqg","pricing_plan_id":"free"},{"bike_id":"b22604ec-0c4b-41b4-a20e-38add68f7682","system_id":"levelo_inurba_marseille","lat":43.33298,"lon":5.37454,"is_reserved":false,"is_disabled":false,"rental_uris":{"android":"levelo://app?vid=b22604ec-0c4b-41b4-a20e-38add68f7682","ios":"levelo://app?vid=b22604ec-0c4b-41b4-a20e-38add68f7682"},"vehicle_type_id":"4","last_reported":1704315984,"current_range_meters":28000,"station_id":"","pricing_plan_id":"free"},{"bike_id":"0335ee4d-b8d1-4700-8dff-e1974ac16b11","system_id":"levelo_inurba_marseille","lat":43.292687,"lon":5.37615,"is_reserved":false,"is_disabled":false,"rental_uris":{"android":"levelo://app?vid=0335ee4d-b8d1-4700-8dff-e1974ac16b11","ios":"levelo://app?vid=0335ee4d-b8d1-4700-8dff-e1974ac16b11"},"vehicle_type_id":"4","last_reported":1704315984,"current_range_meters":8000,"station_id":"","pricing_plan_id":"free"},{"bike_id":"bee0d25e-5928-4166-a427-6e32ca8691d8","system_id":"levelo_inurba_marseille","lat":43.29261,"lon":5.376206,"is_reserved":false,"is_disabled":false,"rental_uris":{"android":"levelo://app?vid=bee0d25e-5928-4166-a427-6e32ca8691d8","ios":"levelo://app?vid=bee0d25e-5928-4166-a427-6e32ca8691d8"},"vehicle_type_id":"4","last_reported":1704315984,"current_range_meters":14400,"station_id":"","pricing_plan_id":"free"},{"bike_id":"8f86e043-0dac-4467-b8ef-615961dba736","system_id":"levelo_inurba_marseille","lat":43.298697,"lon":5.389008,"is_reserved":false,"is_disabled":false,"rental_uris":{"android":"levelo://app?vid=8f86e043-0dac-4467-b8ef-615961dba736","ios":"levelo://app?vid=8f86e043-0dac-4467-b8ef-615961dba736"},"vehicle_type_id":"4","last_reported":1704315984,"current_range_meters":24400,"station_id":"","pricing_plan_id":"free"},{"bike_id":"8c75c840-5d05-4083-8415-273f5a4aeaf3","system_id":"levelo_inurba_marseille","lat":43.298685,"lon":5.389131,"is_reserved":false,"is_disabled":false,"rental_uris":{"android":"levelo://app?vid=8c75c840-5d05-4083-8415-273f5a4aeaf3","ios":"levelo://app?vid=8c75c840-5d05-4083-8415-273f5a4aeaf3"},"vehicle_type_id":"4","last_reported":1704315984,"current_range_meters":1600,"station_id":"","pricing_plan_id":"free"},{"bike_id":"4a9311c4-4db5-4367-b1f7-d435bd185033","system_id":"levelo_inurba_marseille","lat":43.331817,"lon":5.380753,"is_reserved":false,"is_disabled":false,"rental_uris":{"android":"levelo://app?vid=4a9311c4-4db5-4367-b1f7-d435bd185033","ios":"levelo://app?vid=4a9311c4-4db5-4367-b1f7-d435bd185033"},"vehicle_type_id":"4","last_reported":1704315984,"current_range_meters":9200,"station_id":"","pricing_plan_id":"free"},{"bike_id":"bc0ae4ea-7437-405f-be7b-07420699e803","system_id":"levelo_inurba_marseille","lat":43.309038,"lon":5.396546,"is_reserved":false,"is_disabled":false,"rental_uris":{"android":"levelo://app?vid=bc0ae4ea-7437-405f-be7b-07420699e803","ios":"levelo://app?vid=bc0ae4ea-7437-405f-be7b-07420699e803"},"vehicle_type_id":"4","last_reported":1704315984,"current_range_meters":15200,"station_id":"ce4bh012rcd13ifvqcv0","pricing_plan_id":"free"},{"bike_id":"4e6e447a-17f6-4981-ac18-91ec05c1f791","system_id":"levelo_inurba_marseille","lat":43.313291,"lon":5.396838,"is_reserved":false,"is_disabled":false,"rental_uris":{"android":"levelo://app?vid=4e6e447a-17f6-4981-ac18-91ec05c1f791","ios":"levelo://app?vid=4e6e447a-17f6-4981-ac18-91ec05c1f791"},"vehicle_type_id":"4","last_reported":1704315984,"current_range_meters":31200,"station_id":"ce4bgvp2rcd13ifvqcu0","pricing_plan_id":"free"},{"bike_id":"bbaa65b3-f133-4877-b49f-27299792c8f5","system_id":"levelo_inurba_marseille","lat":43.313291,"lon":5.396838,"is_reserved":false,"is_disabled":false,"rental_uris":{"android":"levelo://app?vid=bbaa65b3-f133-4877-b49f-27299792c8f5","ios":"levelo://app?vid=bbaa65b3-f133-4877-b49f-27299792c8f5"},"vehicle_type_id":"4","last_reported":1704315984,"current_range_meters":10800,"station_id":"ce4bgvp2rcd13ifvqcu0","pricing_plan_id":"free"},{"bike_id":"dfebc943-e094-4094-b5b8-1edfe748e45e","system_id":"levelo_inurba_marseille","lat":43.308807,"lon":5.396388,"is_reserved":false,"is_disabled":false,"rental_uris":{"android":"levelo://app?vid=dfebc943-e094-4094-b5b8-1edfe748e45e","ios":"levelo://app?vid=dfebc943-e094-4094-b5b8-1edfe748e45e"},"vehicle_type_id":"4","last_reported":1704315984,"current_range_meters":8800,"station_id":"ce4bh012rcd13ifvqcv0","pricing_plan_id":"free"},{"bike_id":"4618c8c4-91b4-4c5b-9667-4b1388c43278","system_id":"levelo_inurba_marseille","lat":43.313291,"lon":5.396838,"is_reserved":false,"is_disabled":false,"rental_uris":{"android":"levelo://app?vid=4618c8c4-91b4-4c5b-9667-4b1388c43278","ios":"levelo://app?vid=4618c8c4-91b4-4c5b-9667-4b1388c43278"},"vehicle_type_id":"4","last_reported":1704315984,"current_range_meters":18000,"station_id":"ce4bgvp2rcd13ifvqcu0","pricing_plan_id":"free"},{"bike_id":"4632b70d-b9bd-4373-84dd-9a7c8befe5cf","system_id":"levelo_inurba_marseille","lat":43.313291,"lon":5.396838,"is_reserved":false,"is_disabled":false,"rental_uris":{"android":"levelo://app?vid=4632b70d-b9bd-4373-84dd-9a7c8befe5cf","ios":"levelo://app?vid=4632b70d-b9bd-4373-84dd-9a7c8befe5cf"},"vehicle_type_id":"4","last_reported":1704315984,"current_range_meters":0,"station_id":"ce4bgvp2rcd13ifvqcu0","pricing_plan_id":"free"},{"bike_id":"8205d084-c47b-4fd2-ab65-c1ed9e2ca6ac","system_id":"levelo_inurba_marseille","lat":43.313291,"lon":5.396838,"is_reserved":false,"is_disabled":false,"rental_uris":{"android":"levelo://app?vid=8205d084-c47b-4fd2-ab65-c1ed9e2ca6ac","ios":"levelo://app?vid=8205d084-c47b-4fd2-ab65-c1ed9e2ca6ac"},"vehicle_type_id":"4","last_reported":1704315984,"current_range_meters":17600,"station_id":"ce4bgvp2rcd13ifvqcu0","pricing_plan_id":"free"},{"bike_id":"82d1f46b-b236-4828-a9e7-962a314b4a66","system_id":"levelo_inurba_marseille","lat":43.313291,"lon":5.396838,"is_reserved":false,"is_disabled":false,"rental_uris":{"android":"levelo://app?vid=82d1f46b-b236-4828-a9e7-962a314b4a66","ios":"levelo://app?vid=82d1f46b-b236-4828-a9e7-962a314b4a66"},"vehicle_type_id":"4","last_reported":1704315984,"current_range_meters":25600,"station_id":"ce4bgvp2rcd13ifvqcu0","pricing_plan_id":"free"},{"bike_id":"ac200040-1a82-4963-b4a5-725d0db99592","system_id":"levelo_inurba_marseille","lat":43.309038,"lon":5.396546,"is_reserved":false,"is_disabled":false,"rental_uris":{"android":"levelo://app?vid=ac200040-1a82-4963-b4a5-725d0db99592","ios":"levelo://app?vid=ac200040-1a82-4963-b4a5-725d0db99592"},"vehicle_type_id":"4","last_reported":1704315984,"current_range_meters":4800,"station_id":"ce4bh012rcd13ifvqcv0","pricing_plan_id":"free"},{"bike_id":"b9d5d6bb-b122-457b-bf67-61aeee7a48e7","system_id":"levelo_inurba_marseille","lat":43.313291,"lon":5.396838,"is_reserved":false,"is_disabled":false,"rental_uris":{"android":"levelo://app?vid=b9d5d6bb-b122-457b-bf67-61aeee7a48e7","ios":"levelo://app?vid=b9d5d6bb-b122-457b-bf67-61aeee7a48e7"},"vehicle_type_id":"4","last_reported":1704315984,"current_range_meters":2000,"station_id":"ce4bgvp2rcd13ifvqcu0","pricing_plan_id":"free"},{"bike_id":"52cb9422-bdda-444e-acf8-53ea52ac4c8d","system_id":"levelo_inurba_marseille","lat":43.309047,"lon":5.396551,"is_reserved":false,"is_disabled":false,"rental_uris":{"android":"levelo://app?vid=52cb9422-bdda-444e-acf8-53ea52ac4c8d","ios":"levelo://app?vid=52cb9422-bdda-444e-acf8-53ea52ac4c8d"},"vehicle_type_id":"4","last_reported":1704315984,"current_range_meters":24000,"station_id":"ce4bh012rcd13ifvqcv0","pricing_plan_id":"free"},{"bike_id":"daa50d62-dc2d-4c36-9b6c-5d18fcad323c","system_id":"levelo_inurba_marseille","lat":43.309038,"lon":5.396546,"is_reserved":false,"is_disabled":false,"rental_uris":{"android":"levelo://app?vid=daa50d62-dc2d-4c36-9b6c-5d18fcad323c","ios":"levelo://app?vid=daa50d62-dc2d-4c36-9b6c-5d18fcad323c"},"vehicle_type_id":"4","last_reported":1704315984,"current_range_meters":10000,"station_id":"ce4bh012rcd13ifvqcv0","pricing_plan_id":"free"},{"bike_id":"66972551-0bf5-4cd8-b102-ef9ac86488e4","system_id":"levelo_inurba_marseille","lat":43.309038,"lon":5.396546,"is_reserved":false,"is_disabled":false,"rental_uris":{"android":"levelo://app?vid=66972551-0bf5-4cd8-b102-ef9ac86488e4","ios":"levelo://app?vid=66972551-0bf5-4cd8-b102-ef9ac86488e4"},"vehicle_type_id":"4","last_reported":1704315984,"current_range_meters":0,"station_id":"ce4bh012rcd13ifvqcv0","pricing_plan_id":"free"},{"bike_id":"bcfa8101-8549-4290-95ee-c9ef9f526b61","system_id":"levelo_inurba_marseille","lat":43.309038,"lon":5.396546,"is_reserved":false,"is_disabled":false,"rental_uris":{"android":"levelo://app?vid=bcfa8101-8549-4290-95ee-c9ef9f526b61","ios":"levelo://app?vid=bcfa8101-8549-4290-95ee-c9ef9f526b61"},"vehicle_type_id":"4","last_reported":1704315984,"current_range_meters":12000,"station_id":"ce4bh012rcd13ifvqcv0","pricing_plan_id":"free"},{"bike_id":"db0b473c-b957-4b85-92d4-070515c92a07","system_id":"levelo_inurba_marseille","lat":43.309038,"lon":5.396546,"is_reserved":false,"is_disabled":false,"rental_uris":{"android":"levelo://app?vid=db0b473c-b957-4b85-92d4-070515c92a07","ios":"levelo://app?vid=db0b473c-b957-4b85-92d4-070515c92a07"},"vehicle_type_id":"4","last_reported":1704315984,"current_range_meters":30400,"station_id":"ce4bh012rcd13ifvqcv0","pricing_plan_id":"free"},{"bike_id":"31361286-2cac-4459-af7c-94abe9b7a69d","system_id":"levelo_inurba_marseille","lat":43.308817,"lon":5.396547,"is_reserved":false,"is_disabled":false,"rental_uris":{"android":"levelo://app?vid=31361286-2cac-4459-af7c-94abe9b7a69d","ios":"levelo://app?vid=31361286-2cac-4459-af7c-94abe9b7a69d"},"vehicle_type_id":"4","last_reported":1704315984,"current_range_meters":16000,"station_id":"ce4bh012rcd13ifvqcv0","pricing_plan_id":"free"},{"bike_id":"8d368af0-3de7-4857-9748-b51fbbf65cde","system_id":"levelo_inurba_marseille","lat":43.309038,"lon":5.396546,"is_reserved":false,"is_disabled":false,"rental_uris":{"android":"levelo://app?vid=8d368af0-3de7-4857-9748-b51fbbf65cde","ios":"levelo://app?vid=8d368af0-3de7-4857-9748-b51fbbf65cde"},"vehicle_type_id":"4","last_reported":1704315984,"current_range_meters":2400,"station_id":"ce4bh012rcd13ifvqcv0","pricing_plan_id":"free"},{"bike_id":"3251534c-4d97-4882-a18c-778eb446edce","system_id":"levelo_inurba_marseille","lat":43.29529,"lon":5.385581,"is_reserved":false,"is_disabled":false,"rental_uris":{"android":"levelo://app?vid=3251534c-4d97-4882-a18c-778eb446edce","ios":"levelo://app?vid=3251534c-4d97-4882-a18c-778eb446edce"},"vehicle_type_id":"4","last_reported":1704315984,"current_range_meters":12800,"station_id":"ce4bgih2rcd13ifvqba0","pricing_plan_id":"free"},{"bike_id":"4de079e4-a6a3-49f0-a85e-a50e4c3897d6","system_id":"levelo_inurba_marseille","lat":43.29533,"lon":5.3854,"is_reserved":false,"is_disabled":false,"rental_uris":{"android":"levelo://app?vid=4de079e4-a6a3-49f0-a85e-a50e4c3897d6","ios":"levelo://app?vid=4de079e4-a6a3-49f0-a85e-a50e4c3897d6"},"vehicle_type_id":"4","last_reported":1704315984,"current_range_meters":15200,"station_id":"ce4bgih2rcd13ifvqba0","pricing_plan_id":"free"},{"bike_id":"491973d2-da1f-415c-8a05-4967bf141b64","system_id":"levelo_inurba_marseille","lat":43.290345,"lon":5.38646,"is_reserved":false,"is_disabled":false,"rental_uris":{"android":"levelo://app?vid=491973d2-da1f-415c-8a05-4967bf141b64","ios":"levelo://app?vid=491973d2-da1f-415c-8a05-4967bf141b64"},"vehicle_type_id":"4","last_reported":1704315984,"current_range_meters":5200,"station_id":"ce4bh4p2rcd13ifvqe0g","pricing_plan_id":"free"},{"bike_id":"74cf236d-e709-4c5f-ba3a-b1bdf3013c8f","system_id":"levelo_inurba_marseille","lat":43.290779,"lon":5.371482,"is_reserved":false,"is_disabled":false,"rental_uris":{"android":"levelo://app?vid=74cf236d-e709-4c5f-ba3a-b1bdf3013c8f","ios":"levelo://app?vid=74cf236d-e709-4c5f-ba3a-b1bdf3013c8f"},"vehicle_type_id":"4","last_reported":1704315984,"current_range_meters":7200,"station_id":"ce4bh5p2rcd13ifvqe4g","pricing_plan_id":"free"},{"bike_id":"fd72e394-d9a3-4447-97d1-0c6f10a41ec4","system_id":"levelo_inurba_marseille","lat":43.290624,"lon":5.359245,"is_reserved":false,"is_disabled":false,"rental_uris":{"android":"levelo://app?vid=fd72e394-d9a3-4447-97d1-0c6f10a41ec4","ios":"levelo://app?vid=fd72e394-d9a3-4447-97d1-0c6f10a41ec4"},"vehicle_type_id":"4","last_reported":1704315984,"current_range_meters":23600,"station_id":"ce4bha92rcd13ifvqeg0","pricing_plan_id":"free"},{"bike_id":"84974226-3a8c-4489-880b-71ec3d3f8289","system_id":"levelo_inurba_marseille","lat":43.294162,"lon":5.386292,"is_reserved":false,"is_disabled":false,"rental_uris":{"android":"levelo://app?vid=84974226-3a8c-4489-880b-71ec3d3f8289","ios":"levelo://app?vid=84974226-3a8c-4489-880b-71ec3d3f8289"},"vehicle_type_id":"4","last_reported":1704315984,"current_range_meters":13200,"station_id":"ce4bh2h2rcd13ifvqdh0","pricing_plan_id":"free"},{"bike_id":"dc00d68b-30af-4314-8354-50c68ce0fe32","system_id":"levelo_inurba_marseille","lat":43.290327,"lon":5.375711,"is_reserved":false,"is_disabled":false,"rental_uris":{"android":"levelo://app?vid=dc00d68b-30af-4314-8354-50c68ce0fe32","ios":"levelo://app?vid=dc00d68b-30af-4314-8354-50c68ce0fe32"},"vehicle_type_id":"4","last_reported":1704315984,"current_range_meters":1200,"station_id":"ce4bh692rcd13ifvqe90","pricing_plan_id":"free"},{"bike_id":"2745ba7b-a58a-44df-bf45-d71d1a6ae336","system_id":"levelo_inurba_marseille","lat":43.289184,"lon":5.366408,"is_reserved":false,"is_disabled":false,"rental_uris":{"android":"levelo://app?vid=2745ba7b-a58a-44df-bf45-d71d1a6ae336","ios":"levelo://app?vid=2745ba7b-a58a-44df-bf45-d71d1a6ae336"},"vehicle_type_id":"4","last_reported":1704315984,"current_range_meters":17600,"station_id":"ce4bhap2rcd13ifvqek0","pricing_plan_id":"free"},{"bike_id":"d6c4e73a-d563-4894-b881-3bf4e24bd3aa","system_id":"levelo_inurba_marseille","lat":43.289184,"lon":5.366408,"is_reserved":false,"is_disabled":false,"rental_uris":{"android":"levelo://app?vid=d6c4e73a-d563-4894-b881-3bf4e24bd3aa","ios":"levelo://app?vid=d6c4e73a-d563-4894-b881-3bf4e24bd3aa"},"vehicle_type_id":"4","last_reported":1704315984,"current_range_meters":29200,"station_id":"ce4bhap2rcd13ifvqek0","pricing_plan_id":"free"},{"bike_id":"0c437dcb-5577-4cd3-8d8c-ab3cd599e1f1","system_id":"levelo_inurba_marseille","lat":43.292557,"lon":5.383193,"is_reserved":false,"is_disabled":false,"rental_uris":{"android":"levelo://app?vid=0c437dcb-5577-4cd3-8d8c-ab3cd599e1f1","ios":"levelo://app?vid=0c437dcb-5577-4cd3-8d8c-ab3cd599e1f1"},"vehicle_type_id":"4","last_reported":1704315984,"current_range_meters":20800,"station_id":"","pricing_plan_id":"free"},{"bike_id":"0ea49646-92d6-4779-9f22-8798c9a8a6b2","system_id":"levelo_inurba_marseille","lat":43.292644,"lon":5.384257,"is_reserved":false,"is_disabled":false,"rental_uris":{"android":"levelo://app?vid=0ea49646-92d6-4779-9f22-8798c9a8a6b2","ios":"levelo://app?vid=0ea49646-92d6-4779-9f22-8798c9a8a6b2"},"vehicle_type_id":"4","last_reported":1704315984,"current_range_meters":7200,"station_id":"ce4bh692rcd13ifvqea0","pricing_plan_id":"free"},{"bike_id":"f3343b7a-7227-4208-807c-b346423a1bc2","system_id":"levelo_inurba_marseille","lat":43.30437,"lon":5.39745,"is_reserved":false,"is_disabled":false,"rental_uris":{"android":"levelo://app?vid=f3343b7a-7227-4208-807c-b346423a1bc2","ios":"levelo://app?vid=f3343b7a-7227-4208-807c-b346423a1bc2"},"vehicle_type_id":"4","last_reported":1704315984,"current_range_meters":1200,"station_id":"ce4bh092rcd13ifvqd20","pricing_plan_id":"free"},{"bike_id":"d5c2f4f0-7751-4205-bb06-d94a714857e6","system_id":"levelo_inurba_marseille","lat":43.292644,"lon":5.384257,"is_reserved":false,"is_disabled":false,"rental_uris":{"android":"levelo://app?vid=d5c2f4f0-7751-4205-bb06-d94a714857e6","ios":"levelo://app?vid=d5c2f4f0-7751-4205-bb06-d94a714857e6"},"vehicle_type_id":"4","last_reported":1704315984,"current_range_meters":22800,"station_id":"ce4bh692rcd13ifvqea0","pricing_plan_id":"free"},{"bike_id":"3214b76d-0390-44a9-8091-e02429372c31","system_id":"levelo_inurba_marseille","lat":43.292681,"lon":5.384464,"is_reserved":false,"is_disabled":false,"rental_uris":{"android":"levelo://app?vid=3214b76d-0390-44a9-8091-e02429372c31","ios":"levelo://app?vid=3214b76d-0390-44a9-8091-e02429372c31"},"vehicle_type_id":"4","last_reported":1704315984,"current_range_meters":0,"station_id":"ce4bh692rcd13ifvqea0","pricing_plan_id":"free"},{"bike_id":"fc23db72-eb47-422d-a20a-1d11e377f70f","system_id":"levelo_inurba_marseille","lat":43.304296,"lon":5.397513,"is_reserved":false,"is_disabled":false,"rental_uris":{"android":"levelo://app?vid=fc23db72-eb47-422d-a20a-1d11e377f70f","ios":"levelo://app?vid=fc23db72-eb47-422d-a20a-1d11e377f70f"},"vehicle_type_id":"4","last_reported":1704315984,"current_range_meters":13600,"station_id":"ce4bh092rcd13ifvqd20","pricing_plan_id":"free"},{"bike_id":"7656d3c1-fcc3-4d24-833d-2dd2b1331d22","system_id":"levelo_inurba_marseille","lat":43.292724,"lon":5.401131,"is_reserved":false,"is_disabled":false,"rental_uris":{"android":"levelo://app?vid=7656d3c1-fcc3-4d24-833d-2dd2b1331d22","ios":"levelo://app?vid=7656d3c1-fcc3-4d24-833d-2dd2b1331d22"},"vehicle_type_id":"4","last_reported":1704315984,"current_range_meters":25600,"station_id":"ce4bh312rcd13ifvqdk0","pricing_plan_id":"free"},{"bike_id":"c0f78171-2e0a-4e1c-bdc6-54db651d0e22","system_id":"levelo_inurba_marseille","lat":43.290103,"lon":5.356114,"is_reserved":false,"is_disabled":false,"rental_uris":{"android":"levelo://app?vid=c0f78171-2e0a-4e1c-bdc6-54db651d0e22","ios":"levelo://app?vid=c0f78171-2e0a-4e1c-bdc6-54db651d0e22"},"vehicle_type_id":"4","last_reported":1704315984,"current_range_meters":26000,"station_id":"ce4bhb92rcd13ifvqen0","pricing_plan_id":"free"},{"bike_id":"aba8ad64-7f46-4b15-bbe5-432a1730db4d","system_id":"levelo_inurba_marseille","lat":43.304697,"lon":5.39805,"is_reserved":false,"is_disabled":false,"rental_uris":{"android":"levelo://app?vid=aba8ad64-7f46-4b15-bbe5-432a1730db4d","ios":"levelo://app?vid=aba8ad64-7f46-4b15-bbe5-432a1730db4d"},"vehicle_type_id":"4","last_reported":1704315984,"current_range_meters":29600,"station_id":"","pricing_plan_id":"free"},{"bike_id":"4bb06369-461a-4bbf-a66a-8c371d92863c","system_id":"levelo_inurba_marseille","lat":43.297882,"lon":5.39339,"is_reserved":false,"is_disabled":false,"rental_uris":{"android":"levelo://app?vid=4bb06369-461a-4bbf-a66a-8c371d92863c","ios":"levelo://app?vid=4bb06369-461a-4bbf-a66a-8c371d92863c"},"vehicle_type_id":"4","last_reported":1704315984,"current_range_meters":29200,"station_id":"chh1huq6cuj3fo74tm60","pricing_plan_id":"free"},{"bike_id":"437fda1a-75a8-4281-8e17-87c545b925fe","system_id":"levelo_inurba_marseille","lat":43.297915,"lon":5.393515,"is_reserved":false,"is_disabled":false,"rental_uris":{"android":"levelo://app?vid=437fda1a-75a8-4281-8e17-87c545b925fe","ios":"levelo://app?vid=437fda1a-75a8-4281-8e17-87c545b925fe"},"vehicle_type_id":"4","last_reported":1704315984,"current_range_meters":10000,"station_id":"chh1huq6cuj3fo74tm60","pricing_plan_id":"free"},{"bike_id":"7a95e6bc-35c5-447e-af6d-12db5479cb7d","system_id":"levelo_inurba_marseille","lat":43.297815,"lon":5.393548,"is_reserved":false,"is_disabled":false,"rental_uris":{"android":"levelo://app?vid=7a95e6bc-35c5-447e-af6d-12db5479cb7d","ios":"levelo://app?vid=7a95e6bc-35c5-447e-af6d-12db5479cb7d"},"vehicle_type_id":"4","last_reported":1704315984,"current_range_meters":17600,"station_id":"chh1huq6cuj3fo74tm60","pricing_plan_id":"free"},{"bike_id":"b9f1870d-91b7-4991-8da2-fb88515c5d8e","system_id":"levelo_inurba_marseille","lat":43.330442,"lon":5.389148,"is_reserved":false,"is_disabled":false,"rental_uris":{"android":"levelo://app?vid=b9f1870d-91b7-4991-8da2-fb88515c5d8e","ios":"levelo://app?vid=b9f1870d-91b7-4991-8da2-fb88515c5d8e"},"vehicle_type_id":"4","last_reported":1704315984,"current_range_meters":17600,"station_id":"ce4bhr92rcd13ifvqhrg","pricing_plan_id":"free"},{"bike_id":"b4dc5f58-d698-47e4-9d04-a65a1aac924a","system_id":"levelo_inurba_marseille","lat":43.330442,"lon":5.389148,"is_reserved":false,"is_disabled":false,"rental_uris":{"android":"levelo://app?vid=b4dc5f58-d698-47e4-9d04-a65a1aac924a","ios":"levelo://app?vid=b4dc5f58-d698-47e4-9d04-a65a1aac924a"},"vehicle_type_id":"4","last_reported":1704315984,"current_range_meters":12000,"station_id":"ce4bhr92rcd13ifvqhrg","pricing_plan_id":"free"},{"bike_id":"3537c72e-affb-4603-a0d4-44c57db301e5","system_id":"levelo_inurba_marseille","lat":43.330442,"lon":5.389148,"is_reserved":false,"is_disabled":false,"rental_uris":{"android":"levelo://app?vid=3537c72e-affb-4603-a0d4-44c57db301e5","ios":"levelo://app?vid=3537c72e-affb-4603-a0d4-44c57db301e5"},"vehicle_type_id":"4","last_reported":1704315984,"current_range_meters":8800,"station_id":"ce4bhr92rcd13ifvqhrg","pricing_plan_id":"free"},{"bike_id":"d9852308-447b-4d56-ba4c-f18536f77895","system_id":"levelo_inurba_marseille","lat":43.295169,"lon":5.390426,"is_reserved":false,"is_disabled":false,"rental_uris":{"android":"levelo://app?vid=d9852308-447b-4d56-ba4c-f18536f77895","ios":"levelo://app?vid=d9852308-447b-4d56-ba4c-f18536f77895"},"vehicle_type_id":"4","last_reported":1704315984,"current_range_meters":29200,"station_id":"ce4bh3p2rcd13ifvqdp0","pricing_plan_id":"free"},{"bike_id":"a4544299-4117-4ba4-98ad-2dcd1cebe1e8","system_id":"levelo_inurba_marseille","lat":43.330442,"lon":5.389148,"is_reserved":false,"is_disabled":false,"rental_uris":{"android":"levelo://app?vid=a4544299-4117-4ba4-98ad-2dcd1cebe1e8","ios":"levelo://app?vid=a4544299-4117-4ba4-98ad-2dcd1cebe1e8"},"vehicle_type_id":"4","last_reported":1704315984,"current_range_meters":23200,"station_id":"ce4bhr92rcd13ifvqhrg","pricing_plan_id":"free"},{"bike_id":"a45508dc-3e20-4dc2-a3f2-c48092cac22d","system_id":"levelo_inurba_marseille","lat":43.330442,"lon":5.389148,"is_reserved":false,"is_disabled":false,"rental_uris":{"android":"levelo://app?vid=a45508dc-3e20-4dc2-a3f2-c48092cac22d","ios":"levelo://app?vid=a45508dc-3e20-4dc2-a3f2-c48092cac22d"},"vehicle_type_id":"4","last_reported":1704315984,"current_range_meters":6000,"station_id":"ce4bhr92rcd13ifvqhrg","pricing_plan_id":"free"},{"bike_id":"ef1a1296-12f7-41f5-88f9-02cc8c1cd5e8","system_id":"levelo_inurba_marseille","lat":43.2952,"lon":5.39043,"is_reserved":false,"is_disabled":false,"rental_uris":{"android":"levelo://app?vid=ef1a1296-12f7-41f5-88f9-02cc8c1cd5e8","ios":"levelo://app?vid=ef1a1296-12f7-41f5-88f9-02cc8c1cd5e8"},"vehicle_type_id":"4","last_reported":1704315984,"current_range_meters":1200,"station_id":"ce4bh3p2rcd13ifvqdp0","pricing_plan_id":"free"},{"bike_id":"1e16a714-6cd7-4cab-a8bf-3d460d19a2a2","system_id":"levelo_inurba_marseille","lat":43.28856,"lon":5.358371,"is_reserved":false,"is_disabled":false,"rental_uris":{"android":"levelo://app?vid=1e16a714-6cd7-4cab-a8bf-3d460d19a2a2","ios":"levelo://app?vid=1e16a714-6cd7-4cab-a8bf-3d460d19a2a2"},"vehicle_type_id":"4","last_reported":1704315984,"current_range_meters":8400,"station_id":"ce4bhb12rcd13ifvqem0","pricing_plan_id":"free"},{"bike_id":"08968a33-7295-4ecc-a651-1914cee3d3bd","system_id":"levelo_inurba_marseille","lat":43.28856,"lon":5.358371,"is_reserved":false,"is_disabled":false,"rental_uris":{"android":"levelo://app?vid=08968a33-7295-4ecc-a651-1914cee3d3bd","ios":"levelo://app?vid=08968a33-7295-4ecc-a651-1914cee3d3bd"},"vehicle_type_id":"4","last_reported":1704315984,"current_range_meters":11200,"station_id":"ce4bhb12rcd13ifvqem0","pricing_plan_id":"free"},{"bike_id":"3e2f2edd-b93e-4bf2-be71-a5f91a327f6f","system_id":"levelo_inurba_marseille","lat":43.288511,"lon":5.358496,"is_reserved":false,"is_disabled":false,"rental_uris":{"android":"levelo://app?vid=3e2f2edd-b93e-4bf2-be71-a5f91a327f6f","ios":"levelo://app?vid=3e2f2edd-b93e-4bf2-be71-a5f91a327f6f"},"vehicle_type_id":"4","last_reported":1704315984,"current_range_meters":26000,"station_id":"ce4bhb12rcd13ifvqem0","pricing_plan_id":"free"},{"bike_id":"bf8cbc99-1c75-4030-9950-2229ecf52928","system_id":"levelo_inurba_marseille","lat":43.28843,"lon":5.358577,"is_reserved":false,"is_disabled":false,"rental_uris":{"android":"levelo://app?vid=bf8cbc99-1c75-4030-9950-2229ecf52928","ios":"levelo://app?vid=bf8cbc99-1c75-4030-9950-2229ecf52928"},"vehicle_type_id":"4","last_reported":1704315984,"current_range_meters":21600,"station_id":"ce4bhb12rcd13ifvqem0","pricing_plan_id":"free"},{"bike_id":"2c0d1c7a-52d6-45c8-b950-66774576aada","system_id":"levelo_inurba_marseille","lat":43.33742,"lon":5.37445,"is_reserved":false,"is_disabled":false,"rental_uris":{"android":"levelo://app?vid=2c0d1c7a-52d6-45c8-b950-66774576aada","ios":"levelo://app?vid=2c0d1c7a-52d6-45c8-b950-66774576aada"},"vehicle_type_id":"4","last_reported":1704315984,"current_range_meters":26400,"station_id":"","pricing_plan_id":"free"},{"bike_id":"c473dc02-8994-4174-a9e4-3a30dad995ff","system_id":"levelo_inurba_marseille","lat":43.33747,"lon":5.374449,"is_reserved":false,"is_disabled":false,"rental_uris":{"android":"levelo://app?vid=c473dc02-8994-4174-a9e4-3a30dad995ff","ios":"levelo://app?vid=c473dc02-8994-4174-a9e4-3a30dad995ff"},"vehicle_type_id":"4","last_reported":1704315984,"current_range_meters":28800,"station_id":"","pricing_plan_id":"free"},{"bike_id":"56eea705-8312-497c-a7a5-2d086e47098a","system_id":"levelo_inurba_marseille","lat":43.3127,"lon":5.40176,"is_reserved":false,"is_disabled":false,"rental_uris":{"android":"levelo://app?vid=56eea705-8312-497c-a7a5-2d086e47098a","ios":"levelo://app?vid=56eea705-8312-497c-a7a5-2d086e47098a"},"vehicle_type_id":"4","last_reported":1704315984,"current_range_meters":20400,"station_id":"ce4bh092rcd13ifvqd30","pricing_plan_id":"free"},{"bike_id":"b0952245-9fb6-48db-ada0-ffa31ed5e542","system_id":"levelo_inurba_marseille","lat":43.30927,"lon":5.40148,"is_reserved":false,"is_disabled":false,"rental_uris":{"android":"levelo://app?vid=b0952245-9fb6-48db-ada0-ffa31ed5e542","ios":"levelo://app?vid=b0952245-9fb6-48db-ada0-ffa31ed5e542"},"vehicle_type_id":"4","last_reported":1704315984,"current_range_meters":0,"station_id":"ce4bgvp2rcd13ifvqct0","pricing_plan_id":"free"},{"bike_id":"839a0cc1-c8fe-43f9-8de5-b9fb9233836f","system_id":"levelo_inurba_marseille","lat":43.301117,"lon":5.398795,"is_reserved":false,"is_disabled":false,"rental_uris":{"android":"levelo://app?vid=839a0cc1-c8fe-43f9-8de5-b9fb9233836f","ios":"levelo://app?vid=839a0cc1-c8fe-43f9-8de5-b9fb9233836f"},"vehicle_type_id":"4","last_reported":1704315984,"current_range_meters":22000,"station_id":"ce4bh0h2rcd13ifvqd40","pricing_plan_id":"free"},{"bike_id":"e0179918-445e-4cbe-b3fa-576a3d6075b5","system_id":"levelo_inurba_marseille","lat":43.33786,"lon":5.37471,"is_reserved":false,"is_disabled":false,"rental_uris":{"android":"levelo://app?vid=e0179918-445e-4cbe-b3fa-576a3d6075b5","ios":"levelo://app?vid=e0179918-445e-4cbe-b3fa-576a3d6075b5"},"vehicle_type_id":"4","last_reported":1704315984,"current_range_meters":30000,"station_id":"","pricing_plan_id":"free"},{"bike_id":"e1ac0197-6dd4-4076-855c-c73057a2eb75","system_id":"levelo_inurba_marseille","lat":43.28727,"lon":5.36078,"is_reserved":false,"is_disabled":false,"rental_uris":{"android":"levelo://app?vid=e1ac0197-6dd4-4076-855c-c73057a2eb75","ios":"levelo://app?vid=e1ac0197-6dd4-4076-855c-c73057a2eb75"},"vehicle_type_id":"4","last_reported":1704315984,"current_range_meters":24800,"station_id":"cki0cbj6b192h4jlfktg","pricing_plan_id":"free"},{"bike_id":"f963ecae-ccdf-4b8b-8e48-49346eba778a","system_id":"levelo_inurba_marseille","lat":43.28727,"lon":5.36078,"is_reserved":false,"is_disabled":false,"rental_uris":{"android":"levelo://app?vid=f963ecae-ccdf-4b8b-8e48-49346eba778a","ios":"levelo://app?vid=f963ecae-ccdf-4b8b-8e48-49346eba778a"},"vehicle_type_id":"4","last_reported":1704315984,"current_range_meters":25200,"station_id":"cki0cbj6b192h4jlfktg","pricing_plan_id":"free"},{"bike_id":"19584b2f-52e0-4d42-80d0-3b5158899548","system_id":"levelo_inurba_marseille","lat":43.301117,"lon":5.398795,"is_reserved":false,"is_disabled":false,"rental_uris":{"android":"levelo://app?vid=19584b2f-52e0-4d42-80d0-3b5158899548","ios":"levelo://app?vid=19584b2f-52e0-4d42-80d0-3b5158899548"},"vehicle_type_id":"4","last_reported":1704315984,"current_range_meters":0,"station_id":"ce4bh0h2rcd13ifvqd40","pricing_plan_id":"free"},{"bike_id":"1fae5872-4781-4be3-a7e3-08510609eb2a","system_id":"levelo_inurba_marseille","lat":43.28727,"lon":5.36078,"is_reserved":false,"is_disabled":false,"rental_uris":{"android":"levelo://app?vid=1fae5872-4781-4be3-a7e3-08510609eb2a","ios":"levelo://app?vid=1fae5872-4781-4be3-a7e3-08510609eb2a"},"vehicle_type_id":"4","last_reported":1704315984,"current_range_meters":27200,"station_id":"cki0cbj6b192h4jlfktg","pricing_plan_id":"free"},{"bike_id":"e6045213-bb5d-4215-9a7d-9871f4e4ba3a","system_id":"levelo_inurba_marseille","lat":43.286961,"lon":5.373785,"is_reserved":false,"is_disabled":false,"rental_uris":{"android":"levelo://app?vid=e6045213-bb5d-4215-9a7d-9871f4e4ba3a","ios":"levelo://app?vid=e6045213-bb5d-4215-9a7d-9871f4e4ba3a"},"vehicle_type_id":"4","last_reported":1704315984,"current_range_meters":19600,"station_id":"ce4bh3p2rcd13ifvqdq0","pricing_plan_id":"free"},{"bike_id":"1f0dcbee-eb1b-4e7d-9660-30633d5155a8","system_id":"levelo_inurba_marseille","lat":43.295194,"lon":5.39397,"is_reserved":false,"is_disabled":false,"rental_uris":{"android":"levelo://app?vid=1f0dcbee-eb1b-4e7d-9660-30633d5155a8","ios":"levelo://app?vid=1f0dcbee-eb1b-4e7d-9660-30633d5155a8"},"vehicle_type_id":"4","last_reported":1704315984,"current_range_meters":0,"station_id":"ce4bh292rcd13ifvqdf0","pricing_plan_id":"free"},{"bike_id":"07bca4de-1acd-41fb-a3fc-74f3e424e6a0","system_id":"levelo_inurba_marseille","lat":43.290345,"lon":5.38646,"is_reserved":false,"is_disabled":false,"rental_uris":{"android":"levelo://app?vid=07bca4de-1acd-41fb-a3fc-74f3e424e6a0","ios":"levelo://app?vid=07bca4de-1acd-41fb-a3fc-74f3e424e6a0"},"vehicle_type_id":"4","last_reported":1704315984,"current_range_meters":12400,"station_id":"ce4bh4p2rcd13ifvqe0g","pricing_plan_id":"free"},{"bike_id":"41f160ee-9d8e-4960-8721-b5dc7ef09b3a","system_id":"levelo_inurba_marseille","lat":43.289307,"lon":5.38406,"is_reserved":false,"is_disabled":false,"rental_uris":{"android":"levelo://app?vid=41f160ee-9d8e-4960-8721-b5dc7ef09b3a","ios":"levelo://app?vid=41f160ee-9d8e-4960-8721-b5dc7ef09b3a"},"vehicle_type_id":"4","last_reported":1704315984,"current_range_meters":30000,"station_id":"ce4bh612rcd13ifvqe6g","pricing_plan_id":"free"},{"bike_id":"3cea8ed4-271c-480d-9e96-9ffb4427ff3a","system_id":"levelo_inurba_marseille","lat":43.290345,"lon":5.38646,"is_reserved":false,"is_disabled":false,"rental_uris":{"android":"levelo://app?vid=3cea8ed4-271c-480d-9e96-9ffb4427ff3a","ios":"levelo://app?vid=3cea8ed4-271c-480d-9e96-9ffb4427ff3a"},"vehicle_type_id":"4","last_reported":1704315984,"current_range_meters":21600,"station_id":"ce4bh4p2rcd13ifvqe0g","pricing_plan_id":"free"},{"bike_id":"d9b38e0d-2caa-46a3-9c01-8676640e9f06","system_id":"levelo_inurba_marseille","lat":43.286039,"lon":5.370679,"is_reserved":false,"is_disabled":false,"rental_uris":{"android":"levelo://app?vid=d9b38e0d-2caa-46a3-9c01-8676640e9f06","ios":"levelo://app?vid=d9b38e0d-2caa-46a3-9c01-8676640e9f06"},"vehicle_type_id":"4","last_reported":1704315984,"current_range_meters":27600,"station_id":"ce4bht12rcd13ifvqi60","pricing_plan_id":"free"},{"bike_id":"aa5bb3f1-bcce-4e74-9c9e-464524cf44e0","system_id":"levelo_inurba_marseille","lat":43.286039,"lon":5.370679,"is_reserved":false,"is_disabled":false,"rental_uris":{"android":"levelo://app?vid=aa5bb3f1-bcce-4e74-9c9e-464524cf44e0","ios":"levelo://app?vid=aa5bb3f1-bcce-4e74-9c9e-464524cf44e0"},"vehicle_type_id":"4","last_reported":1704315984,"current_range_meters":30000,"station_id":"ce4bht12rcd13ifvqi60","pricing_plan_id":"free"},{"bike_id":"b38d273d-471b-40a9-bbb8-6bec5eb8d6a6","system_id":"levelo_inurba_marseille","lat":43.283998,"lon":5.375062,"is_reserved":false,"is_disabled":false,"rental_uris":{"android":"levelo://app?vid=b38d273d-471b-40a9-bbb8-6bec5eb8d6a6","ios":"levelo://app?vid=b38d273d-471b-40a9-bbb8-6bec5eb8d6a6"},"vehicle_type_id":"4","last_reported":1704315984,"current_range_meters":8800,"station_id":"ce4bh412rcd13ifvqds0","pricing_plan_id":"free"},{"bike_id":"ec3deb0e-2b5b-453a-98c3-ba7c49f2b9ba","system_id":"levelo_inurba_marseille","lat":43.316828,"lon":5.404723,"is_reserved":false,"is_disabled":false,"rental_uris":{"android":"levelo://app?vid=ec3deb0e-2b5b-453a-98c3-ba7c49f2b9ba","ios":"levelo://app?vid=ec3deb0e-2b5b-453a-98c3-ba7c49f2b9ba"},"vehicle_type_id":"4","last_reported":1704315984,"current_range_meters":12000,"station_id":"ce4bh012rcd13ifvqd00","pricing_plan_id":"free"},{"bike_id":"4fbd45c9-7045-4421-a97b-bf0c706479e3","system_id":"levelo_inurba_marseille","lat":43.291994,"lon":5.392907,"is_reserved":false,"is_disabled":false,"rental_uris":{"android":"levelo://app?vid=4fbd45c9-7045-4421-a97b-bf0c706479e3","ios":"levelo://app?vid=4fbd45c9-7045-4421-a97b-bf0c706479e3"},"vehicle_type_id":"4","last_reported":1704315984,"current_range_meters":20800,"station_id":"ce4bh192rcd13ifvqdd0","pricing_plan_id":"free"},{"bike_id":"88afa295-32a3-4b25-89ad-670682989bfd","system_id":"levelo_inurba_marseille","lat":43.284538,"lon":5.358657,"is_reserved":false,"is_disabled":false,"rental_uris":{"android":"levelo://app?vid=88afa295-32a3-4b25-89ad-670682989bfd","ios":"levelo://app?vid=88afa295-32a3-4b25-89ad-670682989bfd"},"vehicle_type_id":"4","last_reported":1704315984,"current_range_meters":28400,"station_id":"ce4bhah2rcd13ifvqei0","pricing_plan_id":"free"},{"bike_id":"882bd401-922a-4184-a88e-edbe8ae0adc3","system_id":"levelo_inurba_marseille","lat":43.284534,"lon":5.358662,"is_reserved":false,"is_disabled":false,"rental_uris":{"android":"levelo://app?vid=882bd401-922a-4184-a88e-edbe8ae0adc3","ios":"levelo://app?vid=882bd401-922a-4184-a88e-edbe8ae0adc3"},"vehicle_type_id":"4","last_reported":1704315984,"current_range_meters":6800,"station_id":"ce4bhah2rcd13ifvqei0","pricing_plan_id":"free"},{"bike_id":"87683641-7624-4067-a8f5-5417c315ce19","system_id":"levelo_inurba_marseille","lat":43.28618,"lon":5.351,"is_reserved":false,"is_disabled":false,"rental_uris":{"android":"levelo://app?vid=87683641-7624-4067-a8f5-5417c315ce19","ios":"levelo://app?vid=87683641-7624-4067-a8f5-5417c315ce19"},"vehicle_type_id":"4","last_reported":1704315984,"current_range_meters":14400,"station_id":"ce4bhch2rcd13ifvqeug","pricing_plan_id":"free"},{"bike_id":"6c8119c2-1ef3-4b9b-b519-f9b051faeebf","system_id":"levelo_inurba_marseille","lat":43.284538,"lon":5.358657,"is_reserved":false,"is_disabled":false,"rental_uris":{"android":"levelo://app?vid=6c8119c2-1ef3-4b9b-b519-f9b051faeebf","ios":"levelo://app?vid=6c8119c2-1ef3-4b9b-b519-f9b051faeebf"},"vehicle_type_id":"4","last_reported":1704315984,"current_range_meters":9600,"station_id":"ce4bhah2rcd13ifvqei0","pricing_plan_id":"free"},{"bike_id":"cd50297d-45fb-4eed-acac-5bbb06c99f86","system_id":"levelo_inurba_marseille","lat":43.28614,"lon":5.351,"is_reserved":false,"is_disabled":false,"rental_uris":{"android":"levelo://app?vid=cd50297d-45fb-4eed-acac-5bbb06c99f86","ios":"levelo://app?vid=cd50297d-45fb-4eed-acac-5bbb06c99f86"},"vehicle_type_id":"4","last_reported":1704315984,"current_range_meters":16400,"station_id":"ce4bhch2rcd13ifvqeug","pricing_plan_id":"free"},{"bike_id":"3f2d67b5-1b70-4dca-a662-d18b710194fe","system_id":"levelo_inurba_marseille","lat":43.29844,"lon":5.40164,"is_reserved":false,"is_disabled":false,"rental_uris":{"android":"levelo://app?vid=3f2d67b5-1b70-4dca-a662-d18b710194fe","ios":"levelo://app?vid=3f2d67b5-1b70-4dca-a662-d18b710194fe"},"vehicle_type_id":"4","last_reported":1704315984,"current_range_meters":15600,"station_id":"","pricing_plan_id":"free"},{"bike_id":"73d6d06e-244a-46d2-adc8-e6e586ceb96b","system_id":"levelo_inurba_marseille","lat":43.28612,"lon":5.35101,"is_reserved":false,"is_disabled":false,"rental_uris":{"android":"levelo://app?vid=73d6d06e-244a-46d2-adc8-e6e586ceb96b","ios":"levelo://app?vid=73d6d06e-244a-46d2-adc8-e6e586ceb96b"},"vehicle_type_id":"4","last_reported":1704315984,"current_range_meters":4000,"station_id":"ce4bhch2rcd13ifvqeug","pricing_plan_id":"free"},{"bike_id":"fca0bf88-899f-4725-97f5-5bfaf2f057ae","system_id":"levelo_inurba_marseille","lat":43.283998,"lon":5.375062,"is_reserved":false,"is_disabled":false,"rental_uris":{"android":"levelo://app?vid=fca0bf88-899f-4725-97f5-5bfaf2f057ae","ios":"levelo://app?vid=fca0bf88-899f-4725-97f5-5bfaf2f057ae"},"vehicle_type_id":"4","last_reported":1704315984,"current_range_meters":12400,"station_id":"ce4bh412rcd13ifvqds0","pricing_plan_id":"free"},{"bike_id":"f99006df-0376-429f-ab2e-144629f2fc8b","system_id":"levelo_inurba_marseille","lat":43.283998,"lon":5.375062,"is_reserved":false,"is_disabled":false,"rental_uris":{"android":"levelo://app?vid=f99006df-0376-429f-ab2e-144629f2fc8b","ios":"levelo://app?vid=f99006df-0376-429f-ab2e-144629f2fc8b"},"vehicle_type_id":"4","last_reported":1704315984,"current_range_meters":0,"station_id":"ce4bh412rcd13ifvqds0","pricing_plan_id":"free"},{"bike_id":"c4b6a10c-ad2d-4b12-9d1a-e195297213c7","system_id":"levelo_inurba_marseille","lat":43.295713,"lon":5.399639,"is_reserved":false,"is_disabled":false,"rental_uris":{"android":"levelo://app?vid=c4b6a10c-ad2d-4b12-9d1a-e195297213c7","ios":"levelo://app?vid=c4b6a10c-ad2d-4b12-9d1a-e195297213c7"},"vehicle_type_id":"4","last_reported":1704315984,"current_range_meters":26000,"station_id":"ce4bh312rcd13ifvqdj0","pricing_plan_id":"free"},{"bike_id":"7f8e58a2-ac73-4123-bb5e-80f06cc782f0","system_id":"levelo_inurba_marseille","lat":43.295713,"lon":5.399639,"is_reserved":false,"is_disabled":false,"rental_uris":{"android":"levelo://app?vid=7f8e58a2-ac73-4123-bb5e-80f06cc782f0","ios":"levelo://app?vid=7f8e58a2-ac73-4123-bb5e-80f06cc782f0"},"vehicle_type_id":"4","last_reported":1704315984,"current_range_meters":10400,"station_id":"ce4bh312rcd13ifvqdj0","pricing_plan_id":"free"},{"bike_id":"b1bef3c5-048e-429b-b10c-8728ac9f777d","system_id":"levelo_inurba_marseille","lat":43.283998,"lon":5.375062,"is_reserved":false,"is_disabled":false,"rental_uris":{"android":"levelo://app?vid=b1bef3c5-048e-429b-b10c-8728ac9f777d","ios":"levelo://app?vid=b1bef3c5-048e-429b-b10c-8728ac9f777d"},"vehicle_type_id":"4","last_reported":1704315984,"current_range_meters":29200,"station_id":"ce4bh412rcd13ifvqds0","pricing_plan_id":"free"},{"bike_id":"63284dfa-a160-4edb-b62b-73700c9226ee","system_id":"levelo_inurba_marseille","lat":43.286775,"lon":5.386705,"is_reserved":false,"is_disabled":false,"rental_uris":{"android":"levelo://app?vid=63284dfa-a160-4edb-b62b-73700c9226ee","ios":"levelo://app?vid=63284dfa-a160-4edb-b62b-73700c9226ee"},"vehicle_type_id":"4","last_reported":1704315984,"current_range_meters":21600,"station_id":"ce4bh492rcd13ifvqdug","pricing_plan_id":"free"},{"bike_id":"082792e7-54cb-43b3-95ca-69faa85d1d94","system_id":"levelo_inurba_marseille","lat":43.323464,"lon":5.406297,"is_reserved":false,"is_disabled":false,"rental_uris":{"android":"levelo://app?vid=082792e7-54cb-43b3-95ca-69faa85d1d94","ios":"levelo://app?vid=082792e7-54cb-43b3-95ca-69faa85d1d94"},"vehicle_type_id":"4","last_reported":1704315984,"current_range_meters":0,"station_id":"ce4bhq92rcd13ifvqhjg","pricing_plan_id":"free"},{"bike_id":"5e57c7c1-bfc5-49c6-9e57-613a538e8d1e","system_id":"levelo_inurba_marseille","lat":43.323464,"lon":5.406297,"is_reserved":false,"is_disabled":false,"rental_uris":{"android":"levelo://app?vid=5e57c7c1-bfc5-49c6-9e57-613a538e8d1e","ios":"levelo://app?vid=5e57c7c1-bfc5-49c6-9e57-613a538e8d1e"},"vehicle_type_id":"4","last_reported":1704315984,"current_range_meters":6000,"station_id":"ce4bhq92rcd13ifvqhjg","pricing_plan_id":"free"},{"bike_id":"43ec9d4c-b344-4bbb-8c44-6cd9b856d382","system_id":"levelo_inurba_marseille","lat":43.33717,"lon":5.391857,"is_reserved":false,"is_disabled":false,"rental_uris":{"android":"levelo://app?vid=43ec9d4c-b344-4bbb-8c44-6cd9b856d382","ios":"levelo://app?vid=43ec9d4c-b344-4bbb-8c44-6cd9b856d382"},"vehicle_type_id":"4","last_reported":1704315984,"current_range_meters":12000,"station_id":"ce4bhr92rcd13ifvqhsg","pricing_plan_id":"free"},{"bike_id":"2556f8a3-f1f0-4cdc-9edd-a7f3cfcea9a9","system_id":"levelo_inurba_marseille","lat":43.323464,"lon":5.406297,"is_reserved":false,"is_disabled":false,"rental_uris":{"android":"levelo://app?vid=2556f8a3-f1f0-4cdc-9edd-a7f3cfcea9a9","ios":"levelo://app?vid=2556f8a3-f1f0-4cdc-9edd-a7f3cfcea9a9"},"vehicle_type_id":"4","last_reported":1704315984,"current_range_meters":25200,"station_id":"ce4bhq92rcd13ifvqhjg","pricing_plan_id":"free"},{"bike_id":"65db4aa8-5732-4715-953c-0158f0555c99","system_id":"levelo_inurba_marseille","lat":43.297946,"lon":5.404063,"is_reserved":false,"is_disabled":false,"rental_uris":{"android":"levelo://app?vid=65db4aa8-5732-4715-953c-0158f0555c99","ios":"levelo://app?vid=65db4aa8-5732-4715-953c-0158f0555c99"},"vehicle_type_id":"4","last_reported":1704315984,"current_range_meters":22800,"station_id":"ce4bh112rcd13ifvqd90","pricing_plan_id":"free"},{"bike_id":"66e2dc77-bb13-4772-84fe-6e298727646f","system_id":"levelo_inurba_marseille","lat":43.288501,"lon":5.393087,"is_reserved":false,"is_disabled":false,"rental_uris":{"android":"levelo://app?vid=66e2dc77-bb13-4772-84fe-6e298727646f","ios":"levelo://app?vid=66e2dc77-bb13-4772-84fe-6e298727646f"},"vehicle_type_id":"4","last_reported":1704315984,"current_range_meters":21600,"station_id":"ce4bh2p2rcd13ifvqdi0","pricing_plan_id":"free"},{"bike_id":"ef2ba61a-6d27-478f-b919-809b910c8bc7","system_id":"levelo_inurba_marseille","lat":43.288501,"lon":5.393087,"is_reserved":false,"is_disabled":false,"rental_uris":{"android":"levelo://app?vid=ef2ba61a-6d27-478f-b919-809b910c8bc7","ios":"levelo://app?vid=ef2ba61a-6d27-478f-b919-809b910c8bc7"},"vehicle_type_id":"4","last_reported":1704315984,"current_range_meters":8800,"station_id":"ce4bh2p2rcd13ifvqdi0","pricing_plan_id":"free"},{"bike_id":"c79bbec0-5b45-4028-aa88-b3391f12681c","system_id":"levelo_inurba_marseille","lat":43.283457,"lon":5.381123,"is_reserved":false,"is_disabled":false,"rental_uris":{"android":"levelo://app?vid=c79bbec0-5b45-4028-aa88-b3391f12681c","ios":"levelo://app?vid=c79bbec0-5b45-4028-aa88-b3391f12681c"},"vehicle_type_id":"4","last_reported":1704315984,"current_range_meters":1200,"station_id":"ce4bh412rcd13ifvqdr0","pricing_plan_id":"free"},{"bike_id":"4cc32faf-c266-4535-bdff-c42098dbefc9","system_id":"levelo_inurba_marseille","lat":43.32155,"lon":5.407912,"is_reserved":false,"is_disabled":false,"rental_uris":{"android":"levelo://app?vid=4cc32faf-c266-4535-bdff-c42098dbefc9","ios":"levelo://app?vid=4cc32faf-c266-4535-bdff-c42098dbefc9"},"vehicle_type_id":"4","last_reported":1704315984,"current_range_meters":18400,"station_id":"","pricing_plan_id":"free"},{"bike_id":"6254bdab-07b9-439b-8746-e31872d56418","system_id":"levelo_inurba_marseille","lat":43.280382,"lon":5.369291,"is_reserved":false,"is_disabled":false,"rental_uris":{"android":"levelo://app?vid=6254bdab-07b9-439b-8746-e31872d56418","ios":"levelo://app?vid=6254bdab-07b9-439b-8746-e31872d56418"},"vehicle_type_id":"4","last_reported":1704315984,"current_range_meters":400,"station_id":"ce4bha12rcd13ifvqef0","pricing_plan_id":"free"},{"bike_id":"800ba95b-bd72-43d4-a06a-39718e2e337f","system_id":"levelo_inurba_marseille","lat":43.292724,"lon":5.401131,"is_reserved":false,"is_disabled":false,"rental_uris":{"android":"levelo://app?vid=800ba95b-bd72-43d4-a06a-39718e2e337f","ios":"levelo://app?vid=800ba95b-bd72-43d4-a06a-39718e2e337f"},"vehicle_type_id":"4","last_reported":1704315984,"current_range_meters":19200,"station_id":"ce4bh312rcd13ifvqdk0","pricing_plan_id":"free"},{"bike_id":"b4304143-a21f-4cfe-b2a2-5c2bb5bb69d2","system_id":"levelo_inurba_marseille","lat":43.282744,"lon":5.350533,"is_reserved":false,"is_disabled":false,"rental_uris":{"android":"levelo://app?vid=b4304143-a21f-4cfe-b2a2-5c2bb5bb69d2","ios":"levelo://app?vid=b4304143-a21f-4cfe-b2a2-5c2bb5bb69d2"},"vehicle_type_id":"4","last_reported":1704315984,"current_range_meters":27600,"station_id":"ce4bhbp2rcd13ifvqerg","pricing_plan_id":"free"},{"bike_id":"79837741-56a5-43d5-82bd-fc00e6332b2a","system_id":"levelo_inurba_marseille","lat":43.28269,"lon":5.35074,"is_reserved":false,"is_disabled":false,"rental_uris":{"android":"levelo://app?vid=79837741-56a5-43d5-82bd-fc00e6332b2a","ios":"levelo://app?vid=79837741-56a5-43d5-82bd-fc00e6332b2a"},"vehicle_type_id":"4","last_reported":1704315984,"current_range_meters":12400,"station_id":"ce4bhbp2rcd13ifvqerg","pricing_plan_id":"free"},{"bike_id":"d3ac3657-04c4-4aaf-a57b-f670a94b258d","system_id":"levelo_inurba_marseille","lat":43.282754,"lon":5.350519,"is_reserved":false,"is_disabled":false,"rental_uris":{"android":"levelo://app?vid=d3ac3657-04c4-4aaf-a57b-f670a94b258d","ios":"levelo://app?vid=d3ac3657-04c4-4aaf-a57b-f670a94b258d"},"vehicle_type_id":"4","last_reported":1704315984,"current_range_meters":19200,"station_id":"ce4bhbp2rcd13ifvqerg","pricing_plan_id":"free"},{"bike_id":"20004556-0887-4fdf-9eae-029b2009dac5","system_id":"levelo_inurba_marseille","lat":43.282744,"lon":5.350533,"is_reserved":false,"is_disabled":false,"rental_uris":{"android":"levelo://app?vid=20004556-0887-4fdf-9eae-029b2009dac5","ios":"levelo://app?vid=20004556-0887-4fdf-9eae-029b2009dac5"},"vehicle_type_id":"4","last_reported":1704315984,"current_range_meters":26400,"station_id":"ce4bhbp2rcd13ifvqerg","pricing_plan_id":"free"},{"bike_id":"158b0588-3244-4568-ba7c-451d06797205","system_id":"levelo_inurba_marseille","lat":43.28267,"lon":5.35065,"is_reserved":false,"is_disabled":false,"rental_uris":{"android":"levelo://app?vid=158b0588-3244-4568-ba7c-451d06797205","ios":"levelo://app?vid=158b0588-3244-4568-ba7c-451d06797205"},"vehicle_type_id":"4","last_reported":1704315984,"current_range_meters":0,"station_id":"ce4bhbp2rcd13ifvqerg","pricing_plan_id":"free"},{"bike_id":"59e9c861-4538-413b-b990-baf404440911","system_id":"levelo_inurba_marseille","lat":43.282754,"lon":5.350519,"is_reserved":false,"is_disabled":false,"rental_uris":{"android":"levelo://app?vid=59e9c861-4538-413b-b990-baf404440911","ios":"levelo://app?vid=59e9c861-4538-413b-b990-baf404440911"},"vehicle_type_id":"4","last_reported":1704315984,"current_range_meters":22000,"station_id":"ce4bhbp2rcd13ifvqerg","pricing_plan_id":"free"},{"bike_id":"35ff1647-a820-4cae-b68f-04ab6aa16600","system_id":"levelo_inurba_marseille","lat":43.282744,"lon":5.350533,"is_reserved":false,"is_disabled":false,"rental_uris":{"android":"levelo://app?vid=35ff1647-a820-4cae-b68f-04ab6aa16600","ios":"levelo://app?vid=35ff1647-a820-4cae-b68f-04ab6aa16600"},"vehicle_type_id":"4","last_reported":1704315984,"current_range_meters":24800,"station_id":"ce4bhbp2rcd13ifvqerg","pricing_plan_id":"free"},{"bike_id":"7171382a-4eb0-4e52-90f6-1d05c75d776f","system_id":"levelo_inurba_marseille","lat":43.283502,"lon":5.386471,"is_reserved":false,"is_disabled":false,"rental_uris":{"android":"levelo://app?vid=7171382a-4eb0-4e52-90f6-1d05c75d776f","ios":"levelo://app?vid=7171382a-4eb0-4e52-90f6-1d05c75d776f"},"vehicle_type_id":"4","last_reported":1704315984,"current_range_meters":13600,"station_id":"ce4bh492rcd13ifvqdvg","pricing_plan_id":"free"},{"bike_id":"3b207d8c-7d10-4ce3-8bb1-5bcc943e7018","system_id":"levelo_inurba_marseille","lat":43.280382,"lon":5.369291,"is_reserved":false,"is_disabled":false,"rental_uris":{"android":"levelo://app?vid=3b207d8c-7d10-4ce3-8bb1-5bcc943e7018","ios":"levelo://app?vid=3b207d8c-7d10-4ce3-8bb1-5bcc943e7018"},"vehicle_type_id":"4","last_reported":1704315984,"current_range_meters":24400,"station_id":"ce4bha12rcd13ifvqef0","pricing_plan_id":"free"},{"bike_id":"ca8910e0-3d77-4389-b3d6-e271926a2518","system_id":"levelo_inurba_marseille","lat":43.28035,"lon":5.36942,"is_reserved":false,"is_disabled":false,"rental_uris":{"android":"levelo://app?vid=ca8910e0-3d77-4389-b3d6-e271926a2518","ios":"levelo://app?vid=ca8910e0-3d77-4389-b3d6-e271926a2518"},"vehicle_type_id":"4","last_reported":1704315984,"current_range_meters":24000,"station_id":"ce4bha12rcd13ifvqef0","pricing_plan_id":"free"},{"bike_id":"b0d71ed9-2e4a-4896-80b1-f614c14a0d2d","system_id":"levelo_inurba_marseille","lat":43.28039,"lon":5.369297,"is_reserved":false,"is_disabled":false,"rental_uris":{"android":"levelo://app?vid=b0d71ed9-2e4a-4896-80b1-f614c14a0d2d","ios":"levelo://app?vid=b0d71ed9-2e4a-4896-80b1-f614c14a0d2d"},"vehicle_type_id":"4","last_reported":1704315984,"current_range_meters":26800,"station_id":"ce4bha12rcd13ifvqef0","pricing_plan_id":"free"},{"bike_id":"346028c1-ac1e-41a0-b151-c61de7fab0fd","system_id":"levelo_inurba_marseille","lat":43.29039,"lon":5.39953,"is_reserved":false,"is_disabled":false,"rental_uris":{"android":"levelo://app?vid=346028c1-ac1e-41a0-b151-c61de7fab0fd","ios":"levelo://app?vid=346028c1-ac1e-41a0-b151-c61de7fab0fd"},"vehicle_type_id":"4","last_reported":1704315984,"current_range_meters":31200,"station_id":"ce4bh392rcd13ifvqdm0","pricing_plan_id":"free"},{"bike_id":"6379fe39-b264-4272-b02b-31adc296f6a8","system_id":"levelo_inurba_marseille","lat":43.29041,"lon":5.399557,"is_reserved":false,"is_disabled":false,"rental_uris":{"android":"levelo://app?vid=6379fe39-b264-4272-b02b-31adc296f6a8","ios":"levelo://app?vid=6379fe39-b264-4272-b02b-31adc296f6a8"},"vehicle_type_id":"4","last_reported":1704315984,"current_range_meters":27200,"station_id":"ce4bh392rcd13ifvqdm0","pricing_plan_id":"free"},{"bike_id":"507d56e5-c9bd-48b9-a408-0af5f2bbb572","system_id":"levelo_inurba_marseille","lat":43.29036,"lon":5.3996,"is_reserved":false,"is_disabled":false,"rental_uris":{"android":"levelo://app?vid=507d56e5-c9bd-48b9-a408-0af5f2bbb572","ios":"levelo://app?vid=507d56e5-c9bd-48b9-a408-0af5f2bbb572"},"vehicle_type_id":"4","last_reported":1704315984,"current_range_meters":31200,"station_id":"ce4bh392rcd13ifvqdm0","pricing_plan_id":"free"},{"bike_id":"50929a8e-8344-449f-8597-b952fff97661","system_id":"levelo_inurba_marseille","lat":43.290412,"lon":5.399633,"is_reserved":false,"is_disabled":false,"rental_uris":{"android":"levelo://app?vid=50929a8e-8344-449f-8597-b952fff97661","ios":"levelo://app?vid=50929a8e-8344-449f-8597-b952fff97661"},"vehicle_type_id":"4","last_reported":1704315984,"current_range_meters":2000,"station_id":"ce4bh392rcd13ifvqdm0","pricing_plan_id":"free"},{"bike_id":"18632d31-3e4c-4088-ab2e-8444973ca7f0","system_id":"levelo_inurba_marseille","lat":43.281044,"lon":5.378308,"is_reserved":false,"is_disabled":false,"rental_uris":{"android":"levelo://app?vid=18632d31-3e4c-4088-ab2e-8444973ca7f0","ios":"levelo://app?vid=18632d31-3e4c-4088-ab2e-8444973ca7f0"},"vehicle_type_id":"4","last_reported":1704315984,"current_range_meters":25200,"station_id":"ce4bha12rcd13ifvqee0","pricing_plan_id":"free"},{"bike_id":"507cc011-b0f1-407e-a4ca-21f10d36b9b3","system_id":"levelo_inurba_marseille","lat":43.281044,"lon":5.378308,"is_reserved":false,"is_disabled":false,"rental_uris":{"android":"levelo://app?vid=507cc011-b0f1-407e-a4ca-21f10d36b9b3","ios":"levelo://app?vid=507cc011-b0f1-407e-a4ca-21f10d36b9b3"},"vehicle_type_id":"4","last_reported":1704315984,"current_range_meters":24400,"station_id":"ce4bha12rcd13ifvqee0","pricing_plan_id":"free"},{"bike_id":"2763fb9f-e5d0-45e1-843a-89a2354b4108","system_id":"levelo_inurba_marseille","lat":43.296263,"lon":5.40601,"is_reserved":false,"is_disabled":false,"rental_uris":{"android":"levelo://app?vid=2763fb9f-e5d0-45e1-843a-89a2354b4108","ios":"levelo://app?vid=2763fb9f-e5d0-45e1-843a-89a2354b4108"},"vehicle_type_id":"4","last_reported":1704315984,"current_range_meters":22000,"station_id":"ce4bh0h2rcd13ifvqd60","pricing_plan_id":"free"},{"bike_id":"6ccb84fe-cc05-47b0-a677-53275795b107","system_id":"levelo_inurba_marseille","lat":43.281044,"lon":5.378308,"is_reserved":false,"is_disabled":false,"rental_uris":{"android":"levelo://app?vid=6ccb84fe-cc05-47b0-a677-53275795b107","ios":"levelo://app?vid=6ccb84fe-cc05-47b0-a677-53275795b107"},"vehicle_type_id":"4","last_reported":1704315984,"current_range_meters":18400,"station_id":"ce4bha12rcd13ifvqee0","pricing_plan_id":"free"},{"bike_id":"61e42589-1e35-415b-af68-e6119f239e29","system_id":"levelo_inurba_marseille","lat":43.284462,"lon":5.392121,"is_reserved":false,"is_disabled":false,"rental_uris":{"android":"levelo://app?vid=61e42589-1e35-415b-af68-e6119f239e29","ios":"levelo://app?vid=61e42589-1e35-415b-af68-e6119f239e29"},"vehicle_type_id":"4","last_reported":1704315984,"current_range_meters":27200,"station_id":"ce4bhoh2rcd13ifvqh5g","pricing_plan_id":"free"},{"bike_id":"67e93fcc-ac1b-432f-9ceb-8b92ddebfb18","system_id":"levelo_inurba_marseille","lat":43.28573,"lon":5.394992,"is_reserved":false,"is_disabled":false,"rental_uris":{"android":"levelo://app?vid=67e93fcc-ac1b-432f-9ceb-8b92ddebfb18","ios":"levelo://app?vid=67e93fcc-ac1b-432f-9ceb-8b92ddebfb18"},"vehicle_type_id":"4","last_reported":1704315984,"current_range_meters":24800,"station_id":"ce4bh292rcd13ifvqdg0","pricing_plan_id":"free"},{"bike_id":"5d326506-feaf-4d6c-8e29-03fba7fa522c","system_id":"levelo_inurba_marseille","lat":43.28573,"lon":5.394992,"is_reserved":false,"is_disabled":false,"rental_uris":{"android":"levelo://app?vid=5d326506-feaf-4d6c-8e29-03fba7fa522c","ios":"levelo://app?vid=5d326506-feaf-4d6c-8e29-03fba7fa522c"},"vehicle_type_id":"4","last_reported":1704315984,"current_range_meters":28400,"station_id":"ce4bh292rcd13ifvqdg0","pricing_plan_id":"free"},{"bike_id":"f4617c72-b11a-4a52-8f8e-2d11648a89f8","system_id":"levelo_inurba_marseille","lat":43.326605,"lon":5.409903,"is_reserved":false,"is_disabled":false,"rental_uris":{"android":"levelo://app?vid=f4617c72-b11a-4a52-8f8e-2d11648a89f8","ios":"levelo://app?vid=f4617c72-b11a-4a52-8f8e-2d11648a89f8"},"vehicle_type_id":"4","last_reported":1704315984,"current_range_meters":23600,"station_id":"ce4bhpp2rcd13ifvqhgg","pricing_plan_id":"free"},{"bike_id":"8b32f731-9a8c-4c2b-9a2a-8108ef4979e2","system_id":"levelo_inurba_marseille","lat":43.304188,"lon":5.412904,"is_reserved":false,"is_disabled":false,"rental_uris":{"android":"levelo://app?vid=8b32f731-9a8c-4c2b-9a2a-8108ef4979e2","ios":"levelo://app?vid=8b32f731-9a8c-4c2b-9a2a-8108ef4979e2"},"vehicle_type_id":"4","last_reported":1704315984,"current_range_meters":31200,"station_id":"ce4bhop2rcd13ifvqh8g","pricing_plan_id":"free"},{"bike_id":"f5f5ddfa-53b7-4474-8b50-2ffc41634d8f","system_id":"levelo_inurba_marseille","lat":43.287154,"lon":5.399979,"is_reserved":false,"is_disabled":false,"rental_uris":{"android":"levelo://app?vid=f5f5ddfa-53b7-4474-8b50-2ffc41634d8f","ios":"levelo://app?vid=f5f5ddfa-53b7-4474-8b50-2ffc41634d8f"},"vehicle_type_id":"4","last_reported":1704315984,"current_range_meters":16000,"station_id":"ce4bho92rcd13ifvqh3g","pricing_plan_id":"free"},{"bike_id":"ba05efc3-a9d2-4cf4-947a-92d723818626","system_id":"levelo_inurba_marseille","lat":43.287154,"lon":5.399979,"is_reserved":false,"is_disabled":false,"rental_uris":{"android":"levelo://app?vid=ba05efc3-a9d2-4cf4-947a-92d723818626","ios":"levelo://app?vid=ba05efc3-a9d2-4cf4-947a-92d723818626"},"vehicle_type_id":"4","last_reported":1704315984,"current_range_meters":17200,"station_id":"ce4bho92rcd13ifvqh3g","pricing_plan_id":"free"},{"bike_id":"1d7d0b44-395f-4e21-af9d-8af1ed86a5aa","system_id":"levelo_inurba_marseille","lat":43.299579,"lon":5.413255,"is_reserved":false,"is_disabled":false,"rental_uris":{"android":"levelo://app?vid=1d7d0b44-395f-4e21-af9d-8af1ed86a5aa","ios":"levelo://app?vid=1d7d0b44-395f-4e21-af9d-8af1ed86a5aa"},"vehicle_type_id":"4","last_reported":1704315984,"current_range_meters":26400,"station_id":"ce4bhp12rcd13ifvqh9g","pricing_plan_id":"free"},{"bike_id":"121fa645-a1b6-4ff7-83e0-18a5ebcd6037","system_id":"levelo_inurba_marseille","lat":43.279742,"lon":5.38744,"is_reserved":false,"is_disabled":false,"rental_uris":{"android":"levelo://app?vid=121fa645-a1b6-4ff7-83e0-18a5ebcd6037","ios":"levelo://app?vid=121fa645-a1b6-4ff7-83e0-18a5ebcd6037"},"vehicle_type_id":"4","last_reported":1704315984,"current_range_meters":23600,"station_id":"ce4bhg12rcd13ifvqf80","pricing_plan_id":"free"},{"bike_id":"d630adca-4549-432f-a835-e8f8e99a673e","system_id":"levelo_inurba_marseille","lat":43.279742,"lon":5.38744,"is_reserved":false,"is_disabled":false,"rental_uris":{"android":"levelo://app?vid=d630adca-4549-432f-a835-e8f8e99a673e","ios":"levelo://app?vid=d630adca-4549-432f-a835-e8f8e99a673e"},"vehicle_type_id":"4","last_reported":1704315984,"current_range_meters":22000,"station_id":"ce4bhg12rcd13ifvqf80","pricing_plan_id":"free"},{"bike_id":"daed1a10-5684-4e7b-ac05-a38a9363c91a","system_id":"levelo_inurba_marseille","lat":43.27618,"lon":5.361009,"is_reserved":false,"is_disabled":false,"rental_uris":{"android":"levelo://app?vid=daed1a10-5684-4e7b-ac05-a38a9363c91a","ios":"levelo://app?vid=daed1a10-5684-4e7b-ac05-a38a9363c91a"},"vehicle_type_id":"4","last_reported":1704315984,"current_range_meters":12000,"station_id":"ce4bgj92rcd13ifvqbe0","pricing_plan_id":"free"},{"bike_id":"d3f25bcc-da64-44bb-8495-bf854b2f447f","system_id":"levelo_inurba_marseille","lat":43.32437,"lon":5.41639,"is_reserved":false,"is_disabled":false,"rental_uris":{"android":"levelo://app?vid=d3f25bcc-da64-44bb-8495-bf854b2f447f","ios":"levelo://app?vid=d3f25bcc-da64-44bb-8495-bf854b2f447f"},"vehicle_type_id":"4","last_reported":1704315984,"current_range_meters":21200,"station_id":"","pricing_plan_id":"free"},{"bike_id":"878989f4-64e5-45eb-97fd-e2c865789826","system_id":"levelo_inurba_marseille","lat":43.280784,"lon":5.396622,"is_reserved":false,"is_disabled":false,"rental_uris":{"android":"levelo://app?vid=878989f4-64e5-45eb-97fd-e2c865789826","ios":"levelo://app?vid=878989f4-64e5-45eb-97fd-e2c865789826"},"vehicle_type_id":"4","last_reported":1704315984,"current_range_meters":29600,"station_id":"ce4bho12rcd13ifvqh2g","pricing_plan_id":"free"},{"bike_id":"cce89fc2-8980-4e8a-91b4-3d474529ae07","system_id":"levelo_inurba_marseille","lat":43.280784,"lon":5.396622,"is_reserved":false,"is_disabled":false,"rental_uris":{"android":"levelo://app?vid=cce89fc2-8980-4e8a-91b4-3d474529ae07","ios":"levelo://app?vid=cce89fc2-8980-4e8a-91b4-3d474529ae07"},"vehicle_type_id":"4","last_reported":1704315984,"current_range_meters":16800,"station_id":"ce4bho12rcd13ifvqh2g","pricing_plan_id":"free"},{"bike_id":"a19da322-8f75-4d36-906d-e15866d82b2a","system_id":"levelo_inurba_marseille","lat":43.303837,"lon":5.418724,"is_reserved":false,"is_disabled":false,"rental_uris":{"android":"levelo://app?vid=a19da322-8f75-4d36-906d-e15866d82b2a","ios":"levelo://app?vid=a19da322-8f75-4d36-906d-e15866d82b2a"},"vehicle_type_id":"4","last_reported":1704315984,"current_range_meters":29600,"station_id":"ce4bhop2rcd13ifvqh7g","pricing_plan_id":"free"},{"bike_id":"f45cfe6c-a41e-433b-bf03-cc60508fd616","system_id":"levelo_inurba_marseille","lat":43.33601,"lon":5.4103,"is_reserved":false,"is_disabled":false,"rental_uris":{"android":"levelo://app?vid=f45cfe6c-a41e-433b-bf03-cc60508fd616","ios":"levelo://app?vid=f45cfe6c-a41e-433b-bf03-cc60508fd616"},"vehicle_type_id":"4","last_reported":1704315984,"current_range_meters":10800,"station_id":"ce4bhqh2rcd13ifvqhmg","pricing_plan_id":"free"},{"bike_id":"20832136-1247-4fb2-a6b1-acf0507e0287","system_id":"levelo_inurba_marseille","lat":43.336148,"lon":5.410349,"is_reserved":false,"is_disabled":false,"rental_uris":{"android":"levelo://app?vid=20832136-1247-4fb2-a6b1-acf0507e0287","ios":"levelo://app?vid=20832136-1247-4fb2-a6b1-acf0507e0287"},"vehicle_type_id":"4","last_reported":1704315984,"current_range_meters":25200,"station_id":"ce4bhqh2rcd13ifvqhmg","pricing_plan_id":"free"},{"bike_id":"2adc39e4-adca-4267-9b58-11106d541d95","system_id":"levelo_inurba_marseille","lat":43.336134,"lon":5.410341,"is_reserved":false,"is_disabled":false,"rental_uris":{"android":"levelo://app?vid=2adc39e4-adca-4267-9b58-11106d541d95","ios":"levelo://app?vid=2adc39e4-adca-4267-9b58-11106d541d95"},"vehicle_type_id":"4","last_reported":1704315984,"current_range_meters":22000,"station_id":"ce4bhqh2rcd13ifvqhmg","pricing_plan_id":"free"},{"bike_id":"1406b64b-39e6-4303-a601-9ae6fc9b5612","system_id":"levelo_inurba_marseille","lat":43.279952,"lon":5.400085,"is_reserved":false,"is_disabled":false,"rental_uris":{"android":"levelo://app?vid=1406b64b-39e6-4303-a601-9ae6fc9b5612","ios":"levelo://app?vid=1406b64b-39e6-4303-a601-9ae6fc9b5612"},"vehicle_type_id":"4","last_reported":1704315984,"current_range_meters":7200,"station_id":"ce4bho92rcd13ifvqh4g","pricing_plan_id":"free"},{"bike_id":"fb9f3fee-8a96-4d86-bfd6-caed95c25143","system_id":"levelo_inurba_marseille","lat":43.279975,"lon":5.40009,"is_reserved":false,"is_disabled":false,"rental_uris":{"android":"levelo://app?vid=fb9f3fee-8a96-4d86-bfd6-caed95c25143","ios":"levelo://app?vid=fb9f3fee-8a96-4d86-bfd6-caed95c25143"},"vehicle_type_id":"4","last_reported":1704315984,"current_range_meters":28800,"station_id":"ce4bho92rcd13ifvqh4g","pricing_plan_id":"free"},{"bike_id":"71f49bd0-0b27-4b88-801e-ba24d07cba08","system_id":"levelo_inurba_marseille","lat":43.279952,"lon":5.400085,"is_reserved":false,"is_disabled":false,"rental_uris":{"android":"levelo://app?vid=71f49bd0-0b27-4b88-801e-ba24d07cba08","ios":"levelo://app?vid=71f49bd0-0b27-4b88-801e-ba24d07cba08"},"vehicle_type_id":"4","last_reported":1704315984,"current_range_meters":13600,"station_id":"ce4bho92rcd13ifvqh4g","pricing_plan_id":"free"},{"bike_id":"99338fe0-0269-4f7c-a612-bf3bb19a92a6","system_id":"levelo_inurba_marseille","lat":43.31722,"lon":5.424,"is_reserved":false,"is_disabled":false,"rental_uris":{"android":"levelo://app?vid=99338fe0-0269-4f7c-a612-bf3bb19a92a6","ios":"levelo://app?vid=99338fe0-0269-4f7c-a612-bf3bb19a92a6"},"vehicle_type_id":"4","last_reported":1704315984,"current_range_meters":22800,"station_id":"","pricing_plan_id":"free"},{"bike_id":"1f916b87-738b-4fd1-b28f-f51e1b86e62d","system_id":"levelo_inurba_marseille","lat":43.310785,"lon":5.424305,"is_reserved":false,"is_disabled":false,"rental_uris":{"android":"levelo://app?vid=1f916b87-738b-4fd1-b28f-f51e1b86e62d","ios":"levelo://app?vid=1f916b87-738b-4fd1-b28f-f51e1b86e62d"},"vehicle_type_id":"4","last_reported":1704315984,"current_range_meters":12400,"station_id":"ce4bhp92rcd13ifvqhag","pricing_plan_id":"free"},{"bike_id":"2ab753f2-632a-42dd-bd7e-ba07115e8c19","system_id":"levelo_inurba_marseille","lat":43.340804,"lon":5.410219,"is_reserved":false,"is_disabled":false,"rental_uris":{"android":"levelo://app?vid=2ab753f2-632a-42dd-bd7e-ba07115e8c19","ios":"levelo://app?vid=2ab753f2-632a-42dd-bd7e-ba07115e8c19"},"vehicle_type_id":"4","last_reported":1704315984,"current_range_meters":25200,"station_id":"ce4bhqh2rcd13ifvqhlg","pricing_plan_id":"free"},{"bike_id":"6f12761d-4b33-48ec-9a4a-40f38126b480","system_id":"levelo_inurba_marseille","lat":43.273125,"lon":5.390731,"is_reserved":false,"is_disabled":false,"rental_uris":{"android":"levelo://app?vid=6f12761d-4b33-48ec-9a4a-40f38126b480","ios":"levelo://app?vid=6f12761d-4b33-48ec-9a4a-40f38126b480"},"vehicle_type_id":"4","last_reported":1704315984,"current_range_meters":5200,"station_id":"ce4bhgp2rcd13ifvqfe0","pricing_plan_id":"free"},{"bike_id":"e89d1555-b57a-44e9-9a60-b79ea725af64","system_id":"levelo_inurba_marseille","lat":43.278128,"lon":5.407195,"is_reserved":false,"is_disabled":false,"rental_uris":{"android":"levelo://app?vid=e89d1555-b57a-44e9-9a60-b79ea725af64","ios":"levelo://app?vid=e89d1555-b57a-44e9-9a60-b79ea725af64"},"vehicle_type_id":"4","last_reported":1704315984,"current_range_meters":800,"station_id":"ce4bhnh2rcd13ifvqgtg","pricing_plan_id":"free"},{"bike_id":"d6c8a0e9-7468-400f-b7cd-5ed6e9b0ecb7","system_id":"levelo_inurba_marseille","lat":43.278128,"lon":5.407195,"is_reserved":false,"is_disabled":false,"rental_uris":{"android":"levelo://app?vid=d6c8a0e9-7468-400f-b7cd-5ed6e9b0ecb7","ios":"levelo://app?vid=d6c8a0e9-7468-400f-b7cd-5ed6e9b0ecb7"},"vehicle_type_id":"4","last_reported":1704315984,"current_range_meters":8400,"station_id":"ce4bhnh2rcd13ifvqgtg","pricing_plan_id":"free"},{"bike_id":"5f1de015-53a8-48b6-bfee-be00f696d103","system_id":"levelo_inurba_marseille","lat":43.278128,"lon":5.407195,"is_reserved":false,"is_disabled":false,"rental_uris":{"android":"levelo://app?vid=5f1de015-53a8-48b6-bfee-be00f696d103","ios":"levelo://app?vid=5f1de015-53a8-48b6-bfee-be00f696d103"},"vehicle_type_id":"4","last_reported":1704315984,"current_range_meters":31600,"station_id":"ce4bhnh2rcd13ifvqgtg","pricing_plan_id":"free"},{"bike_id":"d41abcad-208f-464a-9847-27639303b520","system_id":"levelo_inurba_marseille","lat":43.278128,"lon":5.407195,"is_reserved":false,"is_disabled":false,"rental_uris":{"android":"levelo://app?vid=d41abcad-208f-464a-9847-27639303b520","ios":"levelo://app?vid=d41abcad-208f-464a-9847-27639303b520"},"vehicle_type_id":"4","last_reported":1704315984,"current_range_meters":20000,"station_id":"ce4bhnh2rcd13ifvqgtg","pricing_plan_id":"free"},{"bike_id":"61e04b2d-bbbb-46b8-ba9f-8ba98544af7f","system_id":"levelo_inurba_marseille","lat":43.278128,"lon":5.407195,"is_reserved":false,"is_disabled":false,"rental_uris":{"android":"levelo://app?vid=61e04b2d-bbbb-46b8-ba9f-8ba98544af7f","ios":"levelo://app?vid=61e04b2d-bbbb-46b8-ba9f-8ba98544af7f"},"vehicle_type_id":"4","last_reported":1704315984,"current_range_meters":14400,"station_id":"ce4bhnh2rcd13ifvqgtg","pricing_plan_id":"free"},{"bike_id":"6348ed36-f802-4357-8171-61e58d677782","system_id":"levelo_inurba_marseille","lat":43.278128,"lon":5.407195,"is_reserved":false,"is_disabled":false,"rental_uris":{"android":"levelo://app?vid=6348ed36-f802-4357-8171-61e58d677782","ios":"levelo://app?vid=6348ed36-f802-4357-8171-61e58d677782"},"vehicle_type_id":"4","last_reported":1704315984,"current_range_meters":8800,"station_id":"ce4bhnh2rcd13ifvqgtg","pricing_plan_id":"free"},{"bike_id":"2a6c14ff-a84b-4588-a107-5fb0582375fd","system_id":"levelo_inurba_marseille","lat":43.278128,"lon":5.407195,"is_reserved":false,"is_disabled":false,"rental_uris":{"android":"levelo://app?vid=2a6c14ff-a84b-4588-a107-5fb0582375fd","ios":"levelo://app?vid=2a6c14ff-a84b-4588-a107-5fb0582375fd"},"vehicle_type_id":"4","last_reported":1704315984,"current_range_meters":16800,"station_id":"ce4bhnh2rcd13ifvqgtg","pricing_plan_id":"free"},