{"last_updated":1716743174,"ttl":30,"version":"2.2","data":{"bikes":[{"bike_id":"d6896700-dee5-4d24-b98f-23f0055687ab","system_id":"levelo_inurba_marseille","lat":43.31341,"lon":5.367098,"is_reserved":false,"is_disabled":false,"rental_uris":{"android":"levelo://app?vid=d6896700-dee5-4d24-b98f-23f0055687ab","ios":"levelo://app?vid=d6896700-dee5-4d24-b98f-23f0055687ab"},"vehicle_type_id":"4","last_reported":1716743174,"current_range_meters":6000,"station_id":"ce4bgr92rcd13ifvqc6g","pricing_plan_id":"cebpf4jnsgd1na2vs0mg"},{"bike_id":"6c2ba792-2eaf-469c-a641-784d6846af5b","system_id":"levelo_inurba_marseille","lat":43.31341,"lon":5.367098,"is_reserved":false,"is_disabled":false,"rental_uris":{"android":"levelo://app?vid=6c2ba792-2eaf-469c-a641-784d6846af5b","ios":"levelo://app?vid=6c2ba792-2eaf-469c-a641-784d6846af5b"},"vehicle_type_id":"4","last_reported":1716743174,"current_range_meters":21200,"station_id":"ce4bgr92rcd13ifvqc6g","pricing_plan_id":"cebpf4jnsgd1na2vs0mg"},{"bike_id":"45f69cf0-a561-4985-9918-a74b520c5bee","system_id":"levelo_inurba_marseille","lat":43.31341,"lon":5.367098,"is_reserved":false,"is_disabled":false,"rental_uris":{"android":"levelo://app?vid=45f69cf0-a561-4985-9918-a74b520c5bee","ios":"levelo://app?vid=45f69cf0-a561-4985-9918-a74b520c5bee"},"vehicle_type_id":"4","last_reported":1716743174,"current_range_meters":11200,"station_id":"ce4bgr92rcd13ifvqc6g","pricing_plan_id":"cebpf4jnsgd1na2vs0mg"},{"bike_id":"649c95f5-7121-4bca-8445-3d92dc3115de","system_id":"levelo_inurba_marseille","lat":43.312239,"lon":5.368562,"is_reserved":false,"is_disabled":false,"rental_uris":{"android":"levelo://app?vid=649c95f5-7121-4bca-8445-3d92dc3115de","ios":"levelo://app?vid=649c95f5-7121-4bca-8445-3d92dc3115de"},"vehicle_type_id":"4","last_reported":1716743174,"current_range_meters":0,"station_id":"ce4bgl92rcd13ifvqbq0","pricing_plan_id":"cebpf4jnsgd1na2vs0mg"},{"bike_id":"892f1f38-5881-4422-8ae7-a45e5dd3fc37","system_id":"levelo_inurba_marseille","lat":43.312239,"lon":5.368562,"is_reserved":false,"is_disabled":false,"rental_uris":{"android":"levelo://app?vid=892f1f38-5881-4422-8ae7-a45e5dd3fc37","ios":"levelo://app?vid=892f1f38-5881-4422-8ae7-a45e5dd3fc37"},"vehicle_type_id":"4","last_reported":1716743174,"current_range_meters":26000,"station_id":"ce4bgl92rcd13ifvqbq0","pricing_plan_id":"cebpf4jnsgd1na2vs0mg"},{"bike_id":"20ac150b-1de9-4473-a6eb-0ca78efbaea5","system_id":"levelo_inurba_marseille","lat":43.312239,"lon":5.368562,"is_reserved":false,"is_disabled":false,"rental_uris":{"android":"levelo://app?vid=20ac150b-1de9-4473-a6eb-0ca78efbaea5","ios":"levelo://app?vid=20ac150b-1de9-4473-a6eb-0ca78efbaea5"},"vehicle_type_id":"4","last_reported":1716743174,"current_range_meters":0,"station_id":"ce4bgl92rcd13ifvqbq0","pricing_plan_id":"cebpf4jnsgd1na2vs0mg"},{"bike_id":"75846168-9c7c-46ab-beb5-b7f141665617","system_id":"levelo_inurba_marseille","lat":43.31225,"lon":5.36877,"is_reserved":false,"is_disabled":false,"rental_uris":{"android":"levelo://app?vid=75846168-9c7c-46ab-beb5-b7f141665617","ios":"levelo://app?vid=75846168-9c7c-46ab-beb5-b7f141665617"},"vehicle_type_id":"4","last_reported":1716743174,"current_range_meters":0,"station_id":"ce4bgl92rcd13ifvqbq0","pricing_plan_id":"cebpf4jnsgd1na2vs0mg"},{"bike_id":"5d644099-2388-4f9a-be41-42930f15f0ac","system_id":"levelo_inurba_marseille","lat":43.309039,"lon":5.371797,"is_reserved":false,"is_disabled":false,"rental_uris":{"android":"levelo://app?vid=5d644099-2388-4f9a-be41-42930f15f0ac","ios":"levelo://app?vid=5d644099-2388-4f9a-be41-42930f15f0ac"},"vehicle_type_id":"4","last_reported":1716743174,"current_range_meters":1600,"station_id":"ce4bguh2rcd13ifvqckg","pricing_plan_id":"cebpf4jnsgd1na2vs0mg"},{"bike_id":"ba40de10-c09b-4cf8-8d54-6c1b693dbd72","system_id":"levelo_inurba_marseille","lat":43.309034,"lon":5.371783,"is_reserved":false,"is_disabled":false,"rental_uris":{"android":"levelo://app?vid=ba40de10-c09b-4cf8-8d54-6c1b693dbd72","ios":"levelo://app?vid=ba40de10-c09b-4cf8-8d54-6c1b693dbd72"},"vehicle_type_id":"4","last_reported":1716743174,"current_range_meters":29600,"station_id":"ce4bguh2rcd13ifvqckg","pricing_plan_id":"cebpf4jnsgd1na2vs0mg"},{"bike_id":"0f5d9367-d2f6-4a34-a550-63d1e2a8c28c","system_id":"levelo_inurba_marseille","lat":43.305368,"lon":5.367343,"is_reserved":false,"is_disabled":false,"rental_uris":{"android":"levelo://app?vid=0f5d9367-d2f6-4a34-a550-63d1e2a8c28c","ios":"levelo://app?vid=0f5d9367-d2f6-4a34-a550-63d1e2a8c28c"},"vehicle_type_id":"4","last_reported":1716743174,"current_range_meters":2400,"station_id":"ce4bgrp2rcd13ifvqc9g","pricing_plan_id":"cebpf4jnsgd1na2vs0mg"},{"bike_id":"5689b029-0aa6-4cce-b1ac-59d1ff9994f7","system_id":"levelo_inurba_marseille","lat":43.30537,"lon":5.367345,"is_reserved":false,"is_disabled":false,"rental_uris":{"android":"levelo://app?vid=5689b029-0aa6-4cce-b1ac-59d1ff9994f7","ios":"levelo://app?vid=5689b029-0aa6-4cce-b1ac-59d1ff9994f7"},"vehicle_type_id":"4","last_reported":1716743174,"current_range_meters":1200,"station_id":"ce4bgrp2rcd13ifvqc9g","pricing_plan_id":"cebpf4jnsgd1na2vs0mg"},{"bike_id":"085f8808-1d82-4a31-a42a-8e58df7e3717","system_id":"levelo_inurba_marseille","lat":43.305989,"lon":5.37225,"is_reserved":false,"is_disabled":false,"rental_uris":{"android":"levelo://app?vid=085f8808-1d82-4a31-a42a-8e58df7e3717","ios":"levelo://app?vid=085f8808-1d82-4a31-a42a-8e58df7e3717"},"vehicle_type_id":"4","last_reported":1716743174,"current_range_meters":31200,"station_id":"ce4bgqh2rcd13ifvqc4g","pricing_plan_id":"cebpf4jnsgd1na2vs0mg"},{"bike_id":"3e1657de-dbe0-4d02-a258-1a37b051d5d1","system_id":"levelo_inurba_marseille","lat":43.311131,"lon":5.377651,"is_reserved":false,"is_disabled":false,"rental_uris":{"android":"levelo://app?vid=3e1657de-dbe0-4d02-a258-1a37b051d5d1","ios":"levelo://app?vid=3e1657de-dbe0-4d02-a258-1a37b051d5d1"},"vehicle_type_id":"4","last_reported":1716743174,"current_range_meters":2800,"station_id":"ce4bgt92rcd13ifvqcg0","pricing_plan_id":"cebpf4jnsgd1na2vs0mg"},{"bike_id":"e6b50820-e1c7-4dbb-b63f-a06ad7edfdba","system_id":"levelo_inurba_marseille","lat":43.317075,"lon":5.377367,"is_reserved":false,"is_disabled":false,"rental_uris":{"android":"levelo://app?vid=e6b50820-e1c7-4dbb-b63f-a06ad7edfdba","ios":"levelo://app?vid=e6b50820-e1c7-4dbb-b63f-a06ad7edfdba"},"vehicle_type_id":"4","last_reported":1716743174,"current_range_meters":0,"station_id":"ce4bgth2rcd13ifvqch0","pricing_plan_id":"cebpf4jnsgd1na2vs0mg"},{"bike_id":"6b7061a4-dff5-4403-8387-4f4afa78008b","system_id":"levelo_inurba_marseille","lat":43.317075,"lon":5.377367,"is_reserved":false,"is_disabled":false,"rental_uris":{"android":"levelo://app?vid=6b7061a4-dff5-4403-8387-4f4afa78008b","ios":"levelo://app?vid=6b7061a4-dff5-4403-8387-4f4afa78008b"},"vehicle_type_id":"4","last_reported":1716743174,"current_range_meters":28800,"station_id":"ce4bgth2rcd13ifvqch0","pricing_plan_id":"cebpf4jnsgd1na2vs0mg"},{"bike_id":"b4bea119-f668-4593-bb00-80b08f0a5dbd","system_id":"levelo_inurba_marseille","lat":43.317075,"lon":5.377367,"is_reserved":false,"is_disabled":false,"rental_uris":{"android":"levelo://app?vid=b4bea119-f668-4593-bb00-80b08f0a5dbd","ios":"levelo://app?vid=b4bea119-f668-4593-bb00-80b08f0a5dbd"},"vehicle_type_id":"4","last_reported":1716743174,"current_range_meters":0,"station_id":"ce4bgth2rcd13ifvqch0","pricing_plan_id":"cebpf4jnsgd1na2vs0mg"},{"bike_id":"bedad097-f920-4b67-912b-86ae5c26b65a","system_id":"levelo_inurba_marseille","lat":43.303046,"lon":5.368981,"is_reserved":false,"is_disabled":false,"rental_uris":{"android":"levelo://app?vid=bedad097-f920-4b67-912b-86ae5c26b65a","ios":"levelo://app?vid=bedad097-f920-4b67-912b-86ae5c26b65a"},"vehicle_type_id":"4","last_reported":1716743174,"current_range_meters":7200,"station_id":"ce4bgqh2rcd13ifvqc5g","pricing_plan_id":"cebpf4jnsgd1na2vs0mg"},{"bike_id":"c0b19bd6-5eeb-46f7-baa6-5a71a5aa4a16","system_id":"levelo_inurba_marseille","lat":43.30209,"lon":5.36984,"is_reserved":false,"is_disabled":false,"rental_uris":{"android":"levelo://app?vid=c0b19bd6-5eeb-46f7-baa6-5a71a5aa4a16","ios":"levelo://app?vid=c0b19bd6-5eeb-46f7-baa6-5a71a5aa4a16"},"vehicle_type_id":"4","last_reported":1716743174,"current_range_meters":28400,"station_id":"","pricing_plan_id":"cebpf4jnsgd1na2vs0mg"},{"bike_id":"c456f866-b3e7-4301-8fc3-90c13219b920","system_id":"levelo_inurba_marseille","lat":43.3029,"lon":5.37346,"is_reserved":false,"is_disabled":false,"rental_uris":{"android":"levelo://app?vid=c456f866-b3e7-4301-8fc3-90c13219b920","ios":"levelo://app?vid=c456f866-b3e7-4301-8fc3-90c13219b920"},"vehicle_type_id":"4","last_reported":1716743174,"current_range_meters":8400,"station_id":"","pricing_plan_id":"cebpf4jnsgd1na2vs0mg"},{"bike_id":"ed38837c-dc88-46db-90f8-799b290a007b","system_id":"levelo_inurba_marseille","lat":43.30817,"lon":5.3815,"is_reserved":false,"is_disabled":false,"rental_uris":{"android":"levelo://app?vid=ed38837c-dc88-46db-90f8-799b290a007b","ios":"levelo://app?vid=ed38837c-dc88-46db-90f8-799b290a007b"},"vehicle_type_id":"4","last_reported":1716743174,"current_range_meters":23600,"station_id":"ce4bgt12rcd13ifvqce0","pricing_plan_id":"cebpf4jnsgd1na2vs0mg"},{"bike_id":"3c29a61e-df96-49ee-8098-00a2fd0c2a76","system_id":"levelo_inurba_marseille","lat":43.304606,"lon":5.379026,"is_reserved":false,"is_disabled":false,"rental_uris":{"android":"levelo://app?vid=3c29a61e-df96-49ee-8098-00a2fd0c2a76","ios":"levelo://app?vid=3c29a61e-df96-49ee-8098-00a2fd0c2a76"},"vehicle_type_id":"4","last_reported":1716743174,"current_range_meters":2000,"station_id":"ce4bgup2rcd13ifvqcn0","pricing_plan_id":"cebpf4jnsgd1na2vs0mg"},{"bike_id":"2eb25ca6-6c46-4097-97a1-0e357bdb9752","system_id":"levelo_inurba_marseille","lat":43.324771,"lon":5.36557,"is_reserved":false,"is_disabled":false,"rental_uris":{"android":"levelo://app?vid=2eb25ca6-6c46-4097-97a1-0e357bdb9752","ios":"levelo://app?vid=2eb25ca6-6c46-4097-97a1-0e357bdb9752"},"vehicle_type_id":"4","last_reported":1716743174,"current_range_meters":14400,"station_id":"ce4bhs12rcd13ifvqhvg","pricing_plan_id":"cebpf4jnsgd1na2vs0mg"},{"bike_id":"0ee5096a-1b94-4adf-a60e-8d98c5355d05","system_id":"levelo_inurba_marseille","lat":43.324771,"lon":5.36557,"is_reserved":false,"is_disabled":false,"rental_uris":{"android":"levelo://app?vid=0ee5096a-1b94-4adf-a60e-8d98c5355d05","ios":"levelo://app?vid=0ee5096a-1b94-4adf-a60e-8d98c5355d05"},"vehicle_type_id":"4","last_reported":1716743174,"current_range_meters":18800,"station_id":"ce4bhs12rcd13ifvqhvg","pricing_plan_id":"cebpf4jnsgd1na2vs0mg"},{"bike_id":"0fe1c741-31ef-4c42-ae4f-9fc5e42ec0c2","system_id":"levelo_inurba_marseille","lat":43.32479,"lon":5.36567,"is_reserved":false,"is_disabled":false,"rental_uris":{"android":"levelo://app?vid=0fe1c741-31ef-4c42-ae4f-9fc5e42ec0c2","ios":"levelo://app?vid=0fe1c741-31ef-4c42-ae4f-9fc5e42ec0c2"},"vehicle_type_id":"4","last_reported":1716743174,"current_range_meters":21200,"station_id":"ce4bhs12rcd13ifvqhvg","pricing_plan_id":"cebpf4jnsgd1na2vs0mg"},{"bike_id":"72ba4090-3817-4ac9-a00a-506384b53c7f","system_id":"levelo_inurba_marseille","lat":43.324814,"lon":5.365749,"is_reserved":false,"is_disabled":false,"rental_uris":{"android":"levelo://app?vid=72ba4090-3817-4ac9-a00a-506384b53c7f","ios":"levelo://app?vid=72ba4090-3817-4ac9-a00a-506384b53c7f"},"vehicle_type_id":"4","last_reported":1716743174,"current_range_meters":30000,"station_id":"ce4bhs12rcd13ifvqhvg","pricing_plan_id":"cebpf4jnsgd1na2vs0mg"},{"bike_id":"11afafd0-4eff-440f-850c-1e17bea26cdf","system_id":"levelo_inurba_marseille","lat":43.32483,"lon":5.36572,"is_reserved":false,"is_disabled":false,"rental_uris":{"android":"levelo://app?vid=11afafd0-4eff-440f-850c-1e17bea26cdf","ios":"levelo://app?vid=11afafd0-4eff-440f-850c-1e17bea26cdf"},"vehicle_type_id":"4","last_reported":1716743174,"current_range_meters":16800,"station_id":"ce4bhs12rcd13ifvqhvg","pricing_plan_id":"cebpf4jnsgd1na2vs0mg"},{"bike_id":"71a56a80-db24-465f-af67-8ee54602e2c2","system_id":"levelo_inurba_marseille","lat":43.324771,"lon":5.36557,"is_reserved":false,"is_disabled":false,"rental_uris":{"android":"levelo://app?vid=71a56a80-db24-465f-af67-8ee54602e2c2","ios":"levelo://app?vid=71a56a80-db24-465f-af67-8ee54602e2c2"},"vehicle_type_id":"4","last_reported":1716743174,"current_range_meters":16800,"station_id":"ce4bhs12rcd13ifvqhvg","pricing_plan_id":"cebpf4jnsgd1na2vs0mg"},{"bike_id":"16a20dad-8077-4e65-8e32-ca9793b69fd0","system_id":"levelo_inurba_marseille","lat":43.310804,"lon":5.38359,"is_reserved":false,"is_disabled":false,"rental_uris":{"android":"levelo://app?vid=16a20dad-8077-4e65-8e32-ca9793b69fd0","ios":"levelo://app?vid=16a20dad-8077-4e65-8e32-ca9793b69fd0"},"vehicle_type_id":"4","last_reported":1716743174,"current_range_meters":0,"station_id":"ce4bgv92rcd13ifvqcr0","pricing_plan_id":"cebpf4jnsgd1na2vs0mg"},{"bike_id":"996e7dbb-be0a-4f89-8066-38fcadb669d4","system_id":"levelo_inurba_marseille","lat":43.313571,"lon":5.384829,"is_reserved":false,"is_disabled":false,"rental_uris":{"android":"levelo://app?vid=996e7dbb-be0a-4f89-8066-38fcadb669d4","ios":"levelo://app?vid=996e7dbb-be0a-4f89-8066-38fcadb669d4"},"vehicle_type_id":"4","last_reported":1716743174,"current_range_meters":4000,"station_id":"ce4bgt92rcd13ifvqcf0","pricing_plan_id":"cebpf4jnsgd1na2vs0mg"},{"bike_id":"4e7f6071-5153-4217-8a86-3333a23062ef","system_id":"levelo_inurba_marseille","lat":43.31368,"lon":5.38491,"is_reserved":false,"is_disabled":false,"rental_uris":{"android":"levelo://app?vid=4e7f6071-5153-4217-8a86-3333a23062ef","ios":"levelo://app?vid=4e7f6071-5153-4217-8a86-3333a23062ef"},"vehicle_type_id":"4","last_reported":1716743174,"current_range_meters":0,"station_id":"ce4bgt92rcd13ifvqcf0","pricing_plan_id":"cebpf4jnsgd1na2vs0mg"},{"bike_id":"5584c838-44f7-4108-9877-4ebecce9a3a0","system_id":"levelo_inurba_marseille","lat":43.31361,"lon":5.38495,"is_reserved":false,"is_disabled":false,"rental_uris":{"android":"levelo://app?vid=5584c838-44f7-4108-9877-4ebecce9a3a0","ios":"levelo://app?vid=5584c838-44f7-4108-9877-4ebecce9a3a0"},"vehicle_type_id":"4","last_reported":1716743174,"current_range_meters":1200,"station_id":"ce4bgt92rcd13ifvqcf0","pricing_plan_id":"cebpf4jnsgd1na2vs0mg"},{"bike_id":"d8167c88-bb0c-4260-b549-dffd16dd02fa","system_id":"levelo_inurba_marseille","lat":43.31368,"lon":5.38496,"is_reserved":false,"is_disabled":false,"rental_uris":{"android":"levelo://app?vid=d8167c88-bb0c-4260-b549-dffd16dd02fa","ios":"levelo://app?vid=d8167c88-bb0c-4260-b549-dffd16dd02fa"},"vehicle_type_id":"4","last_reported":1716743174,"current_range_meters":4000,"station_id":"ce4bgt92rcd13ifvqcf0","pricing_plan_id":"cebpf4jnsgd1na2vs0mg"},{"bike_id":"28c1ad4d-e638-4973-b38c-7ee972105f01","system_id":"levelo_inurba_marseille","lat":43.299222,"lon":5.365554,"is_reserved":false,"is_disabled":false,"rental_uris":{"android":"levelo://app?vid=28c1ad4d-e638-4973-b38c-7ee972105f01","ios":"levelo://app?vid=28c1ad4d-e638-4973-b38c-7ee972105f01"},"vehicle_type_id":"4","last_reported":1716743174,"current_range_meters":31200,"station_id":"ce4bgm92rcd13ifvqbr0","pricing_plan_id":"cebpf4jnsgd1na2vs0mg"},{"bike_id":"0cd83fbf-0376-412c-bec8-035d6593ef69","system_id":"levelo_inurba_marseille","lat":43.299222,"lon":5.365554,"is_reserved":false,"is_disabled":false,"rental_uris":{"android":"levelo://app?vid=0cd83fbf-0376-412c-bec8-035d6593ef69","ios":"levelo://app?vid=0cd83fbf-0376-412c-bec8-035d6593ef69"},"vehicle_type_id":"4","last_reported":1716743174,"current_range_meters":16800,"station_id":"ce4bgm92rcd13ifvqbr0","pricing_plan_id":"cebpf4jnsgd1na2vs0mg"},{"bike_id":"8f1e5b84-9427-4651-9511-68f4bf75717a","system_id":"levelo_inurba_marseille","lat":43.29936,"lon":5.3655,"is_reserved":false,"is_disabled":false,"rental_uris":{"android":"levelo://app?vid=8f1e5b84-9427-4651-9511-68f4bf75717a","ios":"levelo://app?vid=8f1e5b84-9427-4651-9511-68f4bf75717a"},"vehicle_type_id":"4","last_reported":1716743174,"current_range_meters":18400,"station_id":"","pricing_plan_id":"cebpf4jnsgd1na2vs0mg"},{"bike_id":"3bb34a97-1b86-4f58-b553-b30fe638ed4e","system_id":"levelo_inurba_marseille","lat":43.299222,"lon":5.365554,"is_reserved":false,"is_disabled":false,"rental_uris":{"android":"levelo://app?vid=3bb34a97-1b86-4f58-b553-b30fe638ed4e","ios":"levelo://app?vid=3bb34a97-1b86-4f58-b553-b30fe638ed4e"},"vehicle_type_id":"4","last_reported":1716743174,"current_range_meters":7200,"station_id":"ce4bgm92rcd13ifvqbr0","pricing_plan_id":"cebpf4jnsgd1na2vs0mg"},{"bike_id":"334113d7-ff00-4baf-be0d-8ed3d2307c64","system_id":"levelo_inurba_marseille","lat":43.2998,"lon":5.37185,"is_reserved":false,"is_disabled":false,"rental_uris":{"android":"levelo://app?vid=334113d7-ff00-4baf-be0d-8ed3d2307c64","ios":"levelo://app?vid=334113d7-ff00-4baf-be0d-8ed3d2307c64"},"vehicle_type_id":"4","last_reported":1716743174,"current_range_meters":12000,"station_id":"ce4bgr92rcd13ifvqc7g","pricing_plan_id":"cebpf4jnsgd1na2vs0mg"},{"bike_id":"94e809a7-e6e8-467a-9816-ef4a763cd70c","system_id":"levelo_inurba_marseille","lat":43.299724,"lon":5.371829,"is_reserved":false,"is_disabled":false,"rental_uris":{"android":"levelo://app?vid=94e809a7-e6e8-467a-9816-ef4a763cd70c","ios":"levelo://app?vid=94e809a7-e6e8-467a-9816-ef4a763cd70c"},"vehicle_type_id":"4","last_reported":1716743174,"current_range_meters":18400,"station_id":"ce4bgr92rcd13ifvqc7g","pricing_plan_id":"cebpf4jnsgd1na2vs0mg"},{"bike_id":"4142ef5b-8b8a-4fd9-b5e7-2cff5b3ca733","system_id":"levelo_inurba_marseille","lat":43.298433,"lon":5.362774,"is_reserved":false,"is_disabled":false,"rental_uris":{"android":"levelo://app?vid=4142ef5b-8b8a-4fd9-b5e7-2cff5b3ca733","ios":"levelo://app?vid=4142ef5b-8b8a-4fd9-b5e7-2cff5b3ca733"},"vehicle_type_id":"4","last_reported":1716743174,"current_range_meters":0,"station_id":"ce4bgpp2rcd13ifvqc3g","pricing_plan_id":"cebpf4jnsgd1na2vs0mg"},{"bike_id":"7c0279c4-785e-41cc-9875-11b1aa5697b0","system_id":"levelo_inurba_marseille","lat":43.298433,"lon":5.362774,"is_reserved":false,"is_disabled":false,"rental_uris":{"android":"levelo://app?vid=7c0279c4-785e-41cc-9875-11b1aa5697b0","ios":"levelo://app?vid=7c0279c4-785e-41cc-9875-11b1aa5697b0"},"vehicle_type_id":"4","last_reported":1716743174,"current_range_meters":31200,"station_id":"ce4bgpp2rcd13ifvqc3g","pricing_plan_id":"cebpf4jnsgd1na2vs0mg"},{"bike_id":"e6c31fa2-13ef-4361-83a6-867b7ecec8b8","system_id":"levelo_inurba_marseille","lat":43.299243,"lon":5.37481,"is_reserved":false,"is_disabled":false,"rental_uris":{"android":"levelo://app?vid=e6c31fa2-13ef-4361-83a6-867b7ecec8b8","ios":"levelo://app?vid=e6c31fa2-13ef-4361-83a6-867b7ecec8b8"},"vehicle_type_id":"4","last_reported":1716743174,"current_range_meters":19200,"station_id":"ce4bgjh2rcd13ifvqbg0","pricing_plan_id":"cebpf4jnsgd1na2vs0mg"},{"bike_id":"51354bfb-b6f5-4b9b-97de-d809e5904bbc","system_id":"levelo_inurba_marseille","lat":43.30538,"lon":5.3843,"is_reserved":false,"is_disabled":false,"rental_uris":{"android":"levelo://app?vid=51354bfb-b6f5-4b9b-97de-d809e5904bbc","ios":"levelo://app?vid=51354bfb-b6f5-4b9b-97de-d809e5904bbc"},"vehicle_type_id":"4","last_reported":1716743174,"current_range_meters":0,"station_id":"ce4bgg92rcd13ifvqb30","pricing_plan_id":"cebpf4jnsgd1na2vs0mg"},{"bike_id":"f642ee01-4ac6-4d91-8e5b-e307ddfdba52","system_id":"levelo_inurba_marseille","lat":43.299243,"lon":5.374807,"is_reserved":false,"is_disabled":false,"rental_uris":{"android":"levelo://app?vid=f642ee01-4ac6-4d91-8e5b-e307ddfdba52","ios":"levelo://app?vid=f642ee01-4ac6-4d91-8e5b-e307ddfdba52"},"vehicle_type_id":"4","last_reported":1716743174,"current_range_meters":5600,"station_id":"ce4bgjh2rcd13ifvqbg0","pricing_plan_id":"cebpf4jnsgd1na2vs0mg"},{"bike_id":"c70d197d-6f1a-411a-8287-034ce7bb850a","system_id":"levelo_inurba_marseille","lat":43.31173,"lon":5.3871,"is_reserved":false,"is_disabled":false,"rental_uris":{"android":"levelo://app?vid=c70d197d-6f1a-411a-8287-034ce7bb850a","ios":"levelo://app?vid=c70d197d-6f1a-411a-8287-034ce7bb850a"},"vehicle_type_id":"4","last_reported":1716743174,"current_range_meters":0,"station_id":"ce4bgv12rcd13ifvqcp0","pricing_plan_id":"cebpf4jnsgd1na2vs0mg"},{"bike_id":"c8a738ef-c4ef-4b15-94ff-f7a9164cd262","system_id":"levelo_inurba_marseille","lat":43.311722,"lon":5.387247,"is_reserved":false,"is_disabled":false,"rental_uris":{"android":"levelo://app?vid=c8a738ef-c4ef-4b15-94ff-f7a9164cd262","ios":"levelo://app?vid=c8a738ef-c4ef-4b15-94ff-f7a9164cd262"},"vehicle_type_id":"4","last_reported":1716743174,"current_range_meters":400,"station_id":"ce4bgv12rcd13ifvqcp0","pricing_plan_id":"cebpf4jnsgd1na2vs0mg"},{"bike_id":"8c946721-df8d-408f-9cf6-c1fba4e58d2e","system_id":"levelo_inurba_marseille","lat":43.299243,"lon":5.37481,"is_reserved":false,"is_disabled":false,"rental_uris":{"android":"levelo://app?vid=8c946721-df8d-408f-9cf6-c1fba4e58d2e","ios":"levelo://app?vid=8c946721-df8d-408f-9cf6-c1fba4e58d2e"},"vehicle_type_id":"4","last_reported":1716743174,"current_range_meters":4800,"station_id":"ce4bgjh2rcd13ifvqbg0","pricing_plan_id":"cebpf4jnsgd1na2vs0mg"},{"bike_id":"8a3f0a2a-1bac-44e8-9dda-ba11879e2225","system_id":"levelo_inurba_marseille","lat":43.311722,"lon":5.387247,"is_reserved":false,"is_disabled":false,"rental_uris":{"android":"levelo://app?vid=8a3f0a2a-1bac-44e8-9dda-ba11879e2225","ios":"levelo://app?vid=8a3f0a2a-1bac-44e8-9dda-ba11879e2225"},"vehicle_type_id":"4","last_reported":1716743174,"current_range_meters":5600,"station_id":"ce4bgv12rcd13ifvqcp0","pricing_plan_id":"cebpf4jnsgd1na2vs0mg"},{"bike_id":"ed492a4e-944e-43b3-bd26-4581a8e6f7a8","system_id":"levelo_inurba_marseille","lat":43.297794,"lon":5.370888,"is_reserved":false,"is_disabled":false,"rental_uris":{"android":"levelo://app?vid=ed492a4e-944e-43b3-bd26-4581a8e6f7a8","ios":"levelo://app?vid=ed492a4e-944e-43b3-bd26-4581a8e6f7a8"},"vehicle_type_id":"4","last_reported":1716743174,"current_range_meters":30000,"station_id":"ce4bgop2rcd13ifvqc1g","pricing_plan_id":"cebpf4jnsgd1na2vs0mg"},{"bike_id":"ae08a4ec-d6fd-4aa5-b21a-b55f4db3f6e4","system_id":"levelo_inurba_marseille","lat":43.322872,"lon":5.382756,"is_reserved":false,"is_disabled":false,"rental_uris":{"android":"levelo://app?vid=ae08a4ec-d6fd-4aa5-b21a-b55f4db3f6e4","ios":"levelo://app?vid=ae08a4ec-d6fd-4aa5-b21a-b55f4db3f6e4"},"vehicle_type_id":"4","last_reported":1716743174,"current_range_meters":27600,"station_id":"ce4bhr12rcd13ifvqhqg","pricing_plan_id":"cebpf4jnsgd1na2vs0mg"},{"bike_id":"cd06316c-aaee-46f6-951e-b2468fac62be","system_id":"levelo_inurba_marseille","lat":43.29724,"lon":5.36865,"is_reserved":false,"is_disabled":false,"rental_uris":{"android":"levelo://app?vid=cd06316c-aaee-46f6-951e-b2468fac62be","ios":"levelo://app?vid=cd06316c-aaee-46f6-951e-b2468fac62be"},"vehicle_type_id":"4","last_reported":1716743174,"current_range_meters":0,"station_id":"ce4bhb92rcd13ifvqen0","pricing_plan_id":"cebpf4jnsgd1na2vs0mg"},{"bike_id":"9d4e3846-a7ba-4f27-850e-cce44d075cbc","system_id":"levelo_inurba_marseille","lat":43.297163,"lon":5.365866,"is_reserved":false,"is_disabled":false,"rental_uris":{"android":"levelo://app?vid=9d4e3846-a7ba-4f27-850e-cce44d075cbc","ios":"levelo://app?vid=9d4e3846-a7ba-4f27-850e-cce44d075cbc"},"vehicle_type_id":"4","last_reported":1716743174,"current_range_meters":31200,"station_id":"ce4bgn12rcd13ifvqbt0","pricing_plan_id":"cebpf4jnsgd1na2vs0mg"},{"bike_id":"a6080c32-9749-48aa-85a8-ac62047b7ab8","system_id":"levelo_inurba_marseille","lat":43.297163,"lon":5.365866,"is_reserved":false,"is_disabled":false,"rental_uris":{"android":"levelo://app?vid=a6080c32-9749-48aa-85a8-ac62047b7ab8","ios":"levelo://app?vid=a6080c32-9749-48aa-85a8-ac62047b7ab8"},"vehicle_type_id":"4","last_reported":1716743174,"current_range_meters":2000,"station_id":"ce4bgn12rcd13ifvqbt0","pricing_plan_id":"cebpf4jnsgd1na2vs0mg"},{"bike_id":"b0181dbd-d16d-4347-9382-b450da867146","system_id":"levelo_inurba_marseille","lat":43.29657,"lon":5.36162,"is_reserved":false,"is_disabled":false,"rental_uris":{"android":"levelo://app?vid=b0181dbd-d16d-4347-9382-b450da867146","ios":"levelo://app?vid=b0181dbd-d16d-4347-9382-b450da867146"},"vehicle_type_id":"4","last_reported":1716743174,"current_range_meters":4000,"station_id":"","pricing_plan_id":"cebpf4jnsgd1na2vs0mg"},{"bike_id":"9396bf11-653d-42c0-bead-0954ecfecfc3","system_id":"levelo_inurba_marseille","lat":43.296131,"lon":5.370791,"is_reserved":false,"is_disabled":false,"rental_uris":{"android":"levelo://app?vid=9396bf11-653d-42c0-bead-0954ecfecfc3","ios":"levelo://app?vid=9396bf11-653d-42c0-bead-0954ecfecfc3"},"vehicle_type_id":"4","last_reported":1716743174,"current_range_meters":6000,"station_id":"ce4bgnh2rcd13ifvqc0g","pricing_plan_id":"cebpf4jnsgd1na2vs0mg"},{"bike_id":"e6223cb1-d3d6-4112-a346-860124ba80f1","system_id":"levelo_inurba_marseille","lat":43.29573,"lon":5.367355,"is_reserved":false,"is_disabled":false,"rental_uris":{"android":"levelo://app?vid=e6223cb1-d3d6-4112-a346-860124ba80f1","ios":"levelo://app?vid=e6223cb1-d3d6-4112-a346-860124ba80f1"},"vehicle_type_id":"4","last_reported":1716743174,"current_range_meters":21200,"station_id":"ce4bgph2rcd13ifvqc2g","pricing_plan_id":"cebpf4jnsgd1na2vs0mg"},{"bike_id":"3ba616c9-1119-4bab-9484-c7aa51e7819a","system_id":"levelo_inurba_marseille","lat":43.29573,"lon":5.367355,"is_reserved":false,"is_disabled":false,"rental_uris":{"android":"levelo://app?vid=3ba616c9-1119-4bab-9484-c7aa51e7819a","ios":"levelo://app?vid=3ba616c9-1119-4bab-9484-c7aa51e7819a"},"vehicle_type_id":"4","last_reported":1716743174,"current_range_meters":14800,"station_id":"ce4bgph2rcd13ifvqc2g","pricing_plan_id":"cebpf4jnsgd1na2vs0mg"},{"bike_id":"db2d6ccd-5274-4a9e-8d2f-799a2122d693","system_id":"levelo_inurba_marseille","lat":43.299067,"lon":5.381316,"is_reserved":false,"is_disabled":false,"rental_uris":{"android":"levelo://app?vid=db2d6ccd-5274-4a9e-8d2f-799a2122d693","ios":"levelo://app?vid=db2d6ccd-5274-4a9e-8d2f-799a2122d693"},"vehicle_type_id":"4","last_reported":1716743174,"current_range_meters":23600,"station_id":"ce4bgj12rcd13ifvqbc0","pricing_plan_id":"cebpf4jnsgd1na2vs0mg"},{"bike_id":"adf7310f-d336-4c78-99d7-e00708d0586c","system_id":"levelo_inurba_marseille","lat":43.309589,"lon":5.390258,"is_reserved":false,"is_disabled":false,"rental_uris":{"android":"levelo://app?vid=adf7310f-d336-4c78-99d7-e00708d0586c","ios":"levelo://app?vid=adf7310f-d336-4c78-99d7-e00708d0586c"},"vehicle_type_id":"4","last_reported":1716743174,"current_range_meters":0,"station_id":"ce4bgup2rcd13ifvqco0","pricing_plan_id":"cebpf4jnsgd1na2vs0mg"},{"bike_id":"e55caace-d082-43da-aea0-247363114bf2","system_id":"levelo_inurba_marseille","lat":43.296935,"lon":5.376544,"is_reserved":false,"is_disabled":false,"rental_uris":{"android":"levelo://app?vid=e55caace-d082-43da-aea0-247363114bf2","ios":"levelo://app?vid=e55caace-d082-43da-aea0-247363114bf2"},"vehicle_type_id":"4","last_reported":1716743174,"current_range_meters":7600,"station_id":"ce4bgkh2rcd13ifvqbl0","pricing_plan_id":"cebpf4jnsgd1na2vs0mg"},{"bike_id":"56577985-8f15-45d1-b765-f1ee599030dd","system_id":"levelo_inurba_marseille","lat":43.317539,"lon":5.390284,"is_reserved":false,"is_disabled":false,"rental_uris":{"android":"levelo://app?vid=56577985-8f15-45d1-b765-f1ee599030dd","ios":"levelo://app?vid=56577985-8f15-45d1-b765-f1ee599030dd"},"vehicle_type_id":"4","last_reported":1716743174,"current_range_meters":0,"station_id":"ce4bhqp2rcd13ifvqhng","pricing_plan_id":"cebpf4jnsgd1na2vs0mg"},{"bike_id":"7e7aa56a-a0b1-4560-b019-a55f6a73c572","system_id":"levelo_inurba_marseille","lat":43.298037,"lon":5.381066,"is_reserved":false,"is_disabled":false,"rental_uris":{"android":"levelo://app?vid=7e7aa56a-a0b1-4560-b019-a55f6a73c572","ios":"levelo://app?vid=7e7aa56a-a0b1-4560-b019-a55f6a73c572"},"vehicle_type_id":"4","last_reported":1716743174,"current_range_meters":6000,"station_id":"ce4bgip2rcd13ifvqbb0","pricing_plan_id":"cebpf4jnsgd1na2vs0mg"},{"bike_id":"576da3d2-4d2c-489a-a8e4-4a37a30938b2","system_id":"levelo_inurba_marseille","lat":43.295748,"lon":5.37522,"is_reserved":false,"is_disabled":false,"rental_uris":{"android":"levelo://app?vid=576da3d2-4d2c-489a-a8e4-4a37a30938b2","ios":"levelo://app?vid=576da3d2-4d2c-489a-a8e4-4a37a30938b2"},"vehicle_type_id":"4","last_reported":1716743174,"current_range_meters":0,"station_id":"ce4bgh92rcd13ifvqb50","pricing_plan_id":"cebpf4jnsgd1na2vs0mg"},{"bike_id":"f89ee7ac-0eaf-4324-b0c2-a8edc74cf5f1","system_id":"levelo_inurba_marseille","lat":43.298037,"lon":5.381066,"is_reserved":false,"is_disabled":false,"rental_uris":{"android":"levelo://app?vid=f89ee7ac-0eaf-4324-b0c2-a8edc74cf5f1","ios":"levelo://app?vid=f89ee7ac-0eaf-4324-b0c2-a8edc74cf5f1"},"vehicle_type_id":"4","last_reported":1716743174,"current_range_meters":2800,"station_id":"ce4bgip2rcd13ifvqbb0","pricing_plan_id":"cebpf4jnsgd1na2vs0mg"},{"bike_id":"ff44051c-d3b8-417a-b9ed-a0b45dc18a1d","system_id":"levelo_inurba_marseille","lat":43.29793,"lon":5.38102,"is_reserved":false,"is_disabled":false,"rental_uris":{"android":"levelo://app?vid=ff44051c-d3b8-417a-b9ed-a0b45dc18a1d","ios":"levelo://app?vid=ff44051c-d3b8-417a-b9ed-a0b45dc18a1d"},"vehicle_type_id":"4","last_reported":1716743174,"current_range_meters":0,"station_id":"ce4bgip2rcd13ifvqbb0","pricing_plan_id":"cebpf4jnsgd1na2vs0mg"},{"bike_id":"5447ac1b-b876-41d8-bf37-d523ec9cdecb","system_id":"levelo_inurba_marseille","lat":43.298037,"lon":5.381066,"is_reserved":false,"is_disabled":false,"rental_uris":{"android":"levelo://app?vid=5447ac1b-b876-41d8-bf37-d523ec9cdecb","ios":"levelo://app?vid=5447ac1b-b876-41d8-bf37-d523ec9cdecb"},"vehicle_type_id":"4","last_reported":1716743174,"current_range_meters":10000,"station_id":"ce4bgip2rcd13ifvqbb0","pricing_plan_id":"cebpf4jnsgd1na2vs0mg"},{"bike_id":"c0a9f161-1197-4735-a035-ec278b1d7577","system_id":"levelo_inurba_marseille","lat":43.304278,"lon":5.388868,"is_reserved":false,"is_disabled":false,"rental_uris":{"android":"levelo://app?vid=c0a9f161-1197-4735-a035-ec278b1d7577","ios":"levelo://app?vid=c0a9f161-1197-4735-a035-ec278b1d7577"},"vehicle_type_id":"4","last_reported":1716743174,"current_range_meters":2000,"station_id":"ce4bgk12rcd13ifvqbi0","pricing_plan_id":"cebpf4jnsgd1na2vs0mg"},{"bike_id":"c7bb285f-b7a6-435b-8f0b-296c1243f51d","system_id":"levelo_inurba_marseille","lat":43.299028,"lon":5.381509,"is_reserved":false,"is_disabled":false,"rental_uris":{"android":"levelo://app?vid=c7bb285f-b7a6-435b-8f0b-296c1243f51d","ios":"levelo://app?vid=c7bb285f-b7a6-435b-8f0b-296c1243f51d"},"vehicle_type_id":"4","last_reported":1716743174,"current_range_meters":4000,"station_id":"ce4bgj12rcd13ifvqbc0","pricing_plan_id":"cebpf4jnsgd1na2vs0mg"},{"bike_id":"06e0abcd-59ed-45b4-a73f-005dfc454470","system_id":"levelo_inurba_marseille","lat":43.295748,"lon":5.37522,"is_reserved":false,"is_disabled":false,"rental_uris":{"android":"levelo://app?vid=06e0abcd-59ed-45b4-a73f-005dfc454470","ios":"levelo://app?vid=06e0abcd-59ed-45b4-a73f-005dfc454470"},"vehicle_type_id":"4","last_reported":1716743174,"current_range_meters":12400,"station_id":"ce4bgh92rcd13ifvqb50","pricing_plan_id":"cebpf4jnsgd1na2vs0mg"},{"bike_id":"bc7e2899-c3f7-46ce-abd6-0a59101477bb","system_id":"levelo_inurba_marseille","lat":43.295748,"lon":5.37522,"is_reserved":false,"is_disabled":false,"rental_uris":{"android":"levelo://app?vid=bc7e2899-c3f7-46ce-abd6-0a59101477bb","ios":"levelo://app?vid=bc7e2899-c3f7-46ce-abd6-0a59101477bb"},"vehicle_type_id":"4","last_reported":1716743174,"current_range_meters":5200,"station_id":"ce4bgh92rcd13ifvqb50","pricing_plan_id":"cebpf4jnsgd1na2vs0mg"},{"bike_id":"3675c692-2d5c-43a1-9077-c0203e7f384a","system_id":"levelo_inurba_marseille","lat":43.295748,"lon":5.37522,"is_reserved":false,"is_disabled":false,"rental_uris":{"android":"levelo://app?vid=3675c692-2d5c-43a1-9077-c0203e7f384a","ios":"levelo://app?vid=3675c692-2d5c-43a1-9077-c0203e7f384a"},"vehicle_type_id":"4","last_reported":1716743174,"current_range_meters":0,"station_id":"ce4bgh92rcd13ifvqb50","pricing_plan_id":"cebpf4jnsgd1na2vs0mg"},{"bike_id":"e0a7709e-7b20-45eb-bdea-2e785a7ad8ff","system_id":"levelo_inurba_marseille","lat":43.296277,"lon":5.377108,"is_reserved":false,"is_disabled":false,"rental_uris":{"android":"levelo://app?vid=e0a7709e-7b20-45eb-bdea-2e785a7ad8ff","ios":"levelo://app?vid=e0a7709e-7b20-45eb-bdea-2e785a7ad8ff"},"vehicle_type_id":"4","last_reported":1716743174,"current_range_meters":8000,"station_id":"ce4bgi92rcd13ifvqb90","pricing_plan_id":"cebpf4jnsgd1na2vs0mg"},{"bike_id":"0e565993-5f02-438d-98da-24d8e08e0ec5","system_id":"levelo_inurba_marseille","lat":43.296277,"lon":5.377108,"is_reserved":false,"is_disabled":false,"rental_uris":{"android":"levelo://app?vid=0e565993-5f02-438d-98da-24d8e08e0ec5","ios":"levelo://app?vid=0e565993-5f02-438d-98da-24d8e08e0ec5"},"vehicle_type_id":"4","last_reported":1716743174,"current_range_meters":26000,"station_id":"ce4bgi92rcd13ifvqb90","pricing_plan_id":"cebpf4jnsgd1na2vs0mg"},{"bike_id":"e5bc7047-b5be-4b74-91e4-6ac709563c8b","system_id":"levelo_inurba_marseille","lat":43.296277,"lon":5.377108,"is_reserved":false,"is_disabled":false,"rental_uris":{"android":"levelo://app?vid=e5bc7047-b5be-4b74-91e4-6ac709563c8b","ios":"levelo://app?vid=e5bc7047-b5be-4b74-91e4-6ac709563c8b"},"vehicle_type_id":"4","last_reported":1716743174,"current_range_meters":400,"station_id":"ce4bgi92rcd13ifvqb90","pricing_plan_id":"cebpf4jnsgd1na2vs0mg"},{"bike_id":"303e9599-d1f4-45e1-93f8-f7510817c6cc","system_id":"levelo_inurba_marseille","lat":43.295279,"lon":5.375048,"is_reserved":false,"is_disabled":false,"rental_uris":{"android":"levelo://app?vid=303e9599-d1f4-45e1-93f8-f7510817c6cc","ios":"levelo://app?vid=303e9599-d1f4-45e1-93f8-f7510817c6cc"},"vehicle_type_id":"4","last_reported":1716743174,"current_range_meters":4000,"station_id":"ce4bgkp2rcd13ifvqbmg","pricing_plan_id":"cebpf4jnsgd1na2vs0mg"},{"bike_id":"e0354cbd-1745-40d6-aa84-20dfc58b8812","system_id":"levelo_inurba_marseille","lat":43.299717,"lon":5.384845,"is_reserved":false,"is_disabled":false,"rental_uris":{"android":"levelo://app?vid=e0354cbd-1745-40d6-aa84-20dfc58b8812","ios":"levelo://app?vid=e0354cbd-1745-40d6-aa84-20dfc58b8812"},"vehicle_type_id":"4","last_reported":1716743174,"current_range_meters":0,"station_id":"ce4bgj92rcd13ifvqbd0","pricing_plan_id":"cebpf4jnsgd1na2vs0mg"},{"bike_id":"055658c1-52a8-439f-b3d4-0f36ba1ddd66","system_id":"levelo_inurba_marseille","lat":43.299717,"lon":5.384845,"is_reserved":false,"is_disabled":false,"rental_uris":{"android":"levelo://app?vid=055658c1-52a8-439f-b3d4-0f36ba1ddd66","ios":"levelo://app?vid=055658c1-52a8-439f-b3d4-0f36ba1ddd66"},"vehicle_type_id":"4","last_reported":1716743174,"current_range_meters":21600,"station_id":"ce4bgj92rcd13ifvqbd0","pricing_plan_id":"cebpf4jnsgd1na2vs0mg"},{"bike_id":"54c5b3f6-b907-4c26-9f69-586b5eb71db5","system_id":"levelo_inurba_marseille","lat":43.295994,"lon":5.377669,"is_reserved":false,"is_disabled":false,"rental_uris":{"android":"levelo://app?vid=54c5b3f6-b907-4c26-9f69-586b5eb71db5","ios":"levelo://app?vid=54c5b3f6-b907-4c26-9f69-586b5eb71db5"},"vehicle_type_id":"4","last_reported":1716743174,"current_range_meters":0,"station_id":"ce4bgi92rcd13ifvqb90","pricing_plan_id":"cebpf4jnsgd1na2vs0mg"},{"bike_id":"022d3ae2-4837-433d-acce-84a642a6da37","system_id":"levelo_inurba_marseille","lat":43.295279,"lon":5.375048,"is_reserved":false,"is_disabled":false,"rental_uris":{"android":"levelo://app?vid=022d3ae2-4837-433d-acce-84a642a6da37","ios":"levelo://app?vid=022d3ae2-4837-433d-acce-84a642a6da37"},"vehicle_type_id":"4","last_reported":1716743174,"current_range_meters":14800,"station_id":"ce4bgkp2rcd13ifvqbmg","pricing_plan_id":"cebpf4jnsgd1na2vs0mg"},{"bike_id":"5bc8e2c0-b17a-4b64-8ede-ecc086d0237a","system_id":"levelo_inurba_marseille","lat":43.299717,"lon":5.384845,"is_reserved":false,"is_disabled":false,"rental_uris":{"android":"levelo://app?vid=5bc8e2c0-b17a-4b64-8ede-ecc086d0237a","ios":"levelo://app?vid=5bc8e2c0-b17a-4b64-8ede-ecc086d0237a"},"vehicle_type_id":"4","last_reported":1716743174,"current_range_meters":3200,"station_id":"ce4bgj92rcd13ifvqbd0","pricing_plan_id":"cebpf4jnsgd1na2vs0mg"},{"bike_id":"85e30ab5-60f9-463c-be70-34ad478fe197","system_id":"levelo_inurba_marseille","lat":43.299654,"lon":5.384914,"is_reserved":false,"is_disabled":false,"rental_uris":{"android":"levelo://app?vid=85e30ab5-60f9-463c-be70-34ad478fe197","ios":"levelo://app?vid=85e30ab5-60f9-463c-be70-34ad478fe197"},"vehicle_type_id":"4","last_reported":1716743174,"current_range_meters":0,"station_id":"ce4bgj92rcd13ifvqbd0","pricing_plan_id":"cebpf4jnsgd1na2vs0mg"},{"bike_id":"d014cf3e-048b-41f0-8f75-4b7171a47831","system_id":"levelo_inurba_marseille","lat":43.299724,"lon":5.384848,"is_reserved":false,"is_disabled":false,"rental_uris":{"android":"levelo://app?vid=d014cf3e-048b-41f0-8f75-4b7171a47831","ios":"levelo://app?vid=d014cf3e-048b-41f0-8f75-4b7171a47831"},"vehicle_type_id":"4","last_reported":1716743174,"current_range_meters":31200,"station_id":"ce4bgj92rcd13ifvqbd0","pricing_plan_id":"cebpf4jnsgd1na2vs0mg"},{"bike_id":"f35a4190-2315-41a7-bc6b-2c83ca3c02d9","system_id":"levelo_inurba_marseille","lat":43.299717,"lon":5.384845,"is_reserved":false,"is_disabled":false,"rental_uris":{"android":"levelo://app?vid=f35a4190-2315-41a7-bc6b-2c83ca3c02d9","ios":"levelo://app?vid=f35a4190-2315-41a7-bc6b-2c83ca3c02d9"},"vehicle_type_id":"4","last_reported":1716743174,"current_range_meters":0,"station_id":"ce4bgj92rcd13ifvqbd0","pricing_plan_id":"cebpf4jnsgd1na2vs0mg"},{"bike_id":"ea5c8d42-c861-4802-a2ac-9f57d3bd183f","system_id":"levelo_inurba_marseille","lat":43.299717,"lon":5.384845,"is_reserved":false,"is_disabled":false,"rental_uris":{"android":"levelo://app?vid=ea5c8d42-c861-4802-a2ac-9f57d3bd183f","ios":"levelo://app?vid=ea5c8d42-c861-4802-a2ac-9f57d3bd183f"},"vehicle_type_id":"4","last_reported":1716743174,"current_range_meters":31200,"station_id":"ce4bgj92rcd13ifvqbd0","pricing_plan_id":"cebpf4jnsgd1na2vs0mg"},{"bike_id":"c0575632-84f6-4700-b51b-a0abbae667b6","system_id":"levelo_inurba_marseille","lat":43.29969,"lon":5.38503,"is_reserved":false,"is_disabled":false,"rental_uris":{"android":"levelo://app?vid=c0575632-84f6-4700-b51b-a0abbae667b6","ios":"levelo://app?vid=c0575632-84f6-4700-b51b-a0abbae667b6"},"vehicle_type_id":"4","last_reported":1716743174,"current_range_meters":0,"station_id":"ce4bgj92rcd13ifvqbd0","pricing_plan_id":"cebpf4jnsgd1na2vs0mg"},{"bike_id":"a26550ca-f0b6-441e-a619-1482dca21573","system_id":"levelo_inurba_marseille","lat":43.29966,"lon":5.38505,"is_reserved":false,"is_disabled":false,"rental_uris":{"android":"levelo://app?vid=a26550ca-f0b6-441e-a619-1482dca21573","ios":"levelo://app?vid=a26550ca-f0b6-441e-a619-1482dca21573"},"vehicle_type_id":"4","last_reported":1716743174,"current_range_meters":0,"station_id":"ce4bgj92rcd13ifvqbd0","pricing_plan_id":"cebpf4jnsgd1na2vs0mg"},{"bike_id":"ac2138f0-7d6b-44b6-bbe7-037e29f9dafe","system_id":"levelo_inurba_marseille","lat":43.29903,"lon":5.3848,"is_reserved":false,"is_disabled":false,"rental_uris":{"android":"levelo://app?vid=ac2138f0-7d6b-44b6-bbe7-037e29f9dafe","ios":"levelo://app?vid=ac2138f0-7d6b-44b6-bbe7-037e29f9dafe"},"vehicle_type_id":"4","last_reported":1716743174,"current_range_meters":17600,"station_id":"","pricing_plan_id":"cebpf4jnsgd1na2vs0mg"},{"bike_id":"d4139a08-8d1b-4822-b0c6-b6935f02ffbc","system_id":"levelo_inurba_marseille","lat":43.32367,"lon":5.388836,"is_reserved":false,"is_disabled":false,"rental_uris":{"android":"levelo://app?vid=d4139a08-8d1b-4822-b0c6-b6935f02ffbc","ios":"levelo://app?vid=d4139a08-8d1b-4822-b0c6-b6935f02ffbc"},"vehicle_type_id":"4","last_reported":1716743174,"current_range_meters":3600,"station_id":"ce4bhqp2rcd13ifvqhog","pricing_plan_id":"cebpf4jnsgd1na2vs0mg"},{"bike_id":"105cfdb5-f442-4410-a0ea-880c75d9503d","system_id":"levelo_inurba_marseille","lat":43.29602,"lon":5.381084,"is_reserved":false,"is_disabled":false,"rental_uris":{"android":"levelo://app?vid=105cfdb5-f442-4410-a0ea-880c75d9503d","ios":"levelo://app?vid=105cfdb5-f442-4410-a0ea-880c75d9503d"},"vehicle_type_id":"4","last_reported":1716743174,"current_range_meters":4400,"station_id":"ce4bgl12rcd13ifvqbo0","pricing_plan_id":"cebpf4jnsgd1na2vs0mg"},{"bike_id":"583fbba0-158a-45b9-8d9e-35c25933932e","system_id":"levelo_inurba_marseille","lat":43.29602,"lon":5.381084,"is_reserved":false,"is_disabled":false,"rental_uris":{"android":"levelo://app?vid=583fbba0-158a-45b9-8d9e-35c25933932e","ios":"levelo://app?vid=583fbba0-158a-45b9-8d9e-35c25933932e"},"vehicle_type_id":"4","last_reported":1716743174,"current_range_meters":8800,"station_id":"ce4bgl12rcd13ifvqbo0","pricing_plan_id":"cebpf4jnsgd1na2vs0mg"},{"bike_id":"bfb85f8d-9b8b-49eb-8ad9-085c2880b599","system_id":"levelo_inurba_marseille","lat":43.293259,"lon":5.371586,"is_reserved":false,"is_disabled":false,"rental_uris":{"android":"levelo://app?vid=bfb85f8d-9b8b-49eb-8ad9-085c2880b599","ios":"levelo://app?vid=bfb85f8d-9b8b-49eb-8ad9-085c2880b599"},"vehicle_type_id":"4","last_reported":1716743174,"current_range_meters":1600,"station_id":"ce4bgh92rcd13ifvqb40","pricing_plan_id":"cebpf4jnsgd1na2vs0mg"},{"bike_id":"6b9ddd07-6b14-426f-9015-b812dcbf15b6","system_id":"levelo_inurba_marseille","lat":43.293259,"lon":5.371586,"is_reserved":false,"is_disabled":false,"rental_uris":{"android":"levelo://app?vid=6b9ddd07-6b14-426f-9015-b812dcbf15b6","ios":"levelo://app?vid=6b9ddd07-6b14-426f-9015-b812dcbf15b6"},"vehicle_type_id":"4","last_reported":1716743174,"current_range_meters":3200,"station_id":"ce4bgh92rcd13ifvqb40","pricing_plan_id":"cebpf4jnsgd1na2vs0mg"},{"bike_id":"3375f088-e088-45ed-8d7e-97b06c51dba8","system_id":"levelo_inurba_marseille","lat":43.293249,"lon":5.371578,"is_reserved":false,"is_disabled":false,"rental_uris":{"android":"levelo://app?vid=3375f088-e088-45ed-8d7e-97b06c51dba8","ios":"levelo://app?vid=3375f088-e088-45ed-8d7e-97b06c51dba8"},"vehicle_type_id":"4","last_reported":1716743174,"current_range_meters":0,"station_id":"ce4bgh92rcd13ifvqb40","pricing_plan_id":"cebpf4jnsgd1na2vs0mg"},{"bike_id":"c910016d-82a7-4f57-8edb-d8c1dad379ae","system_id":"levelo_inurba_marseille","lat":43.292749,"lon":5.368398,"is_reserved":false,"is_disabled":false,"rental_uris":{"android":"levelo://app?vid=c910016d-82a7-4f57-8edb-d8c1dad379ae","ios":"levelo://app?vid=c910016d-82a7-4f57-8edb-d8c1dad379ae"},"vehicle_type_id":"4","last_reported":1716743174,"current_range_meters":1600,"station_id":"ce4bhbp2rcd13ifvqesg","pricing_plan_id":"cebpf4jnsgd1na2vs0mg"},{"bike_id":"887449d3-155b-4670-a4a4-a5aa89283be1","system_id":"levelo_inurba_marseille","lat":43.293009,"lon":5.374584,"is_reserved":false,"is_disabled":false,"rental_uris":{"android":"levelo://app?vid=887449d3-155b-4670-a4a4-a5aa89283be1","ios":"levelo://app?vid=887449d3-155b-4670-a4a4-a5aa89283be1"},"vehicle_type_id":"4","last_reported":1716743174,"current_range_meters":0,"station_id":"ce4bgi12rcd13ifvqb70","pricing_plan_id":"cebpf4jnsgd1na2vs0mg"},{"bike_id":"99c7392a-b513-4194-8f82-6bbf18f867ca","system_id":"levelo_inurba_marseille","lat":43.29303,"lon":5.37449,"is_reserved":false,"is_disabled":false,"rental_uris":{"android":"levelo://app?vid=99c7392a-b513-4194-8f82-6bbf18f867ca","ios":"levelo://app?vid=99c7392a-b513-4194-8f82-6bbf18f867ca"},"vehicle_type_id":"4","last_reported":1716743174,"current_range_meters":0,"station_id":"ce4bgi12rcd13ifvqb70","pricing_plan_id":"cebpf4jnsgd1na2vs0mg"},{"bike_id":"cc09a9a0-34c5-4217-a5de-9fab1fbc172b","system_id":"levelo_inurba_marseille","lat":43.29305,"lon":5.37461,"is_reserved":false,"is_disabled":false,"rental_uris":{"android":"levelo://app?vid=cc09a9a0-34c5-4217-a5de-9fab1fbc172b","ios":"levelo://app?vid=cc09a9a0-34c5-4217-a5de-9fab1fbc172b"},"vehicle_type_id":"4","last_reported":1716743174,"current_range_meters":0,"station_id":"ce4bgi12rcd13ifvqb70","pricing_plan_id":"cebpf4jnsgd1na2vs0mg"},{"bike_id":"b1d11864-db62-43f9-9dc3-314488886b3a","system_id":"levelo_inurba_marseille","lat":43.305994,"lon":5.393687,"is_reserved":false,"is_disabled":false,"rental_uris":{"android":"levelo://app?vid=b1d11864-db62-43f9-9dc3-314488886b3a","ios":"levelo://app?vid=b1d11864-db62-43f9-9dc3-314488886b3a"},"vehicle_type_id":"4","last_reported":1716743174,"current_range_meters":25200,"station_id":"ce4bh0p2rcd13ifvqd80","pricing_plan_id":"cebpf4jnsgd1na2vs0mg"},{"bike_id":"675bcb5d-8fbb-4335-9384-3b1f341df38e","system_id":"levelo_inurba_marseille","lat":43.305994,"lon":5.393687,"is_reserved":false,"is_disabled":false,"rental_uris":{"android":"levelo://app?vid=675bcb5d-8fbb-4335-9384-3b1f341df38e","ios":"levelo://app?vid=675bcb5d-8fbb-4335-9384-3b1f341df38e"},"vehicle_type_id":"4","last_reported":1716743174,"current_range_meters":400,"station_id":"ce4bh0p2rcd13ifvqd80","pricing_plan_id":"cebpf4jnsgd1na2vs0mg"},{"bike_id":"feea34e5-f519-4ca2-a1e5-a02afd2f108c","system_id":"levelo_inurba_marseille","lat":43.305994,"lon":5.393687,"is_reserved":false,"is_disabled":false,"rental_uris":{"android":"levelo://app?vid=feea34e5-f519-4ca2-a1e5-a02afd2f108c","ios":"levelo://app?vid=feea34e5-f519-4ca2-a1e5-a02afd2f108c"},"vehicle_type_id":"4","last_reported":1716743174,"current_range_meters":0,"station_id":"ce4bh0p2rcd13ifvqd80","pricing_plan_id":"cebpf4jnsgd1na2vs0mg"},{"bike_id":"b9ee9198-fbbf-4b86-bf76-94d22b72aa05","system_id":"levelo_inurba_marseille","lat":43.303002,"lon":5.392142,"is_reserved":false,"is_disabled":false,"rental_uris":{"android":"levelo://app?vid=b9ee9198-fbbf-4b86-bf76-94d22b72aa05","ios":"levelo://app?vid=b9ee9198-fbbf-4b86-bf76-94d22b72aa05"},"vehicle_type_id":"4","last_reported":1716743174,"current_range_meters":3200,"station_id":"ce4bgkh2rcd13ifvqbk0","pricing_plan_id":"cebpf4jnsgd1na2vs0mg"},{"bike_id":"41073118-d6ed-402d-998d-005ac7da1002","system_id":"levelo_inurba_marseille","lat":43.302983,"lon":5.392037,"is_reserved":false,"is_disabled":false,"rental_uris":{"android":"levelo://app?vid=41073118-d6ed-402d-998d-005ac7da1002","ios":"levelo://app?vid=41073118-d6ed-402d-998d-005ac7da1002"},"vehicle_type_id":"4","last_reported":1716743174,"current_range_meters":0,"station_id":"ce4bgkh2rcd13ifvqbk0","pricing_plan_id":"cebpf4jnsgd1na2vs0mg"},{"bike_id":"ad847d84-7fa8-44d3-b302-d35833c56e6b","system_id":"levelo_inurba_marseille","lat":43.2936,"lon":5.37835,"is_reserved":false,"is_disabled":false,"rental_uris":{"android":"levelo://app?vid=ad847d84-7fa8-44d3-b302-d35833c56e6b","ios":"levelo://app?vid=ad847d84-7fa8-44d3-b302-d35833c56e6b"},"vehicle_type_id":"4","last_reported":1716743174,"current_range_meters":0,"station_id":"ce4bgjh2rcd13ifvqbf0","pricing_plan_id":"cebpf4jnsgd1na2vs0mg"},{"bike_id":"aebb166a-e183-4c3a-ac1f-cb1666124b03","system_id":"levelo_inurba_marseille","lat":43.302992,"lon":5.392136,"is_reserved":false,"is_disabled":false,"rental_uris":{"android":"levelo://app?vid=aebb166a-e183-4c3a-ac1f-cb1666124b03","ios":"levelo://app?vid=aebb166a-e183-4c3a-ac1f-cb1666124b03"},"vehicle_type_id":"4","last_reported":1716743174,"current_range_meters":1200,"station_id":"ce4bgkh2rcd13ifvqbk0","pricing_plan_id":"cebpf4jnsgd1na2vs0mg"},{"bike_id":"d4017166-a62a-41d2-bd00-181b75404ca5","system_id":"levelo_inurba_marseille","lat":43.2936,"lon":5.37835,"is_reserved":false,"is_disabled":false,"rental_uris":{"android":"levelo://app?vid=d4017166-a62a-41d2-bd00-181b75404ca5","ios":"levelo://app?vid=d4017166-a62a-41d2-bd00-181b75404ca5"},"vehicle_type_id":"4","last_reported":1716743174,"current_range_meters":0,"station_id":"ce4bgjh2rcd13ifvqbf0","pricing_plan_id":"cebpf4jnsgd1na2vs0mg"},{"bike_id":"cd2ab431-ba12-401d-bb01-8753b60e97f1","system_id":"levelo_inurba_marseille","lat":43.29602,"lon":5.381084,"is_reserved":false,"is_disabled":false,"rental_uris":{"android":"levelo://app?vid=cd2ab431-ba12-401d-bb01-8753b60e97f1","ios":"levelo://app?vid=cd2ab431-ba12-401d-bb01-8753b60e97f1"},"vehicle_type_id":"4","last_reported":1716743174,"current_range_meters":11200,"station_id":"ce4bgl12rcd13ifvqbo0","pricing_plan_id":"cebpf4jnsgd1na2vs0mg"},{"bike_id":"6dc39f86-46fe-4cf0-8212-f58c74749b6f","system_id":"levelo_inurba_marseille","lat":43.2936,"lon":5.37835,"is_reserved":false,"is_disabled":false,"rental_uris":{"android":"levelo://app?vid=6dc39f86-46fe-4cf0-8212-f58c74749b6f","ios":"levelo://app?vid=6dc39f86-46fe-4cf0-8212-f58c74749b6f"},"vehicle_type_id":"4","last_reported":1716743174,"current_range_meters":24800,"station_id":"ce4bgjh2rcd13ifvqbf0","pricing_plan_id":"cebpf4jnsgd1na2vs0mg"},{"bike_id":"97d3e695-4239-471e-b292-195e7970edc1","system_id":"levelo_inurba_marseille","lat":43.2936,"lon":5.37835,"is_reserved":false,"is_disabled":false,"rental_uris":{"android":"levelo://app?vid=97d3e695-4239-471e-b292-195e7970edc1","ios":"levelo://app?vid=97d3e695-4239-471e-b292-195e7970edc1"},"vehicle_type_id":"4","last_reported":1716743174,"current_range_meters":13600,"station_id":"ce4bgjh2rcd13ifvqbf0","pricing_plan_id":"cebpf4jnsgd1na2vs0mg"},{"bike_id":"d58775a4-5869-4413-83ea-9a5dd4949633","system_id":"levelo_inurba_marseille","lat":43.2936,"lon":5.37835,"is_reserved":false,"is_disabled":false,"rental_uris":{"android":"levelo://app?vid=d58775a4-5869-4413-83ea-9a5dd4949633","ios":"levelo://app?vid=d58775a4-5869-4413-83ea-9a5dd4949633"},"vehicle_type_id":"4","last_reported":1716743174,"current_range_meters":4800,"station_id":"ce4bgjh2rcd13ifvqbf0","pricing_plan_id":"cebpf4jnsgd1na2vs0mg"},{"bike_id":"f49a5926-2f07-4b8a-ac57-97c3101e7af6","system_id":"levelo_inurba_marseille","lat":43.2936,"lon":5.37835,"is_reserved":false,"is_disabled":false,"rental_uris":{"android":"levelo://app?vid=f49a5926-2f07-4b8a-ac57-97c3101e7af6","ios":"levelo://app?vid=f49a5926-2f07-4b8a-ac57-97c3101e7af6"},"vehicle_type_id":"4","last_reported":1716743174,"current_range_meters":800,"station_id":"ce4bgjh2rcd13ifvqbf0","pricing_plan_id":"cebpf4jnsgd1na2vs0mg"},{"bike_id":"072d6801-9a8e-40ce-b1a0-263ca05df50f","system_id":"levelo_inurba_marseille","lat":43.2936,"lon":5.37835,"is_reserved":false,"is_disabled":false,"rental_uris":{"android":"levelo://app?vid=072d6801-9a8e-40ce-b1a0-263ca05df50f","ios":"levelo://app?vid=072d6801-9a8e-40ce-b1a0-263ca05df50f"},"vehicle_type_id":"4","last_reported":1716743174,"current_range_meters":12800,"station_id":"ce4bgjh2rcd13ifvqbf0","pricing_plan_id":"cebpf4jnsgd1na2vs0mg"},{"bike_id":"0024b51c-37a3-4c72-9ae3-57543c40001e","system_id":"levelo_inurba_marseille","lat":43.2936,"lon":5.37835,"is_reserved":false,"is_disabled":false,"rental_uris":{"android":"levelo://app?vid=0024b51c-37a3-4c72-9ae3-57543c40001e","ios":"levelo://app?vid=0024b51c-37a3-4c72-9ae3-57543c40001e"},"vehicle_type_id":"4","last_reported":1716743174,"current_range_meters":1600,"station_id":"ce4bgjh2rcd13ifvqbf0","pricing_plan_id":"cebpf4jnsgd1na2vs0mg"},{"bike_id":"b3373a79-b049-49e8-8636-d3b258f72bf6","system_id":"levelo_inurba_marseille","lat":43.295279,"lon":5.375048,"is_reserved":false,"is_disabled":false,"rental_uris":{"android":"levelo://app?vid=b3373a79-b049-49e8-8636-d3b258f72bf6","ios":"levelo://app?vid=b3373a79-b049-49e8-8636-d3b258f72bf6"},"vehicle_type_id":"4","last_reported":1716743174,"current_range_meters":0,"station_id":"ce4bgkp2rcd13ifvqbmg","pricing_plan_id":"cebpf4jnsgd1na2vs0mg"},{"bike_id":"91d72808-6436-43c5-8a45-56b888a5716c","system_id":"levelo_inurba_marseille","lat":43.29225,"lon":5.36052,"is_reserved":false,"is_disabled":false,"rental_uris":{"android":"levelo://app?vid=91d72808-6436-43c5-8a45-56b888a5716c","ios":"levelo://app?vid=91d72808-6436-43c5-8a45-56b888a5716c"},"vehicle_type_id":"4","last_reported":1716743174,"current_range_meters":0,"station_id":"ce4bhbh2rcd13ifvqeqg","pricing_plan_id":"cebpf4jnsgd1na2vs0mg"},{"bike_id":"c6ed20b1-dbdf-4af9-bbc0-f8c9f4e9e7b5","system_id":"levelo_inurba_marseille","lat":43.29218,"lon":5.36047,"is_reserved":false,"is_disabled":false,"rental_uris":{"android":"levelo://app?vid=c6ed20b1-dbdf-4af9-bbc0-f8c9f4e9e7b5","ios":"levelo://app?vid=c6ed20b1-dbdf-4af9-bbc0-f8c9f4e9e7b5"},"vehicle_type_id":"4","last_reported":1716743174,"current_range_meters":0,"station_id":"ce4bhbh2rcd13ifvqeqg","pricing_plan_id":"cebpf4jnsgd1na2vs0mg"},{"bike_id":"596799ad-69a1-4ebe-9e43-4aa83d0050cc","system_id":"levelo_inurba_marseille","lat":43.304296,"lon":5.397513,"is_reserved":false,"is_disabled":false,"rental_uris":{"android":"levelo://app?vid=596799ad-69a1-4ebe-9e43-4aa83d0050cc","ios":"levelo://app?vid=596799ad-69a1-4ebe-9e43-4aa83d0050cc"},"vehicle_type_id":"4","last_reported":1716743174,"current_range_meters":6800,"station_id":"ce4bh092rcd13ifvqd20","pricing_plan_id":"cebpf4jnsgd1na2vs0mg"},{"bike_id":"4e822c66-d799-418b-af6b-05b88db76ee9","system_id":"levelo_inurba_marseille","lat":43.3008,"lon":5.39097,"is_reserved":false,"is_disabled":false,"rental_uris":{"android":"levelo://app?vid=4e822c66-d799-418b-af6b-05b88db76ee9","ios":"levelo://app?vid=4e822c66-d799-418b-af6b-05b88db76ee9"},"vehicle_type_id":"4","last_reported":1716743174,"current_range_meters":10400,"station_id":"ce4bh192rcd13ifvqdb0","pricing_plan_id":"cebpf4jnsgd1na2vs0mg"},{"bike_id":"59d41c56-c3d1-4714-9dce-b0088233e19b","system_id":"levelo_inurba_marseille","lat":43.298764,"lon":5.388973,"is_reserved":false,"is_disabled":false,"rental_uris":{"android":"levelo://app?vid=59d41c56-c3d1-4714-9dce-b0088233e19b","ios":"levelo://app?vid=59d41c56-c3d1-4714-9dce-b0088233e19b"},"vehicle_type_id":"4","last_reported":1716743174,"current_range_meters":22000,"station_id":"ce4bh392rcd13ifvqdl0","pricing_plan_id":"cebpf4jnsgd1na2vs0mg"},{"bike_id":"730fc128-14b2-407a-88e8-2d4c188ff4d5","system_id":"levelo_inurba_marseille","lat":43.291675,"lon":5.371583,"is_reserved":false,"is_disabled":false,"rental_uris":{"android":"levelo://app?vid=730fc128-14b2-407a-88e8-2d4c188ff4d5","ios":"levelo://app?vid=730fc128-14b2-407a-88e8-2d4c188ff4d5"},"vehicle_type_id":"4","last_reported":1716743174,"current_range_meters":4400,"station_id":"ce4bha92rcd13ifvqeh0","pricing_plan_id":"cebpf4jnsgd1na2vs0mg"},{"bike_id":"e4a612ea-4b3c-458d-aff2-77c07ad50633","system_id":"levelo_inurba_marseille","lat":43.298764,"lon":5.388973,"is_reserved":false,"is_disabled":false,"rental_uris":{"android":"levelo://app?vid=e4a612ea-4b3c-458d-aff2-77c07ad50633","ios":"levelo://app?vid=e4a612ea-4b3c-458d-aff2-77c07ad50633"},"vehicle_type_id":"4","last_reported":1716743174,"current_range_meters":8000,"station_id":"ce4bh392rcd13ifvqdl0","pricing_plan_id":"cebpf4jnsgd1na2vs0mg"},{"bike_id":"e6f26cd0-c66d-449d-90d2-660c00a037f6","system_id":"levelo_inurba_marseille","lat":43.291912,"lon":5.357972,"is_reserved":false,"is_disabled":false,"rental_uris":{"android":"levelo://app?vid=e6f26cd0-c66d-449d-90d2-660c00a037f6","ios":"levelo://app?vid=e6f26cd0-c66d-449d-90d2-660c00a037f6"},"vehicle_type_id":"4","last_reported":1716743174,"current_range_meters":0,"station_id":"ce4bhb12rcd13ifvqel0","pricing_plan_id":"cebpf4jnsgd1na2vs0mg"},{"bike_id":"19d85404-1e18-4bbf-8ec0-057c6a7f3c57","system_id":"levelo_inurba_marseille","lat":43.291994,"lon":5.357886,"is_reserved":false,"is_disabled":false,"rental_uris":{"android":"levelo://app?vid=19d85404-1e18-4bbf-8ec0-057c6a7f3c57","ios":"levelo://app?vid=19d85404-1e18-4bbf-8ec0-057c6a7f3c57"},"vehicle_type_id":"4","last_reported":1716743174,"current_range_meters":0,"station_id":"ce4bhb12rcd13ifvqel0","pricing_plan_id":"cebpf4jnsgd1na2vs0mg"},{"bike_id":"83e3dbe3-ba88-4ef5-9ff0-85eaa88435c0","system_id":"levelo_inurba_marseille","lat":43.309038,"lon":5.396546,"is_reserved":false,"is_disabled":false,"rental_uris":{"android":"levelo://app?vid=83e3dbe3-ba88-4ef5-9ff0-85eaa88435c0","ios":"levelo://app?vid=83e3dbe3-ba88-4ef5-9ff0-85eaa88435c0"},"vehicle_type_id":"4","last_reported":1716743174,"current_range_meters":5200,"station_id":"ce4bh012rcd13ifvqcv0","pricing_plan_id":"cebpf4jnsgd1na2vs0mg"},{"bike_id":"c2d34f00-eb92-4c64-86a1-48fce738c365","system_id":"levelo_inurba_marseille","lat":43.309038,"lon":5.396546,"is_reserved":false,"is_disabled":false,"rental_uris":{"android":"levelo://app?vid=c2d34f00-eb92-4c64-86a1-48fce738c365","ios":"levelo://app?vid=c2d34f00-eb92-4c64-86a1-48fce738c365"},"vehicle_type_id":"4","last_reported":1716743174,"current_range_meters":1200,"station_id":"ce4bh012rcd13ifvqcv0","pricing_plan_id":"cebpf4jnsgd1na2vs0mg"},{"bike_id":"98fc1215-a0a3-4626-94aa-3edd58a8a1b0","system_id":"levelo_inurba_marseille","lat":43.313291,"lon":5.396838,"is_reserved":false,"is_disabled":false,"rental_uris":{"android":"levelo://app?vid=98fc1215-a0a3-4626-94aa-3edd58a8a1b0","ios":"levelo://app?vid=98fc1215-a0a3-4626-94aa-3edd58a8a1b0"},"vehicle_type_id":"4","last_reported":1716743174,"current_range_meters":6000,"station_id":"ce4bgvp2rcd13ifvqcu0","pricing_plan_id":"cebpf4jnsgd1na2vs0mg"},{"bike_id":"4db385a3-3287-4357-a686-ed347404ccb7","system_id":"levelo_inurba_marseille","lat":43.309038,"lon":5.396546,"is_reserved":false,"is_disabled":false,"rental_uris":{"android":"levelo://app?vid=4db385a3-3287-4357-a686-ed347404ccb7","ios":"levelo://app?vid=4db385a3-3287-4357-a686-ed347404ccb7"},"vehicle_type_id":"4","last_reported":1716743174,"current_range_meters":16400,"station_id":"ce4bh012rcd13ifvqcv0","pricing_plan_id":"cebpf4jnsgd1na2vs0mg"},{"bike_id":"569cec22-96de-4ced-9ee0-529d37be8c36","system_id":"levelo_inurba_marseille","lat":43.29538,"lon":5.38547,"is_reserved":false,"is_disabled":false,"rental_uris":{"android":"levelo://app?vid=569cec22-96de-4ced-9ee0-529d37be8c36","ios":"levelo://app?vid=569cec22-96de-4ced-9ee0-529d37be8c36"},"vehicle_type_id":"4","last_reported":1716743174,"current_range_meters":1600,"station_id":"ce4bgih2rcd13ifvqba0","pricing_plan_id":"cebpf4jnsgd1na2vs0mg"},{"bike_id":"21229f28-1100-43f8-8d4b-8d20b32d4def","system_id":"levelo_inurba_marseille","lat":43.313291,"lon":5.396838,"is_reserved":false,"is_disabled":false,"rental_uris":{"android":"levelo://app?vid=21229f28-1100-43f8-8d4b-8d20b32d4def","ios":"levelo://app?vid=21229f28-1100-43f8-8d4b-8d20b32d4def"},"vehicle_type_id":"4","last_reported":1716743174,"current_range_meters":12800,"station_id":"ce4bgvp2rcd13ifvqcu0","pricing_plan_id":"cebpf4jnsgd1na2vs0mg"},{"bike_id":"4c22a0c6-af55-47e3-9ac8-f6cb8a5b6efe","system_id":"levelo_inurba_marseille","lat":43.29528,"lon":5.38541,"is_reserved":false,"is_disabled":false,"rental_uris":{"android":"levelo://app?vid=4c22a0c6-af55-47e3-9ac8-f6cb8a5b6efe","ios":"levelo://app?vid=4c22a0c6-af55-47e3-9ac8-f6cb8a5b6efe"},"vehicle_type_id":"4","last_reported":1716743174,"current_range_meters":0,"station_id":"ce4bgih2rcd13ifvqba0","pricing_plan_id":"cebpf4jnsgd1na2vs0mg"},{"bike_id":"6017787b-e7df-4793-8ae6-7e5b2c4cbf36","system_id":"levelo_inurba_marseille","lat":43.294153,"lon":5.386305,"is_reserved":false,"is_disabled":false,"rental_uris":{"android":"levelo://app?vid=6017787b-e7df-4793-8ae6-7e5b2c4cbf36","ios":"levelo://app?vid=6017787b-e7df-4793-8ae6-7e5b2c4cbf36"},"vehicle_type_id":"4","last_reported":1716743174,"current_range_meters":14000,"station_id":"ce4bh2h2rcd13ifvqdh0","pricing_plan_id":"cebpf4jnsgd1na2vs0mg"},{"bike_id":"1046c67d-5866-4c9d-8035-665da38357f8","system_id":"levelo_inurba_marseille","lat":43.290624,"lon":5.359245,"is_reserved":false,"is_disabled":false,"rental_uris":{"android":"levelo://app?vid=1046c67d-5866-4c9d-8035-665da38357f8","ios":"levelo://app?vid=1046c67d-5866-4c9d-8035-665da38357f8"},"vehicle_type_id":"4","last_reported":1716743174,"current_range_meters":14400,"station_id":"ce4bha92rcd13ifvqeg0","pricing_plan_id":"cebpf4jnsgd1na2vs0mg"},{"bike_id":"960c698b-3327-4e98-abcf-ca3362e2dbd5","system_id":"levelo_inurba_marseille","lat":43.290624,"lon":5.359245,"is_reserved":false,"is_disabled":false,"rental_uris":{"android":"levelo://app?vid=960c698b-3327-4e98-abcf-ca3362e2dbd5","ios":"levelo://app?vid=960c698b-3327-4e98-abcf-ca3362e2dbd5"},"vehicle_type_id":"4","last_reported":1716743174,"current_range_meters":2400,"station_id":"ce4bha92rcd13ifvqeg0","pricing_plan_id":"cebpf4jnsgd1na2vs0mg"},{"bike_id":"68d5eb1d-abda-4298-b3dc-53b790a45aa6","system_id":"levelo_inurba_marseille","lat":43.290624,"lon":5.359245,"is_reserved":false,"is_disabled":false,"rental_uris":{"android":"levelo://app?vid=68d5eb1d-abda-4298-b3dc-53b790a45aa6","ios":"levelo://app?vid=68d5eb1d-abda-4298-b3dc-53b790a45aa6"},"vehicle_type_id":"4","last_reported":1716743174,"current_range_meters":26800,"station_id":"ce4bha92rcd13ifvqeg0","pricing_plan_id":"cebpf4jnsgd1na2vs0mg"},{"bike_id":"b7f24a60-e6ea-42b1-8771-9b9c89a7da2c","system_id":"levelo_inurba_marseille","lat":43.294153,"lon":5.386305,"is_reserved":false,"is_disabled":false,"rental_uris":{"android":"levelo://app?vid=b7f24a60-e6ea-42b1-8771-9b9c89a7da2c","ios":"levelo://app?vid=b7f24a60-e6ea-42b1-8771-9b9c89a7da2c"},"vehicle_type_id":"4","last_reported":1716743174,"current_range_meters":1600,"station_id":"ce4bh2h2rcd13ifvqdh0","pricing_plan_id":"cebpf4jnsgd1na2vs0mg"},{"bike_id":"119f4f29-89d6-4cac-85fc-de592dc0c769","system_id":"levelo_inurba_marseille","lat":43.2895,"lon":5.36628,"is_reserved":false,"is_disabled":false,"rental_uris":{"android":"levelo://app?vid=119f4f29-89d6-4cac-85fc-de592dc0c769","ios":"levelo://app?vid=119f4f29-89d6-4cac-85fc-de592dc0c769"},"vehicle_type_id":"4","last_reported":1716743174,"current_range_meters":0,"station_id":"ce4bhap2rcd13ifvqek0","pricing_plan_id":"cebpf4jnsgd1na2vs0mg"},{"bike_id":"070a00e4-77ca-4210-bba7-93caae2d17da","system_id":"levelo_inurba_marseille","lat":43.289184,"lon":5.366408,"is_reserved":false,"is_disabled":false,"rental_uris":{"android":"levelo://app?vid=070a00e4-77ca-4210-bba7-93caae2d17da","ios":"levelo://app?vid=070a00e4-77ca-4210-bba7-93caae2d17da"},"vehicle_type_id":"4","last_reported":1716743174,"current_range_meters":4000,"station_id":"ce4bhap2rcd13ifvqek0","pricing_plan_id":"cebpf4jnsgd1na2vs0mg"},{"bike_id":"ce258648-4c7f-4f28-83b1-1c0ec7e7a722","system_id":"levelo_inurba_marseille","lat":43.289423,"lon":5.36639,"is_reserved":false,"is_disabled":false,"rental_uris":{"android":"levelo://app?vid=ce258648-4c7f-4f28-83b1-1c0ec7e7a722","ios":"levelo://app?vid=ce258648-4c7f-4f28-83b1-1c0ec7e7a722"},"vehicle_type_id":"4","last_reported":1716743174,"current_range_meters":0,"station_id":"ce4bhap2rcd13ifvqek0","pricing_plan_id":"cebpf4jnsgd1na2vs0mg"},{"bike_id":"495270ec-2d4d-45d3-93cd-c6621ac61af6","system_id":"levelo_inurba_marseille","lat":43.289184,"lon":5.366408,"is_reserved":false,"is_disabled":false,"rental_uris":{"android":"levelo://app?vid=495270ec-2d4d-45d3-93cd-c6621ac61af6","ios":"levelo://app?vid=495270ec-2d4d-45d3-93cd-c6621ac61af6"},"vehicle_type_id":"4","last_reported":1716743174,"current_range_meters":10800,"station_id":"ce4bhap2rcd13ifvqek0","pricing_plan_id":"cebpf4jnsgd1na2vs0mg"},{"bike_id":"1d282037-0d77-474b-96bf-ed785ce15c4e","system_id":"levelo_inurba_marseille","lat":43.29573,"lon":5.367355,"is_reserved":false,"is_disabled":false,"rental_uris":{"android":"levelo://app?vid=1d282037-0d77-474b-96bf-ed785ce15c4e","ios":"levelo://app?vid=1d282037-0d77-474b-96bf-ed785ce15c4e"},"vehicle_type_id":"4","last_reported":1716743174,"current_range_meters":0,"station_id":"ce4bgph2rcd13ifvqc2g","pricing_plan_id":"cebpf4jnsgd1na2vs0mg"},{"bike_id":"02c831b5-fb29-4aef-9393-6adce890142c","system_id":"levelo_inurba_marseille","lat":43.294162,"lon":5.386292,"is_reserved":false,"is_disabled":false,"rental_uris":{"android":"levelo://app?vid=02c831b5-fb29-4aef-9393-6adce890142c","ios":"levelo://app?vid=02c831b5-fb29-4aef-9393-6adce890142c"},"vehicle_type_id":"4","last_reported":1716743174,"current_range_meters":0,"station_id":"ce4bh2h2rcd13ifvqdh0","pricing_plan_id":"cebpf4jnsgd1na2vs0mg"},{"bike_id":"393f51c1-32fb-456f-9b72-e9981790d61a","system_id":"levelo_inurba_marseille","lat":43.289184,"lon":5.366408,"is_reserved":false,"is_disabled":false,"rental_uris":{"android":"levelo://app?vid=393f51c1-32fb-456f-9b72-e9981790d61a","ios":"levelo://app?vid=393f51c1-32fb-456f-9b72-e9981790d61a"},"vehicle_type_id":"4","last_reported":1716743174,"current_range_meters":24400,"station_id":"ce4bhap2rcd13ifvqek0","pricing_plan_id":"cebpf4jnsgd1na2vs0mg"},{"bike_id":"602575db-1dcb-40d8-acc5-5f042a5cf238","system_id":"levelo_inurba_marseille","lat":43.289377,"lon":5.363997,"is_reserved":false,"is_disabled":false,"rental_uris":{"android":"levelo://app?vid=602575db-1dcb-40d8-acc5-5f042a5cf238","ios":"levelo://app?vid=602575db-1dcb-40d8-acc5-5f042a5cf238"},"vehicle_type_id":"4","last_reported":1716743174,"current_range_meters":0,"station_id":"ce4bhc92rcd13ifvqetg","pricing_plan_id":"cebpf4jnsgd1na2vs0mg"},{"bike_id":"b448a121-6e00-47a4-937f-1824039040da","system_id":"levelo_inurba_marseille","lat":43.304296,"lon":5.397513,"is_reserved":false,"is_disabled":false,"rental_uris":{"android":"levelo://app?vid=b448a121-6e00-47a4-937f-1824039040da","ios":"levelo://app?vid=b448a121-6e00-47a4-937f-1824039040da"},"vehicle_type_id":"4","last_reported":1716743174,"current_range_meters":0,"station_id":"ce4bh092rcd13ifvqd20","pricing_plan_id":"cebpf4jnsgd1na2vs0mg"},{"bike_id":"2e02b4fd-e62a-4e63-bd17-621c396e52d4","system_id":"levelo_inurba_marseille","lat":43.29266,"lon":5.38426,"is_reserved":false,"is_disabled":false,"rental_uris":{"android":"levelo://app?vid=2e02b4fd-e62a-4e63-bd17-621c396e52d4","ios":"levelo://app?vid=2e02b4fd-e62a-4e63-bd17-621c396e52d4"},"vehicle_type_id":"4","last_reported":1716743174,"current_range_meters":4400,"station_id":"ce4bh692rcd13ifvqea0","pricing_plan_id":"cebpf4jnsgd1na2vs0mg"},{"bike_id":"3f6a713b-b5a0-44e8-a0ed-1cb623221f65","system_id":"levelo_inurba_marseille","lat":43.292677,"lon":5.384367,"is_reserved":false,"is_disabled":false,"rental_uris":{"android":"levelo://app?vid=3f6a713b-b5a0-44e8-a0ed-1cb623221f65","ios":"levelo://app?vid=3f6a713b-b5a0-44e8-a0ed-1cb623221f65"},"vehicle_type_id":"4","last_reported":1716743174,"current_range_meters":0,"station_id":"ce4bh692rcd13ifvqea0","pricing_plan_id":"cebpf4jnsgd1na2vs0mg"},{"bike_id":"5f137b9e-c8e7-46c9-84ef-1818934f285f","system_id":"levelo_inurba_marseille","lat":43.29266,"lon":5.38436,"is_reserved":false,"is_disabled":false,"rental_uris":{"android":"levelo://app?vid=5f137b9e-c8e7-46c9-84ef-1818934f285f","ios":"levelo://app?vid=5f137b9e-c8e7-46c9-84ef-1818934f285f"},"vehicle_type_id":"4","last_reported":1716743174,"current_range_meters":4000,"station_id":"ce4bh692rcd13ifvqea0","pricing_plan_id":"cebpf4jnsgd1na2vs0mg"},{"bike_id":"4e543a12-c629-43b5-bcee-7f75c67864fe","system_id":"levelo_inurba_marseille","lat":43.292644,"lon":5.384257,"is_reserved":false,"is_disabled":false,"rental_uris":{"android":"levelo://app?vid=4e543a12-c629-43b5-bcee-7f75c67864fe","ios":"levelo://app?vid=4e543a12-c629-43b5-bcee-7f75c67864fe"},"vehicle_type_id":"4","last_reported":1716743174,"current_range_meters":0,"station_id":"ce4bh692rcd13ifvqea0","pricing_plan_id":"cebpf4jnsgd1na2vs0mg"},{"bike_id":"196ba977-3473-4a68-8622-0d8a8c847f9a","system_id":"levelo_inurba_marseille","lat":43.304274,"lon":5.397513,"is_reserved":false,"is_disabled":false,"rental_uris":{"android":"levelo://app?vid=196ba977-3473-4a68-8622-0d8a8c847f9a","ios":"levelo://app?vid=196ba977-3473-4a68-8622-0d8a8c847f9a"},"vehicle_type_id":"4","last_reported":1716743174,"current_range_meters":2000,"station_id":"ce4bh092rcd13ifvqd20","pricing_plan_id":"cebpf4jnsgd1na2vs0mg"},{"bike_id":"38607a13-51a4-4735-8123-740bc7547f06","system_id":"levelo_inurba_marseille","lat":43.292612,"lon":5.384324,"is_reserved":false,"is_disabled":false,"rental_uris":{"android":"levelo://app?vid=38607a13-51a4-4735-8123-740bc7547f06","ios":"levelo://app?vid=38607a13-51a4-4735-8123-740bc7547f06"},"vehicle_type_id":"4","last_reported":1716743174,"current_range_meters":17200,"station_id":"ce4bh692rcd13ifvqea0","pricing_plan_id":"cebpf4jnsgd1na2vs0mg"},{"bike_id":"454dd97e-e072-4fa7-a79c-a5202fb70016","system_id":"levelo_inurba_marseille","lat":43.292644,"lon":5.384257,"is_reserved":false,"is_disabled":false,"rental_uris":{"android":"levelo://app?vid=454dd97e-e072-4fa7-a79c-a5202fb70016","ios":"levelo://app?vid=454dd97e-e072-4fa7-a79c-a5202fb70016"},"vehicle_type_id":"4","last_reported":1716743174,"current_range_meters":22400,"station_id":"ce4bh692rcd13ifvqea0","pricing_plan_id":"cebpf4jnsgd1na2vs0mg"},{"bike_id":"52f635a1-2be7-497f-9190-126398af5c57","system_id":"levelo_inurba_marseille","lat":43.290104,"lon":5.356111,"is_reserved":false,"is_disabled":false,"rental_uris":{"android":"levelo://app?vid=52f635a1-2be7-497f-9190-126398af5c57","ios":"levelo://app?vid=52f635a1-2be7-497f-9190-126398af5c57"},"vehicle_type_id":"4","last_reported":1716743174,"current_range_meters":2400,"station_id":"ce4bhb92rcd13ifvqen0","pricing_plan_id":"cebpf4jnsgd1na2vs0mg"},{"bike_id":"71342f5a-a504-43eb-ab02-542f9ae87c2c","system_id":"levelo_inurba_marseille","lat":43.290104,"lon":5.356111,"is_reserved":false,"is_disabled":false,"rental_uris":{"android":"levelo://app?vid=71342f5a-a504-43eb-ab02-542f9ae87c2c","ios":"levelo://app?vid=71342f5a-a504-43eb-ab02-542f9ae87c2c"},"vehicle_type_id":"4","last_reported":1716743174,"current_range_meters":0,"station_id":"ce4bhb92rcd13ifvqen0","pricing_plan_id":"cebpf4jnsgd1na2vs0mg"},{"bike_id":"fd246d1c-2e9e-4b31-a1bb-a552df04171c","system_id":"levelo_inurba_marseille","lat":43.290104,"lon":5.356111,"is_reserved":false,"is_disabled":false,"rental_uris":{"android":"levelo://app?vid=fd246d1c-2e9e-4b31-a1bb-a552df04171c","ios":"levelo://app?vid=fd246d1c-2e9e-4b31-a1bb-a552df04171c"},"vehicle_type_id":"4","last_reported":1716743174,"current_range_meters":0,"station_id":"ce4bhb92rcd13ifvqen0","pricing_plan_id":"cebpf4jnsgd1na2vs0mg"},{"bike_id":"fd6c786e-ae30-4fb2-981b-08a32faad0e2","system_id":"levelo_inurba_marseille","lat":43.290103,"lon":5.356114,"is_reserved":false,"is_disabled":false,"rental_uris":{"android":"levelo://app?vid=fd6c786e-ae30-4fb2-981b-08a32faad0e2","ios":"levelo://app?vid=fd6c786e-ae30-4fb2-981b-08a32faad0e2"},"vehicle_type_id":"4","last_reported":1716743174,"current_range_meters":5200,"station_id":"ce4bhb92rcd13ifvqen0","pricing_plan_id":"cebpf4jnsgd1na2vs0mg"},{"bike_id":"db662078-5923-4f46-9696-27b21b917764","system_id":"levelo_inurba_marseille","lat":43.290995,"lon":5.381361,"is_reserved":false,"is_disabled":false,"rental_uris":{"android":"levelo://app?vid=db662078-5923-4f46-9696-27b21b917764","ios":"levelo://app?vid=db662078-5923-4f46-9696-27b21b917764"},"vehicle_type_id":"4","last_reported":1716743174,"current_range_meters":400,"station_id":"ce4bh512rcd13ifvqe2g","pricing_plan_id":"cebpf4jnsgd1na2vs0mg"},{"bike_id":"893bc64e-8a93-4953-9737-7def308a2630","system_id":"levelo_inurba_marseille","lat":43.290995,"lon":5.381361,"is_reserved":false,"is_disabled":false,"rental_uris":{"android":"levelo://app?vid=893bc64e-8a93-4953-9737-7def308a2630","ios":"levelo://app?vid=893bc64e-8a93-4953-9737-7def308a2630"},"vehicle_type_id":"4","last_reported":1716743174,"current_range_meters":1200,"station_id":"ce4bh512rcd13ifvqe2g","pricing_plan_id":"cebpf4jnsgd1na2vs0mg"},{"bike_id":"0467d78f-d5dd-44e7-9cec-f3d197eb713d","system_id":"levelo_inurba_marseille","lat":43.291,"lon":5.38157,"is_reserved":false,"is_disabled":false,"rental_uris":{"android":"levelo://app?vid=0467d78f-d5dd-44e7-9cec-f3d197eb713d","ios":"levelo://app?vid=0467d78f-d5dd-44e7-9cec-f3d197eb713d"},"vehicle_type_id":"4","last_reported":1716743174,"current_range_meters":0,"station_id":"ce4bh512rcd13ifvqe2g","pricing_plan_id":"cebpf4jnsgd1na2vs0mg"},{"bike_id":"d36e1c6f-5329-4c88-9a38-6e2a7d9da622","system_id":"levelo_inurba_marseille","lat":43.29782,"lon":5.39335,"is_reserved":false,"is_disabled":false,"rental_uris":{"android":"levelo://app?vid=d36e1c6f-5329-4c88-9a38-6e2a7d9da622","ios":"levelo://app?vid=d36e1c6f-5329-4c88-9a38-6e2a7d9da622"},"vehicle_type_id":"4","last_reported":1716743174,"current_range_meters":11200,"station_id":"chh1huq6cuj3fo74tm60","pricing_plan_id":"cebpf4jnsgd1na2vs0mg"},{"bike_id":"bc5fdd9e-eca5-4926-a8f3-aefcaf4ce69b","system_id":"levelo_inurba_marseille","lat":43.297815,"lon":5.393548,"is_reserved":false,"is_disabled":false,"rental_uris":{"android":"levelo://app?vid=bc5fdd9e-eca5-4926-a8f3-aefcaf4ce69b","ios":"levelo://app?vid=bc5fdd9e-eca5-4926-a8f3-aefcaf4ce69b"},"vehicle_type_id":"4","last_reported":1716743174,"current_range_meters":6800,"station_id":"chh1huq6cuj3fo74tm60","pricing_plan_id":"cebpf4jnsgd1na2vs0mg"},{"bike_id":"6fb055cc-b404-4919-9ec2-131135e5728e","system_id":"levelo_inurba_marseille","lat":43.28977,"lon":5.37848,"is_reserved":false,"is_disabled":false,"rental_uris":{"android":"levelo://app?vid=6fb055cc-b404-4919-9ec2-131135e5728e","ios":"levelo://app?vid=6fb055cc-b404-4919-9ec2-131135e5728e"},"vehicle_type_id":"4","last_reported":1716743174,"current_range_meters":0,"station_id":"ce4bh9p2rcd13ifvqed0","pricing_plan_id":"cebpf4jnsgd1na2vs0mg"},{"bike_id":"ba7bba16-c57b-44f6-9f9c-c9839289854f","system_id":"levelo_inurba_marseille","lat":43.31065,"lon":5.40081,"is_reserved":false,"is_disabled":false,"rental_uris":{"android":"levelo://app?vid=ba7bba16-c57b-44f6-9f9c-c9839289854f","ios":"levelo://app?vid=ba7bba16-c57b-44f6-9f9c-c9839289854f"},"vehicle_type_id":"4","last_reported":1716743174,"current_range_meters":9600,"station_id":"","pricing_plan_id":"cebpf4jnsgd1na2vs0mg"},{"bike_id":"1a1505af-a805-4e97-b6c5-ef86c8ad33ae","system_id":"levelo_inurba_marseille","lat":43.310735,"lon":5.401007,"is_reserved":false,"is_disabled":false,"rental_uris":{"android":"levelo://app?vid=1a1505af-a805-4e97-b6c5-ef86c8ad33ae","ios":"levelo://app?vid=1a1505af-a805-4e97-b6c5-ef86c8ad33ae"},"vehicle_type_id":"4","last_reported":1716743174,"current_range_meters":0,"station_id":"","pricing_plan_id":"cebpf4jnsgd1na2vs0mg"},{"bike_id":"af6d4ad4-822c-44dc-98cf-348885ada8fb","system_id":"levelo_inurba_marseille","lat":43.2901,"lon":5.381269,"is_reserved":false,"is_disabled":false,"rental_uris":{"android":"levelo://app?vid=af6d4ad4-822c-44dc-98cf-348885ada8fb","ios":"levelo://app?vid=af6d4ad4-822c-44dc-98cf-348885ada8fb"},"vehicle_type_id":"4","last_reported":1716743174,"current_range_meters":12400,"station_id":"ce4bh4p2rcd13ifvqe1g","pricing_plan_id":"cebpf4jnsgd1na2vs0mg"},{"bike_id":"6d555a0d-ea4c-4da8-9f1d-7da488075084","system_id":"levelo_inurba_marseille","lat":43.28856,"lon":5.358371,"is_reserved":false,"is_disabled":false,"rental_uris":{"android":"levelo://app?vid=6d555a0d-ea4c-4da8-9f1d-7da488075084","ios":"levelo://app?vid=6d555a0d-ea4c-4da8-9f1d-7da488075084"},"vehicle_type_id":"4","last_reported":1716743174,"current_range_meters":0,"station_id":"ce4bhb12rcd13ifvqem0","pricing_plan_id":"cebpf4jnsgd1na2vs0mg"},{"bike_id":"879eac84-9b28-40f7-b6e6-75abb7b60319","system_id":"levelo_inurba_marseille","lat":43.28856,"lon":5.358371,"is_reserved":false,"is_disabled":false,"rental_uris":{"android":"levelo://app?vid=879eac84-9b28-40f7-b6e6-75abb7b60319","ios":"levelo://app?vid=879eac84-9b28-40f7-b6e6-75abb7b60319"},"vehicle_type_id":"4","last_reported":1716743174,"current_range_meters":0,"station_id":"ce4bhb12rcd13ifvqem0","pricing_plan_id":"cebpf4jnsgd1na2vs0mg"},{"bike_id":"e33d281c-d24a-4da4-807f-c6f859a69dca","system_id":"levelo_inurba_marseille","lat":43.306367,"lon":5.400287,"is_reserved":false,"is_disabled":false,"rental_uris":{"android":"levelo://app?vid=e33d281c-d24a-4da4-807f-c6f859a69dca","ios":"levelo://app?vid=e33d281c-d24a-4da4-807f-c6f859a69dca"},"vehicle_type_id":"4","last_reported":1716743174,"current_range_meters":0,"station_id":"ce4bh112rcd13ifvqda0","pricing_plan_id":"cebpf4jnsgd1na2vs0mg"},{"bike_id":"c817be8a-4d3f-428e-9e83-fb97be659edc","system_id":"levelo_inurba_marseille","lat":43.33739,"lon":5.37443,"is_reserved":false,"is_disabled":false,"rental_uris":{"android":"levelo://app?vid=c817be8a-4d3f-428e-9e83-fb97be659edc","ios":"levelo://app?vid=c817be8a-4d3f-428e-9e83-fb97be659edc"},"vehicle_type_id":"4","last_reported":1716743174,"current_range_meters":20400,"station_id":"","pricing_plan_id":"cebpf4jnsgd1na2vs0mg"},{"bike_id":"e3a2bc65-e5c2-4a76-b994-7117accff41a","system_id":"levelo_inurba_marseille","lat":43.309371,"lon":5.401449,"is_reserved":false,"is_disabled":false,"rental_uris":{"android":"levelo://app?vid=e3a2bc65-e5c2-4a76-b994-7117accff41a","ios":"levelo://app?vid=e3a2bc65-e5c2-4a76-b994-7117accff41a"},"vehicle_type_id":"4","last_reported":1716743174,"current_range_meters":4400,"station_id":"ce4bgvp2rcd13ifvqct0","pricing_plan_id":"cebpf4jnsgd1na2vs0mg"},{"bike_id":"5e08015a-b315-49d5-b067-121fc243166b","system_id":"levelo_inurba_marseille","lat":43.33752,"lon":5.37436,"is_reserved":false,"is_disabled":false,"rental_uris":{"android":"levelo://app?vid=5e08015a-b315-49d5-b067-121fc243166b","ios":"levelo://app?vid=5e08015a-b315-49d5-b067-121fc243166b"},"vehicle_type_id":"4","last_reported":1716743174,"current_range_meters":15200,"station_id":"","pricing_plan_id":"cebpf4jnsgd1na2vs0mg"},{"bike_id":"76489c18-d45e-4078-a57b-3eb467b6d094","system_id":"levelo_inurba_marseille","lat":43.309371,"lon":5.401449,"is_reserved":false,"is_disabled":false,"rental_uris":{"android":"levelo://app?vid=76489c18-d45e-4078-a57b-3eb467b6d094","ios":"levelo://app?vid=76489c18-d45e-4078-a57b-3eb467b6d094"},"vehicle_type_id":"4","last_reported":1716743174,"current_range_meters":2400,"station_id":"ce4bgvp2rcd13ifvqct0","pricing_plan_id":"cebpf4jnsgd1na2vs0mg"},{"bike_id":"7f018c6c-8f01-4d6f-8334-933306ff1941","system_id":"levelo_inurba_marseille","lat":43.306412,"lon":5.401035,"is_reserved":false,"is_disabled":false,"rental_uris":{"android":"levelo://app?vid=7f018c6c-8f01-4d6f-8334-933306ff1941","ios":"levelo://app?vid=7f018c6c-8f01-4d6f-8334-933306ff1941"},"vehicle_type_id":"4","last_reported":1716743174,"current_range_meters":20000,"station_id":"ce4bh112rcd13ifvqda0","pricing_plan_id":"cebpf4jnsgd1na2vs0mg"},{"bike_id":"4baa171a-6f41-4b4c-bcc1-759d97c52644","system_id":"levelo_inurba_marseille","lat":43.337567,"lon":5.374574,"is_reserved":false,"is_disabled":false,"rental_uris":{"android":"levelo://app?vid=4baa171a-6f41-4b4c-bcc1-759d97c52644","ios":"levelo://app?vid=4baa171a-6f41-4b4c-bcc1-759d97c52644"},"vehicle_type_id":"4","last_reported":1716743174,"current_range_meters":18400,"station_id":"","pricing_plan_id":"cebpf4jnsgd1na2vs0mg"},{"bike_id":"4d476eee-4013-46a3-be70-3fc5198fa0f9","system_id":"levelo_inurba_marseille","lat":43.33763,"lon":5.374318,"is_reserved":false,"is_disabled":false,"rental_uris":{"android":"levelo://app?vid=4d476eee-4013-46a3-be70-3fc5198fa0f9","ios":"levelo://app?vid=4d476eee-4013-46a3-be70-3fc5198fa0f9"},"vehicle_type_id":"4","last_reported":1716743174,"current_range_meters":12000,"station_id":"","pricing_plan_id":"cebpf4jnsgd1na2vs0mg"},{"bike_id":"732798ba-2b9a-45ce-babd-a4bca6a10e63","system_id":"levelo_inurba_marseille","lat":43.337625,"lon":5.374405,"is_reserved":false,"is_disabled":false,"rental_uris":{"android":"levelo://app?vid=732798ba-2b9a-45ce-babd-a4bca6a10e63","ios":"levelo://app?vid=732798ba-2b9a-45ce-babd-a4bca6a10e63"},"vehicle_type_id":"4","last_reported":1716743174,"current_range_meters":12000,"station_id":"","pricing_plan_id":"cebpf4jnsgd1na2vs0mg"},{"bike_id":"de609f3b-f2e7-4b37-96b4-3315c7ebe8bb","system_id":"levelo_inurba_marseille","lat":43.33764,"lon":5.37471,"is_reserved":false,"is_disabled":false,"rental_uris":{"android":"levelo://app?vid=de609f3b-f2e7-4b37-96b4-3315c7ebe8bb","ios":"levelo://app?vid=de609f3b-f2e7-4b37-96b4-3315c7ebe8bb"},"vehicle_type_id":"4","last_reported":1716743174,"current_range_meters":14400,"station_id":"","pricing_plan_id":"cebpf4jnsgd1na2vs0mg"},{"bike_id":"20acab52-d5d5-44c0-9acb-a612ffa1e77b","system_id":"levelo_inurba_marseille","lat":43.30644,"lon":5.40104,"is_reserved":false,"is_disabled":false,"rental_uris":{"android":"levelo://app?vid=20acab52-d5d5-44c0-9acb-a612ffa1e77b","ios":"levelo://app?vid=20acab52-d5d5-44c0-9acb-a612ffa1e77b"},"vehicle_type_id":"4","last_reported":1716743174,"current_range_meters":2000,"station_id":"ce4bh112rcd13ifvqda0","pricing_plan_id":"cebpf4jnsgd1na2vs0mg"},{"bike_id":"825fa8d8-f677-44ea-959e-e28a76bf9c1f","system_id":"levelo_inurba_marseille","lat":43.33773,"lon":5.37477,"is_reserved":false,"is_disabled":false,"rental_uris":{"android":"levelo://app?vid=825fa8d8-f677-44ea-959e-e28a76bf9c1f","ios":"levelo://app?vid=825fa8d8-f677-44ea-959e-e28a76bf9c1f"},"vehicle_type_id":"4","last_reported":1716743174,"current_range_meters":15200,"station_id":"","pricing_plan_id":"cebpf4jnsgd1na2vs0mg"},{"bike_id":"8db883c4-fb73-4bfe-954d-2b01121b57e0","system_id":"levelo_inurba_marseille","lat":43.301117,"lon":5.398795,"is_reserved":false,"is_disabled":false,"rental_uris":{"android":"levelo://app?vid=8db883c4-fb73-4bfe-954d-2b01121b57e0","ios":"levelo://app?vid=8db883c4-fb73-4bfe-954d-2b01121b57e0"},"vehicle_type_id":"4","last_reported":1716743174,"current_range_meters":25600,"station_id":"ce4bh0h2rcd13ifvqd40","pricing_plan_id":"cebpf4jnsgd1na2vs0mg"},{"bike_id":"cd676c3a-224d-4a26-b401-26f425f0b0b7","system_id":"levelo_inurba_marseille","lat":43.301117,"lon":5.398795,"is_reserved":false,"is_disabled":false,"rental_uris":{"android":"levelo://app?vid=cd676c3a-224d-4a26-b401-26f425f0b0b7","ios":"levelo://app?vid=cd676c3a-224d-4a26-b401-26f425f0b0b7"},"vehicle_type_id":"4","last_reported":1716743174,"current_range_meters":8800,"station_id":"ce4bh0h2rcd13ifvqd40","pricing_plan_id":"cebpf4jnsgd1na2vs0mg"},{"bike_id":"6bec6a8d-6920-4564-a2e1-8f1fc7cc33c8","system_id":"levelo_inurba_marseille","lat":43.301117,"lon":5.398795,"is_reserved":false,"is_disabled":false,"rental_uris":{"android":"levelo://app?vid=6bec6a8d-6920-4564-a2e1-8f1fc7cc33c8","ios":"levelo://app?vid=6bec6a8d-6920-4564-a2e1-8f1fc7cc33c8"},"vehicle_type_id":"4","last_reported":1716743174,"current_range_meters":9600,"station_id":"ce4bh0h2rcd13ifvqd40","pricing_plan_id":"cebpf4jnsgd1na2vs0mg"},{"bike_id":"70139af0-ee08-412e-9fc3-b3f236e28451","system_id":"levelo_inurba_marseille","lat":43.301117,"lon":5.398795,"is_reserved":false,"is_disabled":false,"rental_uris":{"android":"levelo://app?vid=70139af0-ee08-412e-9fc3-b3f236e28451","ios":"levelo://app?vid=70139af0-ee08-412e-9fc3-b3f236e28451"},"vehicle_type_id":"4","last_reported":1716743174,"current_range_meters":800,"station_id":"ce4bh0h2rcd13ifvqd40","pricing_plan_id":"cebpf4jnsgd1na2vs0mg"},{"bike_id":"f6fcc505-7d86-4af0-b0db-b823afd82d88","system_id":"levelo_inurba_marseille","lat":43.290345,"lon":5.38646,"is_reserved":false,"is_disabled":false,"rental_uris":{"android":"levelo://app?vid=f6fcc505-7d86-4af0-b0db-b823afd82d88","ios":"levelo://app?vid=f6fcc505-7d86-4af0-b0db-b823afd82d88"},"vehicle_type_id":"4","last_reported":1716743174,"current_range_meters":2000,"station_id":"ce4bh4p2rcd13ifvqe0g","pricing_plan_id":"cebpf4jnsgd1na2vs0mg"},{"bike_id":"13976907-3433-4bab-bc8e-a4d86c213c64","system_id":"levelo_inurba_marseille","lat":43.2871,"lon":5.37394,"is_reserved":false,"is_disabled":false,"rental_uris":{"android":"levelo://app?vid=13976907-3433-4bab-bc8e-a4d86c213c64","ios":"levelo://app?vid=13976907-3433-4bab-bc8e-a4d86c213c64"},"vehicle_type_id":"4","last_reported":1716743174,"current_range_meters":0,"station_id":"ce4bh3p2rcd13ifvqdq0","pricing_plan_id":"cebpf4jnsgd1na2vs0mg"},{"bike_id":"5bb7eecc-a0d6-46ff-9aaa-947c66b48668","system_id":"levelo_inurba_marseille","lat":43.286593,"lon":5.363346,"is_reserved":false,"is_disabled":false,"rental_uris":{"android":"levelo://app?vid=5bb7eecc-a0d6-46ff-9aaa-947c66b48668","ios":"levelo://app?vid=5bb7eecc-a0d6-46ff-9aaa-947c66b48668"},"vehicle_type_id":"4","last_reported":1716743174,"current_range_meters":19600,"station_id":"ce4bhah2rcd13ifvqej0","pricing_plan_id":"cebpf4jnsgd1na2vs0mg"},{"bike_id":"79580e26-a0d8-4734-b965-7201125567fc","system_id":"levelo_inurba_marseille","lat":43.286593,"lon":5.363346,"is_reserved":false,"is_disabled":false,"rental_uris":{"android":"levelo://app?vid=79580e26-a0d8-4734-b965-7201125567fc","ios":"levelo://app?vid=79580e26-a0d8-4734-b965-7201125567fc"},"vehicle_type_id":"4","last_reported":1716743174,"current_range_meters":2400,"station_id":"ce4bhah2rcd13ifvqej0","pricing_plan_id":"cebpf4jnsgd1na2vs0mg"},{"bike_id":"98122a67-3b02-416c-abb9-3b74285651e3","system_id":"levelo_inurba_marseille","lat":43.305994,"lon":5.393687,"is_reserved":false,"is_disabled":false,"rental_uris":{"android":"levelo://app?vid=98122a67-3b02-416c-abb9-3b74285651e3","ios":"levelo://app?vid=98122a67-3b02-416c-abb9-3b74285651e3"},"vehicle_type_id":"4","last_reported":1716743174,"current_range_meters":7200,"station_id":"ce4bh0p2rcd13ifvqd80","pricing_plan_id":"cebpf4jnsgd1na2vs0mg"},{"bike_id":"dc10c21d-993e-4e44-a2c8-5c54c4b83c65","system_id":"levelo_inurba_marseille","lat":43.29505,"lon":5.39398,"is_reserved":false,"is_disabled":false,"rental_uris":{"android":"levelo://app?vid=dc10c21d-993e-4e44-a2c8-5c54c4b83c65","ios":"levelo://app?vid=dc10c21d-993e-4e44-a2c8-5c54c4b83c65"},"vehicle_type_id":"4","last_reported":1716743174,"current_range_meters":400,"station_id":"ce4bh292rcd13ifvqdf0","pricing_plan_id":"cebpf4jnsgd1na2vs0mg"},{"bike_id":"2fa10e20-8685-4dce-8d6e-5e655646e3fe","system_id":"levelo_inurba_marseille","lat":43.290345,"lon":5.38646,"is_reserved":false,"is_disabled":false,"rental_uris":{"android":"levelo://app?vid=2fa10e20-8685-4dce-8d6e-5e655646e3fe","ios":"levelo://app?vid=2fa10e20-8685-4dce-8d6e-5e655646e3fe"},"vehicle_type_id":"4","last_reported":1716743174,"current_range_meters":0,"station_id":"ce4bh4p2rcd13ifvqe0g","pricing_plan_id":"cebpf4jnsgd1na2vs0mg"},{"bike_id":"c837bb0e-e5f9-40d6-9c87-12bc1a04d7a6","system_id":"levelo_inurba_marseille","lat":43.289307,"lon":5.38406,"is_reserved":false,"is_disabled":false,"rental_uris":{"android":"levelo://app?vid=c837bb0e-e5f9-40d6-9c87-12bc1a04d7a6","ios":"levelo://app?vid=c837bb0e-e5f9-40d6-9c87-12bc1a04d7a6"},"vehicle_type_id":"4","last_reported":1716743174,"current_range_meters":4000,"station_id":"ce4bh612rcd13ifvqe6g","pricing_plan_id":"cebpf4jnsgd1na2vs0mg"},{"bike_id":"26be04bf-87a8-47a8-8451-33b022c903a6","system_id":"levelo_inurba_marseille","lat":43.289307,"lon":5.38406,"is_reserved":false,"is_disabled":false,"rental_uris":{"android":"levelo://app?vid=26be04bf-87a8-47a8-8451-33b022c903a6","ios":"levelo://app?vid=26be04bf-87a8-47a8-8451-33b022c903a6"},"vehicle_type_id":"4","last_reported":1716743174,"current_range_meters":25200,"station_id":"ce4bh612rcd13ifvqe6g","pricing_plan_id":"cebpf4jnsgd1na2vs0mg"},{"bike_id":"f6e35dc8-4be0-4737-ab48-ed6f36b34d72","system_id":"levelo_inurba_marseille","lat":43.286039,"lon":5.370679,"is_reserved":false,"is_disabled":false,"rental_uris":{"android":"levelo://app?vid=f6e35dc8-4be0-4737-ab48-ed6f36b34d72","ios":"levelo://app?vid=f6e35dc8-4be0-4737-ab48-ed6f36b34d72"},"vehicle_type_id":"4","last_reported":1716743174,"current_range_meters":10400,"station_id":"ce4bht12rcd13ifvqi60","pricing_plan_id":"cebpf4jnsgd1na2vs0mg"},{"bike_id":"2d0b9a4f-8bc3-43da-a4da-56f0811c8489","system_id":"levelo_inurba_marseille","lat":43.285905,"lon":5.367659,"is_reserved":false,"is_disabled":false,"rental_uris":{"android":"levelo://app?vid=2d0b9a4f-8bc3-43da-a4da-56f0811c8489","ios":"levelo://app?vid=2d0b9a4f-8bc3-43da-a4da-56f0811c8489"},"vehicle_type_id":"4","last_reported":1716743174,"current_range_meters":0,"station_id":"","pricing_plan_id":"cebpf4jnsgd1na2vs0mg"},{"bike_id":"e2964c9c-1c83-47e6-877a-663ec9153384","system_id":"levelo_inurba_marseille","lat":43.285919,"lon":5.370784,"is_reserved":false,"is_disabled":false,"rental_uris":{"android":"levelo://app?vid=e2964c9c-1c83-47e6-877a-663ec9153384","ios":"levelo://app?vid=e2964c9c-1c83-47e6-877a-663ec9153384"},"vehicle_type_id":"4","last_reported":1716743174,"current_range_meters":4400,"station_id":"ce4bht12rcd13ifvqi60","pricing_plan_id":"cebpf4jnsgd1na2vs0mg"},{"bike_id":"c523e54b-2dce-48fb-998c-570a29bafb1d","system_id":"levelo_inurba_marseille","lat":43.284538,"lon":5.358657,"is_reserved":false,"is_disabled":false,"rental_uris":{"android":"levelo://app?vid=c523e54b-2dce-48fb-998c-570a29bafb1d","ios":"levelo://app?vid=c523e54b-2dce-48fb-998c-570a29bafb1d"},"vehicle_type_id":"4","last_reported":1716743174,"current_range_meters":26400,"station_id":"ce4bhah2rcd13ifvqei0","pricing_plan_id":"cebpf4jnsgd1na2vs0mg"},{"bike_id":"6c895156-d0bd-4716-84ea-817361be27d6","system_id":"levelo_inurba_marseille","lat":43.316828,"lon":5.404723,"is_reserved":false,"is_disabled":false,"rental_uris":{"android":"levelo://app?vid=6c895156-d0bd-4716-84ea-817361be27d6","ios":"levelo://app?vid=6c895156-d0bd-4716-84ea-817361be27d6"},"vehicle_type_id":"4","last_reported":1716743174,"current_range_meters":20400,"station_id":"ce4bh012rcd13ifvqd00","pricing_plan_id":"cebpf4jnsgd1na2vs0mg"},{"bike_id":"dbfd69f0-91c2-4949-94a1-ceb9bd732ce4","system_id":"levelo_inurba_marseille","lat":43.316821,"lon":5.404737,"is_reserved":false,"is_disabled":false,"rental_uris":{"android":"levelo://app?vid=dbfd69f0-91c2-4949-94a1-ceb9bd732ce4","ios":"levelo://app?vid=dbfd69f0-91c2-4949-94a1-ceb9bd732ce4"},"vehicle_type_id":"4","last_reported":1716743174,"current_range_meters":4000,"station_id":"ce4bh012rcd13ifvqd00","pricing_plan_id":"cebpf4jnsgd1na2vs0mg"},{"bike_id":"58514f3a-dc19-4217-b7fc-fb40ed42922d","system_id":"levelo_inurba_marseille","lat":43.291994,"lon":5.392907,"is_reserved":false,"is_disabled":false,"rental_uris":{"android":"levelo://app?vid=58514f3a-dc19-4217-b7fc-fb40ed42922d","ios":"levelo://app?vid=58514f3a-dc19-4217-b7fc-fb40ed42922d"},"vehicle_type_id":"4","last_reported":1716743174,"current_range_meters":18400,"station_id":"ce4bh192rcd13ifvqdd0","pricing_plan_id":"cebpf4jnsgd1na2vs0mg"},{"bike_id":"4a62555e-2f47-4897-ba88-83004a1f1ecb","system_id":"levelo_inurba_marseille","lat":43.291994,"lon":5.392907,"is_reserved":false,"is_disabled":false,"rental_uris":{"android":"levelo://app?vid=4a62555e-2f47-4897-ba88-83004a1f1ecb","ios":"levelo://app?vid=4a62555e-2f47-4897-ba88-83004a1f1ecb"},"vehicle_type_id":"4","last_reported":1716743174,"current_range_meters":4800,"station_id":"ce4bh192rcd13ifvqdd0","pricing_plan_id":"cebpf4jnsgd1na2vs0mg"},{"bike_id":"d4cd30cc-e9ca-4f40-ae20-10cd9aa95442","system_id":"levelo_inurba_marseille","lat":43.291994,"lon":5.392907,"is_reserved":false,"is_disabled":false,"rental_uris":{"android":"levelo://app?vid=d4cd30cc-e9ca-4f40-ae20-10cd9aa95442","ios":"levelo://app?vid=d4cd30cc-e9ca-4f40-ae20-10cd9aa95442"},"vehicle_type_id":"4","last_reported":1716743174,"current_range_meters":3200,"station_id":"ce4bh192rcd13ifvqdd0","pricing_plan_id":"cebpf4jnsgd1na2vs0mg"},{"bike_id":"6e8a6d69-1af9-4f04-aed0-f896a2bff050","system_id":"levelo_inurba_marseille","lat":43.285848,"lon":5.350787,"is_reserved":false,"is_disabled":false,"rental_uris":{"android":"levelo://app?vid=6e8a6d69-1af9-4f04-aed0-f896a2bff050","ios":"levelo://app?vid=6e8a6d69-1af9-4f04-aed0-f896a2bff050"},"vehicle_type_id":"4","last_reported":1716743174,"current_range_meters":26800,"station_id":"ce4bhch2rcd13ifvqeug","pricing_plan_id":"cebpf4jnsgd1na2vs0mg"},{"bike_id":"f3afde09-5d5f-4307-b972-ea0b32fab942","system_id":"levelo_inurba_marseille","lat":43.294314,"lon":5.397498,"is_reserved":false,"is_disabled":false,"rental_uris":{"android":"levelo://app?vid=f3afde09-5d5f-4307-b972-ea0b32fab942","ios":"levelo://app?vid=f3afde09-5d5f-4307-b972-ea0b32fab942"},"vehicle_type_id":"4","last_reported":1716743174,"current_range_meters":20400,"station_id":"ce4bh3h2rcd13ifvqdo0","pricing_plan_id":"cebpf4jnsgd1na2vs0mg"},{"bike_id":"188f8ad1-aead-4060-a137-653af4f1e88a","system_id":"levelo_inurba_marseille","lat":43.294314,"lon":5.397498,"is_reserved":false,"is_disabled":false,"rental_uris":{"android":"levelo://app?vid=188f8ad1-aead-4060-a137-653af4f1e88a","ios":"levelo://app?vid=188f8ad1-aead-4060-a137-653af4f1e88a"},"vehicle_type_id":"4","last_reported":1716743174,"current_range_meters":400,"station_id":"ce4bh3h2rcd13ifvqdo0","pricing_plan_id":"cebpf4jnsgd1na2vs0mg"},{"bike_id":"3df3d8e4-beef-47a5-b7ba-073127860236","system_id":"levelo_inurba_marseille","lat":43.284534,"lon":5.358662,"is_reserved":false,"is_disabled":false,"rental_uris":{"android":"levelo://app?vid=3df3d8e4-beef-47a5-b7ba-073127860236","ios":"levelo://app?vid=3df3d8e4-beef-47a5-b7ba-073127860236"},"vehicle_type_id":"4","last_reported":1716743174,"current_range_meters":28000,"station_id":"ce4bhah2rcd13ifvqei0","pricing_plan_id":"cebpf4jnsgd1na2vs0mg"},{"bike_id":"0822d761-a0ea-441b-9610-da72f9ccf58a","system_id":"levelo_inurba_marseille","lat":43.286363,"lon":5.351275,"is_reserved":false,"is_disabled":false,"rental_uris":{"android":"levelo://app?vid=0822d761-a0ea-441b-9610-da72f9ccf58a","ios":"levelo://app?vid=0822d761-a0ea-441b-9610-da72f9ccf58a"},"vehicle_type_id":"4","last_reported":1716743174,"current_range_meters":19200,"station_id":"ce4bhch2rcd13ifvqeug","pricing_plan_id":"cebpf4jnsgd1na2vs0mg"},{"bike_id":"27f03636-1c60-4c53-af25-ff893a5f3b1f","system_id":"levelo_inurba_marseille","lat":43.294314,"lon":5.397498,"is_reserved":false,"is_disabled":false,"rental_uris":{"android":"levelo://app?vid=27f03636-1c60-4c53-af25-ff893a5f3b1f","ios":"levelo://app?vid=27f03636-1c60-4c53-af25-ff893a5f3b1f"},"vehicle_type_id":"4","last_reported":1716743174,"current_range_meters":17600,"station_id":"ce4bh3h2rcd13ifvqdo0","pricing_plan_id":"cebpf4jnsgd1na2vs0mg"},{"bike_id":"e2686ba7-1569-449c-aeac-c7b6b3d9a06f","system_id":"levelo_inurba_marseille","lat":43.285848,"lon":5.350787,"is_reserved":false,"is_disabled":false,"rental_uris":{"android":"levelo://app?vid=e2686ba7-1569-449c-aeac-c7b6b3d9a06f","ios":"levelo://app?vid=e2686ba7-1569-449c-aeac-c7b6b3d9a06f"},"vehicle_type_id":"4","last_reported":1716743174,"current_range_meters":0,"station_id":"ce4bhch2rcd13ifvqeug","pricing_plan_id":"cebpf4jnsgd1na2vs0mg"},{"bike_id":"6c01a62d-5d37-40cd-bc4d-29201b0f5de0","system_id":"levelo_inurba_marseille","lat":43.285848,"lon":5.350787,"is_reserved":false,"is_disabled":false,"rental_uris":{"android":"levelo://app?vid=6c01a62d-5d37-40cd-bc4d-29201b0f5de0","ios":"levelo://app?vid=6c01a62d-5d37-40cd-bc4d-29201b0f5de0"},"vehicle_type_id":"4","last_reported":1716743174,"current_range_meters":0,"station_id":"ce4bhch2rcd13ifvqeug","pricing_plan_id":"cebpf4jnsgd1na2vs0mg"},{"bike_id":"94774708-431b-4f7e-9d82-821cc3eaf488","system_id":"levelo_inurba_marseille","lat":43.285848,"lon":5.350787,"is_reserved":false,"is_disabled":false,"rental_uris":{"android":"levelo://app?vid=94774708-431b-4f7e-9d82-821cc3eaf488","ios":"levelo://app?vid=94774708-431b-4f7e-9d82-821cc3eaf488"},"vehicle_type_id":"4","last_reported":1716743174,"current_range_meters":0,"station_id":"ce4bhch2rcd13ifvqeug","pricing_plan_id":"cebpf4jnsgd1na2vs0mg"},{"bike_id":"92ad724e-2a43-4ea2-97d2-442438d13c46","system_id":"levelo_inurba_marseille","lat":43.28614,"lon":5.35101,"is_reserved":false,"is_disabled":false,"rental_uris":{"android":"levelo://app?vid=92ad724e-2a43-4ea2-97d2-442438d13c46","ios":"levelo://app?vid=92ad724e-2a43-4ea2-97d2-442438d13c46"},"vehicle_type_id":"4","last_reported":1716743174,"current_range_meters":12400,"station_id":"ce4bhch2rcd13ifvqeug","pricing_plan_id":"cebpf4jnsgd1na2vs0mg"},{"bike_id":"fccc4f54-9243-44e9-8965-f31072501ca1","system_id":"levelo_inurba_marseille","lat":43.29984,"lon":5.40274,"is_reserved":false,"is_disabled":false,"rental_uris":{"android":"levelo://app?vid=fccc4f54-9243-44e9-8965-f31072501ca1","ios":"levelo://app?vid=fccc4f54-9243-44e9-8965-f31072501ca1"},"vehicle_type_id":"4","last_reported":1716743174,"current_range_meters":18400,"station_id":"","pricing_plan_id":"cebpf4jnsgd1na2vs0mg"},{"bike_id":"660f09cf-52f4-4063-b765-ab78c2b7336f","system_id":"levelo_inurba_marseille","lat":43.29955,"lon":5.40261,"is_reserved":false,"is_disabled":false,"rental_uris":{"android":"levelo://app?vid=660f09cf-52f4-4063-b765-ab78c2b7336f","ios":"levelo://app?vid=660f09cf-52f4-4063-b765-ab78c2b7336f"},"vehicle_type_id":"4","last_reported":1716743174,"current_range_meters":18400,"station_id":"","pricing_plan_id":"cebpf4jnsgd1na2vs0mg"},{"bike_id":"31c53f04-164c-4fd6-9837-8ea90000f1ec","system_id":"levelo_inurba_marseille","lat":43.28415,"lon":5.37516,"is_reserved":false,"is_disabled":false,"rental_uris":{"android":"levelo://app?vid=31c53f04-164c-4fd6-9837-8ea90000f1ec","ios":"levelo://app?vid=31c53f04-164c-4fd6-9837-8ea90000f1ec"},"vehicle_type_id":"4","last_reported":1716743174,"current_range_meters":0,"station_id":"ce4bh412rcd13ifvqds0","pricing_plan_id":"cebpf4jnsgd1na2vs0mg"},{"bike_id":"4bcdbeb6-699f-40ca-87d3-9d73a2e1764d","system_id":"levelo_inurba_marseille","lat":43.29957,"lon":5.40293,"is_reserved":false,"is_disabled":false,"rental_uris":{"android":"levelo://app?vid=4bcdbeb6-699f-40ca-87d3-9d73a2e1764d","ios":"levelo://app?vid=4bcdbeb6-699f-40ca-87d3-9d73a2e1764d"},"vehicle_type_id":"4","last_reported":1716743174,"current_range_meters":9600,"station_id":"","pricing_plan_id":"cebpf4jnsgd1na2vs0mg"},{"bike_id":"0f7ce5b1-a844-4775-bd8a-2b4c9db75722","system_id":"levelo_inurba_marseille","lat":43.295713,"lon":5.399639,"is_reserved":false,"is_disabled":false,"rental_uris":{"android":"levelo://app?vid=0f7ce5b1-a844-4775-bd8a-2b4c9db75722","ios":"levelo://app?vid=0f7ce5b1-a844-4775-bd8a-2b4c9db75722"},"vehicle_type_id":"4","last_reported":1716743174,"current_range_meters":24400,"station_id":"ce4bh312rcd13ifvqdj0","pricing_plan_id":"cebpf4jnsgd1na2vs0mg"},{"bike_id":"36fb3490-a76c-4542-9cbf-99d28c86583e","system_id":"levelo_inurba_marseille","lat":43.29945,"lon":5.40293,"is_reserved":false,"is_disabled":false,"rental_uris":{"android":"levelo://app?vid=36fb3490-a76c-4542-9cbf-99d28c86583e","ios":"levelo://app?vid=36fb3490-a76c-4542-9cbf-99d28c86583e"},"vehicle_type_id":"4","last_reported":1716743174,"current_range_meters":10000,"station_id":"","pricing_plan_id":"cebpf4jnsgd1na2vs0mg"},{"bike_id":"92172128-da0d-4715-910d-205fee6f627a","system_id":"levelo_inurba_marseille","lat":43.295713,"lon":5.399639,"is_reserved":false,"is_disabled":false,"rental_uris":{"android":"levelo://app?vid=92172128-da0d-4715-910d-205fee6f627a","ios":"levelo://app?vid=92172128-da0d-4715-910d-205fee6f627a"},"vehicle_type_id":"4","last_reported":1716743174,"current_range_meters":24000,"station_id":"ce4bh312rcd13ifvqdj0","pricing_plan_id":"cebpf4jnsgd1na2vs0mg"},{"bike_id":"3a11f9ba-9a71-43dd-82e1-73f713d2a498","system_id":"levelo_inurba_marseille","lat":43.295713,"lon":5.399639,"is_reserved":false,"is_disabled":false,"rental_uris":{"android":"levelo://app?vid=3a11f9ba-9a71-43dd-82e1-73f713d2a498","ios":"levelo://app?vid=3a11f9ba-9a71-43dd-82e1-73f713d2a498"},"vehicle_type_id":"4","last_reported":1716743174,"current_range_meters":24000,"station_id":"ce4bh312rcd13ifvqdj0","pricing_plan_id":"cebpf4jnsgd1na2vs0mg"},{"bike_id":"26879562-a620-4492-9fea-8aefe63ff97d","system_id":"levelo_inurba_marseille","lat":43.286595,"lon":5.386795,"is_reserved":false,"is_disabled":false,"rental_uris":{"android":"levelo://app?vid=26879562-a620-4492-9fea-8aefe63ff97d","ios":"levelo://app?vid=26879562-a620-4492-9fea-8aefe63ff97d"},"vehicle_type_id":"4","last_reported":1716743174,"current_range_meters":31200,"station_id":"ce4bh492rcd13ifvqdug","pricing_plan_id":"cebpf4jnsgd1na2vs0mg"},{"bike_id":"d833c378-293c-4470-935e-429572050adf","system_id":"levelo_inurba_marseille","lat":43.286595,"lon":5.386795,"is_reserved":false,"is_disabled":false,"rental_uris":{"android":"levelo://app?vid=d833c378-293c-4470-935e-429572050adf","ios":"levelo://app?vid=d833c378-293c-4470-935e-429572050adf"},"vehicle_type_id":"4","last_reported":1716743174,"current_range_meters":1600,"station_id":"ce4bh492rcd13ifvqdug","pricing_plan_id":"cebpf4jnsgd1na2vs0mg"},{"bike_id":"1c59870e-58dc-49ed-95a7-e07877f10ce0","system_id":"levelo_inurba_marseille","lat":43.319179,"lon":5.407725,"is_reserved":false,"is_disabled":false,"rental_uris":{"android":"levelo://app?vid=1c59870e-58dc-49ed-95a7-e07877f10ce0","ios":"levelo://app?vid=1c59870e-58dc-49ed-95a7-e07877f10ce0"},"vehicle_type_id":"4","last_reported":1716743174,"current_range_meters":30400,"station_id":"ce4bhq12rcd13ifvqhig","pricing_plan_id":"cebpf4jnsgd1na2vs0mg"},