{"last_updated":1728216920,"ttl":60,"version":"2.2","data":{"bikes":[{"bike_id":"e7cc1f6c-ac6c-4b1f-a39d-839fe34cf8f7","system_id":"levelo_inurba_marseille","lat":43.28706,"lon":5.37395,"is_reserved":false,"is_disabled":false,"rental_uris":{"android":"levelo://app?vid=e7cc1f6c-ac6c-4b1f-a39d-839fe34cf8f7","ios":"levelo://app?vid=e7cc1f6c-ac6c-4b1f-a39d-839fe34cf8f7"},"vehicle_type_id":"4","last_reported":1728216920,"current_range_meters":30000,"station_id":"ce4bh3p2rcd13ifvqdq0","pricing_plan_id":"cebpf4jnsgd1na2vs0mg"},{"bike_id":"e626ce58-ed24-403d-b16f-1544c4a5d89a","system_id":"levelo_inurba_marseille","lat":43.23191,"lon":5.35546,"is_reserved":false,"is_disabled":false,"rental_uris":{"android":"levelo://app?vid=e626ce58-ed24-403d-b16f-1544c4a5d89a","ios":"levelo://app?vid=e626ce58-ed24-403d-b16f-1544c4a5d89a"},"vehicle_type_id":"4","last_reported":1728216920,"current_range_meters":37600,"station_id":"ce4bhu92rcd13ifvqi70","pricing_plan_id":"cebpf4jnsgd1na2vs0mg"},{"bike_id":"7fc29c33-84d0-403a-9284-0ccef4f7a5e4","system_id":"levelo_inurba_marseille","lat":43.24662,"lon":5.3739,"is_reserved":false,"is_disabled":false,"rental_uris":{"android":"levelo://app?vid=7fc29c33-84d0-403a-9284-0ccef4f7a5e4","ios":"levelo://app?vid=7fc29c33-84d0-403a-9284-0ccef4f7a5e4"},"vehicle_type_id":"4","last_reported":1728216920,"current_range_meters":37600,"station_id":"ce4bhgh2rcd13ifvqfb0","pricing_plan_id":"cebpf4jnsgd1na2vs0mg"},{"bike_id":"9671f252-4906-4ded-9eb9-fd7886dcac1f","system_id":"levelo_inurba_marseille","lat":43.31749,"lon":5.39012,"is_reserved":false,"is_disabled":false,"rental_uris":{"android":"levelo://app?vid=9671f252-4906-4ded-9eb9-fd7886dcac1f","ios":"levelo://app?vid=9671f252-4906-4ded-9eb9-fd7886dcac1f"},"vehicle_type_id":"4","last_reported":1728216920,"current_range_meters":37600,"station_id":"ce4bhqp2rcd13ifvqhng","pricing_plan_id":"cebpf4jnsgd1na2vs0mg"},{"bike_id":"940cde9c-6243-4a9e-89af-97831cb9ac45","system_id":"levelo_inurba_marseille","lat":43.24392,"lon":5.37054,"is_reserved":false,"is_disabled":false,"rental_uris":{"android":"levelo://app?vid=940cde9c-6243-4a9e-89af-97831cb9ac45","ios":"levelo://app?vid=940cde9c-6243-4a9e-89af-97831cb9ac45"},"vehicle_type_id":"4","last_reported":1728216920,"current_range_meters":33200,"station_id":"ce4bhhh2rcd13ifvqfk0","pricing_plan_id":"cebpf4jnsgd1na2vs0mg"},{"bike_id":"3edccbad-c604-40df-acb2-6e9d91b67298","system_id":"levelo_inurba_marseille","lat":43.21334,"lon":5.34946,"is_reserved":false,"is_disabled":false,"rental_uris":{"android":"levelo://app?vid=3edccbad-c604-40df-acb2-6e9d91b67298","ios":"levelo://app?vid=3edccbad-c604-40df-acb2-6e9d91b67298"},"vehicle_type_id":"4","last_reported":1728216920,"current_range_meters":28800,"station_id":"crv51consjfaj9uu89c0","pricing_plan_id":"cebpf4jnsgd1na2vs0mg"},{"bike_id":"f44f7fd9-b310-46cf-8ba8-138471618f6c","system_id":"levelo_inurba_marseille","lat":43.29713,"lon":5.36613,"is_reserved":false,"is_disabled":false,"rental_uris":{"android":"levelo://app?vid=f44f7fd9-b310-46cf-8ba8-138471618f6c","ios":"levelo://app?vid=f44f7fd9-b310-46cf-8ba8-138471618f6c"},"vehicle_type_id":"4","last_reported":1728216920,"current_range_meters":30400,"station_id":"ce4bgn12rcd13ifvqbt0","pricing_plan_id":"cebpf4jnsgd1na2vs0mg"},{"bike_id":"f42ba909-c6af-4d4c-bcad-ee9c6f8944ff","system_id":"levelo_inurba_marseille","lat":43.317588,"lon":5.390169,"is_reserved":false,"is_disabled":false,"rental_uris":{"android":"levelo://app?vid=f42ba909-c6af-4d4c-bcad-ee9c6f8944ff","ios":"levelo://app?vid=f42ba909-c6af-4d4c-bcad-ee9c6f8944ff"},"vehicle_type_id":"4","last_reported":1728216920,"current_range_meters":38800,"station_id":"ce4bhqp2rcd13ifvqhng","pricing_plan_id":"cebpf4jnsgd1na2vs0mg"},{"bike_id":"b7e29000-285b-4348-ae0e-bea2aa63466b","system_id":"levelo_inurba_marseille","lat":43.28476,"lon":5.38415,"is_reserved":false,"is_disabled":false,"rental_uris":{"android":"levelo://app?vid=b7e29000-285b-4348-ae0e-bea2aa63466b","ios":"levelo://app?vid=b7e29000-285b-4348-ae0e-bea2aa63466b"},"vehicle_type_id":"4","last_reported":1728216920,"current_range_meters":29600,"station_id":"ce4bh512rcd13ifvqe3g","pricing_plan_id":"cebpf4jnsgd1na2vs0mg"},{"bike_id":"5753b4cd-508e-40cf-9b18-608ae9a4cd96","system_id":"levelo_inurba_marseille","lat":43.29605,"lon":5.37733,"is_reserved":false,"is_disabled":false,"rental_uris":{"android":"levelo://app?vid=5753b4cd-508e-40cf-9b18-608ae9a4cd96","ios":"levelo://app?vid=5753b4cd-508e-40cf-9b18-608ae9a4cd96"},"vehicle_type_id":"4","last_reported":1728216920,"current_range_meters":30400,"station_id":"ce4bgi92rcd13ifvqb90","pricing_plan_id":"cebpf4jnsgd1na2vs0mg"},{"bike_id":"16f0299f-6d3a-4195-b445-1dabc97f2084","system_id":"levelo_inurba_marseille","lat":43.26706,"lon":5.38256,"is_reserved":false,"is_disabled":false,"rental_uris":{"android":"levelo://app?vid=16f0299f-6d3a-4195-b445-1dabc97f2084","ios":"levelo://app?vid=16f0299f-6d3a-4195-b445-1dabc97f2084"},"vehicle_type_id":"4","last_reported":1728216920,"current_range_meters":36000,"station_id":"ce4bhg92rcd13ifvqf90","pricing_plan_id":"cebpf4jnsgd1na2vs0mg"},{"bike_id":"939f948f-0f86-450d-a969-aa8b3d4b8584","system_id":"levelo_inurba_marseille","lat":43.21348,"lon":5.34936,"is_reserved":false,"is_disabled":false,"rental_uris":{"android":"levelo://app?vid=939f948f-0f86-450d-a969-aa8b3d4b8584","ios":"levelo://app?vid=939f948f-0f86-450d-a969-aa8b3d4b8584"},"vehicle_type_id":"4","last_reported":1728216920,"current_range_meters":37600,"station_id":"crv51consjfaj9uu89c0","pricing_plan_id":"cebpf4jnsgd1na2vs0mg"},{"bike_id":"53aed260-8a8b-48a9-a9a5-ec999fb04e11","system_id":"levelo_inurba_marseille","lat":43.25118,"lon":5.40321,"is_reserved":false,"is_disabled":false,"rental_uris":{"android":"levelo://app?vid=53aed260-8a8b-48a9-a9a5-ec999fb04e11","ios":"levelo://app?vid=53aed260-8a8b-48a9-a9a5-ec999fb04e11"},"vehicle_type_id":"4","last_reported":1728216920,"current_range_meters":38800,"station_id":"ce4bhlh2rcd13ifvqgig","pricing_plan_id":"cebpf4jnsgd1na2vs0mg"},{"bike_id":"4de42dd8-05f9-4763-ba3a-a216bf1d5d7e","system_id":"levelo_inurba_marseille","lat":43.24386,"lon":5.37049,"is_reserved":false,"is_disabled":false,"rental_uris":{"android":"levelo://app?vid=4de42dd8-05f9-4763-ba3a-a216bf1d5d7e","ios":"levelo://app?vid=4de42dd8-05f9-4763-ba3a-a216bf1d5d7e"},"vehicle_type_id":"4","last_reported":1728216920,"current_range_meters":38800,"station_id":"ce4bhhh2rcd13ifvqfk0","pricing_plan_id":"cebpf4jnsgd1na2vs0mg"},{"bike_id":"0903ad5d-b096-498b-ada7-49eff5e527a4","system_id":"levelo_inurba_marseille","lat":43.28689,"lon":5.38319,"is_reserved":false,"is_disabled":false,"rental_uris":{"android":"levelo://app?vid=0903ad5d-b096-498b-ada7-49eff5e527a4","ios":"levelo://app?vid=0903ad5d-b096-498b-ada7-49eff5e527a4"},"vehicle_type_id":"4","last_reported":1728216920,"current_range_meters":8400,"station_id":"ce4bh512rcd13ifvqe3g","pricing_plan_id":"cebpf4jnsgd1na2vs0mg"},{"bike_id":"c1fc3e70-e0c0-46ca-9485-5f0a18839246","system_id":"levelo_inurba_marseille","lat":43.24387,"lon":5.37058,"is_reserved":false,"is_disabled":false,"rental_uris":{"android":"levelo://app?vid=c1fc3e70-e0c0-46ca-9485-5f0a18839246","ios":"levelo://app?vid=c1fc3e70-e0c0-46ca-9485-5f0a18839246"},"vehicle_type_id":"4","last_reported":1728216920,"current_range_meters":14800,"station_id":"ce4bhhh2rcd13ifvqfk0","pricing_plan_id":"cebpf4jnsgd1na2vs0mg"},{"bike_id":"8b4b06da-a8ff-4dc9-ab9f-042b5fa35747","system_id":"levelo_inurba_marseille","lat":43.25576,"lon":5.38234,"is_reserved":false,"is_disabled":false,"rental_uris":{"android":"levelo://app?vid=8b4b06da-a8ff-4dc9-ab9f-042b5fa35747","ios":"levelo://app?vid=8b4b06da-a8ff-4dc9-ab9f-042b5fa35747"},"vehicle_type_id":"4","last_reported":1728216920,"current_range_meters":6800,"station_id":"ce4bhih2rcd13ifvqfs0","pricing_plan_id":"cebpf4jnsgd1na2vs0mg"},{"bike_id":"3d3e93be-8a67-4628-9af2-2661c9a0daa4","system_id":"levelo_inurba_marseille","lat":43.22931,"lon":5.3537,"is_reserved":false,"is_disabled":false,"rental_uris":{"android":"levelo://app?vid=3d3e93be-8a67-4628-9af2-2661c9a0daa4","ios":"levelo://app?vid=3d3e93be-8a67-4628-9af2-2661c9a0daa4"},"vehicle_type_id":"4","last_reported":1728216920,"current_range_meters":36400,"station_id":"cpo3532slgdg3j2ikp40","pricing_plan_id":"cebpf4jnsgd1na2vs0mg"},{"bike_id":"83bd8e08-648e-4fc6-8901-05219804adac","system_id":"levelo_inurba_marseille","lat":43.22936,"lon":5.35376,"is_reserved":false,"is_disabled":false,"rental_uris":{"android":"levelo://app?vid=83bd8e08-648e-4fc6-8901-05219804adac","ios":"levelo://app?vid=83bd8e08-648e-4fc6-8901-05219804adac"},"vehicle_type_id":"4","last_reported":1728216920,"current_range_meters":30800,"station_id":"cpo3532slgdg3j2ikp40","pricing_plan_id":"cebpf4jnsgd1na2vs0mg"},{"bike_id":"1f629343-a2d5-4b24-89b2-1f67623c839a","system_id":"levelo_inurba_marseille","lat":43.24389,"lon":5.37057,"is_reserved":false,"is_disabled":false,"rental_uris":{"android":"levelo://app?vid=1f629343-a2d5-4b24-89b2-1f67623c839a","ios":"levelo://app?vid=1f629343-a2d5-4b24-89b2-1f67623c839a"},"vehicle_type_id":"4","last_reported":1728216920,"current_range_meters":25600,"station_id":"ce4bhhh2rcd13ifvqfk0","pricing_plan_id":"cebpf4jnsgd1na2vs0mg"},{"bike_id":"6266ab0d-036e-4351-aec4-c2f2013119e5","system_id":"levelo_inurba_marseille","lat":43.32484,"lon":5.3657,"is_reserved":false,"is_disabled":false,"rental_uris":{"android":"levelo://app?vid=6266ab0d-036e-4351-aec4-c2f2013119e5","ios":"levelo://app?vid=6266ab0d-036e-4351-aec4-c2f2013119e5"},"vehicle_type_id":"4","last_reported":1728216920,"current_range_meters":39200,"station_id":"ce4bhs12rcd13ifvqhvg","pricing_plan_id":"cebpf4jnsgd1na2vs0mg"},{"bike_id":"2c1ccc48-7b9a-4b96-82c1-feb476287a75","system_id":"levelo_inurba_marseille","lat":43.25085,"lon":5.39513,"is_reserved":false,"is_disabled":false,"rental_uris":{"android":"levelo://app?vid=2c1ccc48-7b9a-4b96-82c1-feb476287a75","ios":"levelo://app?vid=2c1ccc48-7b9a-4b96-82c1-feb476287a75"},"vehicle_type_id":"4","last_reported":1728216920,"current_range_meters":36000,"station_id":"ce4bhm12rcd13ifvqgkg","pricing_plan_id":"cebpf4jnsgd1na2vs0mg"},{"bike_id":"f11dd066-6b94-4d0b-8a87-cb59e5dabda0","system_id":"levelo_inurba_marseille","lat":43.31268,"lon":5.40174,"is_reserved":false,"is_disabled":false,"rental_uris":{"android":"levelo://app?vid=f11dd066-6b94-4d0b-8a87-cb59e5dabda0","ios":"levelo://app?vid=f11dd066-6b94-4d0b-8a87-cb59e5dabda0"},"vehicle_type_id":"4","last_reported":1728216920,"current_range_meters":39200,"station_id":"ce4bh092rcd13ifvqd30","pricing_plan_id":"cebpf4jnsgd1na2vs0mg"},{"bike_id":"7aae08ec-9c54-43e0-8d4e-d8b086f4c93a","system_id":"levelo_inurba_marseille","lat":43.28853,"lon":5.39309,"is_reserved":false,"is_disabled":false,"rental_uris":{"android":"levelo://app?vid=7aae08ec-9c54-43e0-8d4e-d8b086f4c93a","ios":"levelo://app?vid=7aae08ec-9c54-43e0-8d4e-d8b086f4c93a"},"vehicle_type_id":"4","last_reported":1728216920,"current_range_meters":8000,"station_id":"ce4bh2p2rcd13ifvqdi0","pricing_plan_id":"cebpf4jnsgd1na2vs0mg"},{"bike_id":"25e81eef-b9ea-4b4d-bf5f-af41e3b53100","system_id":"levelo_inurba_marseille","lat":43.29958,"lon":5.41323,"is_reserved":false,"is_disabled":false,"rental_uris":{"android":"levelo://app?vid=25e81eef-b9ea-4b4d-bf5f-af41e3b53100","ios":"levelo://app?vid=25e81eef-b9ea-4b4d-bf5f-af41e3b53100"},"vehicle_type_id":"4","last_reported":1728216920,"current_range_meters":38000,"station_id":"ce4bhp12rcd13ifvqh9g","pricing_plan_id":"cebpf4jnsgd1na2vs0mg"},{"bike_id":"249ba857-c21a-4cf9-b612-6eace3a3311f","system_id":"levelo_inurba_marseille","lat":43.302161,"lon":5.394684,"is_reserved":false,"is_disabled":false,"rental_uris":{"android":"levelo://app?vid=249ba857-c21a-4cf9-b612-6eace3a3311f","ios":"levelo://app?vid=249ba857-c21a-4cf9-b612-6eace3a3311f"},"vehicle_type_id":"4","last_reported":1728216920,"current_range_meters":24800,"station_id":"ce4bhk92rcd13ifvqgb0","pricing_plan_id":"cebpf4jnsgd1na2vs0mg"},{"bike_id":"32ab325a-0e98-4bb3-809c-c26d46577549","system_id":"levelo_inurba_marseille","lat":43.22936,"lon":5.35375,"is_reserved":false,"is_disabled":false,"rental_uris":{"android":"levelo://app?vid=32ab325a-0e98-4bb3-809c-c26d46577549","ios":"levelo://app?vid=32ab325a-0e98-4bb3-809c-c26d46577549"},"vehicle_type_id":"4","last_reported":1728216920,"current_range_meters":27200,"station_id":"cpo3532slgdg3j2ikp40","pricing_plan_id":"cebpf4jnsgd1na2vs0mg"},{"bike_id":"21814611-01da-4a56-bde2-76253f0cdaa1","system_id":"levelo_inurba_marseille","lat":43.27076,"lon":5.42277,"is_reserved":false,"is_disabled":false,"rental_uris":{"android":"levelo://app?vid=21814611-01da-4a56-bde2-76253f0cdaa1","ios":"levelo://app?vid=21814611-01da-4a56-bde2-76253f0cdaa1"},"vehicle_type_id":"4","last_reported":1728216920,"current_range_meters":8000,"station_id":"ce4bhk92rcd13ifvqgb0","pricing_plan_id":"cebpf4jnsgd1na2vs0mg"},{"bike_id":"901196d4-9d8e-4d5d-9c4e-d016f0228744","system_id":"levelo_inurba_marseille","lat":43.29525,"lon":5.39038,"is_reserved":false,"is_disabled":false,"rental_uris":{"android":"levelo://app?vid=901196d4-9d8e-4d5d-9c4e-d016f0228744","ios":"levelo://app?vid=901196d4-9d8e-4d5d-9c4e-d016f0228744"},"vehicle_type_id":"4","last_reported":1728216920,"current_range_meters":33600,"station_id":"ce4bh3p2rcd13ifvqdp0","pricing_plan_id":"cebpf4jnsgd1na2vs0mg"},{"bike_id":"b833d7d0-2f0a-498b-848e-380cf4927634","system_id":"levelo_inurba_marseille","lat":43.295746,"lon":5.375692,"is_reserved":false,"is_disabled":false,"rental_uris":{"android":"levelo://app?vid=b833d7d0-2f0a-498b-848e-380cf4927634","ios":"levelo://app?vid=b833d7d0-2f0a-498b-848e-380cf4927634"},"vehicle_type_id":"4","last_reported":1728216920,"current_range_meters":28400,"station_id":"","pricing_plan_id":"cebpf4jnsgd1na2vs0mg"},{"bike_id":"17d8cbcd-0f4c-4a6c-968b-0b9ea072e4cf","system_id":"levelo_inurba_marseille","lat":43.32481,"lon":5.36567,"is_reserved":false,"is_disabled":false,"rental_uris":{"android":"levelo://app?vid=17d8cbcd-0f4c-4a6c-968b-0b9ea072e4cf","ios":"levelo://app?vid=17d8cbcd-0f4c-4a6c-968b-0b9ea072e4cf"},"vehicle_type_id":"4","last_reported":1728216920,"current_range_meters":32800,"station_id":"ce4bhs12rcd13ifvqhvg","pricing_plan_id":"cebpf4jnsgd1na2vs0mg"},{"bike_id":"03ebdfef-60b9-4383-b780-f6e10ef5dff9","system_id":"levelo_inurba_marseille","lat":43.33753,"lon":5.37437,"is_reserved":false,"is_disabled":false,"rental_uris":{"android":"levelo://app?vid=03ebdfef-60b9-4383-b780-f6e10ef5dff9","ios":"levelo://app?vid=03ebdfef-60b9-4383-b780-f6e10ef5dff9"},"vehicle_type_id":"4","last_reported":1728216920,"current_range_meters":27600,"station_id":"","pricing_plan_id":"cebpf4jnsgd1na2vs0mg"},{"bike_id":"0e9f98c1-6515-4050-9bcf-5329349cd9b7","system_id":"levelo_inurba_marseille","lat":43.269257,"lon":5.390587,"is_reserved":false,"is_disabled":false,"rental_uris":{"android":"levelo://app?vid=0e9f98c1-6515-4050-9bcf-5329349cd9b7","ios":"levelo://app?vid=0e9f98c1-6515-4050-9bcf-5329349cd9b7"},"vehicle_type_id":"4","last_reported":1728216920,"current_range_meters":11600,"station_id":"cki0cbj6b192h4jlfktg","pricing_plan_id":"cebpf4jnsgd1na2vs0mg"},{"bike_id":"06c460ce-cc1c-47a9-82a9-e327be06f701","system_id":"levelo_inurba_marseille","lat":43.31498,"lon":5.37304,"is_reserved":false,"is_disabled":false,"rental_uris":{"android":"levelo://app?vid=06c460ce-cc1c-47a9-82a9-e327be06f701","ios":"levelo://app?vid=06c460ce-cc1c-47a9-82a9-e327be06f701"},"vehicle_type_id":"4","last_reported":1728216920,"current_range_meters":38800,"station_id":"ce4bgt12rcd13ifvqcd0","pricing_plan_id":"cebpf4jnsgd1na2vs0mg"},{"bike_id":"8c4ede2a-8479-4951-912b-e9104b176599","system_id":"levelo_inurba_marseille","lat":43.33726,"lon":5.3919,"is_reserved":false,"is_disabled":false,"rental_uris":{"android":"levelo://app?vid=8c4ede2a-8479-4951-912b-e9104b176599","ios":"levelo://app?vid=8c4ede2a-8479-4951-912b-e9104b176599"},"vehicle_type_id":"4","last_reported":1728216920,"current_range_meters":8000,"station_id":"ce4bhr92rcd13ifvqhsg","pricing_plan_id":"cebpf4jnsgd1na2vs0mg"},{"bike_id":"a209a971-131e-491a-94c0-3302688dd8c9","system_id":"levelo_inurba_marseille","lat":43.30811,"lon":5.4352,"is_reserved":false,"is_disabled":false,"rental_uris":{"android":"levelo://app?vid=a209a971-131e-491a-94c0-3302688dd8c9","ios":"levelo://app?vid=a209a971-131e-491a-94c0-3302688dd8c9"},"vehicle_type_id":"4","last_reported":1728216920,"current_range_meters":12800,"station_id":"ce4bhph2rcd13ifvqheg","pricing_plan_id":"cebpf4jnsgd1na2vs0mg"},{"bike_id":"0677a6b5-e146-40ec-a422-c0be68c6f896","system_id":"levelo_inurba_marseille","lat":43.31686,"lon":5.40467,"is_reserved":false,"is_disabled":false,"rental_uris":{"android":"levelo://app?vid=0677a6b5-e146-40ec-a422-c0be68c6f896","ios":"levelo://app?vid=0677a6b5-e146-40ec-a422-c0be68c6f896"},"vehicle_type_id":"4","last_reported":1728216920,"current_range_meters":20400,"station_id":"ce4bhq92rcd13ifvqhjg","pricing_plan_id":"cebpf4jnsgd1na2vs0mg"},{"bike_id":"4018fa26-9a2a-4214-af21-76b3667a940b","system_id":"levelo_inurba_marseille","lat":43.33772,"lon":5.37422,"is_reserved":false,"is_disabled":false,"rental_uris":{"android":"levelo://app?vid=4018fa26-9a2a-4214-af21-76b3667a940b","ios":"levelo://app?vid=4018fa26-9a2a-4214-af21-76b3667a940b"},"vehicle_type_id":"4","last_reported":1728216920,"current_range_meters":28000,"station_id":"","pricing_plan_id":"cebpf4jnsgd1na2vs0mg"},{"bike_id":"b58b67ef-f1e6-4087-8c3a-fbf7c880048f","system_id":"levelo_inurba_marseille","lat":43.28925,"lon":5.38389,"is_reserved":false,"is_disabled":false,"rental_uris":{"android":"levelo://app?vid=b58b67ef-f1e6-4087-8c3a-fbf7c880048f","ios":"levelo://app?vid=b58b67ef-f1e6-4087-8c3a-fbf7c880048f"},"vehicle_type_id":"4","last_reported":1728216920,"current_range_meters":36000,"station_id":"ce4bh612rcd13ifvqe6g","pricing_plan_id":"cebpf4jnsgd1na2vs0mg"},{"bike_id":"fac6f7d5-25da-4d75-bd37-6eb9ec641f1f","system_id":"levelo_inurba_marseille","lat":43.23191,"lon":5.35551,"is_reserved":false,"is_disabled":false,"rental_uris":{"android":"levelo://app?vid=fac6f7d5-25da-4d75-bd37-6eb9ec641f1f","ios":"levelo://app?vid=fac6f7d5-25da-4d75-bd37-6eb9ec641f1f"},"vehicle_type_id":"4","last_reported":1728216920,"current_range_meters":36800,"station_id":"ce4bhu92rcd13ifvqi70","pricing_plan_id":"cebpf4jnsgd1na2vs0mg"},{"bike_id":"ac7477e2-647f-4698-b2f1-05ac6bd7ca79","system_id":"levelo_inurba_marseille","lat":43.27373,"lon":5.36243,"is_reserved":false,"is_disabled":false,"rental_uris":{"android":"levelo://app?vid=ac7477e2-647f-4698-b2f1-05ac6bd7ca79","ios":"levelo://app?vid=ac7477e2-647f-4698-b2f1-05ac6bd7ca79"},"vehicle_type_id":"4","last_reported":1728216920,"current_range_meters":33600,"station_id":"ce4bhbh2rcd13ifvqeo0","pricing_plan_id":"cebpf4jnsgd1na2vs0mg"},{"bike_id":"ea1558d2-8ab1-46c9-b214-6b68c55ad7cc","system_id":"levelo_inurba_marseille","lat":43.30956,"lon":5.39033,"is_reserved":false,"is_disabled":false,"rental_uris":{"android":"levelo://app?vid=ea1558d2-8ab1-46c9-b214-6b68c55ad7cc","ios":"levelo://app?vid=ea1558d2-8ab1-46c9-b214-6b68c55ad7cc"},"vehicle_type_id":"4","last_reported":1728216920,"current_range_meters":36800,"station_id":"ce4bgup2rcd13ifvqco0","pricing_plan_id":"cebpf4jnsgd1na2vs0mg"},{"bike_id":"c2631e27-f561-45cd-964c-4f2a217a8c4e","system_id":"levelo_inurba_marseille","lat":43.30637,"lon":5.40084,"is_reserved":false,"is_disabled":false,"rental_uris":{"android":"levelo://app?vid=c2631e27-f561-45cd-964c-4f2a217a8c4e","ios":"levelo://app?vid=c2631e27-f561-45cd-964c-4f2a217a8c4e"},"vehicle_type_id":"4","last_reported":1728216920,"current_range_meters":3600,"station_id":"ce4bh112rcd13ifvqda0","pricing_plan_id":"cebpf4jnsgd1na2vs0mg"},{"bike_id":"43b1ccfa-bb66-4c41-a3b6-088c7741f21a","system_id":"levelo_inurba_marseille","lat":43.31491,"lon":5.37299,"is_reserved":false,"is_disabled":false,"rental_uris":{"android":"levelo://app?vid=43b1ccfa-bb66-4c41-a3b6-088c7741f21a","ios":"levelo://app?vid=43b1ccfa-bb66-4c41-a3b6-088c7741f21a"},"vehicle_type_id":"4","last_reported":1728216920,"current_range_meters":38800,"station_id":"ce4bgt12rcd13ifvqcd0","pricing_plan_id":"cebpf4jnsgd1na2vs0mg"},{"bike_id":"79803986-df62-488f-a273-dc1e2c1dd89e","system_id":"levelo_inurba_marseille","lat":43.29618,"lon":5.3773,"is_reserved":false,"is_disabled":false,"rental_uris":{"android":"levelo://app?vid=79803986-df62-488f-a273-dc1e2c1dd89e","ios":"levelo://app?vid=79803986-df62-488f-a273-dc1e2c1dd89e"},"vehicle_type_id":"4","last_reported":1728216920,"current_range_meters":32000,"station_id":"ce4bgi92rcd13ifvqb90","pricing_plan_id":"cebpf4jnsgd1na2vs0mg"},{"bike_id":"be80d8a2-d07f-4e97-a19e-421069027a70","system_id":"levelo_inurba_marseille","lat":43.2454,"lon":5.3952,"is_reserved":false,"is_disabled":false,"rental_uris":{"android":"levelo://app?vid=be80d8a2-d07f-4e97-a19e-421069027a70","ios":"levelo://app?vid=be80d8a2-d07f-4e97-a19e-421069027a70"},"vehicle_type_id":"4","last_reported":1728216920,"current_range_meters":36800,"station_id":"ce4bhlp2rcd13ifvqgjg","pricing_plan_id":"cebpf4jnsgd1na2vs0mg"},{"bike_id":"491813ec-5bcd-4eda-acb2-c01ccb4e9894","system_id":"levelo_inurba_marseille","lat":43.33772,"lon":5.37422,"is_reserved":false,"is_disabled":false,"rental_uris":{"android":"levelo://app?vid=491813ec-5bcd-4eda-acb2-c01ccb4e9894","ios":"levelo://app?vid=491813ec-5bcd-4eda-acb2-c01ccb4e9894"},"vehicle_type_id":"4","last_reported":1728216920,"current_range_meters":27600,"station_id":"","pricing_plan_id":"cebpf4jnsgd1na2vs0mg"},{"bike_id":"8066cbd9-6f5f-4c8b-82e0-670217342883","system_id":"levelo_inurba_marseille","lat":43.21345,"lon":5.34938,"is_reserved":false,"is_disabled":false,"rental_uris":{"android":"levelo://app?vid=8066cbd9-6f5f-4c8b-82e0-670217342883","ios":"levelo://app?vid=8066cbd9-6f5f-4c8b-82e0-670217342883"},"vehicle_type_id":"4","last_reported":1728216920,"current_range_meters":33600,"station_id":"crv51consjfaj9uu89c0","pricing_plan_id":"cebpf4jnsgd1na2vs0mg"},{"bike_id":"870ecdbf-3528-4277-82a5-269de3374c1c","system_id":"levelo_inurba_marseille","lat":43.27071,"lon":5.42286,"is_reserved":false,"is_disabled":false,"rental_uris":{"android":"levelo://app?vid=870ecdbf-3528-4277-82a5-269de3374c1c","ios":"levelo://app?vid=870ecdbf-3528-4277-82a5-269de3374c1c"},"vehicle_type_id":"4","last_reported":1728216920,"current_range_meters":37600,"station_id":"ce4bhk92rcd13ifvqgb0","pricing_plan_id":"cebpf4jnsgd1na2vs0mg"},{"bike_id":"26b82ece-a942-4fe4-99ec-d92c49d7ac02","system_id":"levelo_inurba_marseille","lat":43.29897,"lon":5.4367,"is_reserved":false,"is_disabled":false,"rental_uris":{"android":"levelo://app?vid=26b82ece-a942-4fe4-99ec-d92c49d7ac02","ios":"levelo://app?vid=26b82ece-a942-4fe4-99ec-d92c49d7ac02"},"vehicle_type_id":"4","last_reported":1728216920,"current_range_meters":36800,"station_id":"ce4bhpp2rcd13ifvqhfg","pricing_plan_id":"cebpf4jnsgd1na2vs0mg"},{"bike_id":"baba7691-81ff-4c7d-90d9-c89eba9696cb","system_id":"levelo_inurba_marseille","lat":43.25928,"lon":5.40908,"is_reserved":false,"is_disabled":false,"rental_uris":{"android":"levelo://app?vid=baba7691-81ff-4c7d-90d9-c89eba9696cb","ios":"levelo://app?vid=baba7691-81ff-4c7d-90d9-c89eba9696cb"},"vehicle_type_id":"4","last_reported":1728216920,"current_range_meters":32000,"station_id":"ce4bhm92rcd13ifvqglg","pricing_plan_id":"cebpf4jnsgd1na2vs0mg"},{"bike_id":"a6007e39-eafe-4c4f-8bcd-ba3040fddf98","system_id":"levelo_inurba_marseille","lat":43.29269,"lon":5.3684,"is_reserved":false,"is_disabled":false,"rental_uris":{"android":"levelo://app?vid=a6007e39-eafe-4c4f-8bcd-ba3040fddf98","ios":"levelo://app?vid=a6007e39-eafe-4c4f-8bcd-ba3040fddf98"},"vehicle_type_id":"4","last_reported":1728216920,"current_range_meters":19600,"station_id":"ce4bhbp2rcd13ifvqesg","pricing_plan_id":"cebpf4jnsgd1na2vs0mg"},{"bike_id":"db3bfc60-2610-4c23-b96a-46d6826b4e8a","system_id":"levelo_inurba_marseille","lat":43.30792,"lon":5.37654,"is_reserved":false,"is_disabled":false,"rental_uris":{"android":"levelo://app?vid=db3bfc60-2610-4c23-b96a-46d6826b4e8a","ios":"levelo://app?vid=db3bfc60-2610-4c23-b96a-46d6826b4e8a"},"vehicle_type_id":"4","last_reported":1728216920,"current_range_meters":8400,"station_id":"ce4bgv92rcd13ifvqcq0","pricing_plan_id":"cebpf4jnsgd1na2vs0mg"},{"bike_id":"d73e4c46-b32f-4eb4-8be2-86b635c69fb6","system_id":"levelo_inurba_marseille","lat":43.28714,"lon":5.37389,"is_reserved":false,"is_disabled":false,"rental_uris":{"android":"levelo://app?vid=d73e4c46-b32f-4eb4-8be2-86b635c69fb6","ios":"levelo://app?vid=d73e4c46-b32f-4eb4-8be2-86b635c69fb6"},"vehicle_type_id":"4","last_reported":1728216920,"current_range_meters":16400,"station_id":"ce4bh3p2rcd13ifvqdq0","pricing_plan_id":"cebpf4jnsgd1na2vs0mg"},{"bike_id":"1a4b9bee-9297-474e-8c5a-addba9e72262","system_id":"levelo_inurba_marseille","lat":43.27499,"lon":5.42447,"is_reserved":false,"is_disabled":false,"rental_uris":{"android":"levelo://app?vid=1a4b9bee-9297-474e-8c5a-addba9e72262","ios":"levelo://app?vid=1a4b9bee-9297-474e-8c5a-addba9e72262"},"vehicle_type_id":"4","last_reported":1728216920,"current_range_meters":32000,"station_id":"ce4bhn92rcd13ifvqgrg","pricing_plan_id":"cebpf4jnsgd1na2vs0mg"},{"bike_id":"d23ddbe4-840b-4d6d-8e13-a20922334a77","system_id":"levelo_inurba_marseille","lat":43.32485,"lon":5.36551,"is_reserved":false,"is_disabled":false,"rental_uris":{"android":"levelo://app?vid=d23ddbe4-840b-4d6d-8e13-a20922334a77","ios":"levelo://app?vid=d23ddbe4-840b-4d6d-8e13-a20922334a77"},"vehicle_type_id":"4","last_reported":1728216920,"current_range_meters":38800,"station_id":"ce4bhs12rcd13ifvqhvg","pricing_plan_id":"cebpf4jnsgd1na2vs0mg"},{"bike_id":"4af55307-045f-4c66-a045-a91d88bb4c16","system_id":"levelo_inurba_marseille","lat":43.22931,"lon":5.35376,"is_reserved":false,"is_disabled":false,"rental_uris":{"android":"levelo://app?vid=4af55307-045f-4c66-a045-a91d88bb4c16","ios":"levelo://app?vid=4af55307-045f-4c66-a045-a91d88bb4c16"},"vehicle_type_id":"4","last_reported":1728216920,"current_range_meters":30800,"station_id":"cpo3532slgdg3j2ikp40","pricing_plan_id":"cebpf4jnsgd1na2vs0mg"},{"bike_id":"77e3d511-9ac2-4c0b-b410-60b6a034bae6","system_id":"levelo_inurba_marseille","lat":43.263123,"lon":5.384333,"is_reserved":false,"is_disabled":false,"rental_uris":{"android":"levelo://app?vid=77e3d511-9ac2-4c0b-b410-60b6a034bae6","ios":"levelo://app?vid=77e3d511-9ac2-4c0b-b410-60b6a034bae6"},"vehicle_type_id":"4","last_reported":1728216920,"current_range_meters":17200,"station_id":"ce4bhjp2rcd13ifvqg90","pricing_plan_id":"cebpf4jnsgd1na2vs0mg"},{"bike_id":"4548b517-12f1-4bdf-bf19-bf56f4b90c1d","system_id":"levelo_inurba_marseille","lat":43.28977,"lon":5.37829,"is_reserved":false,"is_disabled":false,"rental_uris":{"android":"levelo://app?vid=4548b517-12f1-4bdf-bf19-bf56f4b90c1d","ios":"levelo://app?vid=4548b517-12f1-4bdf-bf19-bf56f4b90c1d"},"vehicle_type_id":"4","last_reported":1728216920,"current_range_meters":38000,"station_id":"ce4bh9p2rcd13ifvqed0","pricing_plan_id":"cebpf4jnsgd1na2vs0mg"},{"bike_id":"3a86a196-3471-4cfa-86a0-2ffb5a65c9ed","system_id":"levelo_inurba_marseille","lat":43.29262,"lon":5.38428,"is_reserved":false,"is_disabled":false,"rental_uris":{"android":"levelo://app?vid=3a86a196-3471-4cfa-86a0-2ffb5a65c9ed","ios":"levelo://app?vid=3a86a196-3471-4cfa-86a0-2ffb5a65c9ed"},"vehicle_type_id":"4","last_reported":1728216920,"current_range_meters":35200,"station_id":"ce4bh692rcd13ifvqea0","pricing_plan_id":"cebpf4jnsgd1na2vs0mg"},{"bike_id":"13a35d1a-1c21-4cdd-9282-17040c700716","system_id":"levelo_inurba_marseille","lat":43.32544,"lon":5.4144,"is_reserved":false,"is_disabled":false,"rental_uris":{"android":"levelo://app?vid=13a35d1a-1c21-4cdd-9282-17040c700716","ios":"levelo://app?vid=13a35d1a-1c21-4cdd-9282-17040c700716"},"vehicle_type_id":"4","last_reported":1728216920,"current_range_meters":35200,"station_id":"ce4bhq12rcd13ifvqhhg","pricing_plan_id":"cebpf4jnsgd1na2vs0mg"},{"bike_id":"235344ae-d40d-4c9e-a986-52bb5c104ce0","system_id":"levelo_inurba_marseille","lat":43.31685,"lon":5.40467,"is_reserved":false,"is_disabled":false,"rental_uris":{"android":"levelo://app?vid=235344ae-d40d-4c9e-a986-52bb5c104ce0","ios":"levelo://app?vid=235344ae-d40d-4c9e-a986-52bb5c104ce0"},"vehicle_type_id":"4","last_reported":1728216920,"current_range_meters":37600,"station_id":"ce4bh012rcd13ifvqd00","pricing_plan_id":"cebpf4jnsgd1na2vs0mg"},{"bike_id":"265b6257-cac5-4700-be81-5022c39ebf02","system_id":"levelo_inurba_marseille","lat":43.21346,"lon":5.3494,"is_reserved":false,"is_disabled":false,"rental_uris":{"android":"levelo://app?vid=265b6257-cac5-4700-be81-5022c39ebf02","ios":"levelo://app?vid=265b6257-cac5-4700-be81-5022c39ebf02"},"vehicle_type_id":"4","last_reported":1728216920,"current_range_meters":32400,"station_id":"crv51consjfaj9uu89c0","pricing_plan_id":"cebpf4jnsgd1na2vs0mg"},{"bike_id":"61e50557-854d-465b-ba8f-f3ddc6b61e3f","system_id":"levelo_inurba_marseille","lat":43.29307,"lon":5.37172,"is_reserved":false,"is_disabled":false,"rental_uris":{"android":"levelo://app?vid=61e50557-854d-465b-ba8f-f3ddc6b61e3f","ios":"levelo://app?vid=61e50557-854d-465b-ba8f-f3ddc6b61e3f"},"vehicle_type_id":"4","last_reported":1728216920,"current_range_meters":35200,"station_id":"ce4bgh92rcd13ifvqb40","pricing_plan_id":"cebpf4jnsgd1na2vs0mg"},{"bike_id":"79a30a07-81d5-4fba-9bdc-0528f8f010ae","system_id":"levelo_inurba_marseille","lat":43.25114,"lon":5.40325,"is_reserved":false,"is_disabled":false,"rental_uris":{"android":"levelo://app?vid=79a30a07-81d5-4fba-9bdc-0528f8f010ae","ios":"levelo://app?vid=79a30a07-81d5-4fba-9bdc-0528f8f010ae"},"vehicle_type_id":"4","last_reported":1728216920,"current_range_meters":22000,"station_id":"ce4bhlh2rcd13ifvqgig","pricing_plan_id":"cebpf4jnsgd1na2vs0mg"},{"bike_id":"926accc1-2bcd-4dbe-a7b1-050536a37719","system_id":"levelo_inurba_marseille","lat":43.292689,"lon":5.408225,"is_reserved":false,"is_disabled":false,"rental_uris":{"android":"levelo://app?vid=926accc1-2bcd-4dbe-a7b1-050536a37719","ios":"levelo://app?vid=926accc1-2bcd-4dbe-a7b1-050536a37719"},"vehicle_type_id":"4","last_reported":1728216920,"current_range_meters":30400,"station_id":"ce4bh192rcd13ifvqdc0","pricing_plan_id":"cebpf4jnsgd1na2vs0mg"},{"bike_id":"97ef281f-c717-429c-a078-d6a368902950","system_id":"levelo_inurba_marseille","lat":43.21347,"lon":5.34941,"is_reserved":false,"is_disabled":false,"rental_uris":{"android":"levelo://app?vid=97ef281f-c717-429c-a078-d6a368902950","ios":"levelo://app?vid=97ef281f-c717-429c-a078-d6a368902950"},"vehicle_type_id":"4","last_reported":1728216920,"current_range_meters":24800,"station_id":"crv51consjfaj9uu89c0","pricing_plan_id":"cebpf4jnsgd1na2vs0mg"},{"bike_id":"902122a7-5a6a-4fb2-abd7-cca729cfb5c4","system_id":"levelo_inurba_marseille","lat":43.26236,"lon":5.38767,"is_reserved":false,"is_disabled":false,"rental_uris":{"android":"levelo://app?vid=902122a7-5a6a-4fb2-abd7-cca729cfb5c4","ios":"levelo://app?vid=902122a7-5a6a-4fb2-abd7-cca729cfb5c4"},"vehicle_type_id":"4","last_reported":1728216920,"current_range_meters":27200,"station_id":"ce4bhh12rcd13ifvqff0","pricing_plan_id":"cebpf4jnsgd1na2vs0mg"},{"bike_id":"a2f3ad24-a1b9-4ff9-8d55-220247fd22c8","system_id":"levelo_inurba_marseille","lat":43.31713,"lon":5.43705,"is_reserved":false,"is_disabled":false,"rental_uris":{"android":"levelo://app?vid=a2f3ad24-a1b9-4ff9-8d55-220247fd22c8","ios":"levelo://app?vid=a2f3ad24-a1b9-4ff9-8d55-220247fd22c8"},"vehicle_type_id":"4","last_reported":1728216920,"current_range_meters":10800,"station_id":"ce4bhp92rcd13ifvqhcg","pricing_plan_id":"cebpf4jnsgd1na2vs0mg"},{"bike_id":"23860757-7352-4f6d-bd82-08ba559867c5","system_id":"levelo_inurba_marseille","lat":43.24809,"lon":5.37456,"is_reserved":false,"is_disabled":false,"rental_uris":{"android":"levelo://app?vid=23860757-7352-4f6d-bd82-08ba559867c5","ios":"levelo://app?vid=23860757-7352-4f6d-bd82-08ba559867c5"},"vehicle_type_id":"4","last_reported":1728216920,"current_range_meters":21600,"station_id":"ce4bhgh2rcd13ifvqfb0","pricing_plan_id":"cebpf4jnsgd1na2vs0mg"},{"bike_id":"0c08e6fe-9ff7-4ab1-90f6-361bbc79b6fa","system_id":"levelo_inurba_marseille","lat":43.30396,"lon":5.39826,"is_reserved":false,"is_disabled":false,"rental_uris":{"android":"levelo://app?vid=0c08e6fe-9ff7-4ab1-90f6-361bbc79b6fa","ios":"levelo://app?vid=0c08e6fe-9ff7-4ab1-90f6-361bbc79b6fa"},"vehicle_type_id":"4","last_reported":1728216920,"current_range_meters":17600,"station_id":"ce4bhq12rcd13ifvqhig","pricing_plan_id":"cebpf4jnsgd1na2vs0mg"},{"bike_id":"d0491990-bb8a-41d6-b132-91e091f6cea9","system_id":"levelo_inurba_marseille","lat":43.26207,"lon":5.37923,"is_reserved":false,"is_disabled":false,"rental_uris":{"android":"levelo://app?vid=d0491990-bb8a-41d6-b132-91e091f6cea9","ios":"levelo://app?vid=d0491990-bb8a-41d6-b132-91e091f6cea9"},"vehicle_type_id":"4","last_reported":1728216920,"current_range_meters":10800,"station_id":"ce4bhjp2rcd13ifvqg90","pricing_plan_id":"cebpf4jnsgd1na2vs0mg"},{"bike_id":"be56f1a4-275f-4091-81c4-2d7d1e9dc326","system_id":"levelo_inurba_marseille","lat":43.28149,"lon":5.42634,"is_reserved":false,"is_disabled":false,"rental_uris":{"android":"levelo://app?vid=be56f1a4-275f-4091-81c4-2d7d1e9dc326","ios":"levelo://app?vid=be56f1a4-275f-4091-81c4-2d7d1e9dc326"},"vehicle_type_id":"4","last_reported":1728216920,"current_range_meters":4800,"station_id":"ce4bhnh2rcd13ifvqgug","pricing_plan_id":"cebpf4jnsgd1na2vs0mg"},{"bike_id":"f10bcf9c-7781-43e3-be22-9f945d1ddcd6","system_id":"levelo_inurba_marseille","lat":43.31715,"lon":5.43708,"is_reserved":false,"is_disabled":false,"rental_uris":{"android":"levelo://app?vid=f10bcf9c-7781-43e3-be22-9f945d1ddcd6","ios":"levelo://app?vid=f10bcf9c-7781-43e3-be22-9f945d1ddcd6"},"vehicle_type_id":"4","last_reported":1728216920,"current_range_meters":10000,"station_id":"ce4bhp92rcd13ifvqhcg","pricing_plan_id":"cebpf4jnsgd1na2vs0mg"},{"bike_id":"b115519d-43be-4b63-afb0-d6371cff0a3c","system_id":"levelo_inurba_marseille","lat":43.21342,"lon":5.34937,"is_reserved":false,"is_disabled":false,"rental_uris":{"android":"levelo://app?vid=b115519d-43be-4b63-afb0-d6371cff0a3c","ios":"levelo://app?vid=b115519d-43be-4b63-afb0-d6371cff0a3c"},"vehicle_type_id":"4","last_reported":1728216920,"current_range_meters":6800,"station_id":"crv51consjfaj9uu89c0","pricing_plan_id":"cebpf4jnsgd1na2vs0mg"},{"bike_id":"05ddab4b-2219-453e-b9f6-9211ae63c830","system_id":"levelo_inurba_marseille","lat":43.21343,"lon":5.34943,"is_reserved":false,"is_disabled":false,"rental_uris":{"android":"levelo://app?vid=05ddab4b-2219-453e-b9f6-9211ae63c830","ios":"levelo://app?vid=05ddab4b-2219-453e-b9f6-9211ae63c830"},"vehicle_type_id":"4","last_reported":1728216920,"current_range_meters":33600,"station_id":"crv51consjfaj9uu89c0","pricing_plan_id":"cebpf4jnsgd1na2vs0mg"},{"bike_id":"c7fcb03b-eee4-4df7-b870-da63a5355e11","system_id":"levelo_inurba_marseille","lat":43.2866,"lon":5.36353,"is_reserved":false,"is_disabled":false,"rental_uris":{"android":"levelo://app?vid=c7fcb03b-eee4-4df7-b870-da63a5355e11","ios":"levelo://app?vid=c7fcb03b-eee4-4df7-b870-da63a5355e11"},"vehicle_type_id":"4","last_reported":1728216920,"current_range_meters":8400,"station_id":"ce4bhah2rcd13ifvqej0","pricing_plan_id":"cebpf4jnsgd1na2vs0mg"},{"bike_id":"e5f99bd0-faaf-47d0-8c5b-ae14954f8bac","system_id":"levelo_inurba_marseille","lat":43.25002,"lon":5.38921,"is_reserved":false,"is_disabled":false,"rental_uris":{"android":"levelo://app?vid=e5f99bd0-faaf-47d0-8c5b-ae14954f8bac","ios":"levelo://app?vid=e5f99bd0-faaf-47d0-8c5b-ae14954f8bac"},"vehicle_type_id":"4","last_reported":1728216920,"current_range_meters":38800,"station_id":"ce4bhgp2rcd13ifvqfd0","pricing_plan_id":"cebpf4jnsgd1na2vs0mg"},{"bike_id":"d0ca1193-12e8-4ac2-9a60-4ae6e0040151","system_id":"levelo_inurba_marseille","lat":43.22932,"lon":5.35375,"is_reserved":false,"is_disabled":false,"rental_uris":{"android":"levelo://app?vid=d0ca1193-12e8-4ac2-9a60-4ae6e0040151","ios":"levelo://app?vid=d0ca1193-12e8-4ac2-9a60-4ae6e0040151"},"vehicle_type_id":"4","last_reported":1728216920,"current_range_meters":28400,"station_id":"cpo3532slgdg3j2ikp40","pricing_plan_id":"cebpf4jnsgd1na2vs0mg"},{"bike_id":"f8f289bf-b97e-415f-bdb4-b8a12a74cb0e","system_id":"levelo_inurba_marseille","lat":43.26933,"lon":5.38914,"is_reserved":false,"is_disabled":false,"rental_uris":{"android":"levelo://app?vid=f8f289bf-b97e-415f-bdb4-b8a12a74cb0e","ios":"levelo://app?vid=f8f289bf-b97e-415f-bdb4-b8a12a74cb0e"},"vehicle_type_id":"4","last_reported":1728216920,"current_range_meters":32800,"station_id":"ce4bhhh2rcd13ifvqfl0","pricing_plan_id":"cebpf4jnsgd1na2vs0mg"},{"bike_id":"e39a9ff1-a844-4b39-b19a-887ec0cc3d82","system_id":"levelo_inurba_marseille","lat":43.29062,"lon":5.37176,"is_reserved":false,"is_disabled":false,"rental_uris":{"android":"levelo://app?vid=e39a9ff1-a844-4b39-b19a-887ec0cc3d82","ios":"levelo://app?vid=e39a9ff1-a844-4b39-b19a-887ec0cc3d82"},"vehicle_type_id":"4","last_reported":1728216920,"current_range_meters":22800,"station_id":"ce4bh5p2rcd13ifvqe4g","pricing_plan_id":"cebpf4jnsgd1na2vs0mg"},{"bike_id":"fb8100ac-26f0-44b7-b704-e54a0a854a0a","system_id":"levelo_inurba_marseille","lat":43.27373,"lon":5.36244,"is_reserved":false,"is_disabled":false,"rental_uris":{"android":"levelo://app?vid=fb8100ac-26f0-44b7-b704-e54a0a854a0a","ios":"levelo://app?vid=fb8100ac-26f0-44b7-b704-e54a0a854a0a"},"vehicle_type_id":"4","last_reported":1728216920,"current_range_meters":11200,"station_id":"ce4bhbh2rcd13ifvqeo0","pricing_plan_id":"cebpf4jnsgd1na2vs0mg"},{"bike_id":"4f922fe2-4489-4b54-a5b1-7835b0165608","system_id":"levelo_inurba_marseille","lat":43.26948,"lon":5.40253,"is_reserved":false,"is_disabled":false,"rental_uris":{"android":"levelo://app?vid=4f922fe2-4489-4b54-a5b1-7835b0165608","ios":"levelo://app?vid=4f922fe2-4489-4b54-a5b1-7835b0165608"},"vehicle_type_id":"4","last_reported":1728216920,"current_range_meters":27600,"station_id":"cjm6bp8fraef2m0cb0m0","pricing_plan_id":"cebpf4jnsgd1na2vs0mg"},{"bike_id":"be418cc3-4334-4ce4-9486-dc18b246cad9","system_id":"levelo_inurba_marseille","lat":43.28153,"lon":5.4264,"is_reserved":false,"is_disabled":false,"rental_uris":{"android":"levelo://app?vid=be418cc3-4334-4ce4-9486-dc18b246cad9","ios":"levelo://app?vid=be418cc3-4334-4ce4-9486-dc18b246cad9"},"vehicle_type_id":"4","last_reported":1728216920,"current_range_meters":34000,"station_id":"ce4bhnh2rcd13ifvqgug","pricing_plan_id":"cebpf4jnsgd1na2vs0mg"},{"bike_id":"1bd2f7ec-d06e-4723-b3c8-18546fc91d7d","system_id":"levelo_inurba_marseille","lat":43.312638,"lon":5.401729,"is_reserved":false,"is_disabled":false,"rental_uris":{"android":"levelo://app?vid=1bd2f7ec-d06e-4723-b3c8-18546fc91d7d","ios":"levelo://app?vid=1bd2f7ec-d06e-4723-b3c8-18546fc91d7d"},"vehicle_type_id":"4","last_reported":1728216920,"current_range_meters":7200,"station_id":"ce4bh092rcd13ifvqd30","pricing_plan_id":"cebpf4jnsgd1na2vs0mg"},{"bike_id":"cf859ea4-43e9-4e93-b7f1-abd407171ec0","system_id":"levelo_inurba_marseille","lat":43.27812,"lon":5.40702,"is_reserved":false,"is_disabled":false,"rental_uris":{"android":"levelo://app?vid=cf859ea4-43e9-4e93-b7f1-abd407171ec0","ios":"levelo://app?vid=cf859ea4-43e9-4e93-b7f1-abd407171ec0"},"vehicle_type_id":"4","last_reported":1728216920,"current_range_meters":30800,"station_id":"ce4bhnh2rcd13ifvqgtg","pricing_plan_id":"cebpf4jnsgd1na2vs0mg"},{"bike_id":"34ebe73d-7bc8-40d6-9331-0428ad8bdd34","system_id":"levelo_inurba_marseille","lat":43.28353,"lon":5.38096,"is_reserved":false,"is_disabled":false,"rental_uris":{"android":"levelo://app?vid=34ebe73d-7bc8-40d6-9331-0428ad8bdd34","ios":"levelo://app?vid=34ebe73d-7bc8-40d6-9331-0428ad8bdd34"},"vehicle_type_id":"4","last_reported":1728216920,"current_range_meters":30800,"station_id":"ce4bh412rcd13ifvqdr0","pricing_plan_id":"cebpf4jnsgd1na2vs0mg"},{"bike_id":"7be128f4-ba12-493a-be99-11ef57463abf","system_id":"levelo_inurba_marseille","lat":43.21346,"lon":5.34938,"is_reserved":false,"is_disabled":false,"rental_uris":{"android":"levelo://app?vid=7be128f4-ba12-493a-be99-11ef57463abf","ios":"levelo://app?vid=7be128f4-ba12-493a-be99-11ef57463abf"},"vehicle_type_id":"4","last_reported":1728216920,"current_range_meters":6800,"station_id":"crv51consjfaj9uu89c0","pricing_plan_id":"cebpf4jnsgd1na2vs0mg"},{"bike_id":"43dcf526-a3ff-421c-98a6-4909a3d57afd","system_id":"levelo_inurba_marseille","lat":43.26569,"lon":5.39018,"is_reserved":false,"is_disabled":false,"rental_uris":{"android":"levelo://app?vid=43dcf526-a3ff-421c-98a6-4909a3d57afd","ios":"levelo://app?vid=43dcf526-a3ff-421c-98a6-4909a3d57afd"},"vehicle_type_id":"4","last_reported":1728216920,"current_range_meters":16000,"station_id":"ce4bhe12rcd13ifvqf30","pricing_plan_id":"cebpf4jnsgd1na2vs0mg"},{"bike_id":"578578e4-d50a-49d6-8368-e6e5446440d0","system_id":"levelo_inurba_marseille","lat":43.28367,"lon":5.38622,"is_reserved":false,"is_disabled":false,"rental_uris":{"android":"levelo://app?vid=578578e4-d50a-49d6-8368-e6e5446440d0","ios":"levelo://app?vid=578578e4-d50a-49d6-8368-e6e5446440d0"},"vehicle_type_id":"4","last_reported":1728216920,"current_range_meters":25200,"station_id":"ce4bh492rcd13ifvqdvg","pricing_plan_id":"cebpf4jnsgd1na2vs0mg"},{"bike_id":"1c6e8542-0efa-43bd-a17b-1a8ffeb5acdf","system_id":"levelo_inurba_marseille","lat":43.2657,"lon":5.39016,"is_reserved":false,"is_disabled":false,"rental_uris":{"android":"levelo://app?vid=1c6e8542-0efa-43bd-a17b-1a8ffeb5acdf","ios":"levelo://app?vid=1c6e8542-0efa-43bd-a17b-1a8ffeb5acdf"},"vehicle_type_id":"4","last_reported":1728216920,"current_range_meters":36800,"station_id":"ce4bhe12rcd13ifvqf30","pricing_plan_id":"cebpf4jnsgd1na2vs0mg"},{"bike_id":"15359e36-7625-4495-bc9d-c44f44e812ed","system_id":"levelo_inurba_marseille","lat":43.28034,"lon":5.36943,"is_reserved":false,"is_disabled":false,"rental_uris":{"android":"levelo://app?vid=15359e36-7625-4495-bc9d-c44f44e812ed","ios":"levelo://app?vid=15359e36-7625-4495-bc9d-c44f44e812ed"},"vehicle_type_id":"4","last_reported":1728216920,"current_range_meters":38000,"station_id":"ce4bha12rcd13ifvqef0","pricing_plan_id":"cebpf4jnsgd1na2vs0mg"},{"bike_id":"aa95e98a-48a7-4a9e-b73e-0615c653fe86","system_id":"levelo_inurba_marseille","lat":43.23202,"lon":5.35555,"is_reserved":false,"is_disabled":false,"rental_uris":{"android":"levelo://app?vid=aa95e98a-48a7-4a9e-b73e-0615c653fe86","ios":"levelo://app?vid=aa95e98a-48a7-4a9e-b73e-0615c653fe86"},"vehicle_type_id":"4","last_reported":1728216920,"current_range_meters":14000,"station_id":"ce4bhu92rcd13ifvqi70","pricing_plan_id":"cebpf4jnsgd1na2vs0mg"},{"bike_id":"54b06c87-361f-4fc1-a723-372610dc136d","system_id":"levelo_inurba_marseille","lat":43.26202,"lon":5.37928,"is_reserved":false,"is_disabled":false,"rental_uris":{"android":"levelo://app?vid=54b06c87-361f-4fc1-a723-372610dc136d","ios":"levelo://app?vid=54b06c87-361f-4fc1-a723-372610dc136d"},"vehicle_type_id":"4","last_reported":1728216920,"current_range_meters":40000,"station_id":"ce4bhjp2rcd13ifvqg90","pricing_plan_id":"cebpf4jnsgd1na2vs0mg"},{"bike_id":"490889b1-cee9-4892-9db5-299333956c90","system_id":"levelo_inurba_marseille","lat":43.3414,"lon":5.40901,"is_reserved":false,"is_disabled":false,"rental_uris":{"android":"levelo://app?vid=490889b1-cee9-4892-9db5-299333956c90","ios":"levelo://app?vid=490889b1-cee9-4892-9db5-299333956c90"},"vehicle_type_id":"4","last_reported":1728216920,"current_range_meters":36800,"station_id":"ce4bhqh2rcd13ifvqhlg","pricing_plan_id":"cebpf4jnsgd1na2vs0mg"},{"bike_id":"a1e3652c-8d08-4f16-a3d6-2ac401cd24bf","system_id":"levelo_inurba_marseille","lat":43.28273,"lon":5.3507,"is_reserved":false,"is_disabled":false,"rental_uris":{"android":"levelo://app?vid=a1e3652c-8d08-4f16-a3d6-2ac401cd24bf","ios":"levelo://app?vid=a1e3652c-8d08-4f16-a3d6-2ac401cd24bf"},"vehicle_type_id":"4","last_reported":1728216920,"current_range_meters":32400,"station_id":"ce4bhbp2rcd13ifvqerg","pricing_plan_id":"cebpf4jnsgd1na2vs0mg"},{"bike_id":"46a21c1d-0f45-4f89-8fd3-e9740ed85469","system_id":"levelo_inurba_marseille","lat":43.30531,"lon":5.367,"is_reserved":false,"is_disabled":false,"rental_uris":{"android":"levelo://app?vid=46a21c1d-0f45-4f89-8fd3-e9740ed85469","ios":"levelo://app?vid=46a21c1d-0f45-4f89-8fd3-e9740ed85469"},"vehicle_type_id":"4","last_reported":1728216920,"current_range_meters":19200,"station_id":"ce4bgrp2rcd13ifvqc9g","pricing_plan_id":"cebpf4jnsgd1na2vs0mg"},{"bike_id":"62dc0ed1-3276-4977-88dd-32c1a19dfbe5","system_id":"levelo_inurba_marseille","lat":43.27498,"lon":5.42448,"is_reserved":false,"is_disabled":false,"rental_uris":{"android":"levelo://app?vid=62dc0ed1-3276-4977-88dd-32c1a19dfbe5","ios":"levelo://app?vid=62dc0ed1-3276-4977-88dd-32c1a19dfbe5"},"vehicle_type_id":"4","last_reported":1728216920,"current_range_meters":38800,"station_id":"ce4bhn92rcd13ifvqgrg","pricing_plan_id":"cebpf4jnsgd1na2vs0mg"},{"bike_id":"cdc917cd-8609-4bab-8a00-197d50b2daa3","system_id":"levelo_inurba_marseille","lat":43.28611,"lon":5.37059,"is_reserved":false,"is_disabled":false,"rental_uris":{"android":"levelo://app?vid=cdc917cd-8609-4bab-8a00-197d50b2daa3","ios":"levelo://app?vid=cdc917cd-8609-4bab-8a00-197d50b2daa3"},"vehicle_type_id":"4","last_reported":1728216920,"current_range_meters":27200,"station_id":"ce4bht12rcd13ifvqi60","pricing_plan_id":"cebpf4jnsgd1na2vs0mg"},{"bike_id":"256fa177-60ee-45a2-a2aa-de47baeac3b4","system_id":"levelo_inurba_marseille","lat":43.32212,"lon":5.41355,"is_reserved":false,"is_disabled":false,"rental_uris":{"android":"levelo://app?vid=256fa177-60ee-45a2-a2aa-de47baeac3b4","ios":"levelo://app?vid=256fa177-60ee-45a2-a2aa-de47baeac3b4"},"vehicle_type_id":"4","last_reported":1728216920,"current_range_meters":37600,"station_id":"","pricing_plan_id":"cebpf4jnsgd1na2vs0mg"},{"bike_id":"a90512e5-589b-4391-85cb-39a5ba0b5b09","system_id":"levelo_inurba_marseille","lat":43.26565,"lon":5.39021,"is_reserved":false,"is_disabled":false,"rental_uris":{"android":"levelo://app?vid=a90512e5-589b-4391-85cb-39a5ba0b5b09","ios":"levelo://app?vid=a90512e5-589b-4391-85cb-39a5ba0b5b09"},"vehicle_type_id":"4","last_reported":1728216920,"current_range_meters":9600,"station_id":"ce4bhe12rcd13ifvqf30","pricing_plan_id":"cebpf4jnsgd1na2vs0mg"},{"bike_id":"98fab8a1-a284-40da-8df2-14f71a37d57b","system_id":"levelo_inurba_marseille","lat":43.21352,"lon":5.34937,"is_reserved":false,"is_disabled":false,"rental_uris":{"android":"levelo://app?vid=98fab8a1-a284-40da-8df2-14f71a37d57b","ios":"levelo://app?vid=98fab8a1-a284-40da-8df2-14f71a37d57b"},"vehicle_type_id":"4","last_reported":1728216920,"current_range_meters":32400,"station_id":"crv51consjfaj9uu89c0","pricing_plan_id":"cebpf4jnsgd1na2vs0mg"},{"bike_id":"168fdd0d-638b-492d-b1ce-678f05dbeac9","system_id":"levelo_inurba_marseille","lat":43.2872,"lon":5.36093,"is_reserved":false,"is_disabled":false,"rental_uris":{"android":"levelo://app?vid=168fdd0d-638b-492d-b1ce-678f05dbeac9","ios":"levelo://app?vid=168fdd0d-638b-492d-b1ce-678f05dbeac9"},"vehicle_type_id":"4","last_reported":1728216920,"current_range_meters":38400,"station_id":"cki0cbj6b192h4jlfktg","pricing_plan_id":"cebpf4jnsgd1na2vs0mg"},{"bike_id":"6bf16a2a-f63b-47d9-9110-1efaed25b77a","system_id":"levelo_inurba_marseille","lat":43.2293,"lon":5.35378,"is_reserved":false,"is_disabled":false,"rental_uris":{"android":"levelo://app?vid=6bf16a2a-f63b-47d9-9110-1efaed25b77a","ios":"levelo://app?vid=6bf16a2a-f63b-47d9-9110-1efaed25b77a"},"vehicle_type_id":"4","last_reported":1728216920,"current_range_meters":34000,"station_id":"cpo3532slgdg3j2ikp40","pricing_plan_id":"cebpf4jnsgd1na2vs0mg"},{"bike_id":"60d468dd-e47b-4113-907c-d41e33cecea9","system_id":"levelo_inurba_marseille","lat":43.27571,"lon":5.38418,"is_reserved":false,"is_disabled":false,"rental_uris":{"android":"levelo://app?vid=60d468dd-e47b-4113-907c-d41e33cecea9","ios":"levelo://app?vid=60d468dd-e47b-4113-907c-d41e33cecea9"},"vehicle_type_id":"4","last_reported":1728216920,"current_range_meters":38800,"station_id":"ce4bhh92rcd13ifvqfi0","pricing_plan_id":"cebpf4jnsgd1na2vs0mg"},{"bike_id":"ab3de5c2-f79f-4200-810b-965af362ad23","system_id":"levelo_inurba_marseille","lat":43.29586,"lon":5.36732,"is_reserved":false,"is_disabled":false,"rental_uris":{"android":"levelo://app?vid=ab3de5c2-f79f-4200-810b-965af362ad23","ios":"levelo://app?vid=ab3de5c2-f79f-4200-810b-965af362ad23"},"vehicle_type_id":"4","last_reported":1728216920,"current_range_meters":24800,"station_id":"ce4bgph2rcd13ifvqc2g","pricing_plan_id":"cebpf4jnsgd1na2vs0mg"},{"bike_id":"5aeff25a-4d20-416a-9046-72428cabc49c","system_id":"levelo_inurba_marseille","lat":43.32373,"lon":5.38882,"is_reserved":false,"is_disabled":false,"rental_uris":{"android":"levelo://app?vid=5aeff25a-4d20-416a-9046-72428cabc49c","ios":"levelo://app?vid=5aeff25a-4d20-416a-9046-72428cabc49c"},"vehicle_type_id":"4","last_reported":1728216920,"current_range_meters":14800,"station_id":"ce4bhqp2rcd13ifvqhog","pricing_plan_id":"cebpf4jnsgd1na2vs0mg"},{"bike_id":"09b6dc29-36dc-48a6-88c1-8d4f3ae3fdfc","system_id":"levelo_inurba_marseille","lat":43.29259,"lon":5.36845,"is_reserved":false,"is_disabled":false,"rental_uris":{"android":"levelo://app?vid=09b6dc29-36dc-48a6-88c1-8d4f3ae3fdfc","ios":"levelo://app?vid=09b6dc29-36dc-48a6-88c1-8d4f3ae3fdfc"},"vehicle_type_id":"4","last_reported":1728216920,"current_range_meters":16800,"station_id":"","pricing_plan_id":"cebpf4jnsgd1na2vs0mg"},{"bike_id":"e5e47434-1064-461f-954b-cf80a74e5028","system_id":"levelo_inurba_marseille","lat":43.25493,"lon":5.37645,"is_reserved":false,"is_disabled":false,"rental_uris":{"android":"levelo://app?vid=e5e47434-1064-461f-954b-cf80a74e5028","ios":"levelo://app?vid=e5e47434-1064-461f-954b-cf80a74e5028"},"vehicle_type_id":"4","last_reported":1728216920,"current_range_meters":36400,"station_id":"ce4bhh12rcd13ifvqff0","pricing_plan_id":"cebpf4jnsgd1na2vs0mg"},{"bike_id":"20120f29-e566-493c-8ba9-da728e3c0888","system_id":"levelo_inurba_marseille","lat":43.29159,"lon":5.37161,"is_reserved":false,"is_disabled":false,"rental_uris":{"android":"levelo://app?vid=20120f29-e566-493c-8ba9-da728e3c0888","ios":"levelo://app?vid=20120f29-e566-493c-8ba9-da728e3c0888"},"vehicle_type_id":"4","last_reported":1728216920,"current_range_meters":28800,"station_id":"ce4bha92rcd13ifvqeh0","pricing_plan_id":"cebpf4jnsgd1na2vs0mg"},{"bike_id":"467f4dad-860b-40f5-b4ca-9e05ccc20611","system_id":"levelo_inurba_marseille","lat":43.30915,"lon":5.40146,"is_reserved":false,"is_disabled":false,"rental_uris":{"android":"levelo://app?vid=467f4dad-860b-40f5-b4ca-9e05ccc20611","ios":"levelo://app?vid=467f4dad-860b-40f5-b4ca-9e05ccc20611"},"vehicle_type_id":"4","last_reported":1728216920,"current_range_meters":37600,"station_id":"ce4bgvp2rcd13ifvqct0","pricing_plan_id":"cebpf4jnsgd1na2vs0mg"},{"bike_id":"b3e9273c-ca67-4051-932a-7a0937bf066a","system_id":"levelo_inurba_marseille","lat":43.29608,"lon":5.37731,"is_reserved":false,"is_disabled":false,"rental_uris":{"android":"levelo://app?vid=b3e9273c-ca67-4051-932a-7a0937bf066a","ios":"levelo://app?vid=b3e9273c-ca67-4051-932a-7a0937bf066a"},"vehicle_type_id":"4","last_reported":1728216920,"current_range_meters":25200,"station_id":"ce4bgi92rcd13ifvqb90","pricing_plan_id":"cebpf4jnsgd1na2vs0mg"},{"bike_id":"52fe9f79-e487-4e6f-9000-9b5d6d80f22f","system_id":"levelo_inurba_marseille","lat":43.28933,"lon":5.36638,"is_reserved":false,"is_disabled":false,"rental_uris":{"android":"levelo://app?vid=52fe9f79-e487-4e6f-9000-9b5d6d80f22f","ios":"levelo://app?vid=52fe9f79-e487-4e6f-9000-9b5d6d80f22f"},"vehicle_type_id":"4","last_reported":1728216920,"current_range_meters":17600,"station_id":"ce4bhap2rcd13ifvqek0","pricing_plan_id":"cebpf4jnsgd1na2vs0mg"},{"bike_id":"270b90ca-7521-4165-af49-e1c727e5fa34","system_id":"levelo_inurba_marseille","lat":43.21346,"lon":5.34939,"is_reserved":false,"is_disabled":false,"rental_uris":{"android":"levelo://app?vid=270b90ca-7521-4165-af49-e1c727e5fa34","ios":"levelo://app?vid=270b90ca-7521-4165-af49-e1c727e5fa34"},"vehicle_type_id":"4","last_reported":1728216920,"current_range_meters":34800,"station_id":"crv51consjfaj9uu89c0","pricing_plan_id":"cebpf4jnsgd1na2vs0mg"},{"bike_id":"1160cec9-9ad8-458b-96d7-d7b2d0c1de88","system_id":"levelo_inurba_marseille","lat":43.28047,"lon":5.36942,"is_reserved":false,"is_disabled":false,"rental_uris":{"android":"levelo://app?vid=1160cec9-9ad8-458b-96d7-d7b2d0c1de88","ios":"levelo://app?vid=1160cec9-9ad8-458b-96d7-d7b2d0c1de88"},"vehicle_type_id":"4","last_reported":1728216920,"current_range_meters":9200,"station_id":"ce4bha12rcd13ifvqef0","pricing_plan_id":"cebpf4jnsgd1na2vs0mg"},{"bike_id":"a828c5cb-674c-4aeb-94c7-5826e4f563cc","system_id":"levelo_inurba_marseille","lat":43.29,"lon":5.35614,"is_reserved":false,"is_disabled":false,"rental_uris":{"android":"levelo://app?vid=a828c5cb-674c-4aeb-94c7-5826e4f563cc","ios":"levelo://app?vid=a828c5cb-674c-4aeb-94c7-5826e4f563cc"},"vehicle_type_id":"4","last_reported":1728216920,"current_range_meters":19200,"station_id":"ce4bhb92rcd13ifvqen0","pricing_plan_id":"cebpf4jnsgd1na2vs0mg"},{"bike_id":"fc7688d2-b48c-4327-9727-ec4b5daa2660","system_id":"levelo_inurba_marseille","lat":43.31989,"lon":5.38149,"is_reserved":false,"is_disabled":false,"rental_uris":{"android":"levelo://app?vid=fc7688d2-b48c-4327-9727-ec4b5daa2660","ios":"levelo://app?vid=fc7688d2-b48c-4327-9727-ec4b5daa2660"},"vehicle_type_id":"4","last_reported":1728216920,"current_range_meters":37600,"station_id":"ce4bhr12rcd13ifvqhpg","pricing_plan_id":"cebpf4jnsgd1na2vs0mg"},{"bike_id":"5ed1c359-627e-4835-9959-230f7bf3336f","system_id":"levelo_inurba_marseille","lat":43.28611,"lon":5.37063,"is_reserved":false,"is_disabled":false,"rental_uris":{"android":"levelo://app?vid=5ed1c359-627e-4835-9959-230f7bf3336f","ios":"levelo://app?vid=5ed1c359-627e-4835-9959-230f7bf3336f"},"vehicle_type_id":"4","last_reported":1728216920,"current_range_meters":39200,"station_id":"ce4bht12rcd13ifvqi60","pricing_plan_id":"cebpf4jnsgd1na2vs0mg"},{"bike_id":"09fb1af8-8285-498c-9856-f17125676298","system_id":"levelo_inurba_marseille","lat":43.31759,"lon":5.39004,"is_reserved":false,"is_disabled":false,"rental_uris":{"android":"levelo://app?vid=09fb1af8-8285-498c-9856-f17125676298","ios":"levelo://app?vid=09fb1af8-8285-498c-9856-f17125676298"},"vehicle_type_id":"4","last_reported":1728216920,"current_range_meters":30400,"station_id":"ce4bhqp2rcd13ifvqhng","pricing_plan_id":"cebpf4jnsgd1na2vs0mg"},{"bike_id":"105fef46-e92c-4e42-8af7-9d075484f0d0","system_id":"levelo_inurba_marseille","lat":43.29046,"lon":5.39972,"is_reserved":false,"is_disabled":false,"rental_uris":{"android":"levelo://app?vid=105fef46-e92c-4e42-8af7-9d075484f0d0","ios":"levelo://app?vid=105fef46-e92c-4e42-8af7-9d075484f0d0"},"vehicle_type_id":"4","last_reported":1728216920,"current_range_meters":38800,"station_id":"ce4bh392rcd13ifvqdm0","pricing_plan_id":"cebpf4jnsgd1na2vs0mg"},{"bike_id":"5e97bfb1-079a-4a74-b685-756017695f16","system_id":"levelo_inurba_marseille","lat":43.23195,"lon":5.35547,"is_reserved":false,"is_disabled":false,"rental_uris":{"android":"levelo://app?vid=5e97bfb1-079a-4a74-b685-756017695f16","ios":"levelo://app?vid=5e97bfb1-079a-4a74-b685-756017695f16"},"vehicle_type_id":"4","last_reported":1728216920,"current_range_meters":19200,"station_id":"ce4bhu92rcd13ifvqi70","pricing_plan_id":"cebpf4jnsgd1na2vs0mg"},{"bike_id":"5ef3cf6c-2e95-4bde-b116-d1f022d3923e","system_id":"levelo_inurba_marseille","lat":43.29802,"lon":5.38114,"is_reserved":false,"is_disabled":false,"rental_uris":{"android":"levelo://app?vid=5ef3cf6c-2e95-4bde-b116-d1f022d3923e","ios":"levelo://app?vid=5ef3cf6c-2e95-4bde-b116-d1f022d3923e"},"vehicle_type_id":"4","last_reported":1728216920,"current_range_meters":35200,"station_id":"ce4bgip2rcd13ifvqbb0","pricing_plan_id":"cebpf4jnsgd1na2vs0mg"},{"bike_id":"bb5f5452-4b9b-417d-b148-b396a874f3d9","system_id":"levelo_inurba_marseille","lat":43.24173,"lon":5.36403,"is_reserved":false,"is_disabled":false,"rental_uris":{"android":"levelo://app?vid=bb5f5452-4b9b-417d-b148-b396a874f3d9","ios":"levelo://app?vid=bb5f5452-4b9b-417d-b148-b396a874f3d9"},"vehicle_type_id":"4","last_reported":1728216920,"current_range_meters":26000,"station_id":"","pricing_plan_id":"cebpf4jnsgd1na2vs0mg"},{"bike_id":"85081b74-3c48-4b75-b6b6-b181683e784a","system_id":"levelo_inurba_marseille","lat":43.25723,"lon":5.41105,"is_reserved":false,"is_disabled":false,"rental_uris":{"android":"levelo://app?vid=85081b74-3c48-4b75-b6b6-b181683e784a","ios":"levelo://app?vid=85081b74-3c48-4b75-b6b6-b181683e784a"},"vehicle_type_id":"4","last_reported":1728216920,"current_range_meters":38800,"station_id":"ce4bhkp2rcd13ifvqgd0","pricing_plan_id":"cebpf4jnsgd1na2vs0mg"},{"bike_id":"d5bd4fc9-b596-4a66-8faa-61c6a5dce860","system_id":"levelo_inurba_marseille","lat":43.29895,"lon":5.43657,"is_reserved":false,"is_disabled":false,"rental_uris":{"android":"levelo://app?vid=d5bd4fc9-b596-4a66-8faa-61c6a5dce860","ios":"levelo://app?vid=d5bd4fc9-b596-4a66-8faa-61c6a5dce860"},"vehicle_type_id":"4","last_reported":1728216920,"current_range_meters":39200,"station_id":"ce4bhpp2rcd13ifvqhfg","pricing_plan_id":"cebpf4jnsgd1na2vs0mg"},{"bike_id":"13c131df-b56a-4a5c-bb2b-b460785c2cac","system_id":"levelo_inurba_marseille","lat":43.295102,"lon":5.375084,"is_reserved":false,"is_disabled":false,"rental_uris":{"android":"levelo://app?vid=13c131df-b56a-4a5c-bb2b-b460785c2cac","ios":"levelo://app?vid=13c131df-b56a-4a5c-bb2b-b460785c2cac"},"vehicle_type_id":"4","last_reported":1728216920,"current_range_meters":39200,"station_id":"ce4bgkp2rcd13ifvqbmg","pricing_plan_id":"cebpf4jnsgd1na2vs0mg"},{"bike_id":"d110cfae-0e76-4fa4-b617-e3caa90aff64","system_id":"levelo_inurba_marseille","lat":43.26574,"lon":5.39016,"is_reserved":false,"is_disabled":false,"rental_uris":{"android":"levelo://app?vid=d110cfae-0e76-4fa4-b617-e3caa90aff64","ios":"levelo://app?vid=d110cfae-0e76-4fa4-b617-e3caa90aff64"},"vehicle_type_id":"4","last_reported":1728216920,"current_range_meters":36400,"station_id":"ce4bhe12rcd13ifvqf30","pricing_plan_id":"cebpf4jnsgd1na2vs0mg"},{"bike_id":"192bdf6a-888e-44af-b81a-331a495dbaa5","system_id":"levelo_inurba_marseille","lat":43.306091,"lon":5.372432,"is_reserved":false,"is_disabled":false,"rental_uris":{"android":"levelo://app?vid=192bdf6a-888e-44af-b81a-331a495dbaa5","ios":"levelo://app?vid=192bdf6a-888e-44af-b81a-331a495dbaa5"},"vehicle_type_id":"4","last_reported":1728216920,"current_range_meters":20800,"station_id":"ce4bgqh2rcd13ifvqc4g","pricing_plan_id":"cebpf4jnsgd1na2vs0mg"},{"bike_id":"7cba0374-be77-4d49-8476-e0da3cccc891","system_id":"levelo_inurba_marseille","lat":43.21347,"lon":5.34938,"is_reserved":false,"is_disabled":false,"rental_uris":{"android":"levelo://app?vid=7cba0374-be77-4d49-8476-e0da3cccc891","ios":"levelo://app?vid=7cba0374-be77-4d49-8476-e0da3cccc891"},"vehicle_type_id":"4","last_reported":1728216920,"current_range_meters":32800,"station_id":"crv51consjfaj9uu89c0","pricing_plan_id":"cebpf4jnsgd1na2vs0mg"},{"bike_id":"96d48818-d333-496e-866a-b2d01fbe5230","system_id":"levelo_inurba_marseille","lat":43.31334,"lon":5.39692,"is_reserved":false,"is_disabled":false,"rental_uris":{"android":"levelo://app?vid=96d48818-d333-496e-866a-b2d01fbe5230","ios":"levelo://app?vid=96d48818-d333-496e-866a-b2d01fbe5230"},"vehicle_type_id":"4","last_reported":1728216920,"current_range_meters":27200,"station_id":"ce4bgvp2rcd13ifvqcu0","pricing_plan_id":"cebpf4jnsgd1na2vs0mg"},{"bike_id":"7a6d7045-a0c6-474e-97a3-8a750c51af90","system_id":"levelo_inurba_marseille","lat":43.27948,"lon":5.41048,"is_reserved":false,"is_disabled":false,"rental_uris":{"android":"levelo://app?vid=7a6d7045-a0c6-474e-97a3-8a750c51af90","ios":"levelo://app?vid=7a6d7045-a0c6-474e-97a3-8a750c51af90"},"vehicle_type_id":"4","last_reported":1728216920,"current_range_meters":37600,"station_id":"ce4bhnp2rcd13ifvqh0g","pricing_plan_id":"cebpf4jnsgd1na2vs0mg"},{"bike_id":"8e94c158-3450-4d74-9a10-086db250f48e","system_id":"levelo_inurba_marseille","lat":43.27155,"lon":5.39034,"is_reserved":false,"is_disabled":false,"rental_uris":{"android":"levelo://app?vid=8e94c158-3450-4d74-9a10-086db250f48e","ios":"levelo://app?vid=8e94c158-3450-4d74-9a10-086db250f48e"},"vehicle_type_id":"4","last_reported":1728216920,"current_range_meters":32800,"station_id":"","pricing_plan_id":"cebpf4jnsgd1na2vs0mg"},{"bike_id":"52040213-e2a0-4c29-ad5c-23f287c96e58","system_id":"levelo_inurba_marseille","lat":43.25722,"lon":5.41108,"is_reserved":false,"is_disabled":false,"rental_uris":{"android":"levelo://app?vid=52040213-e2a0-4c29-ad5c-23f287c96e58","ios":"levelo://app?vid=52040213-e2a0-4c29-ad5c-23f287c96e58"},"vehicle_type_id":"4","last_reported":1728216920,"current_range_meters":38800,"station_id":"ce4bhkp2rcd13ifvqgd0","pricing_plan_id":"cebpf4jnsgd1na2vs0mg"},{"bike_id":"77409b00-bc48-4191-b28e-b760cdd78c6f","system_id":"levelo_inurba_marseille","lat":43.25729,"lon":5.4111,"is_reserved":false,"is_disabled":false,"rental_uris":{"android":"levelo://app?vid=77409b00-bc48-4191-b28e-b760cdd78c6f","ios":"levelo://app?vid=77409b00-bc48-4191-b28e-b760cdd78c6f"},"vehicle_type_id":"4","last_reported":1728216920,"current_range_meters":38800,"station_id":"ce4bhkp2rcd13ifvqgd0","pricing_plan_id":"cebpf4jnsgd1na2vs0mg"},{"bike_id":"a8676e85-06d3-4997-ab29-a0af7e80bbef","system_id":"levelo_inurba_marseille","lat":43.31113,"lon":5.37769,"is_reserved":false,"is_disabled":false,"rental_uris":{"android":"levelo://app?vid=a8676e85-06d3-4997-ab29-a0af7e80bbef","ios":"levelo://app?vid=a8676e85-06d3-4997-ab29-a0af7e80bbef"},"vehicle_type_id":"4","last_reported":1728216920,"current_range_meters":35200,"station_id":"ce4bgt92rcd13ifvqcg0","pricing_plan_id":"cebpf4jnsgd1na2vs0mg"},{"bike_id":"cd07b44a-553d-4bab-9f38-6ebb1bf25b5f","system_id":"levelo_inurba_marseille","lat":43.29041,"lon":5.35905,"is_reserved":false,"is_disabled":false,"rental_uris":{"android":"levelo://app?vid=cd07b44a-553d-4bab-9f38-6ebb1bf25b5f","ios":"levelo://app?vid=cd07b44a-553d-4bab-9f38-6ebb1bf25b5f"},"vehicle_type_id":"4","last_reported":1728216920,"current_range_meters":28800,"station_id":"ce4bha92rcd13ifvqeg0","pricing_plan_id":"cebpf4jnsgd1na2vs0mg"},{"bike_id":"2f1f7e56-c6cd-448e-b406-4d3dfc3a4de4","system_id":"levelo_inurba_marseille","lat":43.25728,"lon":5.41104,"is_reserved":false,"is_disabled":false,"rental_uris":{"android":"levelo://app?vid=2f1f7e56-c6cd-448e-b406-4d3dfc3a4de4","ios":"levelo://app?vid=2f1f7e56-c6cd-448e-b406-4d3dfc3a4de4"},"vehicle_type_id":"4","last_reported":1728216920,"current_range_meters":28800,"station_id":"ce4bhkp2rcd13ifvqgd0","pricing_plan_id":"cebpf4jnsgd1na2vs0mg"},{"bike_id":"b8d8de06-2b1f-426e-8fc8-7c4f5441801b","system_id":"levelo_inurba_marseille","lat":43.29568,"lon":5.37508,"is_reserved":false,"is_disabled":false,"rental_uris":{"android":"levelo://app?vid=b8d8de06-2b1f-426e-8fc8-7c4f5441801b","ios":"levelo://app?vid=b8d8de06-2b1f-426e-8fc8-7c4f5441801b"},"vehicle_type_id":"4","last_reported":1728216920,"current_range_meters":38800,"station_id":"ce4bgh92rcd13ifvqb50","pricing_plan_id":"cebpf4jnsgd1na2vs0mg"},{"bike_id":"ecddc9b0-a70b-47de-b6e6-53c6cbd4486d","system_id":"levelo_inurba_marseille","lat":43.30543,"lon":5.36535,"is_reserved":false,"is_disabled":false,"rental_uris":{"android":"levelo://app?vid=ecddc9b0-a70b-47de-b6e6-53c6cbd4486d","ios":"levelo://app?vid=ecddc9b0-a70b-47de-b6e6-53c6cbd4486d"},"vehicle_type_id":"4","last_reported":1728216920,"current_range_meters":39200,"station_id":"ce4bgs12rcd13ifvqcag","pricing_plan_id":"cebpf4jnsgd1na2vs0mg"},{"bike_id":"66750fc5-6195-45db-a1cf-dedf0e715339","system_id":"levelo_inurba_marseille","lat":43.260606,"lon":5.393982,"is_reserved":false,"is_disabled":false,"rental_uris":{"android":"levelo://app?vid=66750fc5-6195-45db-a1cf-dedf0e715339","ios":"levelo://app?vid=66750fc5-6195-45db-a1cf-dedf0e715339"},"vehicle_type_id":"4","last_reported":1728216920,"current_range_meters":8000,"station_id":"ce4bhh92rcd13ifvqfj0","pricing_plan_id":"cebpf4jnsgd1na2vs0mg"},{"bike_id":"3c251377-7d37-4f37-87ef-a964aa2bc668","system_id":"levelo_inurba_marseille","lat":43.28703,"lon":5.3739,"is_reserved":false,"is_disabled":false,"rental_uris":{"android":"levelo://app?vid=3c251377-7d37-4f37-87ef-a964aa2bc668","ios":"levelo://app?vid=3c251377-7d37-4f37-87ef-a964aa2bc668"},"vehicle_type_id":"4","last_reported":1728216920,"current_range_meters":25200,"station_id":"ce4bh3p2rcd13ifvqdq0","pricing_plan_id":"cebpf4jnsgd1na2vs0mg"},{"bike_id":"a94f106c-921c-40e5-90b8-0a0b7d3f49ab","system_id":"levelo_inurba_marseille","lat":43.33361,"lon":5.35851,"is_reserved":false,"is_disabled":false,"rental_uris":{"android":"levelo://app?vid=a94f106c-921c-40e5-90b8-0a0b7d3f49ab","ios":"levelo://app?vid=a94f106c-921c-40e5-90b8-0a0b7d3f49ab"},"vehicle_type_id":"4","last_reported":1728216920,"current_range_meters":18000,"station_id":"","pricing_plan_id":"cebpf4jnsgd1na2vs0mg"},{"bike_id":"f27eb96f-d58d-46dd-a65f-97903a911ec5","system_id":"levelo_inurba_marseille","lat":43.2936,"lon":5.37838,"is_reserved":false,"is_disabled":false,"rental_uris":{"android":"levelo://app?vid=f27eb96f-d58d-46dd-a65f-97903a911ec5","ios":"levelo://app?vid=f27eb96f-d58d-46dd-a65f-97903a911ec5"},"vehicle_type_id":"4","last_reported":1728216920,"current_range_meters":38400,"station_id":"ce4bgjh2rcd13ifvqbf0","pricing_plan_id":"cebpf4jnsgd1na2vs0mg"},{"bike_id":"52d4276f-2848-4c82-ac33-83fbf79e6585","system_id":"levelo_inurba_marseille","lat":43.24387,"lon":5.37056,"is_reserved":false,"is_disabled":false,"rental_uris":{"android":"levelo://app?vid=52d4276f-2848-4c82-ac33-83fbf79e6585","ios":"levelo://app?vid=52d4276f-2848-4c82-ac33-83fbf79e6585"},"vehicle_type_id":"4","last_reported":1728216920,"current_range_meters":24400,"station_id":"ce4bhhh2rcd13ifvqfk0","pricing_plan_id":"cebpf4jnsgd1na2vs0mg"},{"bike_id":"1635bb80-99a1-491f-80cc-b79e1a5c1152","system_id":"levelo_inurba_marseille","lat":43.24391,"lon":5.3706,"is_reserved":false,"is_disabled":false,"rental_uris":{"android":"levelo://app?vid=1635bb80-99a1-491f-80cc-b79e1a5c1152","ios":"levelo://app?vid=1635bb80-99a1-491f-80cc-b79e1a5c1152"},"vehicle_type_id":"4","last_reported":1728216920,"current_range_meters":38000,"station_id":"ce4bhhh2rcd13ifvqfk0","pricing_plan_id":"cebpf4jnsgd1na2vs0mg"},{"bike_id":"188d50c4-5408-41a1-9b69-46c38b4f1666","system_id":"levelo_inurba_marseille","lat":43.27564,"lon":5.38426,"is_reserved":false,"is_disabled":false,"rental_uris":{"android":"levelo://app?vid=188d50c4-5408-41a1-9b69-46c38b4f1666","ios":"levelo://app?vid=188d50c4-5408-41a1-9b69-46c38b4f1666"},"vehicle_type_id":"4","last_reported":1728216920,"current_range_meters":38800,"station_id":"ce4bhh92rcd13ifvqfi0","pricing_plan_id":"cebpf4jnsgd1na2vs0mg"},{"bike_id":"7cbddfdb-e87f-458a-a602-e4000298cce4","system_id":"levelo_inurba_marseille","lat":43.33019,"lon":5.39044,"is_reserved":false,"is_disabled":false,"rental_uris":{"android":"levelo://app?vid=7cbddfdb-e87f-458a-a602-e4000298cce4","ios":"levelo://app?vid=7cbddfdb-e87f-458a-a602-e4000298cce4"},"vehicle_type_id":"4","last_reported":1728216920,"current_range_meters":32800,"station_id":"ce4bhr92rcd13ifvqhrg","pricing_plan_id":"cebpf4jnsgd1na2vs0mg"},{"bike_id":"1c6ced08-6c65-4e22-a8e3-0734c3156234","system_id":"levelo_inurba_marseille","lat":43.25715,"lon":5.41109,"is_reserved":false,"is_disabled":false,"rental_uris":{"android":"levelo://app?vid=1c6ced08-6c65-4e22-a8e3-0734c3156234","ios":"levelo://app?vid=1c6ced08-6c65-4e22-a8e3-0734c3156234"},"vehicle_type_id":"4","last_reported":1728216920,"current_range_meters":38800,"station_id":"ce4bhkp2rcd13ifvqgd0","pricing_plan_id":"cebpf4jnsgd1na2vs0mg"},{"bike_id":"5f1f2d1d-82cf-4b96-abbe-cdd4737ddcaa","system_id":"levelo_inurba_marseille","lat":43.29402,"lon":5.39979,"is_reserved":false,"is_disabled":false,"rental_uris":{"android":"levelo://app?vid=5f1f2d1d-82cf-4b96-abbe-cdd4737ddcaa","ios":"levelo://app?vid=5f1f2d1d-82cf-4b96-abbe-cdd4737ddcaa"},"vehicle_type_id":"4","last_reported":1728216920,"current_range_meters":24000,"station_id":"","pricing_plan_id":"cebpf4jnsgd1na2vs0mg"},{"bike_id":"cf98a660-7f87-4ed6-9b7c-c63bf1655b22","system_id":"levelo_inurba_marseille","lat":43.28031,"lon":5.36954,"is_reserved":false,"is_disabled":false,"rental_uris":{"android":"levelo://app?vid=cf98a660-7f87-4ed6-9b7c-c63bf1655b22","ios":"levelo://app?vid=cf98a660-7f87-4ed6-9b7c-c63bf1655b22"},"vehicle_type_id":"4","last_reported":1728216920,"current_range_meters":9600,"station_id":"ce4bha12rcd13ifvqef0","pricing_plan_id":"cebpf4jnsgd1na2vs0mg"},{"bike_id":"7d832797-a368-47ce-80a8-50d6a3763de8","system_id":"levelo_inurba_marseille","lat":43.28425,"lon":5.384655,"is_reserved":false,"is_disabled":false,"rental_uris":{"android":"levelo://app?vid=7d832797-a368-47ce-80a8-50d6a3763de8","ios":"levelo://app?vid=7d832797-a368-47ce-80a8-50d6a3763de8"},"vehicle_type_id":"4","last_reported":1728216920,"current_range_meters":28400,"station_id":"","pricing_plan_id":"cebpf4jnsgd1na2vs0mg"},{"bike_id":"b3a5c235-f866-4358-8cb9-017d078dceb9","system_id":"levelo_inurba_marseille","lat":43.31185,"lon":5.38707,"is_reserved":false,"is_disabled":false,"rental_uris":{"android":"levelo://app?vid=b3a5c235-f866-4358-8cb9-017d078dceb9","ios":"levelo://app?vid=b3a5c235-f866-4358-8cb9-017d078dceb9"},"vehicle_type_id":"4","last_reported":1728216920,"current_range_meters":37600,"station_id":"ce4bgv12rcd13ifvqcp0","pricing_plan_id":"cebpf4jnsgd1na2vs0mg"},{"bike_id":"a8180d53-a18b-44e4-b3ed-f005df2490a3","system_id":"levelo_inurba_marseille","lat":43.29222,"lon":5.36077,"is_reserved":false,"is_disabled":false,"rental_uris":{"android":"levelo://app?vid=a8180d53-a18b-44e4-b3ed-f005df2490a3","ios":"levelo://app?vid=a8180d53-a18b-44e4-b3ed-f005df2490a3"},"vehicle_type_id":"4","last_reported":1728216920,"current_range_meters":29600,"station_id":"ce4bhbh2rcd13ifvqeqg","pricing_plan_id":"cebpf4jnsgd1na2vs0mg"},{"bike_id":"126e8b9c-d4ba-4fdf-b891-8a69ddbd21f6","system_id":"levelo_inurba_marseille","lat":43.32107,"lon":5.36765,"is_reserved":false,"is_disabled":false,"rental_uris":{"android":"levelo://app?vid=126e8b9c-d4ba-4fdf-b891-8a69ddbd21f6","ios":"levelo://app?vid=126e8b9c-d4ba-4fdf-b891-8a69ddbd21f6"},"vehicle_type_id":"4","last_reported":1728216920,"current_range_meters":26000,"station_id":"ce4bhrh2rcd13ifvqhug","pricing_plan_id":"cebpf4jnsgd1na2vs0mg"},{"bike_id":"98118fa3-604c-404c-97ee-61c5c207d73d","system_id":"levelo_inurba_marseille","lat":43.2769,"lon":5.38873,"is_reserved":false,"is_disabled":false,"rental_uris":{"android":"levelo://app?vid=98118fa3-604c-404c-97ee-61c5c207d73d","ios":"levelo://app?vid=98118fa3-604c-404c-97ee-61c5c207d73d"},"vehicle_type_id":"4","last_reported":1728216920,"current_range_meters":14000,"station_id":"ce4bhi12rcd13ifvqfo0","pricing_plan_id":"cebpf4jnsgd1na2vs0mg"},{"bike_id":"68b77a88-2067-422a-ab7b-e29094a40dcc","system_id":"levelo_inurba_marseille","lat":43.25116,"lon":5.40316,"is_reserved":false,"is_disabled":false,"rental_uris":{"android":"levelo://app?vid=68b77a88-2067-422a-ab7b-e29094a40dcc","ios":"levelo://app?vid=68b77a88-2067-422a-ab7b-e29094a40dcc"},"vehicle_type_id":"4","last_reported":1728216920,"current_range_meters":38800,"station_id":"ce4bhlh2rcd13ifvqgig","pricing_plan_id":"cebpf4jnsgd1na2vs0mg"},{"bike_id":"df385d8a-ddd2-418f-9c37-968ee15c821d","system_id":"levelo_inurba_marseille","lat":43.29892,"lon":5.3889,"is_reserved":false,"is_disabled":false,"rental_uris":{"android":"levelo://app?vid=df385d8a-ddd2-418f-9c37-968ee15c821d","ios":"levelo://app?vid=df385d8a-ddd2-418f-9c37-968ee15c821d"},"vehicle_type_id":"4","last_reported":1728216920,"current_range_meters":4800,"station_id":"ce4bh392rcd13ifvqdl0","pricing_plan_id":"cebpf4jnsgd1na2vs0mg"},{"bike_id":"d0e81cdf-b5a0-44e2-a36b-805202ade773","system_id":"levelo_inurba_marseille","lat":43.24392,"lon":5.37053,"is_reserved":false,"is_disabled":false,"rental_uris":{"android":"levelo://app?vid=d0e81cdf-b5a0-44e2-a36b-805202ade773","ios":"levelo://app?vid=d0e81cdf-b5a0-44e2-a36b-805202ade773"},"vehicle_type_id":"4","last_reported":1728216920,"current_range_meters":39200,"station_id":"ce4bhhh2rcd13ifvqfk0","pricing_plan_id":"cebpf4jnsgd1na2vs0mg"},{"bike_id":"80197e9e-0577-4853-bb84-86e7a57ebb5d","system_id":"levelo_inurba_marseille","lat":43.24387,"lon":5.37061,"is_reserved":false,"is_disabled":false,"rental_uris":{"android":"levelo://app?vid=80197e9e-0577-4853-bb84-86e7a57ebb5d","ios":"levelo://app?vid=80197e9e-0577-4853-bb84-86e7a57ebb5d"},"vehicle_type_id":"4","last_reported":1728216920,"current_range_meters":11600,"station_id":"ce4bhhh2rcd13ifvqfk0","pricing_plan_id":"cebpf4jnsgd1na2vs0mg"},{"bike_id":"7fcb8130-3395-4d87-9f0c-b881d11e08ee","system_id":"levelo_inurba_marseille","lat":43.26928,"lon":5.38911,"is_reserved":false,"is_disabled":false,"rental_uris":{"android":"levelo://app?vid=7fcb8130-3395-4d87-9f0c-b881d11e08ee","ios":"levelo://app?vid=7fcb8130-3395-4d87-9f0c-b881d11e08ee"},"vehicle_type_id":"4","last_reported":1728216920,"current_range_meters":27600,"station_id":"ce4bhhh2rcd13ifvqfl0","pricing_plan_id":"cebpf4jnsgd1na2vs0mg"},{"bike_id":"3a3dcd92-2821-4f40-a3f0-9944e271a760","system_id":"levelo_inurba_marseille","lat":43.25499,"lon":5.37648,"is_reserved":false,"is_disabled":false,"rental_uris":{"android":"levelo://app?vid=3a3dcd92-2821-4f40-a3f0-9944e271a760","ios":"levelo://app?vid=3a3dcd92-2821-4f40-a3f0-9944e271a760"},"vehicle_type_id":"4","last_reported":1728216920,"current_range_meters":18800,"station_id":"ce4bhh12rcd13ifvqff0","pricing_plan_id":"cebpf4jnsgd1na2vs0mg"},{"bike_id":"863c432c-e778-4763-95d0-0685bd716f58","system_id":"levelo_inurba_marseille","lat":43.29551,"lon":5.42276,"is_reserved":false,"is_disabled":false,"rental_uris":{"android":"levelo://app?vid=863c432c-e778-4763-95d0-0685bd716f58","ios":"levelo://app?vid=863c432c-e778-4763-95d0-0685bd716f58"},"vehicle_type_id":"4","last_reported":1728216920,"current_range_meters":38800,"station_id":"ce4bhph2rcd13ifvqhdg","pricing_plan_id":"cebpf4jnsgd1na2vs0mg"},{"bike_id":"0a6d5994-1c0b-4d6b-b33a-2a21d9495a6a","system_id":"levelo_inurba_marseille","lat":43.28839,"lon":5.35839,"is_reserved":false,"is_disabled":false,"rental_uris":{"android":"levelo://app?vid=0a6d5994-1c0b-4d6b-b33a-2a21d9495a6a","ios":"levelo://app?vid=0a6d5994-1c0b-4d6b-b33a-2a21d9495a6a"},"vehicle_type_id":"4","last_reported":1728216920,"current_range_meters":38000,"station_id":"ce4bhb12rcd13ifvqem0","pricing_plan_id":"cebpf4jnsgd1na2vs0mg"},{"bike_id":"4d0bb79e-0712-456c-b699-453c7a58792e","system_id":"levelo_inurba_marseille","lat":43.30138,"lon":5.37418,"is_reserved":false,"is_disabled":false,"rental_uris":{"android":"levelo://app?vid=4d0bb79e-0712-456c-b699-453c7a58792e","ios":"levelo://app?vid=4d0bb79e-0712-456c-b699-453c7a58792e"},"vehicle_type_id":"4","last_reported":1728216920,"current_range_meters":14800,"station_id":"ce4bgs92rcd13ifvqcc0","pricing_plan_id":"cebpf4jnsgd1na2vs0mg"},{"bike_id":"b6fd76d3-34a5-4c26-a80e-03dca3f57387","system_id":"levelo_inurba_marseille","lat":43.33599,"lon":5.41029,"is_reserved":false,"is_disabled":false,"rental_uris":{"android":"levelo://app?vid=b6fd76d3-34a5-4c26-a80e-03dca3f57387","ios":"levelo://app?vid=b6fd76d3-34a5-4c26-a80e-03dca3f57387"},"vehicle_type_id":"4","last_reported":1728216920,"current_range_meters":6800,"station_id":"ce4bhqh2rcd13ifvqhmg","pricing_plan_id":"cebpf4jnsgd1na2vs0mg"},{"bike_id":"8221909e-f4c4-413f-8d9d-3a2ad3187969","system_id":"levelo_inurba_marseille","lat":43.31691,"lon":5.40481,"is_reserved":false,"is_disabled":false,"rental_uris":{"android":"levelo://app?vid=8221909e-f4c4-413f-8d9d-3a2ad3187969","ios":"levelo://app?vid=8221909e-f4c4-413f-8d9d-3a2ad3187969"},"vehicle_type_id":"4","last_reported":1728216920,"current_range_meters":4400,"station_id":"ce4bh012rcd13ifvqd00","pricing_plan_id":"cebpf4jnsgd1na2vs0mg"},{"bike_id":"152f3a24-1071-41b9-a2ed-934df83e2faa","system_id":"levelo_inurba_marseille","lat":43.25866,"lon":5.39894,"is_reserved":false,"is_disabled":false,"rental_uris":{"android":"levelo://app?vid=152f3a24-1071-41b9-a2ed-934df83e2faa","ios":"levelo://app?vid=152f3a24-1071-41b9-a2ed-934df83e2faa"},"vehicle_type_id":"4","last_reported":1728216920,"current_range_meters":20400,"station_id":"ce4bhl92rcd13ifvqghg","pricing_plan_id":"cebpf4jnsgd1na2vs0mg"},{"bike_id":"fea3a001-6b80-457d-8fa7-59eb6a9d5742","system_id":"levelo_inurba_marseille","lat":43.29018,"lon":5.37552,"is_reserved":false,"is_disabled":false,"rental_uris":{"android":"levelo://app?vid=fea3a001-6b80-457d-8fa7-59eb6a9d5742","ios":"levelo://app?vid=fea3a001-6b80-457d-8fa7-59eb6a9d5742"},"vehicle_type_id":"4","last_reported":1728216920,"current_range_meters":29600,"station_id":"ce4bh692rcd13ifvqe90","pricing_plan_id":"cebpf4jnsgd1na2vs0mg"},{"bike_id":"1d0e3faa-ee78-4da5-a96f-abfd136c29bb","system_id":"levelo_inurba_marseille","lat":43.32478,"lon":5.36561,"is_reserved":false,"is_disabled":false,"rental_uris":{"android":"levelo://app?vid=1d0e3faa-ee78-4da5-a96f-abfd136c29bb","ios":"levelo://app?vid=1d0e3faa-ee78-4da5-a96f-abfd136c29bb"},"vehicle_type_id":"4","last_reported":1728216920,"current_range_meters":24800,"station_id":"ce4bhs12rcd13ifvqhvg","pricing_plan_id":"cebpf4jnsgd1na2vs0mg"},{"bike_id":"c8993dcc-4c11-48b8-8701-0126b91985cd","system_id":"levelo_inurba_marseille","lat":43.30774,"lon":5.3765,"is_reserved":false,"is_disabled":false,"rental_uris":{"android":"levelo://app?vid=c8993dcc-4c11-48b8-8701-0126b91985cd","ios":"levelo://app?vid=c8993dcc-4c11-48b8-8701-0126b91985cd"},"vehicle_type_id":"4","last_reported":1728216920,"current_range_meters":36400,"station_id":"ce4bgv92rcd13ifvqcq0","pricing_plan_id":"cebpf4jnsgd1na2vs0mg"},{"bike_id":"bee0cd21-a648-4f04-8bc2-b57277130683","system_id":"levelo_inurba_marseille","lat":43.255798,"lon":5.38232,"is_reserved":false,"is_disabled":false,"rental_uris":{"android":"levelo://app?vid=bee0cd21-a648-4f04-8bc2-b57277130683","ios":"levelo://app?vid=bee0cd21-a648-4f04-8bc2-b57277130683"},"vehicle_type_id":"4","last_reported":1728216920,"current_range_meters":20800,"station_id":"ce4bhih2rcd13ifvqfs0","pricing_plan_id":"cebpf4jnsgd1na2vs0mg"},{"bike_id":"3af48eb3-1d1f-4a32-a948-7cc05add2405","system_id":"levelo_inurba_marseille","lat":43.21346,"lon":5.34936,"is_reserved":false,"is_disabled":false,"rental_uris":{"android":"levelo://app?vid=3af48eb3-1d1f-4a32-a948-7cc05add2405","ios":"levelo://app?vid=3af48eb3-1d1f-4a32-a948-7cc05add2405"},"vehicle_type_id":"4","last_reported":1728216920,"current_range_meters":32000,"station_id":"crv51consjfaj9uu89c0","pricing_plan_id":"cebpf4jnsgd1na2vs0mg"},{"bike_id":"77e44f96-8992-4ec5-ba2c-5e51b9e5b288","system_id":"levelo_inurba_marseille","lat":43.27048,"lon":5.38786,"is_reserved":false,"is_disabled":false,"rental_uris":{"android":"levelo://app?vid=77e44f96-8992-4ec5-ba2c-5e51b9e5b288","ios":"levelo://app?vid=77e44f96-8992-4ec5-ba2c-5e51b9e5b288"},"vehicle_type_id":"4","last_reported":1728216920,"current_range_meters":36400,"station_id":"","pricing_plan_id":"cebpf4jnsgd1na2vs0mg"},{"bike_id":"dd164524-3c0c-4135-9b32-9ab6e84f90a0","system_id":"levelo_inurba_marseille","lat":43.2657,"lon":5.39004,"is_reserved":false,"is_disabled":false,"rental_uris":{"android":"levelo://app?vid=dd164524-3c0c-4135-9b32-9ab6e84f90a0","ios":"levelo://app?vid=dd164524-3c0c-4135-9b32-9ab6e84f90a0"},"vehicle_type_id":"4","last_reported":1728216920,"current_range_meters":31200,"station_id":"ce4bhe12rcd13ifvqf30","pricing_plan_id":"cebpf4jnsgd1na2vs0mg"},{"bike_id":"32ef6b2d-14cc-4e67-b293-0635ae9e74ce","system_id":"levelo_inurba_marseille","lat":43.272,"lon":5.39188,"is_reserved":false,"is_disabled":false,"rental_uris":{"android":"levelo://app?vid=32ef6b2d-14cc-4e67-b293-0635ae9e74ce","ios":"levelo://app?vid=32ef6b2d-14cc-4e67-b293-0635ae9e74ce"},"vehicle_type_id":"4","last_reported":1728216920,"current_range_meters":4400,"station_id":"ce4bhhp2rcd13ifvqfm0","pricing_plan_id":"cebpf4jnsgd1na2vs0mg"},{"bike_id":"b51ee6d2-4574-4587-a7f0-3852397ae634","system_id":"levelo_inurba_marseille","lat":43.22924,"lon":5.35372,"is_reserved":false,"is_disabled":false,"rental_uris":{"android":"levelo://app?vid=b51ee6d2-4574-4587-a7f0-3852397ae634","ios":"levelo://app?vid=b51ee6d2-4574-4587-a7f0-3852397ae634"},"vehicle_type_id":"4","last_reported":1728216920,"current_range_meters":36400,"station_id":"cpo3532slgdg3j2ikp40","pricing_plan_id":"cebpf4jnsgd1na2vs0mg"},{"bike_id":"4f5038fe-9ccd-4d04-a6cd-afe04d9be89f","system_id":"levelo_inurba_marseille","lat":43.2738,"lon":5.36258,"is_reserved":false,"is_disabled":false,"rental_uris":{"android":"levelo://app?vid=4f5038fe-9ccd-4d04-a6cd-afe04d9be89f","ios":"levelo://app?vid=4f5038fe-9ccd-4d04-a6cd-afe04d9be89f"},"vehicle_type_id":"4","last_reported":1728216920,"current_range_meters":32400,"station_id":"ce4bhbh2rcd13ifvqeo0","pricing_plan_id":"cebpf4jnsgd1na2vs0mg"},{"bike_id":"e6d1b1cf-f994-45b3-9452-93211460d5ab","system_id":"levelo_inurba_marseille","lat":43.26679,"lon":5.38261,"is_reserved":false,"is_disabled":false,"rental_uris":{"android":"levelo://app?vid=e6d1b1cf-f994-45b3-9452-93211460d5ab","ios":"levelo://app?vid=e6d1b1cf-f994-45b3-9452-93211460d5ab"},"vehicle_type_id":"4","last_reported":1728216920,"current_range_meters":38800,"station_id":"ce4bhg92rcd13ifvqf90","pricing_plan_id":"cebpf4jnsgd1na2vs0mg"},{"bike_id":"37e3fd27-ea1b-453e-b8d6-0ef9b6f1517d","system_id":"levelo_inurba_marseille","lat":43.30292,"lon":5.39236,"is_reserved":false,"is_disabled":false,"rental_uris":{"android":"levelo://app?vid=37e3fd27-ea1b-453e-b8d6-0ef9b6f1517d","ios":"levelo://app?vid=37e3fd27-ea1b-453e-b8d6-0ef9b6f1517d"},"vehicle_type_id":"4","last_reported":1728216920,"current_range_meters":32800,"station_id":"ce4bgkh2rcd13ifvqbk0","pricing_plan_id":"cebpf4jnsgd1na2vs0mg"},{"bike_id":"4e0c83a2-b0c3-4894-8559-e509681998d3","system_id":"levelo_inurba_marseille","lat":43.31121,"lon":5.3832,"is_reserved":false,"is_disabled":false,"rental_uris":{"android":"levelo://app?vid=4e0c83a2-b0c3-4894-8559-e509681998d3","ios":"levelo://app?vid=4e0c83a2-b0c3-4894-8559-e509681998d3"},"vehicle_type_id":"4","last_reported":1728216920,"current_range_meters":9200,"station_id":"","pricing_plan_id":"cebpf4jnsgd1na2vs0mg"},{"bike_id":"a76ee3fd-363a-4d57-9618-b37ded534ce5","system_id":"levelo_inurba_marseille","lat":43.24386,"lon":5.37058,"is_reserved":false,"is_disabled":false,"rental_uris":{"android":"levelo://app?vid=a76ee3fd-363a-4d57-9618-b37ded534ce5","ios":"levelo://app?vid=a76ee3fd-363a-4d57-9618-b37ded534ce5"},"vehicle_type_id":"4","last_reported":1728216920,"current_range_meters":38800,"station_id":"ce4bhhh2rcd13ifvqfk0","pricing_plan_id":"cebpf4jnsgd1na2vs0mg"},{"bike_id":"ae53a9d1-01ac-447b-a4c7-269e1c5ac403","system_id":"levelo_inurba_marseille","lat":43.31822,"lon":5.40632,"is_reserved":false,"is_disabled":false,"rental_uris":{"android":"levelo://app?vid=ae53a9d1-01ac-447b-a4c7-269e1c5ac403","ios":"levelo://app?vid=ae53a9d1-01ac-447b-a4c7-269e1c5ac403"},"vehicle_type_id":"4","last_reported":1728216920,"current_range_meters":12000,"station_id":"","pricing_plan_id":"cebpf4jnsgd1na2vs0mg"},{"bike_id":"d3d0826a-8542-464c-893d-a0abebc55504","system_id":"levelo_inurba_marseille","lat":43.31268,"lon":5.40172,"is_reserved":false,"is_disabled":false,"rental_uris":{"android":"levelo://app?vid=d3d0826a-8542-464c-893d-a0abebc55504","ios":"levelo://app?vid=d3d0826a-8542-464c-893d-a0abebc55504"},"vehicle_type_id":"4","last_reported":1728216920,"current_range_meters":38000,"station_id":"ce4bh092rcd13ifvqd30","pricing_plan_id":"cebpf4jnsgd1na2vs0mg"},{"bike_id":"c8a81076-9586-4795-a406-3705874a4aa0","system_id":"levelo_inurba_marseille","lat":43.22922,"lon":5.35373,"is_reserved":false,"is_disabled":false,"rental_uris":{"android":"levelo://app?vid=c8a81076-9586-4795-a406-3705874a4aa0","ios":"levelo://app?vid=c8a81076-9586-4795-a406-3705874a4aa0"},"vehicle_type_id":"4","last_reported":1728216920,"current_range_meters":30000,"station_id":"cpo3532slgdg3j2ikp40","pricing_plan_id":"cebpf4jnsgd1na2vs0mg"},{"bike_id":"9f2d1f46-cced-4ba5-b14c-049416058e8e","system_id":"levelo_inurba_marseille","lat":43.31119,"lon":5.37763,"is_reserved":false,"is_disabled":false,"rental_uris":{"android":"levelo://app?vid=9f2d1f46-cced-4ba5-b14c-049416058e8e","ios":"levelo://app?vid=9f2d1f46-cced-4ba5-b14c-049416058e8e"},"vehicle_type_id":"4","last_reported":1728216920,"current_range_meters":32800,"station_id":"ce4bgt92rcd13ifvqcg0","pricing_plan_id":"cebpf4jnsgd1na2vs0mg"},{"bike_id":"88a08e33-7f86-4d39-9474-17dae1ff2785","system_id":"levelo_inurba_marseille","lat":43.28854,"lon":5.35877,"is_reserved":false,"is_disabled":false,"rental_uris":{"android":"levelo://app?vid=88a08e33-7f86-4d39-9474-17dae1ff2785","ios":"levelo://app?vid=88a08e33-7f86-4d39-9474-17dae1ff2785"},"vehicle_type_id":"4","last_reported":1728216920,"current_range_meters":6800,"station_id":"ce4bhb12rcd13ifvqem0","pricing_plan_id":"cebpf4jnsgd1na2vs0mg"},{"bike_id":"c378dc83-ebd1-41d3-9b5e-a9309637a11d","system_id":"levelo_inurba_marseille","lat":43.3093,"lon":5.40145,"is_reserved":false,"is_disabled":false,"rental_uris":{"android":"levelo://app?vid=c378dc83-ebd1-41d3-9b5e-a9309637a11d","ios":"levelo://app?vid=c378dc83-ebd1-41d3-9b5e-a9309637a11d"},"vehicle_type_id":"4","last_reported":1728216920,"current_range_meters":8000,"station_id":"ce4bgvp2rcd13ifvqct0","pricing_plan_id":"cebpf4jnsgd1na2vs0mg"},{"bike_id":"c50e441c-d247-4c47-85e3-c59071bb20fa","system_id":"levelo_inurba_marseille","lat":43.21344,"lon":5.34932,"is_reserved":false,"is_disabled":false,"rental_uris":{"android":"levelo://app?vid=c50e441c-d247-4c47-85e3-c59071bb20fa","ios":"levelo://app?vid=c50e441c-d247-4c47-85e3-c59071bb20fa"},"vehicle_type_id":"4","last_reported":1728216920,"current_range_meters":30000,"station_id":"crv51consjfaj9uu89c0","pricing_plan_id":"cebpf4jnsgd1na2vs0mg"},{"bike_id":"50adf5c9-c061-481b-81a8-2b154bbc729c","system_id":"levelo_inurba_marseille","lat":43.29576,"lon":5.36735,"is_reserved":false,"is_disabled":false,"rental_uris":{"android":"levelo://app?vid=50adf5c9-c061-481b-81a8-2b154bbc729c","ios":"levelo://app?vid=50adf5c9-c061-481b-81a8-2b154bbc729c"},"vehicle_type_id":"4","last_reported":1728216920,"current_range_meters":39200,"station_id":"ce4bgph2rcd13ifvqc2g","pricing_plan_id":"cebpf4jnsgd1na2vs0mg"},{"bike_id":"a8d95618-f2ad-45b4-8eba-9bd5b2ef680e","system_id":"levelo_inurba_marseille","lat":43.25575,"lon":5.38236,"is_reserved":false,"is_disabled":false,"rental_uris":{"android":"levelo://app?vid=a8d95618-f2ad-45b4-8eba-9bd5b2ef680e","ios":"levelo://app?vid=a8d95618-f2ad-45b4-8eba-9bd5b2ef680e"},"vehicle_type_id":"4","last_reported":1728216920,"current_range_meters":22800,"station_id":"ce4bhih2rcd13ifvqfs0","pricing_plan_id":"cebpf4jnsgd1na2vs0mg"},{"bike_id":"0e706edc-d6c9-4695-a8ed-089f891deb61","system_id":"levelo_inurba_marseille","lat":43.30637,"lon":5.40078,"is_reserved":false,"is_disabled":false,"rental_uris":{"android":"levelo://app?vid=0e706edc-d6c9-4695-a8ed-089f891deb61","ios":"levelo://app?vid=0e706edc-d6c9-4695-a8ed-089f891deb61"},"vehicle_type_id":"4","last_reported":1728216920,"current_range_meters":10800,"station_id":"ce4bh112rcd13ifvqda0","pricing_plan_id":"cebpf4jnsgd1na2vs0mg"},{"bike_id":"db96fbf8-b5b2-4191-a879-4cf4187733eb","system_id":"levelo_inurba_marseille","lat":43.2921,"lon":5.35965,"is_reserved":false,"is_disabled":false,"rental_uris":{"android":"levelo://app?vid=db96fbf8-b5b2-4191-a879-4cf4187733eb","ios":"levelo://app?vid=db96fbf8-b5b2-4191-a879-4cf4187733eb"},"vehicle_type_id":"4","last_reported":1728216920,"current_range_meters":30400,"station_id":"ce4bgph2rcd13ifvqc2g","pricing_plan_id":"cebpf4jnsgd1na2vs0mg"},{"bike_id":"d463bf47-8304-43f0-8b2e-8eb7b10dc6e6","system_id":"levelo_inurba_marseille","lat":43.29581,"lon":5.36733,"is_reserved":false,"is_disabled":false,"rental_uris":{"android":"levelo://app?vid=d463bf47-8304-43f0-8b2e-8eb7b10dc6e6","ios":"levelo://app?vid=d463bf47-8304-43f0-8b2e-8eb7b10dc6e6"},"vehicle_type_id":"4","last_reported":1728216920,"current_range_meters":22000,"station_id":"ce4bgph2rcd13ifvqc2g","pricing_plan_id":"cebpf4jnsgd1na2vs0mg"},{"bike_id":"b1838a8a-5724-48f4-8b08-ccb2775a3430","system_id":"levelo_inurba_marseille","lat":43.30546,"lon":5.36535,"is_reserved":false,"is_disabled":false,"rental_uris":{"android":"levelo://app?vid=b1838a8a-5724-48f4-8b08-ccb2775a3430","ios":"levelo://app?vid=b1838a8a-5724-48f4-8b08-ccb2775a3430"},"vehicle_type_id":"4","last_reported":1728216920,"current_range_meters":15200,"station_id":"ce4bgs12rcd13ifvqcag","pricing_plan_id":"cebpf4jnsgd1na2vs0mg"},{"bike_id":"fa8c469e-acd7-4dd7-aeb7-86419f207bc7","system_id":"levelo_inurba_marseille","lat":43.29213,"lon":5.3932,"is_reserved":false,"is_disabled":false,"rental_uris":{"android":"levelo://app?vid=fa8c469e-acd7-4dd7-aeb7-86419f207bc7","ios":"levelo://app?vid=fa8c469e-acd7-4dd7-aeb7-86419f207bc7"},"vehicle_type_id":"4","last_reported":1728216920,"current_range_meters":17600,"station_id":"ce4bh192rcd13ifvqdd0","pricing_plan_id":"cebpf4jnsgd1na2vs0mg"},{"bike_id":"efb1de8c-19b5-42a7-a6a3-7b3aff3600bd","system_id":"levelo_inurba_marseille","lat":43.29798,"lon":5.38085,"is_reserved":false,"is_disabled":false,"rental_uris":{"android":"levelo://app?vid=efb1de8c-19b5-42a7-a6a3-7b3aff3600bd","ios":"levelo://app?vid=efb1de8c-19b5-42a7-a6a3-7b3aff3600bd"},"vehicle_type_id":"4","last_reported":1728216920,"current_range_meters":39200,"station_id":"ce4bgip2rcd13ifvqbb0","pricing_plan_id":"cebpf4jnsgd1na2vs0mg"},{"bike_id":"388290ea-17da-4ed9-92b2-c3971b85f234","system_id":"levelo_inurba_marseille","lat":43.30904,"lon":5.36853,"is_reserved":false,"is_disabled":false,"rental_uris":{"android":"levelo://app?vid=388290ea-17da-4ed9-92b2-c3971b85f234","ios":"levelo://app?vid=388290ea-17da-4ed9-92b2-c3971b85f234"},"vehicle_type_id":"4","last_reported":1728216920,"current_range_meters":32000,"station_id":"ce4bgg92rcd13ifvqb30","pricing_plan_id":"cebpf4jnsgd1na2vs0mg"},{"bike_id":"bdefae95-7cc5-4880-bfcb-b1af39586be0","system_id":"levelo_inurba_marseille","lat":43.32662,"lon":5.40992,"is_reserved":false,"is_disabled":false,"rental_uris":{"android":"levelo://app?vid=bdefae95-7cc5-4880-bfcb-b1af39586be0","ios":"levelo://app?vid=bdefae95-7cc5-4880-bfcb-b1af39586be0"},"vehicle_type_id":"4","last_reported":1728216920,"current_range_meters":36800,"station_id":"ce4bhpp2rcd13ifvqhgg","pricing_plan_id":"cebpf4jnsgd1na2vs0mg"},{"bike_id":"7f2584c3-186b-4ca9-b416-bee639b50e12","system_id":"levelo_inurba_marseille","lat":43.22933,"lon":5.35379,"is_reserved":false,"is_disabled":false,"rental_uris":{"android":"levelo://app?vid=7f2584c3-186b-4ca9-b416-bee639b50e12","ios":"levelo://app?vid=7f2584c3-186b-4ca9-b416-bee639b50e12"},"vehicle_type_id":"4","last_reported":1728216920,"current_range_meters":29600,"station_id":"cpo3532slgdg3j2ikp40","pricing_plan_id":"cebpf4jnsgd1na2vs0mg"},{"bike_id":"cbdf7d56-2a0d-4e5b-ba35-611d7d36932b","system_id":"levelo_inurba_marseille","lat":43.30553,"lon":5.36527,"is_reserved":false,"is_disabled":false,"rental_uris":{"android":"levelo://app?vid=cbdf7d56-2a0d-4e5b-ba35-611d7d36932b","ios":"levelo://app?vid=cbdf7d56-2a0d-4e5b-ba35-611d7d36932b"},"vehicle_type_id":"4","last_reported":1728216920,"current_range_meters":27200,"station_id":"ce4bgs12rcd13ifvqcag","pricing_plan_id":"cebpf4jnsgd1na2vs0mg"},{"bike_id":"a5180788-d0d8-47b7-b0ec-187816846d9f","system_id":"levelo_inurba_marseille","lat":43.30318,"lon":5.36888,"is_reserved":false,"is_disabled":false,"rental_uris":{"android":"levelo://app?vid=a5180788-d0d8-47b7-b0ec-187816846d9f","ios":"levelo://app?vid=a5180788-d0d8-47b7-b0ec-187816846d9f"},"vehicle_type_id":"4","last_reported":1728216920,"current_range_meters":38800,"station_id":"ce4bgqh2rcd13ifvqc5g","pricing_plan_id":"cebpf4jnsgd1na2vs0mg"},{"bike_id":"2912afbb-a19a-40e0-a188-1cf83ec3505a","system_id":"levelo_inurba_marseille","lat":43.27604,"lon":5.39707,"is_reserved":false,"is_disabled":false,"rental_uris":{"android":"levelo://app?vid=2912afbb-a19a-40e0-a188-1cf83ec3505a","ios":"levelo://app?vid=2912afbb-a19a-40e0-a188-1cf83ec3505a"},"vehicle_type_id":"4","last_reported":1728216920,"current_range_meters":31200,"station_id":"","pricing_plan_id":"cebpf4jnsgd1na2vs0mg"},{"bike_id":"1d152269-c2fa-4900-bfa9-f20a095e29df","system_id":"levelo_inurba_marseille","lat":43.25721,"lon":5.41107,"is_reserved":false,"is_disabled":false,"rental_uris":{"android":"levelo://app?vid=1d152269-c2fa-4900-bfa9-f20a095e29df","ios":"levelo://app?vid=1d152269-c2fa-4900-bfa9-f20a095e29df"},"vehicle_type_id":"4","last_reported":1728216920,"current_range_meters":38800,"station_id":"ce4bhkp2rcd13ifvqgd0","pricing_plan_id":"cebpf4jnsgd1na2vs0mg"},{"bike_id":"57df5327-e4f9-4fe9-b1c6-46e97a345cbd","system_id":"levelo_inurba_marseille","lat":43.28612,"lon":5.37063,"is_reserved":false,"is_disabled":false,"rental_uris":{"android":"levelo://app?vid=57df5327-e4f9-4fe9-b1c6-46e97a345cbd","ios":"levelo://app?vid=57df5327-e4f9-4fe9-b1c6-46e97a345cbd"},"vehicle_type_id":"4","last_reported":1728216920,"current_range_meters":36000,"station_id":"ce4bht12rcd13ifvqi60","pricing_plan_id":"cebpf4jnsgd1na2vs0mg"},{"bike_id":"5182113f-8908-4825-903e-5a46e19bca5b","system_id":"levelo_inurba_marseille","lat":43.31492,"lon":5.37306,"is_reserved":false,"is_disabled":false,"rental_uris":{"android":"levelo://app?vid=5182113f-8908-4825-903e-5a46e19bca5b","ios":"levelo://app?vid=5182113f-8908-4825-903e-5a46e19bca5b"},"vehicle_type_id":"4","last_reported":1728216920,"current_range_meters":4800,"station_id":"ce4bhs12rcd13ifvqhvg","pricing_plan_id":"cebpf4jnsgd1na2vs0mg"},{"bike_id":"e03c9d0c-17ae-4003-b903-fd8aa9951041","system_id":"levelo_inurba_marseille","lat":43.33748,"lon":5.37445,"is_reserved":false,"is_disabled":false,"rental_uris":{"android":"levelo://app?vid=e03c9d0c-17ae-4003-b903-fd8aa9951041","ios":"levelo://app?vid=e03c9d0c-17ae-4003-b903-fd8aa9951041"},"vehicle_type_id":"4","last_reported":1728216920,"current_range_meters":34000,"station_id":"","pricing_plan_id":"cebpf4jnsgd1na2vs0mg"},{"bike_id":"04eb5bb2-b07d-4668-a0d1-cdd07e5ea1cd","system_id":"levelo_inurba_marseille","lat":43.25584,"lon":5.38235,"is_reserved":false,"is_disabled":false,"rental_uris":{"android":"levelo://app?vid=04eb5bb2-b07d-4668-a0d1-cdd07e5ea1cd","ios":"levelo://app?vid=04eb5bb2-b07d-4668-a0d1-cdd07e5ea1cd"},"vehicle_type_id":"4","last_reported":1728216920,"current_range_meters":8400,"station_id":"ce4bhih2rcd13ifvqfs0","pricing_plan_id":"cebpf4jnsgd1na2vs0mg"},{"bike_id":"fadcf6aa-e1cf-44d1-88d8-678c1291d969","system_id":"levelo_inurba_marseille","lat":43.32341,"lon":5.40628,"is_reserved":false,"is_disabled":false,"rental_uris":{"android":"levelo://app?vid=fadcf6aa-e1cf-44d1-88d8-678c1291d969","ios":"levelo://app?vid=fadcf6aa-e1cf-44d1-88d8-678c1291d969"},"vehicle_type_id":"4","last_reported":1728216920,"current_range_meters":37600,"station_id":"ce4bhq92rcd13ifvqhjg","pricing_plan_id":"cebpf4jnsgd1na2vs0mg"},{"bike_id":"c8481d42-b309-4718-87c0-858429645102","system_id":"levelo_inurba_marseille","lat":43.28924,"lon":5.38396,"is_reserved":false,"is_disabled":false,"rental_uris":{"android":"levelo://app?vid=c8481d42-b309-4718-87c0-858429645102","ios":"levelo://app?vid=c8481d42-b309-4718-87c0-858429645102"},"vehicle_type_id":"4","last_reported":1728216920,"current_range_meters":38800,"station_id":"ce4bh612rcd13ifvqe6g","pricing_plan_id":"cebpf4jnsgd1na2vs0mg"},{"bike_id":"fbec104b-cb10-4ee6-8280-b085019e42b0","system_id":"levelo_inurba_marseille","lat":43.22929,"lon":5.35379,"is_reserved":false,"is_disabled":false,"rental_uris":{"android":"levelo://app?vid=fbec104b-cb10-4ee6-8280-b085019e42b0","ios":"levelo://app?vid=fbec104b-cb10-4ee6-8280-b085019e42b0"},"vehicle_type_id":"4","last_reported":1728216920,"current_range_meters":32400,"station_id":"cpo3532slgdg3j2ikp40","pricing_plan_id":"cebpf4jnsgd1na2vs0mg"},{"bike_id":"b67ca889-d6e3-4ce6-9934-391c45d1b7c9","system_id":"levelo_inurba_marseille","lat":43.29159,"lon":5.37143,"is_reserved":false,"is_disabled":false,"rental_uris":{"android":"levelo://app?vid=b67ca889-d6e3-4ce6-9934-391c45d1b7c9","ios":"levelo://app?vid=b67ca889-d6e3-4ce6-9934-391c45d1b7c9"},"vehicle_type_id":"4","last_reported":1728216920,"current_range_meters":38400,"station_id":"ce4bha92rcd13ifvqeh0","pricing_plan_id":"cebpf4jnsgd1na2vs0mg"},{"bike_id":"3b0ecdd2-778f-4574-9ccf-4b706a5b2360","system_id":"levelo_inurba_marseille","lat":43.2135,"lon":5.34936,"is_reserved":false,"is_disabled":false,"rental_uris":{"android":"levelo://app?vid=3b0ecdd2-778f-4574-9ccf-4b706a5b2360","ios":"levelo://app?vid=3b0ecdd2-778f-4574-9ccf-4b706a5b2360"},"vehicle_type_id":"4","last_reported":1728216920,"current_range_meters":19600,"station_id":"crv51consjfaj9uu89c0","pricing_plan_id":"cebpf4jnsgd1na2vs0mg"},{"bike_id":"31ba439b-34a0-44be-a242-d93bf815fce9","system_id":"levelo_inurba_marseille","lat":43.29305,"lon":5.37178,"is_reserved":false,"is_disabled":false,"rental_uris":{"android":"levelo://app?vid=31ba439b-34a0-44be-a242-d93bf815fce9","ios":"levelo://app?vid=31ba439b-34a0-44be-a242-d93bf815fce9"},"vehicle_type_id":"4","last_reported":1728216920,"current_range_meters":4000,"station_id":"ce4bgh92rcd13ifvqb40","pricing_plan_id":"cebpf4jnsgd1na2vs0mg"},{"bike_id":"bd59a28d-acbc-4802-9bb3-07fc65686316","system_id":"levelo_inurba_marseille","lat":43.32539,"lon":5.41447,"is_reserved":false,"is_disabled":false,"rental_uris":{"android":"levelo://app?vid=bd59a28d-acbc-4802-9bb3-07fc65686316","ios":"levelo://app?vid=bd59a28d-acbc-4802-9bb3-07fc65686316"},"vehicle_type_id":"4","last_reported":1728216920,"current_range_meters":37600,"station_id":"ce4bhq12rcd13ifvqhhg","pricing_plan_id":"cebpf4jnsgd1na2vs0mg"},{"bike_id":"76f03e47-59af-4fe9-99ec-4cca71d12187","system_id":"levelo_inurba_marseille","lat":43.31096,"lon":5.42426,"is_reserved":false,"is_disabled":false,"rental_uris":{"android":"levelo://app?vid=76f03e47-59af-4fe9-99ec-4cca71d12187","ios":"levelo://app?vid=76f03e47-59af-4fe9-99ec-4cca71d12187"},"vehicle_type_id":"4","last_reported":1728216920,"current_range_meters":38800,"station_id":"ce4bhp92rcd13ifvqhag","pricing_plan_id":"cebpf4jnsgd1na2vs0mg"},{"bike_id":"3f1f8c25-f149-489e-ac72-bde8aa759ecf","system_id":"levelo_inurba_marseille","lat":43.22926,"lon":5.35375,"is_reserved":false,"is_disabled":false,"rental_uris":{"android":"levelo://app?vid=3f1f8c25-f149-489e-ac72-bde8aa759ecf","ios":"levelo://app?vid=3f1f8c25-f149-489e-ac72-bde8aa759ecf"},"vehicle_type_id":"4","last_reported":1728216920,"current_range_meters":34800,"station_id":"cpo3532slgdg3j2ikp40","pricing_plan_id":"cebpf4jnsgd1na2vs0mg"},{"bike_id":"40c29c43-b43a-4451-bb3e-ee4cf987b082","system_id":"levelo_inurba_marseille","lat":43.27566,"lon":5.3842,"is_reserved":false,"is_disabled":false,"rental_uris":{"android":"levelo://app?vid=40c29c43-b43a-4451-bb3e-ee4cf987b082","ios":"levelo://app?vid=40c29c43-b43a-4451-bb3e-ee4cf987b082"},"vehicle_type_id":"4","last_reported":1728216920,"current_range_meters":36800,"station_id":"ce4bhh92rcd13ifvqfi0","pricing_plan_id":"cebpf4jnsgd1na2vs0mg"},{"bike_id":"f8f9dcfb-a979-49ca-9b42-004efa3431a5","system_id":"levelo_inurba_marseille","lat":43.27945,"lon":5.41043,"is_reserved":false,"is_disabled":false,"rental_uris":{"android":"levelo://app?vid=f8f9dcfb-a979-49ca-9b42-004efa3431a5","ios":"levelo://app?vid=f8f9dcfb-a979-49ca-9b42-004efa3431a5"},"vehicle_type_id":"4","last_reported":1728216920,"current_range_meters":3200,"station_id":"ce4bhnp2rcd13ifvqh0g","pricing_plan_id":"cebpf4jnsgd1na2vs0mg"},{"bike_id":"ec15d748-632c-4e0b-990d-5eb9faaa5231","system_id":"levelo_inurba_marseille","lat":43.28421,"lon":5.37503,"is_reserved":false,"is_disabled":false,"rental_uris":{"android":"levelo://app?vid=ec15d748-632c-4e0b-990d-5eb9faaa5231","ios":"levelo://app?vid=ec15d748-632c-4e0b-990d-5eb9faaa5231"},"vehicle_type_id":"4","last_reported":1728216920,"current_range_meters":24800,"station_id":"ce4bh412rcd13ifvqds0","pricing_plan_id":"cebpf4jnsgd1na2vs0mg"},