{"last_updated":1701983204,"ttl":30,"version":"2.2","data":{"bikes":[{"bike_id":"8d05bb1d-3043-4480-af3f-75c900a4aa7a","system_id":"levelo_inurba_marseille","lat":43.31486,"lon":5.37298,"is_reserved":false,"is_disabled":false,"rental_uris":{"android":"levelo://app?vid=8d05bb1d-3043-4480-af3f-75c900a4aa7a","ios":"levelo://app?vid=8d05bb1d-3043-4480-af3f-75c900a4aa7a"},"vehicle_type_id":"4","last_reported":1701983204,"current_range_meters":30800,"station_id":"ce4bgt12rcd13ifvqcd0","pricing_plan_id":"free"},{"bike_id":"dbcc21c7-62ef-4a0f-8fde-cf6af79c6918","system_id":"levelo_inurba_marseille","lat":43.309039,"lon":5.371797,"is_reserved":false,"is_disabled":false,"rental_uris":{"android":"levelo://app?vid=dbcc21c7-62ef-4a0f-8fde-cf6af79c6918","ios":"levelo://app?vid=dbcc21c7-62ef-4a0f-8fde-cf6af79c6918"},"vehicle_type_id":"4","last_reported":1701983204,"current_range_meters":11200,"station_id":"ce4bguh2rcd13ifvqckg","pricing_plan_id":"free"},{"bike_id":"20545407-aa8c-44e8-a325-06fd9267d855","system_id":"levelo_inurba_marseille","lat":43.305989,"lon":5.37225,"is_reserved":false,"is_disabled":false,"rental_uris":{"android":"levelo://app?vid=20545407-aa8c-44e8-a325-06fd9267d855","ios":"levelo://app?vid=20545407-aa8c-44e8-a325-06fd9267d855"},"vehicle_type_id":"4","last_reported":1701983204,"current_range_meters":22000,"station_id":"ce4bgqh2rcd13ifvqc4g","pricing_plan_id":"free"},{"bike_id":"d9efbf86-07c6-45e7-bfe2-7e9d299affde","system_id":"levelo_inurba_marseille","lat":43.307945,"lon":5.376487,"is_reserved":false,"is_disabled":false,"rental_uris":{"android":"levelo://app?vid=d9efbf86-07c6-45e7-bfe2-7e9d299affde","ios":"levelo://app?vid=d9efbf86-07c6-45e7-bfe2-7e9d299affde"},"vehicle_type_id":"4","last_reported":1701983204,"current_range_meters":4000,"station_id":"ce4bgv92rcd13ifvqcq0","pricing_plan_id":"free"},{"bike_id":"adf146c5-e4e1-4668-9a33-042940925130","system_id":"levelo_inurba_marseille","lat":43.31351,"lon":5.37909,"is_reserved":false,"is_disabled":false,"rental_uris":{"android":"levelo://app?vid=adf146c5-e4e1-4668-9a33-042940925130","ios":"levelo://app?vid=adf146c5-e4e1-4668-9a33-042940925130"},"vehicle_type_id":"4","last_reported":1701983204,"current_range_meters":1200,"station_id":"","pricing_plan_id":"free"},{"bike_id":"e88c74d0-ed17-4eb0-89d3-d28ca5a3a033","system_id":"levelo_inurba_marseille","lat":43.315295,"lon":5.380345,"is_reserved":false,"is_disabled":false,"rental_uris":{"android":"levelo://app?vid=e88c74d0-ed17-4eb0-89d3-d28ca5a3a033","ios":"levelo://app?vid=e88c74d0-ed17-4eb0-89d3-d28ca5a3a033"},"vehicle_type_id":"4","last_reported":1701983204,"current_range_meters":29200,"station_id":"ce4bhsp2rcd13ifvqi50","pricing_plan_id":"free"},{"bike_id":"1ea60f58-75f7-4484-b705-1156df4b02ad","system_id":"levelo_inurba_marseille","lat":43.302837,"lon":5.373373,"is_reserved":false,"is_disabled":false,"rental_uris":{"android":"levelo://app?vid=1ea60f58-75f7-4484-b705-1156df4b02ad","ios":"levelo://app?vid=1ea60f58-75f7-4484-b705-1156df4b02ad"},"vehicle_type_id":"4","last_reported":1701983204,"current_range_meters":4000,"station_id":"","pricing_plan_id":"free"},{"bike_id":"4a4dc389-a795-4a76-b6b3-3c7d00b57c94","system_id":"levelo_inurba_marseille","lat":43.324771,"lon":5.36557,"is_reserved":false,"is_disabled":false,"rental_uris":{"android":"levelo://app?vid=4a4dc389-a795-4a76-b6b3-3c7d00b57c94","ios":"levelo://app?vid=4a4dc389-a795-4a76-b6b3-3c7d00b57c94"},"vehicle_type_id":"4","last_reported":1701983204,"current_range_meters":6400,"station_id":"ce4bhs12rcd13ifvqhvg","pricing_plan_id":"free"},{"bike_id":"cb473838-747e-47ca-b07a-3dc20b15e156","system_id":"levelo_inurba_marseille","lat":43.319935,"lon":5.381699,"is_reserved":false,"is_disabled":false,"rental_uris":{"android":"levelo://app?vid=cb473838-747e-47ca-b07a-3dc20b15e156","ios":"levelo://app?vid=cb473838-747e-47ca-b07a-3dc20b15e156"},"vehicle_type_id":"4","last_reported":1701983204,"current_range_meters":24000,"station_id":"ce4bhr12rcd13ifvqhpg","pricing_plan_id":"free"},{"bike_id":"8e6bcc22-26a3-4f21-b99e-ec3014f3e345","system_id":"levelo_inurba_marseille","lat":43.31993,"lon":5.38149,"is_reserved":false,"is_disabled":false,"rental_uris":{"android":"levelo://app?vid=8e6bcc22-26a3-4f21-b99e-ec3014f3e345","ios":"levelo://app?vid=8e6bcc22-26a3-4f21-b99e-ec3014f3e345"},"vehicle_type_id":"4","last_reported":1701983204,"current_range_meters":16800,"station_id":"ce4bhr12rcd13ifvqhpg","pricing_plan_id":"free"},{"bike_id":"a88cf5d7-0e4d-4efb-83ba-895743ae7648","system_id":"levelo_inurba_marseille","lat":43.319935,"lon":5.381699,"is_reserved":false,"is_disabled":false,"rental_uris":{"android":"levelo://app?vid=a88cf5d7-0e4d-4efb-83ba-895743ae7648","ios":"levelo://app?vid=a88cf5d7-0e4d-4efb-83ba-895743ae7648"},"vehicle_type_id":"4","last_reported":1701983204,"current_range_meters":18400,"station_id":"ce4bhr12rcd13ifvqhpg","pricing_plan_id":"free"},{"bike_id":"9ee0ef7a-8d9c-4d78-8ae5-64e12b708d26","system_id":"levelo_inurba_marseille","lat":43.319997,"lon":5.381594,"is_reserved":false,"is_disabled":false,"rental_uris":{"android":"levelo://app?vid=9ee0ef7a-8d9c-4d78-8ae5-64e12b708d26","ios":"levelo://app?vid=9ee0ef7a-8d9c-4d78-8ae5-64e12b708d26"},"vehicle_type_id":"4","last_reported":1701983204,"current_range_meters":0,"station_id":"ce4bhr12rcd13ifvqhpg","pricing_plan_id":"free"},{"bike_id":"a49b99ee-38eb-49b5-978d-00cf198fff08","system_id":"levelo_inurba_marseille","lat":43.299651,"lon":5.366312,"is_reserved":false,"is_disabled":false,"rental_uris":{"android":"levelo://app?vid=a49b99ee-38eb-49b5-978d-00cf198fff08","ios":"levelo://app?vid=a49b99ee-38eb-49b5-978d-00cf198fff08"},"vehicle_type_id":"4","last_reported":1701983204,"current_range_meters":22400,"station_id":"","pricing_plan_id":"free"},{"bike_id":"0d54d094-e0f1-40b0-976d-4597098b5ddc","system_id":"levelo_inurba_marseille","lat":43.322872,"lon":5.382756,"is_reserved":false,"is_disabled":false,"rental_uris":{"android":"levelo://app?vid=0d54d094-e0f1-40b0-976d-4597098b5ddc","ios":"levelo://app?vid=0d54d094-e0f1-40b0-976d-4597098b5ddc"},"vehicle_type_id":"4","last_reported":1701983204,"current_range_meters":13600,"station_id":"ce4bhr12rcd13ifvqhqg","pricing_plan_id":"free"},{"bike_id":"3dcd4a73-468d-493a-bf11-93ceddd109f8","system_id":"levelo_inurba_marseille","lat":43.322872,"lon":5.382756,"is_reserved":false,"is_disabled":false,"rental_uris":{"android":"levelo://app?vid=3dcd4a73-468d-493a-bf11-93ceddd109f8","ios":"levelo://app?vid=3dcd4a73-468d-493a-bf11-93ceddd109f8"},"vehicle_type_id":"4","last_reported":1701983204,"current_range_meters":27200,"station_id":"ce4bhr12rcd13ifvqhqg","pricing_plan_id":"free"},{"bike_id":"f2b1b64d-1678-405f-959a-a0ba4ccba908","system_id":"levelo_inurba_marseille","lat":43.297163,"lon":5.365866,"is_reserved":false,"is_disabled":false,"rental_uris":{"android":"levelo://app?vid=f2b1b64d-1678-405f-959a-a0ba4ccba908","ios":"levelo://app?vid=f2b1b64d-1678-405f-959a-a0ba4ccba908"},"vehicle_type_id":"4","last_reported":1701983204,"current_range_meters":19200,"station_id":"ce4bgn12rcd13ifvqbt0","pricing_plan_id":"free"},{"bike_id":"ec84e0be-1806-4899-bdc9-405272959775","system_id":"levelo_inurba_marseille","lat":43.297163,"lon":5.365866,"is_reserved":false,"is_disabled":false,"rental_uris":{"android":"levelo://app?vid=ec84e0be-1806-4899-bdc9-405272959775","ios":"levelo://app?vid=ec84e0be-1806-4899-bdc9-405272959775"},"vehicle_type_id":"4","last_reported":1701983204,"current_range_meters":29600,"station_id":"ce4bgn12rcd13ifvqbt0","pricing_plan_id":"free"},{"bike_id":"8c3c9bb7-76a5-4a08-a542-4131dda4eb17","system_id":"levelo_inurba_marseille","lat":43.296129,"lon":5.370777,"is_reserved":false,"is_disabled":false,"rental_uris":{"android":"levelo://app?vid=8c3c9bb7-76a5-4a08-a542-4131dda4eb17","ios":"levelo://app?vid=8c3c9bb7-76a5-4a08-a542-4131dda4eb17"},"vehicle_type_id":"4","last_reported":1701983204,"current_range_meters":15600,"station_id":"ce4bgnh2rcd13ifvqc0g","pricing_plan_id":"free"},{"bike_id":"92dc65d6-6823-4de3-93d4-056f738f090c","system_id":"levelo_inurba_marseille","lat":43.316538,"lon":5.38954,"is_reserved":false,"is_disabled":false,"rental_uris":{"android":"levelo://app?vid=92dc65d6-6823-4de3-93d4-056f738f090c","ios":"levelo://app?vid=92dc65d6-6823-4de3-93d4-056f738f090c"},"vehicle_type_id":"4","last_reported":1701983204,"current_range_meters":4400,"station_id":"","pricing_plan_id":"free"},{"bike_id":"fad7b89e-0bd4-4932-a4a7-7a8aee80361f","system_id":"levelo_inurba_marseille","lat":43.32866,"lon":5.37494,"is_reserved":false,"is_disabled":false,"rental_uris":{"android":"levelo://app?vid=fad7b89e-0bd4-4932-a4a7-7a8aee80361f","ios":"levelo://app?vid=fad7b89e-0bd4-4932-a4a7-7a8aee80361f"},"vehicle_type_id":"4","last_reported":1701983204,"current_range_meters":24400,"station_id":"","pricing_plan_id":"free"},{"bike_id":"ef08f774-2713-46c7-ac61-11066468225e","system_id":"levelo_inurba_marseille","lat":43.295743,"lon":5.367963,"is_reserved":false,"is_disabled":false,"rental_uris":{"android":"levelo://app?vid=ef08f774-2713-46c7-ac61-11066468225e","ios":"levelo://app?vid=ef08f774-2713-46c7-ac61-11066468225e"},"vehicle_type_id":"4","last_reported":1701983204,"current_range_meters":25200,"station_id":"ce4bgph2rcd13ifvqc2g","pricing_plan_id":"free"},{"bike_id":"3b7ae579-9a62-4391-a4bb-a12e03705875","system_id":"levelo_inurba_marseille","lat":43.32875,"lon":5.37498,"is_reserved":false,"is_disabled":false,"rental_uris":{"android":"levelo://app?vid=3b7ae579-9a62-4391-a4bb-a12e03705875","ios":"levelo://app?vid=3b7ae579-9a62-4391-a4bb-a12e03705875"},"vehicle_type_id":"4","last_reported":1701983204,"current_range_meters":26400,"station_id":"","pricing_plan_id":"free"},{"bike_id":"3723ca47-9dc6-4289-8f52-a49a13bb69b8","system_id":"levelo_inurba_marseille","lat":43.317557,"lon":5.390173,"is_reserved":false,"is_disabled":false,"rental_uris":{"android":"levelo://app?vid=3723ca47-9dc6-4289-8f52-a49a13bb69b8","ios":"levelo://app?vid=3723ca47-9dc6-4289-8f52-a49a13bb69b8"},"vehicle_type_id":"4","last_reported":1701983204,"current_range_meters":23200,"station_id":"ce4bhqp2rcd13ifvqhng","pricing_plan_id":"free"},{"bike_id":"c2c8c0f1-5daa-4aca-b613-7a7409d0d750","system_id":"levelo_inurba_marseille","lat":43.304278,"lon":5.388868,"is_reserved":false,"is_disabled":false,"rental_uris":{"android":"levelo://app?vid=c2c8c0f1-5daa-4aca-b613-7a7409d0d750","ios":"levelo://app?vid=c2c8c0f1-5daa-4aca-b613-7a7409d0d750"},"vehicle_type_id":"4","last_reported":1701983204,"current_range_meters":26000,"station_id":"ce4bgk12rcd13ifvqbi0","pricing_plan_id":"free"},{"bike_id":"849e1139-896d-434f-bec6-b40658df4fe7","system_id":"levelo_inurba_marseille","lat":43.30442,"lon":5.38897,"is_reserved":false,"is_disabled":false,"rental_uris":{"android":"levelo://app?vid=849e1139-896d-434f-bec6-b40658df4fe7","ios":"levelo://app?vid=849e1139-896d-434f-bec6-b40658df4fe7"},"vehicle_type_id":"4","last_reported":1701983204,"current_range_meters":13600,"station_id":"ce4bgk12rcd13ifvqbi0","pricing_plan_id":"free"},{"bike_id":"0d492c0d-409a-4a13-94d6-12e0bfcdba7a","system_id":"levelo_inurba_marseille","lat":43.295748,"lon":5.37522,"is_reserved":false,"is_disabled":false,"rental_uris":{"android":"levelo://app?vid=0d492c0d-409a-4a13-94d6-12e0bfcdba7a","ios":"levelo://app?vid=0d492c0d-409a-4a13-94d6-12e0bfcdba7a"},"vehicle_type_id":"4","last_reported":1701983204,"current_range_meters":4400,"station_id":"ce4bgh92rcd13ifvqb50","pricing_plan_id":"free"},{"bike_id":"479c85dd-ba3f-4a12-8ddd-073c2bfaf8aa","system_id":"levelo_inurba_marseille","lat":43.29608,"lon":5.37709,"is_reserved":false,"is_disabled":false,"rental_uris":{"android":"levelo://app?vid=479c85dd-ba3f-4a12-8ddd-073c2bfaf8aa","ios":"levelo://app?vid=479c85dd-ba3f-4a12-8ddd-073c2bfaf8aa"},"vehicle_type_id":"4","last_reported":1701983204,"current_range_meters":0,"station_id":"ce4bgi92rcd13ifvqb90","pricing_plan_id":"free"},{"bike_id":"a1146276-33b3-469b-ad9a-5ac347dde538","system_id":"levelo_inurba_marseille","lat":43.29525,"lon":5.37503,"is_reserved":false,"is_disabled":false,"rental_uris":{"android":"levelo://app?vid=a1146276-33b3-469b-ad9a-5ac347dde538","ios":"levelo://app?vid=a1146276-33b3-469b-ad9a-5ac347dde538"},"vehicle_type_id":"4","last_reported":1701983204,"current_range_meters":0,"station_id":"ce4bgkp2rcd13ifvqbmg","pricing_plan_id":"free"},{"bike_id":"b8c88944-6fef-48f6-b70f-fad422e100d9","system_id":"levelo_inurba_marseille","lat":43.32367,"lon":5.388836,"is_reserved":false,"is_disabled":false,"rental_uris":{"android":"levelo://app?vid=b8c88944-6fef-48f6-b70f-fad422e100d9","ios":"levelo://app?vid=b8c88944-6fef-48f6-b70f-fad422e100d9"},"vehicle_type_id":"4","last_reported":1701983204,"current_range_meters":10400,"station_id":"ce4bhqp2rcd13ifvqhog","pricing_plan_id":"free"},{"bike_id":"7579423d-f3b8-4e7f-be59-2ba9da91b549","system_id":"levelo_inurba_marseille","lat":43.31422,"lon":5.39389,"is_reserved":false,"is_disabled":false,"rental_uris":{"android":"levelo://app?vid=7579423d-f3b8-4e7f-be59-2ba9da91b549","ios":"levelo://app?vid=7579423d-f3b8-4e7f-be59-2ba9da91b549"},"vehicle_type_id":"4","last_reported":1701983204,"current_range_meters":7600,"station_id":"","pricing_plan_id":"free"},{"bike_id":"d5a46961-03c5-4d78-a1ab-7b8e85ca0c41","system_id":"levelo_inurba_marseille","lat":43.305994,"lon":5.393687,"is_reserved":false,"is_disabled":false,"rental_uris":{"android":"levelo://app?vid=d5a46961-03c5-4d78-a1ab-7b8e85ca0c41","ios":"levelo://app?vid=d5a46961-03c5-4d78-a1ab-7b8e85ca0c41"},"vehicle_type_id":"4","last_reported":1701983204,"current_range_meters":0,"station_id":"ce4bh0p2rcd13ifvqd80","pricing_plan_id":"free"},{"bike_id":"fb64333e-b4d5-4f0f-833d-1f3347dcd6cd","system_id":"levelo_inurba_marseille","lat":43.292663,"lon":5.376389,"is_reserved":false,"is_disabled":false,"rental_uris":{"android":"levelo://app?vid=fb64333e-b4d5-4f0f-833d-1f3347dcd6cd","ios":"levelo://app?vid=fb64333e-b4d5-4f0f-833d-1f3347dcd6cd"},"vehicle_type_id":"4","last_reported":1701983204,"current_range_meters":23600,"station_id":"ce4bgi12rcd13ifvqb80","pricing_plan_id":"free"},{"bike_id":"402666bd-ab7f-44c3-a6a5-bd73fc74f492","system_id":"levelo_inurba_marseille","lat":43.31325,"lon":5.39691,"is_reserved":false,"is_disabled":false,"rental_uris":{"android":"levelo://app?vid=402666bd-ab7f-44c3-a6a5-bd73fc74f492","ios":"levelo://app?vid=402666bd-ab7f-44c3-a6a5-bd73fc74f492"},"vehicle_type_id":"4","last_reported":1701983204,"current_range_meters":0,"station_id":"ce4bgvp2rcd13ifvqcu0","pricing_plan_id":"free"},{"bike_id":"3814f3b5-cafa-4033-bb67-ed20152de6b0","system_id":"levelo_inurba_marseille","lat":43.31325,"lon":5.39692,"is_reserved":false,"is_disabled":false,"rental_uris":{"android":"levelo://app?vid=3814f3b5-cafa-4033-bb67-ed20152de6b0","ios":"levelo://app?vid=3814f3b5-cafa-4033-bb67-ed20152de6b0"},"vehicle_type_id":"4","last_reported":1701983204,"current_range_meters":800,"station_id":"ce4bgvp2rcd13ifvqcu0","pricing_plan_id":"free"},{"bike_id":"5cc46180-f859-423b-b402-0af92ab53d05","system_id":"levelo_inurba_marseille","lat":43.31326,"lon":5.39692,"is_reserved":false,"is_disabled":false,"rental_uris":{"android":"levelo://app?vid=5cc46180-f859-423b-b402-0af92ab53d05","ios":"levelo://app?vid=5cc46180-f859-423b-b402-0af92ab53d05"},"vehicle_type_id":"4","last_reported":1701983204,"current_range_meters":0,"station_id":"ce4bgvp2rcd13ifvqcu0","pricing_plan_id":"free"},{"bike_id":"0a1b2e1a-9cd6-4dcc-b382-0a3a8cf735d0","system_id":"levelo_inurba_marseille","lat":43.309038,"lon":5.396546,"is_reserved":false,"is_disabled":false,"rental_uris":{"android":"levelo://app?vid=0a1b2e1a-9cd6-4dcc-b382-0a3a8cf735d0","ios":"levelo://app?vid=0a1b2e1a-9cd6-4dcc-b382-0a3a8cf735d0"},"vehicle_type_id":"4","last_reported":1701983204,"current_range_meters":0,"station_id":"ce4bh012rcd13ifvqcv0","pricing_plan_id":"free"},{"bike_id":"de3e2d43-784d-444f-aa94-1d3cddf4a8af","system_id":"levelo_inurba_marseille","lat":43.29529,"lon":5.385581,"is_reserved":false,"is_disabled":false,"rental_uris":{"android":"levelo://app?vid=de3e2d43-784d-444f-aa94-1d3cddf4a8af","ios":"levelo://app?vid=de3e2d43-784d-444f-aa94-1d3cddf4a8af"},"vehicle_type_id":"4","last_reported":1701983204,"current_range_meters":27200,"station_id":"ce4bgih2rcd13ifvqba0","pricing_plan_id":"free"},{"bike_id":"b3412777-7088-4d0a-87b2-d83a274275be","system_id":"levelo_inurba_marseille","lat":43.290624,"lon":5.359245,"is_reserved":false,"is_disabled":false,"rental_uris":{"android":"levelo://app?vid=b3412777-7088-4d0a-87b2-d83a274275be","ios":"levelo://app?vid=b3412777-7088-4d0a-87b2-d83a274275be"},"vehicle_type_id":"4","last_reported":1701983204,"current_range_meters":15200,"station_id":"ce4bha92rcd13ifvqeg0","pricing_plan_id":"free"},{"bike_id":"efcdd872-e6df-47bc-a6b5-e994e2d7761e","system_id":"levelo_inurba_marseille","lat":43.294153,"lon":5.386305,"is_reserved":false,"is_disabled":false,"rental_uris":{"android":"levelo://app?vid=efcdd872-e6df-47bc-a6b5-e994e2d7761e","ios":"levelo://app?vid=efcdd872-e6df-47bc-a6b5-e994e2d7761e"},"vehicle_type_id":"4","last_reported":1701983204,"current_range_meters":4400,"station_id":"ce4bh2h2rcd13ifvqdh0","pricing_plan_id":"free"},{"bike_id":"35167050-f909-4250-a110-df5bedfb0a40","system_id":"levelo_inurba_marseille","lat":43.29425,"lon":5.38646,"is_reserved":false,"is_disabled":false,"rental_uris":{"android":"levelo://app?vid=35167050-f909-4250-a110-df5bedfb0a40","ios":"levelo://app?vid=35167050-f909-4250-a110-df5bedfb0a40"},"vehicle_type_id":"4","last_reported":1701983204,"current_range_meters":4400,"station_id":"","pricing_plan_id":"free"},{"bike_id":"b334fef1-07e0-47ca-8511-7b5b6bb2ccfb","system_id":"levelo_inurba_marseille","lat":43.294162,"lon":5.386292,"is_reserved":false,"is_disabled":false,"rental_uris":{"android":"levelo://app?vid=b334fef1-07e0-47ca-8511-7b5b6bb2ccfb","ios":"levelo://app?vid=b334fef1-07e0-47ca-8511-7b5b6bb2ccfb"},"vehicle_type_id":"4","last_reported":1701983204,"current_range_meters":11600,"station_id":"ce4bh2h2rcd13ifvqdh0","pricing_plan_id":"free"},{"bike_id":"6b143fd5-fd51-43e4-b147-b19a835874c2","system_id":"levelo_inurba_marseille","lat":43.28946,"lon":5.36404,"is_reserved":false,"is_disabled":false,"rental_uris":{"android":"levelo://app?vid=6b143fd5-fd51-43e4-b147-b19a835874c2","ios":"levelo://app?vid=6b143fd5-fd51-43e4-b147-b19a835874c2"},"vehicle_type_id":"4","last_reported":1701983204,"current_range_meters":5600,"station_id":"ce4bhc92rcd13ifvqetg","pricing_plan_id":"free"},{"bike_id":"8a94f3ac-0283-4846-800c-bb7f861b668e","system_id":"levelo_inurba_marseille","lat":43.290161,"lon":5.375651,"is_reserved":false,"is_disabled":false,"rental_uris":{"android":"levelo://app?vid=8a94f3ac-0283-4846-800c-bb7f861b668e","ios":"levelo://app?vid=8a94f3ac-0283-4846-800c-bb7f861b668e"},"vehicle_type_id":"4","last_reported":1701983204,"current_range_meters":20000,"station_id":"","pricing_plan_id":"free"},{"bike_id":"a02a1b20-1fb1-4951-988a-77389649024d","system_id":"levelo_inurba_marseille","lat":43.289259,"lon":5.366364,"is_reserved":false,"is_disabled":false,"rental_uris":{"android":"levelo://app?vid=a02a1b20-1fb1-4951-988a-77389649024d","ios":"levelo://app?vid=a02a1b20-1fb1-4951-988a-77389649024d"},"vehicle_type_id":"4","last_reported":1701983204,"current_range_meters":18400,"station_id":"","pricing_plan_id":"free"},{"bike_id":"6eac4274-6113-45a4-a95a-4cfcba48f6ca","system_id":"levelo_inurba_marseille","lat":43.290104,"lon":5.356111,"is_reserved":false,"is_disabled":false,"rental_uris":{"android":"levelo://app?vid=6eac4274-6113-45a4-a95a-4cfcba48f6ca","ios":"levelo://app?vid=6eac4274-6113-45a4-a95a-4cfcba48f6ca"},"vehicle_type_id":"4","last_reported":1701983204,"current_range_meters":10000,"station_id":"ce4bhb92rcd13ifvqen0","pricing_plan_id":"free"},{"bike_id":"c767dbb8-0cc4-48eb-9536-591f0490ccb0","system_id":"levelo_inurba_marseille","lat":43.290995,"lon":5.381361,"is_reserved":false,"is_disabled":false,"rental_uris":{"android":"levelo://app?vid=c767dbb8-0cc4-48eb-9536-591f0490ccb0","ios":"levelo://app?vid=c767dbb8-0cc4-48eb-9536-591f0490ccb0"},"vehicle_type_id":"4","last_reported":1701983204,"current_range_meters":0,"station_id":"ce4bh512rcd13ifvqe2g","pricing_plan_id":"free"},{"bike_id":"f1ef2111-cf87-4746-8c15-344b42d15562","system_id":"levelo_inurba_marseille","lat":43.290995,"lon":5.381361,"is_reserved":false,"is_disabled":false,"rental_uris":{"android":"levelo://app?vid=f1ef2111-cf87-4746-8c15-344b42d15562","ios":"levelo://app?vid=f1ef2111-cf87-4746-8c15-344b42d15562"},"vehicle_type_id":"4","last_reported":1701983204,"current_range_meters":28800,"station_id":"ce4bh512rcd13ifvqe2g","pricing_plan_id":"free"},{"bike_id":"b010b08e-4fbe-4425-b9fe-59a935d05464","system_id":"levelo_inurba_marseille","lat":43.295169,"lon":5.390426,"is_reserved":false,"is_disabled":false,"rental_uris":{"android":"levelo://app?vid=b010b08e-4fbe-4425-b9fe-59a935d05464","ios":"levelo://app?vid=b010b08e-4fbe-4425-b9fe-59a935d05464"},"vehicle_type_id":"4","last_reported":1701983204,"current_range_meters":7600,"station_id":"ce4bh3p2rcd13ifvqdp0","pricing_plan_id":"free"},{"bike_id":"9d3685d0-09f6-4fca-a41c-dcb9fd66f1e5","system_id":"levelo_inurba_marseille","lat":43.297815,"lon":5.393548,"is_reserved":false,"is_disabled":false,"rental_uris":{"android":"levelo://app?vid=9d3685d0-09f6-4fca-a41c-dcb9fd66f1e5","ios":"levelo://app?vid=9d3685d0-09f6-4fca-a41c-dcb9fd66f1e5"},"vehicle_type_id":"4","last_reported":1701983204,"current_range_meters":28400,"station_id":"chh1huq6cuj3fo74tm60","pricing_plan_id":"free"},{"bike_id":"108696cb-6bfa-4400-aa7a-ab44a5402b00","system_id":"levelo_inurba_marseille","lat":43.288558,"lon":5.358635,"is_reserved":false,"is_disabled":false,"rental_uris":{"android":"levelo://app?vid=108696cb-6bfa-4400-aa7a-ab44a5402b00","ios":"levelo://app?vid=108696cb-6bfa-4400-aa7a-ab44a5402b00"},"vehicle_type_id":"4","last_reported":1701983204,"current_range_meters":26800,"station_id":"","pricing_plan_id":"free"},{"bike_id":"bb650316-3ae9-4184-9961-b66a4b4f2fcd","system_id":"levelo_inurba_marseille","lat":43.28855,"lon":5.35859,"is_reserved":false,"is_disabled":false,"rental_uris":{"android":"levelo://app?vid=bb650316-3ae9-4184-9961-b66a4b4f2fcd","ios":"levelo://app?vid=bb650316-3ae9-4184-9961-b66a4b4f2fcd"},"vehicle_type_id":"4","last_reported":1701983204,"current_range_meters":13600,"station_id":"ce4bhb12rcd13ifvqem0","pricing_plan_id":"free"},{"bike_id":"86b6964b-59fb-4f13-9e99-89a4d63f2be7","system_id":"levelo_inurba_marseille","lat":43.30939,"lon":5.4014,"is_reserved":false,"is_disabled":false,"rental_uris":{"android":"levelo://app?vid=86b6964b-59fb-4f13-9e99-89a4d63f2be7","ios":"levelo://app?vid=86b6964b-59fb-4f13-9e99-89a4d63f2be7"},"vehicle_type_id":"4","last_reported":1701983204,"current_range_meters":12800,"station_id":"ce4bgvp2rcd13ifvqct0","pricing_plan_id":"free"},{"bike_id":"e8121d1f-857f-4603-a261-62591bb78003","system_id":"levelo_inurba_marseille","lat":43.312609,"lon":5.401662,"is_reserved":false,"is_disabled":false,"rental_uris":{"android":"levelo://app?vid=e8121d1f-857f-4603-a261-62591bb78003","ios":"levelo://app?vid=e8121d1f-857f-4603-a261-62591bb78003"},"vehicle_type_id":"4","last_reported":1701983204,"current_range_meters":0,"station_id":"ce4bh092rcd13ifvqd30","pricing_plan_id":"free"},{"bike_id":"9a1a691a-9a4a-4bf8-aab6-66be41700f3b","system_id":"levelo_inurba_marseille","lat":43.30642,"lon":5.401031,"is_reserved":false,"is_disabled":false,"rental_uris":{"android":"levelo://app?vid=9a1a691a-9a4a-4bf8-aab6-66be41700f3b","ios":"levelo://app?vid=9a1a691a-9a4a-4bf8-aab6-66be41700f3b"},"vehicle_type_id":"4","last_reported":1701983204,"current_range_meters":4000,"station_id":"ce4bh112rcd13ifvqda0","pricing_plan_id":"free"},{"bike_id":"0ff15d59-b3c8-4258-bf39-724ef857e648","system_id":"levelo_inurba_marseille","lat":43.301117,"lon":5.398795,"is_reserved":false,"is_disabled":false,"rental_uris":{"android":"levelo://app?vid=0ff15d59-b3c8-4258-bf39-724ef857e648","ios":"levelo://app?vid=0ff15d59-b3c8-4258-bf39-724ef857e648"},"vehicle_type_id":"4","last_reported":1701983204,"current_range_meters":14800,"station_id":"ce4bh0h2rcd13ifvqd40","pricing_plan_id":"free"},{"bike_id":"41b37be4-557a-46fc-b825-91f9e7e482f1","system_id":"levelo_inurba_marseille","lat":43.2873,"lon":5.36084,"is_reserved":false,"is_disabled":false,"rental_uris":{"android":"levelo://app?vid=41b37be4-557a-46fc-b825-91f9e7e482f1","ios":"levelo://app?vid=41b37be4-557a-46fc-b825-91f9e7e482f1"},"vehicle_type_id":"4","last_reported":1701983204,"current_range_meters":24400,"station_id":"cki0cbj6b192h4jlfktg","pricing_plan_id":"free"},{"bike_id":"85056595-08c7-445b-a929-b8e36b2c1e7c","system_id":"levelo_inurba_marseille","lat":43.287263,"lon":5.360913,"is_reserved":false,"is_disabled":false,"rental_uris":{"android":"levelo://app?vid=85056595-08c7-445b-a929-b8e36b2c1e7c","ios":"levelo://app?vid=85056595-08c7-445b-a929-b8e36b2c1e7c"},"vehicle_type_id":"4","last_reported":1701983204,"current_range_meters":7200,"station_id":"cki0cbj6b192h4jlfktg","pricing_plan_id":"free"},{"bike_id":"f0dd8e31-f08e-444c-8bda-236440bfc1d2","system_id":"levelo_inurba_marseille","lat":43.28727,"lon":5.36078,"is_reserved":false,"is_disabled":false,"rental_uris":{"android":"levelo://app?vid=f0dd8e31-f08e-444c-8bda-236440bfc1d2","ios":"levelo://app?vid=f0dd8e31-f08e-444c-8bda-236440bfc1d2"},"vehicle_type_id":"4","last_reported":1701983204,"current_range_meters":24800,"station_id":"cki0cbj6b192h4jlfktg","pricing_plan_id":"free"},{"bike_id":"fc95b9e8-4706-4d61-9b73-00ee748d1ccc","system_id":"levelo_inurba_marseille","lat":43.28722,"lon":5.36088,"is_reserved":false,"is_disabled":false,"rental_uris":{"android":"levelo://app?vid=fc95b9e8-4706-4d61-9b73-00ee748d1ccc","ios":"levelo://app?vid=fc95b9e8-4706-4d61-9b73-00ee748d1ccc"},"vehicle_type_id":"4","last_reported":1701983204,"current_range_meters":3600,"station_id":"cki0cbj6b192h4jlfktg","pricing_plan_id":"free"},{"bike_id":"56524467-a56d-4bf4-95f8-a5f349958949","system_id":"levelo_inurba_marseille","lat":43.298681,"lon":5.397225,"is_reserved":false,"is_disabled":false,"rental_uris":{"android":"levelo://app?vid=56524467-a56d-4bf4-95f8-a5f349958949","ios":"levelo://app?vid=56524467-a56d-4bf4-95f8-a5f349958949"},"vehicle_type_id":"4","last_reported":1701983204,"current_range_meters":24000,"station_id":"ce4bh0h2rcd13ifvqd50","pricing_plan_id":"free"},{"bike_id":"8c3b6769-7b96-49d9-bf01-dd39198c1403","system_id":"levelo_inurba_marseille","lat":43.286961,"lon":5.373785,"is_reserved":false,"is_disabled":false,"rental_uris":{"android":"levelo://app?vid=8c3b6769-7b96-49d9-bf01-dd39198c1403","ios":"levelo://app?vid=8c3b6769-7b96-49d9-bf01-dd39198c1403"},"vehicle_type_id":"4","last_reported":1701983204,"current_range_meters":10800,"station_id":"ce4bh3p2rcd13ifvqdq0","pricing_plan_id":"free"},{"bike_id":"85e5b878-8c12-4f29-bbba-38dfe37ffebc","system_id":"levelo_inurba_marseille","lat":43.295196,"lon":5.39397,"is_reserved":false,"is_disabled":false,"rental_uris":{"android":"levelo://app?vid=85e5b878-8c12-4f29-bbba-38dfe37ffebc","ios":"levelo://app?vid=85e5b878-8c12-4f29-bbba-38dfe37ffebc"},"vehicle_type_id":"4","last_reported":1701983204,"current_range_meters":20800,"station_id":"ce4bh292rcd13ifvqdf0","pricing_plan_id":"free"},{"bike_id":"20d795cb-381e-4447-aed7-6bc8d18ac8e7","system_id":"levelo_inurba_marseille","lat":43.29034,"lon":5.38651,"is_reserved":false,"is_disabled":false,"rental_uris":{"android":"levelo://app?vid=20d795cb-381e-4447-aed7-6bc8d18ac8e7","ios":"levelo://app?vid=20d795cb-381e-4447-aed7-6bc8d18ac8e7"},"vehicle_type_id":"4","last_reported":1701983204,"current_range_meters":6000,"station_id":"ce4bh4p2rcd13ifvqe0g","pricing_plan_id":"free"},{"bike_id":"8ef507fb-0772-4c74-bbb6-ed94e211cbeb","system_id":"levelo_inurba_marseille","lat":43.290345,"lon":5.38646,"is_reserved":false,"is_disabled":false,"rental_uris":{"android":"levelo://app?vid=8ef507fb-0772-4c74-bbb6-ed94e211cbeb","ios":"levelo://app?vid=8ef507fb-0772-4c74-bbb6-ed94e211cbeb"},"vehicle_type_id":"4","last_reported":1701983204,"current_range_meters":25600,"station_id":"ce4bh4p2rcd13ifvqe0g","pricing_plan_id":"free"},{"bike_id":"7aecb6a5-18fb-4540-b2e6-702acd8a8566","system_id":"levelo_inurba_marseille","lat":43.290345,"lon":5.38646,"is_reserved":false,"is_disabled":false,"rental_uris":{"android":"levelo://app?vid=7aecb6a5-18fb-4540-b2e6-702acd8a8566","ios":"levelo://app?vid=7aecb6a5-18fb-4540-b2e6-702acd8a8566"},"vehicle_type_id":"4","last_reported":1701983204,"current_range_meters":6000,"station_id":"ce4bh4p2rcd13ifvqe0g","pricing_plan_id":"free"},{"bike_id":"9771dfd8-017b-477e-9f38-39c8dec9c905","system_id":"levelo_inurba_marseille","lat":43.286039,"lon":5.370679,"is_reserved":false,"is_disabled":false,"rental_uris":{"android":"levelo://app?vid=9771dfd8-017b-477e-9f38-39c8dec9c905","ios":"levelo://app?vid=9771dfd8-017b-477e-9f38-39c8dec9c905"},"vehicle_type_id":"4","last_reported":1701983204,"current_range_meters":31200,"station_id":"ce4bht12rcd13ifvqi60","pricing_plan_id":"free"},{"bike_id":"3101d5b5-4c59-4f15-bff5-46b90cc04f4c","system_id":"levelo_inurba_marseille","lat":43.287185,"lon":5.379373,"is_reserved":false,"is_disabled":false,"rental_uris":{"android":"levelo://app?vid=3101d5b5-4c59-4f15-bff5-46b90cc04f4c","ios":"levelo://app?vid=3101d5b5-4c59-4f15-bff5-46b90cc04f4c"},"vehicle_type_id":"4","last_reported":1701983204,"current_range_meters":5200,"station_id":"ce4bh9p2rcd13ifvqec0","pricing_plan_id":"free"},{"bike_id":"b9368d4f-73ed-4565-b2ae-63aeb9262fc6","system_id":"levelo_inurba_marseille","lat":43.31696,"lon":5.4047,"is_reserved":false,"is_disabled":false,"rental_uris":{"android":"levelo://app?vid=b9368d4f-73ed-4565-b2ae-63aeb9262fc6","ios":"levelo://app?vid=b9368d4f-73ed-4565-b2ae-63aeb9262fc6"},"vehicle_type_id":"4","last_reported":1701983204,"current_range_meters":18800,"station_id":"","pricing_plan_id":"free"},{"bike_id":"e1381426-8458-4c46-98bb-f6547eef6199","system_id":"levelo_inurba_marseille","lat":43.291994,"lon":5.392907,"is_reserved":false,"is_disabled":false,"rental_uris":{"android":"levelo://app?vid=e1381426-8458-4c46-98bb-f6547eef6199","ios":"levelo://app?vid=e1381426-8458-4c46-98bb-f6547eef6199"},"vehicle_type_id":"4","last_reported":1701983204,"current_range_meters":1600,"station_id":"ce4bh192rcd13ifvqdd0","pricing_plan_id":"free"},{"bike_id":"4ca866a1-d1ca-44db-a9bb-c376351c9cd4","system_id":"levelo_inurba_marseille","lat":43.284538,"lon":5.358657,"is_reserved":false,"is_disabled":false,"rental_uris":{"android":"levelo://app?vid=4ca866a1-d1ca-44db-a9bb-c376351c9cd4","ios":"levelo://app?vid=4ca866a1-d1ca-44db-a9bb-c376351c9cd4"},"vehicle_type_id":"4","last_reported":1701983204,"current_range_meters":4000,"station_id":"ce4bhah2rcd13ifvqei0","pricing_plan_id":"free"},{"bike_id":"2b715313-a8a9-4433-9018-d854945294a0","system_id":"levelo_inurba_marseille","lat":43.284538,"lon":5.358657,"is_reserved":false,"is_disabled":false,"rental_uris":{"android":"levelo://app?vid=2b715313-a8a9-4433-9018-d854945294a0","ios":"levelo://app?vid=2b715313-a8a9-4433-9018-d854945294a0"},"vehicle_type_id":"4","last_reported":1701983204,"current_range_meters":13200,"station_id":"ce4bhah2rcd13ifvqei0","pricing_plan_id":"free"},{"bike_id":"fb8129b0-fe0a-4869-8c36-05e027179d11","system_id":"levelo_inurba_marseille","lat":43.284534,"lon":5.358662,"is_reserved":false,"is_disabled":false,"rental_uris":{"android":"levelo://app?vid=fb8129b0-fe0a-4869-8c36-05e027179d11","ios":"levelo://app?vid=fb8129b0-fe0a-4869-8c36-05e027179d11"},"vehicle_type_id":"4","last_reported":1701983204,"current_range_meters":21600,"station_id":"ce4bhah2rcd13ifvqei0","pricing_plan_id":"free"},{"bike_id":"2c5eaa12-d0c2-4e43-ba74-245c5a52e78e","system_id":"levelo_inurba_marseille","lat":43.294314,"lon":5.397498,"is_reserved":false,"is_disabled":false,"rental_uris":{"android":"levelo://app?vid=2c5eaa12-d0c2-4e43-ba74-245c5a52e78e","ios":"levelo://app?vid=2c5eaa12-d0c2-4e43-ba74-245c5a52e78e"},"vehicle_type_id":"4","last_reported":1701983204,"current_range_meters":13200,"station_id":"ce4bh3h2rcd13ifvqdo0","pricing_plan_id":"free"},{"bike_id":"6f3805da-607e-4644-a872-a570d4d7529e","system_id":"levelo_inurba_marseille","lat":43.284538,"lon":5.358657,"is_reserved":false,"is_disabled":false,"rental_uris":{"android":"levelo://app?vid=6f3805da-607e-4644-a872-a570d4d7529e","ios":"levelo://app?vid=6f3805da-607e-4644-a872-a570d4d7529e"},"vehicle_type_id":"4","last_reported":1701983204,"current_range_meters":22000,"station_id":"ce4bhah2rcd13ifvqei0","pricing_plan_id":"free"},{"bike_id":"8838f47b-1a16-4978-8cdb-bcc179cef39a","system_id":"levelo_inurba_marseille","lat":43.284538,"lon":5.358657,"is_reserved":false,"is_disabled":false,"rental_uris":{"android":"levelo://app?vid=8838f47b-1a16-4978-8cdb-bcc179cef39a","ios":"levelo://app?vid=8838f47b-1a16-4978-8cdb-bcc179cef39a"},"vehicle_type_id":"4","last_reported":1701983204,"current_range_meters":2800,"station_id":"ce4bhah2rcd13ifvqei0","pricing_plan_id":"free"},{"bike_id":"5ce1b9ad-31ec-4a12-9b28-023af262f1a8","system_id":"levelo_inurba_marseille","lat":43.284538,"lon":5.358657,"is_reserved":false,"is_disabled":false,"rental_uris":{"android":"levelo://app?vid=5ce1b9ad-31ec-4a12-9b28-023af262f1a8","ios":"levelo://app?vid=5ce1b9ad-31ec-4a12-9b28-023af262f1a8"},"vehicle_type_id":"4","last_reported":1701983204,"current_range_meters":8800,"station_id":"ce4bhah2rcd13ifvqei0","pricing_plan_id":"free"},{"bike_id":"557f27d4-4580-4278-b89b-6beff88eead5","system_id":"levelo_inurba_marseille","lat":43.28456,"lon":5.35897,"is_reserved":false,"is_disabled":false,"rental_uris":{"android":"levelo://app?vid=557f27d4-4580-4278-b89b-6beff88eead5","ios":"levelo://app?vid=557f27d4-4580-4278-b89b-6beff88eead5"},"vehicle_type_id":"4","last_reported":1701983204,"current_range_meters":3200,"station_id":"ce4bhah2rcd13ifvqei0","pricing_plan_id":"free"},{"bike_id":"d87f5c7f-42a9-4831-80dd-8319fb667d06","system_id":"levelo_inurba_marseille","lat":43.294314,"lon":5.397498,"is_reserved":false,"is_disabled":false,"rental_uris":{"android":"levelo://app?vid=d87f5c7f-42a9-4831-80dd-8319fb667d06","ios":"levelo://app?vid=d87f5c7f-42a9-4831-80dd-8319fb667d06"},"vehicle_type_id":"4","last_reported":1701983204,"current_range_meters":30800,"station_id":"ce4bh3h2rcd13ifvqdo0","pricing_plan_id":"free"},{"bike_id":"26b1bda2-61f4-437b-9df9-5744148fdab0","system_id":"levelo_inurba_marseille","lat":43.285856,"lon":5.350771,"is_reserved":false,"is_disabled":false,"rental_uris":{"android":"levelo://app?vid=26b1bda2-61f4-437b-9df9-5744148fdab0","ios":"levelo://app?vid=26b1bda2-61f4-437b-9df9-5744148fdab0"},"vehicle_type_id":"4","last_reported":1701983204,"current_range_meters":30400,"station_id":"ce4bhch2rcd13ifvqeug","pricing_plan_id":"free"},{"bike_id":"15169293-4511-4f9b-bd76-b3e5d467311c","system_id":"levelo_inurba_marseille","lat":43.285848,"lon":5.350787,"is_reserved":false,"is_disabled":false,"rental_uris":{"android":"levelo://app?vid=15169293-4511-4f9b-bd76-b3e5d467311c","ios":"levelo://app?vid=15169293-4511-4f9b-bd76-b3e5d467311c"},"vehicle_type_id":"4","last_reported":1701983204,"current_range_meters":28400,"station_id":"ce4bhch2rcd13ifvqeug","pricing_plan_id":"free"},{"bike_id":"06070a5a-4b04-4262-80e6-ef3153c54cac","system_id":"levelo_inurba_marseille","lat":43.319179,"lon":5.407725,"is_reserved":false,"is_disabled":false,"rental_uris":{"android":"levelo://app?vid=06070a5a-4b04-4262-80e6-ef3153c54cac","ios":"levelo://app?vid=06070a5a-4b04-4262-80e6-ef3153c54cac"},"vehicle_type_id":"4","last_reported":1701983204,"current_range_meters":20000,"station_id":"ce4bhq12rcd13ifvqhig","pricing_plan_id":"free"},{"bike_id":"b77d28e4-5c0e-4a7f-b184-8b5c352d6957","system_id":"levelo_inurba_marseille","lat":43.319179,"lon":5.407725,"is_reserved":false,"is_disabled":false,"rental_uris":{"android":"levelo://app?vid=b77d28e4-5c0e-4a7f-b184-8b5c352d6957","ios":"levelo://app?vid=b77d28e4-5c0e-4a7f-b184-8b5c352d6957"},"vehicle_type_id":"4","last_reported":1701983204,"current_range_meters":12000,"station_id":"ce4bhq12rcd13ifvqhig","pricing_plan_id":"free"},{"bike_id":"6a3c4b4d-605d-42e5-8bff-fbe7793f19d5","system_id":"levelo_inurba_marseille","lat":43.323464,"lon":5.406297,"is_reserved":false,"is_disabled":false,"rental_uris":{"android":"levelo://app?vid=6a3c4b4d-605d-42e5-8bff-fbe7793f19d5","ios":"levelo://app?vid=6a3c4b4d-605d-42e5-8bff-fbe7793f19d5"},"vehicle_type_id":"4","last_reported":1701983204,"current_range_meters":16800,"station_id":"ce4bhq92rcd13ifvqhjg","pricing_plan_id":"free"},{"bike_id":"35437a3b-546d-4804-a96b-f2464a7a3e3e","system_id":"levelo_inurba_marseille","lat":43.323464,"lon":5.406297,"is_reserved":false,"is_disabled":false,"rental_uris":{"android":"levelo://app?vid=35437a3b-546d-4804-a96b-f2464a7a3e3e","ios":"levelo://app?vid=35437a3b-546d-4804-a96b-f2464a7a3e3e"},"vehicle_type_id":"4","last_reported":1701983204,"current_range_meters":4400,"station_id":"ce4bhq92rcd13ifvqhjg","pricing_plan_id":"free"},{"bike_id":"56ac9cc9-bb61-47d5-bb32-c23299a9fd93","system_id":"levelo_inurba_marseille","lat":43.32252,"lon":5.40689,"is_reserved":false,"is_disabled":false,"rental_uris":{"android":"levelo://app?vid=56ac9cc9-bb61-47d5-bb32-c23299a9fd93","ios":"levelo://app?vid=56ac9cc9-bb61-47d5-bb32-c23299a9fd93"},"vehicle_type_id":"4","last_reported":1701983204,"current_range_meters":26800,"station_id":"","pricing_plan_id":"free"},{"bike_id":"a72915e6-3a85-49d1-bc22-0ecfd6304769","system_id":"levelo_inurba_marseille","lat":43.284219,"lon":5.3497,"is_reserved":false,"is_disabled":false,"rental_uris":{"android":"levelo://app?vid=a72915e6-3a85-49d1-bc22-0ecfd6304769","ios":"levelo://app?vid=a72915e6-3a85-49d1-bc22-0ecfd6304769"},"vehicle_type_id":"4","last_reported":1701983204,"current_range_meters":27200,"station_id":"ce4bhbh2rcd13ifvqepg","pricing_plan_id":"free"},{"bike_id":"6a1a5eac-cce5-4c3a-a0aa-212711fe9693","system_id":"levelo_inurba_marseille","lat":43.2842,"lon":5.34992,"is_reserved":false,"is_disabled":false,"rental_uris":{"android":"levelo://app?vid=6a1a5eac-cce5-4c3a-a0aa-212711fe9693","ios":"levelo://app?vid=6a1a5eac-cce5-4c3a-a0aa-212711fe9693"},"vehicle_type_id":"4","last_reported":1701983204,"current_range_meters":20400,"station_id":"ce4bhbh2rcd13ifvqepg","pricing_plan_id":"free"},{"bike_id":"32f5e71a-545f-48c1-aff2-3f18380b23a8","system_id":"levelo_inurba_marseille","lat":43.292724,"lon":5.401131,"is_reserved":false,"is_disabled":false,"rental_uris":{"android":"levelo://app?vid=32f5e71a-545f-48c1-aff2-3f18380b23a8","ios":"levelo://app?vid=32f5e71a-545f-48c1-aff2-3f18380b23a8"},"vehicle_type_id":"4","last_reported":1701983204,"current_range_meters":20000,"station_id":"ce4bh312rcd13ifvqdk0","pricing_plan_id":"free"},{"bike_id":"171a9755-7f0f-4ba1-bf26-4b9142e92259","system_id":"levelo_inurba_marseille","lat":43.292724,"lon":5.401131,"is_reserved":false,"is_disabled":false,"rental_uris":{"android":"levelo://app?vid=171a9755-7f0f-4ba1-bf26-4b9142e92259","ios":"levelo://app?vid=171a9755-7f0f-4ba1-bf26-4b9142e92259"},"vehicle_type_id":"4","last_reported":1701983204,"current_range_meters":6400,"station_id":"ce4bh312rcd13ifvqdk0","pricing_plan_id":"free"},{"bike_id":"3645baaa-d7a9-44bb-87c4-86326156ac0d","system_id":"levelo_inurba_marseille","lat":43.283502,"lon":5.386471,"is_reserved":false,"is_disabled":false,"rental_uris":{"android":"levelo://app?vid=3645baaa-d7a9-44bb-87c4-86326156ac0d","ios":"levelo://app?vid=3645baaa-d7a9-44bb-87c4-86326156ac0d"},"vehicle_type_id":"4","last_reported":1701983204,"current_range_meters":3200,"station_id":"ce4bh492rcd13ifvqdvg","pricing_plan_id":"free"},{"bike_id":"b6d7f8e9-a14d-4ca8-a33d-ad36a81b4bc6","system_id":"levelo_inurba_marseille","lat":43.28039,"lon":5.3695,"is_reserved":false,"is_disabled":false,"rental_uris":{"android":"levelo://app?vid=b6d7f8e9-a14d-4ca8-a33d-ad36a81b4bc6","ios":"levelo://app?vid=b6d7f8e9-a14d-4ca8-a33d-ad36a81b4bc6"},"vehicle_type_id":"4","last_reported":1701983204,"current_range_meters":22000,"station_id":"ce4bha12rcd13ifvqef0","pricing_plan_id":"free"},{"bike_id":"eb8cbc53-a540-4691-8c3b-0681c41b0d15","system_id":"levelo_inurba_marseille","lat":43.280305,"lon":5.369415,"is_reserved":false,"is_disabled":false,"rental_uris":{"android":"levelo://app?vid=eb8cbc53-a540-4691-8c3b-0681c41b0d15","ios":"levelo://app?vid=eb8cbc53-a540-4691-8c3b-0681c41b0d15"},"vehicle_type_id":"4","last_reported":1701983204,"current_range_meters":31600,"station_id":"ce4bha12rcd13ifvqef0","pricing_plan_id":"free"},{"bike_id":"68bf0473-2937-406c-955b-5f92ae61d953","system_id":"levelo_inurba_marseille","lat":43.281044,"lon":5.378308,"is_reserved":false,"is_disabled":false,"rental_uris":{"android":"levelo://app?vid=68bf0473-2937-406c-955b-5f92ae61d953","ios":"levelo://app?vid=68bf0473-2937-406c-955b-5f92ae61d953"},"vehicle_type_id":"4","last_reported":1701983204,"current_range_meters":11600,"station_id":"ce4bha12rcd13ifvqee0","pricing_plan_id":"free"},{"bike_id":"1458272f-37ff-47f6-baca-67428831d895","system_id":"levelo_inurba_marseille","lat":43.284462,"lon":5.392121,"is_reserved":false,"is_disabled":false,"rental_uris":{"android":"levelo://app?vid=1458272f-37ff-47f6-baca-67428831d895","ios":"levelo://app?vid=1458272f-37ff-47f6-baca-67428831d895"},"vehicle_type_id":"4","last_reported":1701983204,"current_range_meters":26400,"station_id":"ce4bhoh2rcd13ifvqh5g","pricing_plan_id":"free"},{"bike_id":"916a7912-188f-4842-a3fd-ab528a439fc9","system_id":"levelo_inurba_marseille","lat":43.284462,"lon":5.392121,"is_reserved":false,"is_disabled":false,"rental_uris":{"android":"levelo://app?vid=916a7912-188f-4842-a3fd-ab528a439fc9","ios":"levelo://app?vid=916a7912-188f-4842-a3fd-ab528a439fc9"},"vehicle_type_id":"4","last_reported":1701983204,"current_range_meters":26400,"station_id":"ce4bhoh2rcd13ifvqh5g","pricing_plan_id":"free"},{"bike_id":"43532f18-fd38-4041-884d-515c14b82ab9","system_id":"levelo_inurba_marseille","lat":43.284462,"lon":5.392121,"is_reserved":false,"is_disabled":false,"rental_uris":{"android":"levelo://app?vid=43532f18-fd38-4041-884d-515c14b82ab9","ios":"levelo://app?vid=43532f18-fd38-4041-884d-515c14b82ab9"},"vehicle_type_id":"4","last_reported":1701983204,"current_range_meters":11600,"station_id":"ce4bhoh2rcd13ifvqh5g","pricing_plan_id":"free"},{"bike_id":"5479ec44-6531-4cd2-a31f-eaf7df8a408e","system_id":"levelo_inurba_marseille","lat":43.28573,"lon":5.394992,"is_reserved":false,"is_disabled":false,"rental_uris":{"android":"levelo://app?vid=5479ec44-6531-4cd2-a31f-eaf7df8a408e","ios":"levelo://app?vid=5479ec44-6531-4cd2-a31f-eaf7df8a408e"},"vehicle_type_id":"4","last_reported":1701983204,"current_range_meters":26400,"station_id":"ce4bh292rcd13ifvqdg0","pricing_plan_id":"free"},{"bike_id":"338318f6-96af-43b4-88ec-e30e199b49d2","system_id":"levelo_inurba_marseille","lat":43.326605,"lon":5.409903,"is_reserved":false,"is_disabled":false,"rental_uris":{"android":"levelo://app?vid=338318f6-96af-43b4-88ec-e30e199b49d2","ios":"levelo://app?vid=338318f6-96af-43b4-88ec-e30e199b49d2"},"vehicle_type_id":"4","last_reported":1701983204,"current_range_meters":16400,"station_id":"ce4bhpp2rcd13ifvqhgg","pricing_plan_id":"free"},{"bike_id":"070a260d-ecc1-46d1-afab-6774750cd900","system_id":"levelo_inurba_marseille","lat":43.326605,"lon":5.409903,"is_reserved":false,"is_disabled":false,"rental_uris":{"android":"levelo://app?vid=070a260d-ecc1-46d1-afab-6774750cd900","ios":"levelo://app?vid=070a260d-ecc1-46d1-afab-6774750cd900"},"vehicle_type_id":"4","last_reported":1701983204,"current_range_meters":18400,"station_id":"ce4bhpp2rcd13ifvqhgg","pricing_plan_id":"free"},{"bike_id":"1062989e-5509-4131-add8-21721d8275d9","system_id":"levelo_inurba_marseille","lat":43.304188,"lon":5.412904,"is_reserved":false,"is_disabled":false,"rental_uris":{"android":"levelo://app?vid=1062989e-5509-4131-add8-21721d8275d9","ios":"levelo://app?vid=1062989e-5509-4131-add8-21721d8275d9"},"vehicle_type_id":"4","last_reported":1701983204,"current_range_meters":30400,"station_id":"ce4bhop2rcd13ifvqh8g","pricing_plan_id":"free"},{"bike_id":"bf9c0286-54ca-458d-a58a-9d0d9c0353fb","system_id":"levelo_inurba_marseille","lat":43.279087,"lon":5.380114,"is_reserved":false,"is_disabled":false,"rental_uris":{"android":"levelo://app?vid=bf9c0286-54ca-458d-a58a-9d0d9c0353fb","ios":"levelo://app?vid=bf9c0286-54ca-458d-a58a-9d0d9c0353fb"},"vehicle_type_id":"4","last_reported":1701983204,"current_range_meters":30800,"station_id":"ce4bhf92rcd13ifvqf50","pricing_plan_id":"free"},{"bike_id":"27d2c1c7-ebd7-4f10-a80e-abdc1e1d21d6","system_id":"levelo_inurba_marseille","lat":43.287154,"lon":5.399979,"is_reserved":false,"is_disabled":false,"rental_uris":{"android":"levelo://app?vid=27d2c1c7-ebd7-4f10-a80e-abdc1e1d21d6","ios":"levelo://app?vid=27d2c1c7-ebd7-4f10-a80e-abdc1e1d21d6"},"vehicle_type_id":"4","last_reported":1701983204,"current_range_meters":14000,"station_id":"ce4bho92rcd13ifvqh3g","pricing_plan_id":"free"},{"bike_id":"ada80be2-5af2-491f-86a4-67cd93153724","system_id":"levelo_inurba_marseille","lat":43.292569,"lon":5.409107,"is_reserved":false,"is_disabled":false,"rental_uris":{"android":"levelo://app?vid=ada80be2-5af2-491f-86a4-67cd93153724","ios":"levelo://app?vid=ada80be2-5af2-491f-86a4-67cd93153724"},"vehicle_type_id":"4","last_reported":1701983204,"current_range_meters":0,"station_id":"ce4bh192rcd13ifvqdc0","pricing_plan_id":"free"},{"bike_id":"8fb042a7-bc38-4a4b-bd74-88529f6638c4","system_id":"levelo_inurba_marseille","lat":43.27618,"lon":5.361009,"is_reserved":false,"is_disabled":false,"rental_uris":{"android":"levelo://app?vid=8fb042a7-bc38-4a4b-bd74-88529f6638c4","ios":"levelo://app?vid=8fb042a7-bc38-4a4b-bd74-88529f6638c4"},"vehicle_type_id":"4","last_reported":1701983204,"current_range_meters":24400,"station_id":"ce4bgj92rcd13ifvqbe0","pricing_plan_id":"free"},{"bike_id":"cf28e55e-951a-4b0e-80ed-914fb42c100f","system_id":"levelo_inurba_marseille","lat":43.280784,"lon":5.396622,"is_reserved":false,"is_disabled":false,"rental_uris":{"android":"levelo://app?vid=cf28e55e-951a-4b0e-80ed-914fb42c100f","ios":"levelo://app?vid=cf28e55e-951a-4b0e-80ed-914fb42c100f"},"vehicle_type_id":"4","last_reported":1701983204,"current_range_meters":6000,"station_id":"ce4bho12rcd13ifvqh2g","pricing_plan_id":"free"},{"bike_id":"da8d6ff8-e1f0-4f21-894c-b0d31a40f237","system_id":"levelo_inurba_marseille","lat":43.278399,"lon":5.392139,"is_reserved":false,"is_disabled":false,"rental_uris":{"android":"levelo://app?vid=da8d6ff8-e1f0-4f21-894c-b0d31a40f237","ios":"levelo://app?vid=da8d6ff8-e1f0-4f21-894c-b0d31a40f237"},"vehicle_type_id":"4","last_reported":1701983204,"current_range_meters":27600,"station_id":"ce4bhjp2rcd13ifvqga0","pricing_plan_id":"free"},{"bike_id":"13664840-ed25-474a-95e6-1d3b4e9d48f2","system_id":"levelo_inurba_marseille","lat":43.278401,"lon":5.392152,"is_reserved":false,"is_disabled":false,"rental_uris":{"android":"levelo://app?vid=13664840-ed25-474a-95e6-1d3b4e9d48f2","ios":"levelo://app?vid=13664840-ed25-474a-95e6-1d3b4e9d48f2"},"vehicle_type_id":"4","last_reported":1701983204,"current_range_meters":24000,"station_id":"ce4bhjp2rcd13ifvqga0","pricing_plan_id":"free"},{"bike_id":"ac48d04c-c813-4dcb-8013-15216c7aa7de","system_id":"levelo_inurba_marseille","lat":43.340804,"lon":5.410219,"is_reserved":false,"is_disabled":false,"rental_uris":{"android":"levelo://app?vid=ac48d04c-c813-4dcb-8013-15216c7aa7de","ios":"levelo://app?vid=ac48d04c-c813-4dcb-8013-15216c7aa7de"},"vehicle_type_id":"4","last_reported":1701983204,"current_range_meters":18800,"station_id":"ce4bhqh2rcd13ifvqhlg","pricing_plan_id":"free"},{"bike_id":"e7e35992-3a3d-448e-9a9c-48870975c082","system_id":"levelo_inurba_marseille","lat":43.340804,"lon":5.410219,"is_reserved":false,"is_disabled":false,"rental_uris":{"android":"levelo://app?vid=e7e35992-3a3d-448e-9a9c-48870975c082","ios":"levelo://app?vid=e7e35992-3a3d-448e-9a9c-48870975c082"},"vehicle_type_id":"4","last_reported":1701983204,"current_range_meters":27200,"station_id":"ce4bhqh2rcd13ifvqhlg","pricing_plan_id":"free"},{"bike_id":"8a8bc4d6-0029-4fbf-9728-a692a0316877","system_id":"levelo_inurba_marseille","lat":43.27513,"lon":5.39499,"is_reserved":false,"is_disabled":false,"rental_uris":{"android":"levelo://app?vid=8a8bc4d6-0029-4fbf-9728-a692a0316877","ios":"levelo://app?vid=8a8bc4d6-0029-4fbf-9728-a692a0316877"},"vehicle_type_id":"4","last_reported":1701983204,"current_range_meters":2800,"station_id":"","pricing_plan_id":"free"},{"bike_id":"d94464e9-20b2-4eab-85de-fcf69d5a2f77","system_id":"levelo_inurba_marseille","lat":43.272116,"lon":5.391747,"is_reserved":false,"is_disabled":false,"rental_uris":{"android":"levelo://app?vid=d94464e9-20b2-4eab-85de-fcf69d5a2f77","ios":"levelo://app?vid=d94464e9-20b2-4eab-85de-fcf69d5a2f77"},"vehicle_type_id":"4","last_reported":1701983204,"current_range_meters":24400,"station_id":"ce4bhhp2rcd13ifvqfm0","pricing_plan_id":"free"},{"bike_id":"77e2df1b-d75a-48fe-a6ad-744dfbe91f1d","system_id":"levelo_inurba_marseille","lat":43.27214,"lon":5.3925,"is_reserved":false,"is_disabled":false,"rental_uris":{"android":"levelo://app?vid=77e2df1b-d75a-48fe-a6ad-744dfbe91f1d","ios":"levelo://app?vid=77e2df1b-d75a-48fe-a6ad-744dfbe91f1d"},"vehicle_type_id":"4","last_reported":1701983204,"current_range_meters":8000,"station_id":"","pricing_plan_id":"free"},{"bike_id":"7b84562b-f023-458e-9f63-22f52b26a915","system_id":"levelo_inurba_marseille","lat":43.278128,"lon":5.407195,"is_reserved":false,"is_disabled":false,"rental_uris":{"android":"levelo://app?vid=7b84562b-f023-458e-9f63-22f52b26a915","ios":"levelo://app?vid=7b84562b-f023-458e-9f63-22f52b26a915"},"vehicle_type_id":"4","last_reported":1701983204,"current_range_meters":30800,"station_id":"ce4bhnh2rcd13ifvqgtg","pricing_plan_id":"free"},{"bike_id":"2eb7b164-467e-49b0-a554-29c177f95c2a","system_id":"levelo_inurba_marseille","lat":43.2781,"lon":5.40708,"is_reserved":false,"is_disabled":false,"rental_uris":{"android":"levelo://app?vid=2eb7b164-467e-49b0-a554-29c177f95c2a","ios":"levelo://app?vid=2eb7b164-467e-49b0-a554-29c177f95c2a"},"vehicle_type_id":"4","last_reported":1701983204,"current_range_meters":16800,"station_id":"ce4bhnh2rcd13ifvqgtg","pricing_plan_id":"free"},{"bike_id":"507fa7b2-2766-4bb9-8380-8e4477bc99ac","system_id":"levelo_inurba_marseille","lat":43.278128,"lon":5.407195,"is_reserved":false,"is_disabled":false,"rental_uris":{"android":"levelo://app?vid=507fa7b2-2766-4bb9-8380-8e4477bc99ac","ios":"levelo://app?vid=507fa7b2-2766-4bb9-8380-8e4477bc99ac"},"vehicle_type_id":"4","last_reported":1701983204,"current_range_meters":4400,"station_id":"ce4bhnh2rcd13ifvqgtg","pricing_plan_id":"free"},{"bike_id":"8e3ed466-32b5-40fb-9e63-efc51e8e36c0","system_id":"levelo_inurba_marseille","lat":43.278128,"lon":5.407195,"is_reserved":false,"is_disabled":false,"rental_uris":{"android":"levelo://app?vid=8e3ed466-32b5-40fb-9e63-efc51e8e36c0","ios":"levelo://app?vid=8e3ed466-32b5-40fb-9e63-efc51e8e36c0"},"vehicle_type_id":"4","last_reported":1701983204,"current_range_meters":21600,"station_id":"ce4bhnh2rcd13ifvqgtg","pricing_plan_id":"free"},{"bike_id":"8b31974b-a6d6-4174-94cf-24462dd4f80b","system_id":"levelo_inurba_marseille","lat":43.278128,"lon":5.407195,"is_reserved":false,"is_disabled":false,"rental_uris":{"android":"levelo://app?vid=8b31974b-a6d6-4174-94cf-24462dd4f80b","ios":"levelo://app?vid=8b31974b-a6d6-4174-94cf-24462dd4f80b"},"vehicle_type_id":"4","last_reported":1701983204,"current_range_meters":6400,"station_id":"ce4bhnh2rcd13ifvqgtg","pricing_plan_id":"free"},{"bike_id":"7c98996b-84bf-4cb7-a399-61f0c30c115d","system_id":"levelo_inurba_marseille","lat":43.27944,"lon":5.41038,"is_reserved":false,"is_disabled":false,"rental_uris":{"android":"levelo://app?vid=7c98996b-84bf-4cb7-a399-61f0c30c115d","ios":"levelo://app?vid=7c98996b-84bf-4cb7-a399-61f0c30c115d"},"vehicle_type_id":"4","last_reported":1701983204,"current_range_meters":17200,"station_id":"ce4bhnp2rcd13ifvqh0g","pricing_plan_id":"free"},{"bike_id":"56e1faa4-f404-40c0-8c46-fdaefc68de0f","system_id":"levelo_inurba_marseille","lat":43.279465,"lon":5.410561,"is_reserved":false,"is_disabled":false,"rental_uris":{"android":"levelo://app?vid=56e1faa4-f404-40c0-8c46-fdaefc68de0f","ios":"levelo://app?vid=56e1faa4-f404-40c0-8c46-fdaefc68de0f"},"vehicle_type_id":"4","last_reported":1701983204,"current_range_meters":20400,"station_id":"ce4bhnp2rcd13ifvqh0g","pricing_plan_id":"free"},{"bike_id":"dffd642e-6acf-43e9-84fd-33fa89f52c00","system_id":"levelo_inurba_marseille","lat":43.2791,"lon":5.41222,"is_reserved":false,"is_disabled":false,"rental_uris":{"android":"levelo://app?vid=dffd642e-6acf-43e9-84fd-33fa89f52c00","ios":"levelo://app?vid=dffd642e-6acf-43e9-84fd-33fa89f52c00"},"vehicle_type_id":"4","last_reported":1701983204,"current_range_meters":13600,"station_id":"","pricing_plan_id":"free"},{"bike_id":"c3e1a85a-f0ec-4402-aae7-a79f7120b679","system_id":"levelo_inurba_marseille","lat":43.26681,"lon":5.382694,"is_reserved":false,"is_disabled":false,"rental_uris":{"android":"levelo://app?vid=c3e1a85a-f0ec-4402-aae7-a79f7120b679","ios":"levelo://app?vid=c3e1a85a-f0ec-4402-aae7-a79f7120b679"},"vehicle_type_id":"4","last_reported":1701983204,"current_range_meters":28800,"station_id":"ce4bhg92rcd13ifvqf90","pricing_plan_id":"free"},{"bike_id":"cd266389-c915-413f-ae44-18c519dba30a","system_id":"levelo_inurba_marseille","lat":43.26557,"lon":5.37284,"is_reserved":false,"is_disabled":false,"rental_uris":{"android":"levelo://app?vid=cd266389-c915-413f-ae44-18c519dba30a","ios":"levelo://app?vid=cd266389-c915-413f-ae44-18c519dba30a"},"vehicle_type_id":"4","last_reported":1701983204,"current_range_meters":3600,"station_id":"ce4bhg12rcd13ifvqf70","pricing_plan_id":"free"},{"bike_id":"be93ad4b-9cdf-42e7-ba8f-10af1fdc0c92","system_id":"levelo_inurba_marseille","lat":43.279881,"lon":5.416579,"is_reserved":false,"is_disabled":false,"rental_uris":{"android":"levelo://app?vid=be93ad4b-9cdf-42e7-ba8f-10af1fdc0c92","ios":"levelo://app?vid=be93ad4b-9cdf-42e7-ba8f-10af1fdc0c92"},"vehicle_type_id":"4","last_reported":1701983204,"current_range_meters":8400,"station_id":"ce4bho12rcd13ifvqh1g","pricing_plan_id":"free"},{"bike_id":"5c62f0fe-2a68-4f0e-8c5e-1c3be35b64ff","system_id":"levelo_inurba_marseille","lat":43.29171,"lon":5.42786,"is_reserved":false,"is_disabled":false,"rental_uris":{"android":"levelo://app?vid=5c62f0fe-2a68-4f0e-8c5e-1c3be35b64ff","ios":"levelo://app?vid=5c62f0fe-2a68-4f0e-8c5e-1c3be35b64ff"},"vehicle_type_id":"4","last_reported":1701983204,"current_range_meters":13600,"station_id":"","pricing_plan_id":"free"},{"bike_id":"3b1cd462-728f-44f1-b5cf-b3916b351ca9","system_id":"levelo_inurba_marseille","lat":43.308051,"lon":5.43527,"is_reserved":false,"is_disabled":false,"rental_uris":{"android":"levelo://app?vid=3b1cd462-728f-44f1-b5cf-b3916b351ca9","ios":"levelo://app?vid=3b1cd462-728f-44f1-b5cf-b3916b351ca9"},"vehicle_type_id":"4","last_reported":1701983204,"current_range_meters":0,"station_id":"ce4bhph2rcd13ifvqheg","pricing_plan_id":"free"},{"bike_id":"9c166d58-4f4c-4cc4-92b0-a73f43b65e2c","system_id":"levelo_inurba_marseille","lat":43.26935,"lon":5.40256,"is_reserved":false,"is_disabled":false,"rental_uris":{"android":"levelo://app?vid=9c166d58-4f4c-4cc4-92b0-a73f43b65e2c","ios":"levelo://app?vid=9c166d58-4f4c-4cc4-92b0-a73f43b65e2c"},"vehicle_type_id":"4","last_reported":1701983204,"current_range_meters":12800,"station_id":"cjm6bp8fraef2m0cb0m0","pricing_plan_id":"free"},{"bike_id":"b9963256-2158-4a0e-ade8-da9ea391189d","system_id":"levelo_inurba_marseille","lat":43.261782,"lon":5.374515,"is_reserved":false,"is_disabled":false,"rental_uris":{"android":"levelo://app?vid=b9963256-2158-4a0e-ade8-da9ea391189d","ios":"levelo://app?vid=b9963256-2158-4a0e-ade8-da9ea391189d"},"vehicle_type_id":"4","last_reported":1701983204,"current_range_meters":22800,"station_id":"ce4bhgp2rcd13ifvqfc0","pricing_plan_id":"free"},{"bike_id":"d2ec8962-9e85-4cdd-9ded-420338983c94","system_id":"levelo_inurba_marseille","lat":43.261782,"lon":5.374515,"is_reserved":false,"is_disabled":false,"rental_uris":{"android":"levelo://app?vid=d2ec8962-9e85-4cdd-9ded-420338983c94","ios":"levelo://app?vid=d2ec8962-9e85-4cdd-9ded-420338983c94"},"vehicle_type_id":"4","last_reported":1701983204,"current_range_meters":14400,"station_id":"ce4bhgp2rcd13ifvqfc0","pricing_plan_id":"free"},{"bike_id":"837003b0-2b49-4f38-9ab9-fca5b462f5a3","system_id":"levelo_inurba_marseille","lat":43.26181,"lon":5.37444,"is_reserved":false,"is_disabled":false,"rental_uris":{"android":"levelo://app?vid=837003b0-2b49-4f38-9ab9-fca5b462f5a3","ios":"levelo://app?vid=837003b0-2b49-4f38-9ab9-fca5b462f5a3"},"vehicle_type_id":"4","last_reported":1701983204,"current_range_meters":28800,"station_id":"ce4bhgp2rcd13ifvqfc0","pricing_plan_id":"free"},{"bike_id":"ed3d39e3-16d0-4193-b5f3-7d15fa62181e","system_id":"levelo_inurba_marseille","lat":43.262012,"lon":5.379307,"is_reserved":false,"is_disabled":false,"rental_uris":{"android":"levelo://app?vid=ed3d39e3-16d0-4193-b5f3-7d15fa62181e","ios":"levelo://app?vid=ed3d39e3-16d0-4193-b5f3-7d15fa62181e"},"vehicle_type_id":"4","last_reported":1701983204,"current_range_meters":27600,"station_id":"ce4bhjp2rcd13ifvqg90","pricing_plan_id":"free"},{"bike_id":"372bf9a3-13ff-4a03-a718-2a8c7884c554","system_id":"levelo_inurba_marseille","lat":43.26202,"lon":5.379299,"is_reserved":false,"is_disabled":false,"rental_uris":{"android":"levelo://app?vid=372bf9a3-13ff-4a03-a718-2a8c7884c554","ios":"levelo://app?vid=372bf9a3-13ff-4a03-a718-2a8c7884c554"},"vehicle_type_id":"4","last_reported":1701983204,"current_range_meters":21600,"station_id":"ce4bhjp2rcd13ifvqg90","pricing_plan_id":"free"},{"bike_id":"50b57549-b3da-4393-86c8-d9ab04bd4183","system_id":"levelo_inurba_marseille","lat":43.26202,"lon":5.379299,"is_reserved":false,"is_disabled":false,"rental_uris":{"android":"levelo://app?vid=50b57549-b3da-4393-86c8-d9ab04bd4183","ios":"levelo://app?vid=50b57549-b3da-4393-86c8-d9ab04bd4183"},"vehicle_type_id":"4","last_reported":1701983204,"current_range_meters":14800,"station_id":"ce4bhjp2rcd13ifvqg90","pricing_plan_id":"free"},{"bike_id":"c5bd1d69-a92d-4172-a7f3-6c88766eaa3a","system_id":"levelo_inurba_marseille","lat":43.271368,"lon":5.40928,"is_reserved":false,"is_disabled":false,"rental_uris":{"android":"levelo://app?vid=c5bd1d69-a92d-4172-a7f3-6c88766eaa3a","ios":"levelo://app?vid=c5bd1d69-a92d-4172-a7f3-6c88766eaa3a"},"vehicle_type_id":"4","last_reported":1701983204,"current_range_meters":8800,"station_id":"ce4bhl12rcd13ifvqgf0","pricing_plan_id":"free"},{"bike_id":"4f68f183-a711-4386-a731-e8ea8e2f115e","system_id":"levelo_inurba_marseille","lat":43.298768,"lon":5.43643,"is_reserved":false,"is_disabled":false,"rental_uris":{"android":"levelo://app?vid=4f68f183-a711-4386-a731-e8ea8e2f115e","ios":"levelo://app?vid=4f68f183-a711-4386-a731-e8ea8e2f115e"},"vehicle_type_id":"4","last_reported":1701983204,"current_range_meters":26400,"station_id":"ce4bhpp2rcd13ifvqhfg","pricing_plan_id":"free"},{"bike_id":"83e2018e-7127-4415-8bbf-2e347a9c6750","system_id":"levelo_inurba_marseille","lat":43.298957,"lon":5.436618,"is_reserved":false,"is_disabled":false,"rental_uris":{"android":"levelo://app?vid=83e2018e-7127-4415-8bbf-2e347a9c6750","ios":"levelo://app?vid=83e2018e-7127-4415-8bbf-2e347a9c6750"},"vehicle_type_id":"4","last_reported":1701983204,"current_range_meters":6400,"station_id":"ce4bhpp2rcd13ifvqhfg","pricing_plan_id":"free"},{"bike_id":"0a3af9fe-4495-4765-a364-07e789cdace4","system_id":"levelo_inurba_marseille","lat":43.298768,"lon":5.43643,"is_reserved":false,"is_disabled":false,"rental_uris":{"android":"levelo://app?vid=0a3af9fe-4495-4765-a364-07e789cdace4","ios":"levelo://app?vid=0a3af9fe-4495-4765-a364-07e789cdace4"},"vehicle_type_id":"4","last_reported":1701983204,"current_range_meters":29200,"station_id":"ce4bhpp2rcd13ifvqhfg","pricing_plan_id":"free"},{"bike_id":"ca4db8a8-5b98-4b78-bc3d-514f38028a3d","system_id":"levelo_inurba_marseille","lat":43.298768,"lon":5.43643,"is_reserved":false,"is_disabled":false,"rental_uris":{"android":"levelo://app?vid=ca4db8a8-5b98-4b78-bc3d-514f38028a3d","ios":"levelo://app?vid=ca4db8a8-5b98-4b78-bc3d-514f38028a3d"},"vehicle_type_id":"4","last_reported":1701983204,"current_range_meters":30000,"station_id":"ce4bhpp2rcd13ifvqhfg","pricing_plan_id":"free"},{"bike_id":"81e4ce4f-798f-4faa-b87d-f1187fb850ed","system_id":"levelo_inurba_marseille","lat":43.281548,"lon":5.42643,"is_reserved":false,"is_disabled":false,"rental_uris":{"android":"levelo://app?vid=81e4ce4f-798f-4faa-b87d-f1187fb850ed","ios":"levelo://app?vid=81e4ce4f-798f-4faa-b87d-f1187fb850ed"},"vehicle_type_id":"4","last_reported":1701983204,"current_range_meters":13200,"station_id":"ce4bhnh2rcd13ifvqgug","pricing_plan_id":"free"},{"bike_id":"fee59bde-6126-4a98-a3e0-c862515d1a23","system_id":"levelo_inurba_marseille","lat":43.281548,"lon":5.42643,"is_reserved":false,"is_disabled":false,"rental_uris":{"android":"levelo://app?vid=fee59bde-6126-4a98-a3e0-c862515d1a23","ios":"levelo://app?vid=fee59bde-6126-4a98-a3e0-c862515d1a23"},"vehicle_type_id":"4","last_reported":1701983204,"current_range_meters":21600,"station_id":"ce4bhnh2rcd13ifvqgug","pricing_plan_id":"free"},{"bike_id":"6c4a4127-c4de-4571-99d2-c4e93580765c","system_id":"levelo_inurba_marseille","lat":43.281548,"lon":5.42643,"is_reserved":false,"is_disabled":false,"rental_uris":{"android":"levelo://app?vid=6c4a4127-c4de-4571-99d2-c4e93580765c","ios":"levelo://app?vid=6c4a4127-c4de-4571-99d2-c4e93580765c"},"vehicle_type_id":"4","last_reported":1701983204,"current_range_meters":23200,"station_id":"ce4bhnh2rcd13ifvqgug","pricing_plan_id":"free"},{"bike_id":"ba7ddf79-ff50-4f5c-8fc6-82d165f47152","system_id":"levelo_inurba_marseille","lat":43.28156,"lon":5.42655,"is_reserved":false,"is_disabled":false,"rental_uris":{"android":"levelo://app?vid=ba7ddf79-ff50-4f5c-8fc6-82d165f47152","ios":"levelo://app?vid=ba7ddf79-ff50-4f5c-8fc6-82d165f47152"},"vehicle_type_id":"4","last_reported":1701983204,"current_range_meters":6400,"station_id":"ce4bhnh2rcd13ifvqgug","pricing_plan_id":"free"},{"bike_id":"9e2f9286-5e34-44f1-a6f3-6024bb861c7a","system_id":"levelo_inurba_marseille","lat":43.258224,"lon":5.394369,"is_reserved":false,"is_disabled":false,"rental_uris":{"android":"levelo://app?vid=9e2f9286-5e34-44f1-a6f3-6024bb861c7a","ios":"levelo://app?vid=9e2f9286-5e34-44f1-a6f3-6024bb861c7a"},"vehicle_type_id":"4","last_reported":1701983204,"current_range_meters":5600,"station_id":"ce4bhip2rcd13ifvqft0","pricing_plan_id":"free"},{"bike_id":"1aa8b663-7302-4e11-9288-674d603dc997","system_id":"levelo_inurba_marseille","lat":43.258224,"lon":5.394369,"is_reserved":false,"is_disabled":false,"rental_uris":{"android":"levelo://app?vid=1aa8b663-7302-4e11-9288-674d603dc997","ios":"levelo://app?vid=1aa8b663-7302-4e11-9288-674d603dc997"},"vehicle_type_id":"4","last_reported":1701983204,"current_range_meters":0,"station_id":"ce4bhip2rcd13ifvqft0","pricing_plan_id":"free"},{"bike_id":"73dc9d83-7366-4cba-a66f-edab57dc1251","system_id":"levelo_inurba_marseille","lat":43.25927,"lon":5.40907,"is_reserved":false,"is_disabled":false,"rental_uris":{"android":"levelo://app?vid=73dc9d83-7366-4cba-a66f-edab57dc1251","ios":"levelo://app?vid=73dc9d83-7366-4cba-a66f-edab57dc1251"},"vehicle_type_id":"4","last_reported":1701983204,"current_range_meters":800,"station_id":"ce4bhm92rcd13ifvqglg","pricing_plan_id":"free"},{"bike_id":"5e28afdb-366a-4ee2-bf4c-72dd44305a45","system_id":"levelo_inurba_marseille","lat":43.257079,"lon":5.411051,"is_reserved":false,"is_disabled":false,"rental_uris":{"android":"levelo://app?vid=5e28afdb-366a-4ee2-bf4c-72dd44305a45","ios":"levelo://app?vid=5e28afdb-366a-4ee2-bf4c-72dd44305a45"},"vehicle_type_id":"4","last_reported":1701983204,"current_range_meters":10400,"station_id":"ce4bhkp2rcd13ifvqgd0","pricing_plan_id":"free"},{"bike_id":"ea6f15d6-03ac-476d-a535-2e7d3b9eaeef","system_id":"levelo_inurba_marseille","lat":43.257079,"lon":5.411051,"is_reserved":false,"is_disabled":false,"rental_uris":{"android":"levelo://app?vid=ea6f15d6-03ac-476d-a535-2e7d3b9eaeef","ios":"levelo://app?vid=ea6f15d6-03ac-476d-a535-2e7d3b9eaeef"},"vehicle_type_id":"4","last_reported":1701983204,"current_range_meters":400,"station_id":"ce4bhkp2rcd13ifvqgd0","pricing_plan_id":"free"},{"bike_id":"ddf2951b-2b04-424f-9ef1-6d8217c9e48c","system_id":"levelo_inurba_marseille","lat":43.250009,"lon":5.389195,"is_reserved":false,"is_disabled":false,"rental_uris":{"android":"levelo://app?vid=ddf2951b-2b04-424f-9ef1-6d8217c9e48c","ios":"levelo://app?vid=ddf2951b-2b04-424f-9ef1-6d8217c9e48c"},"vehicle_type_id":"4","last_reported":1701983204,"current_range_meters":12400,"station_id":"ce4bhgp2rcd13ifvqfd0","pricing_plan_id":"free"},{"bike_id":"430e7c59-7257-45c0-9a36-bfaa9a147960","system_id":"levelo_inurba_marseille","lat":43.2479,"lon":5.374457,"is_reserved":false,"is_disabled":false,"rental_uris":{"android":"levelo://app?vid=430e7c59-7257-45c0-9a36-bfaa9a147960","ios":"levelo://app?vid=430e7c59-7257-45c0-9a36-bfaa9a147960"},"vehicle_type_id":"4","last_reported":1701983204,"current_range_meters":25200,"station_id":"ce4bhgh2rcd13ifvqfb0","pricing_plan_id":"free"},{"bike_id":"09ca0e3d-8993-4c85-ba97-10ce4be56981","system_id":"levelo_inurba_marseille","lat":43.25102,"lon":5.403214,"is_reserved":false,"is_disabled":false,"rental_uris":{"android":"levelo://app?vid=09ca0e3d-8993-4c85-ba97-10ce4be56981","ios":"levelo://app?vid=09ca0e3d-8993-4c85-ba97-10ce4be56981"},"vehicle_type_id":"4","last_reported":1701983204,"current_range_meters":15600,"station_id":"ce4bhlh2rcd13ifvqgig","pricing_plan_id":"free"},{"bike_id":"5687050d-4f5d-4497-8e79-c625c38b49e9","system_id":"levelo_inurba_marseille","lat":43.25102,"lon":5.403214,"is_reserved":false,"is_disabled":false,"rental_uris":{"android":"levelo://app?vid=5687050d-4f5d-4497-8e79-c625c38b49e9","ios":"levelo://app?vid=5687050d-4f5d-4497-8e79-c625c38b49e9"},"vehicle_type_id":"4","last_reported":1701983204,"current_range_meters":2800,"station_id":"ce4bhlh2rcd13ifvqgig","pricing_plan_id":"free"},{"bike_id":"e0a03d41-3dd3-434f-91e5-5951a4fbb31e","system_id":"levelo_inurba_marseille","lat":43.25107,"lon":5.40328,"is_reserved":false,"is_disabled":false,"rental_uris":{"android":"levelo://app?vid=e0a03d41-3dd3-434f-91e5-5951a4fbb31e","ios":"levelo://app?vid=e0a03d41-3dd3-434f-91e5-5951a4fbb31e"},"vehicle_type_id":"4","last_reported":1701983204,"current_range_meters":0,"station_id":"ce4bhlh2rcd13ifvqgig","pricing_plan_id":"free"},{"bike_id":"c7303482-c17d-43b2-a7e0-2e7052a872dd","system_id":"levelo_inurba_marseille","lat":43.25102,"lon":5.403214,"is_reserved":false,"is_disabled":false,"rental_uris":{"android":"levelo://app?vid=c7303482-c17d-43b2-a7e0-2e7052a872dd","ios":"levelo://app?vid=c7303482-c17d-43b2-a7e0-2e7052a872dd"},"vehicle_type_id":"4","last_reported":1701983204,"current_range_meters":24000,"station_id":"ce4bhlh2rcd13ifvqgig","pricing_plan_id":"free"},{"bike_id":"6d82a544-a3b0-4d5e-a3a6-f2d5528df140","system_id":"levelo_inurba_marseille","lat":43.240623,"lon":5.377642,"is_reserved":false,"is_disabled":false,"rental_uris":{"android":"levelo://app?vid=6d82a544-a3b0-4d5e-a3a6-f2d5528df140","ios":"levelo://app?vid=6d82a544-a3b0-4d5e-a3a6-f2d5528df140"},"vehicle_type_id":"4","last_reported":1701983204,"current_range_meters":30400,"station_id":"ce4bhnp2rcd13ifvqgvg","pricing_plan_id":"free"},{"bike_id":"2f056394-a08e-4cc5-a179-5bd62c626144","system_id":"levelo_inurba_marseille","lat":43.240623,"lon":5.377642,"is_reserved":false,"is_disabled":false,"rental_uris":{"android":"levelo://app?vid=2f056394-a08e-4cc5-a179-5bd62c626144","ios":"levelo://app?vid=2f056394-a08e-4cc5-a179-5bd62c626144"},"vehicle_type_id":"4","last_reported":1701983204,"current_range_meters":11200,"station_id":"ce4bhnp2rcd13ifvqgvg","pricing_plan_id":"free"},{"bike_id":"8b59b500-ecc8-4962-8958-689a83bb1e67","system_id":"levelo_inurba_marseille","lat":43.240623,"lon":5.377642,"is_reserved":false,"is_disabled":false,"rental_uris":{"android":"levelo://app?vid=8b59b500-ecc8-4962-8958-689a83bb1e67","ios":"levelo://app?vid=8b59b500-ecc8-4962-8958-689a83bb1e67"},"vehicle_type_id":"4","last_reported":1701983204,"current_range_meters":30400,"station_id":"ce4bhnp2rcd13ifvqgvg","pricing_plan_id":"free"},{"bike_id":"7ece5855-fe49-46dd-ba3f-2d015925612a","system_id":"levelo_inurba_marseille","lat":43.239588,"lon":5.366238,"is_reserved":false,"is_disabled":false,"rental_uris":{"android":"levelo://app?vid=7ece5855-fe49-46dd-ba3f-2d015925612a","ios":"levelo://app?vid=7ece5855-fe49-46dd-ba3f-2d015925612a"},"vehicle_type_id":"4","last_reported":1701983204,"current_range_meters":30400,"station_id":"ce4bhi12rcd13ifvqfp0","pricing_plan_id":"free"},{"bike_id":"f783bc5f-fe0d-4beb-a11a-942c585a0037","system_id":"levelo_inurba_marseille","lat":43.231919,"lon":5.355532,"is_reserved":false,"is_disabled":false,"rental_uris":{"android":"levelo://app?vid=f783bc5f-fe0d-4beb-a11a-942c585a0037","ios":"levelo://app?vid=f783bc5f-fe0d-4beb-a11a-942c585a0037"},"vehicle_type_id":"4","last_reported":1701983204,"current_range_meters":400,"station_id":"ce4bhu92rcd13ifvqi70","pricing_plan_id":"free"},{"bike_id":"7fb0f437-2534-4c82-a071-a834d78df9bc","system_id":"levelo_inurba_marseille","lat":43.231919,"lon":5.355532,"is_reserved":false,"is_disabled":false,"rental_uris":{"android":"levelo://app?vid=7fb0f437-2534-4c82-a071-a834d78df9bc","ios":"levelo://app?vid=7fb0f437-2534-4c82-a071-a834d78df9bc"},"vehicle_type_id":"4","last_reported":1701983204,"current_range_meters":0,"station_id":"ce4bhu92rcd13ifvqi70","pricing_plan_id":"free"},{"bike_id":"db8ee247-5c27-465c-9667-2bac338a063a","system_id":"levelo_inurba_marseille","lat":43.231794,"lon":5.400052,"is_reserved":false,"is_disabled":false,"rental_uris":{"android":"levelo://app?vid=db8ee247-5c27-465c-9667-2bac338a063a","ios":"levelo://app?vid=db8ee247-5c27-465c-9667-2bac338a063a"},"vehicle_type_id":"4","last_reported":1701983204,"current_range_meters":20400,"station_id":"ce4bhn12rcd13ifvqgqg","pricing_plan_id":"free"},{"bike_id":"be845917-f52e-4a9f-83ff-909546a09332","system_id":"levelo_inurba_marseille","lat":43.231794,"lon":5.400052,"is_reserved":false,"is_disabled":false,"rental_uris":{"android":"levelo://app?vid=be845917-f52e-4a9f-83ff-909546a09332","ios":"levelo://app?vid=be845917-f52e-4a9f-83ff-909546a09332"},"vehicle_type_id":"4","last_reported":1701983204,"current_range_meters":31200,"station_id":"ce4bhn12rcd13ifvqgqg","pricing_plan_id":"free"},{"bike_id":"6c4620c0-0d4d-493f-9950-4fd3c4457696","system_id":"levelo_inurba_marseille","lat":43.231794,"lon":5.400052,"is_reserved":false,"is_disabled":false,"rental_uris":{"android":"levelo://app?vid=6c4620c0-0d4d-493f-9950-4fd3c4457696","ios":"levelo://app?vid=6c4620c0-0d4d-493f-9950-4fd3c4457696"},"vehicle_type_id":"4","last_reported":1701983204,"current_range_meters":31200,"station_id":"ce4bhn12rcd13ifvqgqg","pricing_plan_id":"free"},{"bike_id":"51bd0e75-103f-4c34-a127-bc9329dc93a4","system_id":"levelo_inurba_marseille","lat":43.231794,"lon":5.400052,"is_reserved":false,"is_disabled":false,"rental_uris":{"android":"levelo://app?vid=51bd0e75-103f-4c34-a127-bc9329dc93a4","ios":"levelo://app?vid=51bd0e75-103f-4c34-a127-bc9329dc93a4"},"vehicle_type_id":"4","last_reported":1701983204,"current_range_meters":15200,"station_id":"ce4bhn12rcd13ifvqgqg","pricing_plan_id":"free"}]}}