{"last_updated":1737112061,"ttl":60,"version":"2.2","data":{"bikes":[{"bike_id":"1d275ead-c126-4292-8f27-92a92b5701cb","system_id":"levelo_inurba_marseille","lat":43.29884,"lon":5.38911,"is_reserved":false,"is_disabled":false,"rental_uris":{"android":"levelo://app?vid=1d275ead-c126-4292-8f27-92a92b5701cb","ios":"levelo://app?vid=1d275ead-c126-4292-8f27-92a92b5701cb"},"vehicle_type_id":"4","last_reported":1737112062,"current_range_meters":11600,"station_id":"","pricing_plan_id":"cebpf4jnsgd1na2vs0mg"},{"bike_id":"753ccb49-949e-4f76-bbe4-861c2515eec4","system_id":"levelo_inurba_marseille","lat":43.29962,"lon":5.37444,"is_reserved":false,"is_disabled":false,"rental_uris":{"android":"levelo://app?vid=753ccb49-949e-4f76-bbe4-861c2515eec4","ios":"levelo://app?vid=753ccb49-949e-4f76-bbe4-861c2515eec4"},"vehicle_type_id":"4","last_reported":1737112062,"current_range_meters":38800,"station_id":"","pricing_plan_id":"cebpf4jnsgd1na2vs0mg"},{"bike_id":"a39c946b-f215-435b-b58f-d6dc4c7b0aaf","system_id":"levelo_inurba_marseille","lat":43.28156,"lon":5.42669,"is_reserved":false,"is_disabled":true,"rental_uris":{"android":"levelo://app?vid=a39c946b-f215-435b-b58f-d6dc4c7b0aaf","ios":"levelo://app?vid=a39c946b-f215-435b-b58f-d6dc4c7b0aaf"},"vehicle_type_id":"4","last_reported":1737112062,"current_range_meters":34800,"station_id":"ce4bhnh2rcd13ifvqgug","pricing_plan_id":"cebpf4jnsgd1na2vs0mg"},{"bike_id":"0b3db7fa-f56f-431e-9413-b99a7fab1950","system_id":"levelo_inurba_marseille","lat":43.29299,"lon":5.36834,"is_reserved":false,"is_disabled":false,"rental_uris":{"android":"levelo://app?vid=0b3db7fa-f56f-431e-9413-b99a7fab1950","ios":"levelo://app?vid=0b3db7fa-f56f-431e-9413-b99a7fab1950"},"vehicle_type_id":"4","last_reported":1737112062,"current_range_meters":34000,"station_id":"ce4bhbp2rcd13ifvqesg","pricing_plan_id":"cebpf4jnsgd1na2vs0mg"},{"bike_id":"9cd484a6-571a-43f6-b129-8cd382b9efc8","system_id":"levelo_inurba_marseille","lat":43.29593,"lon":5.38115,"is_reserved":false,"is_disabled":false,"rental_uris":{"android":"levelo://app?vid=9cd484a6-571a-43f6-b129-8cd382b9efc8","ios":"levelo://app?vid=9cd484a6-571a-43f6-b129-8cd382b9efc8"},"vehicle_type_id":"4","last_reported":1737112062,"current_range_meters":24400,"station_id":"ce4bgl12rcd13ifvqbo0","pricing_plan_id":"cebpf4jnsgd1na2vs0mg"},{"bike_id":"8c070e48-daaf-4ce9-902f-d07826ac065c","system_id":"levelo_inurba_marseille","lat":43.23957,"lon":5.36649,"is_reserved":false,"is_disabled":false,"rental_uris":{"android":"levelo://app?vid=8c070e48-daaf-4ce9-902f-d07826ac065c","ios":"levelo://app?vid=8c070e48-daaf-4ce9-902f-d07826ac065c"},"vehicle_type_id":"4","last_reported":1737112062,"current_range_meters":25200,"station_id":"ce4bhi12rcd13ifvqfp0","pricing_plan_id":"cebpf4jnsgd1na2vs0mg"},{"bike_id":"352789ba-5de3-4f6e-84a8-32c41d59996f","system_id":"levelo_inurba_marseille","lat":43.30257,"lon":5.37731,"is_reserved":false,"is_disabled":false,"rental_uris":{"android":"levelo://app?vid=352789ba-5de3-4f6e-84a8-32c41d59996f","ios":"levelo://app?vid=352789ba-5de3-4f6e-84a8-32c41d59996f"},"vehicle_type_id":"4","last_reported":1737112062,"current_range_meters":27600,"station_id":"ce4bguh2rcd13ifvqcj0","pricing_plan_id":"cebpf4jnsgd1na2vs0mg"},{"bike_id":"736aa54d-b902-4630-8a90-71e7dee03587","system_id":"levelo_inurba_marseille","lat":43.2607,"lon":5.39384,"is_reserved":false,"is_disabled":false,"rental_uris":{"android":"levelo://app?vid=736aa54d-b902-4630-8a90-71e7dee03587","ios":"levelo://app?vid=736aa54d-b902-4630-8a90-71e7dee03587"},"vehicle_type_id":"4","last_reported":1737112062,"current_range_meters":38400,"station_id":"ce4bhh92rcd13ifvqfj0","pricing_plan_id":"cebpf4jnsgd1na2vs0mg"},{"bike_id":"0d14894b-ebd8-4b52-949a-66ff8466e2de","system_id":"levelo_inurba_marseille","lat":43.30291,"lon":5.37688,"is_reserved":false,"is_disabled":false,"rental_uris":{"android":"levelo://app?vid=0d14894b-ebd8-4b52-949a-66ff8466e2de","ios":"levelo://app?vid=0d14894b-ebd8-4b52-949a-66ff8466e2de"},"vehicle_type_id":"4","last_reported":1737112062,"current_range_meters":4400,"station_id":"ce4bguh2rcd13ifvqcj0","pricing_plan_id":"cebpf4jnsgd1na2vs0mg"},{"bike_id":"2639b42c-ffb4-4688-ab74-37ab803cbe1a","system_id":"levelo_inurba_marseille","lat":43.29622,"lon":5.37178,"is_reserved":false,"is_disabled":true,"rental_uris":{"android":"levelo://app?vid=2639b42c-ffb4-4688-ab74-37ab803cbe1a","ios":"levelo://app?vid=2639b42c-ffb4-4688-ab74-37ab803cbe1a"},"vehicle_type_id":"4","last_reported":1737112062,"current_range_meters":0,"station_id":"ce4bgnh2rcd13ifvqc0g","pricing_plan_id":"cebpf4jnsgd1na2vs0mg"},{"bike_id":"9564712b-78a3-4ed3-8291-2e2ae6c0de18","system_id":"levelo_inurba_marseille","lat":43.3053,"lon":5.36562,"is_reserved":false,"is_disabled":false,"rental_uris":{"android":"levelo://app?vid=9564712b-78a3-4ed3-8291-2e2ae6c0de18","ios":"levelo://app?vid=9564712b-78a3-4ed3-8291-2e2ae6c0de18"},"vehicle_type_id":"4","last_reported":1737112062,"current_range_meters":38800,"station_id":"ce4bgs12rcd13ifvqcag","pricing_plan_id":"cebpf4jnsgd1na2vs0mg"},{"bike_id":"11a3939d-dde7-4ad2-acb8-a260992cfdaf","system_id":"levelo_inurba_marseille","lat":43.289929,"lon":5.37673,"is_reserved":false,"is_disabled":false,"rental_uris":{"android":"levelo://app?vid=11a3939d-dde7-4ad2-acb8-a260992cfdaf","ios":"levelo://app?vid=11a3939d-dde7-4ad2-acb8-a260992cfdaf"},"vehicle_type_id":"4","last_reported":1737112062,"current_range_meters":37600,"station_id":"ce4bh692rcd13ifvqe90","pricing_plan_id":"cebpf4jnsgd1na2vs0mg"},{"bike_id":"ab67834a-26d7-4518-8349-5d073114b8c1","system_id":"levelo_inurba_marseille","lat":43.30269,"lon":5.37727,"is_reserved":false,"is_disabled":false,"rental_uris":{"android":"levelo://app?vid=ab67834a-26d7-4518-8349-5d073114b8c1","ios":"levelo://app?vid=ab67834a-26d7-4518-8349-5d073114b8c1"},"vehicle_type_id":"4","last_reported":1737112062,"current_range_meters":36800,"station_id":"ce4bguh2rcd13ifvqcj0","pricing_plan_id":"cebpf4jnsgd1na2vs0mg"},{"bike_id":"7f02950a-6af8-4077-8bd4-f17cb739a40e","system_id":"levelo_inurba_marseille","lat":43.27071,"lon":5.42286,"is_reserved":false,"is_disabled":false,"rental_uris":{"android":"levelo://app?vid=7f02950a-6af8-4077-8bd4-f17cb739a40e","ios":"levelo://app?vid=7f02950a-6af8-4077-8bd4-f17cb739a40e"},"vehicle_type_id":"4","last_reported":1737112062,"current_range_meters":16800,"station_id":"ce4bhk92rcd13ifvqgb0","pricing_plan_id":"cebpf4jnsgd1na2vs0mg"},{"bike_id":"d0790979-642c-4578-9799-6dcaf9a868a4","system_id":"levelo_inurba_marseille","lat":43.30534,"lon":5.36551,"is_reserved":false,"is_disabled":false,"rental_uris":{"android":"levelo://app?vid=d0790979-642c-4578-9799-6dcaf9a868a4","ios":"levelo://app?vid=d0790979-642c-4578-9799-6dcaf9a868a4"},"vehicle_type_id":"4","last_reported":1737112062,"current_range_meters":39200,"station_id":"ce4bgs12rcd13ifvqcag","pricing_plan_id":"cebpf4jnsgd1na2vs0mg"},{"bike_id":"19287ae2-4839-465e-ae19-1c4113868c0e","system_id":"levelo_inurba_marseille","lat":43.30312,"lon":5.36902,"is_reserved":false,"is_disabled":false,"rental_uris":{"android":"levelo://app?vid=19287ae2-4839-465e-ae19-1c4113868c0e","ios":"levelo://app?vid=19287ae2-4839-465e-ae19-1c4113868c0e"},"vehicle_type_id":"4","last_reported":1737112062,"current_range_meters":38400,"station_id":"ce4bgqh2rcd13ifvqc5g","pricing_plan_id":"cebpf4jnsgd1na2vs0mg"},{"bike_id":"e173ad86-c1af-446f-b053-2c886638ed46","system_id":"levelo_inurba_marseille","lat":43.29577,"lon":5.37504,"is_reserved":false,"is_disabled":false,"rental_uris":{"android":"levelo://app?vid=e173ad86-c1af-446f-b053-2c886638ed46","ios":"levelo://app?vid=e173ad86-c1af-446f-b053-2c886638ed46"},"vehicle_type_id":"4","last_reported":1737112062,"current_range_meters":38800,"station_id":"ce4bgh92rcd13ifvqb50","pricing_plan_id":"cebpf4jnsgd1na2vs0mg"},{"bike_id":"e11e86fc-416a-4c32-a82f-baeb16ad5713","system_id":"levelo_inurba_marseille","lat":43.31698,"lon":5.37783,"is_reserved":false,"is_disabled":false,"rental_uris":{"android":"levelo://app?vid=e11e86fc-416a-4c32-a82f-baeb16ad5713","ios":"levelo://app?vid=e11e86fc-416a-4c32-a82f-baeb16ad5713"},"vehicle_type_id":"4","last_reported":1737112062,"current_range_meters":36000,"station_id":"ce4bgth2rcd13ifvqch0","pricing_plan_id":"cebpf4jnsgd1na2vs0mg"},{"bike_id":"e04049e7-2716-4433-bca0-88346a635364","system_id":"levelo_inurba_marseille","lat":43.29607,"lon":5.36704,"is_reserved":false,"is_disabled":false,"rental_uris":{"android":"levelo://app?vid=e04049e7-2716-4433-bca0-88346a635364","ios":"levelo://app?vid=e04049e7-2716-4433-bca0-88346a635364"},"vehicle_type_id":"4","last_reported":1737112062,"current_range_meters":36800,"station_id":"ce4bgph2rcd13ifvqc2g","pricing_plan_id":"cebpf4jnsgd1na2vs0mg"},{"bike_id":"cb8cebc9-4102-4146-885e-496c2e7b5594","system_id":"levelo_inurba_marseille","lat":43.26949,"lon":5.38647,"is_reserved":false,"is_disabled":false,"rental_uris":{"android":"levelo://app?vid=cb8cebc9-4102-4146-885e-496c2e7b5594","ios":"levelo://app?vid=cb8cebc9-4102-4146-885e-496c2e7b5594"},"vehicle_type_id":"4","last_reported":1737112062,"current_range_meters":38400,"station_id":"ce4bhh92rcd13ifvqfh0","pricing_plan_id":"cebpf4jnsgd1na2vs0mg"},{"bike_id":"c4fc9679-1008-473b-9e9b-26f1ed62312e","system_id":"levelo_inurba_marseille","lat":43.229334,"lon":5.353811,"is_reserved":false,"is_disabled":false,"rental_uris":{"android":"levelo://app?vid=c4fc9679-1008-473b-9e9b-26f1ed62312e","ios":"levelo://app?vid=c4fc9679-1008-473b-9e9b-26f1ed62312e"},"vehicle_type_id":"4","last_reported":1737112062,"current_range_meters":18800,"station_id":"cpo3532slgdg3j2ikp40","pricing_plan_id":"cebpf4jnsgd1na2vs0mg"},{"bike_id":"21066e24-fd5e-40c0-a82a-a1da89fbd9ff","system_id":"levelo_inurba_marseille","lat":43.30177,"lon":5.38097,"is_reserved":false,"is_disabled":false,"rental_uris":{"android":"levelo://app?vid=21066e24-fd5e-40c0-a82a-a1da89fbd9ff","ios":"levelo://app?vid=21066e24-fd5e-40c0-a82a-a1da89fbd9ff"},"vehicle_type_id":"4","last_reported":1737112062,"current_range_meters":22800,"station_id":"ce4bgjp2rcd13ifvqbh0","pricing_plan_id":"cebpf4jnsgd1na2vs0mg"},{"bike_id":"467dc20a-b0b2-4aad-bb3c-509d1e949710","system_id":"levelo_inurba_marseille","lat":43.248,"lon":5.37474,"is_reserved":false,"is_disabled":false,"rental_uris":{"android":"levelo://app?vid=467dc20a-b0b2-4aad-bb3c-509d1e949710","ios":"levelo://app?vid=467dc20a-b0b2-4aad-bb3c-509d1e949710"},"vehicle_type_id":"4","last_reported":1737112062,"current_range_meters":38800,"station_id":"ce4bhgh2rcd13ifvqfb0","pricing_plan_id":"cebpf4jnsgd1na2vs0mg"},{"bike_id":"7bff6b70-c347-452a-86fc-ce3998f9f599","system_id":"levelo_inurba_marseille","lat":43.24084,"lon":5.37742,"is_reserved":false,"is_disabled":false,"rental_uris":{"android":"levelo://app?vid=7bff6b70-c347-452a-86fc-ce3998f9f599","ios":"levelo://app?vid=7bff6b70-c347-452a-86fc-ce3998f9f599"},"vehicle_type_id":"4","last_reported":1737112062,"current_range_meters":27200,"station_id":"ce4bhnp2rcd13ifvqgvg","pricing_plan_id":"cebpf4jnsgd1na2vs0mg"},{"bike_id":"ec6877df-36dc-4fd2-8ca4-3265025043a7","system_id":"levelo_inurba_marseille","lat":43.304252,"lon":5.388949,"is_reserved":false,"is_disabled":false,"rental_uris":{"android":"levelo://app?vid=ec6877df-36dc-4fd2-8ca4-3265025043a7","ios":"levelo://app?vid=ec6877df-36dc-4fd2-8ca4-3265025043a7"},"vehicle_type_id":"4","last_reported":1737112062,"current_range_meters":12000,"station_id":"ce4bgk12rcd13ifvqbi0","pricing_plan_id":"cebpf4jnsgd1na2vs0mg"},{"bike_id":"66065961-8f66-46c8-be70-f9092a8345b6","system_id":"levelo_inurba_marseille","lat":43.29108,"lon":5.38133,"is_reserved":false,"is_disabled":false,"rental_uris":{"android":"levelo://app?vid=66065961-8f66-46c8-be70-f9092a8345b6","ios":"levelo://app?vid=66065961-8f66-46c8-be70-f9092a8345b6"},"vehicle_type_id":"4","last_reported":1737112062,"current_range_meters":36400,"station_id":"ce4bh512rcd13ifvqe2g","pricing_plan_id":"cebpf4jnsgd1na2vs0mg"},{"bike_id":"dcff9f91-1e7c-4a39-9b46-2e878c5e1c72","system_id":"levelo_inurba_marseille","lat":43.31492,"lon":5.37303,"is_reserved":false,"is_disabled":false,"rental_uris":{"android":"levelo://app?vid=dcff9f91-1e7c-4a39-9b46-2e878c5e1c72","ios":"levelo://app?vid=dcff9f91-1e7c-4a39-9b46-2e878c5e1c72"},"vehicle_type_id":"4","last_reported":1737112062,"current_range_meters":28800,"station_id":"ce4bgt12rcd13ifvqcd0","pricing_plan_id":"cebpf4jnsgd1na2vs0mg"},{"bike_id":"6d6b3b35-4173-402b-b797-6b1827f09a66","system_id":"levelo_inurba_marseille","lat":43.30156,"lon":5.37448,"is_reserved":false,"is_disabled":false,"rental_uris":{"android":"levelo://app?vid=6d6b3b35-4173-402b-b797-6b1827f09a66","ios":"levelo://app?vid=6d6b3b35-4173-402b-b797-6b1827f09a66"},"vehicle_type_id":"4","last_reported":1737112062,"current_range_meters":35600,"station_id":"ce4bgs92rcd13ifvqcc0","pricing_plan_id":"cebpf4jnsgd1na2vs0mg"},{"bike_id":"c7642151-a61c-450e-8a20-890fa2e4b812","system_id":"levelo_inurba_marseille","lat":43.309503,"lon":5.390295,"is_reserved":false,"is_disabled":false,"rental_uris":{"android":"levelo://app?vid=c7642151-a61c-450e-8a20-890fa2e4b812","ios":"levelo://app?vid=c7642151-a61c-450e-8a20-890fa2e4b812"},"vehicle_type_id":"4","last_reported":1737112062,"current_range_meters":12800,"station_id":"ce4bgup2rcd13ifvqco0","pricing_plan_id":"cebpf4jnsgd1na2vs0mg"},{"bike_id":"66ec8711-3dbc-48f7-b091-25773ac6b77c","system_id":"levelo_inurba_marseille","lat":43.28138,"lon":5.44215,"is_reserved":false,"is_disabled":true,"rental_uris":{"android":"levelo://app?vid=66ec8711-3dbc-48f7-b091-25773ac6b77c","ios":"levelo://app?vid=66ec8711-3dbc-48f7-b091-25773ac6b77c"},"vehicle_type_id":"4","last_reported":1737112062,"current_range_meters":0,"station_id":"","pricing_plan_id":"cebpf4jnsgd1na2vs0mg"},{"bike_id":"7e25d448-626b-4f11-934a-f8911b1b0c6c","system_id":"levelo_inurba_marseille","lat":43.25103,"lon":5.40353,"is_reserved":false,"is_disabled":false,"rental_uris":{"android":"levelo://app?vid=7e25d448-626b-4f11-934a-f8911b1b0c6c","ios":"levelo://app?vid=7e25d448-626b-4f11-934a-f8911b1b0c6c"},"vehicle_type_id":"4","last_reported":1737112062,"current_range_meters":37600,"station_id":"ce4bhlh2rcd13ifvqgig","pricing_plan_id":"cebpf4jnsgd1na2vs0mg"},{"bike_id":"d185996c-e9f6-41dd-8dd9-81acc7e1c6b3","system_id":"levelo_inurba_marseille","lat":43.26928,"lon":5.3892,"is_reserved":false,"is_disabled":false,"rental_uris":{"android":"levelo://app?vid=d185996c-e9f6-41dd-8dd9-81acc7e1c6b3","ios":"levelo://app?vid=d185996c-e9f6-41dd-8dd9-81acc7e1c6b3"},"vehicle_type_id":"4","last_reported":1737112062,"current_range_meters":38800,"station_id":"ce4bhhh2rcd13ifvqfl0","pricing_plan_id":"cebpf4jnsgd1na2vs0mg"},{"bike_id":"b72e0304-78d8-47af-82a2-0e064833a1dd","system_id":"levelo_inurba_marseille","lat":43.25828,"lon":5.39441,"is_reserved":false,"is_disabled":false,"rental_uris":{"android":"levelo://app?vid=b72e0304-78d8-47af-82a2-0e064833a1dd","ios":"levelo://app?vid=b72e0304-78d8-47af-82a2-0e064833a1dd"},"vehicle_type_id":"4","last_reported":1737112062,"current_range_meters":36400,"station_id":"ce4bhip2rcd13ifvqft0","pricing_plan_id":"cebpf4jnsgd1na2vs0mg"},{"bike_id":"e94f5751-3760-4f03-84d5-5ceb919334c8","system_id":"levelo_inurba_marseille","lat":43.25116,"lon":5.4033,"is_reserved":false,"is_disabled":false,"rental_uris":{"android":"levelo://app?vid=e94f5751-3760-4f03-84d5-5ceb919334c8","ios":"levelo://app?vid=e94f5751-3760-4f03-84d5-5ceb919334c8"},"vehicle_type_id":"4","last_reported":1737112062,"current_range_meters":14800,"station_id":"ce4bhlh2rcd13ifvqgig","pricing_plan_id":"cebpf4jnsgd1na2vs0mg"},{"bike_id":"954b17d3-0d50-4d1d-9755-857bdc284020","system_id":"levelo_inurba_marseille","lat":43.28161,"lon":5.42628,"is_reserved":false,"is_disabled":false,"rental_uris":{"android":"levelo://app?vid=954b17d3-0d50-4d1d-9755-857bdc284020","ios":"levelo://app?vid=954b17d3-0d50-4d1d-9755-857bdc284020"},"vehicle_type_id":"4","last_reported":1737112062,"current_range_meters":28000,"station_id":"ce4bhnh2rcd13ifvqgug","pricing_plan_id":"cebpf4jnsgd1na2vs0mg"},{"bike_id":"0321cd6b-aaff-46d7-aacd-a1fa403e5c50","system_id":"levelo_inurba_marseille","lat":43.33109,"lon":5.38213,"is_reserved":false,"is_disabled":true,"rental_uris":{"android":"levelo://app?vid=0321cd6b-aaff-46d7-aacd-a1fa403e5c50","ios":"levelo://app?vid=0321cd6b-aaff-46d7-aacd-a1fa403e5c50"},"vehicle_type_id":"4","last_reported":1737112062,"current_range_meters":2000,"station_id":"","pricing_plan_id":"cebpf4jnsgd1na2vs0mg"},{"bike_id":"91900ac4-47c8-4400-a455-eba2ccf2e7e7","system_id":"levelo_inurba_marseille","lat":43.29634,"lon":5.37147,"is_reserved":false,"is_disabled":false,"rental_uris":{"android":"levelo://app?vid=91900ac4-47c8-4400-a455-eba2ccf2e7e7","ios":"levelo://app?vid=91900ac4-47c8-4400-a455-eba2ccf2e7e7"},"vehicle_type_id":"4","last_reported":1737112062,"current_range_meters":39200,"station_id":"ce4bgnh2rcd13ifvqc0g","pricing_plan_id":"cebpf4jnsgd1na2vs0mg"},{"bike_id":"569f3824-2521-4c24-85a1-4ab6d6b08add","system_id":"levelo_inurba_marseille","lat":43.29542,"lon":5.37499,"is_reserved":false,"is_disabled":false,"rental_uris":{"android":"levelo://app?vid=569f3824-2521-4c24-85a1-4ab6d6b08add","ios":"levelo://app?vid=569f3824-2521-4c24-85a1-4ab6d6b08add"},"vehicle_type_id":"4","last_reported":1737112062,"current_range_meters":8000,"station_id":"ce4bgkp2rcd13ifvqbmg","pricing_plan_id":"cebpf4jnsgd1na2vs0mg"},{"bike_id":"634ec66c-ba09-421f-9d11-ca039f5ee7c0","system_id":"levelo_inurba_marseille","lat":43.24662,"lon":5.38172,"is_reserved":false,"is_disabled":false,"rental_uris":{"android":"levelo://app?vid=634ec66c-ba09-421f-9d11-ca039f5ee7c0","ios":"levelo://app?vid=634ec66c-ba09-421f-9d11-ca039f5ee7c0"},"vehicle_type_id":"4","last_reported":1737112062,"current_range_meters":13600,"station_id":"ce4bhih2rcd13ifvqfr0","pricing_plan_id":"cebpf4jnsgd1na2vs0mg"},{"bike_id":"4d21a537-3816-432c-8aec-6acfffac2e27","system_id":"levelo_inurba_marseille","lat":43.31892,"lon":5.40725,"is_reserved":false,"is_disabled":false,"rental_uris":{"android":"levelo://app?vid=4d21a537-3816-432c-8aec-6acfffac2e27","ios":"levelo://app?vid=4d21a537-3816-432c-8aec-6acfffac2e27"},"vehicle_type_id":"4","last_reported":1737112062,"current_range_meters":36800,"station_id":"ce4bhq12rcd13ifvqhig","pricing_plan_id":"cebpf4jnsgd1na2vs0mg"},{"bike_id":"fa53afd0-c3c0-46c2-be7e-d056eb14f6b8","system_id":"levelo_inurba_marseille","lat":43.26067,"lon":5.39418,"is_reserved":false,"is_disabled":false,"rental_uris":{"android":"levelo://app?vid=fa53afd0-c3c0-46c2-be7e-d056eb14f6b8","ios":"levelo://app?vid=fa53afd0-c3c0-46c2-be7e-d056eb14f6b8"},"vehicle_type_id":"4","last_reported":1737112062,"current_range_meters":36800,"station_id":"ce4bhh92rcd13ifvqfj0","pricing_plan_id":"cebpf4jnsgd1na2vs0mg"},{"bike_id":"a504e3e9-d965-42b1-a0b3-e500ac85b333","system_id":"levelo_inurba_marseille","lat":43.3031,"lon":5.36911,"is_reserved":false,"is_disabled":false,"rental_uris":{"android":"levelo://app?vid=a504e3e9-d965-42b1-a0b3-e500ac85b333","ios":"levelo://app?vid=a504e3e9-d965-42b1-a0b3-e500ac85b333"},"vehicle_type_id":"4","last_reported":1737112062,"current_range_meters":38800,"station_id":"ce4bgqh2rcd13ifvqc5g","pricing_plan_id":"cebpf4jnsgd1na2vs0mg"},{"bike_id":"4f37ba27-94af-469b-96f7-4e677c5b4155","system_id":"levelo_inurba_marseille","lat":43.23158,"lon":5.4371,"is_reserved":false,"is_disabled":false,"rental_uris":{"android":"levelo://app?vid=4f37ba27-94af-469b-96f7-4e677c5b4155","ios":"levelo://app?vid=4f37ba27-94af-469b-96f7-4e677c5b4155"},"vehicle_type_id":"4","last_reported":1737112062,"current_range_meters":18800,"station_id":"ce4bhmp2rcd13ifvqgog","pricing_plan_id":"cebpf4jnsgd1na2vs0mg"},{"bike_id":"93d53f3f-f0c2-4dd4-80be-9e71a4ab75a4","system_id":"levelo_inurba_marseille","lat":43.29162,"lon":5.37164,"is_reserved":false,"is_disabled":false,"rental_uris":{"android":"levelo://app?vid=93d53f3f-f0c2-4dd4-80be-9e71a4ab75a4","ios":"levelo://app?vid=93d53f3f-f0c2-4dd4-80be-9e71a4ab75a4"},"vehicle_type_id":"4","last_reported":1737112062,"current_range_meters":32800,"station_id":"ce4bha92rcd13ifvqeh0","pricing_plan_id":"cebpf4jnsgd1na2vs0mg"},{"bike_id":"803e86d9-31e4-4efb-a994-0ceae05734e3","system_id":"levelo_inurba_marseille","lat":43.29715,"lon":5.37702,"is_reserved":false,"is_disabled":false,"rental_uris":{"android":"levelo://app?vid=803e86d9-31e4-4efb-a994-0ceae05734e3","ios":"levelo://app?vid=803e86d9-31e4-4efb-a994-0ceae05734e3"},"vehicle_type_id":"4","last_reported":1737112062,"current_range_meters":22800,"station_id":"ce4bgkh2rcd13ifvqbl0","pricing_plan_id":"cebpf4jnsgd1na2vs0mg"},{"bike_id":"c2cfe7ed-6f5d-483c-9df9-dab23b34d5e6","system_id":"levelo_inurba_marseille","lat":43.2847,"lon":5.38551,"is_reserved":false,"is_disabled":false,"rental_uris":{"android":"levelo://app?vid=c2cfe7ed-6f5d-483c-9df9-dab23b34d5e6","ios":"levelo://app?vid=c2cfe7ed-6f5d-483c-9df9-dab23b34d5e6"},"vehicle_type_id":"4","last_reported":1737112062,"current_range_meters":22400,"station_id":"ce4bh8p2rcd13ifvqeb0","pricing_plan_id":"cebpf4jnsgd1na2vs0mg"},{"bike_id":"2f5d5213-6da7-4219-9896-e576b8f889e5","system_id":"levelo_inurba_marseille","lat":43.29263,"lon":5.40907,"is_reserved":false,"is_disabled":false,"rental_uris":{"android":"levelo://app?vid=2f5d5213-6da7-4219-9896-e576b8f889e5","ios":"levelo://app?vid=2f5d5213-6da7-4219-9896-e576b8f889e5"},"vehicle_type_id":"4","last_reported":1737112062,"current_range_meters":39200,"station_id":"ce4bh192rcd13ifvqdc0","pricing_plan_id":"cebpf4jnsgd1na2vs0mg"},{"bike_id":"329b9334-6365-4b2b-9474-77fcac2432ee","system_id":"levelo_inurba_marseille","lat":43.2396,"lon":5.36639,"is_reserved":false,"is_disabled":false,"rental_uris":{"android":"levelo://app?vid=329b9334-6365-4b2b-9474-77fcac2432ee","ios":"levelo://app?vid=329b9334-6365-4b2b-9474-77fcac2432ee"},"vehicle_type_id":"4","last_reported":1737112062,"current_range_meters":38800,"station_id":"ce4bhi12rcd13ifvqfp0","pricing_plan_id":"cebpf4jnsgd1na2vs0mg"},{"bike_id":"1830f3d1-7612-4783-8c78-d817c5ae22bc","system_id":"levelo_inurba_marseille","lat":43.300888,"lon":5.390808,"is_reserved":false,"is_disabled":true,"rental_uris":{"android":"levelo://app?vid=1830f3d1-7612-4783-8c78-d817c5ae22bc","ios":"levelo://app?vid=1830f3d1-7612-4783-8c78-d817c5ae22bc"},"vehicle_type_id":"4","last_reported":1737112062,"current_range_meters":35200,"station_id":"ce4bh192rcd13ifvqdb0","pricing_plan_id":"cebpf4jnsgd1na2vs0mg"},{"bike_id":"b48c49f1-9ada-4cbd-9e46-cdd0bbe2cc90","system_id":"levelo_inurba_marseille","lat":43.293167,"lon":5.371403,"is_reserved":false,"is_disabled":false,"rental_uris":{"android":"levelo://app?vid=b48c49f1-9ada-4cbd-9e46-cdd0bbe2cc90","ios":"levelo://app?vid=b48c49f1-9ada-4cbd-9e46-cdd0bbe2cc90"},"vehicle_type_id":"4","last_reported":1737112062,"current_range_meters":39200,"station_id":"ce4bgh92rcd13ifvqb40","pricing_plan_id":"cebpf4jnsgd1na2vs0mg"},{"bike_id":"f835befa-e0c4-4cbe-a2f0-932b8650c0b0","system_id":"levelo_inurba_marseille","lat":43.23194,"lon":5.39982,"is_reserved":false,"is_disabled":false,"rental_uris":{"android":"levelo://app?vid=f835befa-e0c4-4cbe-a2f0-932b8650c0b0","ios":"levelo://app?vid=f835befa-e0c4-4cbe-a2f0-932b8650c0b0"},"vehicle_type_id":"4","last_reported":1737112062,"current_range_meters":12400,"station_id":"ce4bhn12rcd13ifvqgqg","pricing_plan_id":"cebpf4jnsgd1na2vs0mg"},{"bike_id":"6ea4d259-06b8-4e0f-9494-4eae2040b46d","system_id":"levelo_inurba_marseille","lat":43.24193,"lon":5.39709,"is_reserved":false,"is_disabled":false,"rental_uris":{"android":"levelo://app?vid=6ea4d259-06b8-4e0f-9494-4eae2040b46d","ios":"levelo://app?vid=6ea4d259-06b8-4e0f-9494-4eae2040b46d"},"vehicle_type_id":"4","last_reported":1737112062,"current_range_meters":28400,"station_id":"ce4bhn12rcd13ifvqgpg","pricing_plan_id":"cebpf4jnsgd1na2vs0mg"},{"bike_id":"c49a4f06-7fab-49bc-bf3e-9f1be9a41d14","system_id":"levelo_inurba_marseille","lat":43.28719,"lon":5.37391,"is_reserved":false,"is_disabled":false,"rental_uris":{"android":"levelo://app?vid=c49a4f06-7fab-49bc-bf3e-9f1be9a41d14","ios":"levelo://app?vid=c49a4f06-7fab-49bc-bf3e-9f1be9a41d14"},"vehicle_type_id":"4","last_reported":1737112062,"current_range_meters":18800,"station_id":"ce4bgh92rcd13ifvqb50","pricing_plan_id":"cebpf4jnsgd1na2vs0mg"},{"bike_id":"811a1ec0-366e-4fd8-8f3c-3e594a31f929","system_id":"levelo_inurba_marseille","lat":43.25566,"lon":5.3824,"is_reserved":false,"is_disabled":false,"rental_uris":{"android":"levelo://app?vid=811a1ec0-366e-4fd8-8f3c-3e594a31f929","ios":"levelo://app?vid=811a1ec0-366e-4fd8-8f3c-3e594a31f929"},"vehicle_type_id":"4","last_reported":1737112062,"current_range_meters":34000,"station_id":"ce4bhih2rcd13ifvqfs0","pricing_plan_id":"cebpf4jnsgd1na2vs0mg"},{"bike_id":"2c839bfc-228b-4afd-9c45-0e54b8f36672","system_id":"levelo_inurba_marseille","lat":43.24653,"lon":5.38896,"is_reserved":false,"is_disabled":false,"rental_uris":{"android":"levelo://app?vid=2c839bfc-228b-4afd-9c45-0e54b8f36672","ios":"levelo://app?vid=2c839bfc-228b-4afd-9c45-0e54b8f36672"},"vehicle_type_id":"4","last_reported":1737112062,"current_range_meters":39200,"station_id":"ce4bhg12rcd13ifvqf60","pricing_plan_id":"cebpf4jnsgd1na2vs0mg"},{"bike_id":"e6915077-fb53-4b1b-a9cd-4a44c36039f8","system_id":"levelo_inurba_marseille","lat":43.29807,"lon":5.38094,"is_reserved":false,"is_disabled":false,"rental_uris":{"android":"levelo://app?vid=e6915077-fb53-4b1b-a9cd-4a44c36039f8","ios":"levelo://app?vid=e6915077-fb53-4b1b-a9cd-4a44c36039f8"},"vehicle_type_id":"4","last_reported":1737112062,"current_range_meters":7200,"station_id":"ce4bgip2rcd13ifvqbb0","pricing_plan_id":"cebpf4jnsgd1na2vs0mg"},{"bike_id":"8d27bf26-c6df-4bb5-95e0-568b98a6ece5","system_id":"levelo_inurba_marseille","lat":43.29001,"lon":5.35629,"is_reserved":false,"is_disabled":false,"rental_uris":{"android":"levelo://app?vid=8d27bf26-c6df-4bb5-95e0-568b98a6ece5","ios":"levelo://app?vid=8d27bf26-c6df-4bb5-95e0-568b98a6ece5"},"vehicle_type_id":"4","last_reported":1737112062,"current_range_meters":30000,"station_id":"ce4bhb92rcd13ifvqen0","pricing_plan_id":"cebpf4jnsgd1na2vs0mg"},{"bike_id":"12262e51-19bb-4897-ab6c-02d967989cde","system_id":"levelo_inurba_marseille","lat":43.29004,"lon":5.38156,"is_reserved":false,"is_disabled":false,"rental_uris":{"android":"levelo://app?vid=12262e51-19bb-4897-ab6c-02d967989cde","ios":"levelo://app?vid=12262e51-19bb-4897-ab6c-02d967989cde"},"vehicle_type_id":"4","last_reported":1737112062,"current_range_meters":11600,"station_id":"ce4bh4p2rcd13ifvqe1g","pricing_plan_id":"cebpf4jnsgd1na2vs0mg"},{"bike_id":"357eaeda-fef2-41f2-9ad0-621ae2cc5c09","system_id":"levelo_inurba_marseille","lat":43.337504,"lon":5.374988,"is_reserved":false,"is_disabled":false,"rental_uris":{"android":"levelo://app?vid=357eaeda-fef2-41f2-9ad0-621ae2cc5c09","ios":"levelo://app?vid=357eaeda-fef2-41f2-9ad0-621ae2cc5c09"},"vehicle_type_id":"4","last_reported":1737112062,"current_range_meters":36000,"station_id":"","pricing_plan_id":"cebpf4jnsgd1na2vs0mg"},{"bike_id":"6d87274a-c28f-4ffd-a6b7-27865a460fe2","system_id":"levelo_inurba_marseille","lat":43.2606,"lon":5.39398,"is_reserved":false,"is_disabled":false,"rental_uris":{"android":"levelo://app?vid=6d87274a-c28f-4ffd-a6b7-27865a460fe2","ios":"levelo://app?vid=6d87274a-c28f-4ffd-a6b7-27865a460fe2"},"vehicle_type_id":"4","last_reported":1737112062,"current_range_meters":20000,"station_id":"ce4bhh92rcd13ifvqfj0","pricing_plan_id":"cebpf4jnsgd1na2vs0mg"},{"bike_id":"70fb98aa-b3af-48fc-9c43-eea462d0d885","system_id":"levelo_inurba_marseille","lat":43.27808,"lon":5.40714,"is_reserved":false,"is_disabled":false,"rental_uris":{"android":"levelo://app?vid=70fb98aa-b3af-48fc-9c43-eea462d0d885","ios":"levelo://app?vid=70fb98aa-b3af-48fc-9c43-eea462d0d885"},"vehicle_type_id":"4","last_reported":1737112062,"current_range_meters":33200,"station_id":"ce4bhnh2rcd13ifvqgtg","pricing_plan_id":"cebpf4jnsgd1na2vs0mg"},{"bike_id":"7c7fb340-91d3-481f-bef7-3c012bdf7da2","system_id":"levelo_inurba_marseille","lat":43.27997,"lon":5.41669,"is_reserved":false,"is_disabled":false,"rental_uris":{"android":"levelo://app?vid=7c7fb340-91d3-481f-bef7-3c012bdf7da2","ios":"levelo://app?vid=7c7fb340-91d3-481f-bef7-3c012bdf7da2"},"vehicle_type_id":"4","last_reported":1737112062,"current_range_meters":36400,"station_id":"ce4bho12rcd13ifvqh1g","pricing_plan_id":"cebpf4jnsgd1na2vs0mg"},{"bike_id":"beb934a8-669e-45c0-a57b-432659c27ac4","system_id":"levelo_inurba_marseille","lat":43.34309,"lon":5.38446,"is_reserved":false,"is_disabled":false,"rental_uris":{"android":"levelo://app?vid=beb934a8-669e-45c0-a57b-432659c27ac4","ios":"levelo://app?vid=beb934a8-669e-45c0-a57b-432659c27ac4"},"vehicle_type_id":"4","last_reported":1737112062,"current_range_meters":9600,"station_id":"","pricing_plan_id":"cebpf4jnsgd1na2vs0mg"},{"bike_id":"5b7822c6-372e-48ea-9e0b-b374bb453852","system_id":"levelo_inurba_marseille","lat":43.29527,"lon":5.37508,"is_reserved":false,"is_disabled":false,"rental_uris":{"android":"levelo://app?vid=5b7822c6-372e-48ea-9e0b-b374bb453852","ios":"levelo://app?vid=5b7822c6-372e-48ea-9e0b-b374bb453852"},"vehicle_type_id":"4","last_reported":1737112062,"current_range_meters":22400,"station_id":"ce4bgkp2rcd13ifvqbmg","pricing_plan_id":"cebpf4jnsgd1na2vs0mg"},{"bike_id":"726d4d95-3596-4dcd-a0ae-7ee43e499334","system_id":"levelo_inurba_marseille","lat":43.25881,"lon":5.40978,"is_reserved":false,"is_disabled":false,"rental_uris":{"android":"levelo://app?vid=726d4d95-3596-4dcd-a0ae-7ee43e499334","ios":"levelo://app?vid=726d4d95-3596-4dcd-a0ae-7ee43e499334"},"vehicle_type_id":"4","last_reported":1737112062,"current_range_meters":16400,"station_id":"","pricing_plan_id":"cebpf4jnsgd1na2vs0mg"},{"bike_id":"0f736ebc-b87e-42e4-bd96-a6e49d99dc0b","system_id":"levelo_inurba_marseille","lat":43.29294,"lon":5.36844,"is_reserved":false,"is_disabled":false,"rental_uris":{"android":"levelo://app?vid=0f736ebc-b87e-42e4-bd96-a6e49d99dc0b","ios":"levelo://app?vid=0f736ebc-b87e-42e4-bd96-a6e49d99dc0b"},"vehicle_type_id":"4","last_reported":1737112062,"current_range_meters":38800,"station_id":"ce4bhbp2rcd13ifvqesg","pricing_plan_id":"cebpf4jnsgd1na2vs0mg"},{"bike_id":"56d903d3-545c-41d1-a518-f818e560d9df","system_id":"levelo_inurba_marseille","lat":43.25083,"lon":5.39533,"is_reserved":false,"is_disabled":false,"rental_uris":{"android":"levelo://app?vid=56d903d3-545c-41d1-a518-f818e560d9df","ios":"levelo://app?vid=56d903d3-545c-41d1-a518-f818e560d9df"},"vehicle_type_id":"4","last_reported":1737112062,"current_range_meters":38800,"station_id":"ce4bhm12rcd13ifvqgkg","pricing_plan_id":"cebpf4jnsgd1na2vs0mg"},{"bike_id":"94688445-fffa-45d6-a9e0-7a288617c48e","system_id":"levelo_inurba_marseille","lat":43.30111,"lon":5.37435,"is_reserved":false,"is_disabled":false,"rental_uris":{"android":"levelo://app?vid=94688445-fffa-45d6-a9e0-7a288617c48e","ios":"levelo://app?vid=94688445-fffa-45d6-a9e0-7a288617c48e"},"vehicle_type_id":"4","last_reported":1737112062,"current_range_meters":38000,"station_id":"ce4bgs92rcd13ifvqcc0","pricing_plan_id":"cebpf4jnsgd1na2vs0mg"},{"bike_id":"9be957d2-26d1-49a4-9f85-b06ee3432064","system_id":"levelo_inurba_marseille","lat":43.337396,"lon":5.392092,"is_reserved":false,"is_disabled":false,"rental_uris":{"android":"levelo://app?vid=9be957d2-26d1-49a4-9f85-b06ee3432064","ios":"levelo://app?vid=9be957d2-26d1-49a4-9f85-b06ee3432064"},"vehicle_type_id":"4","last_reported":1737112062,"current_range_meters":30400,"station_id":"ce4bhr92rcd13ifvqhsg","pricing_plan_id":"cebpf4jnsgd1na2vs0mg"},{"bike_id":"38be1b2a-968d-40a2-a170-de6b0175bb31","system_id":"levelo_inurba_marseille","lat":43.3054,"lon":5.36537,"is_reserved":false,"is_disabled":false,"rental_uris":{"android":"levelo://app?vid=38be1b2a-968d-40a2-a170-de6b0175bb31","ios":"levelo://app?vid=38be1b2a-968d-40a2-a170-de6b0175bb31"},"vehicle_type_id":"4","last_reported":1737112062,"current_range_meters":36800,"station_id":"ce4bgs12rcd13ifvqcag","pricing_plan_id":"cebpf4jnsgd1na2vs0mg"},{"bike_id":"86351f2e-f883-4956-a76d-cac1d1a7979d","system_id":"levelo_inurba_marseille","lat":43.32537,"lon":5.41439,"is_reserved":false,"is_disabled":false,"rental_uris":{"android":"levelo://app?vid=86351f2e-f883-4956-a76d-cac1d1a7979d","ios":"levelo://app?vid=86351f2e-f883-4956-a76d-cac1d1a7979d"},"vehicle_type_id":"4","last_reported":1737112062,"current_range_meters":38800,"station_id":"ce4bhq12rcd13ifvqhhg","pricing_plan_id":"cebpf4jnsgd1na2vs0mg"},{"bike_id":"83c8d078-ef35-4953-badf-b92a41702d66","system_id":"levelo_inurba_marseille","lat":43.2941,"lon":5.38624,"is_reserved":false,"is_disabled":true,"rental_uris":{"android":"levelo://app?vid=83c8d078-ef35-4953-badf-b92a41702d66","ios":"levelo://app?vid=83c8d078-ef35-4953-badf-b92a41702d66"},"vehicle_type_id":"4","last_reported":1737112062,"current_range_meters":0,"station_id":"ce4bh2h2rcd13ifvqdh0","pricing_plan_id":"cebpf4jnsgd1na2vs0mg"},{"bike_id":"4a4bdb5d-7f2d-4b22-a0dd-b6ee22b2db6e","system_id":"levelo_inurba_marseille","lat":43.25093,"lon":5.39532,"is_reserved":false,"is_disabled":false,"rental_uris":{"android":"levelo://app?vid=4a4bdb5d-7f2d-4b22-a0dd-b6ee22b2db6e","ios":"levelo://app?vid=4a4bdb5d-7f2d-4b22-a0dd-b6ee22b2db6e"},"vehicle_type_id":"4","last_reported":1737112062,"current_range_meters":37600,"station_id":"ce4bhm12rcd13ifvqgkg","pricing_plan_id":"cebpf4jnsgd1na2vs0mg"},{"bike_id":"58e9702f-1964-4e54-97d7-4593d108e9a2","system_id":"levelo_inurba_marseille","lat":43.29572,"lon":5.37527,"is_reserved":false,"is_disabled":false,"rental_uris":{"android":"levelo://app?vid=58e9702f-1964-4e54-97d7-4593d108e9a2","ios":"levelo://app?vid=58e9702f-1964-4e54-97d7-4593d108e9a2"},"vehicle_type_id":"4","last_reported":1737112062,"current_range_meters":20000,"station_id":"ce4bgh92rcd13ifvqb50","pricing_plan_id":"cebpf4jnsgd1na2vs0mg"},{"bike_id":"6691d7b5-893f-49fd-babf-60f7317b3915","system_id":"levelo_inurba_marseille","lat":43.31891,"lon":5.40749,"is_reserved":false,"is_disabled":false,"rental_uris":{"android":"levelo://app?vid=6691d7b5-893f-49fd-babf-60f7317b3915","ios":"levelo://app?vid=6691d7b5-893f-49fd-babf-60f7317b3915"},"vehicle_type_id":"4","last_reported":1737112062,"current_range_meters":33600,"station_id":"ce4bhq12rcd13ifvqhig","pricing_plan_id":"cebpf4jnsgd1na2vs0mg"},{"bike_id":"7e385e98-d46e-43ac-9c9e-e733b9952f32","system_id":"levelo_inurba_marseille","lat":43.29242,"lon":5.38453,"is_reserved":false,"is_disabled":false,"rental_uris":{"android":"levelo://app?vid=7e385e98-d46e-43ac-9c9e-e733b9952f32","ios":"levelo://app?vid=7e385e98-d46e-43ac-9c9e-e733b9952f32"},"vehicle_type_id":"4","last_reported":1737112062,"current_range_meters":38800,"station_id":"ce4bh692rcd13ifvqea0","pricing_plan_id":"cebpf4jnsgd1na2vs0mg"},{"bike_id":"2f3b82ec-c7a6-4384-9798-4ccc92cf585a","system_id":"levelo_inurba_marseille","lat":43.26198,"lon":5.37453,"is_reserved":false,"is_disabled":false,"rental_uris":{"android":"levelo://app?vid=2f3b82ec-c7a6-4384-9798-4ccc92cf585a","ios":"levelo://app?vid=2f3b82ec-c7a6-4384-9798-4ccc92cf585a"},"vehicle_type_id":"4","last_reported":1737112062,"current_range_meters":36400,"station_id":"ce4bhgp2rcd13ifvqfc0","pricing_plan_id":"cebpf4jnsgd1na2vs0mg"},{"bike_id":"d0c788a8-e805-4e1c-a960-f2126cb17a82","system_id":"levelo_inurba_marseille","lat":43.29889,"lon":5.38885,"is_reserved":false,"is_disabled":false,"rental_uris":{"android":"levelo://app?vid=d0c788a8-e805-4e1c-a960-f2126cb17a82","ios":"levelo://app?vid=d0c788a8-e805-4e1c-a960-f2126cb17a82"},"vehicle_type_id":"4","last_reported":1737112062,"current_range_meters":17600,"station_id":"ce4bh392rcd13ifvqdl0","pricing_plan_id":"cebpf4jnsgd1na2vs0mg"},{"bike_id":"1119e8d2-b9d1-415d-b182-b6d8d878b965","system_id":"levelo_inurba_marseille","lat":43.2958,"lon":5.3752,"is_reserved":false,"is_disabled":false,"rental_uris":{"android":"levelo://app?vid=1119e8d2-b9d1-415d-b182-b6d8d878b965","ios":"levelo://app?vid=1119e8d2-b9d1-415d-b182-b6d8d878b965"},"vehicle_type_id":"4","last_reported":1737112062,"current_range_meters":21600,"station_id":"ce4bgh92rcd13ifvqb50","pricing_plan_id":"cebpf4jnsgd1na2vs0mg"},{"bike_id":"4128252e-193e-4933-b6f5-15126546e92d","system_id":"levelo_inurba_marseille","lat":43.27811,"lon":5.4072,"is_reserved":false,"is_disabled":false,"rental_uris":{"android":"levelo://app?vid=4128252e-193e-4933-b6f5-15126546e92d","ios":"levelo://app?vid=4128252e-193e-4933-b6f5-15126546e92d"},"vehicle_type_id":"4","last_reported":1737112062,"current_range_meters":34000,"station_id":"ce4bhnh2rcd13ifvqgtg","pricing_plan_id":"cebpf4jnsgd1na2vs0mg"},{"bike_id":"ceaa1458-83a9-43c8-aed6-e72ea07fb43a","system_id":"levelo_inurba_marseille","lat":43.315659,"lon":5.389165,"is_reserved":false,"is_disabled":false,"rental_uris":{"android":"levelo://app?vid=ceaa1458-83a9-43c8-aed6-e72ea07fb43a","ios":"levelo://app?vid=ceaa1458-83a9-43c8-aed6-e72ea07fb43a"},"vehicle_type_id":"4","last_reported":1737112062,"current_range_meters":9600,"station_id":"","pricing_plan_id":"cebpf4jnsgd1na2vs0mg"},{"bike_id":"62236f9b-8ad0-488f-9f16-b87beba736ec","system_id":"levelo_inurba_marseille","lat":43.29503,"lon":5.37516,"is_reserved":false,"is_disabled":false,"rental_uris":{"android":"levelo://app?vid=62236f9b-8ad0-488f-9f16-b87beba736ec","ios":"levelo://app?vid=62236f9b-8ad0-488f-9f16-b87beba736ec"},"vehicle_type_id":"4","last_reported":1737112062,"current_range_meters":11200,"station_id":"ce4bgkp2rcd13ifvqbmg","pricing_plan_id":"cebpf4jnsgd1na2vs0mg"},{"bike_id":"63abbcbb-4a82-437e-8197-b6703b68bf69","system_id":"levelo_inurba_marseille","lat":43.29095,"lon":5.38127,"is_reserved":false,"is_disabled":false,"rental_uris":{"android":"levelo://app?vid=63abbcbb-4a82-437e-8197-b6703b68bf69","ios":"levelo://app?vid=63abbcbb-4a82-437e-8197-b6703b68bf69"},"vehicle_type_id":"4","last_reported":1737112062,"current_range_meters":37600,"station_id":"ce4bh512rcd13ifvqe2g","pricing_plan_id":"cebpf4jnsgd1na2vs0mg"},{"bike_id":"cddaed59-644f-4db2-8bd0-f9dfc16c0239","system_id":"levelo_inurba_marseille","lat":43.2937,"lon":5.37864,"is_reserved":false,"is_disabled":false,"rental_uris":{"android":"levelo://app?vid=cddaed59-644f-4db2-8bd0-f9dfc16c0239","ios":"levelo://app?vid=cddaed59-644f-4db2-8bd0-f9dfc16c0239"},"vehicle_type_id":"4","last_reported":1737112062,"current_range_meters":24000,"station_id":"ce4bgjh2rcd13ifvqbf0","pricing_plan_id":"cebpf4jnsgd1na2vs0mg"},{"bike_id":"f9f98680-a1bb-4366-8522-3da7d9645d83","system_id":"levelo_inurba_marseille","lat":43.30542,"lon":5.36529,"is_reserved":false,"is_disabled":false,"rental_uris":{"android":"levelo://app?vid=f9f98680-a1bb-4366-8522-3da7d9645d83","ios":"levelo://app?vid=f9f98680-a1bb-4366-8522-3da7d9645d83"},"vehicle_type_id":"4","last_reported":1737112062,"current_range_meters":26800,"station_id":"ce4bgs12rcd13ifvqcag","pricing_plan_id":"cebpf4jnsgd1na2vs0mg"},{"bike_id":"dd35164b-b849-4d87-a687-5a4e1bed3ce4","system_id":"levelo_inurba_marseille","lat":43.32367,"lon":5.38892,"is_reserved":false,"is_disabled":false,"rental_uris":{"android":"levelo://app?vid=dd35164b-b849-4d87-a687-5a4e1bed3ce4","ios":"levelo://app?vid=dd35164b-b849-4d87-a687-5a4e1bed3ce4"},"vehicle_type_id":"4","last_reported":1737112062,"current_range_meters":22000,"station_id":"ce4bhqp2rcd13ifvqhog","pricing_plan_id":"cebpf4jnsgd1na2vs0mg"},{"bike_id":"f08a9040-76f6-490c-bfa7-d54d4ad66d26","system_id":"levelo_inurba_marseille","lat":43.27816,"lon":5.40721,"is_reserved":false,"is_disabled":false,"rental_uris":{"android":"levelo://app?vid=f08a9040-76f6-490c-bfa7-d54d4ad66d26","ios":"levelo://app?vid=f08a9040-76f6-490c-bfa7-d54d4ad66d26"},"vehicle_type_id":"4","last_reported":1737112062,"current_range_meters":39200,"station_id":"ce4bhnh2rcd13ifvqgtg","pricing_plan_id":"cebpf4jnsgd1na2vs0mg"},{"bike_id":"3e46cc0d-336d-407f-b81c-4a5fb1842dfa","system_id":"levelo_inurba_marseille","lat":43.28686,"lon":5.37401,"is_reserved":false,"is_disabled":false,"rental_uris":{"android":"levelo://app?vid=3e46cc0d-336d-407f-b81c-4a5fb1842dfa","ios":"levelo://app?vid=3e46cc0d-336d-407f-b81c-4a5fb1842dfa"},"vehicle_type_id":"4","last_reported":1737112062,"current_range_meters":32000,"station_id":"ce4bh3p2rcd13ifvqdq0","pricing_plan_id":"cebpf4jnsgd1na2vs0mg"},{"bike_id":"06847a7c-81a3-47a7-969a-ce10f7980e65","system_id":"levelo_inurba_marseille","lat":43.23153,"lon":5.437015,"is_reserved":false,"is_disabled":false,"rental_uris":{"android":"levelo://app?vid=06847a7c-81a3-47a7-969a-ce10f7980e65","ios":"levelo://app?vid=06847a7c-81a3-47a7-969a-ce10f7980e65"},"vehicle_type_id":"4","last_reported":1737112062,"current_range_meters":34800,"station_id":"ce4bhmp2rcd13ifvqgog","pricing_plan_id":"cebpf4jnsgd1na2vs0mg"},{"bike_id":"61478a87-30f0-49fb-bc83-f40e90c542c7","system_id":"levelo_inurba_marseille","lat":43.30136,"lon":5.37431,"is_reserved":false,"is_disabled":false,"rental_uris":{"android":"levelo://app?vid=61478a87-30f0-49fb-bc83-f40e90c542c7","ios":"levelo://app?vid=61478a87-30f0-49fb-bc83-f40e90c542c7"},"vehicle_type_id":"4","last_reported":1737112062,"current_range_meters":24000,"station_id":"ce4bgs92rcd13ifvqcc0","pricing_plan_id":"cebpf4jnsgd1na2vs0mg"},{"bike_id":"31780800-53f9-4554-a7f2-19e132effa82","system_id":"levelo_inurba_marseille","lat":43.30599,"lon":5.37223,"is_reserved":false,"is_disabled":false,"rental_uris":{"android":"levelo://app?vid=31780800-53f9-4554-a7f2-19e132effa82","ios":"levelo://app?vid=31780800-53f9-4554-a7f2-19e132effa82"},"vehicle_type_id":"4","last_reported":1737112062,"current_range_meters":10000,"station_id":"ce4bgqh2rcd13ifvqc4g","pricing_plan_id":"cebpf4jnsgd1na2vs0mg"},{"bike_id":"10d4a44b-4ac4-4905-b7ec-86d014e96ec1","system_id":"levelo_inurba_marseille","lat":43.32458,"lon":5.36565,"is_reserved":false,"is_disabled":false,"rental_uris":{"android":"levelo://app?vid=10d4a44b-4ac4-4905-b7ec-86d014e96ec1","ios":"levelo://app?vid=10d4a44b-4ac4-4905-b7ec-86d014e96ec1"},"vehicle_type_id":"4","last_reported":1737112062,"current_range_meters":30400,"station_id":"ce4bhs12rcd13ifvqhvg","pricing_plan_id":"cebpf4jnsgd1na2vs0mg"},{"bike_id":"486b82a3-4b5c-4f03-8752-0eea3399df80","system_id":"levelo_inurba_marseille","lat":43.30123,"lon":5.37446,"is_reserved":false,"is_disabled":false,"rental_uris":{"android":"levelo://app?vid=486b82a3-4b5c-4f03-8752-0eea3399df80","ios":"levelo://app?vid=486b82a3-4b5c-4f03-8752-0eea3399df80"},"vehicle_type_id":"4","last_reported":1737112062,"current_range_meters":20800,"station_id":"ce4bgs92rcd13ifvqcc0","pricing_plan_id":"cebpf4jnsgd1na2vs0mg"},{"bike_id":"7a5b4633-9e2d-4779-9afe-83e0193b9f80","system_id":"levelo_inurba_marseille","lat":43.31706,"lon":5.37749,"is_reserved":false,"is_disabled":false,"rental_uris":{"android":"levelo://app?vid=7a5b4633-9e2d-4779-9afe-83e0193b9f80","ios":"levelo://app?vid=7a5b4633-9e2d-4779-9afe-83e0193b9f80"},"vehicle_type_id":"4","last_reported":1737112062,"current_range_meters":35200,"station_id":"ce4bgth2rcd13ifvqch0","pricing_plan_id":"cebpf4jnsgd1na2vs0mg"},{"bike_id":"f0cdcecd-d7fa-49b2-aea1-a122944f7f6a","system_id":"levelo_inurba_marseille","lat":43.31708,"lon":5.37756,"is_reserved":false,"is_disabled":false,"rental_uris":{"android":"levelo://app?vid=f0cdcecd-d7fa-49b2-aea1-a122944f7f6a","ios":"levelo://app?vid=f0cdcecd-d7fa-49b2-aea1-a122944f7f6a"},"vehicle_type_id":"4","last_reported":1737112062,"current_range_meters":39200,"station_id":"ce4bgth2rcd13ifvqch0","pricing_plan_id":"cebpf4jnsgd1na2vs0mg"},{"bike_id":"678e6c21-ae33-4211-9534-682ad57c39c7","system_id":"levelo_inurba_marseille","lat":43.23189,"lon":5.39993,"is_reserved":false,"is_disabled":false,"rental_uris":{"android":"levelo://app?vid=678e6c21-ae33-4211-9534-682ad57c39c7","ios":"levelo://app?vid=678e6c21-ae33-4211-9534-682ad57c39c7"},"vehicle_type_id":"4","last_reported":1737112062,"current_range_meters":14800,"station_id":"ce4bhn12rcd13ifvqgqg","pricing_plan_id":"cebpf4jnsgd1na2vs0mg"},{"bike_id":"67c549d5-ce81-408a-a146-d43915340e7f","system_id":"levelo_inurba_marseille","lat":43.33727,"lon":5.39194,"is_reserved":false,"is_disabled":false,"rental_uris":{"android":"levelo://app?vid=67c549d5-ce81-408a-a146-d43915340e7f","ios":"levelo://app?vid=67c549d5-ce81-408a-a146-d43915340e7f"},"vehicle_type_id":"4","last_reported":1737112062,"current_range_meters":39200,"station_id":"ce4bhr92rcd13ifvqhsg","pricing_plan_id":"cebpf4jnsgd1na2vs0mg"},{"bike_id":"efd05c32-4d50-4342-9945-bb25c7efcd6f","system_id":"levelo_inurba_marseille","lat":43.27952,"lon":5.38702,"is_reserved":false,"is_disabled":false,"rental_uris":{"android":"levelo://app?vid=efd05c32-4d50-4342-9945-bb25c7efcd6f","ios":"levelo://app?vid=efd05c32-4d50-4342-9945-bb25c7efcd6f"},"vehicle_type_id":"4","last_reported":1737112062,"current_range_meters":38800,"station_id":"ce4bhg12rcd13ifvqf80","pricing_plan_id":"cebpf4jnsgd1na2vs0mg"},{"bike_id":"64eb6d18-b129-4e6d-b002-bb8d65188d79","system_id":"levelo_inurba_marseille","lat":43.30139,"lon":5.37415,"is_reserved":false,"is_disabled":false,"rental_uris":{"android":"levelo://app?vid=64eb6d18-b129-4e6d-b002-bb8d65188d79","ios":"levelo://app?vid=64eb6d18-b129-4e6d-b002-bb8d65188d79"},"vehicle_type_id":"4","last_reported":1737112062,"current_range_meters":34800,"station_id":"ce4bgs92rcd13ifvqcc0","pricing_plan_id":"cebpf4jnsgd1na2vs0mg"},{"bike_id":"6a575a28-9122-463d-903d-579803bf0e58","system_id":"levelo_inurba_marseille","lat":43.3015,"lon":5.38081,"is_reserved":false,"is_disabled":false,"rental_uris":{"android":"levelo://app?vid=6a575a28-9122-463d-903d-579803bf0e58","ios":"levelo://app?vid=6a575a28-9122-463d-903d-579803bf0e58"},"vehicle_type_id":"4","last_reported":1737112062,"current_range_meters":37600,"station_id":"ce4bgjp2rcd13ifvqbh0","pricing_plan_id":"cebpf4jnsgd1na2vs0mg"},{"bike_id":"26b2b9d0-0f40-4411-b5b2-7f27a5b691d0","system_id":"levelo_inurba_marseille","lat":43.2501,"lon":5.38936,"is_reserved":false,"is_disabled":false,"rental_uris":{"android":"levelo://app?vid=26b2b9d0-0f40-4411-b5b2-7f27a5b691d0","ios":"levelo://app?vid=26b2b9d0-0f40-4411-b5b2-7f27a5b691d0"},"vehicle_type_id":"4","last_reported":1737112062,"current_range_meters":16800,"station_id":"ce4bhgp2rcd13ifvqfd0","pricing_plan_id":"cebpf4jnsgd1na2vs0mg"},{"bike_id":"0d77fce9-cfcb-4693-962c-890840a65109","system_id":"levelo_inurba_marseille","lat":43.29616,"lon":5.37729,"is_reserved":false,"is_disabled":false,"rental_uris":{"android":"levelo://app?vid=0d77fce9-cfcb-4693-962c-890840a65109","ios":"levelo://app?vid=0d77fce9-cfcb-4693-962c-890840a65109"},"vehicle_type_id":"4","last_reported":1737112062,"current_range_meters":30400,"station_id":"ce4bgi92rcd13ifvqb90","pricing_plan_id":"cebpf4jnsgd1na2vs0mg"},{"bike_id":"f21955f8-a46c-4890-be70-66409620de02","system_id":"levelo_inurba_marseille","lat":43.23187,"lon":5.39986,"is_reserved":false,"is_disabled":false,"rental_uris":{"android":"levelo://app?vid=f21955f8-a46c-4890-be70-66409620de02","ios":"levelo://app?vid=f21955f8-a46c-4890-be70-66409620de02"},"vehicle_type_id":"4","last_reported":1737112062,"current_range_meters":6800,"station_id":"ce4bhn12rcd13ifvqgqg","pricing_plan_id":"cebpf4jnsgd1na2vs0mg"},{"bike_id":"34709e64-d1c8-4538-88a5-33805792c0a5","system_id":"levelo_inurba_marseille","lat":43.25829,"lon":5.39433,"is_reserved":false,"is_disabled":false,"rental_uris":{"android":"levelo://app?vid=34709e64-d1c8-4538-88a5-33805792c0a5","ios":"levelo://app?vid=34709e64-d1c8-4538-88a5-33805792c0a5"},"vehicle_type_id":"4","last_reported":1737112062,"current_range_meters":38400,"station_id":"ce4bhip2rcd13ifvqft0","pricing_plan_id":"cebpf4jnsgd1na2vs0mg"},{"bike_id":"d4c5158e-511e-4c0e-af6f-6a3bbf5cc0e5","system_id":"levelo_inurba_marseille","lat":43.27072,"lon":5.42289,"is_reserved":false,"is_disabled":true,"rental_uris":{"android":"levelo://app?vid=d4c5158e-511e-4c0e-af6f-6a3bbf5cc0e5","ios":"levelo://app?vid=d4c5158e-511e-4c0e-af6f-6a3bbf5cc0e5"},"vehicle_type_id":"4","last_reported":1737112062,"current_range_meters":0,"station_id":"ce4bhk92rcd13ifvqgb0","pricing_plan_id":"cebpf4jnsgd1na2vs0mg"},{"bike_id":"b5e9ea81-0297-4491-845f-7c0d287791e9","system_id":"levelo_inurba_marseille","lat":43.27408,"lon":5.39433,"is_reserved":false,"is_disabled":false,"rental_uris":{"android":"levelo://app?vid=b5e9ea81-0297-4491-845f-7c0d287791e9","ios":"levelo://app?vid=b5e9ea81-0297-4491-845f-7c0d287791e9"},"vehicle_type_id":"4","last_reported":1737112062,"current_range_meters":32000,"station_id":"ce4bhdp2rcd13ifvqf20","pricing_plan_id":"cebpf4jnsgd1na2vs0mg"},{"bike_id":"13a9b5b3-bd65-4aac-a6ef-929410fc59f8","system_id":"levelo_inurba_marseille","lat":43.30903,"lon":5.36849,"is_reserved":false,"is_disabled":false,"rental_uris":{"android":"levelo://app?vid=13a9b5b3-bd65-4aac-a6ef-929410fc59f8","ios":"levelo://app?vid=13a9b5b3-bd65-4aac-a6ef-929410fc59f8"},"vehicle_type_id":"4","last_reported":1737112062,"current_range_meters":37600,"station_id":"ce4bgn92rcd13ifvqbvg","pricing_plan_id":"cebpf4jnsgd1na2vs0mg"},{"bike_id":"58059c20-35ab-411a-9814-0374fc5d25fb","system_id":"levelo_inurba_marseille","lat":43.30496,"lon":5.36738,"is_reserved":false,"is_disabled":false,"rental_uris":{"android":"levelo://app?vid=58059c20-35ab-411a-9814-0374fc5d25fb","ios":"levelo://app?vid=58059c20-35ab-411a-9814-0374fc5d25fb"},"vehicle_type_id":"4","last_reported":1737112062,"current_range_meters":38800,"station_id":"ce4bgrp2rcd13ifvqc9g","pricing_plan_id":"cebpf4jnsgd1na2vs0mg"},{"bike_id":"3d0bb5c0-7066-448c-b9c2-0728f3c5eaa1","system_id":"levelo_inurba_marseille","lat":43.3245,"lon":5.36588,"is_reserved":false,"is_disabled":false,"rental_uris":{"android":"levelo://app?vid=3d0bb5c0-7066-448c-b9c2-0728f3c5eaa1","ios":"levelo://app?vid=3d0bb5c0-7066-448c-b9c2-0728f3c5eaa1"},"vehicle_type_id":"4","last_reported":1737112062,"current_range_meters":32000,"station_id":"ce4bhs12rcd13ifvqhvg","pricing_plan_id":"cebpf4jnsgd1na2vs0mg"},{"bike_id":"5dc88dba-495e-484f-9b04-2299461d7f8a","system_id":"levelo_inurba_marseille","lat":43.26051,"lon":5.39411,"is_reserved":false,"is_disabled":false,"rental_uris":{"android":"levelo://app?vid=5dc88dba-495e-484f-9b04-2299461d7f8a","ios":"levelo://app?vid=5dc88dba-495e-484f-9b04-2299461d7f8a"},"vehicle_type_id":"4","last_reported":1737112062,"current_range_meters":22400,"station_id":"ce4bhh92rcd13ifvqfj0","pricing_plan_id":"cebpf4jnsgd1na2vs0mg"},{"bike_id":"8764c1bb-cd78-4dde-9886-b18ec6903ac2","system_id":"levelo_inurba_marseille","lat":43.29629,"lon":5.40605,"is_reserved":false,"is_disabled":false,"rental_uris":{"android":"levelo://app?vid=8764c1bb-cd78-4dde-9886-b18ec6903ac2","ios":"levelo://app?vid=8764c1bb-cd78-4dde-9886-b18ec6903ac2"},"vehicle_type_id":"4","last_reported":1737112062,"current_range_meters":38800,"station_id":"ce4bh0h2rcd13ifvqd60","pricing_plan_id":"cebpf4jnsgd1na2vs0mg"},{"bike_id":"575187ad-6d10-426e-85b8-4268426275d2","system_id":"levelo_inurba_marseille","lat":43.279944,"lon":5.416636,"is_reserved":false,"is_disabled":false,"rental_uris":{"android":"levelo://app?vid=575187ad-6d10-426e-85b8-4268426275d2","ios":"levelo://app?vid=575187ad-6d10-426e-85b8-4268426275d2"},"vehicle_type_id":"4","last_reported":1737112062,"current_range_meters":17200,"station_id":"ce4bho12rcd13ifvqh1g","pricing_plan_id":"cebpf4jnsgd1na2vs0mg"},{"bike_id":"56b8e9bc-f750-4815-bc98-9098414d16db","system_id":"levelo_inurba_marseille","lat":43.23213,"lon":5.3554,"is_reserved":false,"is_disabled":true,"rental_uris":{"android":"levelo://app?vid=56b8e9bc-f750-4815-bc98-9098414d16db","ios":"levelo://app?vid=56b8e9bc-f750-4815-bc98-9098414d16db"},"vehicle_type_id":"4","last_reported":1737112062,"current_range_meters":0,"station_id":"ce4bhu92rcd13ifvqi70","pricing_plan_id":"cebpf4jnsgd1na2vs0mg"},{"bike_id":"7afc75e8-5d7c-4ba4-a0f2-3359809a76fc","system_id":"levelo_inurba_marseille","lat":43.25925,"lon":5.40898,"is_reserved":false,"is_disabled":false,"rental_uris":{"android":"levelo://app?vid=7afc75e8-5d7c-4ba4-a0f2-3359809a76fc","ios":"levelo://app?vid=7afc75e8-5d7c-4ba4-a0f2-3359809a76fc"},"vehicle_type_id":"4","last_reported":1737112062,"current_range_meters":18000,"station_id":"ce4bhm92rcd13ifvqglg","pricing_plan_id":"cebpf4jnsgd1na2vs0mg"},{"bike_id":"3db33c25-fcf6-45d6-b2ce-048451d8dbc8","system_id":"levelo_inurba_marseille","lat":43.31119,"lon":5.37775,"is_reserved":false,"is_disabled":false,"rental_uris":{"android":"levelo://app?vid=3db33c25-fcf6-45d6-b2ce-048451d8dbc8","ios":"levelo://app?vid=3db33c25-fcf6-45d6-b2ce-048451d8dbc8"},"vehicle_type_id":"4","last_reported":1737112062,"current_range_meters":32800,"station_id":"ce4bgt92rcd13ifvqcg0","pricing_plan_id":"cebpf4jnsgd1na2vs0mg"},{"bike_id":"fe61bab4-2147-46ac-96bc-5b15a0832ed3","system_id":"levelo_inurba_marseille","lat":43.23153,"lon":5.43712,"is_reserved":false,"is_disabled":true,"rental_uris":{"android":"levelo://app?vid=fe61bab4-2147-46ac-96bc-5b15a0832ed3","ios":"levelo://app?vid=fe61bab4-2147-46ac-96bc-5b15a0832ed3"},"vehicle_type_id":"4","last_reported":1737112062,"current_range_meters":0,"station_id":"ce4bhmp2rcd13ifvqgog","pricing_plan_id":"cebpf4jnsgd1na2vs0mg"},{"bike_id":"df7a2ee4-2bd3-4019-b075-9e49d0c4523e","system_id":"levelo_inurba_marseille","lat":43.29417,"lon":5.38648,"is_reserved":false,"is_disabled":false,"rental_uris":{"android":"levelo://app?vid=df7a2ee4-2bd3-4019-b075-9e49d0c4523e","ios":"levelo://app?vid=df7a2ee4-2bd3-4019-b075-9e49d0c4523e"},"vehicle_type_id":"4","last_reported":1737112062,"current_range_meters":19200,"station_id":"ce4bh2h2rcd13ifvqdh0","pricing_plan_id":"cebpf4jnsgd1na2vs0mg"},{"bike_id":"8ddbe622-c712-42df-873f-25cab8ae0c4c","system_id":"levelo_inurba_marseille","lat":43.28489,"lon":5.38537,"is_reserved":false,"is_disabled":false,"rental_uris":{"android":"levelo://app?vid=8ddbe622-c712-42df-873f-25cab8ae0c4c","ios":"levelo://app?vid=8ddbe622-c712-42df-873f-25cab8ae0c4c"},"vehicle_type_id":"4","last_reported":1737112062,"current_range_meters":20800,"station_id":"ce4bh8p2rcd13ifvqeb0","pricing_plan_id":"cebpf4jnsgd1na2vs0mg"},{"bike_id":"1b0abdf0-ebc9-477b-9a5c-20d604bc88e3","system_id":"levelo_inurba_marseille","lat":43.25086,"lon":5.39527,"is_reserved":false,"is_disabled":false,"rental_uris":{"android":"levelo://app?vid=1b0abdf0-ebc9-477b-9a5c-20d604bc88e3","ios":"levelo://app?vid=1b0abdf0-ebc9-477b-9a5c-20d604bc88e3"},"vehicle_type_id":"4","last_reported":1737112062,"current_range_meters":39200,"station_id":"ce4bhm12rcd13ifvqgkg","pricing_plan_id":"cebpf4jnsgd1na2vs0mg"},{"bike_id":"0ff95f94-f745-4638-913c-3c90186dbbab","system_id":"levelo_inurba_marseille","lat":43.24644,"lon":5.38914,"is_reserved":false,"is_disabled":true,"rental_uris":{"android":"levelo://app?vid=0ff95f94-f745-4638-913c-3c90186dbbab","ios":"levelo://app?vid=0ff95f94-f745-4638-913c-3c90186dbbab"},"vehicle_type_id":"4","last_reported":1737112062,"current_range_meters":0,"station_id":"ce4bhg12rcd13ifvqf60","pricing_plan_id":"cebpf4jnsgd1na2vs0mg"},{"bike_id":"9f4ca449-2ebc-4918-8a4b-cfc443e7e053","system_id":"levelo_inurba_marseille","lat":43.29597,"lon":5.3811,"is_reserved":false,"is_disabled":false,"rental_uris":{"android":"levelo://app?vid=9f4ca449-2ebc-4918-8a4b-cfc443e7e053","ios":"levelo://app?vid=9f4ca449-2ebc-4918-8a4b-cfc443e7e053"},"vehicle_type_id":"4","last_reported":1737112062,"current_range_meters":18800,"station_id":"ce4bgl12rcd13ifvqbo0","pricing_plan_id":"cebpf4jnsgd1na2vs0mg"},{"bike_id":"c266a897-0386-42e6-bab7-01ced6e15dcf","system_id":"levelo_inurba_marseille","lat":43.28989,"lon":5.35615,"is_reserved":false,"is_disabled":false,"rental_uris":{"android":"levelo://app?vid=c266a897-0386-42e6-bab7-01ced6e15dcf","ios":"levelo://app?vid=c266a897-0386-42e6-bab7-01ced6e15dcf"},"vehicle_type_id":"4","last_reported":1737112062,"current_range_meters":24000,"station_id":"ce4bhb92rcd13ifvqen0","pricing_plan_id":"cebpf4jnsgd1na2vs0mg"},{"bike_id":"cdc5cf2b-8841-43e8-8d79-b986add51881","system_id":"levelo_inurba_marseille","lat":43.29262,"lon":5.40911,"is_reserved":false,"is_disabled":false,"rental_uris":{"android":"levelo://app?vid=cdc5cf2b-8841-43e8-8d79-b986add51881","ios":"levelo://app?vid=cdc5cf2b-8841-43e8-8d79-b986add51881"},"vehicle_type_id":"4","last_reported":1737112062,"current_range_meters":25600,"station_id":"ce4bh192rcd13ifvqdc0","pricing_plan_id":"cebpf4jnsgd1na2vs0mg"},{"bike_id":"5d4c23b0-333e-4aba-98f6-c89fb76cfb71","system_id":"levelo_inurba_marseille","lat":43.33739,"lon":5.37465,"is_reserved":false,"is_disabled":false,"rental_uris":{"android":"levelo://app?vid=5d4c23b0-333e-4aba-98f6-c89fb76cfb71","ios":"levelo://app?vid=5d4c23b0-333e-4aba-98f6-c89fb76cfb71"},"vehicle_type_id":"4","last_reported":1737112062,"current_range_meters":38000,"station_id":"","pricing_plan_id":"cebpf4jnsgd1na2vs0mg"},{"bike_id":"22465212-93af-4e0b-b803-6ee82bba56d5","system_id":"levelo_inurba_marseille","lat":43.33767,"lon":5.37505,"is_reserved":false,"is_disabled":false,"rental_uris":{"android":"levelo://app?vid=22465212-93af-4e0b-b803-6ee82bba56d5","ios":"levelo://app?vid=22465212-93af-4e0b-b803-6ee82bba56d5"},"vehicle_type_id":"4","last_reported":1737112062,"current_range_meters":31200,"station_id":"","pricing_plan_id":"cebpf4jnsgd1na2vs0mg"},{"bike_id":"57d28b69-a629-4d00-8952-ad3637220644","system_id":"levelo_inurba_marseille","lat":43.296248,"lon":5.371653,"is_reserved":false,"is_disabled":true,"rental_uris":{"android":"levelo://app?vid=57d28b69-a629-4d00-8952-ad3637220644","ios":"levelo://app?vid=57d28b69-a629-4d00-8952-ad3637220644"},"vehicle_type_id":"4","last_reported":1737112062,"current_range_meters":0,"station_id":"ce4bgnh2rcd13ifvqc0g","pricing_plan_id":"cebpf4jnsgd1na2vs0mg"},{"bike_id":"979d7a5c-00ce-4dcf-a15c-0fc9c9e35c10","system_id":"levelo_inurba_marseille","lat":43.33787,"lon":5.37431,"is_reserved":false,"is_disabled":false,"rental_uris":{"android":"levelo://app?vid=979d7a5c-00ce-4dcf-a15c-0fc9c9e35c10","ios":"levelo://app?vid=979d7a5c-00ce-4dcf-a15c-0fc9c9e35c10"},"vehicle_type_id":"4","last_reported":1737112062,"current_range_meters":37600,"station_id":"","pricing_plan_id":"cebpf4jnsgd1na2vs0mg"},{"bike_id":"65738d62-b35b-4989-a509-3ac269e67ca5","system_id":"levelo_inurba_marseille","lat":43.30538,"lon":5.36722,"is_reserved":false,"is_disabled":false,"rental_uris":{"android":"levelo://app?vid=65738d62-b35b-4989-a509-3ac269e67ca5","ios":"levelo://app?vid=65738d62-b35b-4989-a509-3ac269e67ca5"},"vehicle_type_id":"4","last_reported":1737112062,"current_range_meters":39200,"station_id":"ce4bgrp2rcd13ifvqc9g","pricing_plan_id":"cebpf4jnsgd1na2vs0mg"},{"bike_id":"775cd297-00ad-410e-aaf2-ea083a350e42","system_id":"levelo_inurba_marseille","lat":43.31739,"lon":5.38986,"is_reserved":false,"is_disabled":false,"rental_uris":{"android":"levelo://app?vid=775cd297-00ad-410e-aaf2-ea083a350e42","ios":"levelo://app?vid=775cd297-00ad-410e-aaf2-ea083a350e42"},"vehicle_type_id":"4","last_reported":1737112062,"current_range_meters":38000,"station_id":"ce4bhqp2rcd13ifvqhng","pricing_plan_id":"cebpf4jnsgd1na2vs0mg"},{"bike_id":"cee10d1e-3be0-43a0-95a1-da6e41b8d317","system_id":"levelo_inurba_marseille","lat":43.29243,"lon":5.38448,"is_reserved":false,"is_disabled":true,"rental_uris":{"android":"levelo://app?vid=cee10d1e-3be0-43a0-95a1-da6e41b8d317","ios":"levelo://app?vid=cee10d1e-3be0-43a0-95a1-da6e41b8d317"},"vehicle_type_id":"4","last_reported":1737112062,"current_range_meters":18800,"station_id":"ce4bh692rcd13ifvqea0","pricing_plan_id":"cebpf4jnsgd1na2vs0mg"},{"bike_id":"f19b17bb-a036-43ca-8fe9-60a1d88142bc","system_id":"levelo_inurba_marseille","lat":43.29036,"lon":5.35921,"is_reserved":false,"is_disabled":false,"rental_uris":{"android":"levelo://app?vid=f19b17bb-a036-43ca-8fe9-60a1d88142bc","ios":"levelo://app?vid=f19b17bb-a036-43ca-8fe9-60a1d88142bc"},"vehicle_type_id":"4","last_reported":1737112062,"current_range_meters":37600,"station_id":"ce4bha92rcd13ifvqeg0","pricing_plan_id":"cebpf4jnsgd1na2vs0mg"},{"bike_id":"ba3f556c-cf6a-4039-a072-0e6118db4c47","system_id":"levelo_inurba_marseille","lat":43.23154,"lon":5.43712,"is_reserved":false,"is_disabled":false,"rental_uris":{"android":"levelo://app?vid=ba3f556c-cf6a-4039-a072-0e6118db4c47","ios":"levelo://app?vid=ba3f556c-cf6a-4039-a072-0e6118db4c47"},"vehicle_type_id":"4","last_reported":1737112062,"current_range_meters":8800,"station_id":"ce4bhmp2rcd13ifvqgog","pricing_plan_id":"cebpf4jnsgd1na2vs0mg"},{"bike_id":"6bd174dd-2b0f-478e-9b88-fd653a0167da","system_id":"levelo_inurba_marseille","lat":43.22931,"lon":5.35381,"is_reserved":false,"is_disabled":false,"rental_uris":{"android":"levelo://app?vid=6bd174dd-2b0f-478e-9b88-fd653a0167da","ios":"levelo://app?vid=6bd174dd-2b0f-478e-9b88-fd653a0167da"},"vehicle_type_id":"4","last_reported":1737112062,"current_range_meters":34000,"station_id":"cpo3532slgdg3j2ikp40","pricing_plan_id":"cebpf4jnsgd1na2vs0mg"},{"bike_id":"16764f9e-b1b9-4d6f-9dca-0161489fba20","system_id":"levelo_inurba_marseille","lat":43.30165,"lon":5.38101,"is_reserved":false,"is_disabled":false,"rental_uris":{"android":"levelo://app?vid=16764f9e-b1b9-4d6f-9dca-0161489fba20","ios":"levelo://app?vid=16764f9e-b1b9-4d6f-9dca-0161489fba20"},"vehicle_type_id":"4","last_reported":1737112062,"current_range_meters":28400,"station_id":"ce4bgjp2rcd13ifvqbh0","pricing_plan_id":"cebpf4jnsgd1na2vs0mg"},{"bike_id":"d1808561-5748-40a8-adac-a642053eeebb","system_id":"levelo_inurba_marseille","lat":43.32038,"lon":5.41566,"is_reserved":false,"is_disabled":false,"rental_uris":{"android":"levelo://app?vid=d1808561-5748-40a8-adac-a642053eeebb","ios":"levelo://app?vid=d1808561-5748-40a8-adac-a642053eeebb"},"vehicle_type_id":"4","last_reported":1737112062,"current_range_meters":37600,"station_id":"ce4bhq92rcd13ifvqhkg","pricing_plan_id":"cebpf4jnsgd1na2vs0mg"},{"bike_id":"6a7366d7-ed8c-4629-bf0c-70c2abcda36d","system_id":"levelo_inurba_marseille","lat":43.23198,"lon":5.35559,"is_reserved":false,"is_disabled":false,"rental_uris":{"android":"levelo://app?vid=6a7366d7-ed8c-4629-bf0c-70c2abcda36d","ios":"levelo://app?vid=6a7366d7-ed8c-4629-bf0c-70c2abcda36d"},"vehicle_type_id":"4","last_reported":1737112062,"current_range_meters":8000,"station_id":"ce4bhu92rcd13ifvqi70","pricing_plan_id":"cebpf4jnsgd1na2vs0mg"},{"bike_id":"0139813a-ba7c-4741-8e26-0b3f5fd6c7e5","system_id":"levelo_inurba_marseille","lat":43.25114,"lon":5.40324,"is_reserved":false,"is_disabled":false,"rental_uris":{"android":"levelo://app?vid=0139813a-ba7c-4741-8e26-0b3f5fd6c7e5","ios":"levelo://app?vid=0139813a-ba7c-4741-8e26-0b3f5fd6c7e5"},"vehicle_type_id":"4","last_reported":1737112062,"current_range_meters":37600,"station_id":"ce4bhlh2rcd13ifvqgig","pricing_plan_id":"cebpf4jnsgd1na2vs0mg"},{"bike_id":"2d7f3353-743b-41e1-85f2-e32181d4ae48","system_id":"levelo_inurba_marseille","lat":43.31993,"lon":5.38147,"is_reserved":false,"is_disabled":false,"rental_uris":{"android":"levelo://app?vid=2d7f3353-743b-41e1-85f2-e32181d4ae48","ios":"levelo://app?vid=2d7f3353-743b-41e1-85f2-e32181d4ae48"},"vehicle_type_id":"4","last_reported":1737112062,"current_range_meters":28800,"station_id":"ce4bhr12rcd13ifvqhpg","pricing_plan_id":"cebpf4jnsgd1na2vs0mg"},{"bike_id":"573076c8-1172-47e5-b129-cb987286e5ee","system_id":"levelo_inurba_marseille","lat":43.27852,"lon":5.40692,"is_reserved":false,"is_disabled":false,"rental_uris":{"android":"levelo://app?vid=573076c8-1172-47e5-b129-cb987286e5ee","ios":"levelo://app?vid=573076c8-1172-47e5-b129-cb987286e5ee"},"vehicle_type_id":"4","last_reported":1737112062,"current_range_meters":38000,"station_id":"ce4bhnh2rcd13ifvqgtg","pricing_plan_id":"cebpf4jnsgd1na2vs0mg"},{"bike_id":"7823cdef-7f4d-4254-9ab6-e7391e503e7a","system_id":"levelo_inurba_marseille","lat":43.31359,"lon":5.38491,"is_reserved":false,"is_disabled":false,"rental_uris":{"android":"levelo://app?vid=7823cdef-7f4d-4254-9ab6-e7391e503e7a","ios":"levelo://app?vid=7823cdef-7f4d-4254-9ab6-e7391e503e7a"},"vehicle_type_id":"4","last_reported":1737112062,"current_range_meters":6800,"station_id":"ce4bgt92rcd13ifvqcf0","pricing_plan_id":"cebpf4jnsgd1na2vs0mg"},{"bike_id":"35deb437-7ef2-4ee7-9ea5-27ce0001ca7b","system_id":"levelo_inurba_marseille","lat":43.26054,"lon":5.39416,"is_reserved":false,"is_disabled":false,"rental_uris":{"android":"levelo://app?vid=35deb437-7ef2-4ee7-9ea5-27ce0001ca7b","ios":"levelo://app?vid=35deb437-7ef2-4ee7-9ea5-27ce0001ca7b"},"vehicle_type_id":"4","last_reported":1737112062,"current_range_meters":38800,"station_id":"ce4bhh92rcd13ifvqfj0","pricing_plan_id":"cebpf4jnsgd1na2vs0mg"},{"bike_id":"b9268ab5-0cd6-470a-8f51-20b86aa28701","system_id":"levelo_inurba_marseille","lat":43.278137,"lon":5.407031,"is_reserved":false,"is_disabled":false,"rental_uris":{"android":"levelo://app?vid=b9268ab5-0cd6-470a-8f51-20b86aa28701","ios":"levelo://app?vid=b9268ab5-0cd6-470a-8f51-20b86aa28701"},"vehicle_type_id":"4","last_reported":1737112062,"current_range_meters":33200,"station_id":"ce4bhnh2rcd13ifvqgtg","pricing_plan_id":"cebpf4jnsgd1na2vs0mg"},{"bike_id":"401864e0-5a18-47f8-946b-0a4d3027b5a4","system_id":"levelo_inurba_marseille","lat":43.22932,"lon":5.35383,"is_reserved":false,"is_disabled":false,"rental_uris":{"android":"levelo://app?vid=401864e0-5a18-47f8-946b-0a4d3027b5a4","ios":"levelo://app?vid=401864e0-5a18-47f8-946b-0a4d3027b5a4"},"vehicle_type_id":"4","last_reported":1737112062,"current_range_meters":27600,"station_id":"cpo3532slgdg3j2ikp40","pricing_plan_id":"cebpf4jnsgd1na2vs0mg"},{"bike_id":"59eb19e8-ea87-47b5-8de5-ded4ee428e44","system_id":"levelo_inurba_marseille","lat":43.26085,"lon":5.39398,"is_reserved":false,"is_disabled":false,"rental_uris":{"android":"levelo://app?vid=59eb19e8-ea87-47b5-8de5-ded4ee428e44","ios":"levelo://app?vid=59eb19e8-ea87-47b5-8de5-ded4ee428e44"},"vehicle_type_id":"4","last_reported":1737112062,"current_range_meters":28800,"station_id":"ce4bhh92rcd13ifvqfj0","pricing_plan_id":"cebpf4jnsgd1na2vs0mg"},{"bike_id":"6bdea331-32f7-46ff-a178-aa3ec9a6cbb8","system_id":"levelo_inurba_marseille","lat":43.31891,"lon":5.40741,"is_reserved":false,"is_disabled":false,"rental_uris":{"android":"levelo://app?vid=6bdea331-32f7-46ff-a178-aa3ec9a6cbb8","ios":"levelo://app?vid=6bdea331-32f7-46ff-a178-aa3ec9a6cbb8"},"vehicle_type_id":"4","last_reported":1737112062,"current_range_meters":14400,"station_id":"ce4bhq12rcd13ifvqhig","pricing_plan_id":"cebpf4jnsgd1na2vs0mg"},{"bike_id":"476e141a-a19d-40cf-8b95-9a763c4a9db3","system_id":"levelo_inurba_marseille","lat":43.33607,"lon":5.41036,"is_reserved":false,"is_disabled":false,"rental_uris":{"android":"levelo://app?vid=476e141a-a19d-40cf-8b95-9a763c4a9db3","ios":"levelo://app?vid=476e141a-a19d-40cf-8b95-9a763c4a9db3"},"vehicle_type_id":"4","last_reported":1737112062,"current_range_meters":32400,"station_id":"ce4bhqh2rcd13ifvqhmg","pricing_plan_id":"cebpf4jnsgd1na2vs0mg"},{"bike_id":"503f40db-f7c5-4ce1-bf83-744d8dd98023","system_id":"levelo_inurba_marseille","lat":43.29957,"lon":5.37197,"is_reserved":false,"is_disabled":false,"rental_uris":{"android":"levelo://app?vid=503f40db-f7c5-4ce1-bf83-744d8dd98023","ios":"levelo://app?vid=503f40db-f7c5-4ce1-bf83-744d8dd98023"},"vehicle_type_id":"4","last_reported":1737112062,"current_range_meters":20400,"station_id":"ce4bgr92rcd13ifvqc7g","pricing_plan_id":"cebpf4jnsgd1na2vs0mg"},{"bike_id":"ec5fc459-d091-448b-9e78-e59a4cb94064","system_id":"levelo_inurba_marseille","lat":43.25115,"lon":5.40328,"is_reserved":false,"is_disabled":false,"rental_uris":{"android":"levelo://app?vid=ec5fc459-d091-448b-9e78-e59a4cb94064","ios":"levelo://app?vid=ec5fc459-d091-448b-9e78-e59a4cb94064"},"vehicle_type_id":"4","last_reported":1737112062,"current_range_meters":22000,"station_id":"ce4bhlh2rcd13ifvqgig","pricing_plan_id":"cebpf4jnsgd1na2vs0mg"},{"bike_id":"10561a23-a6b3-43d9-a4da-938f77e97362","system_id":"levelo_inurba_marseille","lat":43.26196,"lon":5.37449,"is_reserved":false,"is_disabled":false,"rental_uris":{"android":"levelo://app?vid=10561a23-a6b3-43d9-a4da-938f77e97362","ios":"levelo://app?vid=10561a23-a6b3-43d9-a4da-938f77e97362"},"vehicle_type_id":"4","last_reported":1737112062,"current_range_meters":37600,"station_id":"ce4bhgp2rcd13ifvqfc0","pricing_plan_id":"cebpf4jnsgd1na2vs0mg"},{"bike_id":"698f942d-c69c-47bd-bde0-f3669f6ee0c0","system_id":"levelo_inurba_marseille","lat":43.29006,"lon":5.35623,"is_reserved":false,"is_disabled":false,"rental_uris":{"android":"levelo://app?vid=698f942d-c69c-47bd-bde0-f3669f6ee0c0","ios":"levelo://app?vid=698f942d-c69c-47bd-bde0-f3669f6ee0c0"},"vehicle_type_id":"4","last_reported":1737112062,"current_range_meters":38400,"station_id":"ce4bhb92rcd13ifvqen0","pricing_plan_id":"cebpf4jnsgd1na2vs0mg"},{"bike_id":"9fe7c389-b3fc-46da-ba79-3b086092d461","system_id":"levelo_inurba_marseille","lat":43.30777,"lon":5.37656,"is_reserved":false,"is_disabled":false,"rental_uris":{"android":"levelo://app?vid=9fe7c389-b3fc-46da-ba79-3b086092d461","ios":"levelo://app?vid=9fe7c389-b3fc-46da-ba79-3b086092d461"},"vehicle_type_id":"4","last_reported":1737112062,"current_range_meters":38000,"station_id":"ce4bgv92rcd13ifvqcq0","pricing_plan_id":"cebpf4jnsgd1na2vs0mg"},{"bike_id":"93ecd312-8777-497a-b895-69e3a47cb2a1","system_id":"levelo_inurba_marseille","lat":43.2585,"lon":5.39928,"is_reserved":false,"is_disabled":false,"rental_uris":{"android":"levelo://app?vid=93ecd312-8777-497a-b895-69e3a47cb2a1","ios":"levelo://app?vid=93ecd312-8777-497a-b895-69e3a47cb2a1"},"vehicle_type_id":"4","last_reported":1737112062,"current_range_meters":38800,"station_id":"ce4bhl92rcd13ifvqghg","pricing_plan_id":"cebpf4jnsgd1na2vs0mg"},{"bike_id":"7d3aa5e2-2053-4d03-ba99-29d01c32e382","system_id":"levelo_inurba_marseille","lat":43.27838,"lon":5.39219,"is_reserved":false,"is_disabled":false,"rental_uris":{"android":"levelo://app?vid=7d3aa5e2-2053-4d03-ba99-29d01c32e382","ios":"levelo://app?vid=7d3aa5e2-2053-4d03-ba99-29d01c32e382"},"vehicle_type_id":"4","last_reported":1737112062,"current_range_meters":19200,"station_id":"ce4bhjp2rcd13ifvqga0","pricing_plan_id":"cebpf4jnsgd1na2vs0mg"},{"bike_id":"61bef121-6dac-4a00-abe4-09b85bca2acc","system_id":"levelo_inurba_marseille","lat":43.33753,"lon":5.3745,"is_reserved":false,"is_disabled":false,"rental_uris":{"android":"levelo://app?vid=61bef121-6dac-4a00-abe4-09b85bca2acc","ios":"levelo://app?vid=61bef121-6dac-4a00-abe4-09b85bca2acc"},"vehicle_type_id":"4","last_reported":1737112062,"current_range_meters":38800,"station_id":"","pricing_plan_id":"cebpf4jnsgd1na2vs0mg"},{"bike_id":"d62d8a3f-a245-44e8-817f-4dd285b9ad26","system_id":"levelo_inurba_marseille","lat":43.30951,"lon":5.39044,"is_reserved":false,"is_disabled":false,"rental_uris":{"android":"levelo://app?vid=d62d8a3f-a245-44e8-817f-4dd285b9ad26","ios":"levelo://app?vid=d62d8a3f-a245-44e8-817f-4dd285b9ad26"},"vehicle_type_id":"4","last_reported":1737112062,"current_range_meters":39200,"station_id":"ce4bgup2rcd13ifvqco0","pricing_plan_id":"cebpf4jnsgd1na2vs0mg"},{"bike_id":"e0787909-909a-4c51-bfbe-adb28f26837d","system_id":"levelo_inurba_marseille","lat":43.2396,"lon":5.36644,"is_reserved":false,"is_disabled":false,"rental_uris":{"android":"levelo://app?vid=e0787909-909a-4c51-bfbe-adb28f26837d","ios":"levelo://app?vid=e0787909-909a-4c51-bfbe-adb28f26837d"},"vehicle_type_id":"4","last_reported":1737112062,"current_range_meters":28400,"station_id":"ce4bhi12rcd13ifvqfp0","pricing_plan_id":"cebpf4jnsgd1na2vs0mg"},{"bike_id":"08651aa7-3b96-4acf-818e-074b84f36b09","system_id":"levelo_inurba_marseille","lat":43.3414,"lon":5.40909,"is_reserved":false,"is_disabled":false,"rental_uris":{"android":"levelo://app?vid=08651aa7-3b96-4acf-818e-074b84f36b09","ios":"levelo://app?vid=08651aa7-3b96-4acf-818e-074b84f36b09"},"vehicle_type_id":"4","last_reported":1737112062,"current_range_meters":38800,"station_id":"ce4bhqh2rcd13ifvqhlg","pricing_plan_id":"cebpf4jnsgd1na2vs0mg"},{"bike_id":"f090ec06-f1c4-4720-82eb-b5855f40eb17","system_id":"levelo_inurba_marseille","lat":43.2417,"lon":5.39732,"is_reserved":false,"is_disabled":false,"rental_uris":{"android":"levelo://app?vid=f090ec06-f1c4-4720-82eb-b5855f40eb17","ios":"levelo://app?vid=f090ec06-f1c4-4720-82eb-b5855f40eb17"},"vehicle_type_id":"4","last_reported":1737112062,"current_range_meters":16000,"station_id":"ce4bhn12rcd13ifvqgpg","pricing_plan_id":"cebpf4jnsgd1na2vs0mg"},{"bike_id":"121cb774-10c7-4e23-8228-5765ebc78d0a","system_id":"levelo_inurba_marseille","lat":43.3034,"lon":5.39108,"is_reserved":false,"is_disabled":true,"rental_uris":{"android":"levelo://app?vid=121cb774-10c7-4e23-8228-5765ebc78d0a","ios":"levelo://app?vid=121cb774-10c7-4e23-8228-5765ebc78d0a"},"vehicle_type_id":"4","last_reported":1737112062,"current_range_meters":0,"station_id":"ce4bgkh2rcd13ifvqbk0","pricing_plan_id":"cebpf4jnsgd1na2vs0mg"},{"bike_id":"963ada89-2813-41bb-a83b-b411c2ffb6f5","system_id":"levelo_inurba_marseille","lat":43.25891,"lon":5.40971,"is_reserved":false,"is_disabled":false,"rental_uris":{"android":"levelo://app?vid=963ada89-2813-41bb-a83b-b411c2ffb6f5","ios":"levelo://app?vid=963ada89-2813-41bb-a83b-b411c2ffb6f5"},"vehicle_type_id":"4","last_reported":1737112062,"current_range_meters":16800,"station_id":"","pricing_plan_id":"cebpf4jnsgd1na2vs0mg"},{"bike_id":"0d23080e-06c3-45fa-a0a0-35b9e701809a","system_id":"levelo_inurba_marseille","lat":43.29819,"lon":5.3707,"is_reserved":false,"is_disabled":false,"rental_uris":{"android":"levelo://app?vid=0d23080e-06c3-45fa-a0a0-35b9e701809a","ios":"levelo://app?vid=0d23080e-06c3-45fa-a0a0-35b9e701809a"},"vehicle_type_id":"4","last_reported":1737112062,"current_range_meters":38000,"station_id":"ce4bgop2rcd13ifvqc1g","pricing_plan_id":"cebpf4jnsgd1na2vs0mg"},{"bike_id":"7383474c-b45a-4438-837c-99d7ae866fe7","system_id":"levelo_inurba_marseille","lat":43.2606,"lon":5.39422,"is_reserved":false,"is_disabled":false,"rental_uris":{"android":"levelo://app?vid=7383474c-b45a-4438-837c-99d7ae866fe7","ios":"levelo://app?vid=7383474c-b45a-4438-837c-99d7ae866fe7"},"vehicle_type_id":"4","last_reported":1737112062,"current_range_meters":38800,"station_id":"ce4bhh92rcd13ifvqfj0","pricing_plan_id":"cebpf4jnsgd1na2vs0mg"},{"bike_id":"dc88b6b1-eb03-4885-9794-761910451a48","system_id":"levelo_inurba_marseille","lat":43.23149,"lon":5.43714,"is_reserved":false,"is_disabled":false,"rental_uris":{"android":"levelo://app?vid=dc88b6b1-eb03-4885-9794-761910451a48","ios":"levelo://app?vid=dc88b6b1-eb03-4885-9794-761910451a48"},"vehicle_type_id":"4","last_reported":1737112062,"current_range_meters":38000,"station_id":"ce4bhmp2rcd13ifvqgog","pricing_plan_id":"cebpf4jnsgd1na2vs0mg"},{"bike_id":"41364a09-40e6-4848-9859-94a5c6c479e7","system_id":"levelo_inurba_marseille","lat":43.2591,"lon":5.40896,"is_reserved":false,"is_disabled":false,"rental_uris":{"android":"levelo://app?vid=41364a09-40e6-4848-9859-94a5c6c479e7","ios":"levelo://app?vid=41364a09-40e6-4848-9859-94a5c6c479e7"},"vehicle_type_id":"4","last_reported":1737112062,"current_range_meters":38400,"station_id":"ce4bhm92rcd13ifvqglg","pricing_plan_id":"cebpf4jnsgd1na2vs0mg"},{"bike_id":"0dd19019-f68e-4196-b969-e64a3d920187","system_id":"levelo_inurba_marseille","lat":43.30537,"lon":5.36696,"is_reserved":false,"is_disabled":false,"rental_uris":{"android":"levelo://app?vid=0dd19019-f68e-4196-b969-e64a3d920187","ios":"levelo://app?vid=0dd19019-f68e-4196-b969-e64a3d920187"},"vehicle_type_id":"4","last_reported":1737112062,"current_range_meters":31200,"station_id":"ce4bgrp2rcd13ifvqc9g","pricing_plan_id":"cebpf4jnsgd1na2vs0mg"},{"bike_id":"0116d5e4-3224-4531-967c-77620db57375","system_id":"levelo_inurba_marseille","lat":43.3026,"lon":5.37742,"is_reserved":false,"is_disabled":false,"rental_uris":{"android":"levelo://app?vid=0116d5e4-3224-4531-967c-77620db57375","ios":"levelo://app?vid=0116d5e4-3224-4531-967c-77620db57375"},"vehicle_type_id":"4","last_reported":1737112062,"current_range_meters":28400,"station_id":"ce4bguh2rcd13ifvqcj0","pricing_plan_id":"cebpf4jnsgd1na2vs0mg"},{"bike_id":"22ccf45d-452d-45b0-ab56-995b2e477ec6","system_id":"levelo_inurba_marseille","lat":43.315,"lon":5.37281,"is_reserved":false,"is_disabled":false,"rental_uris":{"android":"levelo://app?vid=22ccf45d-452d-45b0-ab56-995b2e477ec6","ios":"levelo://app?vid=22ccf45d-452d-45b0-ab56-995b2e477ec6"},"vehicle_type_id":"4","last_reported":1737112062,"current_range_meters":8400,"station_id":"ce4bgt12rcd13ifvqcd0","pricing_plan_id":"cebpf4jnsgd1na2vs0mg"},{"bike_id":"44721705-52d0-4eba-b0b2-b41ea9586411","system_id":"levelo_inurba_marseille","lat":43.23189,"lon":5.35561,"is_reserved":false,"is_disabled":false,"rental_uris":{"android":"levelo://app?vid=44721705-52d0-4eba-b0b2-b41ea9586411","ios":"levelo://app?vid=44721705-52d0-4eba-b0b2-b41ea9586411"},"vehicle_type_id":"4","last_reported":1737112062,"current_range_meters":30400,"station_id":"ce4bhu92rcd13ifvqi70","pricing_plan_id":"cebpf4jnsgd1na2vs0mg"},{"bike_id":"bca8ca0e-e6bb-4c30-9c0f-003d202e822c","system_id":"levelo_inurba_marseille","lat":43.27323,"lon":5.3914,"is_reserved":false,"is_disabled":false,"rental_uris":{"android":"levelo://app?vid=bca8ca0e-e6bb-4c30-9c0f-003d202e822c","ios":"levelo://app?vid=bca8ca0e-e6bb-4c30-9c0f-003d202e822c"},"vehicle_type_id":"4","last_reported":1737112062,"current_range_meters":39200,"station_id":"ce4bhgp2rcd13ifvqfe0","pricing_plan_id":"cebpf4jnsgd1na2vs0mg"},{"bike_id":"fe4ca2de-39b1-4c54-a18c-5b9311dc9a5e","system_id":"levelo_inurba_marseille","lat":43.30524,"lon":5.36558,"is_reserved":false,"is_disabled":false,"rental_uris":{"android":"levelo://app?vid=fe4ca2de-39b1-4c54-a18c-5b9311dc9a5e","ios":"levelo://app?vid=fe4ca2de-39b1-4c54-a18c-5b9311dc9a5e"},"vehicle_type_id":"4","last_reported":1737112062,"current_range_meters":39200,"station_id":"ce4bgs12rcd13ifvqcag","pricing_plan_id":"cebpf4jnsgd1na2vs0mg"},{"bike_id":"7138f953-e5b4-4a72-b4e7-3913f820a576","system_id":"levelo_inurba_marseille","lat":43.2721,"lon":5.40985,"is_reserved":false,"is_disabled":false,"rental_uris":{"android":"levelo://app?vid=7138f953-e5b4-4a72-b4e7-3913f820a576","ios":"levelo://app?vid=7138f953-e5b4-4a72-b4e7-3913f820a576"},"vehicle_type_id":"4","last_reported":1737112062,"current_range_meters":38400,"station_id":"ce4bhl12rcd13ifvqgf0","pricing_plan_id":"cebpf4jnsgd1na2vs0mg"},{"bike_id":"c7bcecd8-3a14-413d-a18b-816a3ee2e422","system_id":"levelo_inurba_marseille","lat":43.31342,"lon":5.36731,"is_reserved":false,"is_disabled":false,"rental_uris":{"android":"levelo://app?vid=c7bcecd8-3a14-413d-a18b-816a3ee2e422","ios":"levelo://app?vid=c7bcecd8-3a14-413d-a18b-816a3ee2e422"},"vehicle_type_id":"4","last_reported":1737112062,"current_range_meters":23200,"station_id":"ce4bgr92rcd13ifvqc6g","pricing_plan_id":"cebpf4jnsgd1na2vs0mg"},{"bike_id":"1b6b7ffd-1198-465a-82b8-c33775fecaff","system_id":"levelo_inurba_marseille","lat":43.26192,"lon":5.37443,"is_reserved":false,"is_disabled":false,"rental_uris":{"android":"levelo://app?vid=1b6b7ffd-1198-465a-82b8-c33775fecaff","ios":"levelo://app?vid=1b6b7ffd-1198-465a-82b8-c33775fecaff"},"vehicle_type_id":"4","last_reported":1737112062,"current_range_meters":38800,"station_id":"ce4bhgp2rcd13ifvqfc0","pricing_plan_id":"cebpf4jnsgd1na2vs0mg"},{"bike_id":"62ffb946-af5b-4548-8aab-c683ba9f0753","system_id":"levelo_inurba_marseille","lat":43.30543,"lon":5.3843,"is_reserved":false,"is_disabled":false,"rental_uris":{"android":"levelo://app?vid=62ffb946-af5b-4548-8aab-c683ba9f0753","ios":"levelo://app?vid=62ffb946-af5b-4548-8aab-c683ba9f0753"},"vehicle_type_id":"4","last_reported":1737112062,"current_range_meters":24800,"station_id":"ce4bgg92rcd13ifvqb30","pricing_plan_id":"cebpf4jnsgd1na2vs0mg"},{"bike_id":"c358e49b-43b6-4b4c-a025-6c358895f1c7","system_id":"levelo_inurba_marseille","lat":43.26212,"lon":5.37443,"is_reserved":false,"is_disabled":false,"rental_uris":{"android":"levelo://app?vid=c358e49b-43b6-4b4c-a025-6c358895f1c7","ios":"levelo://app?vid=c358e49b-43b6-4b4c-a025-6c358895f1c7"},"vehicle_type_id":"4","last_reported":1737112062,"current_range_meters":27600,"station_id":"ce4bhgp2rcd13ifvqfc0","pricing_plan_id":"cebpf4jnsgd1na2vs0mg"},{"bike_id":"e1f9a0b5-1419-4e67-ab24-a72ee45dfd85","system_id":"levelo_inurba_marseille","lat":43.241634,"lon":5.363996,"is_reserved":false,"is_disabled":false,"rental_uris":{"android":"levelo://app?vid=e1f9a0b5-1419-4e67-ab24-a72ee45dfd85","ios":"levelo://app?vid=e1f9a0b5-1419-4e67-ab24-a72ee45dfd85"},"vehicle_type_id":"4","last_reported":1737112062,"current_range_meters":16400,"station_id":"cpo36qri1sfpv3e86is0","pricing_plan_id":"cebpf4jnsgd1na2vs0mg"},{"bike_id":"f3c68b7c-e76b-4c4f-ba50-1c2bf4ba8f19","system_id":"levelo_inurba_marseille","lat":43.31382,"lon":5.38495,"is_reserved":false,"is_disabled":false,"rental_uris":{"android":"levelo://app?vid=f3c68b7c-e76b-4c4f-ba50-1c2bf4ba8f19","ios":"levelo://app?vid=f3c68b7c-e76b-4c4f-ba50-1c2bf4ba8f19"},"vehicle_type_id":"4","last_reported":1737112062,"current_range_meters":16000,"station_id":"ce4bgt92rcd13ifvqcf0","pricing_plan_id":"cebpf4jnsgd1na2vs0mg"},{"bike_id":"882e3c20-dd13-45c9-b2cc-b9e0e7c63a64","system_id":"levelo_inurba_marseille","lat":43.30534,"lon":5.36539,"is_reserved":false,"is_disabled":false,"rental_uris":{"android":"levelo://app?vid=882e3c20-dd13-45c9-b2cc-b9e0e7c63a64","ios":"levelo://app?vid=882e3c20-dd13-45c9-b2cc-b9e0e7c63a64"},"vehicle_type_id":"4","last_reported":1737112062,"current_range_meters":39200,"station_id":"ce4bgs12rcd13ifvqcag","pricing_plan_id":"cebpf4jnsgd1na2vs0mg"},{"bike_id":"c3de6877-1f6c-46f2-8ace-6b8834abcbb4","system_id":"levelo_inurba_marseille","lat":43.29063,"lon":5.37157,"is_reserved":false,"is_disabled":true,"rental_uris":{"android":"levelo://app?vid=c3de6877-1f6c-46f2-8ace-6b8834abcbb4","ios":"levelo://app?vid=c3de6877-1f6c-46f2-8ace-6b8834abcbb4"},"vehicle_type_id":"4","last_reported":1737112062,"current_range_meters":26800,"station_id":"ce4bh5p2rcd13ifvqe4g","pricing_plan_id":"cebpf4jnsgd1na2vs0mg"},{"bike_id":"942f6948-05a5-45d4-82d9-ac447cddb6ab","system_id":"levelo_inurba_marseille","lat":43.27806,"lon":5.40733,"is_reserved":false,"is_disabled":false,"rental_uris":{"android":"levelo://app?vid=942f6948-05a5-45d4-82d9-ac447cddb6ab","ios":"levelo://app?vid=942f6948-05a5-45d4-82d9-ac447cddb6ab"},"vehicle_type_id":"4","last_reported":1737112062,"current_range_meters":8400,"station_id":"ce4bhnh2rcd13ifvqgtg","pricing_plan_id":"cebpf4jnsgd1na2vs0mg"},{"bike_id":"c2304ced-bf00-48b6-8385-db52601b7ccc","system_id":"levelo_inurba_marseille","lat":43.24386,"lon":5.37061,"is_reserved":false,"is_disabled":false,"rental_uris":{"android":"levelo://app?vid=c2304ced-bf00-48b6-8385-db52601b7ccc","ios":"levelo://app?vid=c2304ced-bf00-48b6-8385-db52601b7ccc"},"vehicle_type_id":"4","last_reported":1737112062,"current_range_meters":38000,"station_id":"ce4bhhh2rcd13ifvqfk0","pricing_plan_id":"cebpf4jnsgd1na2vs0mg"},{"bike_id":"2aa98a8e-265a-4dfa-baae-3da013df4e11","system_id":"levelo_inurba_marseille","lat":43.27365,"lon":5.36249,"is_reserved":false,"is_disabled":false,"rental_uris":{"android":"levelo://app?vid=2aa98a8e-265a-4dfa-baae-3da013df4e11","ios":"levelo://app?vid=2aa98a8e-265a-4dfa-baae-3da013df4e11"},"vehicle_type_id":"4","last_reported":1737112062,"current_range_meters":10000,"station_id":"ce4bhbh2rcd13ifvqeo0","pricing_plan_id":"cebpf4jnsgd1na2vs0mg"},{"bike_id":"18324d97-c6b3-4f22-9bf9-8df3270339e8","system_id":"levelo_inurba_marseille","lat":43.27824,"lon":5.4072,"is_reserved":false,"is_disabled":false,"rental_uris":{"android":"levelo://app?vid=18324d97-c6b3-4f22-9bf9-8df3270339e8","ios":"levelo://app?vid=18324d97-c6b3-4f22-9bf9-8df3270339e8"},"vehicle_type_id":"4","last_reported":1737112062,"current_range_meters":30000,"station_id":"ce4bhnh2rcd13ifvqgtg","pricing_plan_id":"cebpf4jnsgd1na2vs0mg"},{"bike_id":"53d0db46-3b8c-4298-96d7-03a0d6fafab4","system_id":"levelo_inurba_marseille","lat":43.30544,"lon":5.36531,"is_reserved":false,"is_disabled":false,"rental_uris":{"android":"levelo://app?vid=53d0db46-3b8c-4298-96d7-03a0d6fafab4","ios":"levelo://app?vid=53d0db46-3b8c-4298-96d7-03a0d6fafab4"},"vehicle_type_id":"4","last_reported":1737112062,"current_range_meters":39200,"station_id":"ce4bgs12rcd13ifvqcag","pricing_plan_id":"cebpf4jnsgd1na2vs0mg"},{"bike_id":"9fd67735-0e42-4ea3-ba49-b3e72ffcfb28","system_id":"levelo_inurba_marseille","lat":43.30541,"lon":5.36714,"is_reserved":false,"is_disabled":false,"rental_uris":{"android":"levelo://app?vid=9fd67735-0e42-4ea3-ba49-b3e72ffcfb28","ios":"levelo://app?vid=9fd67735-0e42-4ea3-ba49-b3e72ffcfb28"},"vehicle_type_id":"4","last_reported":1737112062,"current_range_meters":39200,"station_id":"ce4bgrp2rcd13ifvqc9g","pricing_plan_id":"cebpf4jnsgd1na2vs0mg"},{"bike_id":"7d3c749d-4eb6-4ace-b278-8c043ec9d8f5","system_id":"levelo_inurba_marseille","lat":43.26557,"lon":5.37301,"is_reserved":false,"is_disabled":false,"rental_uris":{"android":"levelo://app?vid=7d3c749d-4eb6-4ace-b278-8c043ec9d8f5","ios":"levelo://app?vid=7d3c749d-4eb6-4ace-b278-8c043ec9d8f5"},"vehicle_type_id":"4","last_reported":1737112062,"current_range_meters":28400,"station_id":"ce4bhg12rcd13ifvqf70","pricing_plan_id":"cebpf4jnsgd1na2vs0mg"},{"bike_id":"f5863b18-13a1-4c6e-92de-5668ea912ad3","system_id":"levelo_inurba_marseille","lat":43.26172,"lon":5.40443,"is_reserved":false,"is_disabled":true,"rental_uris":{"android":"levelo://app?vid=f5863b18-13a1-4c6e-92de-5668ea912ad3","ios":"levelo://app?vid=f5863b18-13a1-4c6e-92de-5668ea912ad3"},"vehicle_type_id":"4","last_reported":1737112062,"current_range_meters":0,"station_id":"","pricing_plan_id":"cebpf4jnsgd1na2vs0mg"},{"bike_id":"f429c989-8320-4734-be82-07b251d1842e","system_id":"levelo_inurba_marseille","lat":43.27664,"lon":5.38912,"is_reserved":false,"is_disabled":false,"rental_uris":{"android":"levelo://app?vid=f429c989-8320-4734-be82-07b251d1842e","ios":"levelo://app?vid=f429c989-8320-4734-be82-07b251d1842e"},"vehicle_type_id":"4","last_reported":1737112062,"current_range_meters":38800,"station_id":"","pricing_plan_id":"cebpf4jnsgd1na2vs0mg"},{"bike_id":"a8fad254-19bb-48fe-801d-9e93d4767cef","system_id":"levelo_inurba_marseille","lat":43.3143,"lon":5.3739,"is_reserved":false,"is_disabled":true,"rental_uris":{"android":"levelo://app?vid=a8fad254-19bb-48fe-801d-9e93d4767cef","ios":"levelo://app?vid=a8fad254-19bb-48fe-801d-9e93d4767cef"},"vehicle_type_id":"4","last_reported":1737112062,"current_range_meters":0,"station_id":"","pricing_plan_id":"cebpf4jnsgd1na2vs0mg"},{"bike_id":"a7595b6a-cccc-4e99-a784-dc6b65610f55","system_id":"levelo_inurba_marseille","lat":43.29103,"lon":5.3813,"is_reserved":false,"is_disabled":false,"rental_uris":{"android":"levelo://app?vid=a7595b6a-cccc-4e99-a784-dc6b65610f55","ios":"levelo://app?vid=a7595b6a-cccc-4e99-a784-dc6b65610f55"},"vehicle_type_id":"4","last_reported":1737112062,"current_range_meters":8000,"station_id":"ce4bh512rcd13ifvqe2g","pricing_plan_id":"cebpf4jnsgd1na2vs0mg"},{"bike_id":"c1725ead-01c3-4f75-84f2-0e37ba1865ed","system_id":"levelo_inurba_marseille","lat":43.32467,"lon":5.36588,"is_reserved":false,"is_disabled":false,"rental_uris":{"android":"levelo://app?vid=c1725ead-01c3-4f75-84f2-0e37ba1865ed","ios":"levelo://app?vid=c1725ead-01c3-4f75-84f2-0e37ba1865ed"},"vehicle_type_id":"4","last_reported":1737112062,"current_range_meters":32000,"station_id":"ce4bhs12rcd13ifvqhvg","pricing_plan_id":"cebpf4jnsgd1na2vs0mg"},{"bike_id":"e5f71037-c3e2-4a5c-b185-51bcddd625d8","system_id":"levelo_inurba_marseille","lat":43.23052,"lon":5.35506,"is_reserved":false,"is_disabled":false,"rental_uris":{"android":"levelo://app?vid=e5f71037-c3e2-4a5c-b185-51bcddd625d8","ios":"levelo://app?vid=e5f71037-c3e2-4a5c-b185-51bcddd625d8"},"vehicle_type_id":"4","last_reported":1737112062,"current_range_meters":5600,"station_id":"cpo3342slgdg3j2ifvpg","pricing_plan_id":"cebpf4jnsgd1na2vs0mg"},{"bike_id":"46686b70-f375-4947-b209-2f4548c2edcf","system_id":"levelo_inurba_marseille","lat":43.28887,"lon":5.39475,"is_reserved":false,"is_disabled":true,"rental_uris":{"android":"levelo://app?vid=46686b70-f375-4947-b209-2f4548c2edcf","ios":"levelo://app?vid=46686b70-f375-4947-b209-2f4548c2edcf"},"vehicle_type_id":"4","last_reported":1737112062,"current_range_meters":0,"station_id":"","pricing_plan_id":"cebpf4jnsgd1na2vs0mg"},{"bike_id":"b11526d6-7b12-4e90-9133-ea4274cbaae7","system_id":"levelo_inurba_marseille","lat":43.29586,"lon":5.36746,"is_reserved":false,"is_disabled":false,"rental_uris":{"android":"levelo://app?vid=b11526d6-7b12-4e90-9133-ea4274cbaae7","ios":"levelo://app?vid=b11526d6-7b12-4e90-9133-ea4274cbaae7"},"vehicle_type_id":"4","last_reported":1737112062,"current_range_meters":13600,"station_id":"ce4bgph2rcd13ifvqc2g","pricing_plan_id":"cebpf4jnsgd1na2vs0mg"},{"bike_id":"a6598479-da72-427b-98ef-dbfa1cde27d9","system_id":"levelo_inurba_marseille","lat":43.250953,"lon":5.39494,"is_reserved":false,"is_disabled":false,"rental_uris":{"android":"levelo://app?vid=a6598479-da72-427b-98ef-dbfa1cde27d9","ios":"levelo://app?vid=a6598479-da72-427b-98ef-dbfa1cde27d9"},"vehicle_type_id":"4","last_reported":1737112062,"current_range_meters":22400,"station_id":"ce4bhm12rcd13ifvqgkg","pricing_plan_id":"cebpf4jnsgd1na2vs0mg"},{"bike_id":"1e4067fa-9321-4a2b-8041-2f3326f54dda","system_id":"levelo_inurba_marseille","lat":43.30294,"lon":5.37722,"is_reserved":false,"is_disabled":false,"rental_uris":{"android":"levelo://app?vid=1e4067fa-9321-4a2b-8041-2f3326f54dda","ios":"levelo://app?vid=1e4067fa-9321-4a2b-8041-2f3326f54dda"},"vehicle_type_id":"4","last_reported":1737112062,"current_range_meters":39200,"station_id":"ce4bguh2rcd13ifvqcj0","pricing_plan_id":"cebpf4jnsgd1na2vs0mg"},{"bike_id":"be35b362-1c70-4168-bd36-2be79ed87392","system_id":"levelo_inurba_marseille","lat":43.31255,"lon":5.36876,"is_reserved":false,"is_disabled":false,"rental_uris":{"android":"levelo://app?vid=be35b362-1c70-4168-bd36-2be79ed87392","ios":"levelo://app?vid=be35b362-1c70-4168-bd36-2be79ed87392"},"vehicle_type_id":"4","last_reported":1737112062,"current_range_meters":35600,"station_id":"ce4bgl92rcd13ifvqbq0","pricing_plan_id":"cebpf4jnsgd1na2vs0mg"},{"bike_id":"ec3275b1-af95-4066-ac0f-3dc40f747874","system_id":"levelo_inurba_marseille","lat":43.29002,"lon":5.35615,"is_reserved":false,"is_disabled":false,"rental_uris":{"android":"levelo://app?vid=ec3275b1-af95-4066-ac0f-3dc40f747874","ios":"levelo://app?vid=ec3275b1-af95-4066-ac0f-3dc40f747874"},"vehicle_type_id":"4","last_reported":1737112062,"current_range_meters":37600,"station_id":"ce4bhb92rcd13ifvqen0","pricing_plan_id":"cebpf4jnsgd1na2vs0mg"},{"bike_id":"98da7b58-84b8-42df-8aaf-5432849e757a","system_id":"levelo_inurba_marseille","lat":43.26957,"lon":5.38635,"is_reserved":false,"is_disabled":false,"rental_uris":{"android":"levelo://app?vid=98da7b58-84b8-42df-8aaf-5432849e757a","ios":"levelo://app?vid=98da7b58-84b8-42df-8aaf-5432849e757a"},"vehicle_type_id":"4","last_reported":1737112062,"current_range_meters":28000,"station_id":"ce4bhh92rcd13ifvqfh0","pricing_plan_id":"cebpf4jnsgd1na2vs0mg"},{"bike_id":"d405574e-0cd5-4290-8641-b9bf53e7e4ae","system_id":"levelo_inurba_marseille","lat":43.277278,"lon":5.388675,"is_reserved":false,"is_disabled":false,"rental_uris":{"android":"levelo://app?vid=d405574e-0cd5-4290-8641-b9bf53e7e4ae","ios":"levelo://app?vid=d405574e-0cd5-4290-8641-b9bf53e7e4ae"},"vehicle_type_id":"4","last_reported":1737112062,"current_range_meters":33200,"station_id":"ce4bhi12rcd13ifvqfo0","pricing_plan_id":"cebpf4jnsgd1na2vs0mg"},{"bike_id":"53c26170-756a-4ffa-a56a-36d0d287c54c","system_id":"levelo_inurba_marseille","lat":43.31085,"lon":5.42443,"is_reserved":false,"is_disabled":false,"rental_uris":{"android":"levelo://app?vid=53c26170-756a-4ffa-a56a-36d0d287c54c","ios":"levelo://app?vid=53c26170-756a-4ffa-a56a-36d0d287c54c"},"vehicle_type_id":"4","last_reported":1737112062,"current_range_meters":39200,"station_id":"ce4bhp92rcd13ifvqhag","pricing_plan_id":"cebpf4jnsgd1na2vs0mg"},{"bike_id":"769f2685-578f-4262-865f-88829e9f059f","system_id":"levelo_inurba_marseille","lat":43.3228,"lon":5.38296,"is_reserved":false,"is_disabled":false,"rental_uris":{"android":"levelo://app?vid=769f2685-578f-4262-865f-88829e9f059f","ios":"levelo://app?vid=769f2685-578f-4262-865f-88829e9f059f"},"vehicle_type_id":"4","last_reported":1737112062,"current_range_meters":38800,"station_id":"ce4bhr12rcd13ifvqhqg","pricing_plan_id":"cebpf4jnsgd1na2vs0mg"},{"bike_id":"6fd6e968-3cda-4943-8532-d4df4d874d56","system_id":"levelo_inurba_marseille","lat":43.26225,"lon":5.40471,"is_reserved":false,"is_disabled":false,"rental_uris":{"android":"levelo://app?vid=6fd6e968-3cda-4943-8532-d4df4d874d56","ios":"levelo://app?vid=6fd6e968-3cda-4943-8532-d4df4d874d56"},"vehicle_type_id":"4","last_reported":1737112062,"current_range_meters":8000,"station_id":"","pricing_plan_id":"cebpf4jnsgd1na2vs0mg"},{"bike_id":"a66d6c58-eb43-4976-925a-213a5b7be83d","system_id":"levelo_inurba_marseille","lat":43.29929,"lon":5.3745,"is_reserved":false,"is_disabled":false,"rental_uris":{"android":"levelo://app?vid=a66d6c58-eb43-4976-925a-213a5b7be83d","ios":"levelo://app?vid=a66d6c58-eb43-4976-925a-213a5b7be83d"},"vehicle_type_id":"4","last_reported":1737112062,"current_range_meters":25600,"station_id":"ce4bgjh2rcd13ifvqbg0","pricing_plan_id":"cebpf4jnsgd1na2vs0mg"},{"bike_id":"6b5931c1-7565-4507-89df-c62e90858ac5","system_id":"levelo_inurba_marseille","lat":43.29273,"lon":5.40129,"is_reserved":false,"is_disabled":false,"rental_uris":{"android":"levelo://app?vid=6b5931c1-7565-4507-89df-c62e90858ac5","ios":"levelo://app?vid=6b5931c1-7565-4507-89df-c62e90858ac5"},"vehicle_type_id":"4","last_reported":1737112062,"current_range_meters":32000,"station_id":"ce4bh312rcd13ifvqdk0","pricing_plan_id":"cebpf4jnsgd1na2vs0mg"},{"bike_id":"37300353-f42e-4db8-94aa-530e588cd956","system_id":"levelo_inurba_marseille","lat":43.26955,"lon":5.38634,"is_reserved":false,"is_disabled":false,"rental_uris":{"android":"levelo://app?vid=37300353-f42e-4db8-94aa-530e588cd956","ios":"levelo://app?vid=37300353-f42e-4db8-94aa-530e588cd956"},"vehicle_type_id":"4","last_reported":1737112062,"current_range_meters":29600,"station_id":"ce4bhh92rcd13ifvqfh0","pricing_plan_id":"cebpf4jnsgd1na2vs0mg"},{"bike_id":"e7120db1-cc09-44ac-98ae-a4059feaa7ae","system_id":"levelo_inurba_marseille","lat":43.30503,"lon":5.36725,"is_reserved":false,"is_disabled":false,"rental_uris":{"android":"levelo://app?vid=e7120db1-cc09-44ac-98ae-a4059feaa7ae","ios":"levelo://app?vid=e7120db1-cc09-44ac-98ae-a4059feaa7ae"},"vehicle_type_id":"4","last_reported":1737112062,"current_range_meters":38000,"station_id":"ce4bgrp2rcd13ifvqc9g","pricing_plan_id":"cebpf4jnsgd1na2vs0mg"},{"bike_id":"03cdaa0d-8da7-44a6-a6d7-9eedec226f84","system_id":"levelo_inurba_marseille","lat":43.30148,"lon":5.37429,"is_reserved":false,"is_disabled":false,"rental_uris":{"android":"levelo://app?vid=03cdaa0d-8da7-44a6-a6d7-9eedec226f84","ios":"levelo://app?vid=03cdaa0d-8da7-44a6-a6d7-9eedec226f84"},"vehicle_type_id":"4","last_reported":1737112062,"current_range_meters":31200,"station_id":"ce4bgs92rcd13ifvqcc0","pricing_plan_id":"cebpf4jnsgd1na2vs0mg"},{"bike_id":"c545084e-a464-43ad-a0d3-118acf76523b","system_id":"levelo_inurba_marseille","lat":43.25942,"lon":5.4091,"is_reserved":false,"is_disabled":false,"rental_uris":{"android":"levelo://app?vid=c545084e-a464-43ad-a0d3-118acf76523b","ios":"levelo://app?vid=c545084e-a464-43ad-a0d3-118acf76523b"},"vehicle_type_id":"4","last_reported":1737112062,"current_range_meters":36400,"station_id":"ce4bhm92rcd13ifvqglg","pricing_plan_id":"cebpf4jnsgd1na2vs0mg"},{"bike_id":"33218fcd-70b5-4354-99e4-b145e74477a9","system_id":"levelo_inurba_marseille","lat":43.295,"lon":5.39418,"is_reserved":false,"is_disabled":true,"rental_uris":{"android":"levelo://app?vid=33218fcd-70b5-4354-99e4-b145e74477a9","ios":"levelo://app?vid=33218fcd-70b5-4354-99e4-b145e74477a9"},"vehicle_type_id":"4","last_reported":1737112062,"current_range_meters":37600,"station_id":"ce4bh292rcd13ifvqdf0","pricing_plan_id":"cebpf4jnsgd1na2vs0mg"},{"bike_id":"ee9e9540-724e-4ebc-843c-54366964df02","system_id":"levelo_inurba_marseille","lat":43.26189,"lon":5.37456,"is_reserved":false,"is_disabled":false,"rental_uris":{"android":"levelo://app?vid=ee9e9540-724e-4ebc-843c-54366964df02","ios":"levelo://app?vid=ee9e9540-724e-4ebc-843c-54366964df02"},"vehicle_type_id":"4","last_reported":1737112062,"current_range_meters":22800,"station_id":"ce4bhgp2rcd13ifvqfc0","pricing_plan_id":"cebpf4jnsgd1na2vs0mg"},{"bike_id":"2a9a07ea-0254-44a3-895c-df9de430fd2e","system_id":"levelo_inurba_marseille","lat":43.2969,"lon":5.39542,"is_reserved":false,"is_disabled":false,"rental_uris":{"android":"levelo://app?vid=2a9a07ea-0254-44a3-895c-df9de430fd2e","ios":"levelo://app?vid=2a9a07ea-0254-44a3-895c-df9de430fd2e"},"vehicle_type_id":"4","last_reported":1737112062,"current_range_meters":38800,"station_id":"","pricing_plan_id":"cebpf4jnsgd1na2vs0mg"},{"bike_id":"763cbeaa-3641-4f62-ad77-738af81e48d8","system_id":"levelo_inurba_marseille","lat":43.3248,"lon":5.36557,"is_reserved":false,"is_disabled":false,"rental_uris":{"android":"levelo://app?vid=763cbeaa-3641-4f62-ad77-738af81e48d8","ios":"levelo://app?vid=763cbeaa-3641-4f62-ad77-738af81e48d8"},"vehicle_type_id":"4","last_reported":1737112062,"current_range_meters":24400,"station_id":"ce4bhs12rcd13ifvqhvg","pricing_plan_id":"cebpf4jnsgd1na2vs0mg"},{"bike_id":"e0465de2-1648-4504-9618-59b63e2acad8","system_id":"levelo_inurba_marseille","lat":43.32061,"lon":5.36847,"is_reserved":false,"is_disabled":false,"rental_uris":{"android":"levelo://app?vid=e0465de2-1648-4504-9618-59b63e2acad8","ios":"levelo://app?vid=e0465de2-1648-4504-9618-59b63e2acad8"},"vehicle_type_id":"4","last_reported":1737112062,"current_range_meters":36000,"station_id":"ce4bhrh2rcd13ifvqhug","pricing_plan_id":"cebpf4jnsgd1na2vs0mg"},{"bike_id":"c5874c81-b7f2-46b1-906e-f0bd8f2b202e","system_id":"levelo_inurba_marseille","lat":43.27815,"lon":5.40734,"is_reserved":false,"is_disabled":false,"rental_uris":{"android":"levelo://app?vid=c5874c81-b7f2-46b1-906e-f0bd8f2b202e","ios":"levelo://app?vid=c5874c81-b7f2-46b1-906e-f0bd8f2b202e"},"vehicle_type_id":"4","last_reported":1737112062,"current_range_meters":14800,"station_id":"ce4bhnh2rcd13ifvqgtg","pricing_plan_id":"cebpf4jnsgd1na2vs0mg"},{"bike_id":"3fc466a4-5364-4636-99d9-c7e2cc2ff0c2","system_id":"levelo_inurba_marseille","lat":43.33027,"lon":5.39047,"is_reserved":false,"is_disabled":false,"rental_uris":{"android":"levelo://app?vid=3fc466a4-5364-4636-99d9-c7e2cc2ff0c2","ios":"levelo://app?vid=3fc466a4-5364-4636-99d9-c7e2cc2ff0c2"},"vehicle_type_id":"4","last_reported":1737112062,"current_range_meters":39200,"station_id":"ce4bhr92rcd13ifvqhrg","pricing_plan_id":"cebpf4jnsgd1na2vs0mg"},{"bike_id":"dfaa04f2-effd-4b73-b57f-7518ee93e68b","system_id":"levelo_inurba_marseille","lat":43.32461,"lon":5.36576,"is_reserved":false,"is_disabled":false,"rental_uris":{"android":"levelo://app?vid=dfaa04f2-effd-4b73-b57f-7518ee93e68b","ios":"levelo://app?vid=dfaa04f2-effd-4b73-b57f-7518ee93e68b"},"vehicle_type_id":"4","last_reported":1737112062,"current_range_meters":10800,"station_id":"ce4bhs12rcd13ifvqhvg","pricing_plan_id":"cebpf4jnsgd1na2vs0mg"},{"bike_id":"0d8b0f5f-63d2-4929-a13b-235423438ee7","system_id":"levelo_inurba_marseille","lat":43.25028,"lon":5.38939,"is_reserved":false,"is_disabled":false,"rental_uris":{"android":"levelo://app?vid=0d8b0f5f-63d2-4929-a13b-235423438ee7","ios":"levelo://app?vid=0d8b0f5f-63d2-4929-a13b-235423438ee7"},"vehicle_type_id":"4","last_reported":1737112062,"current_range_meters":30000,"station_id":"ce4bhgp2rcd13ifvqfd0","pricing_plan_id":"cebpf4jnsgd1na2vs0mg"},{"bike_id":"d56c9101-5834-4595-9dbc-4861d059ffd9","system_id":"levelo_inurba_marseille","lat":43.2593,"lon":5.40912,"is_reserved":false,"is_disabled":false,"rental_uris":{"android":"levelo://app?vid=d56c9101-5834-4595-9dbc-4861d059ffd9","ios":"levelo://app?vid=d56c9101-5834-4595-9dbc-4861d059ffd9"},"vehicle_type_id":"4","last_reported":1737112062,"current_range_meters":24400,"station_id":"ce4bhm92rcd13ifvqglg","pricing_plan_id":"cebpf4jnsgd1na2vs0mg"},{"bike_id":"fc5453b3-fdef-4820-9622-45280a192152","system_id":"levelo_inurba_marseille","lat":43.30808,"lon":5.3815,"is_reserved":false,"is_disabled":false,"rental_uris":{"android":"levelo://app?vid=fc5453b3-fdef-4820-9622-45280a192152","ios":"levelo://app?vid=fc5453b3-fdef-4820-9622-45280a192152"},