{"last_updated":1722791188,"ttl":30,"version":"2.2","data":{"bikes":[{"bike_id":"8a1e487a-bc28-4e40-9693-09c2eff7af00","system_id":"levelo_inurba_marseille","lat":43.309076,"lon":5.368465,"is_reserved":false,"is_disabled":false,"rental_uris":{"android":"levelo://app?vid=8a1e487a-bc28-4e40-9693-09c2eff7af00","ios":"levelo://app?vid=8a1e487a-bc28-4e40-9693-09c2eff7af00"},"vehicle_type_id":"4","last_reported":1722791189,"current_range_meters":5200,"station_id":"ce4bgn92rcd13ifvqbvg","pricing_plan_id":"cebpf4jnsgd1na2vs0mg"},{"bike_id":"622bd63d-270f-435f-aee9-48ab557d92e3","system_id":"levelo_inurba_marseille","lat":43.309076,"lon":5.368465,"is_reserved":false,"is_disabled":false,"rental_uris":{"android":"levelo://app?vid=622bd63d-270f-435f-aee9-48ab557d92e3","ios":"levelo://app?vid=622bd63d-270f-435f-aee9-48ab557d92e3"},"vehicle_type_id":"4","last_reported":1722791189,"current_range_meters":9600,"station_id":"ce4bgn92rcd13ifvqbvg","pricing_plan_id":"cebpf4jnsgd1na2vs0mg"},{"bike_id":"9f814ed9-cff4-4fcd-82fd-5bda1b06bf53","system_id":"levelo_inurba_marseille","lat":43.314811,"lon":5.373103,"is_reserved":false,"is_disabled":false,"rental_uris":{"android":"levelo://app?vid=9f814ed9-cff4-4fcd-82fd-5bda1b06bf53","ios":"levelo://app?vid=9f814ed9-cff4-4fcd-82fd-5bda1b06bf53"},"vehicle_type_id":"4","last_reported":1722791189,"current_range_meters":29600,"station_id":"ce4bgt12rcd13ifvqcd0","pricing_plan_id":"cebpf4jnsgd1na2vs0mg"},{"bike_id":"beb29842-ed55-4b2d-8381-0e77c72ff93f","system_id":"levelo_inurba_marseille","lat":43.30937,"lon":5.374823,"is_reserved":false,"is_disabled":false,"rental_uris":{"android":"levelo://app?vid=beb29842-ed55-4b2d-8381-0e77c72ff93f","ios":"levelo://app?vid=beb29842-ed55-4b2d-8381-0e77c72ff93f"},"vehicle_type_id":"4","last_reported":1722791189,"current_range_meters":12800,"station_id":"","pricing_plan_id":"cebpf4jnsgd1na2vs0mg"},{"bike_id":"421208cc-fb1d-4150-b8d4-c32d7bd851a7","system_id":"levelo_inurba_marseille","lat":43.30537,"lon":5.367345,"is_reserved":false,"is_disabled":false,"rental_uris":{"android":"levelo://app?vid=421208cc-fb1d-4150-b8d4-c32d7bd851a7","ios":"levelo://app?vid=421208cc-fb1d-4150-b8d4-c32d7bd851a7"},"vehicle_type_id":"4","last_reported":1722791189,"current_range_meters":0,"station_id":"ce4bgrp2rcd13ifvqc9g","pricing_plan_id":"cebpf4jnsgd1na2vs0mg"},{"bike_id":"34d4e5be-5c65-4bfe-b7f5-8a7309490da3","system_id":"levelo_inurba_marseille","lat":43.305714,"lon":5.365633,"is_reserved":false,"is_disabled":false,"rental_uris":{"android":"levelo://app?vid=34d4e5be-5c65-4bfe-b7f5-8a7309490da3","ios":"levelo://app?vid=34d4e5be-5c65-4bfe-b7f5-8a7309490da3"},"vehicle_type_id":"4","last_reported":1722791189,"current_range_meters":0,"station_id":"ce4bgs12rcd13ifvqcag","pricing_plan_id":"cebpf4jnsgd1na2vs0mg"},{"bike_id":"7f7a6e76-45c4-4b0f-be72-8299fa09eba5","system_id":"levelo_inurba_marseille","lat":43.305368,"lon":5.367343,"is_reserved":false,"is_disabled":false,"rental_uris":{"android":"levelo://app?vid=7f7a6e76-45c4-4b0f-be72-8299fa09eba5","ios":"levelo://app?vid=7f7a6e76-45c4-4b0f-be72-8299fa09eba5"},"vehicle_type_id":"4","last_reported":1722791189,"current_range_meters":2800,"station_id":"ce4bgrp2rcd13ifvqc9g","pricing_plan_id":"cebpf4jnsgd1na2vs0mg"},{"bike_id":"e169f458-2b7d-40b2-845f-af1090f83871","system_id":"levelo_inurba_marseille","lat":43.30538,"lon":5.36523,"is_reserved":false,"is_disabled":false,"rental_uris":{"android":"levelo://app?vid=e169f458-2b7d-40b2-845f-af1090f83871","ios":"levelo://app?vid=e169f458-2b7d-40b2-845f-af1090f83871"},"vehicle_type_id":"4","last_reported":1722791189,"current_range_meters":0,"station_id":"ce4bgs12rcd13ifvqcag","pricing_plan_id":"cebpf4jnsgd1na2vs0mg"},{"bike_id":"cdd33631-131d-40cb-992a-853914b439ae","system_id":"levelo_inurba_marseille","lat":43.304943,"lon":5.370755,"is_reserved":false,"is_disabled":false,"rental_uris":{"android":"levelo://app?vid=cdd33631-131d-40cb-992a-853914b439ae","ios":"levelo://app?vid=cdd33631-131d-40cb-992a-853914b439ae"},"vehicle_type_id":"4","last_reported":1722791189,"current_range_meters":17600,"station_id":"","pricing_plan_id":"cebpf4jnsgd1na2vs0mg"},{"bike_id":"99adfebb-7301-4075-a960-fe74b840554f","system_id":"levelo_inurba_marseille","lat":43.317075,"lon":5.377367,"is_reserved":false,"is_disabled":false,"rental_uris":{"android":"levelo://app?vid=99adfebb-7301-4075-a960-fe74b840554f","ios":"levelo://app?vid=99adfebb-7301-4075-a960-fe74b840554f"},"vehicle_type_id":"4","last_reported":1722791189,"current_range_meters":14000,"station_id":"ce4bgth2rcd13ifvqch0","pricing_plan_id":"cebpf4jnsgd1na2vs0mg"},{"bike_id":"4154bbf4-946f-4c9c-99e8-c17c0c3a52b8","system_id":"levelo_inurba_marseille","lat":43.317075,"lon":5.377367,"is_reserved":false,"is_disabled":false,"rental_uris":{"android":"levelo://app?vid=4154bbf4-946f-4c9c-99e8-c17c0c3a52b8","ios":"levelo://app?vid=4154bbf4-946f-4c9c-99e8-c17c0c3a52b8"},"vehicle_type_id":"4","last_reported":1722791189,"current_range_meters":24400,"station_id":"ce4bgth2rcd13ifvqch0","pricing_plan_id":"cebpf4jnsgd1na2vs0mg"},{"bike_id":"746cd1d4-ddbc-43ad-bccc-6b9669e9fdd6","system_id":"levelo_inurba_marseille","lat":43.318875,"lon":5.377125,"is_reserved":false,"is_disabled":false,"rental_uris":{"android":"levelo://app?vid=746cd1d4-ddbc-43ad-bccc-6b9669e9fdd6","ios":"levelo://app?vid=746cd1d4-ddbc-43ad-bccc-6b9669e9fdd6"},"vehicle_type_id":"4","last_reported":1722791189,"current_range_meters":7200,"station_id":"","pricing_plan_id":"cebpf4jnsgd1na2vs0mg"},{"bike_id":"937d205e-2e3f-42c5-b744-cd8fb6683f87","system_id":"levelo_inurba_marseille","lat":43.31649,"lon":5.37992,"is_reserved":false,"is_disabled":false,"rental_uris":{"android":"levelo://app?vid=937d205e-2e3f-42c5-b744-cd8fb6683f87","ios":"levelo://app?vid=937d205e-2e3f-42c5-b744-cd8fb6683f87"},"vehicle_type_id":"4","last_reported":1722791189,"current_range_meters":26800,"station_id":"","pricing_plan_id":"cebpf4jnsgd1na2vs0mg"},{"bike_id":"7ddee55b-e140-46be-b3df-94db58723279","system_id":"levelo_inurba_marseille","lat":43.318446,"lon":5.378867,"is_reserved":false,"is_disabled":false,"rental_uris":{"android":"levelo://app?vid=7ddee55b-e140-46be-b3df-94db58723279","ios":"levelo://app?vid=7ddee55b-e140-46be-b3df-94db58723279"},"vehicle_type_id":"4","last_reported":1722791189,"current_range_meters":29600,"station_id":"","pricing_plan_id":"cebpf4jnsgd1na2vs0mg"},{"bike_id":"7d26f442-7c92-4f3d-8240-0ca62ad96ee4","system_id":"levelo_inurba_marseille","lat":43.323428,"lon":5.364891,"is_reserved":false,"is_disabled":false,"rental_uris":{"android":"levelo://app?vid=7d26f442-7c92-4f3d-8240-0ca62ad96ee4","ios":"levelo://app?vid=7d26f442-7c92-4f3d-8240-0ca62ad96ee4"},"vehicle_type_id":"4","last_reported":1722791189,"current_range_meters":21600,"station_id":"","pricing_plan_id":"cebpf4jnsgd1na2vs0mg"},{"bike_id":"25847a1f-05e8-434c-9d0a-05009dbe951d","system_id":"levelo_inurba_marseille","lat":43.304606,"lon":5.379026,"is_reserved":false,"is_disabled":false,"rental_uris":{"android":"levelo://app?vid=25847a1f-05e8-434c-9d0a-05009dbe951d","ios":"levelo://app?vid=25847a1f-05e8-434c-9d0a-05009dbe951d"},"vehicle_type_id":"4","last_reported":1722791189,"current_range_meters":0,"station_id":"ce4bgup2rcd13ifvqcn0","pricing_plan_id":"cebpf4jnsgd1na2vs0mg"},{"bike_id":"e6e8b8a2-4642-46ff-a11f-70122501d88c","system_id":"levelo_inurba_marseille","lat":43.324771,"lon":5.36557,"is_reserved":false,"is_disabled":false,"rental_uris":{"android":"levelo://app?vid=e6e8b8a2-4642-46ff-a11f-70122501d88c","ios":"levelo://app?vid=e6e8b8a2-4642-46ff-a11f-70122501d88c"},"vehicle_type_id":"4","last_reported":1722791189,"current_range_meters":3600,"station_id":"ce4bhs12rcd13ifvqhvg","pricing_plan_id":"cebpf4jnsgd1na2vs0mg"},{"bike_id":"e097be60-a435-4fce-9d05-93cf63db4800","system_id":"levelo_inurba_marseille","lat":43.324771,"lon":5.36557,"is_reserved":false,"is_disabled":false,"rental_uris":{"android":"levelo://app?vid=e097be60-a435-4fce-9d05-93cf63db4800","ios":"levelo://app?vid=e097be60-a435-4fce-9d05-93cf63db4800"},"vehicle_type_id":"4","last_reported":1722791189,"current_range_meters":5600,"station_id":"ce4bhs12rcd13ifvqhvg","pricing_plan_id":"cebpf4jnsgd1na2vs0mg"},{"bike_id":"acea373c-012a-49ac-8063-595537d5579d","system_id":"levelo_inurba_marseille","lat":43.324771,"lon":5.36557,"is_reserved":false,"is_disabled":false,"rental_uris":{"android":"levelo://app?vid=acea373c-012a-49ac-8063-595537d5579d","ios":"levelo://app?vid=acea373c-012a-49ac-8063-595537d5579d"},"vehicle_type_id":"4","last_reported":1722791189,"current_range_meters":800,"station_id":"ce4bhs12rcd13ifvqhvg","pricing_plan_id":"cebpf4jnsgd1na2vs0mg"},{"bike_id":"b72dc0aa-93fe-43bc-be00-318d213110aa","system_id":"levelo_inurba_marseille","lat":43.324771,"lon":5.36557,"is_reserved":false,"is_disabled":false,"rental_uris":{"android":"levelo://app?vid=b72dc0aa-93fe-43bc-be00-318d213110aa","ios":"levelo://app?vid=b72dc0aa-93fe-43bc-be00-318d213110aa"},"vehicle_type_id":"4","last_reported":1722791189,"current_range_meters":31200,"station_id":"ce4bhs12rcd13ifvqhvg","pricing_plan_id":"cebpf4jnsgd1na2vs0mg"},{"bike_id":"17ce2092-25e7-4cc9-bb44-0da650cdc054","system_id":"levelo_inurba_marseille","lat":43.324771,"lon":5.36557,"is_reserved":false,"is_disabled":false,"rental_uris":{"android":"levelo://app?vid=17ce2092-25e7-4cc9-bb44-0da650cdc054","ios":"levelo://app?vid=17ce2092-25e7-4cc9-bb44-0da650cdc054"},"vehicle_type_id":"4","last_reported":1722791189,"current_range_meters":4800,"station_id":"ce4bhs12rcd13ifvqhvg","pricing_plan_id":"cebpf4jnsgd1na2vs0mg"},{"bike_id":"aa6c3caa-a399-40fe-9908-325748fc4085","system_id":"levelo_inurba_marseille","lat":43.324771,"lon":5.36557,"is_reserved":false,"is_disabled":false,"rental_uris":{"android":"levelo://app?vid=aa6c3caa-a399-40fe-9908-325748fc4085","ios":"levelo://app?vid=aa6c3caa-a399-40fe-9908-325748fc4085"},"vehicle_type_id":"4","last_reported":1722791189,"current_range_meters":31200,"station_id":"ce4bhs12rcd13ifvqhvg","pricing_plan_id":"cebpf4jnsgd1na2vs0mg"},{"bike_id":"5c8e5d8f-bdd5-40cd-bd8e-b86adb71824b","system_id":"levelo_inurba_marseille","lat":43.324875,"lon":5.365615,"is_reserved":false,"is_disabled":false,"rental_uris":{"android":"levelo://app?vid=5c8e5d8f-bdd5-40cd-bd8e-b86adb71824b","ios":"levelo://app?vid=5c8e5d8f-bdd5-40cd-bd8e-b86adb71824b"},"vehicle_type_id":"4","last_reported":1722791189,"current_range_meters":0,"station_id":"ce4bhs12rcd13ifvqhvg","pricing_plan_id":"cebpf4jnsgd1na2vs0mg"},{"bike_id":"39c3d13d-fef7-48cf-9300-21353a1419e2","system_id":"levelo_inurba_marseille","lat":43.324887,"lon":5.365714,"is_reserved":false,"is_disabled":false,"rental_uris":{"android":"levelo://app?vid=39c3d13d-fef7-48cf-9300-21353a1419e2","ios":"levelo://app?vid=39c3d13d-fef7-48cf-9300-21353a1419e2"},"vehicle_type_id":"4","last_reported":1722791189,"current_range_meters":25200,"station_id":"ce4bhs12rcd13ifvqhvg","pricing_plan_id":"cebpf4jnsgd1na2vs0mg"},{"bike_id":"c5eafbde-38cc-415e-bdbe-642750cf2fc4","system_id":"levelo_inurba_marseille","lat":43.32492,"lon":5.3657,"is_reserved":false,"is_disabled":false,"rental_uris":{"android":"levelo://app?vid=c5eafbde-38cc-415e-bdbe-642750cf2fc4","ios":"levelo://app?vid=c5eafbde-38cc-415e-bdbe-642750cf2fc4"},"vehicle_type_id":"4","last_reported":1722791189,"current_range_meters":31200,"station_id":"ce4bhs12rcd13ifvqhvg","pricing_plan_id":"cebpf4jnsgd1na2vs0mg"},{"bike_id":"472ee366-0cd6-4c1d-aa85-f75ded7e7ebb","system_id":"levelo_inurba_marseille","lat":43.32493,"lon":5.36569,"is_reserved":false,"is_disabled":false,"rental_uris":{"android":"levelo://app?vid=472ee366-0cd6-4c1d-aa85-f75ded7e7ebb","ios":"levelo://app?vid=472ee366-0cd6-4c1d-aa85-f75ded7e7ebb"},"vehicle_type_id":"4","last_reported":1722791189,"current_range_meters":18400,"station_id":"ce4bhs12rcd13ifvqhvg","pricing_plan_id":"cebpf4jnsgd1na2vs0mg"},{"bike_id":"0e389952-39a6-46ae-8a23-def9798bbc98","system_id":"levelo_inurba_marseille","lat":43.324771,"lon":5.36557,"is_reserved":false,"is_disabled":false,"rental_uris":{"android":"levelo://app?vid=0e389952-39a6-46ae-8a23-def9798bbc98","ios":"levelo://app?vid=0e389952-39a6-46ae-8a23-def9798bbc98"},"vehicle_type_id":"4","last_reported":1722791189,"current_range_meters":6800,"station_id":"ce4bhs12rcd13ifvqhvg","pricing_plan_id":"cebpf4jnsgd1na2vs0mg"},{"bike_id":"ecf90e60-e6f5-4b15-9efa-5eda0367519e","system_id":"levelo_inurba_marseille","lat":43.302784,"lon":5.377158,"is_reserved":false,"is_disabled":false,"rental_uris":{"android":"levelo://app?vid=ecf90e60-e6f5-4b15-9efa-5eda0367519e","ios":"levelo://app?vid=ecf90e60-e6f5-4b15-9efa-5eda0367519e"},"vehicle_type_id":"4","last_reported":1722791189,"current_range_meters":6800,"station_id":"ce4bguh2rcd13ifvqcj0","pricing_plan_id":"cebpf4jnsgd1na2vs0mg"},{"bike_id":"12c79c28-0f7c-40e6-90d5-455938a86c47","system_id":"levelo_inurba_marseille","lat":43.313571,"lon":5.384829,"is_reserved":false,"is_disabled":false,"rental_uris":{"android":"levelo://app?vid=12c79c28-0f7c-40e6-90d5-455938a86c47","ios":"levelo://app?vid=12c79c28-0f7c-40e6-90d5-455938a86c47"},"vehicle_type_id":"4","last_reported":1722791189,"current_range_meters":0,"station_id":"ce4bgt92rcd13ifvqcf0","pricing_plan_id":"cebpf4jnsgd1na2vs0mg"},{"bike_id":"1910d44e-ee7e-476e-a0d2-a45844f4920c","system_id":"levelo_inurba_marseille","lat":43.31359,"lon":5.38491,"is_reserved":false,"is_disabled":false,"rental_uris":{"android":"levelo://app?vid=1910d44e-ee7e-476e-a0d2-a45844f4920c","ios":"levelo://app?vid=1910d44e-ee7e-476e-a0d2-a45844f4920c"},"vehicle_type_id":"4","last_reported":1722791189,"current_range_meters":24000,"station_id":"ce4bgt92rcd13ifvqcf0","pricing_plan_id":"cebpf4jnsgd1na2vs0mg"},{"bike_id":"16a04d5a-9d28-48b1-80e6-ab0997358479","system_id":"levelo_inurba_marseille","lat":43.31361,"lon":5.38493,"is_reserved":false,"is_disabled":false,"rental_uris":{"android":"levelo://app?vid=16a04d5a-9d28-48b1-80e6-ab0997358479","ios":"levelo://app?vid=16a04d5a-9d28-48b1-80e6-ab0997358479"},"vehicle_type_id":"4","last_reported":1722791189,"current_range_meters":31200,"station_id":"ce4bgt92rcd13ifvqcf0","pricing_plan_id":"cebpf4jnsgd1na2vs0mg"},{"bike_id":"d07578d6-cdcc-4021-b815-c9af913f3958","system_id":"levelo_inurba_marseille","lat":43.313571,"lon":5.384829,"is_reserved":false,"is_disabled":false,"rental_uris":{"android":"levelo://app?vid=d07578d6-cdcc-4021-b815-c9af913f3958","ios":"levelo://app?vid=d07578d6-cdcc-4021-b815-c9af913f3958"},"vehicle_type_id":"4","last_reported":1722791189,"current_range_meters":31600,"station_id":"ce4bgt92rcd13ifvqcf0","pricing_plan_id":"cebpf4jnsgd1na2vs0mg"},{"bike_id":"1856022e-c436-4dde-948b-e363b1c7b030","system_id":"levelo_inurba_marseille","lat":43.31369,"lon":5.38497,"is_reserved":false,"is_disabled":false,"rental_uris":{"android":"levelo://app?vid=1856022e-c436-4dde-948b-e363b1c7b030","ios":"levelo://app?vid=1856022e-c436-4dde-948b-e363b1c7b030"},"vehicle_type_id":"4","last_reported":1722791189,"current_range_meters":0,"station_id":"ce4bgt92rcd13ifvqcf0","pricing_plan_id":"cebpf4jnsgd1na2vs0mg"},{"bike_id":"eabd3711-c6e6-4b43-9bfd-4b9bd6516b71","system_id":"levelo_inurba_marseille","lat":43.29981,"lon":5.37175,"is_reserved":false,"is_disabled":false,"rental_uris":{"android":"levelo://app?vid=eabd3711-c6e6-4b43-9bfd-4b9bd6516b71","ios":"levelo://app?vid=eabd3711-c6e6-4b43-9bfd-4b9bd6516b71"},"vehicle_type_id":"4","last_reported":1722791189,"current_range_meters":20800,"station_id":"ce4bgr92rcd13ifvqc7g","pricing_plan_id":"cebpf4jnsgd1na2vs0mg"},{"bike_id":"3bb7ad6a-6feb-495c-8615-ce5b312ed513","system_id":"levelo_inurba_marseille","lat":43.29929,"lon":5.36541,"is_reserved":false,"is_disabled":false,"rental_uris":{"android":"levelo://app?vid=3bb7ad6a-6feb-495c-8615-ce5b312ed513","ios":"levelo://app?vid=3bb7ad6a-6feb-495c-8615-ce5b312ed513"},"vehicle_type_id":"4","last_reported":1722791189,"current_range_meters":31200,"station_id":"ce4bgm92rcd13ifvqbr0","pricing_plan_id":"cebpf4jnsgd1na2vs0mg"},{"bike_id":"25870a8b-3549-4eb1-890e-929a39a9bbb1","system_id":"levelo_inurba_marseille","lat":43.298433,"lon":5.362774,"is_reserved":false,"is_disabled":false,"rental_uris":{"android":"levelo://app?vid=25870a8b-3549-4eb1-890e-929a39a9bbb1","ios":"levelo://app?vid=25870a8b-3549-4eb1-890e-929a39a9bbb1"},"vehicle_type_id":"4","last_reported":1722791189,"current_range_meters":14000,"station_id":"ce4bgpp2rcd13ifvqc3g","pricing_plan_id":"cebpf4jnsgd1na2vs0mg"},{"bike_id":"4c306cd9-ac09-4afa-b2ea-321bc317bfed","system_id":"levelo_inurba_marseille","lat":43.319935,"lon":5.381699,"is_reserved":false,"is_disabled":false,"rental_uris":{"android":"levelo://app?vid=4c306cd9-ac09-4afa-b2ea-321bc317bfed","ios":"levelo://app?vid=4c306cd9-ac09-4afa-b2ea-321bc317bfed"},"vehicle_type_id":"4","last_reported":1722791189,"current_range_meters":20800,"station_id":"ce4bhr12rcd13ifvqhpg","pricing_plan_id":"cebpf4jnsgd1na2vs0mg"},{"bike_id":"10d318dd-ac80-4888-a3fe-a77d864a2ba2","system_id":"levelo_inurba_marseille","lat":43.315034,"lon":5.386074,"is_reserved":false,"is_disabled":false,"rental_uris":{"android":"levelo://app?vid=10d318dd-ac80-4888-a3fe-a77d864a2ba2","ios":"levelo://app?vid=10d318dd-ac80-4888-a3fe-a77d864a2ba2"},"vehicle_type_id":"4","last_reported":1722791189,"current_range_meters":16800,"station_id":"","pricing_plan_id":"cebpf4jnsgd1na2vs0mg"},{"bike_id":"516ea52f-be1a-480b-805c-68079bb11999","system_id":"levelo_inurba_marseille","lat":43.298433,"lon":5.362774,"is_reserved":false,"is_disabled":false,"rental_uris":{"android":"levelo://app?vid=516ea52f-be1a-480b-805c-68079bb11999","ios":"levelo://app?vid=516ea52f-be1a-480b-805c-68079bb11999"},"vehicle_type_id":"4","last_reported":1722791189,"current_range_meters":12400,"station_id":"ce4bgpp2rcd13ifvqc3g","pricing_plan_id":"cebpf4jnsgd1na2vs0mg"},{"bike_id":"3e7d6f89-70ca-4e6d-8754-59e6290bf1dc","system_id":"levelo_inurba_marseille","lat":43.298433,"lon":5.362774,"is_reserved":false,"is_disabled":false,"rental_uris":{"android":"levelo://app?vid=3e7d6f89-70ca-4e6d-8754-59e6290bf1dc","ios":"levelo://app?vid=3e7d6f89-70ca-4e6d-8754-59e6290bf1dc"},"vehicle_type_id":"4","last_reported":1722791189,"current_range_meters":23200,"station_id":"ce4bgpp2rcd13ifvqc3g","pricing_plan_id":"cebpf4jnsgd1na2vs0mg"},{"bike_id":"47dca764-6a22-43f8-b723-1481383925ab","system_id":"levelo_inurba_marseille","lat":43.2968,"lon":5.37291,"is_reserved":false,"is_disabled":false,"rental_uris":{"android":"levelo://app?vid=47dca764-6a22-43f8-b723-1481383925ab","ios":"levelo://app?vid=47dca764-6a22-43f8-b723-1481383925ab"},"vehicle_type_id":"4","last_reported":1722791189,"current_range_meters":22400,"station_id":"ce4bgk12rcd13ifvqbj0","pricing_plan_id":"cebpf4jnsgd1na2vs0mg"},{"bike_id":"12f20ee5-2c92-4e0f-ac9b-462aa1fc29cf","system_id":"levelo_inurba_marseille","lat":43.311722,"lon":5.387247,"is_reserved":false,"is_disabled":false,"rental_uris":{"android":"levelo://app?vid=12f20ee5-2c92-4e0f-ac9b-462aa1fc29cf","ios":"levelo://app?vid=12f20ee5-2c92-4e0f-ac9b-462aa1fc29cf"},"vehicle_type_id":"4","last_reported":1722791189,"current_range_meters":31600,"station_id":"ce4bgv12rcd13ifvqcp0","pricing_plan_id":"cebpf4jnsgd1na2vs0mg"},{"bike_id":"35b4ea01-d5cd-4df5-a22a-4cc01b63116d","system_id":"levelo_inurba_marseille","lat":43.299243,"lon":5.37481,"is_reserved":false,"is_disabled":false,"rental_uris":{"android":"levelo://app?vid=35b4ea01-d5cd-4df5-a22a-4cc01b63116d","ios":"levelo://app?vid=35b4ea01-d5cd-4df5-a22a-4cc01b63116d"},"vehicle_type_id":"4","last_reported":1722791189,"current_range_meters":5200,"station_id":"ce4bgjh2rcd13ifvqbg0","pricing_plan_id":"cebpf4jnsgd1na2vs0mg"},{"bike_id":"1a294f0f-ed1b-4466-9201-6229823600e5","system_id":"levelo_inurba_marseille","lat":43.32286,"lon":5.38257,"is_reserved":false,"is_disabled":false,"rental_uris":{"android":"levelo://app?vid=1a294f0f-ed1b-4466-9201-6229823600e5","ios":"levelo://app?vid=1a294f0f-ed1b-4466-9201-6229823600e5"},"vehicle_type_id":"4","last_reported":1722791189,"current_range_meters":30000,"station_id":"ce4bhr12rcd13ifvqhqg","pricing_plan_id":"cebpf4jnsgd1na2vs0mg"},{"bike_id":"b66838c8-f24d-48b9-b158-c0e84e92b289","system_id":"levelo_inurba_marseille","lat":43.322872,"lon":5.382756,"is_reserved":false,"is_disabled":false,"rental_uris":{"android":"levelo://app?vid=b66838c8-f24d-48b9-b158-c0e84e92b289","ios":"levelo://app?vid=b66838c8-f24d-48b9-b158-c0e84e92b289"},"vehicle_type_id":"4","last_reported":1722791189,"current_range_meters":10400,"station_id":"ce4bhr12rcd13ifvqhqg","pricing_plan_id":"cebpf4jnsgd1na2vs0mg"},{"bike_id":"a4532f93-95e3-4939-b8e6-222731174054","system_id":"levelo_inurba_marseille","lat":43.297794,"lon":5.370888,"is_reserved":false,"is_disabled":false,"rental_uris":{"android":"levelo://app?vid=a4532f93-95e3-4939-b8e6-222731174054","ios":"levelo://app?vid=a4532f93-95e3-4939-b8e6-222731174054"},"vehicle_type_id":"4","last_reported":1722791189,"current_range_meters":0,"station_id":"ce4bgop2rcd13ifvqc1g","pricing_plan_id":"cebpf4jnsgd1na2vs0mg"},{"bike_id":"1574bfad-bc8e-4c86-ba28-2687a175dbff","system_id":"levelo_inurba_marseille","lat":43.322872,"lon":5.382756,"is_reserved":false,"is_disabled":false,"rental_uris":{"android":"levelo://app?vid=1574bfad-bc8e-4c86-ba28-2687a175dbff","ios":"levelo://app?vid=1574bfad-bc8e-4c86-ba28-2687a175dbff"},"vehicle_type_id":"4","last_reported":1722791189,"current_range_meters":27200,"station_id":"ce4bhr12rcd13ifvqhqg","pricing_plan_id":"cebpf4jnsgd1na2vs0mg"},{"bike_id":"5c7575b1-0969-495e-8f07-f1830efae18f","system_id":"levelo_inurba_marseille","lat":43.322872,"lon":5.382756,"is_reserved":false,"is_disabled":false,"rental_uris":{"android":"levelo://app?vid=5c7575b1-0969-495e-8f07-f1830efae18f","ios":"levelo://app?vid=5c7575b1-0969-495e-8f07-f1830efae18f"},"vehicle_type_id":"4","last_reported":1722791189,"current_range_meters":28800,"station_id":"ce4bhr12rcd13ifvqhqg","pricing_plan_id":"cebpf4jnsgd1na2vs0mg"},{"bike_id":"1bfdd103-dc4a-416d-afbb-97d793a53f59","system_id":"levelo_inurba_marseille","lat":43.322872,"lon":5.382756,"is_reserved":false,"is_disabled":false,"rental_uris":{"android":"levelo://app?vid=1bfdd103-dc4a-416d-afbb-97d793a53f59","ios":"levelo://app?vid=1bfdd103-dc4a-416d-afbb-97d793a53f59"},"vehicle_type_id":"4","last_reported":1722791189,"current_range_meters":25600,"station_id":"ce4bhr12rcd13ifvqhqg","pricing_plan_id":"cebpf4jnsgd1na2vs0mg"},{"bike_id":"31e31aad-d3cf-47fe-b017-1d13e68bff5c","system_id":"levelo_inurba_marseille","lat":43.322872,"lon":5.382756,"is_reserved":false,"is_disabled":false,"rental_uris":{"android":"levelo://app?vid=31e31aad-d3cf-47fe-b017-1d13e68bff5c","ios":"levelo://app?vid=31e31aad-d3cf-47fe-b017-1d13e68bff5c"},"vehicle_type_id":"4","last_reported":1722791189,"current_range_meters":27200,"station_id":"ce4bhr12rcd13ifvqhqg","pricing_plan_id":"cebpf4jnsgd1na2vs0mg"},{"bike_id":"bbb5167f-7ad8-45ff-967e-d2013f1560e4","system_id":"levelo_inurba_marseille","lat":43.32299,"lon":5.38266,"is_reserved":false,"is_disabled":false,"rental_uris":{"android":"levelo://app?vid=bbb5167f-7ad8-45ff-967e-d2013f1560e4","ios":"levelo://app?vid=bbb5167f-7ad8-45ff-967e-d2013f1560e4"},"vehicle_type_id":"4","last_reported":1722791189,"current_range_meters":30400,"station_id":"ce4bhr12rcd13ifvqhqg","pricing_plan_id":"cebpf4jnsgd1na2vs0mg"},{"bike_id":"c19f3126-217d-4c33-acdc-88d6f6cd9f69","system_id":"levelo_inurba_marseille","lat":43.322872,"lon":5.382756,"is_reserved":false,"is_disabled":false,"rental_uris":{"android":"levelo://app?vid=c19f3126-217d-4c33-acdc-88d6f6cd9f69","ios":"levelo://app?vid=c19f3126-217d-4c33-acdc-88d6f6cd9f69"},"vehicle_type_id":"4","last_reported":1722791189,"current_range_meters":31600,"station_id":"ce4bhr12rcd13ifvqhqg","pricing_plan_id":"cebpf4jnsgd1na2vs0mg"},{"bike_id":"ca8a5bd0-77f7-42db-9849-8a963cccbc84","system_id":"levelo_inurba_marseille","lat":43.322872,"lon":5.382756,"is_reserved":false,"is_disabled":false,"rental_uris":{"android":"levelo://app?vid=ca8a5bd0-77f7-42db-9849-8a963cccbc84","ios":"levelo://app?vid=ca8a5bd0-77f7-42db-9849-8a963cccbc84"},"vehicle_type_id":"4","last_reported":1722791189,"current_range_meters":31600,"station_id":"ce4bhr12rcd13ifvqhqg","pricing_plan_id":"cebpf4jnsgd1na2vs0mg"},{"bike_id":"efa213cf-4320-40ef-925f-9f34b8a9070d","system_id":"levelo_inurba_marseille","lat":43.322872,"lon":5.382756,"is_reserved":false,"is_disabled":false,"rental_uris":{"android":"levelo://app?vid=efa213cf-4320-40ef-925f-9f34b8a9070d","ios":"levelo://app?vid=efa213cf-4320-40ef-925f-9f34b8a9070d"},"vehicle_type_id":"4","last_reported":1722791189,"current_range_meters":10800,"station_id":"ce4bhr12rcd13ifvqhqg","pricing_plan_id":"cebpf4jnsgd1na2vs0mg"},{"bike_id":"2428acaf-abbf-448e-8018-a8691d015d33","system_id":"levelo_inurba_marseille","lat":43.322872,"lon":5.382756,"is_reserved":false,"is_disabled":false,"rental_uris":{"android":"levelo://app?vid=2428acaf-abbf-448e-8018-a8691d015d33","ios":"levelo://app?vid=2428acaf-abbf-448e-8018-a8691d015d33"},"vehicle_type_id":"4","last_reported":1722791189,"current_range_meters":14400,"station_id":"ce4bhr12rcd13ifvqhqg","pricing_plan_id":"cebpf4jnsgd1na2vs0mg"},{"bike_id":"4060a325-339f-4ebb-94e8-2d6250a431a5","system_id":"levelo_inurba_marseille","lat":43.297163,"lon":5.365866,"is_reserved":false,"is_disabled":false,"rental_uris":{"android":"levelo://app?vid=4060a325-339f-4ebb-94e8-2d6250a431a5","ios":"levelo://app?vid=4060a325-339f-4ebb-94e8-2d6250a431a5"},"vehicle_type_id":"4","last_reported":1722791189,"current_range_meters":13200,"station_id":"ce4bgn12rcd13ifvqbt0","pricing_plan_id":"cebpf4jnsgd1na2vs0mg"},{"bike_id":"ea28ade7-847f-44f2-8e89-492aa8546f62","system_id":"levelo_inurba_marseille","lat":43.29707,"lon":5.36618,"is_reserved":false,"is_disabled":false,"rental_uris":{"android":"levelo://app?vid=ea28ade7-847f-44f2-8e89-492aa8546f62","ios":"levelo://app?vid=ea28ade7-847f-44f2-8e89-492aa8546f62"},"vehicle_type_id":"4","last_reported":1722791189,"current_range_meters":0,"station_id":"ce4bgn12rcd13ifvqbt0","pricing_plan_id":"cebpf4jnsgd1na2vs0mg"},{"bike_id":"c2db2501-d32a-4508-86ad-3a350ef8a7f9","system_id":"levelo_inurba_marseille","lat":43.29707,"lon":5.36611,"is_reserved":false,"is_disabled":false,"rental_uris":{"android":"levelo://app?vid=c2db2501-d32a-4508-86ad-3a350ef8a7f9","ios":"levelo://app?vid=c2db2501-d32a-4508-86ad-3a350ef8a7f9"},"vehicle_type_id":"4","last_reported":1722791189,"current_range_meters":0,"station_id":"ce4bgn12rcd13ifvqbt0","pricing_plan_id":"cebpf4jnsgd1na2vs0mg"},{"bike_id":"e902f6c1-e952-4c43-994d-bf38d6b3738c","system_id":"levelo_inurba_marseille","lat":43.297163,"lon":5.365866,"is_reserved":false,"is_disabled":false,"rental_uris":{"android":"levelo://app?vid=e902f6c1-e952-4c43-994d-bf38d6b3738c","ios":"levelo://app?vid=e902f6c1-e952-4c43-994d-bf38d6b3738c"},"vehicle_type_id":"4","last_reported":1722791189,"current_range_meters":0,"station_id":"ce4bgn12rcd13ifvqbt0","pricing_plan_id":"cebpf4jnsgd1na2vs0mg"},{"bike_id":"865e51c3-1fb9-4464-be1d-6931afbb66fb","system_id":"levelo_inurba_marseille","lat":43.296131,"lon":5.370791,"is_reserved":false,"is_disabled":false,"rental_uris":{"android":"levelo://app?vid=865e51c3-1fb9-4464-be1d-6931afbb66fb","ios":"levelo://app?vid=865e51c3-1fb9-4464-be1d-6931afbb66fb"},"vehicle_type_id":"4","last_reported":1722791189,"current_range_meters":30000,"station_id":"ce4bgnh2rcd13ifvqc0g","pricing_plan_id":"cebpf4jnsgd1na2vs0mg"},{"bike_id":"377eb321-d4fa-431e-8ccc-0745d7839be6","system_id":"levelo_inurba_marseille","lat":43.31633,"lon":5.38985,"is_reserved":false,"is_disabled":false,"rental_uris":{"android":"levelo://app?vid=377eb321-d4fa-431e-8ccc-0745d7839be6","ios":"levelo://app?vid=377eb321-d4fa-431e-8ccc-0745d7839be6"},"vehicle_type_id":"4","last_reported":1722791189,"current_range_meters":2000,"station_id":"","pricing_plan_id":"cebpf4jnsgd1na2vs0mg"},{"bike_id":"76d51ae5-c968-42d6-be45-05b63e3f5edb","system_id":"levelo_inurba_marseille","lat":43.296935,"lon":5.376544,"is_reserved":false,"is_disabled":false,"rental_uris":{"android":"levelo://app?vid=76d51ae5-c968-42d6-be45-05b63e3f5edb","ios":"levelo://app?vid=76d51ae5-c968-42d6-be45-05b63e3f5edb"},"vehicle_type_id":"4","last_reported":1722791189,"current_range_meters":20400,"station_id":"ce4bgkh2rcd13ifvqbl0","pricing_plan_id":"cebpf4jnsgd1na2vs0mg"},{"bike_id":"9c7e577a-e4a5-4762-a0e0-5504af882b73","system_id":"levelo_inurba_marseille","lat":43.296935,"lon":5.376544,"is_reserved":false,"is_disabled":false,"rental_uris":{"android":"levelo://app?vid=9c7e577a-e4a5-4762-a0e0-5504af882b73","ios":"levelo://app?vid=9c7e577a-e4a5-4762-a0e0-5504af882b73"},"vehicle_type_id":"4","last_reported":1722791189,"current_range_meters":15200,"station_id":"ce4bgkh2rcd13ifvqbl0","pricing_plan_id":"cebpf4jnsgd1na2vs0mg"},{"bike_id":"6ec63fb8-1c7e-47c2-9e46-336da946efa2","system_id":"levelo_inurba_marseille","lat":43.309577,"lon":5.3903,"is_reserved":false,"is_disabled":false,"rental_uris":{"android":"levelo://app?vid=6ec63fb8-1c7e-47c2-9e46-336da946efa2","ios":"levelo://app?vid=6ec63fb8-1c7e-47c2-9e46-336da946efa2"},"vehicle_type_id":"4","last_reported":1722791189,"current_range_meters":0,"station_id":"ce4bgup2rcd13ifvqco0","pricing_plan_id":"cebpf4jnsgd1na2vs0mg"},{"bike_id":"0a519694-7113-4ae6-8df9-de5c95d944d6","system_id":"levelo_inurba_marseille","lat":43.309589,"lon":5.390258,"is_reserved":false,"is_disabled":false,"rental_uris":{"android":"levelo://app?vid=0a519694-7113-4ae6-8df9-de5c95d944d6","ios":"levelo://app?vid=0a519694-7113-4ae6-8df9-de5c95d944d6"},"vehicle_type_id":"4","last_reported":1722791189,"current_range_meters":400,"station_id":"ce4bgup2rcd13ifvqco0","pricing_plan_id":"cebpf4jnsgd1na2vs0mg"},{"bike_id":"14245cf9-fc91-41cb-996e-49c74da8b030","system_id":"levelo_inurba_marseille","lat":43.309589,"lon":5.390258,"is_reserved":false,"is_disabled":false,"rental_uris":{"android":"levelo://app?vid=14245cf9-fc91-41cb-996e-49c74da8b030","ios":"levelo://app?vid=14245cf9-fc91-41cb-996e-49c74da8b030"},"vehicle_type_id":"4","last_reported":1722791189,"current_range_meters":3600,"station_id":"ce4bgup2rcd13ifvqco0","pricing_plan_id":"cebpf4jnsgd1na2vs0mg"},{"bike_id":"fa5a4d62-e3b6-4571-9373-91dedf13127a","system_id":"levelo_inurba_marseille","lat":43.309678,"lon":5.390362,"is_reserved":false,"is_disabled":false,"rental_uris":{"android":"levelo://app?vid=fa5a4d62-e3b6-4571-9373-91dedf13127a","ios":"levelo://app?vid=fa5a4d62-e3b6-4571-9373-91dedf13127a"},"vehicle_type_id":"4","last_reported":1722791189,"current_range_meters":0,"station_id":"ce4bgup2rcd13ifvqco0","pricing_plan_id":"cebpf4jnsgd1na2vs0mg"},{"bike_id":"66731644-339f-4d82-8d06-e070f91e18ff","system_id":"levelo_inurba_marseille","lat":43.296935,"lon":5.376544,"is_reserved":false,"is_disabled":false,"rental_uris":{"android":"levelo://app?vid=66731644-339f-4d82-8d06-e070f91e18ff","ios":"levelo://app?vid=66731644-339f-4d82-8d06-e070f91e18ff"},"vehicle_type_id":"4","last_reported":1722791189,"current_range_meters":17200,"station_id":"ce4bgkh2rcd13ifvqbl0","pricing_plan_id":"cebpf4jnsgd1na2vs0mg"},{"bike_id":"878acd62-50b5-4a80-87c0-ac720983fb4c","system_id":"levelo_inurba_marseille","lat":43.31764,"lon":5.39018,"is_reserved":false,"is_disabled":false,"rental_uris":{"android":"levelo://app?vid=878acd62-50b5-4a80-87c0-ac720983fb4c","ios":"levelo://app?vid=878acd62-50b5-4a80-87c0-ac720983fb4c"},"vehicle_type_id":"4","last_reported":1722791189,"current_range_meters":0,"station_id":"ce4bhqp2rcd13ifvqhng","pricing_plan_id":"cebpf4jnsgd1na2vs0mg"},{"bike_id":"9bec0480-cab2-4889-b593-92029bdb8b47","system_id":"levelo_inurba_marseille","lat":43.29579,"lon":5.37514,"is_reserved":false,"is_disabled":false,"rental_uris":{"android":"levelo://app?vid=9bec0480-cab2-4889-b593-92029bdb8b47","ios":"levelo://app?vid=9bec0480-cab2-4889-b593-92029bdb8b47"},"vehicle_type_id":"4","last_reported":1722791189,"current_range_meters":0,"station_id":"ce4bgh92rcd13ifvqb50","pricing_plan_id":"cebpf4jnsgd1na2vs0mg"},{"bike_id":"084a629c-a093-47a6-a01f-e360f4fb380b","system_id":"levelo_inurba_marseille","lat":43.29575,"lon":5.37513,"is_reserved":false,"is_disabled":false,"rental_uris":{"android":"levelo://app?vid=084a629c-a093-47a6-a01f-e360f4fb380b","ios":"levelo://app?vid=084a629c-a093-47a6-a01f-e360f4fb380b"},"vehicle_type_id":"4","last_reported":1722791189,"current_range_meters":1600,"station_id":"ce4bgh92rcd13ifvqb50","pricing_plan_id":"cebpf4jnsgd1na2vs0mg"},{"bike_id":"4939784c-f3c2-4bf2-bf6f-a8c7cc343e78","system_id":"levelo_inurba_marseille","lat":43.295748,"lon":5.37522,"is_reserved":false,"is_disabled":false,"rental_uris":{"android":"levelo://app?vid=4939784c-f3c2-4bf2-bf6f-a8c7cc343e78","ios":"levelo://app?vid=4939784c-f3c2-4bf2-bf6f-a8c7cc343e78"},"vehicle_type_id":"4","last_reported":1722791189,"current_range_meters":6000,"station_id":"ce4bgh92rcd13ifvqb50","pricing_plan_id":"cebpf4jnsgd1na2vs0mg"},{"bike_id":"39043316-9f34-4a73-8ec1-c0ab5473f136","system_id":"levelo_inurba_marseille","lat":43.295748,"lon":5.37522,"is_reserved":false,"is_disabled":false,"rental_uris":{"android":"levelo://app?vid=39043316-9f34-4a73-8ec1-c0ab5473f136","ios":"levelo://app?vid=39043316-9f34-4a73-8ec1-c0ab5473f136"},"vehicle_type_id":"4","last_reported":1722791189,"current_range_meters":29200,"station_id":"ce4bgh92rcd13ifvqb50","pricing_plan_id":"cebpf4jnsgd1na2vs0mg"},{"bike_id":"0b5f4dd5-30c2-49c5-8119-0dd00ad1609c","system_id":"levelo_inurba_marseille","lat":43.296277,"lon":5.377108,"is_reserved":false,"is_disabled":false,"rental_uris":{"android":"levelo://app?vid=0b5f4dd5-30c2-49c5-8119-0dd00ad1609c","ios":"levelo://app?vid=0b5f4dd5-30c2-49c5-8119-0dd00ad1609c"},"vehicle_type_id":"4","last_reported":1722791189,"current_range_meters":0,"station_id":"ce4bgi92rcd13ifvqb90","pricing_plan_id":"cebpf4jnsgd1na2vs0mg"},{"bike_id":"b109d9d4-f443-4f0a-811a-1077f1babc65","system_id":"levelo_inurba_marseille","lat":43.296277,"lon":5.377108,"is_reserved":false,"is_disabled":false,"rental_uris":{"android":"levelo://app?vid=b109d9d4-f443-4f0a-811a-1077f1babc65","ios":"levelo://app?vid=b109d9d4-f443-4f0a-811a-1077f1babc65"},"vehicle_type_id":"4","last_reported":1722791189,"current_range_meters":22000,"station_id":"ce4bgi92rcd13ifvqb90","pricing_plan_id":"cebpf4jnsgd1na2vs0mg"},{"bike_id":"b5f74156-f7de-4b86-a705-5aa02484ae56","system_id":"levelo_inurba_marseille","lat":43.29751,"lon":5.38091,"is_reserved":false,"is_disabled":false,"rental_uris":{"android":"levelo://app?vid=b5f74156-f7de-4b86-a705-5aa02484ae56","ios":"levelo://app?vid=b5f74156-f7de-4b86-a705-5aa02484ae56"},"vehicle_type_id":"4","last_reported":1722791189,"current_range_meters":29600,"station_id":"","pricing_plan_id":"cebpf4jnsgd1na2vs0mg"},{"bike_id":"cc7719f1-ebec-439c-b246-6b748472d5df","system_id":"levelo_inurba_marseille","lat":43.295279,"lon":5.375048,"is_reserved":false,"is_disabled":false,"rental_uris":{"android":"levelo://app?vid=cc7719f1-ebec-439c-b246-6b748472d5df","ios":"levelo://app?vid=cc7719f1-ebec-439c-b246-6b748472d5df"},"vehicle_type_id":"4","last_reported":1722791189,"current_range_meters":400,"station_id":"ce4bgkp2rcd13ifvqbmg","pricing_plan_id":"cebpf4jnsgd1na2vs0mg"},{"bike_id":"37c195e4-3c24-4f53-94cd-338eded933cc","system_id":"levelo_inurba_marseille","lat":43.29973,"lon":5.38485,"is_reserved":false,"is_disabled":false,"rental_uris":{"android":"levelo://app?vid=37c195e4-3c24-4f53-94cd-338eded933cc","ios":"levelo://app?vid=37c195e4-3c24-4f53-94cd-338eded933cc"},"vehicle_type_id":"4","last_reported":1722791189,"current_range_meters":0,"station_id":"ce4bgj92rcd13ifvqbd0","pricing_plan_id":"cebpf4jnsgd1na2vs0mg"},{"bike_id":"7f2c6965-a2e9-4c83-aed2-011b173519a1","system_id":"levelo_inurba_marseille","lat":43.31515,"lon":5.39203,"is_reserved":false,"is_disabled":false,"rental_uris":{"android":"levelo://app?vid=7f2c6965-a2e9-4c83-aed2-011b173519a1","ios":"levelo://app?vid=7f2c6965-a2e9-4c83-aed2-011b173519a1"},"vehicle_type_id":"4","last_reported":1722791189,"current_range_meters":30000,"station_id":"","pricing_plan_id":"cebpf4jnsgd1na2vs0mg"},{"bike_id":"00d46d32-054c-42cb-b4a3-27b0da08a934","system_id":"levelo_inurba_marseille","lat":43.324766,"lon":5.386118,"is_reserved":false,"is_disabled":false,"rental_uris":{"android":"levelo://app?vid=00d46d32-054c-42cb-b4a3-27b0da08a934","ios":"levelo://app?vid=00d46d32-054c-42cb-b4a3-27b0da08a934"},"vehicle_type_id":"4","last_reported":1722791189,"current_range_meters":2000,"station_id":"","pricing_plan_id":"cebpf4jnsgd1na2vs0mg"},{"bike_id":"516d4e55-25db-4293-a5ac-558986d6df42","system_id":"levelo_inurba_marseille","lat":43.295279,"lon":5.375048,"is_reserved":false,"is_disabled":false,"rental_uris":{"android":"levelo://app?vid=516d4e55-25db-4293-a5ac-558986d6df42","ios":"levelo://app?vid=516d4e55-25db-4293-a5ac-558986d6df42"},"vehicle_type_id":"4","last_reported":1722791189,"current_range_meters":1600,"station_id":"ce4bgkp2rcd13ifvqbmg","pricing_plan_id":"cebpf4jnsgd1na2vs0mg"},{"bike_id":"b4b73852-b41d-439a-a06b-d8d8ccf504b9","system_id":"levelo_inurba_marseille","lat":43.315153,"lon":5.392086,"is_reserved":false,"is_disabled":false,"rental_uris":{"android":"levelo://app?vid=b4b73852-b41d-439a-a06b-d8d8ccf504b9","ios":"levelo://app?vid=b4b73852-b41d-439a-a06b-d8d8ccf504b9"},"vehicle_type_id":"4","last_reported":1722791189,"current_range_meters":24400,"station_id":"","pricing_plan_id":"cebpf4jnsgd1na2vs0mg"},{"bike_id":"82a914a9-cb3f-4efa-98c0-6f6c570ab89d","system_id":"levelo_inurba_marseille","lat":43.29971,"lon":5.38495,"is_reserved":false,"is_disabled":false,"rental_uris":{"android":"levelo://app?vid=82a914a9-cb3f-4efa-98c0-6f6c570ab89d","ios":"levelo://app?vid=82a914a9-cb3f-4efa-98c0-6f6c570ab89d"},"vehicle_type_id":"4","last_reported":1722791189,"current_range_meters":0,"station_id":"ce4bgj92rcd13ifvqbd0","pricing_plan_id":"cebpf4jnsgd1na2vs0mg"},{"bike_id":"f8d9c8bf-5dec-4cff-9e60-3ba640f21ef3","system_id":"levelo_inurba_marseille","lat":43.29972,"lon":5.384983,"is_reserved":false,"is_disabled":false,"rental_uris":{"android":"levelo://app?vid=f8d9c8bf-5dec-4cff-9e60-3ba640f21ef3","ios":"levelo://app?vid=f8d9c8bf-5dec-4cff-9e60-3ba640f21ef3"},"vehicle_type_id":"4","last_reported":1722791189,"current_range_meters":0,"station_id":"ce4bgj92rcd13ifvqbd0","pricing_plan_id":"cebpf4jnsgd1na2vs0mg"},{"bike_id":"16f7fbe7-ffcb-4732-b843-aafb5ed1e116","system_id":"levelo_inurba_marseille","lat":43.299717,"lon":5.384845,"is_reserved":false,"is_disabled":false,"rental_uris":{"android":"levelo://app?vid=16f7fbe7-ffcb-4732-b843-aafb5ed1e116","ios":"levelo://app?vid=16f7fbe7-ffcb-4732-b843-aafb5ed1e116"},"vehicle_type_id":"4","last_reported":1722791189,"current_range_meters":28400,"station_id":"ce4bgj92rcd13ifvqbd0","pricing_plan_id":"cebpf4jnsgd1na2vs0mg"},{"bike_id":"3f193ae5-4dbf-447b-9a15-98fbf620ec49","system_id":"levelo_inurba_marseille","lat":43.295279,"lon":5.375048,"is_reserved":false,"is_disabled":false,"rental_uris":{"android":"levelo://app?vid=3f193ae5-4dbf-447b-9a15-98fbf620ec49","ios":"levelo://app?vid=3f193ae5-4dbf-447b-9a15-98fbf620ec49"},"vehicle_type_id":"4","last_reported":1722791189,"current_range_meters":2000,"station_id":"ce4bgkp2rcd13ifvqbmg","pricing_plan_id":"cebpf4jnsgd1na2vs0mg"},{"bike_id":"3488dad8-0435-4fc2-be15-68b611eeaaba","system_id":"levelo_inurba_marseille","lat":43.30128,"lon":5.38763,"is_reserved":false,"is_disabled":false,"rental_uris":{"android":"levelo://app?vid=3488dad8-0435-4fc2-be15-68b611eeaaba","ios":"levelo://app?vid=3488dad8-0435-4fc2-be15-68b611eeaaba"},"vehicle_type_id":"4","last_reported":1722791189,"current_range_meters":0,"station_id":"ce4bghh2rcd13ifvqb60","pricing_plan_id":"cebpf4jnsgd1na2vs0mg"},{"bike_id":"2809d2c3-6363-48a6-8be7-0a76422e0f0d","system_id":"levelo_inurba_marseille","lat":43.32367,"lon":5.388836,"is_reserved":false,"is_disabled":false,"rental_uris":{"android":"levelo://app?vid=2809d2c3-6363-48a6-8be7-0a76422e0f0d","ios":"levelo://app?vid=2809d2c3-6363-48a6-8be7-0a76422e0f0d"},"vehicle_type_id":"4","last_reported":1722791189,"current_range_meters":4800,"station_id":"ce4bhqp2rcd13ifvqhog","pricing_plan_id":"cebpf4jnsgd1na2vs0mg"},{"bike_id":"af28cbe5-8ec8-4ac8-939f-513d4e1a5b86","system_id":"levelo_inurba_marseille","lat":43.32367,"lon":5.388836,"is_reserved":false,"is_disabled":false,"rental_uris":{"android":"levelo://app?vid=af28cbe5-8ec8-4ac8-939f-513d4e1a5b86","ios":"levelo://app?vid=af28cbe5-8ec8-4ac8-939f-513d4e1a5b86"},"vehicle_type_id":"4","last_reported":1722791189,"current_range_meters":3200,"station_id":"ce4bhqp2rcd13ifvqhog","pricing_plan_id":"cebpf4jnsgd1na2vs0mg"},{"bike_id":"ecd227de-312e-496a-8753-06865092f513","system_id":"levelo_inurba_marseille","lat":43.32367,"lon":5.388836,"is_reserved":false,"is_disabled":false,"rental_uris":{"android":"levelo://app?vid=ecd227de-312e-496a-8753-06865092f513","ios":"levelo://app?vid=ecd227de-312e-496a-8753-06865092f513"},"vehicle_type_id":"4","last_reported":1722791189,"current_range_meters":10400,"station_id":"ce4bhqp2rcd13ifvqhog","pricing_plan_id":"cebpf4jnsgd1na2vs0mg"},{"bike_id":"9129bc3e-def8-455a-afb9-49965d976951","system_id":"levelo_inurba_marseille","lat":43.29599,"lon":5.38103,"is_reserved":false,"is_disabled":false,"rental_uris":{"android":"levelo://app?vid=9129bc3e-def8-455a-afb9-49965d976951","ios":"levelo://app?vid=9129bc3e-def8-455a-afb9-49965d976951"},"vehicle_type_id":"4","last_reported":1722791189,"current_range_meters":0,"station_id":"ce4bgl12rcd13ifvqbo0","pricing_plan_id":"cebpf4jnsgd1na2vs0mg"},{"bike_id":"b2a1509f-4dcd-4a85-9d72-3bfc24ab48a9","system_id":"levelo_inurba_marseille","lat":43.295982,"lon":5.381025,"is_reserved":false,"is_disabled":false,"rental_uris":{"android":"levelo://app?vid=b2a1509f-4dcd-4a85-9d72-3bfc24ab48a9","ios":"levelo://app?vid=b2a1509f-4dcd-4a85-9d72-3bfc24ab48a9"},"vehicle_type_id":"4","last_reported":1722791189,"current_range_meters":0,"station_id":"ce4bgl12rcd13ifvqbo0","pricing_plan_id":"cebpf4jnsgd1na2vs0mg"},{"bike_id":"35b4312b-62c2-4028-b9d4-32dcf4ec5970","system_id":"levelo_inurba_marseille","lat":43.30047,"lon":5.38816,"is_reserved":false,"is_disabled":false,"rental_uris":{"android":"levelo://app?vid=35b4312b-62c2-4028-b9d4-32dcf4ec5970","ios":"levelo://app?vid=35b4312b-62c2-4028-b9d4-32dcf4ec5970"},"vehicle_type_id":"4","last_reported":1722791189,"current_range_meters":0,"station_id":"","pricing_plan_id":"cebpf4jnsgd1na2vs0mg"},{"bike_id":"1e4d2f44-9aed-4689-8a16-9123ef247ee9","system_id":"levelo_inurba_marseille","lat":43.29279,"lon":5.36845,"is_reserved":false,"is_disabled":false,"rental_uris":{"android":"levelo://app?vid=1e4d2f44-9aed-4689-8a16-9123ef247ee9","ios":"levelo://app?vid=1e4d2f44-9aed-4689-8a16-9123ef247ee9"},"vehicle_type_id":"4","last_reported":1722791189,"current_range_meters":0,"station_id":"ce4bhbp2rcd13ifvqesg","pricing_plan_id":"cebpf4jnsgd1na2vs0mg"},{"bike_id":"bc3060ea-166b-4f5d-8846-84886fbfd709","system_id":"levelo_inurba_marseille","lat":43.293259,"lon":5.371586,"is_reserved":false,"is_disabled":false,"rental_uris":{"android":"levelo://app?vid=bc3060ea-166b-4f5d-8846-84886fbfd709","ios":"levelo://app?vid=bc3060ea-166b-4f5d-8846-84886fbfd709"},"vehicle_type_id":"4","last_reported":1722791189,"current_range_meters":7600,"station_id":"ce4bgh92rcd13ifvqb40","pricing_plan_id":"cebpf4jnsgd1na2vs0mg"},{"bike_id":"c4a62480-c5f4-44e4-a7e2-92cff4cd8ab9","system_id":"levelo_inurba_marseille","lat":43.293009,"lon":5.374584,"is_reserved":false,"is_disabled":false,"rental_uris":{"android":"levelo://app?vid=c4a62480-c5f4-44e4-a7e2-92cff4cd8ab9","ios":"levelo://app?vid=c4a62480-c5f4-44e4-a7e2-92cff4cd8ab9"},"vehicle_type_id":"4","last_reported":1722791189,"current_range_meters":29600,"station_id":"ce4bgi12rcd13ifvqb70","pricing_plan_id":"cebpf4jnsgd1na2vs0mg"},{"bike_id":"6ae6aae8-07d7-4373-8e2a-d02b9012eedb","system_id":"levelo_inurba_marseille","lat":43.2936,"lon":5.37835,"is_reserved":false,"is_disabled":false,"rental_uris":{"android":"levelo://app?vid=6ae6aae8-07d7-4373-8e2a-d02b9012eedb","ios":"levelo://app?vid=6ae6aae8-07d7-4373-8e2a-d02b9012eedb"},"vehicle_type_id":"4","last_reported":1722791189,"current_range_meters":20400,"station_id":"ce4bgjh2rcd13ifvqbf0","pricing_plan_id":"cebpf4jnsgd1na2vs0mg"},{"bike_id":"a119f43c-d6f0-4b8a-8fee-760f297e6c2e","system_id":"levelo_inurba_marseille","lat":43.2936,"lon":5.37835,"is_reserved":false,"is_disabled":false,"rental_uris":{"android":"levelo://app?vid=a119f43c-d6f0-4b8a-8fee-760f297e6c2e","ios":"levelo://app?vid=a119f43c-d6f0-4b8a-8fee-760f297e6c2e"},"vehicle_type_id":"4","last_reported":1722791189,"current_range_meters":25200,"station_id":"ce4bgjh2rcd13ifvqbf0","pricing_plan_id":"cebpf4jnsgd1na2vs0mg"},{"bike_id":"379ba45b-43e6-4107-9137-16dfc34217c3","system_id":"levelo_inurba_marseille","lat":43.2936,"lon":5.37835,"is_reserved":false,"is_disabled":false,"rental_uris":{"android":"levelo://app?vid=379ba45b-43e6-4107-9137-16dfc34217c3","ios":"levelo://app?vid=379ba45b-43e6-4107-9137-16dfc34217c3"},"vehicle_type_id":"4","last_reported":1722791189,"current_range_meters":10400,"station_id":"ce4bgjh2rcd13ifvqbf0","pricing_plan_id":"cebpf4jnsgd1na2vs0mg"},{"bike_id":"d8de1ff1-f1e9-4cff-bef3-99042685af1d","system_id":"levelo_inurba_marseille","lat":43.292311,"lon":5.360731,"is_reserved":false,"is_disabled":false,"rental_uris":{"android":"levelo://app?vid=d8de1ff1-f1e9-4cff-bef3-99042685af1d","ios":"levelo://app?vid=d8de1ff1-f1e9-4cff-bef3-99042685af1d"},"vehicle_type_id":"4","last_reported":1722791189,"current_range_meters":31200,"station_id":"ce4bhbh2rcd13ifvqeqg","pricing_plan_id":"cebpf4jnsgd1na2vs0mg"},{"bike_id":"f46a88c1-aa20-4b3d-83a5-fce2e6e6f2d2","system_id":"levelo_inurba_marseille","lat":43.29365,"lon":5.37864,"is_reserved":false,"is_disabled":false,"rental_uris":{"android":"levelo://app?vid=f46a88c1-aa20-4b3d-83a5-fce2e6e6f2d2","ios":"levelo://app?vid=f46a88c1-aa20-4b3d-83a5-fce2e6e6f2d2"},"vehicle_type_id":"4","last_reported":1722791189,"current_range_meters":0,"station_id":"ce4bgjh2rcd13ifvqbf0","pricing_plan_id":"cebpf4jnsgd1na2vs0mg"},{"bike_id":"843f61ad-81ff-4db6-825d-6c2e35ebda63","system_id":"levelo_inurba_marseille","lat":43.292284,"lon":5.360575,"is_reserved":false,"is_disabled":false,"rental_uris":{"android":"levelo://app?vid=843f61ad-81ff-4db6-825d-6c2e35ebda63","ios":"levelo://app?vid=843f61ad-81ff-4db6-825d-6c2e35ebda63"},"vehicle_type_id":"4","last_reported":1722791189,"current_range_meters":6800,"station_id":"","pricing_plan_id":"cebpf4jnsgd1na2vs0mg"},{"bike_id":"8a26c9f5-9e61-4405-9a20-e91b2214d89d","system_id":"levelo_inurba_marseille","lat":43.292311,"lon":5.360731,"is_reserved":false,"is_disabled":false,"rental_uris":{"android":"levelo://app?vid=8a26c9f5-9e61-4405-9a20-e91b2214d89d","ios":"levelo://app?vid=8a26c9f5-9e61-4405-9a20-e91b2214d89d"},"vehicle_type_id":"4","last_reported":1722791189,"current_range_meters":400,"station_id":"ce4bhbh2rcd13ifvqeqg","pricing_plan_id":"cebpf4jnsgd1na2vs0mg"},{"bike_id":"7ffec9d1-53c7-4332-b4a6-2f89a52b1732","system_id":"levelo_inurba_marseille","lat":43.303807,"lon":5.393063,"is_reserved":false,"is_disabled":false,"rental_uris":{"android":"levelo://app?vid=7ffec9d1-53c7-4332-b4a6-2f89a52b1732","ios":"levelo://app?vid=7ffec9d1-53c7-4332-b4a6-2f89a52b1732"},"vehicle_type_id":"4","last_reported":1722791189,"current_range_meters":0,"station_id":"","pricing_plan_id":"cebpf4jnsgd1na2vs0mg"},{"bike_id":"2c76bf51-fa83-4c3e-bd1f-7e2fdc10f8c2","system_id":"levelo_inurba_marseille","lat":43.292311,"lon":5.360731,"is_reserved":false,"is_disabled":false,"rental_uris":{"android":"levelo://app?vid=2c76bf51-fa83-4c3e-bd1f-7e2fdc10f8c2","ios":"levelo://app?vid=2c76bf51-fa83-4c3e-bd1f-7e2fdc10f8c2"},"vehicle_type_id":"4","last_reported":1722791189,"current_range_meters":31200,"station_id":"ce4bhbh2rcd13ifvqeqg","pricing_plan_id":"cebpf4jnsgd1na2vs0mg"},{"bike_id":"d9e56951-66b1-49f5-a12f-4592ca9b107f","system_id":"levelo_inurba_marseille","lat":43.292311,"lon":5.360731,"is_reserved":false,"is_disabled":false,"rental_uris":{"android":"levelo://app?vid=d9e56951-66b1-49f5-a12f-4592ca9b107f","ios":"levelo://app?vid=d9e56951-66b1-49f5-a12f-4592ca9b107f"},"vehicle_type_id":"4","last_reported":1722791189,"current_range_meters":4400,"station_id":"ce4bhbh2rcd13ifvqeqg","pricing_plan_id":"cebpf4jnsgd1na2vs0mg"},{"bike_id":"d793dd8c-55b7-4890-a8b6-ec091e067cc8","system_id":"levelo_inurba_marseille","lat":43.30085,"lon":5.390856,"is_reserved":false,"is_disabled":false,"rental_uris":{"android":"levelo://app?vid=d793dd8c-55b7-4890-a8b6-ec091e067cc8","ios":"levelo://app?vid=d793dd8c-55b7-4890-a8b6-ec091e067cc8"},"vehicle_type_id":"4","last_reported":1722791189,"current_range_meters":26800,"station_id":"ce4bh192rcd13ifvqdb0","pricing_plan_id":"cebpf4jnsgd1na2vs0mg"},{"bike_id":"0773c547-7167-4ad1-b92a-5ea3cf0bd3e6","system_id":"levelo_inurba_marseille","lat":43.292311,"lon":5.360731,"is_reserved":false,"is_disabled":false,"rental_uris":{"android":"levelo://app?vid=0773c547-7167-4ad1-b92a-5ea3cf0bd3e6","ios":"levelo://app?vid=0773c547-7167-4ad1-b92a-5ea3cf0bd3e6"},"vehicle_type_id":"4","last_reported":1722791189,"current_range_meters":31200,"station_id":"ce4bhbh2rcd13ifvqeqg","pricing_plan_id":"cebpf4jnsgd1na2vs0mg"},{"bike_id":"36230470-3127-4b39-8943-7fe74d2356a0","system_id":"levelo_inurba_marseille","lat":43.292311,"lon":5.360731,"is_reserved":false,"is_disabled":false,"rental_uris":{"android":"levelo://app?vid=36230470-3127-4b39-8943-7fe74d2356a0","ios":"levelo://app?vid=36230470-3127-4b39-8943-7fe74d2356a0"},"vehicle_type_id":"4","last_reported":1722791189,"current_range_meters":23600,"station_id":"ce4bhbh2rcd13ifvqeqg","pricing_plan_id":"cebpf4jnsgd1na2vs0mg"},{"bike_id":"37f9c37c-c3a8-4526-9ab9-6da89d6f2ae4","system_id":"levelo_inurba_marseille","lat":43.293009,"lon":5.374584,"is_reserved":false,"is_disabled":false,"rental_uris":{"android":"levelo://app?vid=37f9c37c-c3a8-4526-9ab9-6da89d6f2ae4","ios":"levelo://app?vid=37f9c37c-c3a8-4526-9ab9-6da89d6f2ae4"},"vehicle_type_id":"4","last_reported":1722791189,"current_range_meters":28800,"station_id":"ce4bgi12rcd13ifvqb70","pricing_plan_id":"cebpf4jnsgd1na2vs0mg"},{"bike_id":"809a1c08-1b2c-4a16-8e2d-d310766de47f","system_id":"levelo_inurba_marseille","lat":43.292005,"lon":5.357875,"is_reserved":false,"is_disabled":false,"rental_uris":{"android":"levelo://app?vid=809a1c08-1b2c-4a16-8e2d-d310766de47f","ios":"levelo://app?vid=809a1c08-1b2c-4a16-8e2d-d310766de47f"},"vehicle_type_id":"4","last_reported":1722791189,"current_range_meters":800,"station_id":"ce4bhb12rcd13ifvqel0","pricing_plan_id":"cebpf4jnsgd1na2vs0mg"},{"bike_id":"deefc819-93c5-4a53-9689-1266729fa813","system_id":"levelo_inurba_marseille","lat":43.29195,"lon":5.35804,"is_reserved":false,"is_disabled":false,"rental_uris":{"android":"levelo://app?vid=deefc819-93c5-4a53-9689-1266729fa813","ios":"levelo://app?vid=deefc819-93c5-4a53-9689-1266729fa813"},"vehicle_type_id":"4","last_reported":1722791189,"current_range_meters":2800,"station_id":"ce4bhb12rcd13ifvqel0","pricing_plan_id":"cebpf4jnsgd1na2vs0mg"},{"bike_id":"557a2a2d-36a8-428c-a92a-f49130c4bb7b","system_id":"levelo_inurba_marseille","lat":43.29196,"lon":5.35796,"is_reserved":false,"is_disabled":false,"rental_uris":{"android":"levelo://app?vid=557a2a2d-36a8-428c-a92a-f49130c4bb7b","ios":"levelo://app?vid=557a2a2d-36a8-428c-a92a-f49130c4bb7b"},"vehicle_type_id":"4","last_reported":1722791189,"current_range_meters":6800,"station_id":"ce4bhb12rcd13ifvqel0","pricing_plan_id":"cebpf4jnsgd1na2vs0mg"},{"bike_id":"69a60476-ad62-499c-b1af-a87dcbcdd67b","system_id":"levelo_inurba_marseille","lat":43.291994,"lon":5.357886,"is_reserved":false,"is_disabled":false,"rental_uris":{"android":"levelo://app?vid=69a60476-ad62-499c-b1af-a87dcbcdd67b","ios":"levelo://app?vid=69a60476-ad62-499c-b1af-a87dcbcdd67b"},"vehicle_type_id":"4","last_reported":1722791189,"current_range_meters":30800,"station_id":"ce4bhb12rcd13ifvqel0","pricing_plan_id":"cebpf4jnsgd1na2vs0mg"},{"bike_id":"02884b45-d05d-4847-8530-a0bd672554a7","system_id":"levelo_inurba_marseille","lat":43.292005,"lon":5.357875,"is_reserved":false,"is_disabled":false,"rental_uris":{"android":"levelo://app?vid=02884b45-d05d-4847-8530-a0bd672554a7","ios":"levelo://app?vid=02884b45-d05d-4847-8530-a0bd672554a7"},"vehicle_type_id":"4","last_reported":1722791189,"current_range_meters":28400,"station_id":"ce4bhb12rcd13ifvqel0","pricing_plan_id":"cebpf4jnsgd1na2vs0mg"},{"bike_id":"9470c7c3-0589-448d-9bb1-39b79066ab89","system_id":"levelo_inurba_marseille","lat":43.291994,"lon":5.357886,"is_reserved":false,"is_disabled":false,"rental_uris":{"android":"levelo://app?vid=9470c7c3-0589-448d-9bb1-39b79066ab89","ios":"levelo://app?vid=9470c7c3-0589-448d-9bb1-39b79066ab89"},"vehicle_type_id":"4","last_reported":1722791189,"current_range_meters":26400,"station_id":"ce4bhb12rcd13ifvqel0","pricing_plan_id":"cebpf4jnsgd1na2vs0mg"},{"bike_id":"f511eedd-7900-44bf-b8e9-322a9431c2dd","system_id":"levelo_inurba_marseille","lat":43.31332,"lon":5.39698,"is_reserved":false,"is_disabled":false,"rental_uris":{"android":"levelo://app?vid=f511eedd-7900-44bf-b8e9-322a9431c2dd","ios":"levelo://app?vid=f511eedd-7900-44bf-b8e9-322a9431c2dd"},"vehicle_type_id":"4","last_reported":1722791189,"current_range_meters":16000,"station_id":"ce4bgvp2rcd13ifvqcu0","pricing_plan_id":"cebpf4jnsgd1na2vs0mg"},{"bike_id":"c06b680c-02ce-460e-af66-652818ccfc38","system_id":"levelo_inurba_marseille","lat":43.309038,"lon":5.396546,"is_reserved":false,"is_disabled":false,"rental_uris":{"android":"levelo://app?vid=c06b680c-02ce-460e-af66-652818ccfc38","ios":"levelo://app?vid=c06b680c-02ce-460e-af66-652818ccfc38"},"vehicle_type_id":"4","last_reported":1722791189,"current_range_meters":0,"station_id":"ce4bh012rcd13ifvqcv0","pricing_plan_id":"cebpf4jnsgd1na2vs0mg"},{"bike_id":"6854923f-b8cd-4086-8b98-740dc7da46ba","system_id":"levelo_inurba_marseille","lat":43.309047,"lon":5.396551,"is_reserved":false,"is_disabled":false,"rental_uris":{"android":"levelo://app?vid=6854923f-b8cd-4086-8b98-740dc7da46ba","ios":"levelo://app?vid=6854923f-b8cd-4086-8b98-740dc7da46ba"},"vehicle_type_id":"4","last_reported":1722791189,"current_range_meters":11200,"station_id":"ce4bh012rcd13ifvqcv0","pricing_plan_id":"cebpf4jnsgd1na2vs0mg"},{"bike_id":"4519e435-7a7f-44c6-87e0-3fb742c88668","system_id":"levelo_inurba_marseille","lat":43.29529,"lon":5.385581,"is_reserved":false,"is_disabled":false,"rental_uris":{"android":"levelo://app?vid=4519e435-7a7f-44c6-87e0-3fb742c88668","ios":"levelo://app?vid=4519e435-7a7f-44c6-87e0-3fb742c88668"},"vehicle_type_id":"4","last_reported":1722791189,"current_range_meters":0,"station_id":"ce4bgih2rcd13ifvqba0","pricing_plan_id":"cebpf4jnsgd1na2vs0mg"},{"bike_id":"c5a5d24b-7041-4263-9136-85eacc900df7","system_id":"levelo_inurba_marseille","lat":43.309038,"lon":5.396546,"is_reserved":false,"is_disabled":false,"rental_uris":{"android":"levelo://app?vid=c5a5d24b-7041-4263-9136-85eacc900df7","ios":"levelo://app?vid=c5a5d24b-7041-4263-9136-85eacc900df7"},"vehicle_type_id":"4","last_reported":1722791189,"current_range_meters":4800,"station_id":"ce4bh012rcd13ifvqcv0","pricing_plan_id":"cebpf4jnsgd1na2vs0mg"},{"bike_id":"75884850-2fa3-4997-9e49-8114ed760088","system_id":"levelo_inurba_marseille","lat":43.29076,"lon":5.36382,"is_reserved":false,"is_disabled":false,"rental_uris":{"android":"levelo://app?vid=75884850-2fa3-4997-9e49-8114ed760088","ios":"levelo://app?vid=75884850-2fa3-4997-9e49-8114ed760088"},"vehicle_type_id":"4","last_reported":1722791189,"current_range_meters":20800,"station_id":"","pricing_plan_id":"cebpf4jnsgd1na2vs0mg"},{"bike_id":"d36f4f2b-3184-4e80-b795-d0f9fe16fbc7","system_id":"levelo_inurba_marseille","lat":43.290779,"lon":5.371482,"is_reserved":false,"is_disabled":false,"rental_uris":{"android":"levelo://app?vid=d36f4f2b-3184-4e80-b795-d0f9fe16fbc7","ios":"levelo://app?vid=d36f4f2b-3184-4e80-b795-d0f9fe16fbc7"},"vehicle_type_id":"4","last_reported":1722791189,"current_range_meters":31600,"station_id":"ce4bh5p2rcd13ifvqe4g","pricing_plan_id":"cebpf4jnsgd1na2vs0mg"},{"bike_id":"37f4cc2d-e0ae-4547-88da-34cb314b0799","system_id":"levelo_inurba_marseille","lat":43.290779,"lon":5.371482,"is_reserved":false,"is_disabled":false,"rental_uris":{"android":"levelo://app?vid=37f4cc2d-e0ae-4547-88da-34cb314b0799","ios":"levelo://app?vid=37f4cc2d-e0ae-4547-88da-34cb314b0799"},"vehicle_type_id":"4","last_reported":1722791189,"current_range_meters":26000,"station_id":"ce4bh5p2rcd13ifvqe4g","pricing_plan_id":"cebpf4jnsgd1na2vs0mg"},{"bike_id":"59037fb2-4a1e-49f2-9a71-bd2708a6c87f","system_id":"levelo_inurba_marseille","lat":43.290631,"lon":5.359244,"is_reserved":false,"is_disabled":false,"rental_uris":{"android":"levelo://app?vid=59037fb2-4a1e-49f2-9a71-bd2708a6c87f","ios":"levelo://app?vid=59037fb2-4a1e-49f2-9a71-bd2708a6c87f"},"vehicle_type_id":"4","last_reported":1722791189,"current_range_meters":0,"station_id":"ce4bha92rcd13ifvqeg0","pricing_plan_id":"cebpf4jnsgd1na2vs0mg"},{"bike_id":"36966972-99ae-4504-bac0-42165e2f6377","system_id":"levelo_inurba_marseille","lat":43.290631,"lon":5.359244,"is_reserved":false,"is_disabled":false,"rental_uris":{"android":"levelo://app?vid=36966972-99ae-4504-bac0-42165e2f6377","ios":"levelo://app?vid=36966972-99ae-4504-bac0-42165e2f6377"},"vehicle_type_id":"4","last_reported":1722791189,"current_range_meters":14000,"station_id":"ce4bha92rcd13ifvqeg0","pricing_plan_id":"cebpf4jnsgd1na2vs0mg"},{"bike_id":"ac0e1373-b55e-4f9c-a43c-0ee322a4afb1","system_id":"levelo_inurba_marseille","lat":43.290327,"lon":5.375711,"is_reserved":false,"is_disabled":false,"rental_uris":{"android":"levelo://app?vid=ac0e1373-b55e-4f9c-a43c-0ee322a4afb1","ios":"levelo://app?vid=ac0e1373-b55e-4f9c-a43c-0ee322a4afb1"},"vehicle_type_id":"4","last_reported":1722791189,"current_range_meters":3200,"station_id":"ce4bh692rcd13ifvqe90","pricing_plan_id":"cebpf4jnsgd1na2vs0mg"},{"bike_id":"e96c4eb3-7e2d-45dc-9563-4345f4177372","system_id":"levelo_inurba_marseille","lat":43.289184,"lon":5.366408,"is_reserved":false,"is_disabled":false,"rental_uris":{"android":"levelo://app?vid=e96c4eb3-7e2d-45dc-9563-4345f4177372","ios":"levelo://app?vid=e96c4eb3-7e2d-45dc-9563-4345f4177372"},"vehicle_type_id":"4","last_reported":1722791189,"current_range_meters":31200,"station_id":"ce4bhap2rcd13ifvqek0","pricing_plan_id":"cebpf4jnsgd1na2vs0mg"},{"bike_id":"130c991a-ffc6-488b-8714-914463ac9641","system_id":"levelo_inurba_marseille","lat":43.294153,"lon":5.386305,"is_reserved":false,"is_disabled":false,"rental_uris":{"android":"levelo://app?vid=130c991a-ffc6-488b-8714-914463ac9641","ios":"levelo://app?vid=130c991a-ffc6-488b-8714-914463ac9641"},"vehicle_type_id":"4","last_reported":1722791189,"current_range_meters":0,"station_id":"ce4bh2h2rcd13ifvqdh0","pricing_plan_id":"cebpf4jnsgd1na2vs0mg"},{"bike_id":"325ce6f4-2c02-461f-9cc6-6bbbbee19cb9","system_id":"levelo_inurba_marseille","lat":43.289184,"lon":5.366408,"is_reserved":false,"is_disabled":false,"rental_uris":{"android":"levelo://app?vid=325ce6f4-2c02-461f-9cc6-6bbbbee19cb9","ios":"levelo://app?vid=325ce6f4-2c02-461f-9cc6-6bbbbee19cb9"},"vehicle_type_id":"4","last_reported":1722791189,"current_range_meters":9200,"station_id":"ce4bhap2rcd13ifvqek0","pricing_plan_id":"cebpf4jnsgd1na2vs0mg"},{"bike_id":"2f8e2c8d-ab08-4942-9853-6a6d616a9176","system_id":"levelo_inurba_marseille","lat":43.294162,"lon":5.386292,"is_reserved":false,"is_disabled":false,"rental_uris":{"android":"levelo://app?vid=2f8e2c8d-ab08-4942-9853-6a6d616a9176","ios":"levelo://app?vid=2f8e2c8d-ab08-4942-9853-6a6d616a9176"},"vehicle_type_id":"4","last_reported":1722791189,"current_range_meters":0,"station_id":"ce4bh2h2rcd13ifvqdh0","pricing_plan_id":"cebpf4jnsgd1na2vs0mg"},{"bike_id":"684a6497-93dc-499e-83b0-2cd93262d884","system_id":"levelo_inurba_marseille","lat":43.289184,"lon":5.366408,"is_reserved":false,"is_disabled":false,"rental_uris":{"android":"levelo://app?vid=684a6497-93dc-499e-83b0-2cd93262d884","ios":"levelo://app?vid=684a6497-93dc-499e-83b0-2cd93262d884"},"vehicle_type_id":"4","last_reported":1722791189,"current_range_meters":22000,"station_id":"ce4bhap2rcd13ifvqek0","pricing_plan_id":"cebpf4jnsgd1na2vs0mg"},{"bike_id":"9742adec-d14f-4c38-ae25-7ed9b82ff266","system_id":"levelo_inurba_marseille","lat":43.289184,"lon":5.366408,"is_reserved":false,"is_disabled":false,"rental_uris":{"android":"levelo://app?vid=9742adec-d14f-4c38-ae25-7ed9b82ff266","ios":"levelo://app?vid=9742adec-d14f-4c38-ae25-7ed9b82ff266"},"vehicle_type_id":"4","last_reported":1722791189,"current_range_meters":31200,"station_id":"ce4bhap2rcd13ifvqek0","pricing_plan_id":"cebpf4jnsgd1na2vs0mg"},{"bike_id":"dc2ae366-8dc0-46c6-853a-976821c74906","system_id":"levelo_inurba_marseille","lat":43.289184,"lon":5.366408,"is_reserved":false,"is_disabled":false,"rental_uris":{"android":"levelo://app?vid=dc2ae366-8dc0-46c6-853a-976821c74906","ios":"levelo://app?vid=dc2ae366-8dc0-46c6-853a-976821c74906"},"vehicle_type_id":"4","last_reported":1722791189,"current_range_meters":26800,"station_id":"ce4bhap2rcd13ifvqek0","pricing_plan_id":"cebpf4jnsgd1na2vs0mg"},{"bike_id":"4388b83d-4581-460e-b26b-5dfbf0271382","system_id":"levelo_inurba_marseille","lat":43.294153,"lon":5.386305,"is_reserved":false,"is_disabled":false,"rental_uris":{"android":"levelo://app?vid=4388b83d-4581-460e-b26b-5dfbf0271382","ios":"levelo://app?vid=4388b83d-4581-460e-b26b-5dfbf0271382"},"vehicle_type_id":"4","last_reported":1722791189,"current_range_meters":0,"station_id":"ce4bh2h2rcd13ifvqdh0","pricing_plan_id":"cebpf4jnsgd1na2vs0mg"},{"bike_id":"60eae9df-1340-47a4-83aa-b7a81528eb60","system_id":"levelo_inurba_marseille","lat":43.294162,"lon":5.386292,"is_reserved":false,"is_disabled":false,"rental_uris":{"android":"levelo://app?vid=60eae9df-1340-47a4-83aa-b7a81528eb60","ios":"levelo://app?vid=60eae9df-1340-47a4-83aa-b7a81528eb60"},"vehicle_type_id":"4","last_reported":1722791189,"current_range_meters":0,"station_id":"ce4bh2h2rcd13ifvqdh0","pricing_plan_id":"cebpf4jnsgd1na2vs0mg"},{"bike_id":"a5cfb5f3-bfdf-4b78-848d-92e65fa7c609","system_id":"levelo_inurba_marseille","lat":43.289184,"lon":5.366408,"is_reserved":false,"is_disabled":false,"rental_uris":{"android":"levelo://app?vid=a5cfb5f3-bfdf-4b78-848d-92e65fa7c609","ios":"levelo://app?vid=a5cfb5f3-bfdf-4b78-848d-92e65fa7c609"},"vehicle_type_id":"4","last_reported":1722791189,"current_range_meters":23200,"station_id":"ce4bhap2rcd13ifvqek0","pricing_plan_id":"cebpf4jnsgd1na2vs0mg"},{"bike_id":"c52f93f2-5d55-409f-adde-f9b728f1c107","system_id":"levelo_inurba_marseille","lat":43.289184,"lon":5.366408,"is_reserved":false,"is_disabled":false,"rental_uris":{"android":"levelo://app?vid=c52f93f2-5d55-409f-adde-f9b728f1c107","ios":"levelo://app?vid=c52f93f2-5d55-409f-adde-f9b728f1c107"},"vehicle_type_id":"4","last_reported":1722791189,"current_range_meters":6400,"station_id":"ce4bhap2rcd13ifvqek0","pricing_plan_id":"cebpf4jnsgd1na2vs0mg"},{"bike_id":"60a9f430-2f52-4134-b09d-7ed88e9797e4","system_id":"levelo_inurba_marseille","lat":43.289184,"lon":5.366408,"is_reserved":false,"is_disabled":false,"rental_uris":{"android":"levelo://app?vid=60a9f430-2f52-4134-b09d-7ed88e9797e4","ios":"levelo://app?vid=60a9f430-2f52-4134-b09d-7ed88e9797e4"},"vehicle_type_id":"4","last_reported":1722791189,"current_range_meters":11600,"station_id":"ce4bhap2rcd13ifvqek0","pricing_plan_id":"cebpf4jnsgd1na2vs0mg"},{"bike_id":"99003a8e-9ca1-4ba4-86cd-91244cf8a284","system_id":"levelo_inurba_marseille","lat":43.28937,"lon":5.36637,"is_reserved":false,"is_disabled":false,"rental_uris":{"android":"levelo://app?vid=99003a8e-9ca1-4ba4-86cd-91244cf8a284","ios":"levelo://app?vid=99003a8e-9ca1-4ba4-86cd-91244cf8a284"},"vehicle_type_id":"4","last_reported":1722791189,"current_range_meters":0,"station_id":"ce4bhap2rcd13ifvqek0","pricing_plan_id":"cebpf4jnsgd1na2vs0mg"},{"bike_id":"783696b5-9102-4030-9073-e338947187ca","system_id":"levelo_inurba_marseille","lat":43.289468,"lon":5.363719,"is_reserved":false,"is_disabled":false,"rental_uris":{"android":"levelo://app?vid=783696b5-9102-4030-9073-e338947187ca","ios":"levelo://app?vid=783696b5-9102-4030-9073-e338947187ca"},"vehicle_type_id":"4","last_reported":1722791189,"current_range_meters":24000,"station_id":"ce4bhc92rcd13ifvqetg","pricing_plan_id":"cebpf4jnsgd1na2vs0mg"},{"bike_id":"9cec8332-2963-4666-98aa-d24761254c20","system_id":"levelo_inurba_marseille","lat":43.289184,"lon":5.366408,"is_reserved":false,"is_disabled":false,"rental_uris":{"android":"levelo://app?vid=9cec8332-2963-4666-98aa-d24761254c20","ios":"levelo://app?vid=9cec8332-2963-4666-98aa-d24761254c20"},"vehicle_type_id":"4","last_reported":1722791189,"current_range_meters":31600,"station_id":"ce4bhap2rcd13ifvqek0","pricing_plan_id":"cebpf4jnsgd1na2vs0mg"},{"bike_id":"58d4b68a-a081-40b6-ac7e-c0916645fd2c","system_id":"levelo_inurba_marseille","lat":43.28934,"lon":5.36627,"is_reserved":false,"is_disabled":false,"rental_uris":{"android":"levelo://app?vid=58d4b68a-a081-40b6-ac7e-c0916645fd2c","ios":"levelo://app?vid=58d4b68a-a081-40b6-ac7e-c0916645fd2c"},"vehicle_type_id":"4","last_reported":1722791189,"current_range_meters":16400,"station_id":"ce4bhap2rcd13ifvqek0","pricing_plan_id":"cebpf4jnsgd1na2vs0mg"},{"bike_id":"015d4d9a-60f0-4ac6-bb5f-65ce20f8f019","system_id":"levelo_inurba_marseille","lat":43.289468,"lon":5.363719,"is_reserved":false,"is_disabled":false,"rental_uris":{"android":"levelo://app?vid=015d4d9a-60f0-4ac6-bb5f-65ce20f8f019","ios":"levelo://app?vid=015d4d9a-60f0-4ac6-bb5f-65ce20f8f019"},"vehicle_type_id":"4","last_reported":1722791189,"current_range_meters":25200,"station_id":"ce4bhc92rcd13ifvqetg","pricing_plan_id":"cebpf4jnsgd1na2vs0mg"},{"bike_id":"cd38ad61-1053-4043-b920-9781b32b7371","system_id":"levelo_inurba_marseille","lat":43.292644,"lon":5.384257,"is_reserved":false,"is_disabled":false,"rental_uris":{"android":"levelo://app?vid=cd38ad61-1053-4043-b920-9781b32b7371","ios":"levelo://app?vid=cd38ad61-1053-4043-b920-9781b32b7371"},"vehicle_type_id":"4","last_reported":1722791189,"current_range_meters":25200,"station_id":"ce4bh692rcd13ifvqea0","pricing_plan_id":"cebpf4jnsgd1na2vs0mg"},{"bike_id":"699d478a-9cd9-461e-9be9-c6e330db6508","system_id":"levelo_inurba_marseille","lat":43.304274,"lon":5.397513,"is_reserved":false,"is_disabled":false,"rental_uris":{"android":"levelo://app?vid=699d478a-9cd9-461e-9be9-c6e330db6508","ios":"levelo://app?vid=699d478a-9cd9-461e-9be9-c6e330db6508"},"vehicle_type_id":"4","last_reported":1722791189,"current_range_meters":800,"station_id":"ce4bh092rcd13ifvqd20","pricing_plan_id":"cebpf4jnsgd1na2vs0mg"},{"bike_id":"3a971e31-c1ec-4570-bb0b-27460e7d8b13","system_id":"levelo_inurba_marseille","lat":43.29246,"lon":5.3844,"is_reserved":false,"is_disabled":false,"rental_uris":{"android":"levelo://app?vid=3a971e31-c1ec-4570-bb0b-27460e7d8b13","ios":"levelo://app?vid=3a971e31-c1ec-4570-bb0b-27460e7d8b13"},"vehicle_type_id":"4","last_reported":1722791189,"current_range_meters":0,"station_id":"ce4bh692rcd13ifvqea0","pricing_plan_id":"cebpf4jnsgd1na2vs0mg"},{"bike_id":"f1c6f4c9-fc4d-4fcc-809a-171847265180","system_id":"levelo_inurba_marseille","lat":43.290103,"lon":5.356114,"is_reserved":false,"is_disabled":false,"rental_uris":{"android":"levelo://app?vid=f1c6f4c9-fc4d-4fcc-809a-171847265180","ios":"levelo://app?vid=f1c6f4c9-fc4d-4fcc-809a-171847265180"},"vehicle_type_id":"4","last_reported":1722791189,"current_range_meters":0,"station_id":"ce4bhb92rcd13ifvqen0","pricing_plan_id":"cebpf4jnsgd1na2vs0mg"},{"bike_id":"6556fec5-93e1-49bf-88cb-18d189b5c93b","system_id":"levelo_inurba_marseille","lat":43.290103,"lon":5.356114,"is_reserved":false,"is_disabled":false,"rental_uris":{"android":"levelo://app?vid=6556fec5-93e1-49bf-88cb-18d189b5c93b","ios":"levelo://app?vid=6556fec5-93e1-49bf-88cb-18d189b5c93b"},"vehicle_type_id":"4","last_reported":1722791189,"current_range_meters":29200,"station_id":"ce4bhb92rcd13ifvqen0","pricing_plan_id":"cebpf4jnsgd1na2vs0mg"},{"bike_id":"8c279650-661b-4060-a3c9-38e3a0132001","system_id":"levelo_inurba_marseille","lat":43.290103,"lon":5.356114,"is_reserved":false,"is_disabled":false,"rental_uris":{"android":"levelo://app?vid=8c279650-661b-4060-a3c9-38e3a0132001","ios":"levelo://app?vid=8c279650-661b-4060-a3c9-38e3a0132001"},"vehicle_type_id":"4","last_reported":1722791189,"current_range_meters":10000,"station_id":"ce4bhb92rcd13ifvqen0","pricing_plan_id":"cebpf4jnsgd1na2vs0mg"},{"bike_id":"386f1072-e9d5-40a1-a871-70b6e92afd24","system_id":"levelo_inurba_marseille","lat":43.297163,"lon":5.365866,"is_reserved":false,"is_disabled":false,"rental_uris":{"android":"levelo://app?vid=386f1072-e9d5-40a1-a871-70b6e92afd24","ios":"levelo://app?vid=386f1072-e9d5-40a1-a871-70b6e92afd24"},"vehicle_type_id":"4","last_reported":1722791189,"current_range_meters":4000,"station_id":"ce4bgn12rcd13ifvqbt0","pricing_plan_id":"cebpf4jnsgd1na2vs0mg"},{"bike_id":"daa92e08-df00-43ea-beb9-69407a625f03","system_id":"levelo_inurba_marseille","lat":43.289743,"lon":5.378304,"is_reserved":false,"is_disabled":false,"rental_uris":{"android":"levelo://app?vid=daa92e08-df00-43ea-beb9-69407a625f03","ios":"levelo://app?vid=daa92e08-df00-43ea-beb9-69407a625f03"},"vehicle_type_id":"4","last_reported":1722791189,"current_range_meters":30800,"station_id":"ce4bh9p2rcd13ifvqed0","pricing_plan_id":"cebpf4jnsgd1na2vs0mg"},{"bike_id":"54ef5dea-1d2c-4d32-9f32-e92618229be2","system_id":"levelo_inurba_marseille","lat":43.330442,"lon":5.389148,"is_reserved":false,"is_disabled":false,"rental_uris":{"android":"levelo://app?vid=54ef5dea-1d2c-4d32-9f32-e92618229be2","ios":"levelo://app?vid=54ef5dea-1d2c-4d32-9f32-e92618229be2"},"vehicle_type_id":"4","last_reported":1722791189,"current_range_meters":19200,"station_id":"ce4bhr92rcd13ifvqhrg","pricing_plan_id":"cebpf4jnsgd1na2vs0mg"},{"bike_id":"488897e3-654c-4bd4-a0c3-9ed21002e052","system_id":"levelo_inurba_marseille","lat":43.295169,"lon":5.390426,"is_reserved":false,"is_disabled":false,"rental_uris":{"android":"levelo://app?vid=488897e3-654c-4bd4-a0c3-9ed21002e052","ios":"levelo://app?vid=488897e3-654c-4bd4-a0c3-9ed21002e052"},"vehicle_type_id":"4","last_reported":1722791189,"current_range_meters":9200,"station_id":"ce4bh3p2rcd13ifvqdp0","pricing_plan_id":"cebpf4jnsgd1na2vs0mg"},{"bike_id":"8701a7a3-90aa-405d-a88f-714add82bc0c","system_id":"levelo_inurba_marseille","lat":43.33027,"lon":5.39039,"is_reserved":false,"is_disabled":false,"rental_uris":{"android":"levelo://app?vid=8701a7a3-90aa-405d-a88f-714add82bc0c","ios":"levelo://app?vid=8701a7a3-90aa-405d-a88f-714add82bc0c"},"vehicle_type_id":"4","last_reported":1722791189,"current_range_meters":4400,"station_id":"ce4bhr92rcd13ifvqhrg","pricing_plan_id":"cebpf4jnsgd1na2vs0mg"},{"bike_id":"34f23af0-28c8-4e6a-b29f-f6b1ce76c98b","system_id":"levelo_inurba_marseille","lat":43.33028,"lon":5.39038,"is_reserved":false,"is_disabled":false,"rental_uris":{"android":"levelo://app?vid=34f23af0-28c8-4e6a-b29f-f6b1ce76c98b","ios":"levelo://app?vid=34f23af0-28c8-4e6a-b29f-f6b1ce76c98b"},"vehicle_type_id":"4","last_reported":1722791189,"current_range_meters":19200,"station_id":"ce4bhr92rcd13ifvqhrg","pricing_plan_id":"cebpf4jnsgd1na2vs0mg"},{"bike_id":"5354c2c3-78b1-4b29-acf1-85848b84b1dd","system_id":"levelo_inurba_marseille","lat":43.3303,"lon":5.39036,"is_reserved":false,"is_disabled":false,"rental_uris":{"android":"levelo://app?vid=5354c2c3-78b1-4b29-acf1-85848b84b1dd","ios":"levelo://app?vid=5354c2c3-78b1-4b29-acf1-85848b84b1dd"},"vehicle_type_id":"4","last_reported":1722791189,"current_range_meters":12800,"station_id":"ce4bhr92rcd13ifvqhrg","pricing_plan_id":"cebpf4jnsgd1na2vs0mg"},{"bike_id":"39d75fb0-b9bc-46b3-9a97-1efe3a73adc5","system_id":"levelo_inurba_marseille","lat":43.295169,"lon":5.390426,"is_reserved":false,"is_disabled":false,"rental_uris":{"android":"levelo://app?vid=39d75fb0-b9bc-46b3-9a97-1efe3a73adc5","ios":"levelo://app?vid=39d75fb0-b9bc-46b3-9a97-1efe3a73adc5"},"vehicle_type_id":"4","last_reported":1722791189,"current_range_meters":0,"station_id":"ce4bh3p2rcd13ifvqdp0","pricing_plan_id":"cebpf4jnsgd1na2vs0mg"},{"bike_id":"44b88693-8ea9-4e8c-95d1-3675fc48e72c","system_id":"levelo_inurba_marseille","lat":43.297807,"lon":5.393533,"is_reserved":false,"is_disabled":false,"rental_uris":{"android":"levelo://app?vid=44b88693-8ea9-4e8c-95d1-3675fc48e72c","ios":"levelo://app?vid=44b88693-8ea9-4e8c-95d1-3675fc48e72c"},"vehicle_type_id":"4","last_reported":1722791189,"current_range_meters":1200,"station_id":"chh1huq6cuj3fo74tm60","pricing_plan_id":"cebpf4jnsgd1na2vs0mg"},{"bike_id":"3403ccb7-9645-4ed5-a34c-ed8b824172c9","system_id":"levelo_inurba_marseille","lat":43.295169,"lon":5.390426,"is_reserved":false,"is_disabled":false,"rental_uris":{"android":"levelo://app?vid=3403ccb7-9645-4ed5-a34c-ed8b824172c9","ios":"levelo://app?vid=3403ccb7-9645-4ed5-a34c-ed8b824172c9"},"vehicle_type_id":"4","last_reported":1722791189,"current_range_meters":22400,"station_id":"ce4bh3p2rcd13ifvqdp0","pricing_plan_id":"cebpf4jnsgd1na2vs0mg"},{"bike_id":"30a7fcc7-cd15-4a73-8c6f-54881db59206","system_id":"levelo_inurba_marseille","lat":43.295169,"lon":5.390426,"is_reserved":false,"is_disabled":false,"rental_uris":{"android":"levelo://app?vid=30a7fcc7-cd15-4a73-8c6f-54881db59206","ios":"levelo://app?vid=30a7fcc7-cd15-4a73-8c6f-54881db59206"},"vehicle_type_id":"4","last_reported":1722791189,"current_range_meters":0,"station_id":"ce4bh3p2rcd13ifvqdp0","pricing_plan_id":"cebpf4jnsgd1na2vs0mg"},{"bike_id":"4cc6fece-7fe0-481f-a40a-942852f3197c","system_id":"levelo_inurba_marseille","lat":43.29024,"lon":5.38133,"is_reserved":false,"is_disabled":false,"rental_uris":{"android":"levelo://app?vid=4cc6fece-7fe0-481f-a40a-942852f3197c","ios":"levelo://app?vid=4cc6fece-7fe0-481f-a40a-942852f3197c"},"vehicle_type_id":"4","last_reported":1722791189,"current_range_meters":0,"station_id":"ce4bh4p2rcd13ifvqe1g","pricing_plan_id":"cebpf4jnsgd1na2vs0mg"},{"bike_id":"f4cdf6f8-59cc-4926-bbd3-bf830cd7e7b6","system_id":"levelo_inurba_marseille","lat":43.290094,"lon":5.381264,"is_reserved":false,"is_disabled":false,"rental_uris":{"android":"levelo://app?vid=f4cdf6f8-59cc-4926-bbd3-bf830cd7e7b6","ios":"levelo://app?vid=f4cdf6f8-59cc-4926-bbd3-bf830cd7e7b6"},"vehicle_type_id":"4","last_reported":1722791189,"current_range_meters":28800,"station_id":"ce4bh4p2rcd13ifvqe1g","pricing_plan_id":"cebpf4jnsgd1na2vs0mg"},{"bike_id":"87fce097-39f7-4cc6-b05a-d5bd9e4f0bbc","system_id":"levelo_inurba_marseille","lat":43.28847,"lon":5.35843,"is_reserved":false,"is_disabled":false,"rental_uris":{"android":"levelo://app?vid=87fce097-39f7-4cc6-b05a-d5bd9e4f0bbc","ios":"levelo://app?vid=87fce097-39f7-4cc6-b05a-d5bd9e4f0bbc"},"vehicle_type_id":"4","last_reported":1722791189,"current_range_meters":17600,"station_id":"ce4bhb12rcd13ifvqem0","pricing_plan_id":"cebpf4jnsgd1na2vs0mg"},{"bike_id":"23c5b3b4-fc18-4d35-836b-32ad40b6f9fe","system_id":"levelo_inurba_marseille","lat":43.3309,"lon":5.3907,"is_reserved":false,"is_disabled":false,"rental_uris":{"android":"levelo://app?vid=23c5b3b4-fc18-4d35-836b-32ad40b6f9fe","ios":"levelo://app?vid=23c5b3b4-fc18-4d35-836b-32ad40b6f9fe"},"vehicle_type_id":"4","last_reported":1722791189,"current_range_meters":14000,"station_id":"","pricing_plan_id":"cebpf4jnsgd1na2vs0mg"},{"bike_id":"93c0146d-2369-49f8-b0b6-33ab2b4e78b6","system_id":"levelo_inurba_marseille","lat":43.312609,"lon":5.401662,"is_reserved":false,"is_disabled":false,"rental_uris":{"android":"levelo://app?vid=93c0146d-2369-49f8-b0b6-33ab2b4e78b6","ios":"levelo://app?vid=93c0146d-2369-49f8-b0b6-33ab2b4e78b6"},"vehicle_type_id":"4","last_reported":1722791189,"current_range_meters":12000,"station_id":"ce4bh092rcd13ifvqd30","pricing_plan_id":"cebpf4jnsgd1na2vs0mg"},{"bike_id":"6f044633-3688-4e83-af67-cf3db97c1cc7","system_id":"levelo_inurba_marseille","lat":43.337444,"lon":5.374475,"is_reserved":false,"is_disabled":false,"rental_uris":{"android":"levelo://app?vid=6f044633-3688-4e83-af67-cf3db97c1cc7","ios":"levelo://app?vid=6f044633-3688-4e83-af67-cf3db97c1cc7"},"vehicle_type_id":"3","last_reported":1722791189,"current_range_meters":24800,"station_id":"","pricing_plan_id":"cebpf4jnsgd1na2vs0mg"},{"bike_id":"00bd0974-5e4c-4c9f-a0dd-1fcf6bfb894e","system_id":"levelo_inurba_marseille","lat":43.312609,"lon":5.401662,"is_reserved":false,"is_disabled":false,"rental_uris":{"android":"levelo://app?vid=00bd0974-5e4c-4c9f-a0dd-1fcf6bfb894e","ios":"levelo://app?vid=00bd0974-5e4c-4c9f-a0dd-1fcf6bfb894e"},"vehicle_type_id":"4","last_reported":1722791189,"current_range_meters":22800,"station_id":"ce4bh092rcd13ifvqd30","pricing_plan_id":"cebpf4jnsgd1na2vs0mg"},{"bike_id":"7b29443c-ddc0-435c-ba8a-f25202b61496","system_id":"levelo_inurba_marseille","lat":43.309371,"lon":5.401449,"is_reserved":false,"is_disabled":false,"rental_uris":{"android":"levelo://app?vid=7b29443c-ddc0-435c-ba8a-f25202b61496","ios":"levelo://app?vid=7b29443c-ddc0-435c-ba8a-f25202b61496"},"vehicle_type_id":"4","last_reported":1722791189,"current_range_meters":800,"station_id":"ce4bgvp2rcd13ifvqct0","pricing_plan_id":"cebpf4jnsgd1na2vs0mg"},{"bike_id":"1a729034-e7b3-4340-8be8-94f6d57f4180","system_id":"levelo_inurba_marseille","lat":43.30926,"lon":5.40143,"is_reserved":false,"is_disabled":false,"rental_uris":{"android":"levelo://app?vid=1a729034-e7b3-4340-8be8-94f6d57f4180","ios":"levelo://app?vid=1a729034-e7b3-4340-8be8-94f6d57f4180"},"vehicle_type_id":"4","last_reported":1722791189,"current_range_meters":31200,"station_id":"ce4bgvp2rcd13ifvqct0","pricing_plan_id":"cebpf4jnsgd1na2vs0mg"},{"bike_id":"b30860a1-4d1d-4ac7-925a-06d03887ebb9","system_id":"levelo_inurba_marseille","lat":43.309371,"lon":5.401449,"is_reserved":false,"is_disabled":false,"rental_uris":{"android":"levelo://app?vid=b30860a1-4d1d-4ac7-925a-06d03887ebb9","ios":"levelo://app?vid=b30860a1-4d1d-4ac7-925a-06d03887ebb9"},"vehicle_type_id":"4","last_reported":1722791189,"current_range_meters":9600,"station_id":"ce4bgvp2rcd13ifvqct0","pricing_plan_id":"cebpf4jnsgd1na2vs0mg"},{"bike_id":"711bbdb7-4aae-43f7-98bc-a00f02c02487","system_id":"levelo_inurba_marseille","lat":43.33757,"lon":5.37464,"is_reserved":false,"is_disabled":false,"rental_uris":{"android":"levelo://app?vid=711bbdb7-4aae-43f7-98bc-a00f02c02487","ios":"levelo://app?vid=711bbdb7-4aae-43f7-98bc-a00f02c02487"},"vehicle_type_id":"4","last_reported":1722791189,"current_range_meters":20000,"station_id":"","pricing_plan_id":"cebpf4jnsgd1na2vs0mg"},{"bike_id":"0047a55b-4319-46f3-98ff-ad1b0ddfe2bb","system_id":"levelo_inurba_marseille","lat":43.306412,"lon":5.401035,"is_reserved":false,"is_disabled":false,"rental_uris":{"android":"levelo://app?vid=0047a55b-4319-46f3-98ff-ad1b0ddfe2bb","ios":"levelo://app?vid=0047a55b-4319-46f3-98ff-ad1b0ddfe2bb"},"vehicle_type_id":"4","last_reported":1722791189,"current_range_meters":14400,"station_id":"ce4bh112rcd13ifvqda0","pricing_plan_id":"cebpf4jnsgd1na2vs0mg"},{"bike_id":"ce14e91b-c407-42ed-89ef-c447dfcb254f","system_id":"levelo_inurba_marseille","lat":43.301117,"lon":5.398795,"is_reserved":false,"is_disabled":false,"rental_uris":{"android":"levelo://app?vid=ce14e91b-c407-42ed-89ef-c447dfcb254f","ios":"levelo://app?vid=ce14e91b-c407-42ed-89ef-c447dfcb254f"},"vehicle_type_id":"4","last_reported":1722791189,"current_range_meters":0,"station_id":"ce4bh0h2rcd13ifvqd40","pricing_plan_id":"cebpf4jnsgd1na2vs0mg"},{"bike_id":"2f9efa2b-78e4-4483-bc52-3253ccdef578","system_id":"levelo_inurba_marseille","lat":43.314802,"lon":5.40268,"is_reserved":false,"is_disabled":false,"rental_uris":{"android":"levelo://app?vid=2f9efa2b-78e4-4483-bc52-3253ccdef578","ios":"levelo://app?vid=2f9efa2b-78e4-4483-bc52-3253ccdef578"},"vehicle_type_id":"4","last_reported":1722791189,"current_range_meters":20000,"station_id":"","pricing_plan_id":"cebpf4jnsgd1na2vs0mg"},{"bike_id":"04cf79ba-c60a-4a53-bc8e-442c3491fb34","system_id":"levelo_inurba_marseille","lat":43.298681,"lon":5.397225,"is_reserved":false,"is_disabled":false,"rental_uris":{"android":"levelo://app?vid=04cf79ba-c60a-4a53-bc8e-442c3491fb34","ios":"levelo://app?vid=04cf79ba-c60a-4a53-bc8e-442c3491fb34"},"vehicle_type_id":"4","last_reported":1722791189,"current_range_meters":0,"station_id":"ce4bh0h2rcd13ifvqd50","pricing_plan_id":"cebpf4jnsgd1na2vs0mg"},{"bike_id":"2887b391-fc19-40ff-bfbe-6d6597712bef","system_id":"levelo_inurba_marseille","lat":43.28706,"lon":5.37391,"is_reserved":false,"is_disabled":false,"rental_uris":{"android":"levelo://app?vid=2887b391-fc19-40ff-bfbe-6d6597712bef","ios":"levelo://app?vid=2887b391-fc19-40ff-bfbe-6d6597712bef"},"vehicle_type_id":"4","last_reported":1722791189,"current_range_meters":31200,"station_id":"ce4bh3p2rcd13ifvqdq0","pricing_plan_id":"cebpf4jnsgd1na2vs0mg"},{"bike_id":"77ef0f14-7098-4065-8880-0ebc7851b359","system_id":"levelo_inurba_marseille","lat":43.286593,"lon":5.363346,"is_reserved":false,"is_disabled":false,"rental_uris":{"android":"levelo://app?vid=77ef0f14-7098-4065-8880-0ebc7851b359","ios":"levelo://app?vid=77ef0f14-7098-4065-8880-0ebc7851b359"},"vehicle_type_id":"4","last_reported":1722791189,"current_range_meters":18400,"station_id":"ce4bhah2rcd13ifvqej0","pricing_plan_id":"cebpf4jnsgd1na2vs0mg"},{"bike_id":"72e9b735-2bf8-40e7-99cb-7b686bc1ef2f","system_id":"levelo_inurba_marseille","lat":43.286591,"lon":5.363346,"is_reserved":false,"is_disabled":false,"rental_uris":{"android":"levelo://app?vid=72e9b735-2bf8-40e7-99cb-7b686bc1ef2f","ios":"levelo://app?vid=72e9b735-2bf8-40e7-99cb-7b686bc1ef2f"},"vehicle_type_id":"4","last_reported":1722791189,"current_range_meters":12000,"station_id":"ce4bhah2rcd13ifvqej0","pricing_plan_id":"cebpf4jnsgd1na2vs0mg"},{"bike_id":"3d7fcdac-02d1-45a9-9547-0616b9586b02","system_id":"levelo_inurba_marseille","lat":43.286961,"lon":5.373785,"is_reserved":false,"is_disabled":false,"rental_uris":{"android":"levelo://app?vid=3d7fcdac-02d1-45a9-9547-0616b9586b02","ios":"levelo://app?vid=3d7fcdac-02d1-45a9-9547-0616b9586b02"},"vehicle_type_id":"4","last_reported":1722791189,"current_range_meters":29200,"station_id":"ce4bh3p2rcd13ifvqdq0","pricing_plan_id":"cebpf4jnsgd1na2vs0mg"},{"bike_id":"b106900c-a8ab-4a89-a8d3-c7ef13fa30e4","system_id":"levelo_inurba_marseille","lat":43.286593,"lon":5.363346,"is_reserved":false,"is_disabled":false,"rental_uris":{"android":"levelo://app?vid=b106900c-a8ab-4a89-a8d3-c7ef13fa30e4","ios":"levelo://app?vid=b106900c-a8ab-4a89-a8d3-c7ef13fa30e4"},"vehicle_type_id":"4","last_reported":1722791189,"current_range_meters":28800,"station_id":"ce4bhah2rcd13ifvqej0","pricing_plan_id":"cebpf4jnsgd1na2vs0mg"},{"bike_id":"4ea2548a-b00d-4849-af1b-0b5d841ecd42","system_id":"levelo_inurba_marseille","lat":43.286591,"lon":5.363346,"is_reserved":false,"is_disabled":false,"rental_uris":{"android":"levelo://app?vid=4ea2548a-b00d-4849-af1b-0b5d841ecd42","ios":"levelo://app?vid=4ea2548a-b00d-4849-af1b-0b5d841ecd42"},"vehicle_type_id":"4","last_reported":1722791189,"current_range_meters":29600,"station_id":"ce4bhah2rcd13ifvqej0","pricing_plan_id":"cebpf4jnsgd1na2vs0mg"},{"bike_id":"d68cecb0-e10d-4724-bf2c-b847bd5eda9c","system_id":"levelo_inurba_marseille","lat":43.286593,"lon":5.363346,"is_reserved":false,"is_disabled":false,"rental_uris":{"android":"levelo://app?vid=d68cecb0-e10d-4724-bf2c-b847bd5eda9c","ios":"levelo://app?vid=d68cecb0-e10d-4724-bf2c-b847bd5eda9c"},"vehicle_type_id":"4","last_reported":1722791189,"current_range_meters":25200,"station_id":"ce4bhah2rcd13ifvqej0","pricing_plan_id":"cebpf4jnsgd1na2vs0mg"},{"bike_id":"1b9534d4-cadc-4368-ba32-905f2530f234","system_id":"levelo_inurba_marseille","lat":43.286593,"lon":5.363346,"is_reserved":false,"is_disabled":false,"rental_uris":{"android":"levelo://app?vid=1b9534d4-cadc-4368-ba32-905f2530f234","ios":"levelo://app?vid=1b9534d4-cadc-4368-ba32-905f2530f234"},"vehicle_type_id":"4","last_reported":1722791189,"current_range_meters":0,"station_id":"ce4bhah2rcd13ifvqej0","pricing_plan_id":"cebpf4jnsgd1na2vs0mg"},{"bike_id":"534e75a1-c1d5-406a-aa76-2fcde0181d4f","system_id":"levelo_inurba_marseille","lat":43.28658,"lon":5.36351,"is_reserved":false,"is_disabled":false,"rental_uris":{"android":"levelo://app?vid=534e75a1-c1d5-406a-aa76-2fcde0181d4f","ios":"levelo://app?vid=534e75a1-c1d5-406a-aa76-2fcde0181d4f"},"vehicle_type_id":"4","last_reported":1722791189,"current_range_meters":31200,"station_id":"ce4bhah2rcd13ifvqej0","pricing_plan_id":"cebpf4jnsgd1na2vs0mg"},{"bike_id":"01902c5f-7586-4113-a8b7-7cf8c558dd6b","system_id":"levelo_inurba_marseille","lat":43.286961,"lon":5.373785,"is_reserved":false,"is_disabled":false,"rental_uris":{"android":"levelo://app?vid=01902c5f-7586-4113-a8b7-7cf8c558dd6b","ios":"levelo://app?vid=01902c5f-7586-4113-a8b7-7cf8c558dd6b"},"vehicle_type_id":"4","last_reported":1722791189,"current_range_meters":12800,"station_id":"ce4bh3p2rcd13ifvqdq0","pricing_plan_id":"cebpf4jnsgd1na2vs0mg"},{"bike_id":"be375d2d-8e70-42f8-be2d-0e4fd69c4c1b","system_id":"levelo_inurba_marseille","lat":43.286961,"lon":5.373785,"is_reserved":false,"is_disabled":false,"rental_uris":{"android":"levelo://app?vid=be375d2d-8e70-42f8-be2d-0e4fd69c4c1b","ios":"levelo://app?vid=be375d2d-8e70-42f8-be2d-0e4fd69c4c1b"},"vehicle_type_id":"4","last_reported":1722791189,"current_range_meters":7200,"station_id":"ce4bh3p2rcd13ifvqdq0","pricing_plan_id":"cebpf4jnsgd1na2vs0mg"},{"bike_id":"9de1ad24-e2a3-404c-91b1-30abb959e710","system_id":"levelo_inurba_marseille","lat":43.286961,"lon":5.373785,"is_reserved":false,"is_disabled":false,"rental_uris":{"android":"levelo://app?vid=9de1ad24-e2a3-404c-91b1-30abb959e710","ios":"levelo://app?vid=9de1ad24-e2a3-404c-91b1-30abb959e710"},"vehicle_type_id":"4","last_reported":1722791189,"current_range_meters":20400,"station_id":"ce4bh3p2rcd13ifvqdq0","pricing_plan_id":"cebpf4jnsgd1na2vs0mg"},{"bike_id":"12a6fef4-73a8-4499-9ba3-2a3e70cf8541","system_id":"levelo_inurba_marseille","lat":43.302759,"lon":5.400793,"is_reserved":false,"is_disabled":false,"rental_uris":{"android":"levelo://app?vid=12a6fef4-73a8-4499-9ba3-2a3e70cf8541","ios":"levelo://app?vid=12a6fef4-73a8-4499-9ba3-2a3e70cf8541"},"vehicle_type_id":"4","last_reported":1722791189,"current_range_meters":1600,"station_id":"ce4bgvh2rcd13ifvqcs0","pricing_plan_id":"cebpf4jnsgd1na2vs0mg"},{"bike_id":"cd17784b-9611-49b3-a591-8af53105b979","system_id":"levelo_inurba_marseille","lat":43.302759,"lon":5.400793,"is_reserved":false,"is_disabled":false,"rental_uris":{"android":"levelo://app?vid=cd17784b-9611-49b3-a591-8af53105b979","ios":"levelo://app?vid=cd17784b-9611-49b3-a591-8af53105b979"},"vehicle_type_id":"4","last_reported":1722791189,"current_range_meters":10000,"station_id":"ce4bgvh2rcd13ifvqcs0","pricing_plan_id":"cebpf4jnsgd1na2vs0mg"},{"bike_id":"8ba0648b-b5a2-45ba-9a84-286c734de2cb","system_id":"levelo_inurba_marseille","lat":43.289307,"lon":5.38406,"is_reserved":false,"is_disabled":false,"rental_uris":{"android":"levelo://app?vid=8ba0648b-b5a2-45ba-9a84-286c734de2cb","ios":"levelo://app?vid=8ba0648b-b5a2-45ba-9a84-286c734de2cb"},"vehicle_type_id":"4","last_reported":1722791189,"current_range_meters":4400,"station_id":"ce4bh612rcd13ifvqe6g","pricing_plan_id":"cebpf4jnsgd1na2vs0mg"},{"bike_id":"1a91a567-c0ab-4516-b639-88192e360457","system_id":"levelo_inurba_marseille","lat":43.289307,"lon":5.38406,"is_reserved":false,"is_disabled":false,"rental_uris":{"android":"levelo://app?vid=1a91a567-c0ab-4516-b639-88192e360457","ios":"levelo://app?vid=1a91a567-c0ab-4516-b639-88192e360457"},"vehicle_type_id":"4","last_reported":1722791189,"current_range_meters":31200,"station_id":"ce4bh612rcd13ifvqe6g","pricing_plan_id":"cebpf4jnsgd1na2vs0mg"},{"bike_id":"8a549e75-c611-4f9c-bae0-5b2f4c594791","system_id":"levelo_inurba_marseille","lat":43.302759,"lon":5.400793,"is_reserved":false,"is_disabled":false,"rental_uris":{"android":"levelo://app?vid=8a549e75-c611-4f9c-bae0-5b2f4c594791","ios":"levelo://app?vid=8a549e75-c611-4f9c-bae0-5b2f4c594791"},"vehicle_type_id":"4","last_reported":1722791189,"current_range_meters":20800,"station_id":"ce4bgvh2rcd13ifvqcs0","pricing_plan_id":"cebpf4jnsgd1na2vs0mg"},{"bike_id":"b47b9d94-1d0c-407f-b5df-5b5b5b704616","system_id":"levelo_inurba_marseille","lat":43.30255,"lon":5.40071,"is_reserved":false,"is_disabled":false,"rental_uris":{"android":"levelo://app?vid=b47b9d94-1d0c-407f-b5df-5b5b5b704616","ios":"levelo://app?vid=b47b9d94-1d0c-407f-b5df-5b5b5b704616"},"vehicle_type_id":"4","last_reported":1722791189,"current_range_meters":0,"station_id":"ce4bgvh2rcd13ifvqcs0","pricing_plan_id":"cebpf4jnsgd1na2vs0mg"},{"bike_id":"323307f5-3b3d-4580-a237-03d8da58e353","system_id":"levelo_inurba_marseille","lat":43.290336,"lon":5.386425,"is_reserved":false,"is_disabled":false,"rental_uris":{"android":"levelo://app?vid=323307f5-3b3d-4580-a237-03d8da58e353","ios":"levelo://app?vid=323307f5-3b3d-4580-a237-03d8da58e353"},"vehicle_type_id":"4","last_reported":1722791189,"current_range_meters":0,"station_id":"ce4bh4p2rcd13ifvqe0g","pricing_plan_id":"cebpf4jnsgd1na2vs0mg"},{"bike_id":"b946cbd9-6f74-43c9-b9dc-ec3155a5afb2","system_id":"levelo_inurba_marseille","lat":43.28914,"lon":5.38387,"is_reserved":false,"is_disabled":false,"rental_uris":{"android":"levelo://app?vid=b946cbd9-6f74-43c9-b9dc-ec3155a5afb2","ios":"levelo://app?vid=b946cbd9-6f74-43c9-b9dc-ec3155a5afb2"},"vehicle_type_id":"4","last_reported":1722791189,"current_range_meters":28000,"station_id":"ce4bh612rcd13ifvqe6g","pricing_plan_id":"cebpf4jnsgd1na2vs0mg"},{"bike_id":"7027ae00-5550-4e1d-9b05-8214a6e9c80d","system_id":"levelo_inurba_marseille","lat":43.302759,"lon":5.400793,"is_reserved":false,"is_disabled":false,"rental_uris":{"android":"levelo://app?vid=7027ae00-5550-4e1d-9b05-8214a6e9c80d","ios":"levelo://app?vid=7027ae00-5550-4e1d-9b05-8214a6e9c80d"},"vehicle_type_id":"4","last_reported":1722791189,"current_range_meters":15200,"station_id":"ce4bgvh2rcd13ifvqcs0","pricing_plan_id":"cebpf4jnsgd1na2vs0mg"},{"bike_id":"8d164704-b296-4600-9fed-473f98340e84","system_id":"levelo_inurba_marseille","lat":43.286039,"lon":5.370679,"is_reserved":false,"is_disabled":false,"rental_uris":{"android":"levelo://app?vid=8d164704-b296-4600-9fed-473f98340e84","ios":"levelo://app?vid=8d164704-b296-4600-9fed-473f98340e84"},"vehicle_type_id":"4","last_reported":1722791189,"current_range_meters":14800,"station_id":"ce4bht12rcd13ifvqi60","pricing_plan_id":"cebpf4jnsgd1na2vs0mg"},{"bike_id":"8df69a07-2704-4112-ac11-beab3f6c38c3","system_id":"levelo_inurba_marseille","lat":43.302759,"lon":5.400793,"is_reserved":false,"is_disabled":false,"rental_uris":{"android":"levelo://app?vid=8df69a07-2704-4112-ac11-beab3f6c38c3","ios":"levelo://app?vid=8df69a07-2704-4112-ac11-beab3f6c38c3"},"vehicle_type_id":"4","last_reported":1722791189,"current_range_meters":10000,"station_id":"ce4bgvh2rcd13ifvqcs0","pricing_plan_id":"cebpf4jnsgd1na2vs0mg"},{"bike_id":"9d9a7c11-4c95-4e74-bf34-7120e48b77f1","system_id":"levelo_inurba_marseille","lat":43.286039,"lon":5.370681,"is_reserved":false,"is_disabled":false,"rental_uris":{"android":"levelo://app?vid=9d9a7c11-4c95-4e74-bf34-7120e48b77f1","ios":"levelo://app?vid=9d9a7c11-4c95-4e74-bf34-7120e48b77f1"},"vehicle_type_id":"4","last_reported":1722791189,"current_range_meters":15600,"station_id":"ce4bht12rcd13ifvqi60","pricing_plan_id":"cebpf4jnsgd1na2vs0mg"},{"bike_id":"187287c4-43dd-4257-9140-1826c6906fdc","system_id":"levelo_inurba_marseille","lat":43.291994,"lon":5.392907,"is_reserved":false,"is_disabled":false,"rental_uris":{"android":"levelo://app?vid=187287c4-43dd-4257-9140-1826c6906fdc","ios":"levelo://app?vid=187287c4-43dd-4257-9140-1826c6906fdc"},"vehicle_type_id":"4","last_reported":1722791189,"current_range_meters":3200,"station_id":"ce4bh192rcd13ifvqdd0","pricing_plan_id":"cebpf4jnsgd1na2vs0mg"},{"bike_id":"8372b35c-879b-4b73-8d2c-4703642184a1","system_id":"levelo_inurba_marseille","lat":43.316899,"lon":5.404782,"is_reserved":false,"is_disabled":false,"rental_uris":{"android":"levelo://app?vid=8372b35c-879b-4b73-8d2c-4703642184a1","ios":"levelo://app?vid=8372b35c-879b-4b73-8d2c-4703642184a1"},"vehicle_type_id":"4","last_reported":1722791189,"current_range_meters":29200,"station_id":"","pricing_plan_id":"cebpf4jnsgd1na2vs0mg"},{"bike_id":"d590337e-5d96-4290-823d-e7cd93f1f647","system_id":"levelo_inurba_marseille","lat":43.286961,"lon":5.373785,"is_reserved":false,"is_disabled":false,"rental_uris":{"android":"levelo://app?vid=d590337e-5d96-4290-823d-e7cd93f1f647","ios":"levelo://app?vid=d590337e-5d96-4290-823d-e7cd93f1f647"},"vehicle_type_id":"4","last_reported":1722791189,"current_range_meters":9600,"station_id":"ce4bh3p2rcd13ifvqdq0","pricing_plan_id":"cebpf4jnsgd1na2vs0mg"},{"bike_id":"de530114-2864-4c03-8bca-11207051231e","system_id":"levelo_inurba_marseille","lat":43.284538,"lon":5.358657,"is_reserved":false,"is_disabled":false,"rental_uris":{"android":"levelo://app?vid=de530114-2864-4c03-8bca-11207051231e","ios":"levelo://app?vid=de530114-2864-4c03-8bca-11207051231e"},"vehicle_type_id":"4","last_reported":1722791189,"current_range_meters":14000,"station_id":"ce4bhah2rcd13ifvqei0","pricing_plan_id":"cebpf4jnsgd1na2vs0mg"},{"bike_id":"789b75a2-5ad5-473d-bfc0-1da44858d4f9","system_id":"levelo_inurba_marseille","lat":43.284534,"lon":5.358662,"is_reserved":false,"is_disabled":false,"rental_uris":{"android":"levelo://app?vid=789b75a2-5ad5-473d-bfc0-1da44858d4f9","ios":"levelo://app?vid=789b75a2-5ad5-473d-bfc0-1da44858d4f9"},"vehicle_type_id":"4","last_reported":1722791189,"current_range_meters":4400,"station_id":"ce4bhah2rcd13ifvqei0","pricing_plan_id":"cebpf4jnsgd1na2vs0mg"},{"bike_id":"19a60b3a-0425-43dc-a216-7b2e8c0c1c04","system_id":"levelo_inurba_marseille","lat":43.294314,"lon":5.397498,"is_reserved":false,"is_disabled":false,"rental_uris":{"android":"levelo://app?vid=19a60b3a-0425-43dc-a216-7b2e8c0c1c04","ios":"levelo://app?vid=19a60b3a-0425-43dc-a216-7b2e8c0c1c04"},"vehicle_type_id":"4","last_reported":1722791189,"current_range_meters":0,"station_id":"ce4bh3h2rcd13ifvqdo0","pricing_plan_id":"cebpf4jnsgd1na2vs0mg"},{"bike_id":"48bf1e98-0ef4-478b-8457-530b1f851393","system_id":"levelo_inurba_marseille","lat":43.33208,"lon":5.39656,"is_reserved":false,"is_disabled":false,"rental_uris":{"android":"levelo://app?vid=48bf1e98-0ef4-478b-8457-530b1f851393","ios":"levelo://app?vid=48bf1e98-0ef4-478b-8457-530b1f851393"},"vehicle_type_id":"4","last_reported":1722791189,"current_range_meters":18800,"station_id":"","pricing_plan_id":"cebpf4jnsgd1na2vs0mg"},{"bike_id":"96fdb6cd-746f-43ec-84ae-a18e6279cdc6","system_id":"levelo_inurba_marseille","lat":43.295279,"lon":5.375048,"is_reserved":false,"is_disabled":false,"rental_uris":{"android":"levelo://app?vid=96fdb6cd-746f-43ec-84ae-a18e6279cdc6","ios":"levelo://app?vid=96fdb6cd-746f-43ec-84ae-a18e6279cdc6"},"vehicle_type_id":"4","last_reported":1722791189,"current_range_meters":26000,"station_id":"ce4bgkp2rcd13ifvqbmg","pricing_plan_id":"cebpf4jnsgd1na2vs0mg"},{"bike_id":"031beea4-f71f-4e17-8245-e52ccdacf7d4","system_id":"levelo_inurba_marseille","lat":43.284168,"lon":5.375192,"is_reserved":false,"is_disabled":false,"rental_uris":{"android":"levelo://app?vid=031beea4-f71f-4e17-8245-e52ccdacf7d4","ios":"levelo://app?vid=031beea4-f71f-4e17-8245-e52ccdacf7d4"},"vehicle_type_id":"4","last_reported":1722791189,"current_range_meters":31200,"station_id":"ce4bh412rcd13ifvqds0","pricing_plan_id":"cebpf4jnsgd1na2vs0mg"},{"bike_id":"8f433c88-c989-4c76-8b3a-260da0960196","system_id":"levelo_inurba_marseille","lat":43.28416,"lon":5.3752,"is_reserved":false,"is_disabled":false,"rental_uris":{"android":"levelo://app?vid=8f433c88-c989-4c76-8b3a-260da0960196","ios":"levelo://app?vid=8f433c88-c989-4c76-8b3a-260da0960196"},"vehicle_type_id":"4","last_reported":1722791189,"current_range_meters":31200,"station_id":"ce4bh412rcd13ifvqds0","pricing_plan_id":"cebpf4jnsgd1na2vs0mg"},{"bike_id":"e0789517-bca0-44f4-b3f4-4ea4098bdf2c","system_id":"levelo_inurba_marseille","lat":43.283998,"lon":5.375062,"is_reserved":false,"is_disabled":false,"rental_uris":{"android":"levelo://app?vid=e0789517-bca0-44f4-b3f4-4ea4098bdf2c","ios":"levelo://app?vid=e0789517-bca0-44f4-b3f4-4ea4098bdf2c"},"vehicle_type_id":"4","last_reported":1722791189,"current_range_meters":6400,"station_id":"ce4bh412rcd13ifvqds0","pricing_plan_id":"cebpf4jnsgd1na2vs0mg"},{"bike_id":"9fc1bb4f-9552-4689-ae61-d6800c829cd2","system_id":"levelo_inurba_marseille","lat":43.283998,"lon":5.375062,"is_reserved":false,"is_disabled":false,"rental_uris":{"android":"levelo://app?vid=9fc1bb4f-9552-4689-ae61-d6800c829cd2","ios":"levelo://app?vid=9fc1bb4f-9552-4689-ae61-d6800c829cd2"},"vehicle_type_id":"4","last_reported":1722791189,"current_range_meters":0,"station_id":"ce4bh412rcd13ifvqds0","pricing_plan_id":"cebpf4jnsgd1na2vs0mg"},{"bike_id":"a071d922-3221-461f-afee-05030c0ea7c3","system_id":"levelo_inurba_marseille","lat":43.283998,"lon":5.375062,"is_reserved":false,"is_disabled":false,"rental_uris":{"android":"levelo://app?vid=a071d922-3221-461f-afee-05030c0ea7c3","ios":"levelo://app?vid=a071d922-3221-461f-afee-05030c0ea7c3"},"vehicle_type_id":"4","last_reported":1722791189,"current_range_meters":26000,"station_id":"ce4bh412rcd13ifvqds0","pricing_plan_id":"cebpf4jnsgd1na2vs0mg"},{"bike_id":"d9df2f0d-6d02-45f3-82e4-1c9e6b6275cb","system_id":"levelo_inurba_marseille","lat":43.283998,"lon":5.375062,"is_reserved":false,"is_disabled":false,"rental_uris":{"android":"levelo://app?vid=d9df2f0d-6d02-45f3-82e4-1c9e6b6275cb","ios":"levelo://app?vid=d9df2f0d-6d02-45f3-82e4-1c9e6b6275cb"},"vehicle_type_id":"4","last_reported":1722791189,"current_range_meters":12000,"station_id":"ce4bh412rcd13ifvqds0","pricing_plan_id":"cebpf4jnsgd1na2vs0mg"},{"bike_id":"7c034147-e92c-4496-be0a-60a78046bdb3","system_id":"levelo_inurba_marseille","lat":43.295713,"lon":5.399639,"is_reserved":false,"is_disabled":false,"rental_uris":{"android":"levelo://app?vid=7c034147-e92c-4496-be0a-60a78046bdb3","ios":"levelo://app?vid=7c034147-e92c-4496-be0a-60a78046bdb3"},"vehicle_type_id":"4","last_reported":1722791189,"current_range_meters":0,"station_id":"ce4bh312rcd13ifvqdj0","pricing_plan_id":"cebpf4jnsgd1na2vs0mg"},{"bike_id":"32570e4e-9f86-4f51-a4fd-7b8192a63a26","system_id":"levelo_inurba_marseille","lat":43.28397,"lon":5.37524,"is_reserved":false,"is_disabled":false,"rental_uris":{"android":"levelo://app?vid=32570e4e-9f86-4f51-a4fd-7b8192a63a26","ios":"levelo://app?vid=32570e4e-9f86-4f51-a4fd-7b8192a63a26"},"vehicle_type_id":"4","last_reported":1722791189,"current_range_meters":800,"station_id":"ce4bh412rcd13ifvqds0","pricing_plan_id":"cebpf4jnsgd1na2vs0mg"},{"bike_id":"a8730a44-1e39-4c17-8027-644c6c6588a9","system_id":"levelo_inurba_marseille","lat":43.286595,"lon":5.386795,"is_reserved":false,"is_disabled":false,"rental_uris":{"android":"levelo://app?vid=a8730a44-1e39-4c17-8027-644c6c6588a9","ios":"levelo://app?vid=a8730a44-1e39-4c17-8027-644c6c6588a9"},"vehicle_type_id":"4","last_reported":1722791189,"current_range_meters":800,"station_id":"ce4bh492rcd13ifvqdug","pricing_plan_id":"cebpf4jnsgd1na2vs0mg"},{"bike_id":"dc1527bd-4daa-41fd-8efe-0d534a966e23","system_id":"levelo_inurba_marseille","lat":43.284534,"lon":5.358662,"is_reserved":false,"is_disabled":false,"rental_uris":{"android":"levelo://app?vid=dc1527bd-4daa-41fd-8efe-0d534a966e23","ios":"levelo://app?vid=dc1527bd-4daa-41fd-8efe-0d534a966e23"},"vehicle_type_id":"4","last_reported":1722791189,"current_range_meters":2000,"station_id":"ce4bhah2rcd13ifvqei0","pricing_plan_id":"cebpf4jnsgd1na2vs0mg"},{"bike_id":"1bfa9399-c269-4344-8775-245b90248c14","system_id":"levelo_inurba_marseille","lat":43.286595,"lon":5.386795,"is_reserved":false,"is_disabled":false,"rental_uris":{"android":"levelo://app?vid=1bfa9399-c269-4344-8775-245b90248c14","ios":"levelo://app?vid=1bfa9399-c269-4344-8775-245b90248c14"},"vehicle_type_id":"4","last_reported":1722791189,"current_range_meters":27200,"station_id":"ce4bh492rcd13ifvqdug","pricing_plan_id":"cebpf4jnsgd1na2vs0mg"},