{"last_updated":1716059133,"ttl":30,"version":"2.2","data":{"bikes":[{"bike_id":"32460bde-8f33-47dd-a2bb-21d9fb813593","system_id":"levelo_inurba_marseille","lat":43.313391,"lon":5.36706,"is_reserved":false,"is_disabled":false,"rental_uris":{"android":"levelo://app?vid=32460bde-8f33-47dd-a2bb-21d9fb813593","ios":"levelo://app?vid=32460bde-8f33-47dd-a2bb-21d9fb813593"},"vehicle_type_id":"4","last_reported":1716059134,"current_range_meters":23600,"station_id":"ce4bgr92rcd13ifvqc6g","pricing_plan_id":"cebpf4jnsgd1na2vs0mg"},{"bike_id":"c2d9cd61-d03b-4e7b-8334-6f3865033b05","system_id":"levelo_inurba_marseille","lat":43.312239,"lon":5.368562,"is_reserved":false,"is_disabled":false,"rental_uris":{"android":"levelo://app?vid=c2d9cd61-d03b-4e7b-8334-6f3865033b05","ios":"levelo://app?vid=c2d9cd61-d03b-4e7b-8334-6f3865033b05"},"vehicle_type_id":"4","last_reported":1716059134,"current_range_meters":0,"station_id":"ce4bgl92rcd13ifvqbq0","pricing_plan_id":"cebpf4jnsgd1na2vs0mg"},{"bike_id":"e151607f-f7a0-4c68-b25c-c40fdcd70cdc","system_id":"levelo_inurba_marseille","lat":43.312239,"lon":5.368562,"is_reserved":false,"is_disabled":false,"rental_uris":{"android":"levelo://app?vid=e151607f-f7a0-4c68-b25c-c40fdcd70cdc","ios":"levelo://app?vid=e151607f-f7a0-4c68-b25c-c40fdcd70cdc"},"vehicle_type_id":"4","last_reported":1716059134,"current_range_meters":12800,"station_id":"ce4bgl92rcd13ifvqbq0","pricing_plan_id":"cebpf4jnsgd1na2vs0mg"},{"bike_id":"72299425-d4c9-4d02-aeae-520d5e142803","system_id":"levelo_inurba_marseille","lat":43.312239,"lon":5.368562,"is_reserved":false,"is_disabled":false,"rental_uris":{"android":"levelo://app?vid=72299425-d4c9-4d02-aeae-520d5e142803","ios":"levelo://app?vid=72299425-d4c9-4d02-aeae-520d5e142803"},"vehicle_type_id":"4","last_reported":1716059134,"current_range_meters":0,"station_id":"ce4bgl92rcd13ifvqbq0","pricing_plan_id":"cebpf4jnsgd1na2vs0mg"},{"bike_id":"905b0add-3593-4e65-9095-ac00ec514390","system_id":"levelo_inurba_marseille","lat":43.312239,"lon":5.368562,"is_reserved":false,"is_disabled":false,"rental_uris":{"android":"levelo://app?vid=905b0add-3593-4e65-9095-ac00ec514390","ios":"levelo://app?vid=905b0add-3593-4e65-9095-ac00ec514390"},"vehicle_type_id":"4","last_reported":1716059134,"current_range_meters":14000,"station_id":"ce4bgl92rcd13ifvqbq0","pricing_plan_id":"cebpf4jnsgd1na2vs0mg"},{"bike_id":"2c18b6af-4cff-4cdb-a9e2-37f9b2f01964","system_id":"levelo_inurba_marseille","lat":43.30903,"lon":5.36841,"is_reserved":false,"is_disabled":false,"rental_uris":{"android":"levelo://app?vid=2c18b6af-4cff-4cdb-a9e2-37f9b2f01964","ios":"levelo://app?vid=2c18b6af-4cff-4cdb-a9e2-37f9b2f01964"},"vehicle_type_id":"4","last_reported":1716059134,"current_range_meters":0,"station_id":"ce4bgn92rcd13ifvqbvg","pricing_plan_id":"cebpf4jnsgd1na2vs0mg"},{"bike_id":"afab2cc5-130e-4bbc-976b-ed8f91749591","system_id":"levelo_inurba_marseille","lat":43.309518,"lon":5.370922,"is_reserved":false,"is_disabled":false,"rental_uris":{"android":"levelo://app?vid=afab2cc5-130e-4bbc-976b-ed8f91749591","ios":"levelo://app?vid=afab2cc5-130e-4bbc-976b-ed8f91749591"},"vehicle_type_id":"4","last_reported":1716059134,"current_range_meters":22400,"station_id":"","pricing_plan_id":"cebpf4jnsgd1na2vs0mg"},{"bike_id":"6896e7b0-894f-4c52-81a2-7ca575b212cf","system_id":"levelo_inurba_marseille","lat":43.314843,"lon":5.373044,"is_reserved":false,"is_disabled":false,"rental_uris":{"android":"levelo://app?vid=6896e7b0-894f-4c52-81a2-7ca575b212cf","ios":"levelo://app?vid=6896e7b0-894f-4c52-81a2-7ca575b212cf"},"vehicle_type_id":"4","last_reported":1716059134,"current_range_meters":0,"station_id":"ce4bgt12rcd13ifvqcd0","pricing_plan_id":"cebpf4jnsgd1na2vs0mg"},{"bike_id":"b2101119-22fc-40f3-b3bf-94f54f39c27a","system_id":"levelo_inurba_marseille","lat":43.314811,"lon":5.373103,"is_reserved":false,"is_disabled":false,"rental_uris":{"android":"levelo://app?vid=b2101119-22fc-40f3-b3bf-94f54f39c27a","ios":"levelo://app?vid=b2101119-22fc-40f3-b3bf-94f54f39c27a"},"vehicle_type_id":"4","last_reported":1716059134,"current_range_meters":0,"station_id":"ce4bgt12rcd13ifvqcd0","pricing_plan_id":"cebpf4jnsgd1na2vs0mg"},{"bike_id":"a54289b9-eb00-4d02-a41f-269d7d6e37b3","system_id":"levelo_inurba_marseille","lat":43.314811,"lon":5.373103,"is_reserved":false,"is_disabled":false,"rental_uris":{"android":"levelo://app?vid=a54289b9-eb00-4d02-a41f-269d7d6e37b3","ios":"levelo://app?vid=a54289b9-eb00-4d02-a41f-269d7d6e37b3"},"vehicle_type_id":"4","last_reported":1716059134,"current_range_meters":22800,"station_id":"ce4bgt12rcd13ifvqcd0","pricing_plan_id":"cebpf4jnsgd1na2vs0mg"},{"bike_id":"c06a4ae8-ff9c-46ed-af14-a3bdf47e673d","system_id":"levelo_inurba_marseille","lat":43.314811,"lon":5.373104,"is_reserved":false,"is_disabled":false,"rental_uris":{"android":"levelo://app?vid=c06a4ae8-ff9c-46ed-af14-a3bdf47e673d","ios":"levelo://app?vid=c06a4ae8-ff9c-46ed-af14-a3bdf47e673d"},"vehicle_type_id":"4","last_reported":1716059134,"current_range_meters":800,"station_id":"ce4bgt12rcd13ifvqcd0","pricing_plan_id":"cebpf4jnsgd1na2vs0mg"},{"bike_id":"1b060f1e-d61b-4e86-988f-e26378e64315","system_id":"levelo_inurba_marseille","lat":43.309039,"lon":5.371797,"is_reserved":false,"is_disabled":false,"rental_uris":{"android":"levelo://app?vid=1b060f1e-d61b-4e86-988f-e26378e64315","ios":"levelo://app?vid=1b060f1e-d61b-4e86-988f-e26378e64315"},"vehicle_type_id":"4","last_reported":1716059134,"current_range_meters":24000,"station_id":"ce4bguh2rcd13ifvqckg","pricing_plan_id":"cebpf4jnsgd1na2vs0mg"},{"bike_id":"a277fe65-7ca8-46b0-927f-8ef2dae50fa5","system_id":"levelo_inurba_marseille","lat":43.309034,"lon":5.371783,"is_reserved":false,"is_disabled":false,"rental_uris":{"android":"levelo://app?vid=a277fe65-7ca8-46b0-927f-8ef2dae50fa5","ios":"levelo://app?vid=a277fe65-7ca8-46b0-927f-8ef2dae50fa5"},"vehicle_type_id":"4","last_reported":1716059134,"current_range_meters":2000,"station_id":"ce4bguh2rcd13ifvqckg","pricing_plan_id":"cebpf4jnsgd1na2vs0mg"},{"bike_id":"563f8ec6-1db3-4958-80a3-a398446be023","system_id":"levelo_inurba_marseille","lat":43.309039,"lon":5.371797,"is_reserved":false,"is_disabled":false,"rental_uris":{"android":"levelo://app?vid=563f8ec6-1db3-4958-80a3-a398446be023","ios":"levelo://app?vid=563f8ec6-1db3-4958-80a3-a398446be023"},"vehicle_type_id":"4","last_reported":1716059134,"current_range_meters":0,"station_id":"ce4bguh2rcd13ifvqckg","pricing_plan_id":"cebpf4jnsgd1na2vs0mg"},{"bike_id":"63444de0-a1bb-4e8e-ae96-7acb218fc4db","system_id":"levelo_inurba_marseille","lat":43.30543,"lon":5.36702,"is_reserved":false,"is_disabled":false,"rental_uris":{"android":"levelo://app?vid=63444de0-a1bb-4e8e-ae96-7acb218fc4db","ios":"levelo://app?vid=63444de0-a1bb-4e8e-ae96-7acb218fc4db"},"vehicle_type_id":"4","last_reported":1716059134,"current_range_meters":0,"station_id":"ce4bgrp2rcd13ifvqc9g","pricing_plan_id":"cebpf4jnsgd1na2vs0mg"},{"bike_id":"f6c16aea-eb81-440f-9c6b-1a416bad202b","system_id":"levelo_inurba_marseille","lat":43.305266,"lon":5.365859,"is_reserved":false,"is_disabled":false,"rental_uris":{"android":"levelo://app?vid=f6c16aea-eb81-440f-9c6b-1a416bad202b","ios":"levelo://app?vid=f6c16aea-eb81-440f-9c6b-1a416bad202b"},"vehicle_type_id":"4","last_reported":1716059134,"current_range_meters":3200,"station_id":"ce4bgs12rcd13ifvqcag","pricing_plan_id":"cebpf4jnsgd1na2vs0mg"},{"bike_id":"6358a6da-ace2-4af3-8109-497e5545027a","system_id":"levelo_inurba_marseille","lat":43.305706,"lon":5.365654,"is_reserved":false,"is_disabled":false,"rental_uris":{"android":"levelo://app?vid=6358a6da-ace2-4af3-8109-497e5545027a","ios":"levelo://app?vid=6358a6da-ace2-4af3-8109-497e5545027a"},"vehicle_type_id":"4","last_reported":1716059134,"current_range_meters":24800,"station_id":"ce4bgs12rcd13ifvqcag","pricing_plan_id":"cebpf4jnsgd1na2vs0mg"},{"bike_id":"c1504e58-6c64-45a1-9ca6-36690406066b","system_id":"levelo_inurba_marseille","lat":43.305706,"lon":5.365654,"is_reserved":false,"is_disabled":false,"rental_uris":{"android":"levelo://app?vid=c1504e58-6c64-45a1-9ca6-36690406066b","ios":"levelo://app?vid=c1504e58-6c64-45a1-9ca6-36690406066b"},"vehicle_type_id":"4","last_reported":1716059134,"current_range_meters":8400,"station_id":"ce4bgs12rcd13ifvqcag","pricing_plan_id":"cebpf4jnsgd1na2vs0mg"},{"bike_id":"5bbcd735-fd29-42a2-92f0-c89cddc9f87b","system_id":"levelo_inurba_marseille","lat":43.305989,"lon":5.37225,"is_reserved":false,"is_disabled":false,"rental_uris":{"android":"levelo://app?vid=5bbcd735-fd29-42a2-92f0-c89cddc9f87b","ios":"levelo://app?vid=5bbcd735-fd29-42a2-92f0-c89cddc9f87b"},"vehicle_type_id":"4","last_reported":1716059134,"current_range_meters":3600,"station_id":"ce4bgqh2rcd13ifvqc4g","pricing_plan_id":"cebpf4jnsgd1na2vs0mg"},{"bike_id":"d85eceee-a742-4a42-9713-e8fb9c002d5b","system_id":"levelo_inurba_marseille","lat":43.31121,"lon":5.37766,"is_reserved":false,"is_disabled":false,"rental_uris":{"android":"levelo://app?vid=d85eceee-a742-4a42-9713-e8fb9c002d5b","ios":"levelo://app?vid=d85eceee-a742-4a42-9713-e8fb9c002d5b"},"vehicle_type_id":"4","last_reported":1716059134,"current_range_meters":13600,"station_id":"ce4bgt92rcd13ifvqcg0","pricing_plan_id":"cebpf4jnsgd1na2vs0mg"},{"bike_id":"d21b8101-6567-423f-9a19-08261f930cf3","system_id":"levelo_inurba_marseille","lat":43.311125,"lon":5.377624,"is_reserved":false,"is_disabled":false,"rental_uris":{"android":"levelo://app?vid=d21b8101-6567-423f-9a19-08261f930cf3","ios":"levelo://app?vid=d21b8101-6567-423f-9a19-08261f930cf3"},"vehicle_type_id":"4","last_reported":1716059134,"current_range_meters":0,"station_id":"ce4bgt92rcd13ifvqcg0","pricing_plan_id":"cebpf4jnsgd1na2vs0mg"},{"bike_id":"4126e47f-af1e-444e-aafe-488c1431b435","system_id":"levelo_inurba_marseille","lat":43.31113,"lon":5.377683,"is_reserved":false,"is_disabled":false,"rental_uris":{"android":"levelo://app?vid=4126e47f-af1e-444e-aafe-488c1431b435","ios":"levelo://app?vid=4126e47f-af1e-444e-aafe-488c1431b435"},"vehicle_type_id":"4","last_reported":1716059134,"current_range_meters":0,"station_id":"ce4bgt92rcd13ifvqcg0","pricing_plan_id":"cebpf4jnsgd1na2vs0mg"},{"bike_id":"b031b110-ce46-41bd-ab5f-03904d6891a5","system_id":"levelo_inurba_marseille","lat":43.307601,"lon":5.376057,"is_reserved":false,"is_disabled":false,"rental_uris":{"android":"levelo://app?vid=b031b110-ce46-41bd-ab5f-03904d6891a5","ios":"levelo://app?vid=b031b110-ce46-41bd-ab5f-03904d6891a5"},"vehicle_type_id":"4","last_reported":1716059134,"current_range_meters":6400,"station_id":"ce4bgv92rcd13ifvqcq0","pricing_plan_id":"cebpf4jnsgd1na2vs0mg"},{"bike_id":"9d4124d6-e1c7-4ad0-869e-3de3020b2c18","system_id":"levelo_inurba_marseille","lat":43.307945,"lon":5.376487,"is_reserved":false,"is_disabled":false,"rental_uris":{"android":"levelo://app?vid=9d4124d6-e1c7-4ad0-869e-3de3020b2c18","ios":"levelo://app?vid=9d4124d6-e1c7-4ad0-869e-3de3020b2c18"},"vehicle_type_id":"4","last_reported":1716059134,"current_range_meters":16400,"station_id":"ce4bgv92rcd13ifvqcq0","pricing_plan_id":"cebpf4jnsgd1na2vs0mg"},{"bike_id":"9db2b897-20b1-4a0a-86e8-3f98b9948890","system_id":"levelo_inurba_marseille","lat":43.30787,"lon":5.37641,"is_reserved":false,"is_disabled":false,"rental_uris":{"android":"levelo://app?vid=9db2b897-20b1-4a0a-86e8-3f98b9948890","ios":"levelo://app?vid=9db2b897-20b1-4a0a-86e8-3f98b9948890"},"vehicle_type_id":"4","last_reported":1716059134,"current_range_meters":10400,"station_id":"ce4bgv92rcd13ifvqcq0","pricing_plan_id":"cebpf4jnsgd1na2vs0mg"},{"bike_id":"292db455-b8d7-4fd8-a2c3-a9a1597860cb","system_id":"levelo_inurba_marseille","lat":43.30785,"lon":5.37644,"is_reserved":false,"is_disabled":false,"rental_uris":{"android":"levelo://app?vid=292db455-b8d7-4fd8-a2c3-a9a1597860cb","ios":"levelo://app?vid=292db455-b8d7-4fd8-a2c3-a9a1597860cb"},"vehicle_type_id":"4","last_reported":1716059134,"current_range_meters":21600,"station_id":"ce4bgv92rcd13ifvqcq0","pricing_plan_id":"cebpf4jnsgd1na2vs0mg"},{"bike_id":"38a555af-5372-4954-a7ce-9aff75333679","system_id":"levelo_inurba_marseille","lat":43.30786,"lon":5.37649,"is_reserved":false,"is_disabled":false,"rental_uris":{"android":"levelo://app?vid=38a555af-5372-4954-a7ce-9aff75333679","ios":"levelo://app?vid=38a555af-5372-4954-a7ce-9aff75333679"},"vehicle_type_id":"4","last_reported":1716059134,"current_range_meters":24000,"station_id":"ce4bgv92rcd13ifvqcq0","pricing_plan_id":"cebpf4jnsgd1na2vs0mg"},{"bike_id":"6b041884-717b-4eae-99a4-dd2333bca4af","system_id":"levelo_inurba_marseille","lat":43.30782,"lon":5.37652,"is_reserved":false,"is_disabled":false,"rental_uris":{"android":"levelo://app?vid=6b041884-717b-4eae-99a4-dd2333bca4af","ios":"levelo://app?vid=6b041884-717b-4eae-99a4-dd2333bca4af"},"vehicle_type_id":"4","last_reported":1716059134,"current_range_meters":4000,"station_id":"ce4bgv92rcd13ifvqcq0","pricing_plan_id":"cebpf4jnsgd1na2vs0mg"},{"bike_id":"5aeed2d0-a16d-415a-9642-492a9e335a6b","system_id":"levelo_inurba_marseille","lat":43.307945,"lon":5.376487,"is_reserved":false,"is_disabled":false,"rental_uris":{"android":"levelo://app?vid=5aeed2d0-a16d-415a-9642-492a9e335a6b","ios":"levelo://app?vid=5aeed2d0-a16d-415a-9642-492a9e335a6b"},"vehicle_type_id":"4","last_reported":1716059134,"current_range_meters":6400,"station_id":"ce4bgv92rcd13ifvqcq0","pricing_plan_id":"cebpf4jnsgd1na2vs0mg"},{"bike_id":"242ad698-3e35-4bad-ad9e-0c95b7d6e020","system_id":"levelo_inurba_marseille","lat":43.303147,"lon":5.368945,"is_reserved":false,"is_disabled":false,"rental_uris":{"android":"levelo://app?vid=242ad698-3e35-4bad-ad9e-0c95b7d6e020","ios":"levelo://app?vid=242ad698-3e35-4bad-ad9e-0c95b7d6e020"},"vehicle_type_id":"4","last_reported":1716059134,"current_range_meters":0,"station_id":"ce4bgqh2rcd13ifvqc5g","pricing_plan_id":"cebpf4jnsgd1na2vs0mg"},{"bike_id":"e4fb5b30-eea6-4982-82e0-1a6956b66b7c","system_id":"levelo_inurba_marseille","lat":43.30304,"lon":5.368987,"is_reserved":false,"is_disabled":false,"rental_uris":{"android":"levelo://app?vid=e4fb5b30-eea6-4982-82e0-1a6956b66b7c","ios":"levelo://app?vid=e4fb5b30-eea6-4982-82e0-1a6956b66b7c"},"vehicle_type_id":"4","last_reported":1716059134,"current_range_meters":16000,"station_id":"ce4bgqh2rcd13ifvqc5g","pricing_plan_id":"cebpf4jnsgd1na2vs0mg"},{"bike_id":"23f4ae67-8664-46bc-90bf-e0c9eef302e0","system_id":"levelo_inurba_marseille","lat":43.303046,"lon":5.368981,"is_reserved":false,"is_disabled":false,"rental_uris":{"android":"levelo://app?vid=23f4ae67-8664-46bc-90bf-e0c9eef302e0","ios":"levelo://app?vid=23f4ae67-8664-46bc-90bf-e0c9eef302e0"},"vehicle_type_id":"4","last_reported":1716059134,"current_range_meters":21600,"station_id":"ce4bgqh2rcd13ifvqc5g","pricing_plan_id":"cebpf4jnsgd1na2vs0mg"},{"bike_id":"06108819-520f-40b9-a6a1-c59048e09e89","system_id":"levelo_inurba_marseille","lat":43.315316,"lon":5.380437,"is_reserved":false,"is_disabled":false,"rental_uris":{"android":"levelo://app?vid=06108819-520f-40b9-a6a1-c59048e09e89","ios":"levelo://app?vid=06108819-520f-40b9-a6a1-c59048e09e89"},"vehicle_type_id":"4","last_reported":1716059134,"current_range_meters":1200,"station_id":"ce4bhsp2rcd13ifvqi50","pricing_plan_id":"cebpf4jnsgd1na2vs0mg"},{"bike_id":"21063b91-82ea-4465-b21a-da51937091fe","system_id":"levelo_inurba_marseille","lat":43.315293,"lon":5.380349,"is_reserved":false,"is_disabled":false,"rental_uris":{"android":"levelo://app?vid=21063b91-82ea-4465-b21a-da51937091fe","ios":"levelo://app?vid=21063b91-82ea-4465-b21a-da51937091fe"},"vehicle_type_id":"4","last_reported":1716059134,"current_range_meters":30000,"station_id":"ce4bhsp2rcd13ifvqi50","pricing_plan_id":"cebpf4jnsgd1na2vs0mg"},{"bike_id":"d9c9fa32-152d-4294-9e4f-9947572dfe2c","system_id":"levelo_inurba_marseille","lat":43.301939,"lon":5.366286,"is_reserved":false,"is_disabled":false,"rental_uris":{"android":"levelo://app?vid=d9c9fa32-152d-4294-9e4f-9947572dfe2c","ios":"levelo://app?vid=d9c9fa32-152d-4294-9e4f-9947572dfe2c"},"vehicle_type_id":"4","last_reported":1716059134,"current_range_meters":28400,"station_id":"ce4bgrh2rcd13ifvqc8g","pricing_plan_id":"cebpf4jnsgd1na2vs0mg"},{"bike_id":"87ddfd39-0212-4e0c-bca8-aefaf7f75343","system_id":"levelo_inurba_marseille","lat":43.301939,"lon":5.366286,"is_reserved":false,"is_disabled":false,"rental_uris":{"android":"levelo://app?vid=87ddfd39-0212-4e0c-bca8-aefaf7f75343","ios":"levelo://app?vid=87ddfd39-0212-4e0c-bca8-aefaf7f75343"},"vehicle_type_id":"4","last_reported":1716059134,"current_range_meters":0,"station_id":"ce4bgrh2rcd13ifvqc8g","pricing_plan_id":"cebpf4jnsgd1na2vs0mg"},{"bike_id":"f7e30ce5-b314-470d-8b83-08d8a8605824","system_id":"levelo_inurba_marseille","lat":43.308012,"lon":5.381511,"is_reserved":false,"is_disabled":false,"rental_uris":{"android":"levelo://app?vid=f7e30ce5-b314-470d-8b83-08d8a8605824","ios":"levelo://app?vid=f7e30ce5-b314-470d-8b83-08d8a8605824"},"vehicle_type_id":"4","last_reported":1716059134,"current_range_meters":5600,"station_id":"ce4bgt12rcd13ifvqce0","pricing_plan_id":"cebpf4jnsgd1na2vs0mg"},{"bike_id":"a0a4865c-c354-478c-8b3b-31f606953493","system_id":"levelo_inurba_marseille","lat":43.304606,"lon":5.379026,"is_reserved":false,"is_disabled":false,"rental_uris":{"android":"levelo://app?vid=a0a4865c-c354-478c-8b3b-31f606953493","ios":"levelo://app?vid=a0a4865c-c354-478c-8b3b-31f606953493"},"vehicle_type_id":"4","last_reported":1716059134,"current_range_meters":16400,"station_id":"ce4bgup2rcd13ifvqcn0","pricing_plan_id":"cebpf4jnsgd1na2vs0mg"},{"bike_id":"4c2f2690-2cc8-475b-bfe3-5bb5222a2691","system_id":"levelo_inurba_marseille","lat":43.324849,"lon":5.365648,"is_reserved":false,"is_disabled":false,"rental_uris":{"android":"levelo://app?vid=4c2f2690-2cc8-475b-bfe3-5bb5222a2691","ios":"levelo://app?vid=4c2f2690-2cc8-475b-bfe3-5bb5222a2691"},"vehicle_type_id":"4","last_reported":1716059134,"current_range_meters":800,"station_id":"ce4bhs12rcd13ifvqhvg","pricing_plan_id":"cebpf4jnsgd1na2vs0mg"},{"bike_id":"503ee338-7788-4dac-a80b-af572723ce67","system_id":"levelo_inurba_marseille","lat":43.310804,"lon":5.38359,"is_reserved":false,"is_disabled":false,"rental_uris":{"android":"levelo://app?vid=503ee338-7788-4dac-a80b-af572723ce67","ios":"levelo://app?vid=503ee338-7788-4dac-a80b-af572723ce67"},"vehicle_type_id":"4","last_reported":1716059134,"current_range_meters":0,"station_id":"ce4bgv92rcd13ifvqcr0","pricing_plan_id":"cebpf4jnsgd1na2vs0mg"},{"bike_id":"6c571441-e4e9-4382-8336-e75cff5735d7","system_id":"levelo_inurba_marseille","lat":43.302784,"lon":5.377158,"is_reserved":false,"is_disabled":false,"rental_uris":{"android":"levelo://app?vid=6c571441-e4e9-4382-8336-e75cff5735d7","ios":"levelo://app?vid=6c571441-e4e9-4382-8336-e75cff5735d7"},"vehicle_type_id":"4","last_reported":1716059134,"current_range_meters":8800,"station_id":"ce4bguh2rcd13ifvqcj0","pricing_plan_id":"cebpf4jnsgd1na2vs0mg"},{"bike_id":"1de3d2b3-79f9-4b17-95ca-a6b0c1f74a85","system_id":"levelo_inurba_marseille","lat":43.301429,"lon":5.37413,"is_reserved":false,"is_disabled":false,"rental_uris":{"android":"levelo://app?vid=1de3d2b3-79f9-4b17-95ca-a6b0c1f74a85","ios":"levelo://app?vid=1de3d2b3-79f9-4b17-95ca-a6b0c1f74a85"},"vehicle_type_id":"4","last_reported":1716059134,"current_range_meters":4800,"station_id":"ce4bgs92rcd13ifvqcc0","pricing_plan_id":"cebpf4jnsgd1na2vs0mg"},{"bike_id":"892c2c1d-5f6c-4aab-8d33-80f5771c25a5","system_id":"levelo_inurba_marseille","lat":43.319935,"lon":5.381699,"is_reserved":false,"is_disabled":false,"rental_uris":{"android":"levelo://app?vid=892c2c1d-5f6c-4aab-8d33-80f5771c25a5","ios":"levelo://app?vid=892c2c1d-5f6c-4aab-8d33-80f5771c25a5"},"vehicle_type_id":"4","last_reported":1716059134,"current_range_meters":400,"station_id":"ce4bhr12rcd13ifvqhpg","pricing_plan_id":"cebpf4jnsgd1na2vs0mg"},{"bike_id":"2901320c-d508-467b-92ca-74dbb20932bd","system_id":"levelo_inurba_marseille","lat":43.299222,"lon":5.365554,"is_reserved":false,"is_disabled":false,"rental_uris":{"android":"levelo://app?vid=2901320c-d508-467b-92ca-74dbb20932bd","ios":"levelo://app?vid=2901320c-d508-467b-92ca-74dbb20932bd"},"vehicle_type_id":"4","last_reported":1716059134,"current_range_meters":20800,"station_id":"ce4bgm92rcd13ifvqbr0","pricing_plan_id":"cebpf4jnsgd1na2vs0mg"},{"bike_id":"bde13806-e952-4e9b-a7d6-55773036b758","system_id":"levelo_inurba_marseille","lat":43.313571,"lon":5.384829,"is_reserved":false,"is_disabled":false,"rental_uris":{"android":"levelo://app?vid=bde13806-e952-4e9b-a7d6-55773036b758","ios":"levelo://app?vid=bde13806-e952-4e9b-a7d6-55773036b758"},"vehicle_type_id":"4","last_reported":1716059134,"current_range_meters":30000,"station_id":"ce4bgt92rcd13ifvqcf0","pricing_plan_id":"cebpf4jnsgd1na2vs0mg"},{"bike_id":"df3ccb3b-06bd-4b51-bb2a-fc48e82a73a3","system_id":"levelo_inurba_marseille","lat":43.313571,"lon":5.384829,"is_reserved":false,"is_disabled":false,"rental_uris":{"android":"levelo://app?vid=df3ccb3b-06bd-4b51-bb2a-fc48e82a73a3","ios":"levelo://app?vid=df3ccb3b-06bd-4b51-bb2a-fc48e82a73a3"},"vehicle_type_id":"4","last_reported":1716059134,"current_range_meters":800,"station_id":"ce4bgt92rcd13ifvqcf0","pricing_plan_id":"cebpf4jnsgd1na2vs0mg"},{"bike_id":"fbf5c77d-e81f-44de-9481-9aa4919be405","system_id":"levelo_inurba_marseille","lat":43.313609,"lon":5.38493,"is_reserved":false,"is_disabled":false,"rental_uris":{"android":"levelo://app?vid=fbf5c77d-e81f-44de-9481-9aa4919be405","ios":"levelo://app?vid=fbf5c77d-e81f-44de-9481-9aa4919be405"},"vehicle_type_id":"4","last_reported":1716059134,"current_range_meters":8400,"station_id":"ce4bgt92rcd13ifvqcf0","pricing_plan_id":"cebpf4jnsgd1na2vs0mg"},{"bike_id":"9743ca2c-32be-4501-9025-fb9d5eb73cf3","system_id":"levelo_inurba_marseille","lat":43.313571,"lon":5.384829,"is_reserved":false,"is_disabled":false,"rental_uris":{"android":"levelo://app?vid=9743ca2c-32be-4501-9025-fb9d5eb73cf3","ios":"levelo://app?vid=9743ca2c-32be-4501-9025-fb9d5eb73cf3"},"vehicle_type_id":"4","last_reported":1716059134,"current_range_meters":0,"station_id":"ce4bgt92rcd13ifvqcf0","pricing_plan_id":"cebpf4jnsgd1na2vs0mg"},{"bike_id":"411c94dd-1712-46a5-a533-bff4db170f4a","system_id":"levelo_inurba_marseille","lat":43.313571,"lon":5.384829,"is_reserved":false,"is_disabled":false,"rental_uris":{"android":"levelo://app?vid=411c94dd-1712-46a5-a533-bff4db170f4a","ios":"levelo://app?vid=411c94dd-1712-46a5-a533-bff4db170f4a"},"vehicle_type_id":"4","last_reported":1716059134,"current_range_meters":26800,"station_id":"ce4bgt92rcd13ifvqcf0","pricing_plan_id":"cebpf4jnsgd1na2vs0mg"},{"bike_id":"92dc9576-ef73-4b84-b21d-da70a0d49e48","system_id":"levelo_inurba_marseille","lat":43.299222,"lon":5.365554,"is_reserved":false,"is_disabled":false,"rental_uris":{"android":"levelo://app?vid=92dc9576-ef73-4b84-b21d-da70a0d49e48","ios":"levelo://app?vid=92dc9576-ef73-4b84-b21d-da70a0d49e48"},"vehicle_type_id":"4","last_reported":1716059134,"current_range_meters":0,"station_id":"ce4bgm92rcd13ifvqbr0","pricing_plan_id":"cebpf4jnsgd1na2vs0mg"},{"bike_id":"09629526-3850-42d5-a999-a3a71dc1af6b","system_id":"levelo_inurba_marseille","lat":43.31365,"lon":5.38507,"is_reserved":false,"is_disabled":false,"rental_uris":{"android":"levelo://app?vid=09629526-3850-42d5-a999-a3a71dc1af6b","ios":"levelo://app?vid=09629526-3850-42d5-a999-a3a71dc1af6b"},"vehicle_type_id":"4","last_reported":1716059134,"current_range_meters":0,"station_id":"ce4bgt92rcd13ifvqcf0","pricing_plan_id":"cebpf4jnsgd1na2vs0mg"},{"bike_id":"52ec994d-f003-43eb-a505-ce7f17c4f7a5","system_id":"levelo_inurba_marseille","lat":43.299222,"lon":5.365554,"is_reserved":false,"is_disabled":false,"rental_uris":{"android":"levelo://app?vid=52ec994d-f003-43eb-a505-ce7f17c4f7a5","ios":"levelo://app?vid=52ec994d-f003-43eb-a505-ce7f17c4f7a5"},"vehicle_type_id":"4","last_reported":1716059134,"current_range_meters":18000,"station_id":"ce4bgm92rcd13ifvqbr0","pricing_plan_id":"cebpf4jnsgd1na2vs0mg"},{"bike_id":"83033e3a-1654-432b-b871-026e9fc6e852","system_id":"levelo_inurba_marseille","lat":43.299222,"lon":5.365554,"is_reserved":false,"is_disabled":false,"rental_uris":{"android":"levelo://app?vid=83033e3a-1654-432b-b871-026e9fc6e852","ios":"levelo://app?vid=83033e3a-1654-432b-b871-026e9fc6e852"},"vehicle_type_id":"4","last_reported":1716059134,"current_range_meters":400,"station_id":"ce4bgm92rcd13ifvqbr0","pricing_plan_id":"cebpf4jnsgd1na2vs0mg"},{"bike_id":"28c973b1-87fd-48c6-9201-aec4b23ee365","system_id":"levelo_inurba_marseille","lat":43.299222,"lon":5.365554,"is_reserved":false,"is_disabled":false,"rental_uris":{"android":"levelo://app?vid=28c973b1-87fd-48c6-9201-aec4b23ee365","ios":"levelo://app?vid=28c973b1-87fd-48c6-9201-aec4b23ee365"},"vehicle_type_id":"4","last_reported":1716059134,"current_range_meters":0,"station_id":"ce4bgm92rcd13ifvqbr0","pricing_plan_id":"cebpf4jnsgd1na2vs0mg"},{"bike_id":"40d3b502-abef-4ddf-85f6-d7585aac418b","system_id":"levelo_inurba_marseille","lat":43.299222,"lon":5.365554,"is_reserved":false,"is_disabled":false,"rental_uris":{"android":"levelo://app?vid=40d3b502-abef-4ddf-85f6-d7585aac418b","ios":"levelo://app?vid=40d3b502-abef-4ddf-85f6-d7585aac418b"},"vehicle_type_id":"4","last_reported":1716059134,"current_range_meters":800,"station_id":"ce4bgm92rcd13ifvqbr0","pricing_plan_id":"cebpf4jnsgd1na2vs0mg"},{"bike_id":"e5bc60a5-1417-453d-9ab0-3e7224c40175","system_id":"levelo_inurba_marseille","lat":43.299222,"lon":5.365554,"is_reserved":false,"is_disabled":false,"rental_uris":{"android":"levelo://app?vid=e5bc60a5-1417-453d-9ab0-3e7224c40175","ios":"levelo://app?vid=e5bc60a5-1417-453d-9ab0-3e7224c40175"},"vehicle_type_id":"4","last_reported":1716059134,"current_range_meters":2000,"station_id":"ce4bgm92rcd13ifvqbr0","pricing_plan_id":"cebpf4jnsgd1na2vs0mg"},{"bike_id":"5a1143f9-189b-42cd-92e7-876a987bfd27","system_id":"levelo_inurba_marseille","lat":43.299359,"lon":5.365453,"is_reserved":false,"is_disabled":false,"rental_uris":{"android":"levelo://app?vid=5a1143f9-189b-42cd-92e7-876a987bfd27","ios":"levelo://app?vid=5a1143f9-189b-42cd-92e7-876a987bfd27"},"vehicle_type_id":"4","last_reported":1716059134,"current_range_meters":18800,"station_id":"ce4bgm92rcd13ifvqbr0","pricing_plan_id":"cebpf4jnsgd1na2vs0mg"},{"bike_id":"1a826fba-85f9-472e-a048-bb2785084be2","system_id":"levelo_inurba_marseille","lat":43.299724,"lon":5.371829,"is_reserved":false,"is_disabled":false,"rental_uris":{"android":"levelo://app?vid=1a826fba-85f9-472e-a048-bb2785084be2","ios":"levelo://app?vid=1a826fba-85f9-472e-a048-bb2785084be2"},"vehicle_type_id":"4","last_reported":1716059134,"current_range_meters":9200,"station_id":"ce4bgr92rcd13ifvqc7g","pricing_plan_id":"cebpf4jnsgd1na2vs0mg"},{"bike_id":"3847eba4-e519-4e3a-9589-0d4f63c752db","system_id":"levelo_inurba_marseille","lat":43.299222,"lon":5.365554,"is_reserved":false,"is_disabled":false,"rental_uris":{"android":"levelo://app?vid=3847eba4-e519-4e3a-9589-0d4f63c752db","ios":"levelo://app?vid=3847eba4-e519-4e3a-9589-0d4f63c752db"},"vehicle_type_id":"4","last_reported":1716059134,"current_range_meters":13200,"station_id":"ce4bgm92rcd13ifvqbr0","pricing_plan_id":"cebpf4jnsgd1na2vs0mg"},{"bike_id":"8ca74349-196f-474d-b02d-423a398a3ab1","system_id":"levelo_inurba_marseille","lat":43.298433,"lon":5.362774,"is_reserved":false,"is_disabled":false,"rental_uris":{"android":"levelo://app?vid=8ca74349-196f-474d-b02d-423a398a3ab1","ios":"levelo://app?vid=8ca74349-196f-474d-b02d-423a398a3ab1"},"vehicle_type_id":"4","last_reported":1716059134,"current_range_meters":14800,"station_id":"ce4bgpp2rcd13ifvqc3g","pricing_plan_id":"cebpf4jnsgd1na2vs0mg"},{"bike_id":"52fb5eeb-61bd-42c8-9011-a1bede28b25f","system_id":"levelo_inurba_marseille","lat":43.298433,"lon":5.362774,"is_reserved":false,"is_disabled":false,"rental_uris":{"android":"levelo://app?vid=52fb5eeb-61bd-42c8-9011-a1bede28b25f","ios":"levelo://app?vid=52fb5eeb-61bd-42c8-9011-a1bede28b25f"},"vehicle_type_id":"4","last_reported":1716059134,"current_range_meters":0,"station_id":"ce4bgpp2rcd13ifvqc3g","pricing_plan_id":"cebpf4jnsgd1na2vs0mg"},{"bike_id":"7104de31-5b6b-468e-bd2f-7fa182c44002","system_id":"levelo_inurba_marseille","lat":43.298433,"lon":5.362774,"is_reserved":false,"is_disabled":false,"rental_uris":{"android":"levelo://app?vid=7104de31-5b6b-468e-bd2f-7fa182c44002","ios":"levelo://app?vid=7104de31-5b6b-468e-bd2f-7fa182c44002"},"vehicle_type_id":"4","last_reported":1716059134,"current_range_meters":1600,"station_id":"ce4bgpp2rcd13ifvqc3g","pricing_plan_id":"cebpf4jnsgd1na2vs0mg"},{"bike_id":"94c5c8f3-7262-40bd-8531-d26294ee3d41","system_id":"levelo_inurba_marseille","lat":43.298433,"lon":5.362774,"is_reserved":false,"is_disabled":false,"rental_uris":{"android":"levelo://app?vid=94c5c8f3-7262-40bd-8531-d26294ee3d41","ios":"levelo://app?vid=94c5c8f3-7262-40bd-8531-d26294ee3d41"},"vehicle_type_id":"4","last_reported":1716059134,"current_range_meters":2000,"station_id":"ce4bgpp2rcd13ifvqc3g","pricing_plan_id":"cebpf4jnsgd1na2vs0mg"},{"bike_id":"7868f412-c8cf-45f0-ac82-88c225a048d0","system_id":"levelo_inurba_marseille","lat":43.298433,"lon":5.362774,"is_reserved":false,"is_disabled":false,"rental_uris":{"android":"levelo://app?vid=7868f412-c8cf-45f0-ac82-88c225a048d0","ios":"levelo://app?vid=7868f412-c8cf-45f0-ac82-88c225a048d0"},"vehicle_type_id":"4","last_reported":1716059134,"current_range_meters":10000,"station_id":"ce4bgpp2rcd13ifvqc3g","pricing_plan_id":"cebpf4jnsgd1na2vs0mg"},{"bike_id":"1a34ba55-b7f8-42c8-b799-8b132d35f856","system_id":"levelo_inurba_marseille","lat":43.298433,"lon":5.362774,"is_reserved":false,"is_disabled":false,"rental_uris":{"android":"levelo://app?vid=1a34ba55-b7f8-42c8-b799-8b132d35f856","ios":"levelo://app?vid=1a34ba55-b7f8-42c8-b799-8b132d35f856"},"vehicle_type_id":"4","last_reported":1716059134,"current_range_meters":0,"station_id":"ce4bgpp2rcd13ifvqc3g","pricing_plan_id":"cebpf4jnsgd1na2vs0mg"},{"bike_id":"34ec2f41-67cf-463e-8a9d-84c92bc8b40c","system_id":"levelo_inurba_marseille","lat":43.298433,"lon":5.362774,"is_reserved":false,"is_disabled":false,"rental_uris":{"android":"levelo://app?vid=34ec2f41-67cf-463e-8a9d-84c92bc8b40c","ios":"levelo://app?vid=34ec2f41-67cf-463e-8a9d-84c92bc8b40c"},"vehicle_type_id":"4","last_reported":1716059134,"current_range_meters":3200,"station_id":"ce4bgpp2rcd13ifvqc3g","pricing_plan_id":"cebpf4jnsgd1na2vs0mg"},{"bike_id":"40973505-2a38-4dc9-84db-6ede0a7d72b2","system_id":"levelo_inurba_marseille","lat":43.298433,"lon":5.362774,"is_reserved":false,"is_disabled":false,"rental_uris":{"android":"levelo://app?vid=40973505-2a38-4dc9-84db-6ede0a7d72b2","ios":"levelo://app?vid=40973505-2a38-4dc9-84db-6ede0a7d72b2"},"vehicle_type_id":"4","last_reported":1716059134,"current_range_meters":8000,"station_id":"ce4bgpp2rcd13ifvqc3g","pricing_plan_id":"cebpf4jnsgd1na2vs0mg"},{"bike_id":"3af47134-89b5-436d-b23b-5f4868c9fbac","system_id":"levelo_inurba_marseille","lat":43.298439,"lon":5.362819,"is_reserved":false,"is_disabled":false,"rental_uris":{"android":"levelo://app?vid=3af47134-89b5-436d-b23b-5f4868c9fbac","ios":"levelo://app?vid=3af47134-89b5-436d-b23b-5f4868c9fbac"},"vehicle_type_id":"4","last_reported":1716059134,"current_range_meters":6000,"station_id":"ce4bgpp2rcd13ifvqc3g","pricing_plan_id":"cebpf4jnsgd1na2vs0mg"},{"bike_id":"1a44c630-ae0e-406c-907a-71c8f8aca3ee","system_id":"levelo_inurba_marseille","lat":43.298433,"lon":5.362774,"is_reserved":false,"is_disabled":false,"rental_uris":{"android":"levelo://app?vid=1a44c630-ae0e-406c-907a-71c8f8aca3ee","ios":"levelo://app?vid=1a44c630-ae0e-406c-907a-71c8f8aca3ee"},"vehicle_type_id":"4","last_reported":1716059134,"current_range_meters":5600,"station_id":"ce4bgpp2rcd13ifvqc3g","pricing_plan_id":"cebpf4jnsgd1na2vs0mg"},{"bike_id":"6fa8056d-5491-4617-ae76-a1146b18dbcd","system_id":"levelo_inurba_marseille","lat":43.298433,"lon":5.362774,"is_reserved":false,"is_disabled":false,"rental_uris":{"android":"levelo://app?vid=6fa8056d-5491-4617-ae76-a1146b18dbcd","ios":"levelo://app?vid=6fa8056d-5491-4617-ae76-a1146b18dbcd"},"vehicle_type_id":"4","last_reported":1716059134,"current_range_meters":18000,"station_id":"ce4bgpp2rcd13ifvqc3g","pricing_plan_id":"cebpf4jnsgd1na2vs0mg"},{"bike_id":"da8bd819-0961-4540-8a78-cfbec088a71c","system_id":"levelo_inurba_marseille","lat":43.298433,"lon":5.362774,"is_reserved":false,"is_disabled":false,"rental_uris":{"android":"levelo://app?vid=da8bd819-0961-4540-8a78-cfbec088a71c","ios":"levelo://app?vid=da8bd819-0961-4540-8a78-cfbec088a71c"},"vehicle_type_id":"4","last_reported":1716059134,"current_range_meters":18000,"station_id":"ce4bgpp2rcd13ifvqc3g","pricing_plan_id":"cebpf4jnsgd1na2vs0mg"},{"bike_id":"7ecc2252-2063-45bc-a07e-8a686ba1eea5","system_id":"levelo_inurba_marseille","lat":43.298433,"lon":5.362774,"is_reserved":false,"is_disabled":false,"rental_uris":{"android":"levelo://app?vid=7ecc2252-2063-45bc-a07e-8a686ba1eea5","ios":"levelo://app?vid=7ecc2252-2063-45bc-a07e-8a686ba1eea5"},"vehicle_type_id":"4","last_reported":1716059134,"current_range_meters":22800,"station_id":"ce4bgpp2rcd13ifvqc3g","pricing_plan_id":"cebpf4jnsgd1na2vs0mg"},{"bike_id":"cbcb94af-51ed-463f-9d3c-135ecdff3909","system_id":"levelo_inurba_marseille","lat":43.298433,"lon":5.362774,"is_reserved":false,"is_disabled":false,"rental_uris":{"android":"levelo://app?vid=cbcb94af-51ed-463f-9d3c-135ecdff3909","ios":"levelo://app?vid=cbcb94af-51ed-463f-9d3c-135ecdff3909"},"vehicle_type_id":"4","last_reported":1716059134,"current_range_meters":27200,"station_id":"ce4bgpp2rcd13ifvqc3g","pricing_plan_id":"cebpf4jnsgd1na2vs0mg"},{"bike_id":"1a45d734-e69b-4cb7-bfb0-53edfc267522","system_id":"levelo_inurba_marseille","lat":43.305364,"lon":5.384119,"is_reserved":false,"is_disabled":false,"rental_uris":{"android":"levelo://app?vid=1a45d734-e69b-4cb7-bfb0-53edfc267522","ios":"levelo://app?vid=1a45d734-e69b-4cb7-bfb0-53edfc267522"},"vehicle_type_id":"4","last_reported":1716059134,"current_range_meters":22400,"station_id":"ce4bgg92rcd13ifvqb30","pricing_plan_id":"cebpf4jnsgd1na2vs0mg"},{"bike_id":"8622cc66-0285-486b-b236-af334e8c7de9","system_id":"levelo_inurba_marseille","lat":43.30532,"lon":5.38437,"is_reserved":false,"is_disabled":false,"rental_uris":{"android":"levelo://app?vid=8622cc66-0285-486b-b236-af334e8c7de9","ios":"levelo://app?vid=8622cc66-0285-486b-b236-af334e8c7de9"},"vehicle_type_id":"4","last_reported":1716059134,"current_range_meters":0,"station_id":"ce4bgg92rcd13ifvqb30","pricing_plan_id":"cebpf4jnsgd1na2vs0mg"},{"bike_id":"7e966b91-5f3f-4f7e-91ea-8354f471fa86","system_id":"levelo_inurba_marseille","lat":43.311722,"lon":5.387247,"is_reserved":false,"is_disabled":false,"rental_uris":{"android":"levelo://app?vid=7e966b91-5f3f-4f7e-91ea-8354f471fa86","ios":"levelo://app?vid=7e966b91-5f3f-4f7e-91ea-8354f471fa86"},"vehicle_type_id":"4","last_reported":1716059134,"current_range_meters":8000,"station_id":"ce4bgv12rcd13ifvqcp0","pricing_plan_id":"cebpf4jnsgd1na2vs0mg"},{"bike_id":"0664edfc-12f1-446b-a344-d5b7512dfae8","system_id":"levelo_inurba_marseille","lat":43.298433,"lon":5.362774,"is_reserved":false,"is_disabled":false,"rental_uris":{"android":"levelo://app?vid=0664edfc-12f1-446b-a344-d5b7512dfae8","ios":"levelo://app?vid=0664edfc-12f1-446b-a344-d5b7512dfae8"},"vehicle_type_id":"4","last_reported":1716059134,"current_range_meters":10000,"station_id":"ce4bgpp2rcd13ifvqc3g","pricing_plan_id":"cebpf4jnsgd1na2vs0mg"},{"bike_id":"b8b55f30-3f37-4408-b470-0d479a49dd0f","system_id":"levelo_inurba_marseille","lat":43.311651,"lon":5.387193,"is_reserved":false,"is_disabled":false,"rental_uris":{"android":"levelo://app?vid=b8b55f30-3f37-4408-b470-0d479a49dd0f","ios":"levelo://app?vid=b8b55f30-3f37-4408-b470-0d479a49dd0f"},"vehicle_type_id":"4","last_reported":1716059134,"current_range_meters":0,"station_id":"ce4bgv12rcd13ifvqcp0","pricing_plan_id":"cebpf4jnsgd1na2vs0mg"},{"bike_id":"1ffb6e92-6160-4091-884c-1958bcc6e19f","system_id":"levelo_inurba_marseille","lat":43.311722,"lon":5.387247,"is_reserved":false,"is_disabled":false,"rental_uris":{"android":"levelo://app?vid=1ffb6e92-6160-4091-884c-1958bcc6e19f","ios":"levelo://app?vid=1ffb6e92-6160-4091-884c-1958bcc6e19f"},"vehicle_type_id":"4","last_reported":1716059134,"current_range_meters":13200,"station_id":"ce4bgv12rcd13ifvqcp0","pricing_plan_id":"cebpf4jnsgd1na2vs0mg"},{"bike_id":"61d56cdb-cd6b-4b3a-8534-d61dd7fc9a8f","system_id":"levelo_inurba_marseille","lat":43.302664,"lon":5.381973,"is_reserved":false,"is_disabled":false,"rental_uris":{"android":"levelo://app?vid=61d56cdb-cd6b-4b3a-8534-d61dd7fc9a8f","ios":"levelo://app?vid=61d56cdb-cd6b-4b3a-8534-d61dd7fc9a8f"},"vehicle_type_id":"4","last_reported":1716059134,"current_range_meters":8000,"station_id":"","pricing_plan_id":"cebpf4jnsgd1na2vs0mg"},{"bike_id":"ae6fdd42-ecaf-4711-82f3-7fe485a9a42b","system_id":"levelo_inurba_marseille","lat":43.298433,"lon":5.362774,"is_reserved":false,"is_disabled":false,"rental_uris":{"android":"levelo://app?vid=ae6fdd42-ecaf-4711-82f3-7fe485a9a42b","ios":"levelo://app?vid=ae6fdd42-ecaf-4711-82f3-7fe485a9a42b"},"vehicle_type_id":"4","last_reported":1716059134,"current_range_meters":6800,"station_id":"ce4bgpp2rcd13ifvqc3g","pricing_plan_id":"cebpf4jnsgd1na2vs0mg"},{"bike_id":"6535a8f7-8681-4a3a-8135-179ff6932fdf","system_id":"levelo_inurba_marseille","lat":43.298433,"lon":5.362774,"is_reserved":false,"is_disabled":false,"rental_uris":{"android":"levelo://app?vid=6535a8f7-8681-4a3a-8135-179ff6932fdf","ios":"levelo://app?vid=6535a8f7-8681-4a3a-8135-179ff6932fdf"},"vehicle_type_id":"4","last_reported":1716059134,"current_range_meters":12400,"station_id":"ce4bgpp2rcd13ifvqc3g","pricing_plan_id":"cebpf4jnsgd1na2vs0mg"},{"bike_id":"606f8b43-6510-48b6-88b9-5dbbe1c44b2c","system_id":"levelo_inurba_marseille","lat":43.30223,"lon":5.38173,"is_reserved":false,"is_disabled":false,"rental_uris":{"android":"levelo://app?vid=606f8b43-6510-48b6-88b9-5dbbe1c44b2c","ios":"levelo://app?vid=606f8b43-6510-48b6-88b9-5dbbe1c44b2c"},"vehicle_type_id":"4","last_reported":1716059134,"current_range_meters":20400,"station_id":"","pricing_plan_id":"cebpf4jnsgd1na2vs0mg"},{"bike_id":"a78c0371-18a7-4609-8a16-1a99a180568a","system_id":"levelo_inurba_marseille","lat":43.297794,"lon":5.370888,"is_reserved":false,"is_disabled":false,"rental_uris":{"android":"levelo://app?vid=a78c0371-18a7-4609-8a16-1a99a180568a","ios":"levelo://app?vid=a78c0371-18a7-4609-8a16-1a99a180568a"},"vehicle_type_id":"4","last_reported":1716059134,"current_range_meters":30800,"station_id":"ce4bgop2rcd13ifvqc1g","pricing_plan_id":"cebpf4jnsgd1na2vs0mg"},{"bike_id":"1a505eb3-cd37-4faa-9670-391bb2bd9378","system_id":"levelo_inurba_marseille","lat":43.322872,"lon":5.382756,"is_reserved":false,"is_disabled":false,"rental_uris":{"android":"levelo://app?vid=1a505eb3-cd37-4faa-9670-391bb2bd9378","ios":"levelo://app?vid=1a505eb3-cd37-4faa-9670-391bb2bd9378"},"vehicle_type_id":"4","last_reported":1716059134,"current_range_meters":14400,"station_id":"ce4bhr12rcd13ifvqhqg","pricing_plan_id":"cebpf4jnsgd1na2vs0mg"},{"bike_id":"b22379ec-8777-4dcd-8c0e-9642bdad8cfd","system_id":"levelo_inurba_marseille","lat":43.297774,"lon":5.370875,"is_reserved":false,"is_disabled":false,"rental_uris":{"android":"levelo://app?vid=b22379ec-8777-4dcd-8c0e-9642bdad8cfd","ios":"levelo://app?vid=b22379ec-8777-4dcd-8c0e-9642bdad8cfd"},"vehicle_type_id":"4","last_reported":1716059134,"current_range_meters":31200,"station_id":"ce4bgop2rcd13ifvqc1g","pricing_plan_id":"cebpf4jnsgd1na2vs0mg"},{"bike_id":"014730fe-7821-4e00-9515-aa7bcd7e04e9","system_id":"levelo_inurba_marseille","lat":43.297774,"lon":5.370875,"is_reserved":false,"is_disabled":false,"rental_uris":{"android":"levelo://app?vid=014730fe-7821-4e00-9515-aa7bcd7e04e9","ios":"levelo://app?vid=014730fe-7821-4e00-9515-aa7bcd7e04e9"},"vehicle_type_id":"4","last_reported":1716059134,"current_range_meters":20000,"station_id":"ce4bgop2rcd13ifvqc1g","pricing_plan_id":"cebpf4jnsgd1na2vs0mg"},{"bike_id":"91130ec7-f216-4832-ada1-9325107d5c5f","system_id":"levelo_inurba_marseille","lat":43.29777,"lon":5.37113,"is_reserved":false,"is_disabled":false,"rental_uris":{"android":"levelo://app?vid=91130ec7-f216-4832-ada1-9325107d5c5f","ios":"levelo://app?vid=91130ec7-f216-4832-ada1-9325107d5c5f"},"vehicle_type_id":"4","last_reported":1716059134,"current_range_meters":4800,"station_id":"ce4bgop2rcd13ifvqc1g","pricing_plan_id":"cebpf4jnsgd1na2vs0mg"},{"bike_id":"e564436e-d9f7-48e8-add0-1ae6890fbc08","system_id":"levelo_inurba_marseille","lat":43.297163,"lon":5.365866,"is_reserved":false,"is_disabled":false,"rental_uris":{"android":"levelo://app?vid=e564436e-d9f7-48e8-add0-1ae6890fbc08","ios":"levelo://app?vid=e564436e-d9f7-48e8-add0-1ae6890fbc08"},"vehicle_type_id":"4","last_reported":1716059134,"current_range_meters":16000,"station_id":"ce4bgn12rcd13ifvqbt0","pricing_plan_id":"cebpf4jnsgd1na2vs0mg"},{"bike_id":"1c013c8a-f6fc-48f2-b161-513c629e03c1","system_id":"levelo_inurba_marseille","lat":43.322872,"lon":5.382756,"is_reserved":false,"is_disabled":false,"rental_uris":{"android":"levelo://app?vid=1c013c8a-f6fc-48f2-b161-513c629e03c1","ios":"levelo://app?vid=1c013c8a-f6fc-48f2-b161-513c629e03c1"},"vehicle_type_id":"4","last_reported":1716059134,"current_range_meters":21200,"station_id":"ce4bhr12rcd13ifvqhqg","pricing_plan_id":"cebpf4jnsgd1na2vs0mg"},{"bike_id":"9a32493a-4fbc-4ccc-a890-1e41ede2e2a5","system_id":"levelo_inurba_marseille","lat":43.322872,"lon":5.382756,"is_reserved":false,"is_disabled":false,"rental_uris":{"android":"levelo://app?vid=9a32493a-4fbc-4ccc-a890-1e41ede2e2a5","ios":"levelo://app?vid=9a32493a-4fbc-4ccc-a890-1e41ede2e2a5"},"vehicle_type_id":"4","last_reported":1716059134,"current_range_meters":4800,"station_id":"ce4bhr12rcd13ifvqhqg","pricing_plan_id":"cebpf4jnsgd1na2vs0mg"},{"bike_id":"9385d173-06b2-4fde-8d3d-ba7b1bec39da","system_id":"levelo_inurba_marseille","lat":43.322872,"lon":5.382756,"is_reserved":false,"is_disabled":false,"rental_uris":{"android":"levelo://app?vid=9385d173-06b2-4fde-8d3d-ba7b1bec39da","ios":"levelo://app?vid=9385d173-06b2-4fde-8d3d-ba7b1bec39da"},"vehicle_type_id":"4","last_reported":1716059134,"current_range_meters":2800,"station_id":"ce4bhr12rcd13ifvqhqg","pricing_plan_id":"cebpf4jnsgd1na2vs0mg"},{"bike_id":"b5c62dc9-7f4e-4f15-a59c-a8710cfaafe8","system_id":"levelo_inurba_marseille","lat":43.322872,"lon":5.382756,"is_reserved":false,"is_disabled":false,"rental_uris":{"android":"levelo://app?vid=b5c62dc9-7f4e-4f15-a59c-a8710cfaafe8","ios":"levelo://app?vid=b5c62dc9-7f4e-4f15-a59c-a8710cfaafe8"},"vehicle_type_id":"4","last_reported":1716059134,"current_range_meters":3600,"station_id":"ce4bhr12rcd13ifvqhqg","pricing_plan_id":"cebpf4jnsgd1na2vs0mg"},{"bike_id":"20a219a4-15d8-4496-9559-cd12f79d5c85","system_id":"levelo_inurba_marseille","lat":43.322872,"lon":5.382756,"is_reserved":false,"is_disabled":false,"rental_uris":{"android":"levelo://app?vid=20a219a4-15d8-4496-9559-cd12f79d5c85","ios":"levelo://app?vid=20a219a4-15d8-4496-9559-cd12f79d5c85"},"vehicle_type_id":"4","last_reported":1716059134,"current_range_meters":29600,"station_id":"ce4bhr12rcd13ifvqhqg","pricing_plan_id":"cebpf4jnsgd1na2vs0mg"},{"bike_id":"ed038377-27e4-4849-8868-381dfdbc3a78","system_id":"levelo_inurba_marseille","lat":43.297623,"lon":5.371277,"is_reserved":false,"is_disabled":false,"rental_uris":{"android":"levelo://app?vid=ed038377-27e4-4849-8868-381dfdbc3a78","ios":"levelo://app?vid=ed038377-27e4-4849-8868-381dfdbc3a78"},"vehicle_type_id":"4","last_reported":1716059134,"current_range_meters":3200,"station_id":"ce4bgk12rcd13ifvqbj0","pricing_plan_id":"cebpf4jnsgd1na2vs0mg"},{"bike_id":"3d982a29-4492-4656-9c0f-1228e1636952","system_id":"levelo_inurba_marseille","lat":43.297163,"lon":5.365866,"is_reserved":false,"is_disabled":false,"rental_uris":{"android":"levelo://app?vid=3d982a29-4492-4656-9c0f-1228e1636952","ios":"levelo://app?vid=3d982a29-4492-4656-9c0f-1228e1636952"},"vehicle_type_id":"4","last_reported":1716059134,"current_range_meters":14800,"station_id":"ce4bgn12rcd13ifvqbt0","pricing_plan_id":"cebpf4jnsgd1na2vs0mg"},{"bike_id":"90551ced-09b6-40fd-b837-b42c852d3b69","system_id":"levelo_inurba_marseille","lat":43.297163,"lon":5.365866,"is_reserved":false,"is_disabled":false,"rental_uris":{"android":"levelo://app?vid=90551ced-09b6-40fd-b837-b42c852d3b69","ios":"levelo://app?vid=90551ced-09b6-40fd-b837-b42c852d3b69"},"vehicle_type_id":"4","last_reported":1716059134,"current_range_meters":3200,"station_id":"ce4bgn12rcd13ifvqbt0","pricing_plan_id":"cebpf4jnsgd1na2vs0mg"},{"bike_id":"5f7a2354-1fc3-468b-880f-d7c642515513","system_id":"levelo_inurba_marseille","lat":43.297163,"lon":5.365866,"is_reserved":false,"is_disabled":false,"rental_uris":{"android":"levelo://app?vid=5f7a2354-1fc3-468b-880f-d7c642515513","ios":"levelo://app?vid=5f7a2354-1fc3-468b-880f-d7c642515513"},"vehicle_type_id":"4","last_reported":1716059134,"current_range_meters":12400,"station_id":"ce4bgn12rcd13ifvqbt0","pricing_plan_id":"cebpf4jnsgd1na2vs0mg"},{"bike_id":"e3065698-7fa0-48d2-a167-08aa85ffc7c0","system_id":"levelo_inurba_marseille","lat":43.297163,"lon":5.365866,"is_reserved":false,"is_disabled":false,"rental_uris":{"android":"levelo://app?vid=e3065698-7fa0-48d2-a167-08aa85ffc7c0","ios":"levelo://app?vid=e3065698-7fa0-48d2-a167-08aa85ffc7c0"},"vehicle_type_id":"4","last_reported":1716059134,"current_range_meters":11600,"station_id":"ce4bgn12rcd13ifvqbt0","pricing_plan_id":"cebpf4jnsgd1na2vs0mg"},{"bike_id":"4027342e-6bc1-479d-a1f4-047d29934e99","system_id":"levelo_inurba_marseille","lat":43.297163,"lon":5.365866,"is_reserved":false,"is_disabled":false,"rental_uris":{"android":"levelo://app?vid=4027342e-6bc1-479d-a1f4-047d29934e99","ios":"levelo://app?vid=4027342e-6bc1-479d-a1f4-047d29934e99"},"vehicle_type_id":"4","last_reported":1716059134,"current_range_meters":0,"station_id":"ce4bgn12rcd13ifvqbt0","pricing_plan_id":"cebpf4jnsgd1na2vs0mg"},{"bike_id":"7486b615-42b3-4747-bd51-00c893f39b00","system_id":"levelo_inurba_marseille","lat":43.29712,"lon":5.36609,"is_reserved":false,"is_disabled":false,"rental_uris":{"android":"levelo://app?vid=7486b615-42b3-4747-bd51-00c893f39b00","ios":"levelo://app?vid=7486b615-42b3-4747-bd51-00c893f39b00"},"vehicle_type_id":"4","last_reported":1716059134,"current_range_meters":20400,"station_id":"ce4bgn12rcd13ifvqbt0","pricing_plan_id":"cebpf4jnsgd1na2vs0mg"},{"bike_id":"a4dd7cfc-a47e-4250-b9a8-69650f75794d","system_id":"levelo_inurba_marseille","lat":43.297163,"lon":5.365866,"is_reserved":false,"is_disabled":false,"rental_uris":{"android":"levelo://app?vid=a4dd7cfc-a47e-4250-b9a8-69650f75794d","ios":"levelo://app?vid=a4dd7cfc-a47e-4250-b9a8-69650f75794d"},"vehicle_type_id":"4","last_reported":1716059134,"current_range_meters":6400,"station_id":"ce4bgn12rcd13ifvqbt0","pricing_plan_id":"cebpf4jnsgd1na2vs0mg"},{"bike_id":"a9fb8bb0-2237-4aec-8b04-72d66432a5f1","system_id":"levelo_inurba_marseille","lat":43.297163,"lon":5.365866,"is_reserved":false,"is_disabled":false,"rental_uris":{"android":"levelo://app?vid=a9fb8bb0-2237-4aec-8b04-72d66432a5f1","ios":"levelo://app?vid=a9fb8bb0-2237-4aec-8b04-72d66432a5f1"},"vehicle_type_id":"4","last_reported":1716059134,"current_range_meters":22000,"station_id":"ce4bgn12rcd13ifvqbt0","pricing_plan_id":"cebpf4jnsgd1na2vs0mg"},{"bike_id":"75a4ad76-6fd3-40d3-9f04-23d779090277","system_id":"levelo_inurba_marseille","lat":43.297163,"lon":5.365866,"is_reserved":false,"is_disabled":false,"rental_uris":{"android":"levelo://app?vid=75a4ad76-6fd3-40d3-9f04-23d779090277","ios":"levelo://app?vid=75a4ad76-6fd3-40d3-9f04-23d779090277"},"vehicle_type_id":"4","last_reported":1716059134,"current_range_meters":18000,"station_id":"ce4bgn12rcd13ifvqbt0","pricing_plan_id":"cebpf4jnsgd1na2vs0mg"},{"bike_id":"df2ebcb9-5378-4ab3-bdb5-5d55d4366c04","system_id":"levelo_inurba_marseille","lat":43.297082,"lon":5.367291,"is_reserved":false,"is_disabled":false,"rental_uris":{"android":"levelo://app?vid=df2ebcb9-5378-4ab3-bdb5-5d55d4366c04","ios":"levelo://app?vid=df2ebcb9-5378-4ab3-bdb5-5d55d4366c04"},"vehicle_type_id":"4","last_reported":1716059134,"current_range_meters":0,"station_id":"ce4bgt92rcd13ifvqcf0","pricing_plan_id":"cebpf4jnsgd1na2vs0mg"},{"bike_id":"ccb3c407-6b24-47c0-9a42-12529bc17bdf","system_id":"levelo_inurba_marseille","lat":43.297163,"lon":5.365866,"is_reserved":false,"is_disabled":false,"rental_uris":{"android":"levelo://app?vid=ccb3c407-6b24-47c0-9a42-12529bc17bdf","ios":"levelo://app?vid=ccb3c407-6b24-47c0-9a42-12529bc17bdf"},"vehicle_type_id":"4","last_reported":1716059134,"current_range_meters":1200,"station_id":"ce4bgn12rcd13ifvqbt0","pricing_plan_id":"cebpf4jnsgd1na2vs0mg"},{"bike_id":"2d4f97fc-a25a-43f0-9ac8-3e840db02ec7","system_id":"levelo_inurba_marseille","lat":43.297163,"lon":5.365866,"is_reserved":false,"is_disabled":false,"rental_uris":{"android":"levelo://app?vid=2d4f97fc-a25a-43f0-9ac8-3e840db02ec7","ios":"levelo://app?vid=2d4f97fc-a25a-43f0-9ac8-3e840db02ec7"},"vehicle_type_id":"4","last_reported":1716059134,"current_range_meters":16000,"station_id":"ce4bgn12rcd13ifvqbt0","pricing_plan_id":"cebpf4jnsgd1na2vs0mg"},{"bike_id":"1d37dbfa-b015-4392-91fa-ea1b29fa8b2f","system_id":"levelo_inurba_marseille","lat":43.297163,"lon":5.365866,"is_reserved":false,"is_disabled":false,"rental_uris":{"android":"levelo://app?vid=1d37dbfa-b015-4392-91fa-ea1b29fa8b2f","ios":"levelo://app?vid=1d37dbfa-b015-4392-91fa-ea1b29fa8b2f"},"vehicle_type_id":"4","last_reported":1716059134,"current_range_meters":0,"station_id":"ce4bgn12rcd13ifvqbt0","pricing_plan_id":"cebpf4jnsgd1na2vs0mg"},{"bike_id":"a9165734-9a2b-483d-8465-5670bc9ec5a1","system_id":"levelo_inurba_marseille","lat":43.297163,"lon":5.365866,"is_reserved":false,"is_disabled":false,"rental_uris":{"android":"levelo://app?vid=a9165734-9a2b-483d-8465-5670bc9ec5a1","ios":"levelo://app?vid=a9165734-9a2b-483d-8465-5670bc9ec5a1"},"vehicle_type_id":"4","last_reported":1716059134,"current_range_meters":0,"station_id":"ce4bgn12rcd13ifvqbt0","pricing_plan_id":"cebpf4jnsgd1na2vs0mg"},{"bike_id":"a0cb5d0a-0f3c-430e-a83c-b12ecd62ed72","system_id":"levelo_inurba_marseille","lat":43.297061,"lon":5.366247,"is_reserved":false,"is_disabled":false,"rental_uris":{"android":"levelo://app?vid=a0cb5d0a-0f3c-430e-a83c-b12ecd62ed72","ios":"levelo://app?vid=a0cb5d0a-0f3c-430e-a83c-b12ecd62ed72"},"vehicle_type_id":"4","last_reported":1716059134,"current_range_meters":0,"station_id":"ce4bgn12rcd13ifvqbt0","pricing_plan_id":"cebpf4jnsgd1na2vs0mg"},{"bike_id":"ce33542c-6353-4075-9658-8aa7e800e52c","system_id":"levelo_inurba_marseille","lat":43.29702,"lon":5.36605,"is_reserved":false,"is_disabled":false,"rental_uris":{"android":"levelo://app?vid=ce33542c-6353-4075-9658-8aa7e800e52c","ios":"levelo://app?vid=ce33542c-6353-4075-9658-8aa7e800e52c"},"vehicle_type_id":"4","last_reported":1716059134,"current_range_meters":7600,"station_id":"ce4bgn12rcd13ifvqbt0","pricing_plan_id":"cebpf4jnsgd1na2vs0mg"},{"bike_id":"dd979ccf-2592-4e30-863f-7f85c4104508","system_id":"levelo_inurba_marseille","lat":43.29702,"lon":5.36599,"is_reserved":false,"is_disabled":false,"rental_uris":{"android":"levelo://app?vid=dd979ccf-2592-4e30-863f-7f85c4104508","ios":"levelo://app?vid=dd979ccf-2592-4e30-863f-7f85c4104508"},"vehicle_type_id":"4","last_reported":1716059134,"current_range_meters":4000,"station_id":"","pricing_plan_id":"cebpf4jnsgd1na2vs0mg"},{"bike_id":"a3244924-84f1-4b18-af38-77b3e23730a4","system_id":"levelo_inurba_marseille","lat":43.297163,"lon":5.365866,"is_reserved":false,"is_disabled":false,"rental_uris":{"android":"levelo://app?vid=a3244924-84f1-4b18-af38-77b3e23730a4","ios":"levelo://app?vid=a3244924-84f1-4b18-af38-77b3e23730a4"},"vehicle_type_id":"4","last_reported":1716059134,"current_range_meters":10800,"station_id":"ce4bgn12rcd13ifvqbt0","pricing_plan_id":"cebpf4jnsgd1na2vs0mg"},{"bike_id":"e8b74b53-1f66-4822-bc9f-59e0cd63ffdc","system_id":"levelo_inurba_marseille","lat":43.296974,"lon":5.368944,"is_reserved":false,"is_disabled":false,"rental_uris":{"android":"levelo://app?vid=e8b74b53-1f66-4822-bc9f-59e0cd63ffdc","ios":"levelo://app?vid=e8b74b53-1f66-4822-bc9f-59e0cd63ffdc"},"vehicle_type_id":"4","last_reported":1716059134,"current_range_meters":0,"station_id":"","pricing_plan_id":"cebpf4jnsgd1na2vs0mg"},{"bike_id":"25b33285-6c0a-48dc-8bd4-12f82eb9b0a8","system_id":"levelo_inurba_marseille","lat":43.297163,"lon":5.365866,"is_reserved":false,"is_disabled":false,"rental_uris":{"android":"levelo://app?vid=25b33285-6c0a-48dc-8bd4-12f82eb9b0a8","ios":"levelo://app?vid=25b33285-6c0a-48dc-8bd4-12f82eb9b0a8"},"vehicle_type_id":"4","last_reported":1716059134,"current_range_meters":6000,"station_id":"ce4bgn12rcd13ifvqbt0","pricing_plan_id":"cebpf4jnsgd1na2vs0mg"},{"bike_id":"fa2c076b-ba3d-4ed0-adbd-c95d7fa28c27","system_id":"levelo_inurba_marseille","lat":43.297419,"lon":5.360453,"is_reserved":false,"is_disabled":false,"rental_uris":{"android":"levelo://app?vid=fa2c076b-ba3d-4ed0-adbd-c95d7fa28c27","ios":"levelo://app?vid=fa2c076b-ba3d-4ed0-adbd-c95d7fa28c27"},"vehicle_type_id":"4","last_reported":1716059134,"current_range_meters":0,"station_id":"","pricing_plan_id":"cebpf4jnsgd1na2vs0mg"},{"bike_id":"2a2e2bb0-6b21-4307-8726-600586696ba0","system_id":"levelo_inurba_marseille","lat":43.297163,"lon":5.365866,"is_reserved":false,"is_disabled":false,"rental_uris":{"android":"levelo://app?vid=2a2e2bb0-6b21-4307-8726-600586696ba0","ios":"levelo://app?vid=2a2e2bb0-6b21-4307-8726-600586696ba0"},"vehicle_type_id":"4","last_reported":1716059134,"current_range_meters":3600,"station_id":"ce4bgn12rcd13ifvqbt0","pricing_plan_id":"cebpf4jnsgd1na2vs0mg"},{"bike_id":"d89e3252-ba75-4ccf-b06b-c0f5b768e1a2","system_id":"levelo_inurba_marseille","lat":43.2968,"lon":5.37291,"is_reserved":false,"is_disabled":false,"rental_uris":{"android":"levelo://app?vid=d89e3252-ba75-4ccf-b06b-c0f5b768e1a2","ios":"levelo://app?vid=d89e3252-ba75-4ccf-b06b-c0f5b768e1a2"},"vehicle_type_id":"4","last_reported":1716059134,"current_range_meters":1200,"station_id":"ce4bgk12rcd13ifvqbj0","pricing_plan_id":"cebpf4jnsgd1na2vs0mg"},{"bike_id":"3f15e4df-5f20-4acc-b12e-386799f4368e","system_id":"levelo_inurba_marseille","lat":43.296785,"lon":5.372165,"is_reserved":false,"is_disabled":false,"rental_uris":{"android":"levelo://app?vid=3f15e4df-5f20-4acc-b12e-386799f4368e","ios":"levelo://app?vid=3f15e4df-5f20-4acc-b12e-386799f4368e"},"vehicle_type_id":"4","last_reported":1716059134,"current_range_meters":0,"station_id":"","pricing_plan_id":"cebpf4jnsgd1na2vs0mg"},{"bike_id":"ec080f4e-f2e8-4ff3-8f34-c7426c672486","system_id":"levelo_inurba_marseille","lat":43.2968,"lon":5.37291,"is_reserved":false,"is_disabled":false,"rental_uris":{"android":"levelo://app?vid=ec080f4e-f2e8-4ff3-8f34-c7426c672486","ios":"levelo://app?vid=ec080f4e-f2e8-4ff3-8f34-c7426c672486"},"vehicle_type_id":"4","last_reported":1716059134,"current_range_meters":31600,"station_id":"ce4bgk12rcd13ifvqbj0","pricing_plan_id":"cebpf4jnsgd1na2vs0mg"},{"bike_id":"914918b3-5522-4f78-97d2-88c6276c0735","system_id":"levelo_inurba_marseille","lat":43.2968,"lon":5.37291,"is_reserved":false,"is_disabled":false,"rental_uris":{"android":"levelo://app?vid=914918b3-5522-4f78-97d2-88c6276c0735","ios":"levelo://app?vid=914918b3-5522-4f78-97d2-88c6276c0735"},"vehicle_type_id":"4","last_reported":1716059134,"current_range_meters":0,"station_id":"ce4bgk12rcd13ifvqbj0","pricing_plan_id":"cebpf4jnsgd1na2vs0mg"},{"bike_id":"6a385eb3-7fe2-46f7-b749-84e9d2707f66","system_id":"levelo_inurba_marseille","lat":43.2968,"lon":5.37291,"is_reserved":false,"is_disabled":false,"rental_uris":{"android":"levelo://app?vid=6a385eb3-7fe2-46f7-b749-84e9d2707f66","ios":"levelo://app?vid=6a385eb3-7fe2-46f7-b749-84e9d2707f66"},"vehicle_type_id":"4","last_reported":1716059134,"current_range_meters":2000,"station_id":"ce4bgk12rcd13ifvqbj0","pricing_plan_id":"cebpf4jnsgd1na2vs0mg"},{"bike_id":"0543510f-e8ff-4f01-b51a-5b0aa3a61c68","system_id":"levelo_inurba_marseille","lat":43.2968,"lon":5.37291,"is_reserved":false,"is_disabled":false,"rental_uris":{"android":"levelo://app?vid=0543510f-e8ff-4f01-b51a-5b0aa3a61c68","ios":"levelo://app?vid=0543510f-e8ff-4f01-b51a-5b0aa3a61c68"},"vehicle_type_id":"4","last_reported":1716059134,"current_range_meters":2400,"station_id":"ce4bgk12rcd13ifvqbj0","pricing_plan_id":"cebpf4jnsgd1na2vs0mg"},{"bike_id":"50175021-7801-449c-8cff-921becbd7118","system_id":"levelo_inurba_marseille","lat":43.2968,"lon":5.37291,"is_reserved":false,"is_disabled":false,"rental_uris":{"android":"levelo://app?vid=50175021-7801-449c-8cff-921becbd7118","ios":"levelo://app?vid=50175021-7801-449c-8cff-921becbd7118"},"vehicle_type_id":"4","last_reported":1716059134,"current_range_meters":8000,"station_id":"ce4bgk12rcd13ifvqbj0","pricing_plan_id":"cebpf4jnsgd1na2vs0mg"},{"bike_id":"f29d5aad-06c1-448b-a8fc-0e65fe80c25d","system_id":"levelo_inurba_marseille","lat":43.296935,"lon":5.376544,"is_reserved":false,"is_disabled":false,"rental_uris":{"android":"levelo://app?vid=f29d5aad-06c1-448b-a8fc-0e65fe80c25d","ios":"levelo://app?vid=f29d5aad-06c1-448b-a8fc-0e65fe80c25d"},"vehicle_type_id":"4","last_reported":1716059134,"current_range_meters":0,"station_id":"ce4bgkh2rcd13ifvqbl0","pricing_plan_id":"cebpf4jnsgd1na2vs0mg"},{"bike_id":"c0b498e0-13a8-4048-9ad1-239a98ef44f9","system_id":"levelo_inurba_marseille","lat":43.29876,"lon":5.37999,"is_reserved":false,"is_disabled":false,"rental_uris":{"android":"levelo://app?vid=c0b498e0-13a8-4048-9ad1-239a98ef44f9","ios":"levelo://app?vid=c0b498e0-13a8-4048-9ad1-239a98ef44f9"},"vehicle_type_id":"4","last_reported":1716059134,"current_range_meters":18800,"station_id":"","pricing_plan_id":"cebpf4jnsgd1na2vs0mg"},{"bike_id":"d92422cd-24b1-4d45-b1c7-c79e3da34b8f","system_id":"levelo_inurba_marseille","lat":43.29731,"lon":5.37677,"is_reserved":false,"is_disabled":false,"rental_uris":{"android":"levelo://app?vid=d92422cd-24b1-4d45-b1c7-c79e3da34b8f","ios":"levelo://app?vid=d92422cd-24b1-4d45-b1c7-c79e3da34b8f"},"vehicle_type_id":"4","last_reported":1716059134,"current_range_meters":0,"station_id":"ce4bgkh2rcd13ifvqbl0","pricing_plan_id":"cebpf4jnsgd1na2vs0mg"},{"bike_id":"1e0f72cc-6331-44d8-b2b8-a64ee8326d46","system_id":"levelo_inurba_marseille","lat":43.296935,"lon":5.376544,"is_reserved":false,"is_disabled":false,"rental_uris":{"android":"levelo://app?vid=1e0f72cc-6331-44d8-b2b8-a64ee8326d46","ios":"levelo://app?vid=1e0f72cc-6331-44d8-b2b8-a64ee8326d46"},"vehicle_type_id":"4","last_reported":1716059134,"current_range_meters":800,"station_id":"ce4bgkh2rcd13ifvqbl0","pricing_plan_id":"cebpf4jnsgd1na2vs0mg"},{"bike_id":"6c8779a2-43a3-4a2a-b4a3-da1319d6d69a","system_id":"levelo_inurba_marseille","lat":43.299028,"lon":5.381509,"is_reserved":false,"is_disabled":false,"rental_uris":{"android":"levelo://app?vid=6c8779a2-43a3-4a2a-b4a3-da1319d6d69a","ios":"levelo://app?vid=6c8779a2-43a3-4a2a-b4a3-da1319d6d69a"},"vehicle_type_id":"4","last_reported":1716059134,"current_range_meters":0,"station_id":"ce4bgj12rcd13ifvqbc0","pricing_plan_id":"cebpf4jnsgd1na2vs0mg"},{"bike_id":"c98025aa-9e9c-488d-b5b8-d3754878d50d","system_id":"levelo_inurba_marseille","lat":43.309531,"lon":5.39022,"is_reserved":false,"is_disabled":false,"rental_uris":{"android":"levelo://app?vid=c98025aa-9e9c-488d-b5b8-d3754878d50d","ios":"levelo://app?vid=c98025aa-9e9c-488d-b5b8-d3754878d50d"},"vehicle_type_id":"4","last_reported":1716059134,"current_range_meters":31200,"station_id":"ce4bgup2rcd13ifvqco0","pricing_plan_id":"cebpf4jnsgd1na2vs0mg"},{"bike_id":"a253a417-bf80-49c5-8efe-a36bff072cb2","system_id":"levelo_inurba_marseille","lat":43.309589,"lon":5.390258,"is_reserved":false,"is_disabled":false,"rental_uris":{"android":"levelo://app?vid=a253a417-bf80-49c5-8efe-a36bff072cb2","ios":"levelo://app?vid=a253a417-bf80-49c5-8efe-a36bff072cb2"},"vehicle_type_id":"4","last_reported":1716059134,"current_range_meters":0,"station_id":"ce4bgup2rcd13ifvqco0","pricing_plan_id":"cebpf4jnsgd1na2vs0mg"},{"bike_id":"c1651070-948e-48da-abad-bc3451d38264","system_id":"levelo_inurba_marseille","lat":43.309589,"lon":5.390258,"is_reserved":false,"is_disabled":false,"rental_uris":{"android":"levelo://app?vid=c1651070-948e-48da-abad-bc3451d38264","ios":"levelo://app?vid=c1651070-948e-48da-abad-bc3451d38264"},"vehicle_type_id":"4","last_reported":1716059134,"current_range_meters":24400,"station_id":"ce4bgup2rcd13ifvqco0","pricing_plan_id":"cebpf4jnsgd1na2vs0mg"},{"bike_id":"a213dca7-ac93-426f-b416-23be39b7a346","system_id":"levelo_inurba_marseille","lat":43.30956,"lon":5.3903,"is_reserved":false,"is_disabled":false,"rental_uris":{"android":"levelo://app?vid=a213dca7-ac93-426f-b416-23be39b7a346","ios":"levelo://app?vid=a213dca7-ac93-426f-b416-23be39b7a346"},"vehicle_type_id":"4","last_reported":1716059134,"current_range_meters":800,"station_id":"ce4bgup2rcd13ifvqco0","pricing_plan_id":"cebpf4jnsgd1na2vs0mg"},{"bike_id":"603baedf-9108-4d5c-a917-a27c83b2b9c4","system_id":"levelo_inurba_marseille","lat":43.30953,"lon":5.39033,"is_reserved":false,"is_disabled":false,"rental_uris":{"android":"levelo://app?vid=603baedf-9108-4d5c-a917-a27c83b2b9c4","ios":"levelo://app?vid=603baedf-9108-4d5c-a917-a27c83b2b9c4"},"vehicle_type_id":"4","last_reported":1716059134,"current_range_meters":11600,"station_id":"ce4bgup2rcd13ifvqco0","pricing_plan_id":"cebpf4jnsgd1na2vs0mg"},{"bike_id":"547e23b2-e08f-41b7-a7c3-8d48345f0268","system_id":"levelo_inurba_marseille","lat":43.309498,"lon":5.390332,"is_reserved":false,"is_disabled":false,"rental_uris":{"android":"levelo://app?vid=547e23b2-e08f-41b7-a7c3-8d48345f0268","ios":"levelo://app?vid=547e23b2-e08f-41b7-a7c3-8d48345f0268"},"vehicle_type_id":"4","last_reported":1716059134,"current_range_meters":14800,"station_id":"ce4bgup2rcd13ifvqco0","pricing_plan_id":"cebpf4jnsgd1na2vs0mg"},{"bike_id":"fbbb9e7f-f194-44ac-842a-f9a4aa4849ef","system_id":"levelo_inurba_marseille","lat":43.309589,"lon":5.390258,"is_reserved":false,"is_disabled":false,"rental_uris":{"android":"levelo://app?vid=fbbb9e7f-f194-44ac-842a-f9a4aa4849ef","ios":"levelo://app?vid=fbbb9e7f-f194-44ac-842a-f9a4aa4849ef"},"vehicle_type_id":"4","last_reported":1716059134,"current_range_meters":4800,"station_id":"ce4bgup2rcd13ifvqco0","pricing_plan_id":"cebpf4jnsgd1na2vs0mg"},{"bike_id":"73546ffe-3054-4dfa-8c3c-96995872ec94","system_id":"levelo_inurba_marseille","lat":43.30951,"lon":5.39034,"is_reserved":false,"is_disabled":false,"rental_uris":{"android":"levelo://app?vid=73546ffe-3054-4dfa-8c3c-96995872ec94","ios":"levelo://app?vid=73546ffe-3054-4dfa-8c3c-96995872ec94"},"vehicle_type_id":"4","last_reported":1716059134,"current_range_meters":21200,"station_id":"ce4bgup2rcd13ifvqco0","pricing_plan_id":"cebpf4jnsgd1na2vs0mg"},{"bike_id":"564576f9-8c84-4183-a934-361873fd469e","system_id":"levelo_inurba_marseille","lat":43.30951,"lon":5.39035,"is_reserved":false,"is_disabled":false,"rental_uris":{"android":"levelo://app?vid=564576f9-8c84-4183-a934-361873fd469e","ios":"levelo://app?vid=564576f9-8c84-4183-a934-361873fd469e"},"vehicle_type_id":"4","last_reported":1716059134,"current_range_meters":7600,"station_id":"ce4bgup2rcd13ifvqco0","pricing_plan_id":"cebpf4jnsgd1na2vs0mg"},{"bike_id":"4531909b-e130-42c9-bf93-fbfff0c592cd","system_id":"levelo_inurba_marseille","lat":43.309589,"lon":5.390258,"is_reserved":false,"is_disabled":false,"rental_uris":{"android":"levelo://app?vid=4531909b-e130-42c9-bf93-fbfff0c592cd","ios":"levelo://app?vid=4531909b-e130-42c9-bf93-fbfff0c592cd"},"vehicle_type_id":"4","last_reported":1716059134,"current_range_meters":32000,"station_id":"ce4bgup2rcd13ifvqco0","pricing_plan_id":"cebpf4jnsgd1na2vs0mg"},{"bike_id":"9a864a34-570b-4acc-9241-3c0e0c402d30","system_id":"levelo_inurba_marseille","lat":43.30951,"lon":5.39037,"is_reserved":false,"is_disabled":false,"rental_uris":{"android":"levelo://app?vid=9a864a34-570b-4acc-9241-3c0e0c402d30","ios":"levelo://app?vid=9a864a34-570b-4acc-9241-3c0e0c402d30"},"vehicle_type_id":"4","last_reported":1716059134,"current_range_meters":0,"station_id":"ce4bgup2rcd13ifvqco0","pricing_plan_id":"cebpf4jnsgd1na2vs0mg"},{"bike_id":"5b016400-3e56-45de-bc6a-229a95106682","system_id":"levelo_inurba_marseille","lat":43.309528,"lon":5.39038,"is_reserved":false,"is_disabled":false,"rental_uris":{"android":"levelo://app?vid=5b016400-3e56-45de-bc6a-229a95106682","ios":"levelo://app?vid=5b016400-3e56-45de-bc6a-229a95106682"},"vehicle_type_id":"4","last_reported":1716059134,"current_range_meters":21600,"station_id":"ce4bgup2rcd13ifvqco0","pricing_plan_id":"cebpf4jnsgd1na2vs0mg"},{"bike_id":"f9998aa9-f83f-4b4b-b6b1-5b70024f7f1b","system_id":"levelo_inurba_marseille","lat":43.309589,"lon":5.390258,"is_reserved":false,"is_disabled":false,"rental_uris":{"android":"levelo://app?vid=f9998aa9-f83f-4b4b-b6b1-5b70024f7f1b","ios":"levelo://app?vid=f9998aa9-f83f-4b4b-b6b1-5b70024f7f1b"},"vehicle_type_id":"4","last_reported":1716059134,"current_range_meters":17200,"station_id":"ce4bgup2rcd13ifvqco0","pricing_plan_id":"cebpf4jnsgd1na2vs0mg"},{"bike_id":"13c1cd58-66e7-46f9-b7f0-333e5b1217fb","system_id":"levelo_inurba_marseille","lat":43.309589,"lon":5.390258,"is_reserved":false,"is_disabled":false,"rental_uris":{"android":"levelo://app?vid=13c1cd58-66e7-46f9-b7f0-333e5b1217fb","ios":"levelo://app?vid=13c1cd58-66e7-46f9-b7f0-333e5b1217fb"},"vehicle_type_id":"4","last_reported":1716059134,"current_range_meters":6800,"station_id":"ce4bgup2rcd13ifvqco0","pricing_plan_id":"cebpf4jnsgd1na2vs0mg"},{"bike_id":"4d0bb5e6-0474-4729-b17f-0f43ac90100a","system_id":"levelo_inurba_marseille","lat":43.302992,"lon":5.392136,"is_reserved":false,"is_disabled":false,"rental_uris":{"android":"levelo://app?vid=4d0bb5e6-0474-4729-b17f-0f43ac90100a","ios":"levelo://app?vid=4d0bb5e6-0474-4729-b17f-0f43ac90100a"},"vehicle_type_id":"4","last_reported":1716059134,"current_range_meters":400,"station_id":"ce4bgkh2rcd13ifvqbk0","pricing_plan_id":"cebpf4jnsgd1na2vs0mg"},{"bike_id":"d8c3c4c1-860b-4bd8-b340-d1702ddd69a7","system_id":"levelo_inurba_marseille","lat":43.309589,"lon":5.390258,"is_reserved":false,"is_disabled":false,"rental_uris":{"android":"levelo://app?vid=d8c3c4c1-860b-4bd8-b340-d1702ddd69a7","ios":"levelo://app?vid=d8c3c4c1-860b-4bd8-b340-d1702ddd69a7"},"vehicle_type_id":"4","last_reported":1716059134,"current_range_meters":8800,"station_id":"ce4bgup2rcd13ifvqco0","pricing_plan_id":"cebpf4jnsgd1na2vs0mg"},{"bike_id":"d9dec018-b32e-4783-8cf9-b38dcf77b83f","system_id":"levelo_inurba_marseille","lat":43.30952,"lon":5.39049,"is_reserved":false,"is_disabled":false,"rental_uris":{"android":"levelo://app?vid=d9dec018-b32e-4783-8cf9-b38dcf77b83f","ios":"levelo://app?vid=d9dec018-b32e-4783-8cf9-b38dcf77b83f"},"vehicle_type_id":"4","last_reported":1716059134,"current_range_meters":19200,"station_id":"ce4bgup2rcd13ifvqco0","pricing_plan_id":"cebpf4jnsgd1na2vs0mg"},{"bike_id":"12c7bac9-d8e7-4b18-befe-6d3455d2ab15","system_id":"levelo_inurba_marseille","lat":43.309461,"lon":5.390507,"is_reserved":false,"is_disabled":false,"rental_uris":{"android":"levelo://app?vid=12c7bac9-d8e7-4b18-befe-6d3455d2ab15","ios":"levelo://app?vid=12c7bac9-d8e7-4b18-befe-6d3455d2ab15"},"vehicle_type_id":"4","last_reported":1716059134,"current_range_meters":0,"station_id":"ce4bgup2rcd13ifvqco0","pricing_plan_id":"cebpf4jnsgd1na2vs0mg"},{"bike_id":"eb718197-e43b-4bf1-b760-8ed7b312839a","system_id":"levelo_inurba_marseille","lat":43.309439,"lon":5.390504,"is_reserved":false,"is_disabled":false,"rental_uris":{"android":"levelo://app?vid=eb718197-e43b-4bf1-b760-8ed7b312839a","ios":"levelo://app?vid=eb718197-e43b-4bf1-b760-8ed7b312839a"},"vehicle_type_id":"4","last_reported":1716059134,"current_range_meters":4800,"station_id":"ce4bgup2rcd13ifvqco0","pricing_plan_id":"cebpf4jnsgd1na2vs0mg"},{"bike_id":"c83ce6ad-d8ee-47de-817e-b9fbd48cb3b7","system_id":"levelo_inurba_marseille","lat":43.309474,"lon":5.390539,"is_reserved":false,"is_disabled":false,"rental_uris":{"android":"levelo://app?vid=c83ce6ad-d8ee-47de-817e-b9fbd48cb3b7","ios":"levelo://app?vid=c83ce6ad-d8ee-47de-817e-b9fbd48cb3b7"},"vehicle_type_id":"4","last_reported":1716059134,"current_range_meters":3600,"station_id":"ce4bgup2rcd13ifvqco0","pricing_plan_id":"cebpf4jnsgd1na2vs0mg"},{"bike_id":"c5bc92fb-3d33-42bc-ad9b-278dbb013eb0","system_id":"levelo_inurba_marseille","lat":43.317557,"lon":5.390173,"is_reserved":false,"is_disabled":false,"rental_uris":{"android":"levelo://app?vid=c5bc92fb-3d33-42bc-ad9b-278dbb013eb0","ios":"levelo://app?vid=c5bc92fb-3d33-42bc-ad9b-278dbb013eb0"},"vehicle_type_id":"4","last_reported":1716059134,"current_range_meters":6400,"station_id":"ce4bhqp2rcd13ifvqhng","pricing_plan_id":"cebpf4jnsgd1na2vs0mg"},{"bike_id":"de8a354f-15f9-47ca-a5fc-95f5e3c3cd40","system_id":"levelo_inurba_marseille","lat":43.30955,"lon":5.39059,"is_reserved":false,"is_disabled":false,"rental_uris":{"android":"levelo://app?vid=de8a354f-15f9-47ca-a5fc-95f5e3c3cd40","ios":"levelo://app?vid=de8a354f-15f9-47ca-a5fc-95f5e3c3cd40"},"vehicle_type_id":"4","last_reported":1716059134,"current_range_meters":10400,"station_id":"ce4bgup2rcd13ifvqco0","pricing_plan_id":"cebpf4jnsgd1na2vs0mg"},{"bike_id":"5293a50f-66ca-4a53-a10d-9d24898ec687","system_id":"levelo_inurba_marseille","lat":43.317515,"lon":5.390141,"is_reserved":false,"is_disabled":false,"rental_uris":{"android":"levelo://app?vid=5293a50f-66ca-4a53-a10d-9d24898ec687","ios":"levelo://app?vid=5293a50f-66ca-4a53-a10d-9d24898ec687"},"vehicle_type_id":"4","last_reported":1716059134,"current_range_meters":11600,"station_id":"ce4bhqp2rcd13ifvqhng","pricing_plan_id":"cebpf4jnsgd1na2vs0mg"},{"bike_id":"ff2be364-1269-4bba-8843-cc85ca8b7450","system_id":"levelo_inurba_marseille","lat":43.317557,"lon":5.390173,"is_reserved":false,"is_disabled":false,"rental_uris":{"android":"levelo://app?vid=ff2be364-1269-4bba-8843-cc85ca8b7450","ios":"levelo://app?vid=ff2be364-1269-4bba-8843-cc85ca8b7450"},"vehicle_type_id":"4","last_reported":1716059134,"current_range_meters":1600,"station_id":"ce4bhqp2rcd13ifvqhng","pricing_plan_id":"cebpf4jnsgd1na2vs0mg"},{"bike_id":"31f24034-8b84-4267-9aa0-fd1871ada360","system_id":"levelo_inurba_marseille","lat":43.317557,"lon":5.390173,"is_reserved":false,"is_disabled":false,"rental_uris":{"android":"levelo://app?vid=31f24034-8b84-4267-9aa0-fd1871ada360","ios":"levelo://app?vid=31f24034-8b84-4267-9aa0-fd1871ada360"},"vehicle_type_id":"4","last_reported":1716059134,"current_range_meters":16800,"station_id":"ce4bhqp2rcd13ifvqhng","pricing_plan_id":"cebpf4jnsgd1na2vs0mg"},{"bike_id":"63c1ad65-0f8c-407a-923d-08631c90fe57","system_id":"levelo_inurba_marseille","lat":43.304278,"lon":5.388868,"is_reserved":false,"is_disabled":false,"rental_uris":{"android":"levelo://app?vid=63c1ad65-0f8c-407a-923d-08631c90fe57","ios":"levelo://app?vid=63c1ad65-0f8c-407a-923d-08631c90fe57"},"vehicle_type_id":"4","last_reported":1716059134,"current_range_meters":6000,"station_id":"ce4bgk12rcd13ifvqbi0","pricing_plan_id":"cebpf4jnsgd1na2vs0mg"},{"bike_id":"3c6685f8-9845-4cfd-8f16-35a649f940f6","system_id":"levelo_inurba_marseille","lat":43.29694,"lon":5.37818,"is_reserved":false,"is_disabled":false,"rental_uris":{"android":"levelo://app?vid=3c6685f8-9845-4cfd-8f16-35a649f940f6","ios":"levelo://app?vid=3c6685f8-9845-4cfd-8f16-35a649f940f6"},"vehicle_type_id":"4","last_reported":1716059134,"current_range_meters":0,"station_id":"","pricing_plan_id":"cebpf4jnsgd1na2vs0mg"},{"bike_id":"fcd060db-af11-4bd0-8881-be25034c0ef9","system_id":"levelo_inurba_marseille","lat":43.298034,"lon":5.380928,"is_reserved":false,"is_disabled":false,"rental_uris":{"android":"levelo://app?vid=fcd060db-af11-4bd0-8881-be25034c0ef9","ios":"levelo://app?vid=fcd060db-af11-4bd0-8881-be25034c0ef9"},"vehicle_type_id":"4","last_reported":1716059134,"current_range_meters":0,"station_id":"ce4bgip2rcd13ifvqbb0","pricing_plan_id":"cebpf4jnsgd1na2vs0mg"},{"bike_id":"2a48f1fd-6499-4f24-bc50-f6178b551e0f","system_id":"levelo_inurba_marseille","lat":43.29576,"lon":5.37509,"is_reserved":false,"is_disabled":false,"rental_uris":{"android":"levelo://app?vid=2a48f1fd-6499-4f24-bc50-f6178b551e0f","ios":"levelo://app?vid=2a48f1fd-6499-4f24-bc50-f6178b551e0f"},"vehicle_type_id":"4","last_reported":1716059134,"current_range_meters":17600,"station_id":"ce4bgh92rcd13ifvqb50","pricing_plan_id":"cebpf4jnsgd1na2vs0mg"},{"bike_id":"f7dc73a0-b7df-4f54-86a4-d5bd154797f2","system_id":"levelo_inurba_marseille","lat":43.304278,"lon":5.388868,"is_reserved":false,"is_disabled":false,"rental_uris":{"android":"levelo://app?vid=f7dc73a0-b7df-4f54-86a4-d5bd154797f2","ios":"levelo://app?vid=f7dc73a0-b7df-4f54-86a4-d5bd154797f2"},"vehicle_type_id":"4","last_reported":1716059134,"current_range_meters":20000,"station_id":"ce4bgk12rcd13ifvqbi0","pricing_plan_id":"cebpf4jnsgd1na2vs0mg"},{"bike_id":"a3002566-1e94-4bd6-b44e-79f29d761134","system_id":"levelo_inurba_marseille","lat":43.295748,"lon":5.37522,"is_reserved":false,"is_disabled":false,"rental_uris":{"android":"levelo://app?vid=a3002566-1e94-4bd6-b44e-79f29d761134","ios":"levelo://app?vid=a3002566-1e94-4bd6-b44e-79f29d761134"},"vehicle_type_id":"4","last_reported":1716059134,"current_range_meters":0,"station_id":"ce4bgh92rcd13ifvqb50","pricing_plan_id":"cebpf4jnsgd1na2vs0mg"},{"bike_id":"011d6ae9-eb73-49fa-9c86-3d3eb33ac0f1","system_id":"levelo_inurba_marseille","lat":43.304266,"lon":5.388967,"is_reserved":false,"is_disabled":false,"rental_uris":{"android":"levelo://app?vid=011d6ae9-eb73-49fa-9c86-3d3eb33ac0f1","ios":"levelo://app?vid=011d6ae9-eb73-49fa-9c86-3d3eb33ac0f1"},"vehicle_type_id":"4","last_reported":1716059134,"current_range_meters":0,"station_id":"ce4bgk12rcd13ifvqbi0","pricing_plan_id":"cebpf4jnsgd1na2vs0mg"},{"bike_id":"14f1bd29-57ec-417e-86f2-2b507c64e698","system_id":"levelo_inurba_marseille","lat":43.29619,"lon":5.37717,"is_reserved":false,"is_disabled":false,"rental_uris":{"android":"levelo://app?vid=14f1bd29-57ec-417e-86f2-2b507c64e698","ios":"levelo://app?vid=14f1bd29-57ec-417e-86f2-2b507c64e698"},"vehicle_type_id":"4","last_reported":1716059134,"current_range_meters":0,"station_id":"ce4bgi92rcd13ifvqb90","pricing_plan_id":"cebpf4jnsgd1na2vs0mg"},{"bike_id":"809b2f33-28e4-4d80-bfcb-b7852935d397","system_id":"levelo_inurba_marseille","lat":43.296277,"lon":5.377108,"is_reserved":false,"is_disabled":false,"rental_uris":{"android":"levelo://app?vid=809b2f33-28e4-4d80-bfcb-b7852935d397","ios":"levelo://app?vid=809b2f33-28e4-4d80-bfcb-b7852935d397"},"vehicle_type_id":"4","last_reported":1716059134,"current_range_meters":22000,"station_id":"ce4bgi92rcd13ifvqb90","pricing_plan_id":"cebpf4jnsgd1na2vs0mg"},{"bike_id":"598cfe8f-996e-466e-974a-447350015c6d","system_id":"levelo_inurba_marseille","lat":43.295748,"lon":5.37522,"is_reserved":false,"is_disabled":false,"rental_uris":{"android":"levelo://app?vid=598cfe8f-996e-466e-974a-447350015c6d","ios":"levelo://app?vid=598cfe8f-996e-466e-974a-447350015c6d"},"vehicle_type_id":"4","last_reported":1716059134,"current_range_meters":17200,"station_id":"ce4bgh92rcd13ifvqb50","pricing_plan_id":"cebpf4jnsgd1na2vs0mg"},{"bike_id":"85616ebb-94fb-4f35-9345-28ab1e0d25cc","system_id":"levelo_inurba_marseille","lat":43.298037,"lon":5.381066,"is_reserved":false,"is_disabled":false,"rental_uris":{"android":"levelo://app?vid=85616ebb-94fb-4f35-9345-28ab1e0d25cc","ios":"levelo://app?vid=85616ebb-94fb-4f35-9345-28ab1e0d25cc"},"vehicle_type_id":"4","last_reported":1716059134,"current_range_meters":2800,"station_id":"ce4bgip2rcd13ifvqbb0","pricing_plan_id":"cebpf4jnsgd1na2vs0mg"},{"bike_id":"895b0b26-9c63-401f-b0b6-f05057b14828","system_id":"levelo_inurba_marseille","lat":43.296263,"lon":5.377094,"is_reserved":false,"is_disabled":false,"rental_uris":{"android":"levelo://app?vid=895b0b26-9c63-401f-b0b6-f05057b14828","ios":"levelo://app?vid=895b0b26-9c63-401f-b0b6-f05057b14828"},"vehicle_type_id":"4","last_reported":1716059134,"current_range_meters":400,"station_id":"ce4bgi92rcd13ifvqb90","pricing_plan_id":"cebpf4jnsgd1na2vs0mg"},{"bike_id":"6a9309e5-bc15-4acd-b2e6-54ed7b0fc3e8","system_id":"levelo_inurba_marseille","lat":43.304274,"lon":5.388873,"is_reserved":false,"is_disabled":false,"rental_uris":{"android":"levelo://app?vid=6a9309e5-bc15-4acd-b2e6-54ed7b0fc3e8","ios":"levelo://app?vid=6a9309e5-bc15-4acd-b2e6-54ed7b0fc3e8"},"vehicle_type_id":"4","last_reported":1716059134,"current_range_meters":800,"station_id":"ce4bgk12rcd13ifvqbi0","pricing_plan_id":"cebpf4jnsgd1na2vs0mg"},{"bike_id":"18b264c5-7186-42b6-9680-a688792f88bb","system_id":"levelo_inurba_marseille","lat":43.295279,"lon":5.375048,"is_reserved":false,"is_disabled":false,"rental_uris":{"android":"levelo://app?vid=18b264c5-7186-42b6-9680-a688792f88bb","ios":"levelo://app?vid=18b264c5-7186-42b6-9680-a688792f88bb"},"vehicle_type_id":"4","last_reported":1716059134,"current_range_meters":12400,"station_id":"ce4bgkp2rcd13ifvqbmg","pricing_plan_id":"cebpf4jnsgd1na2vs0mg"},{"bike_id":"569b3397-57d8-40f4-a32d-59d89f0ac43c","system_id":"levelo_inurba_marseille","lat":43.295279,"lon":5.375048,"is_reserved":false,"is_disabled":false,"rental_uris":{"android":"levelo://app?vid=569b3397-57d8-40f4-a32d-59d89f0ac43c","ios":"levelo://app?vid=569b3397-57d8-40f4-a32d-59d89f0ac43c"},"vehicle_type_id":"4","last_reported":1716059134,"current_range_meters":1600,"station_id":"ce4bgkp2rcd13ifvqbmg","pricing_plan_id":"cebpf4jnsgd1na2vs0mg"},{"bike_id":"d4f18bd9-c947-4f98-bde2-6ed6c635a9d4","system_id":"levelo_inurba_marseille","lat":43.299717,"lon":5.384845,"is_reserved":false,"is_disabled":false,"rental_uris":{"android":"levelo://app?vid=d4f18bd9-c947-4f98-bde2-6ed6c635a9d4","ios":"levelo://app?vid=d4f18bd9-c947-4f98-bde2-6ed6c635a9d4"},"vehicle_type_id":"4","last_reported":1716059134,"current_range_meters":0,"station_id":"ce4bgj92rcd13ifvqbd0","pricing_plan_id":"cebpf4jnsgd1na2vs0mg"},{"bike_id":"d10642f2-89e4-41f1-8ddf-12f2e8916c0f","system_id":"levelo_inurba_marseille","lat":43.299724,"lon":5.384848,"is_reserved":false,"is_disabled":false,"rental_uris":{"android":"levelo://app?vid=d10642f2-89e4-41f1-8ddf-12f2e8916c0f","ios":"levelo://app?vid=d10642f2-89e4-41f1-8ddf-12f2e8916c0f"},"vehicle_type_id":"4","last_reported":1716059134,"current_range_meters":19600,"station_id":"ce4bgj92rcd13ifvqbd0","pricing_plan_id":"cebpf4jnsgd1na2vs0mg"},{"bike_id":"f9247372-feac-4faa-98c0-308763bbf71d","system_id":"levelo_inurba_marseille","lat":43.295279,"lon":5.375048,"is_reserved":false,"is_disabled":false,"rental_uris":{"android":"levelo://app?vid=f9247372-feac-4faa-98c0-308763bbf71d","ios":"levelo://app?vid=f9247372-feac-4faa-98c0-308763bbf71d"},"vehicle_type_id":"4","last_reported":1716059134,"current_range_meters":8000,"station_id":"ce4bgkp2rcd13ifvqbmg","pricing_plan_id":"cebpf4jnsgd1na2vs0mg"},{"bike_id":"03dfbe0e-f70f-4ed9-83ea-d721dd0fc4ef","system_id":"levelo_inurba_marseille","lat":43.295279,"lon":5.375048,"is_reserved":false,"is_disabled":false,"rental_uris":{"android":"levelo://app?vid=03dfbe0e-f70f-4ed9-83ea-d721dd0fc4ef","ios":"levelo://app?vid=03dfbe0e-f70f-4ed9-83ea-d721dd0fc4ef"},"vehicle_type_id":"4","last_reported":1716059134,"current_range_meters":14800,"station_id":"ce4bgkp2rcd13ifvqbmg","pricing_plan_id":"cebpf4jnsgd1na2vs0mg"},{"bike_id":"6b6d426c-6849-4e30-8117-be18be9746e5","system_id":"levelo_inurba_marseille","lat":43.299724,"lon":5.384848,"is_reserved":false,"is_disabled":false,"rental_uris":{"android":"levelo://app?vid=6b6d426c-6849-4e30-8117-be18be9746e5","ios":"levelo://app?vid=6b6d426c-6849-4e30-8117-be18be9746e5"},"vehicle_type_id":"4","last_reported":1716059134,"current_range_meters":0,"station_id":"ce4bgj92rcd13ifvqbd0","pricing_plan_id":"cebpf4jnsgd1na2vs0mg"},{"bike_id":"8069ab96-b3b9-4dd0-947d-c7cd6127704a","system_id":"levelo_inurba_marseille","lat":43.299724,"lon":5.384848,"is_reserved":false,"is_disabled":false,"rental_uris":{"android":"levelo://app?vid=8069ab96-b3b9-4dd0-947d-c7cd6127704a","ios":"levelo://app?vid=8069ab96-b3b9-4dd0-947d-c7cd6127704a"},"vehicle_type_id":"4","last_reported":1716059134,"current_range_meters":10400,"station_id":"ce4bgj92rcd13ifvqbd0","pricing_plan_id":"cebpf4jnsgd1na2vs0mg"},{"bike_id":"f9e39ee8-4ea0-4fce-b0a5-e764c263eaa7","system_id":"levelo_inurba_marseille","lat":43.29969,"lon":5.38495,"is_reserved":false,"is_disabled":false,"rental_uris":{"android":"levelo://app?vid=f9e39ee8-4ea0-4fce-b0a5-e764c263eaa7","ios":"levelo://app?vid=f9e39ee8-4ea0-4fce-b0a5-e764c263eaa7"},"vehicle_type_id":"4","last_reported":1716059134,"current_range_meters":1200,"station_id":"ce4bgj92rcd13ifvqbd0","pricing_plan_id":"cebpf4jnsgd1na2vs0mg"},{"bike_id":"455eb2ff-5f37-4f99-86c9-18ac0b45a397","system_id":"levelo_inurba_marseille","lat":43.299707,"lon":5.384859,"is_reserved":false,"is_disabled":false,"rental_uris":{"android":"levelo://app?vid=455eb2ff-5f37-4f99-86c9-18ac0b45a397","ios":"levelo://app?vid=455eb2ff-5f37-4f99-86c9-18ac0b45a397"},"vehicle_type_id":"4","last_reported":1716059134,"current_range_meters":4400,"station_id":"ce4bgj92rcd13ifvqbd0","pricing_plan_id":"cebpf4jnsgd1na2vs0mg"},{"bike_id":"e9fd23d8-2a50-46a6-86a2-5769ad10fbac","system_id":"levelo_inurba_marseille","lat":43.299621,"lon":5.384941,"is_reserved":false,"is_disabled":false,"rental_uris":{"android":"levelo://app?vid=e9fd23d8-2a50-46a6-86a2-5769ad10fbac","ios":"levelo://app?vid=e9fd23d8-2a50-46a6-86a2-5769ad10fbac"},"vehicle_type_id":"4","last_reported":1716059134,"current_range_meters":0,"station_id":"ce4bgj92rcd13ifvqbd0","pricing_plan_id":"cebpf4jnsgd1na2vs0mg"},{"bike_id":"bb92fabe-a6ee-4013-9d05-85d757f7932d","system_id":"levelo_inurba_marseille","lat":43.29964,"lon":5.38497,"is_reserved":false,"is_disabled":false,"rental_uris":{"android":"levelo://app?vid=bb92fabe-a6ee-4013-9d05-85d757f7932d","ios":"levelo://app?vid=bb92fabe-a6ee-4013-9d05-85d757f7932d"},"vehicle_type_id":"4","last_reported":1716059134,"current_range_meters":2800,"station_id":"ce4bgj92rcd13ifvqbd0","pricing_plan_id":"cebpf4jnsgd1na2vs0mg"},{"bike_id":"60a0a589-27f3-44bf-b144-58d0ef515e18","system_id":"levelo_inurba_marseille","lat":43.299621,"lon":5.384999,"is_reserved":false,"is_disabled":false,"rental_uris":{"android":"levelo://app?vid=60a0a589-27f3-44bf-b144-58d0ef515e18","ios":"levelo://app?vid=60a0a589-27f3-44bf-b144-58d0ef515e18"},"vehicle_type_id":"4","last_reported":1716059134,"current_range_meters":400,"station_id":"ce4bgj92rcd13ifvqbd0","pricing_plan_id":"cebpf4jnsgd1na2vs0mg"},{"bike_id":"c8972db8-4b9c-4d80-be53-8edd64dd4867","system_id":"levelo_inurba_marseille","lat":43.299579,"lon":5.384999,"is_reserved":false,"is_disabled":false,"rental_uris":{"android":"levelo://app?vid=c8972db8-4b9c-4d80-be53-8edd64dd4867","ios":"levelo://app?vid=c8972db8-4b9c-4d80-be53-8edd64dd4867"},"vehicle_type_id":"4","last_reported":1716059134,"current_range_meters":0,"station_id":"ce4bgj92rcd13ifvqbd0","pricing_plan_id":"cebpf4jnsgd1na2vs0mg"},{"bike_id":"bfd00982-bafe-44ca-86fe-590d1740e059","system_id":"levelo_inurba_marseille","lat":43.299707,"lon":5.384859,"is_reserved":false,"is_disabled":false,"rental_uris":{"android":"levelo://app?vid=bfd00982-bafe-44ca-86fe-590d1740e059","ios":"levelo://app?vid=bfd00982-bafe-44ca-86fe-590d1740e059"},"vehicle_type_id":"4","last_reported":1716059134,"current_range_meters":14400,"station_id":"ce4bgj92rcd13ifvqbd0","pricing_plan_id":"cebpf4jnsgd1na2vs0mg"},{"bike_id":"d5d2eea5-1adb-4a93-8baa-386795011fc2","system_id":"levelo_inurba_marseille","lat":43.325594,"lon":5.386439,"is_reserved":false,"is_disabled":false,"rental_uris":{"android":"levelo://app?vid=d5d2eea5-1adb-4a93-8baa-386795011fc2","ios":"levelo://app?vid=d5d2eea5-1adb-4a93-8baa-386795011fc2"},"vehicle_type_id":"4","last_reported":1716059134,"current_range_meters":2800,"station_id":"","pricing_plan_id":"cebpf4jnsgd1na2vs0mg"},{"bike_id":"af10e732-7ed2-47a4-bb3b-c53c79475b3c","system_id":"levelo_inurba_marseille","lat":43.32367,"lon":5.388836,"is_reserved":false,"is_disabled":false,"rental_uris":{"android":"levelo://app?vid=af10e732-7ed2-47a4-bb3b-c53c79475b3c","ios":"levelo://app?vid=af10e732-7ed2-47a4-bb3b-c53c79475b3c"},"vehicle_type_id":"4","last_reported":1716059134,"current_range_meters":1200,"station_id":"ce4bhqp2rcd13ifvqhog","pricing_plan_id":"cebpf4jnsgd1na2vs0mg"},{"bike_id":"2f5ce615-2b72-45f5-9b0e-cd334ae0617d","system_id":"levelo_inurba_marseille","lat":43.32367,"lon":5.388836,"is_reserved":false,"is_disabled":false,"rental_uris":{"android":"levelo://app?vid=2f5ce615-2b72-45f5-9b0e-cd334ae0617d","ios":"levelo://app?vid=2f5ce615-2b72-45f5-9b0e-cd334ae0617d"},"vehicle_type_id":"4","last_reported":1716059134,"current_range_meters":16800,"station_id":"ce4bhqp2rcd13ifvqhog","pricing_plan_id":"cebpf4jnsgd1na2vs0mg"},{"bike_id":"580b1b2f-c3be-43a2-98e3-eac829475bc4","system_id":"levelo_inurba_marseille","lat":43.32367,"lon":5.388836,"is_reserved":false,"is_disabled":false,"rental_uris":{"android":"levelo://app?vid=580b1b2f-c3be-43a2-98e3-eac829475bc4","ios":"levelo://app?vid=580b1b2f-c3be-43a2-98e3-eac829475bc4"},"vehicle_type_id":"4","last_reported":1716059134,"current_range_meters":7600,"station_id":"ce4bhqp2rcd13ifvqhog","pricing_plan_id":"cebpf4jnsgd1na2vs0mg"},{"bike_id":"dcfe2727-5cc1-4c2c-8ab5-507cd9fceb15","system_id":"levelo_inurba_marseille","lat":43.323691,"lon":5.388851,"is_reserved":false,"is_disabled":false,"rental_uris":{"android":"levelo://app?vid=dcfe2727-5cc1-4c2c-8ab5-507cd9fceb15","ios":"levelo://app?vid=dcfe2727-5cc1-4c2c-8ab5-507cd9fceb15"},"vehicle_type_id":"4","last_reported":1716059134,"current_range_meters":1200,"station_id":"ce4bhqp2rcd13ifvqhog","pricing_plan_id":"cebpf4jnsgd1na2vs0mg"},{"bike_id":"c3c7d8b8-036d-421c-aa65-e552ef6a1171","system_id":"levelo_inurba_marseille","lat":43.295748,"lon":5.37522,"is_reserved":false,"is_disabled":false,"rental_uris":{"android":"levelo://app?vid=c3c7d8b8-036d-421c-aa65-e552ef6a1171","ios":"levelo://app?vid=c3c7d8b8-036d-421c-aa65-e552ef6a1171"},"vehicle_type_id":"4","last_reported":1716059134,"current_range_meters":17200,"station_id":"ce4bgh92rcd13ifvqb50","pricing_plan_id":"cebpf4jnsgd1na2vs0mg"},{"bike_id":"647b8fdb-7017-4a1b-9cb7-9916eaaf441b","system_id":"levelo_inurba_marseille","lat":43.29602,"lon":5.381084,"is_reserved":false,"is_disabled":false,"rental_uris":{"android":"levelo://app?vid=647b8fdb-7017-4a1b-9cb7-9916eaaf441b","ios":"levelo://app?vid=647b8fdb-7017-4a1b-9cb7-9916eaaf441b"},"vehicle_type_id":"4","last_reported":1716059134,"current_range_meters":11600,"station_id":"ce4bgl12rcd13ifvqbo0","pricing_plan_id":"cebpf4jnsgd1na2vs0mg"},{"bike_id":"8c944c12-d06f-4b94-80a3-34451e86fb9c","system_id":"levelo_inurba_marseille","lat":43.29846,"lon":5.38546,"is_reserved":false,"is_disabled":false,"rental_uris":{"android":"levelo://app?vid=8c944c12-d06f-4b94-80a3-34451e86fb9c","ios":"levelo://app?vid=8c944c12-d06f-4b94-80a3-34451e86fb9c"},"vehicle_type_id":"4","last_reported":1716059134,"current_range_meters":17600,"station_id":"","pricing_plan_id":"cebpf4jnsgd1na2vs0mg"},{"bike_id":"66f86806-3f67-4181-9919-6efb212f0e6f","system_id":"levelo_inurba_marseille","lat":43.295756,"lon":5.380773,"is_reserved":false,"is_disabled":false,"rental_uris":{"android":"levelo://app?vid=66f86806-3f67-4181-9919-6efb212f0e6f","ios":"levelo://app?vid=66f86806-3f67-4181-9919-6efb212f0e6f"},"vehicle_type_id":"4","last_reported":1716059134,"current_range_meters":400,"station_id":"ce4bgl12rcd13ifvqbo0","pricing_plan_id":"cebpf4jnsgd1na2vs0mg"},{"bike_id":"3ecd38b9-e771-4ac9-b0cf-13186b71f435","system_id":"levelo_inurba_marseille","lat":43.295727,"lon":5.380724,"is_reserved":false,"is_disabled":false,"rental_uris":{"android":"levelo://app?vid=3ecd38b9-e771-4ac9-b0cf-13186b71f435","ios":"levelo://app?vid=3ecd38b9-e771-4ac9-b0cf-13186b71f435"},"vehicle_type_id":"4","last_reported":1716059134,"current_range_meters":0,"station_id":"ce4bgl12rcd13ifvqbo0","pricing_plan_id":"cebpf4jnsgd1na2vs0mg"},{"bike_id":"038fef99-2d91-421e-917f-0b90e5211714","system_id":"levelo_inurba_marseille","lat":43.29275,"lon":5.36836,"is_reserved":false,"is_disabled":false,"rental_uris":{"android":"levelo://app?vid=038fef99-2d91-421e-917f-0b90e5211714","ios":"levelo://app?vid=038fef99-2d91-421e-917f-0b90e5211714"},"vehicle_type_id":"4","last_reported":1716059134,"current_range_meters":11200,"station_id":"","pricing_plan_id":"cebpf4jnsgd1na2vs0mg"},{"bike_id":"1d4a32ff-39b4-4081-acb8-44366ff6dd7a","system_id":"levelo_inurba_marseille","lat":43.292746,"lon":5.368366,"is_reserved":false,"is_disabled":false,"rental_uris":{"android":"levelo://app?vid=1d4a32ff-39b4-4081-acb8-44366ff6dd7a","ios":"levelo://app?vid=1d4a32ff-39b4-4081-acb8-44366ff6dd7a"},"vehicle_type_id":"4","last_reported":1716059134,"current_range_meters":8800,"station_id":"","pricing_plan_id":"cebpf4jnsgd1na2vs0mg"},{"bike_id":"9105931e-293b-469f-924a-77891f72b086","system_id":"levelo_inurba_marseille","lat":43.29274,"lon":5.36837,"is_reserved":false,"is_disabled":false,"rental_uris":{"android":"levelo://app?vid=9105931e-293b-469f-924a-77891f72b086","ios":"levelo://app?vid=9105931e-293b-469f-924a-77891f72b086"},"vehicle_type_id":"4","last_reported":1716059134,"current_range_meters":0,"station_id":"","pricing_plan_id":"cebpf4jnsgd1na2vs0mg"},{"bike_id":"f2e69ef6-72a5-4f2d-acb2-127621c826f0","system_id":"levelo_inurba_marseille","lat":43.29273,"lon":5.36838,"is_reserved":false,"is_disabled":false,"rental_uris":{"android":"levelo://app?vid=f2e69ef6-72a5-4f2d-acb2-127621c826f0","ios":"levelo://app?vid=f2e69ef6-72a5-4f2d-acb2-127621c826f0"},"vehicle_type_id":"4","last_reported":1716059134,"current_range_meters":6800,"station_id":"","pricing_plan_id":"cebpf4jnsgd1na2vs0mg"},{"bike_id":"edb24453-1bdf-4fed-9176-c461becd5ac3","system_id":"levelo_inurba_marseille","lat":43.29272,"lon":5.36842,"is_reserved":false,"is_disabled":false,"rental_uris":{"android":"levelo://app?vid=edb24453-1bdf-4fed-9176-c461becd5ac3","ios":"levelo://app?vid=edb24453-1bdf-4fed-9176-c461becd5ac3"},"vehicle_type_id":"4","last_reported":1716059134,"current_range_meters":0,"station_id":"","pricing_plan_id":"cebpf4jnsgd1na2vs0mg"},{"bike_id":"7cbc8ca1-ca09-42cd-9da7-6063f10963dc","system_id":"levelo_inurba_marseille","lat":43.293009,"lon":5.374584,"is_reserved":false,"is_disabled":false,"rental_uris":{"android":"levelo://app?vid=7cbc8ca1-ca09-42cd-9da7-6063f10963dc","ios":"levelo://app?vid=7cbc8ca1-ca09-42cd-9da7-6063f10963dc"},"vehicle_type_id":"4","last_reported":1716059134,"current_range_meters":7200,"station_id":"ce4bgi12rcd13ifvqb70","pricing_plan_id":"cebpf4jnsgd1na2vs0mg"},{"bike_id":"0fafc5b3-8557-4346-b457-b217f55fcae2","system_id":"levelo_inurba_marseille","lat":43.305994,"lon":5.393687,"is_reserved":false,"is_disabled":false,"rental_uris":{"android":"levelo://app?vid=0fafc5b3-8557-4346-b457-b217f55fcae2","ios":"levelo://app?vid=0fafc5b3-8557-4346-b457-b217f55fcae2"},"vehicle_type_id":"4","last_reported":1716059134,"current_range_meters":7600,"station_id":"ce4bh0p2rcd13ifvqd80","pricing_plan_id":"cebpf4jnsgd1na2vs0mg"},{"bike_id":"7dce1f46-c0c4-4eae-a631-b12a4a6b9cd3","system_id":"levelo_inurba_marseille","lat":43.293009,"lon":5.374584,"is_reserved":false,"is_disabled":false,"rental_uris":{"android":"levelo://app?vid=7dce1f46-c0c4-4eae-a631-b12a4a6b9cd3","ios":"levelo://app?vid=7dce1f46-c0c4-4eae-a631-b12a4a6b9cd3"},"vehicle_type_id":"4","last_reported":1716059134,"current_range_meters":20400,"station_id":"ce4bgi12rcd13ifvqb70","pricing_plan_id":"cebpf4jnsgd1na2vs0mg"},{"bike_id":"5530fc55-9acf-4759-a199-20c997d4201a","system_id":"levelo_inurba_marseille","lat":43.293009,"lon":5.374584,"is_reserved":false,"is_disabled":false,"rental_uris":{"android":"levelo://app?vid=5530fc55-9acf-4759-a199-20c997d4201a","ios":"levelo://app?vid=5530fc55-9acf-4759-a199-20c997d4201a"},"vehicle_type_id":"4","last_reported":1716059134,"current_range_meters":12400,"station_id":"ce4bgi12rcd13ifvqb70","pricing_plan_id":"cebpf4jnsgd1na2vs0mg"},{"bike_id":"815133e8-3bc9-4869-aefc-f778f67055b9","system_id":"levelo_inurba_marseille","lat":43.293009,"lon":5.374584,"is_reserved":false,"is_disabled":false,"rental_uris":{"android":"levelo://app?vid=815133e8-3bc9-4869-aefc-f778f67055b9","ios":"levelo://app?vid=815133e8-3bc9-4869-aefc-f778f67055b9"},"vehicle_type_id":"4","last_reported":1716059134,"current_range_meters":8800,"station_id":"ce4bgi12rcd13ifvqb70","pricing_plan_id":"cebpf4jnsgd1na2vs0mg"},{"bike_id":"dd6fd893-ca5e-428d-a715-5c6918913209","system_id":"levelo_inurba_marseille","lat":43.293009,"lon":5.374584,"is_reserved":false,"is_disabled":false,"rental_uris":{"android":"levelo://app?vid=dd6fd893-ca5e-428d-a715-5c6918913209","ios":"levelo://app?vid=dd6fd893-ca5e-428d-a715-5c6918913209"},"vehicle_type_id":"4","last_reported":1716059134,"current_range_meters":25600,"station_id":"ce4bgi12rcd13ifvqb70","pricing_plan_id":"cebpf4jnsgd1na2vs0mg"},{"bike_id":"2a22652f-1469-445c-90ca-cf49faa3f263","system_id":"levelo_inurba_marseille","lat":43.305994,"lon":5.393687,"is_reserved":false,"is_disabled":false,"rental_uris":{"android":"levelo://app?vid=2a22652f-1469-445c-90ca-cf49faa3f263","ios":"levelo://app?vid=2a22652f-1469-445c-90ca-cf49faa3f263"},"vehicle_type_id":"4","last_reported":1716059134,"current_range_meters":18800,"station_id":"ce4bh0p2rcd13ifvqd80","pricing_plan_id":"cebpf4jnsgd1na2vs0mg"},{"bike_id":"76866659-5dec-4fb4-b6a5-0d347441c50f","system_id":"levelo_inurba_marseille","lat":43.293009,"lon":5.374584,"is_reserved":false,"is_disabled":false,"rental_uris":{"android":"levelo://app?vid=76866659-5dec-4fb4-b6a5-0d347441c50f","ios":"levelo://app?vid=76866659-5dec-4fb4-b6a5-0d347441c50f"},"vehicle_type_id":"4","last_reported":1716059134,"current_range_meters":14800,"station_id":"ce4bgi12rcd13ifvqb70","pricing_plan_id":"cebpf4jnsgd1na2vs0mg"},{"bike_id":"4e060abe-dd70-48c9-9a18-e73a4d36888d","system_id":"levelo_inurba_marseille","lat":43.305994,"lon":5.393687,"is_reserved":false,"is_disabled":false,"rental_uris":{"android":"levelo://app?vid=4e060abe-dd70-48c9-9a18-e73a4d36888d","ios":"levelo://app?vid=4e060abe-dd70-48c9-9a18-e73a4d36888d"},"vehicle_type_id":"4","last_reported":1716059134,"current_range_meters":800,"station_id":"ce4bh0p2rcd13ifvqd80","pricing_plan_id":"cebpf4jnsgd1na2vs0mg"},{"bike_id":"0f4a3810-4b13-41a3-8326-0bcb01e7f417","system_id":"levelo_inurba_marseille","lat":43.306039,"lon":5.393651,"is_reserved":false,"is_disabled":false,"rental_uris":{"android":"levelo://app?vid=0f4a3810-4b13-41a3-8326-0bcb01e7f417","ios":"levelo://app?vid=0f4a3810-4b13-41a3-8326-0bcb01e7f417"},"vehicle_type_id":"4","last_reported":1716059134,"current_range_meters":0,"station_id":"ce4bh0p2rcd13ifvqd80","pricing_plan_id":"cebpf4jnsgd1na2vs0mg"},{"bike_id":"d34ab903-f6ed-4c2b-8659-c77350210da4","system_id":"levelo_inurba_marseille","lat":43.292227,"lon":5.36294,"is_reserved":false,"is_disabled":false,"rental_uris":{"android":"levelo://app?vid=d34ab903-f6ed-4c2b-8659-c77350210da4","ios":"levelo://app?vid=d34ab903-f6ed-4c2b-8659-c77350210da4"},"vehicle_type_id":"4","last_reported":1716059134,"current_range_meters":1600,"station_id":"ce4bgj92rcd13ifvqbd0","pricing_plan_id":"cebpf4jnsgd1na2vs0mg"},{"bike_id":"f9121cd1-9589-487b-9b1d-0544310788fa","system_id":"levelo_inurba_marseille","lat":43.30302,"lon":5.3921,"is_reserved":false,"is_disabled":false,"rental_uris":{"android":"levelo://app?vid=f9121cd1-9589-487b-9b1d-0544310788fa","ios":"levelo://app?vid=f9121cd1-9589-487b-9b1d-0544310788fa"},"vehicle_type_id":"4","last_reported":1716059134,"current_range_meters":4000,"station_id":"ce4bgkh2rcd13ifvqbk0","pricing_plan_id":"cebpf4jnsgd1na2vs0mg"},{"bike_id":"cc5c22c8-f4a0-4565-87e0-d782f7a39b28","system_id":"levelo_inurba_marseille","lat":43.2936,"lon":5.37835,"is_reserved":false,"is_disabled":false,"rental_uris":{"android":"levelo://app?vid=cc5c22c8-f4a0-4565-87e0-d782f7a39b28","ios":"levelo://app?vid=cc5c22c8-f4a0-4565-87e0-d782f7a39b28"},"vehicle_type_id":"4","last_reported":1716059134,"current_range_meters":27200,"station_id":"ce4bgjh2rcd13ifvqbf0","pricing_plan_id":"cebpf4jnsgd1na2vs0mg"},{"bike_id":"511f349b-b79f-4b10-95f3-af46fce4f76a","system_id":"levelo_inurba_marseille","lat":43.303015,"lon":5.392158,"is_reserved":false,"is_disabled":false,"rental_uris":{"android":"levelo://app?vid=511f349b-b79f-4b10-95f3-af46fce4f76a","ios":"levelo://app?vid=511f349b-b79f-4b10-95f3-af46fce4f76a"},"vehicle_type_id":"4","last_reported":1716059134,"current_range_meters":400,"station_id":"ce4bgkh2rcd13ifvqbk0","pricing_plan_id":"cebpf4jnsgd1na2vs0mg"},{"bike_id":"ecf8d3ac-1a89-47a8-9dd2-8e485d3743a4","system_id":"levelo_inurba_marseille","lat":43.2936,"lon":5.37835,"is_reserved":false,"is_disabled":false,"rental_uris":{"android":"levelo://app?vid=ecf8d3ac-1a89-47a8-9dd2-8e485d3743a4","ios":"levelo://app?vid=ecf8d3ac-1a89-47a8-9dd2-8e485d3743a4"},"vehicle_type_id":"4","last_reported":1716059134,"current_range_meters":7600,"station_id":"ce4bgjh2rcd13ifvqbf0","pricing_plan_id":"cebpf4jnsgd1na2vs0mg"},{"bike_id":"59a36ecd-4487-409f-8388-93eb5e329f21","system_id":"levelo_inurba_marseille","lat":43.2936,"lon":5.37835,"is_reserved":false,"is_disabled":false,"rental_uris":{"android":"levelo://app?vid=59a36ecd-4487-409f-8388-93eb5e329f21","ios":"levelo://app?vid=59a36ecd-4487-409f-8388-93eb5e329f21"},"vehicle_type_id":"4","last_reported":1716059134,"current_range_meters":14800,"station_id":"ce4bgjh2rcd13ifvqbf0","pricing_plan_id":"cebpf4jnsgd1na2vs0mg"},{"bike_id":"30f29c41-2c62-4fc3-808e-f2ac39ff64c2","system_id":"levelo_inurba_marseille","lat":43.2936,"lon":5.37835,"is_reserved":false,"is_disabled":false,"rental_uris":{"android":"levelo://app?vid=30f29c41-2c62-4fc3-808e-f2ac39ff64c2","ios":"levelo://app?vid=30f29c41-2c62-4fc3-808e-f2ac39ff64c2"},"vehicle_type_id":"4","last_reported":1716059134,"current_range_meters":2400,"station_id":"ce4bgjh2rcd13ifvqbf0","pricing_plan_id":"cebpf4jnsgd1na2vs0mg"},{"bike_id":"cf5fe3cc-6c9b-4050-a7f5-58896d6e6ad4","system_id":"levelo_inurba_marseille","lat":43.30297,"lon":5.39218,"is_reserved":false,"is_disabled":false,"rental_uris":{"android":"levelo://app?vid=cf5fe3cc-6c9b-4050-a7f5-58896d6e6ad4","ios":"levelo://app?vid=cf5fe3cc-6c9b-4050-a7f5-58896d6e6ad4"},"vehicle_type_id":"4","last_reported":1716059134,"current_range_meters":800,"station_id":"ce4bgkh2rcd13ifvqbk0","pricing_plan_id":"cebpf4jnsgd1na2vs0mg"},{"bike_id":"ca0efc9e-1792-4f49-9bae-fcf52357a2dc","system_id":"levelo_inurba_marseille","lat":43.29364,"lon":5.37845,"is_reserved":false,"is_disabled":false,"rental_uris":{"android":"levelo://app?vid=ca0efc9e-1792-4f49-9bae-fcf52357a2dc","ios":"levelo://app?vid=ca0efc9e-1792-4f49-9bae-fcf52357a2dc"},"vehicle_type_id":"4","last_reported":1716059134,"current_range_meters":0,"station_id":"ce4bgjh2rcd13ifvqbf0","pricing_plan_id":"cebpf4jnsgd1na2vs0mg"},{"bike_id":"bd448676-d96d-48a1-9711-32af552bff72","system_id":"levelo_inurba_marseille","lat":43.298764,"lon":5.388973,"is_reserved":false,"is_disabled":false,"rental_uris":{"android":"levelo://app?vid=bd448676-d96d-48a1-9711-32af552bff72","ios":"levelo://app?vid=bd448676-d96d-48a1-9711-32af552bff72"},"vehicle_type_id":"4","last_reported":1716059134,"current_range_meters":10400,"station_id":"ce4bh392rcd13ifvqdl0","pricing_plan_id":"cebpf4jnsgd1na2vs0mg"},{"bike_id":"bb3580f7-f6e6-4f2a-9560-fa4cea1e14b1","system_id":"levelo_inurba_marseille","lat":43.292311,"lon":5.360731,"is_reserved":false,"is_disabled":false,"rental_uris":{"android":"levelo://app?vid=bb3580f7-f6e6-4f2a-9560-fa4cea1e14b1","ios":"levelo://app?vid=bb3580f7-f6e6-4f2a-9560-fa4cea1e14b1"},"vehicle_type_id":"4","last_reported":1716059134,"current_range_meters":0,"station_id":"ce4bhbh2rcd13ifvqeqg","pricing_plan_id":"cebpf4jnsgd1na2vs0mg"},{"bike_id":"21b8f7be-aafe-41fb-b135-95ecd6e1bff7","system_id":"levelo_inurba_marseille","lat":43.300852,"lon":5.390859,"is_reserved":false,"is_disabled":false,"rental_uris":{"android":"levelo://app?vid=21b8f7be-aafe-41fb-b135-95ecd6e1bff7","ios":"levelo://app?vid=21b8f7be-aafe-41fb-b135-95ecd6e1bff7"},"vehicle_type_id":"4","last_reported":1716059134,"current_range_meters":0,"station_id":"ce4bh192rcd13ifvqdb0","pricing_plan_id":"cebpf4jnsgd1na2vs0mg"},