{"last_updated":1706364379,"ttl":30,"version":"2.2","data":{"bikes":[{"bike_id":"ed9176e9-0ddd-4aa2-a8b3-cf6a181ff455","system_id":"levelo_inurba_marseille","lat":43.314811,"lon":5.373103,"is_reserved":false,"is_disabled":false,"rental_uris":{"android":"levelo://app?vid=ed9176e9-0ddd-4aa2-a8b3-cf6a181ff455","ios":"levelo://app?vid=ed9176e9-0ddd-4aa2-a8b3-cf6a181ff455"},"vehicle_type_id":"4","last_reported":1706364379,"current_range_meters":26800,"station_id":"ce4bgt12rcd13ifvqcd0","pricing_plan_id":"free"},{"bike_id":"0e4f3e53-fe60-45a9-9868-3e5f1a04c448","system_id":"levelo_inurba_marseille","lat":43.314811,"lon":5.373103,"is_reserved":false,"is_disabled":false,"rental_uris":{"android":"levelo://app?vid=0e4f3e53-fe60-45a9-9868-3e5f1a04c448","ios":"levelo://app?vid=0e4f3e53-fe60-45a9-9868-3e5f1a04c448"},"vehicle_type_id":"4","last_reported":1706364379,"current_range_meters":2000,"station_id":"ce4bgt12rcd13ifvqcd0","pricing_plan_id":"free"},{"bike_id":"8bd1a1dd-0aee-47d2-ae28-1a0b44603e5a","system_id":"levelo_inurba_marseille","lat":43.305989,"lon":5.37225,"is_reserved":false,"is_disabled":false,"rental_uris":{"android":"levelo://app?vid=8bd1a1dd-0aee-47d2-ae28-1a0b44603e5a","ios":"levelo://app?vid=8bd1a1dd-0aee-47d2-ae28-1a0b44603e5a"},"vehicle_type_id":"4","last_reported":1706364379,"current_range_meters":15200,"station_id":"ce4bgqh2rcd13ifvqc4g","pricing_plan_id":"free"},{"bike_id":"a0318fb5-8423-415c-a18a-ccdbd18e27b2","system_id":"levelo_inurba_marseille","lat":43.305989,"lon":5.37225,"is_reserved":false,"is_disabled":false,"rental_uris":{"android":"levelo://app?vid=a0318fb5-8423-415c-a18a-ccdbd18e27b2","ios":"levelo://app?vid=a0318fb5-8423-415c-a18a-ccdbd18e27b2"},"vehicle_type_id":"4","last_reported":1706364379,"current_range_meters":1200,"station_id":"ce4bgqh2rcd13ifvqc4g","pricing_plan_id":"free"},{"bike_id":"1d6b45c2-f125-4d53-8201-661a8ef29baa","system_id":"levelo_inurba_marseille","lat":43.311125,"lon":5.377624,"is_reserved":false,"is_disabled":false,"rental_uris":{"android":"levelo://app?vid=1d6b45c2-f125-4d53-8201-661a8ef29baa","ios":"levelo://app?vid=1d6b45c2-f125-4d53-8201-661a8ef29baa"},"vehicle_type_id":"4","last_reported":1706364379,"current_range_meters":19600,"station_id":"ce4bgt92rcd13ifvqcg0","pricing_plan_id":"free"},{"bike_id":"6ec0a353-6d3e-49f3-9dfc-4d03140cf580","system_id":"levelo_inurba_marseille","lat":43.311131,"lon":5.377651,"is_reserved":false,"is_disabled":false,"rental_uris":{"android":"levelo://app?vid=6ec0a353-6d3e-49f3-9dfc-4d03140cf580","ios":"levelo://app?vid=6ec0a353-6d3e-49f3-9dfc-4d03140cf580"},"vehicle_type_id":"4","last_reported":1706364379,"current_range_meters":15200,"station_id":"ce4bgt92rcd13ifvqcg0","pricing_plan_id":"free"},{"bike_id":"2c9bc55b-7862-4fee-93cf-332da9ff1878","system_id":"levelo_inurba_marseille","lat":43.317075,"lon":5.377367,"is_reserved":false,"is_disabled":false,"rental_uris":{"android":"levelo://app?vid=2c9bc55b-7862-4fee-93cf-332da9ff1878","ios":"levelo://app?vid=2c9bc55b-7862-4fee-93cf-332da9ff1878"},"vehicle_type_id":"4","last_reported":1706364379,"current_range_meters":22800,"station_id":"ce4bgth2rcd13ifvqch0","pricing_plan_id":"free"},{"bike_id":"26b4f77f-cb01-4e35-b949-faacaa55a24e","system_id":"levelo_inurba_marseille","lat":43.317075,"lon":5.377367,"is_reserved":false,"is_disabled":false,"rental_uris":{"android":"levelo://app?vid=26b4f77f-cb01-4e35-b949-faacaa55a24e","ios":"levelo://app?vid=26b4f77f-cb01-4e35-b949-faacaa55a24e"},"vehicle_type_id":"4","last_reported":1706364379,"current_range_meters":9200,"station_id":"ce4bgth2rcd13ifvqch0","pricing_plan_id":"free"},{"bike_id":"5b0a56ae-3d70-40f6-ad3f-78c604f89c73","system_id":"levelo_inurba_marseille","lat":43.31233,"lon":5.37982,"is_reserved":false,"is_disabled":false,"rental_uris":{"android":"levelo://app?vid=5b0a56ae-3d70-40f6-ad3f-78c604f89c73","ios":"levelo://app?vid=5b0a56ae-3d70-40f6-ad3f-78c604f89c73"},"vehicle_type_id":"4","last_reported":1706364379,"current_range_meters":14400,"station_id":"","pricing_plan_id":"free"},{"bike_id":"b83daeb9-a39c-4884-86e2-16a37c651f7f","system_id":"levelo_inurba_marseille","lat":43.31998,"lon":5.37622,"is_reserved":false,"is_disabled":false,"rental_uris":{"android":"levelo://app?vid=b83daeb9-a39c-4884-86e2-16a37c651f7f","ios":"levelo://app?vid=b83daeb9-a39c-4884-86e2-16a37c651f7f"},"vehicle_type_id":"4","last_reported":1706364379,"current_range_meters":10800,"station_id":"","pricing_plan_id":"free"},{"bike_id":"d997f5ea-ee5a-4875-b860-05bb4ee692a2","system_id":"levelo_inurba_marseille","lat":43.301939,"lon":5.366286,"is_reserved":false,"is_disabled":false,"rental_uris":{"android":"levelo://app?vid=d997f5ea-ee5a-4875-b860-05bb4ee692a2","ios":"levelo://app?vid=d997f5ea-ee5a-4875-b860-05bb4ee692a2"},"vehicle_type_id":"4","last_reported":1706364379,"current_range_meters":22000,"station_id":"ce4bgrh2rcd13ifvqc8g","pricing_plan_id":"free"},{"bike_id":"d462dd8f-aec3-445c-89f6-947e7a4e9853","system_id":"levelo_inurba_marseille","lat":43.304606,"lon":5.379026,"is_reserved":false,"is_disabled":false,"rental_uris":{"android":"levelo://app?vid=d462dd8f-aec3-445c-89f6-947e7a4e9853","ios":"levelo://app?vid=d462dd8f-aec3-445c-89f6-947e7a4e9853"},"vehicle_type_id":"4","last_reported":1706364379,"current_range_meters":0,"station_id":"ce4bgup2rcd13ifvqcn0","pricing_plan_id":"free"},{"bike_id":"8e3d020f-e86c-4dd7-82de-1c5fd54293a4","system_id":"levelo_inurba_marseille","lat":43.302784,"lon":5.377158,"is_reserved":false,"is_disabled":false,"rental_uris":{"android":"levelo://app?vid=8e3d020f-e86c-4dd7-82de-1c5fd54293a4","ios":"levelo://app?vid=8e3d020f-e86c-4dd7-82de-1c5fd54293a4"},"vehicle_type_id":"4","last_reported":1706364379,"current_range_meters":20000,"station_id":"ce4bguh2rcd13ifvqcj0","pricing_plan_id":"free"},{"bike_id":"86d4df1c-8a93-45a8-af3f-2f4e9388b4dd","system_id":"levelo_inurba_marseille","lat":43.302784,"lon":5.377158,"is_reserved":false,"is_disabled":false,"rental_uris":{"android":"levelo://app?vid=86d4df1c-8a93-45a8-af3f-2f4e9388b4dd","ios":"levelo://app?vid=86d4df1c-8a93-45a8-af3f-2f4e9388b4dd"},"vehicle_type_id":"4","last_reported":1706364379,"current_range_meters":0,"station_id":"ce4bguh2rcd13ifvqcj0","pricing_plan_id":"free"},{"bike_id":"5f7ec9ca-defa-4048-96f4-b62ebd1a927a","system_id":"levelo_inurba_marseille","lat":43.319935,"lon":5.381699,"is_reserved":false,"is_disabled":false,"rental_uris":{"android":"levelo://app?vid=5f7ec9ca-defa-4048-96f4-b62ebd1a927a","ios":"levelo://app?vid=5f7ec9ca-defa-4048-96f4-b62ebd1a927a"},"vehicle_type_id":"4","last_reported":1706364379,"current_range_meters":19200,"station_id":"ce4bhr12rcd13ifvqhpg","pricing_plan_id":"free"},{"bike_id":"ae7ab608-8fac-4c0d-9f43-8ffacb07a49d","system_id":"levelo_inurba_marseille","lat":43.319935,"lon":5.381699,"is_reserved":false,"is_disabled":false,"rental_uris":{"android":"levelo://app?vid=ae7ab608-8fac-4c0d-9f43-8ffacb07a49d","ios":"levelo://app?vid=ae7ab608-8fac-4c0d-9f43-8ffacb07a49d"},"vehicle_type_id":"4","last_reported":1706364379,"current_range_meters":3600,"station_id":"ce4bhr12rcd13ifvqhpg","pricing_plan_id":"free"},{"bike_id":"d11a1f3a-d548-483b-8bfb-a3d43524c954","system_id":"levelo_inurba_marseille","lat":43.319935,"lon":5.381699,"is_reserved":false,"is_disabled":false,"rental_uris":{"android":"levelo://app?vid=d11a1f3a-d548-483b-8bfb-a3d43524c954","ios":"levelo://app?vid=d11a1f3a-d548-483b-8bfb-a3d43524c954"},"vehicle_type_id":"4","last_reported":1706364379,"current_range_meters":31200,"station_id":"ce4bhr12rcd13ifvqhpg","pricing_plan_id":"free"},{"bike_id":"f7b1efc0-1961-4895-ae9d-0ad221e9232d","system_id":"levelo_inurba_marseille","lat":43.319935,"lon":5.381699,"is_reserved":false,"is_disabled":false,"rental_uris":{"android":"levelo://app?vid=f7b1efc0-1961-4895-ae9d-0ad221e9232d","ios":"levelo://app?vid=f7b1efc0-1961-4895-ae9d-0ad221e9232d"},"vehicle_type_id":"4","last_reported":1706364379,"current_range_meters":28800,"station_id":"ce4bhr12rcd13ifvqhpg","pricing_plan_id":"free"},{"bike_id":"fbd1c7c8-59f4-40f3-bd13-92a41198f404","system_id":"levelo_inurba_marseille","lat":43.319935,"lon":5.381699,"is_reserved":false,"is_disabled":false,"rental_uris":{"android":"levelo://app?vid=fbd1c7c8-59f4-40f3-bd13-92a41198f404","ios":"levelo://app?vid=fbd1c7c8-59f4-40f3-bd13-92a41198f404"},"vehicle_type_id":"4","last_reported":1706364379,"current_range_meters":16400,"station_id":"ce4bhr12rcd13ifvqhpg","pricing_plan_id":"free"},{"bike_id":"d1b56211-7f32-4508-8a86-a5eda1f18dae","system_id":"levelo_inurba_marseille","lat":43.299724,"lon":5.371829,"is_reserved":false,"is_disabled":false,"rental_uris":{"android":"levelo://app?vid=d1b56211-7f32-4508-8a86-a5eda1f18dae","ios":"levelo://app?vid=d1b56211-7f32-4508-8a86-a5eda1f18dae"},"vehicle_type_id":"4","last_reported":1706364379,"current_range_meters":15200,"station_id":"ce4bgr92rcd13ifvqc7g","pricing_plan_id":"free"},{"bike_id":"35be57aa-0dbd-441d-8194-c082e4f36312","system_id":"levelo_inurba_marseille","lat":43.299222,"lon":5.365554,"is_reserved":false,"is_disabled":false,"rental_uris":{"android":"levelo://app?vid=35be57aa-0dbd-441d-8194-c082e4f36312","ios":"levelo://app?vid=35be57aa-0dbd-441d-8194-c082e4f36312"},"vehicle_type_id":"4","last_reported":1706364379,"current_range_meters":0,"station_id":"ce4bgm92rcd13ifvqbr0","pricing_plan_id":"free"},{"bike_id":"577b5854-0dbe-44ba-9184-ead73c951963","system_id":"levelo_inurba_marseille","lat":43.299724,"lon":5.371829,"is_reserved":false,"is_disabled":false,"rental_uris":{"android":"levelo://app?vid=577b5854-0dbe-44ba-9184-ead73c951963","ios":"levelo://app?vid=577b5854-0dbe-44ba-9184-ead73c951963"},"vehicle_type_id":"4","last_reported":1706364379,"current_range_meters":16800,"station_id":"ce4bgr92rcd13ifvqc7g","pricing_plan_id":"free"},{"bike_id":"8a11a7b4-7b5a-46bf-979a-c05c142b1199","system_id":"levelo_inurba_marseille","lat":43.298433,"lon":5.362774,"is_reserved":false,"is_disabled":false,"rental_uris":{"android":"levelo://app?vid=8a11a7b4-7b5a-46bf-979a-c05c142b1199","ios":"levelo://app?vid=8a11a7b4-7b5a-46bf-979a-c05c142b1199"},"vehicle_type_id":"4","last_reported":1706364379,"current_range_meters":5200,"station_id":"ce4bgpp2rcd13ifvqc3g","pricing_plan_id":"free"},{"bike_id":"31f5579b-6409-47b8-8445-14a3f54ee1ab","system_id":"levelo_inurba_marseille","lat":43.298433,"lon":5.362774,"is_reserved":false,"is_disabled":false,"rental_uris":{"android":"levelo://app?vid=31f5579b-6409-47b8-8445-14a3f54ee1ab","ios":"levelo://app?vid=31f5579b-6409-47b8-8445-14a3f54ee1ab"},"vehicle_type_id":"4","last_reported":1706364379,"current_range_meters":32000,"station_id":"ce4bgpp2rcd13ifvqc3g","pricing_plan_id":"free"},{"bike_id":"1d565cca-b8a9-41e8-ae50-ce8459202708","system_id":"levelo_inurba_marseille","lat":43.298433,"lon":5.362774,"is_reserved":false,"is_disabled":false,"rental_uris":{"android":"levelo://app?vid=1d565cca-b8a9-41e8-ae50-ce8459202708","ios":"levelo://app?vid=1d565cca-b8a9-41e8-ae50-ce8459202708"},"vehicle_type_id":"4","last_reported":1706364379,"current_range_meters":800,"station_id":"ce4bgpp2rcd13ifvqc3g","pricing_plan_id":"free"},{"bike_id":"532e3d62-437b-4a4c-9599-63bcee3a14a6","system_id":"levelo_inurba_marseille","lat":43.298433,"lon":5.362774,"is_reserved":false,"is_disabled":false,"rental_uris":{"android":"levelo://app?vid=532e3d62-437b-4a4c-9599-63bcee3a14a6","ios":"levelo://app?vid=532e3d62-437b-4a4c-9599-63bcee3a14a6"},"vehicle_type_id":"4","last_reported":1706364379,"current_range_meters":17200,"station_id":"ce4bgpp2rcd13ifvqc3g","pricing_plan_id":"free"},{"bike_id":"3f45193f-1e6d-4b01-a589-c30bbcdb8ff2","system_id":"levelo_inurba_marseille","lat":43.298433,"lon":5.362774,"is_reserved":false,"is_disabled":false,"rental_uris":{"android":"levelo://app?vid=3f45193f-1e6d-4b01-a589-c30bbcdb8ff2","ios":"levelo://app?vid=3f45193f-1e6d-4b01-a589-c30bbcdb8ff2"},"vehicle_type_id":"4","last_reported":1706364379,"current_range_meters":18800,"station_id":"ce4bgpp2rcd13ifvqc3g","pricing_plan_id":"free"},{"bike_id":"603dcf44-cfcc-4ee7-919f-5b51ed1c09c6","system_id":"levelo_inurba_marseille","lat":43.298435,"lon":5.362697,"is_reserved":false,"is_disabled":false,"rental_uris":{"android":"levelo://app?vid=603dcf44-cfcc-4ee7-919f-5b51ed1c09c6","ios":"levelo://app?vid=603dcf44-cfcc-4ee7-919f-5b51ed1c09c6"},"vehicle_type_id":"4","last_reported":1706364379,"current_range_meters":7600,"station_id":"ce4bgpp2rcd13ifvqc3g","pricing_plan_id":"free"},{"bike_id":"8d20a8f9-dc33-4493-93d2-4a55be2224e0","system_id":"levelo_inurba_marseille","lat":43.311722,"lon":5.387247,"is_reserved":false,"is_disabled":false,"rental_uris":{"android":"levelo://app?vid=8d20a8f9-dc33-4493-93d2-4a55be2224e0","ios":"levelo://app?vid=8d20a8f9-dc33-4493-93d2-4a55be2224e0"},"vehicle_type_id":"4","last_reported":1706364379,"current_range_meters":24800,"station_id":"ce4bgv12rcd13ifvqcp0","pricing_plan_id":"free"},{"bike_id":"a0abede4-af26-4761-b57b-30330fd411cc","system_id":"levelo_inurba_marseille","lat":43.311722,"lon":5.387247,"is_reserved":false,"is_disabled":false,"rental_uris":{"android":"levelo://app?vid=a0abede4-af26-4761-b57b-30330fd411cc","ios":"levelo://app?vid=a0abede4-af26-4761-b57b-30330fd411cc"},"vehicle_type_id":"4","last_reported":1706364379,"current_range_meters":19600,"station_id":"ce4bgv12rcd13ifvqcp0","pricing_plan_id":"free"},{"bike_id":"965a5dab-e227-4efc-b518-9780186a9de9","system_id":"levelo_inurba_marseille","lat":43.322869,"lon":5.382598,"is_reserved":false,"is_disabled":false,"rental_uris":{"android":"levelo://app?vid=965a5dab-e227-4efc-b518-9780186a9de9","ios":"levelo://app?vid=965a5dab-e227-4efc-b518-9780186a9de9"},"vehicle_type_id":"4","last_reported":1706364379,"current_range_meters":23600,"station_id":"ce4bhr12rcd13ifvqhqg","pricing_plan_id":"free"},{"bike_id":"416475d6-ef00-46bd-9618-e51e0a232531","system_id":"levelo_inurba_marseille","lat":43.32285,"lon":5.3827,"is_reserved":false,"is_disabled":false,"rental_uris":{"android":"levelo://app?vid=416475d6-ef00-46bd-9618-e51e0a232531","ios":"levelo://app?vid=416475d6-ef00-46bd-9618-e51e0a232531"},"vehicle_type_id":"4","last_reported":1706364379,"current_range_meters":31200,"station_id":"ce4bhr12rcd13ifvqhqg","pricing_plan_id":"free"},{"bike_id":"5e98879a-df25-42d7-a72e-59c9369b5f46","system_id":"levelo_inurba_marseille","lat":43.32288,"lon":5.38267,"is_reserved":false,"is_disabled":false,"rental_uris":{"android":"levelo://app?vid=5e98879a-df25-42d7-a72e-59c9369b5f46","ios":"levelo://app?vid=5e98879a-df25-42d7-a72e-59c9369b5f46"},"vehicle_type_id":"4","last_reported":1706364379,"current_range_meters":31200,"station_id":"ce4bhr12rcd13ifvqhqg","pricing_plan_id":"free"},{"bike_id":"b55debf1-7d4d-4ad7-a363-824a1cef763f","system_id":"levelo_inurba_marseille","lat":43.322872,"lon":5.382756,"is_reserved":false,"is_disabled":false,"rental_uris":{"android":"levelo://app?vid=b55debf1-7d4d-4ad7-a363-824a1cef763f","ios":"levelo://app?vid=b55debf1-7d4d-4ad7-a363-824a1cef763f"},"vehicle_type_id":"4","last_reported":1706364379,"current_range_meters":27200,"station_id":"ce4bhr12rcd13ifvqhqg","pricing_plan_id":"free"},{"bike_id":"3f8e6f12-b7bc-4955-8ca9-56a69dad498d","system_id":"levelo_inurba_marseille","lat":43.32826,"lon":5.3669,"is_reserved":false,"is_disabled":false,"rental_uris":{"android":"levelo://app?vid=3f8e6f12-b7bc-4955-8ca9-56a69dad498d","ios":"levelo://app?vid=3f8e6f12-b7bc-4955-8ca9-56a69dad498d"},"vehicle_type_id":"4","last_reported":1706364379,"current_range_meters":29200,"station_id":"ce4bhs92rcd13ifvqi0g","pricing_plan_id":"free"},{"bike_id":"31c884b6-24f3-4ad2-b153-4d91b407eb8c","system_id":"levelo_inurba_marseille","lat":43.32826,"lon":5.36681,"is_reserved":false,"is_disabled":false,"rental_uris":{"android":"levelo://app?vid=31c884b6-24f3-4ad2-b153-4d91b407eb8c","ios":"levelo://app?vid=31c884b6-24f3-4ad2-b153-4d91b407eb8c"},"vehicle_type_id":"4","last_reported":1706364379,"current_range_meters":21200,"station_id":"ce4bhs92rcd13ifvqi0g","pricing_plan_id":"free"},{"bike_id":"244a4fc7-d0a6-4033-a99b-922bd5440adc","system_id":"levelo_inurba_marseille","lat":43.32827,"lon":5.36688,"is_reserved":false,"is_disabled":false,"rental_uris":{"android":"levelo://app?vid=244a4fc7-d0a6-4033-a99b-922bd5440adc","ios":"levelo://app?vid=244a4fc7-d0a6-4033-a99b-922bd5440adc"},"vehicle_type_id":"4","last_reported":1706364379,"current_range_meters":6400,"station_id":"ce4bhs92rcd13ifvqi0g","pricing_plan_id":"free"},{"bike_id":"c0bacbb9-2761-4491-a8c1-93af05373d9b","system_id":"levelo_inurba_marseille","lat":43.32829,"lon":5.36677,"is_reserved":false,"is_disabled":false,"rental_uris":{"android":"levelo://app?vid=c0bacbb9-2761-4491-a8c1-93af05373d9b","ios":"levelo://app?vid=c0bacbb9-2761-4491-a8c1-93af05373d9b"},"vehicle_type_id":"4","last_reported":1706364379,"current_range_meters":20000,"station_id":"ce4bhs92rcd13ifvqi0g","pricing_plan_id":"free"},{"bike_id":"12edd8fe-ac42-424b-86a0-ddbc64b4f114","system_id":"levelo_inurba_marseille","lat":43.32834,"lon":5.36692,"is_reserved":false,"is_disabled":false,"rental_uris":{"android":"levelo://app?vid=12edd8fe-ac42-424b-86a0-ddbc64b4f114","ios":"levelo://app?vid=12edd8fe-ac42-424b-86a0-ddbc64b4f114"},"vehicle_type_id":"4","last_reported":1706364379,"current_range_meters":17600,"station_id":"ce4bhs92rcd13ifvqi0g","pricing_plan_id":"free"},{"bike_id":"0001113a-58de-4572-81b9-6c8ab7a052c7","system_id":"levelo_inurba_marseille","lat":43.297163,"lon":5.365866,"is_reserved":false,"is_disabled":false,"rental_uris":{"android":"levelo://app?vid=0001113a-58de-4572-81b9-6c8ab7a052c7","ios":"levelo://app?vid=0001113a-58de-4572-81b9-6c8ab7a052c7"},"vehicle_type_id":"4","last_reported":1706364379,"current_range_meters":26400,"station_id":"ce4bgn12rcd13ifvqbt0","pricing_plan_id":"free"},{"bike_id":"27041c54-264e-424f-9933-32866bc297c0","system_id":"levelo_inurba_marseille","lat":43.296131,"lon":5.370791,"is_reserved":false,"is_disabled":false,"rental_uris":{"android":"levelo://app?vid=27041c54-264e-424f-9933-32866bc297c0","ios":"levelo://app?vid=27041c54-264e-424f-9933-32866bc297c0"},"vehicle_type_id":"4","last_reported":1706364379,"current_range_meters":0,"station_id":"ce4bgnh2rcd13ifvqc0g","pricing_plan_id":"free"},{"bike_id":"60868621-c06a-4939-b5cc-58240fa56845","system_id":"levelo_inurba_marseille","lat":43.29573,"lon":5.367355,"is_reserved":false,"is_disabled":false,"rental_uris":{"android":"levelo://app?vid=60868621-c06a-4939-b5cc-58240fa56845","ios":"levelo://app?vid=60868621-c06a-4939-b5cc-58240fa56845"},"vehicle_type_id":"4","last_reported":1706364379,"current_range_meters":10800,"station_id":"ce4bgph2rcd13ifvqc2g","pricing_plan_id":"free"},{"bike_id":"a1977d52-ec39-45dd-b03e-134a59b71636","system_id":"levelo_inurba_marseille","lat":43.29573,"lon":5.367355,"is_reserved":false,"is_disabled":false,"rental_uris":{"android":"levelo://app?vid=a1977d52-ec39-45dd-b03e-134a59b71636","ios":"levelo://app?vid=a1977d52-ec39-45dd-b03e-134a59b71636"},"vehicle_type_id":"4","last_reported":1706364379,"current_range_meters":8000,"station_id":"ce4bgph2rcd13ifvqc2g","pricing_plan_id":"free"},{"bike_id":"0b9247d9-5fef-4b69-b887-b46d8cda0cf8","system_id":"levelo_inurba_marseille","lat":43.296935,"lon":5.376544,"is_reserved":false,"is_disabled":false,"rental_uris":{"android":"levelo://app?vid=0b9247d9-5fef-4b69-b887-b46d8cda0cf8","ios":"levelo://app?vid=0b9247d9-5fef-4b69-b887-b46d8cda0cf8"},"vehicle_type_id":"4","last_reported":1706364379,"current_range_meters":27600,"station_id":"ce4bgkh2rcd13ifvqbl0","pricing_plan_id":"free"},{"bike_id":"5849c8f1-de07-480c-ab10-c023b55280ba","system_id":"levelo_inurba_marseille","lat":43.322193,"lon":5.386904,"is_reserved":false,"is_disabled":false,"rental_uris":{"android":"levelo://app?vid=5849c8f1-de07-480c-ab10-c023b55280ba","ios":"levelo://app?vid=5849c8f1-de07-480c-ab10-c023b55280ba"},"vehicle_type_id":"4","last_reported":1706364379,"current_range_meters":2400,"station_id":"","pricing_plan_id":"free"},{"bike_id":"31ed45a0-50e5-4d96-bdc9-f8dd9f74df53","system_id":"levelo_inurba_marseille","lat":43.296921,"lon":5.376579,"is_reserved":false,"is_disabled":false,"rental_uris":{"android":"levelo://app?vid=31ed45a0-50e5-4d96-bdc9-f8dd9f74df53","ios":"levelo://app?vid=31ed45a0-50e5-4d96-bdc9-f8dd9f74df53"},"vehicle_type_id":"4","last_reported":1706364379,"current_range_meters":18400,"station_id":"ce4bgkh2rcd13ifvqbl0","pricing_plan_id":"free"},{"bike_id":"9fd3e2ec-b05c-4072-abd0-97b2e58eb80e","system_id":"levelo_inurba_marseille","lat":43.295748,"lon":5.37522,"is_reserved":false,"is_disabled":false,"rental_uris":{"android":"levelo://app?vid=9fd3e2ec-b05c-4072-abd0-97b2e58eb80e","ios":"levelo://app?vid=9fd3e2ec-b05c-4072-abd0-97b2e58eb80e"},"vehicle_type_id":"4","last_reported":1706364379,"current_range_meters":7600,"station_id":"ce4bgh92rcd13ifvqb50","pricing_plan_id":"free"},{"bike_id":"95e8d2c0-a933-469a-b9f2-ee41d7d28c81","system_id":"levelo_inurba_marseille","lat":43.298037,"lon":5.381066,"is_reserved":false,"is_disabled":false,"rental_uris":{"android":"levelo://app?vid=95e8d2c0-a933-469a-b9f2-ee41d7d28c81","ios":"levelo://app?vid=95e8d2c0-a933-469a-b9f2-ee41d7d28c81"},"vehicle_type_id":"4","last_reported":1706364379,"current_range_meters":5200,"station_id":"ce4bgip2rcd13ifvqbb0","pricing_plan_id":"free"},{"bike_id":"8371f54d-027e-47cf-b192-30a453b06bc0","system_id":"levelo_inurba_marseille","lat":43.298037,"lon":5.381066,"is_reserved":false,"is_disabled":false,"rental_uris":{"android":"levelo://app?vid=8371f54d-027e-47cf-b192-30a453b06bc0","ios":"levelo://app?vid=8371f54d-027e-47cf-b192-30a453b06bc0"},"vehicle_type_id":"4","last_reported":1706364379,"current_range_meters":28000,"station_id":"ce4bgip2rcd13ifvqbb0","pricing_plan_id":"free"},{"bike_id":"6b47e0c3-1513-44b0-90cb-bfa441b2735e","system_id":"levelo_inurba_marseille","lat":43.295748,"lon":5.37522,"is_reserved":false,"is_disabled":false,"rental_uris":{"android":"levelo://app?vid=6b47e0c3-1513-44b0-90cb-bfa441b2735e","ios":"levelo://app?vid=6b47e0c3-1513-44b0-90cb-bfa441b2735e"},"vehicle_type_id":"4","last_reported":1706364379,"current_range_meters":14000,"station_id":"ce4bgh92rcd13ifvqb50","pricing_plan_id":"free"},{"bike_id":"3def380e-130d-41e9-ae70-109bf8c7522e","system_id":"levelo_inurba_marseille","lat":43.295748,"lon":5.37522,"is_reserved":false,"is_disabled":false,"rental_uris":{"android":"levelo://app?vid=3def380e-130d-41e9-ae70-109bf8c7522e","ios":"levelo://app?vid=3def380e-130d-41e9-ae70-109bf8c7522e"},"vehicle_type_id":"4","last_reported":1706364379,"current_range_meters":7200,"station_id":"ce4bgh92rcd13ifvqb50","pricing_plan_id":"free"},{"bike_id":"1aad4155-36c8-4b21-b1d5-41f928a5f93b","system_id":"levelo_inurba_marseille","lat":43.299707,"lon":5.384859,"is_reserved":false,"is_disabled":false,"rental_uris":{"android":"levelo://app?vid=1aad4155-36c8-4b21-b1d5-41f928a5f93b","ios":"levelo://app?vid=1aad4155-36c8-4b21-b1d5-41f928a5f93b"},"vehicle_type_id":"4","last_reported":1706364379,"current_range_meters":0,"station_id":"ce4bgj92rcd13ifvqbd0","pricing_plan_id":"free"},{"bike_id":"b4108169-16cb-4ab8-ad66-9ac7abcc6663","system_id":"levelo_inurba_marseille","lat":43.295279,"lon":5.375048,"is_reserved":false,"is_disabled":false,"rental_uris":{"android":"levelo://app?vid=b4108169-16cb-4ab8-ad66-9ac7abcc6663","ios":"levelo://app?vid=b4108169-16cb-4ab8-ad66-9ac7abcc6663"},"vehicle_type_id":"4","last_reported":1706364379,"current_range_meters":9200,"station_id":"ce4bgkp2rcd13ifvqbmg","pricing_plan_id":"free"},{"bike_id":"7d662c4c-6b14-48b6-b4db-7c24dc77234b","system_id":"levelo_inurba_marseille","lat":43.294793,"lon":5.375258,"is_reserved":false,"is_disabled":false,"rental_uris":{"android":"levelo://app?vid=7d662c4c-6b14-48b6-b4db-7c24dc77234b","ios":"levelo://app?vid=7d662c4c-6b14-48b6-b4db-7c24dc77234b"},"vehicle_type_id":"4","last_reported":1706364379,"current_range_meters":20000,"station_id":"ce4bgkp2rcd13ifvqbmg","pricing_plan_id":"free"},{"bike_id":"b30e6ccd-1f1d-472e-9458-e4ea58c26d09","system_id":"levelo_inurba_marseille","lat":43.29602,"lon":5.381084,"is_reserved":false,"is_disabled":false,"rental_uris":{"android":"levelo://app?vid=b30e6ccd-1f1d-472e-9458-e4ea58c26d09","ios":"levelo://app?vid=b30e6ccd-1f1d-472e-9458-e4ea58c26d09"},"vehicle_type_id":"4","last_reported":1706364379,"current_range_meters":21600,"station_id":"ce4bgl12rcd13ifvqbo0","pricing_plan_id":"free"},{"bike_id":"44d9a55c-86d6-49ff-8ef5-8c02dc119694","system_id":"levelo_inurba_marseille","lat":43.293259,"lon":5.371586,"is_reserved":false,"is_disabled":false,"rental_uris":{"android":"levelo://app?vid=44d9a55c-86d6-49ff-8ef5-8c02dc119694","ios":"levelo://app?vid=44d9a55c-86d6-49ff-8ef5-8c02dc119694"},"vehicle_type_id":"4","last_reported":1706364379,"current_range_meters":19600,"station_id":"ce4bgh92rcd13ifvqb40","pricing_plan_id":"free"},{"bike_id":"e21ae2db-a290-4eb2-b9f2-4addd31547a3","system_id":"levelo_inurba_marseille","lat":43.292749,"lon":5.368402,"is_reserved":false,"is_disabled":false,"rental_uris":{"android":"levelo://app?vid=e21ae2db-a290-4eb2-b9f2-4addd31547a3","ios":"levelo://app?vid=e21ae2db-a290-4eb2-b9f2-4addd31547a3"},"vehicle_type_id":"4","last_reported":1706364379,"current_range_meters":22000,"station_id":"ce4bhbp2rcd13ifvqesg","pricing_plan_id":"free"},{"bike_id":"aa485d7e-5cd1-4d9e-ae0c-cb885f9440e0","system_id":"levelo_inurba_marseille","lat":43.29311,"lon":5.37451,"is_reserved":false,"is_disabled":false,"rental_uris":{"android":"levelo://app?vid=aa485d7e-5cd1-4d9e-ae0c-cb885f9440e0","ios":"levelo://app?vid=aa485d7e-5cd1-4d9e-ae0c-cb885f9440e0"},"vehicle_type_id":"4","last_reported":1706364379,"current_range_meters":4800,"station_id":"ce4bgi12rcd13ifvqb70","pricing_plan_id":"free"},{"bike_id":"93c9c485-aa7c-4dd5-a67c-7acc2d8419d5","system_id":"levelo_inurba_marseille","lat":43.28856,"lon":5.358371,"is_reserved":false,"is_disabled":false,"rental_uris":{"android":"levelo://app?vid=93c9c485-aa7c-4dd5-a67c-7acc2d8419d5","ios":"levelo://app?vid=93c9c485-aa7c-4dd5-a67c-7acc2d8419d5"},"vehicle_type_id":"4","last_reported":1706364379,"current_range_meters":0,"station_id":"ce4bhb12rcd13ifvqem0","pricing_plan_id":"free"},{"bike_id":"2cdd5039-e8ec-441b-9bd5-4c34b690b828","system_id":"levelo_inurba_marseille","lat":43.304942,"lon":5.394216,"is_reserved":false,"is_disabled":false,"rental_uris":{"android":"levelo://app?vid=2cdd5039-e8ec-441b-9bd5-4c34b690b828","ios":"levelo://app?vid=2cdd5039-e8ec-441b-9bd5-4c34b690b828"},"vehicle_type_id":"4","last_reported":1706364379,"current_range_meters":20400,"station_id":"","pricing_plan_id":"free"},{"bike_id":"d7cd8602-1223-4573-86bc-956d841d4758","system_id":"levelo_inurba_marseille","lat":43.309038,"lon":5.396546,"is_reserved":false,"is_disabled":false,"rental_uris":{"android":"levelo://app?vid=d7cd8602-1223-4573-86bc-956d841d4758","ios":"levelo://app?vid=d7cd8602-1223-4573-86bc-956d841d4758"},"vehicle_type_id":"4","last_reported":1706364379,"current_range_meters":2000,"station_id":"ce4bh012rcd13ifvqcv0","pricing_plan_id":"free"},{"bike_id":"fa7176e9-316f-4ff0-bb6f-f8fbb978cb08","system_id":"levelo_inurba_marseille","lat":43.29529,"lon":5.385581,"is_reserved":false,"is_disabled":false,"rental_uris":{"android":"levelo://app?vid=fa7176e9-316f-4ff0-bb6f-f8fbb978cb08","ios":"levelo://app?vid=fa7176e9-316f-4ff0-bb6f-f8fbb978cb08"},"vehicle_type_id":"4","last_reported":1706364379,"current_range_meters":26000,"station_id":"ce4bgih2rcd13ifvqba0","pricing_plan_id":"free"},{"bike_id":"62571c72-864b-4f55-ad4b-ea38d11df251","system_id":"levelo_inurba_marseille","lat":43.29529,"lon":5.385581,"is_reserved":false,"is_disabled":false,"rental_uris":{"android":"levelo://app?vid=62571c72-864b-4f55-ad4b-ea38d11df251","ios":"levelo://app?vid=62571c72-864b-4f55-ad4b-ea38d11df251"},"vehicle_type_id":"4","last_reported":1706364379,"current_range_meters":3200,"station_id":"ce4bgih2rcd13ifvqba0","pricing_plan_id":"free"},{"bike_id":"c9abdb21-4238-4fa4-b454-0f82c42d1eca","system_id":"levelo_inurba_marseille","lat":43.29529,"lon":5.385581,"is_reserved":false,"is_disabled":false,"rental_uris":{"android":"levelo://app?vid=c9abdb21-4238-4fa4-b454-0f82c42d1eca","ios":"levelo://app?vid=c9abdb21-4238-4fa4-b454-0f82c42d1eca"},"vehicle_type_id":"4","last_reported":1706364379,"current_range_meters":8000,"station_id":"ce4bgih2rcd13ifvqba0","pricing_plan_id":"free"},{"bike_id":"95abf530-63f0-4775-a2d1-bd8f96baa716","system_id":"levelo_inurba_marseille","lat":43.290779,"lon":5.371482,"is_reserved":false,"is_disabled":false,"rental_uris":{"android":"levelo://app?vid=95abf530-63f0-4775-a2d1-bd8f96baa716","ios":"levelo://app?vid=95abf530-63f0-4775-a2d1-bd8f96baa716"},"vehicle_type_id":"4","last_reported":1706364379,"current_range_meters":14400,"station_id":"ce4bh5p2rcd13ifvqe4g","pricing_plan_id":"free"},{"bike_id":"41b2e16a-ec07-49fd-893b-e278e787796e","system_id":"levelo_inurba_marseille","lat":43.290779,"lon":5.371482,"is_reserved":false,"is_disabled":false,"rental_uris":{"android":"levelo://app?vid=41b2e16a-ec07-49fd-893b-e278e787796e","ios":"levelo://app?vid=41b2e16a-ec07-49fd-893b-e278e787796e"},"vehicle_type_id":"4","last_reported":1706364379,"current_range_meters":11600,"station_id":"ce4bh5p2rcd13ifvqe4g","pricing_plan_id":"free"},{"bike_id":"be470bb2-77b0-433a-9afe-7d1db00aa078","system_id":"levelo_inurba_marseille","lat":43.290441,"lon":5.359123,"is_reserved":false,"is_disabled":false,"rental_uris":{"android":"levelo://app?vid=be470bb2-77b0-433a-9afe-7d1db00aa078","ios":"levelo://app?vid=be470bb2-77b0-433a-9afe-7d1db00aa078"},"vehicle_type_id":"4","last_reported":1706364379,"current_range_meters":29200,"station_id":"","pricing_plan_id":"free"},{"bike_id":"175dc544-f7cf-4e18-9fcc-5f6a07fa31ac","system_id":"levelo_inurba_marseille","lat":43.289184,"lon":5.366408,"is_reserved":false,"is_disabled":false,"rental_uris":{"android":"levelo://app?vid=175dc544-f7cf-4e18-9fcc-5f6a07fa31ac","ios":"levelo://app?vid=175dc544-f7cf-4e18-9fcc-5f6a07fa31ac"},"vehicle_type_id":"4","last_reported":1706364379,"current_range_meters":13200,"station_id":"ce4bhap2rcd13ifvqek0","pricing_plan_id":"free"},{"bike_id":"35297fff-d3ba-49b2-ae6f-a95bc98191b2","system_id":"levelo_inurba_marseille","lat":43.294153,"lon":5.386305,"is_reserved":false,"is_disabled":false,"rental_uris":{"android":"levelo://app?vid=35297fff-d3ba-49b2-ae6f-a95bc98191b2","ios":"levelo://app?vid=35297fff-d3ba-49b2-ae6f-a95bc98191b2"},"vehicle_type_id":"4","last_reported":1706364379,"current_range_meters":4000,"station_id":"ce4bh2h2rcd13ifvqdh0","pricing_plan_id":"free"},{"bike_id":"0f4712ab-14a0-46fc-8f61-f443b59fcbfe","system_id":"levelo_inurba_marseille","lat":43.294162,"lon":5.386292,"is_reserved":false,"is_disabled":false,"rental_uris":{"android":"levelo://app?vid=0f4712ab-14a0-46fc-8f61-f443b59fcbfe","ios":"levelo://app?vid=0f4712ab-14a0-46fc-8f61-f443b59fcbfe"},"vehicle_type_id":"4","last_reported":1706364379,"current_range_meters":17600,"station_id":"ce4bh2h2rcd13ifvqdh0","pricing_plan_id":"free"},{"bike_id":"50bca9b3-0a41-4676-bcfe-92fad867cc69","system_id":"levelo_inurba_marseille","lat":43.294153,"lon":5.386305,"is_reserved":false,"is_disabled":false,"rental_uris":{"android":"levelo://app?vid=50bca9b3-0a41-4676-bcfe-92fad867cc69","ios":"levelo://app?vid=50bca9b3-0a41-4676-bcfe-92fad867cc69"},"vehicle_type_id":"4","last_reported":1706364379,"current_range_meters":800,"station_id":"ce4bh2h2rcd13ifvqdh0","pricing_plan_id":"free"},{"bike_id":"c60b7f18-29e2-40f7-b97c-cc86f3c05602","system_id":"levelo_inurba_marseille","lat":43.289184,"lon":5.366408,"is_reserved":false,"is_disabled":false,"rental_uris":{"android":"levelo://app?vid=c60b7f18-29e2-40f7-b97c-cc86f3c05602","ios":"levelo://app?vid=c60b7f18-29e2-40f7-b97c-cc86f3c05602"},"vehicle_type_id":"4","last_reported":1706364379,"current_range_meters":14000,"station_id":"ce4bhap2rcd13ifvqek0","pricing_plan_id":"free"},{"bike_id":"d54ee0c1-2212-4523-97ba-b18c82e47f09","system_id":"levelo_inurba_marseille","lat":43.289184,"lon":5.366408,"is_reserved":false,"is_disabled":false,"rental_uris":{"android":"levelo://app?vid=d54ee0c1-2212-4523-97ba-b18c82e47f09","ios":"levelo://app?vid=d54ee0c1-2212-4523-97ba-b18c82e47f09"},"vehicle_type_id":"4","last_reported":1706364379,"current_range_meters":4000,"station_id":"ce4bhap2rcd13ifvqek0","pricing_plan_id":"free"},{"bike_id":"6dee7e03-cdd7-4e01-b416-67741d2c0242","system_id":"levelo_inurba_marseille","lat":43.289184,"lon":5.366408,"is_reserved":false,"is_disabled":false,"rental_uris":{"android":"levelo://app?vid=6dee7e03-cdd7-4e01-b416-67741d2c0242","ios":"levelo://app?vid=6dee7e03-cdd7-4e01-b416-67741d2c0242"},"vehicle_type_id":"4","last_reported":1706364379,"current_range_meters":3200,"station_id":"ce4bhap2rcd13ifvqek0","pricing_plan_id":"free"},{"bike_id":"726624bb-e9d6-4e29-9388-7db2a0a55c64","system_id":"levelo_inurba_marseille","lat":43.292642,"lon":5.384254,"is_reserved":false,"is_disabled":false,"rental_uris":{"android":"levelo://app?vid=726624bb-e9d6-4e29-9388-7db2a0a55c64","ios":"levelo://app?vid=726624bb-e9d6-4e29-9388-7db2a0a55c64"},"vehicle_type_id":"4","last_reported":1706364379,"current_range_meters":8800,"station_id":"ce4bh692rcd13ifvqea0","pricing_plan_id":"free"},{"bike_id":"4d794a6c-75ba-43fc-a6a6-3651293786c5","system_id":"levelo_inurba_marseille","lat":43.29264,"lon":5.38461,"is_reserved":false,"is_disabled":false,"rental_uris":{"android":"levelo://app?vid=4d794a6c-75ba-43fc-a6a6-3651293786c5","ios":"levelo://app?vid=4d794a6c-75ba-43fc-a6a6-3651293786c5"},"vehicle_type_id":"4","last_reported":1706364379,"current_range_meters":8400,"station_id":"ce4bh692rcd13ifvqea0","pricing_plan_id":"free"},{"bike_id":"79a06bed-b6fc-45a1-82f5-4c17f490d569","system_id":"levelo_inurba_marseille","lat":43.309197,"lon":5.399526,"is_reserved":false,"is_disabled":false,"rental_uris":{"android":"levelo://app?vid=79a06bed-b6fc-45a1-82f5-4c17f490d569","ios":"levelo://app?vid=79a06bed-b6fc-45a1-82f5-4c17f490d569"},"vehicle_type_id":"4","last_reported":1706364379,"current_range_meters":21200,"station_id":"","pricing_plan_id":"free"},{"bike_id":"a37cc60a-37a5-4973-a9d2-1c36b27ab057","system_id":"levelo_inurba_marseille","lat":43.290104,"lon":5.356111,"is_reserved":false,"is_disabled":false,"rental_uris":{"android":"levelo://app?vid=a37cc60a-37a5-4973-a9d2-1c36b27ab057","ios":"levelo://app?vid=a37cc60a-37a5-4973-a9d2-1c36b27ab057"},"vehicle_type_id":"4","last_reported":1706364379,"current_range_meters":24000,"station_id":"ce4bhb92rcd13ifvqen0","pricing_plan_id":"free"},{"bike_id":"5226007f-34d4-4f32-980e-077700403be1","system_id":"levelo_inurba_marseille","lat":43.290995,"lon":5.381361,"is_reserved":false,"is_disabled":false,"rental_uris":{"android":"levelo://app?vid=5226007f-34d4-4f32-980e-077700403be1","ios":"levelo://app?vid=5226007f-34d4-4f32-980e-077700403be1"},"vehicle_type_id":"4","last_reported":1706364379,"current_range_meters":5200,"station_id":"ce4bh512rcd13ifvqe2g","pricing_plan_id":"free"},{"bike_id":"1407b8e2-11c3-464d-b7bd-c9b928c6b09b","system_id":"levelo_inurba_marseille","lat":43.33021,"lon":5.39047,"is_reserved":false,"is_disabled":false,"rental_uris":{"android":"levelo://app?vid=1407b8e2-11c3-464d-b7bd-c9b928c6b09b","ios":"levelo://app?vid=1407b8e2-11c3-464d-b7bd-c9b928c6b09b"},"vehicle_type_id":"4","last_reported":1706364379,"current_range_meters":30000,"station_id":"ce4bhr92rcd13ifvqhrg","pricing_plan_id":"free"},{"bike_id":"e40cd59e-c067-489d-817b-440f879134bb","system_id":"levelo_inurba_marseille","lat":43.330213,"lon":5.390485,"is_reserved":false,"is_disabled":false,"rental_uris":{"android":"levelo://app?vid=e40cd59e-c067-489d-817b-440f879134bb","ios":"levelo://app?vid=e40cd59e-c067-489d-817b-440f879134bb"},"vehicle_type_id":"4","last_reported":1706364379,"current_range_meters":28400,"station_id":"ce4bhr92rcd13ifvqhrg","pricing_plan_id":"free"},{"bike_id":"17c9044b-1e1a-4ec5-a29a-4d2b191e11f0","system_id":"levelo_inurba_marseille","lat":43.330442,"lon":5.389148,"is_reserved":false,"is_disabled":false,"rental_uris":{"android":"levelo://app?vid=17c9044b-1e1a-4ec5-a29a-4d2b191e11f0","ios":"levelo://app?vid=17c9044b-1e1a-4ec5-a29a-4d2b191e11f0"},"vehicle_type_id":"4","last_reported":1706364379,"current_range_meters":10000,"station_id":"ce4bhr92rcd13ifvqhrg","pricing_plan_id":"free"},{"bike_id":"8f8af2a3-c562-403a-b692-866d183c2eb6","system_id":"levelo_inurba_marseille","lat":43.295169,"lon":5.390426,"is_reserved":false,"is_disabled":false,"rental_uris":{"android":"levelo://app?vid=8f8af2a3-c562-403a-b692-866d183c2eb6","ios":"levelo://app?vid=8f8af2a3-c562-403a-b692-866d183c2eb6"},"vehicle_type_id":"4","last_reported":1706364379,"current_range_meters":13200,"station_id":"ce4bh3p2rcd13ifvqdp0","pricing_plan_id":"free"},{"bike_id":"a78debff-dbfa-4ab5-b53a-e585abebb9b8","system_id":"levelo_inurba_marseille","lat":43.2901,"lon":5.381269,"is_reserved":false,"is_disabled":false,"rental_uris":{"android":"levelo://app?vid=a78debff-dbfa-4ab5-b53a-e585abebb9b8","ios":"levelo://app?vid=a78debff-dbfa-4ab5-b53a-e585abebb9b8"},"vehicle_type_id":"4","last_reported":1706364379,"current_range_meters":23600,"station_id":"ce4bh4p2rcd13ifvqe1g","pricing_plan_id":"free"},{"bike_id":"2ced54f5-d308-4388-b9ec-a18115848d83","system_id":"levelo_inurba_marseille","lat":43.290094,"lon":5.381264,"is_reserved":false,"is_disabled":false,"rental_uris":{"android":"levelo://app?vid=2ced54f5-d308-4388-b9ec-a18115848d83","ios":"levelo://app?vid=2ced54f5-d308-4388-b9ec-a18115848d83"},"vehicle_type_id":"4","last_reported":1706364379,"current_range_meters":30400,"station_id":"ce4bh4p2rcd13ifvqe1g","pricing_plan_id":"free"},{"bike_id":"819320fa-b85f-42df-8461-a81083d56a62","system_id":"levelo_inurba_marseille","lat":43.312609,"lon":5.401662,"is_reserved":false,"is_disabled":false,"rental_uris":{"android":"levelo://app?vid=819320fa-b85f-42df-8461-a81083d56a62","ios":"levelo://app?vid=819320fa-b85f-42df-8461-a81083d56a62"},"vehicle_type_id":"4","last_reported":1706364379,"current_range_meters":28800,"station_id":"ce4bh092rcd13ifvqd30","pricing_plan_id":"free"},{"bike_id":"dd73e869-9d83-4e97-867d-f43f49e84a90","system_id":"levelo_inurba_marseille","lat":43.309371,"lon":5.401449,"is_reserved":false,"is_disabled":false,"rental_uris":{"android":"levelo://app?vid=dd73e869-9d83-4e97-867d-f43f49e84a90","ios":"levelo://app?vid=dd73e869-9d83-4e97-867d-f43f49e84a90"},"vehicle_type_id":"4","last_reported":1706364379,"current_range_meters":28400,"station_id":"ce4bgvp2rcd13ifvqct0","pricing_plan_id":"free"},{"bike_id":"b7f12eab-e0a6-499e-87ec-2b4381c4602a","system_id":"levelo_inurba_marseille","lat":43.33752,"lon":5.37476,"is_reserved":false,"is_disabled":false,"rental_uris":{"android":"levelo://app?vid=b7f12eab-e0a6-499e-87ec-2b4381c4602a","ios":"levelo://app?vid=b7f12eab-e0a6-499e-87ec-2b4381c4602a"},"vehicle_type_id":"4","last_reported":1706364379,"current_range_meters":24000,"station_id":"","pricing_plan_id":"free"},{"bike_id":"36fdf3a9-6637-4abe-9106-b80fdb7b6025","system_id":"levelo_inurba_marseille","lat":43.33756,"lon":5.37453,"is_reserved":false,"is_disabled":false,"rental_uris":{"android":"levelo://app?vid=36fdf3a9-6637-4abe-9106-b80fdb7b6025","ios":"levelo://app?vid=36fdf3a9-6637-4abe-9106-b80fdb7b6025"},"vehicle_type_id":"4","last_reported":1706364379,"current_range_meters":29200,"station_id":"","pricing_plan_id":"free"},{"bike_id":"a563cdbf-78b8-441c-8dce-8da1c3325b92","system_id":"levelo_inurba_marseille","lat":43.33761,"lon":5.37449,"is_reserved":false,"is_disabled":false,"rental_uris":{"android":"levelo://app?vid=a563cdbf-78b8-441c-8dce-8da1c3325b92","ios":"levelo://app?vid=a563cdbf-78b8-441c-8dce-8da1c3325b92"},"vehicle_type_id":"4","last_reported":1706364379,"current_range_meters":19600,"station_id":"","pricing_plan_id":"free"},{"bike_id":"1facbbf3-baac-42f8-85eb-cb1e36f3e4b9","system_id":"levelo_inurba_marseille","lat":43.33756,"lon":5.37482,"is_reserved":false,"is_disabled":false,"rental_uris":{"android":"levelo://app?vid=1facbbf3-baac-42f8-85eb-cb1e36f3e4b9","ios":"levelo://app?vid=1facbbf3-baac-42f8-85eb-cb1e36f3e4b9"},"vehicle_type_id":"4","last_reported":1706364379,"current_range_meters":20800,"station_id":"","pricing_plan_id":"free"},{"bike_id":"b7d3b81d-d85a-44b5-a0c7-8f9c9f74639e","system_id":"levelo_inurba_marseille","lat":43.33765,"lon":5.374672,"is_reserved":false,"is_disabled":false,"rental_uris":{"android":"levelo://app?vid=b7d3b81d-d85a-44b5-a0c7-8f9c9f74639e","ios":"levelo://app?vid=b7d3b81d-d85a-44b5-a0c7-8f9c9f74639e"},"vehicle_type_id":"4","last_reported":1706364379,"current_range_meters":30800,"station_id":"","pricing_plan_id":"free"},{"bike_id":"eea9563e-3611-43e9-bd9e-5a05a3ffbf39","system_id":"levelo_inurba_marseille","lat":43.30141,"lon":5.39848,"is_reserved":false,"is_disabled":false,"rental_uris":{"android":"levelo://app?vid=eea9563e-3611-43e9-bd9e-5a05a3ffbf39","ios":"levelo://app?vid=eea9563e-3611-43e9-bd9e-5a05a3ffbf39"},"vehicle_type_id":"4","last_reported":1706364379,"current_range_meters":18000,"station_id":"ce4bh0h2rcd13ifvqd40","pricing_plan_id":"free"},{"bike_id":"bd7c49e0-243f-4049-bc25-2de8f060bb29","system_id":"levelo_inurba_marseille","lat":43.33774,"lon":5.37479,"is_reserved":false,"is_disabled":false,"rental_uris":{"android":"levelo://app?vid=bd7c49e0-243f-4049-bc25-2de8f060bb29","ios":"levelo://app?vid=bd7c49e0-243f-4049-bc25-2de8f060bb29"},"vehicle_type_id":"4","last_reported":1706364379,"current_range_meters":24800,"station_id":"","pricing_plan_id":"free"},{"bike_id":"02cc1ce4-717f-4b60-a8ae-e32a4e8fb56c","system_id":"levelo_inurba_marseille","lat":43.3378,"lon":5.37481,"is_reserved":false,"is_disabled":false,"rental_uris":{"android":"levelo://app?vid=02cc1ce4-717f-4b60-a8ae-e32a4e8fb56c","ios":"levelo://app?vid=02cc1ce4-717f-4b60-a8ae-e32a4e8fb56c"},"vehicle_type_id":"4","last_reported":1706364379,"current_range_meters":13200,"station_id":"","pricing_plan_id":"free"},{"bike_id":"a66090c1-b38d-434b-b1c1-9b7245b0ee75","system_id":"levelo_inurba_marseille","lat":43.289307,"lon":5.38406,"is_reserved":false,"is_disabled":false,"rental_uris":{"android":"levelo://app?vid=a66090c1-b38d-434b-b1c1-9b7245b0ee75","ios":"levelo://app?vid=a66090c1-b38d-434b-b1c1-9b7245b0ee75"},"vehicle_type_id":"4","last_reported":1706364379,"current_range_meters":24800,"station_id":"ce4bh612rcd13ifvqe6g","pricing_plan_id":"free"},{"bike_id":"183bb1c1-398f-466c-b05d-327ac4efc436","system_id":"levelo_inurba_marseille","lat":43.302511,"lon":5.400653,"is_reserved":false,"is_disabled":false,"rental_uris":{"android":"levelo://app?vid=183bb1c1-398f-466c-b05d-327ac4efc436","ios":"levelo://app?vid=183bb1c1-398f-466c-b05d-327ac4efc436"},"vehicle_type_id":"4","last_reported":1706364379,"current_range_meters":14800,"station_id":"ce4bgth2rcd13ifvqch0","pricing_plan_id":"free"},{"bike_id":"b6fa7eef-f2a0-40fc-ae0b-a09f93b631b3","system_id":"levelo_inurba_marseille","lat":43.28611,"lon":5.37066,"is_reserved":false,"is_disabled":false,"rental_uris":{"android":"levelo://app?vid=b6fa7eef-f2a0-40fc-ae0b-a09f93b631b3","ios":"levelo://app?vid=b6fa7eef-f2a0-40fc-ae0b-a09f93b631b3"},"vehicle_type_id":"4","last_reported":1706364379,"current_range_meters":6800,"station_id":"ce4bht12rcd13ifvqi60","pricing_plan_id":"free"},{"bike_id":"2fe24097-b1c2-4583-ba1f-cf8501171a4c","system_id":"levelo_inurba_marseille","lat":43.338798,"lon":5.377989,"is_reserved":false,"is_disabled":false,"rental_uris":{"android":"levelo://app?vid=2fe24097-b1c2-4583-ba1f-cf8501171a4c","ios":"levelo://app?vid=2fe24097-b1c2-4583-ba1f-cf8501171a4c"},"vehicle_type_id":"4","last_reported":1706364379,"current_range_meters":18400,"station_id":"","pricing_plan_id":"free"},{"bike_id":"2251fc59-2828-4aff-966d-0a6777ecbd36","system_id":"levelo_inurba_marseille","lat":43.316828,"lon":5.404723,"is_reserved":false,"is_disabled":false,"rental_uris":{"android":"levelo://app?vid=2251fc59-2828-4aff-966d-0a6777ecbd36","ios":"levelo://app?vid=2251fc59-2828-4aff-966d-0a6777ecbd36"},"vehicle_type_id":"4","last_reported":1706364379,"current_range_meters":31200,"station_id":"ce4bh012rcd13ifvqd00","pricing_plan_id":"free"},{"bike_id":"207f821e-e965-41de-bf04-64a40c0f57fd","system_id":"levelo_inurba_marseille","lat":43.28621,"lon":5.35107,"is_reserved":false,"is_disabled":false,"rental_uris":{"android":"levelo://app?vid=207f821e-e965-41de-bf04-64a40c0f57fd","ios":"levelo://app?vid=207f821e-e965-41de-bf04-64a40c0f57fd"},"vehicle_type_id":"4","last_reported":1706364379,"current_range_meters":0,"station_id":"ce4bhch2rcd13ifvqeug","pricing_plan_id":"free"},{"bike_id":"af64f058-4698-46ff-aaed-504c7cefacfb","system_id":"levelo_inurba_marseille","lat":43.28611,"lon":5.35107,"is_reserved":false,"is_disabled":false,"rental_uris":{"android":"levelo://app?vid=af64f058-4698-46ff-aaed-504c7cefacfb","ios":"levelo://app?vid=af64f058-4698-46ff-aaed-504c7cefacfb"},"vehicle_type_id":"4","last_reported":1706364379,"current_range_meters":0,"station_id":"ce4bhch2rcd13ifvqeug","pricing_plan_id":"free"},{"bike_id":"38d4c0fe-6181-4564-906e-68c73e575786","system_id":"levelo_inurba_marseille","lat":43.283998,"lon":5.375062,"is_reserved":false,"is_disabled":false,"rental_uris":{"android":"levelo://app?vid=38d4c0fe-6181-4564-906e-68c73e575786","ios":"levelo://app?vid=38d4c0fe-6181-4564-906e-68c73e575786"},"vehicle_type_id":"4","last_reported":1706364379,"current_range_meters":12800,"station_id":"ce4bh412rcd13ifvqds0","pricing_plan_id":"free"},{"bike_id":"01f0b739-049e-474f-9009-e0a0f19ecf54","system_id":"levelo_inurba_marseille","lat":43.283998,"lon":5.375062,"is_reserved":false,"is_disabled":false,"rental_uris":{"android":"levelo://app?vid=01f0b739-049e-474f-9009-e0a0f19ecf54","ios":"levelo://app?vid=01f0b739-049e-474f-9009-e0a0f19ecf54"},"vehicle_type_id":"4","last_reported":1706364379,"current_range_meters":21200,"station_id":"ce4bh412rcd13ifvqds0","pricing_plan_id":"free"},{"bike_id":"b535e99a-8131-4cf2-8555-582097514b9d","system_id":"levelo_inurba_marseille","lat":43.284793,"lon":5.384113,"is_reserved":false,"is_disabled":false,"rental_uris":{"android":"levelo://app?vid=b535e99a-8131-4cf2-8555-582097514b9d","ios":"levelo://app?vid=b535e99a-8131-4cf2-8555-582097514b9d"},"vehicle_type_id":"4","last_reported":1706364379,"current_range_meters":7200,"station_id":"ce4bh512rcd13ifvqe3g","pricing_plan_id":"free"},{"bike_id":"3b5c4795-1ae1-4656-853b-8bcf294c9871","system_id":"levelo_inurba_marseille","lat":43.284793,"lon":5.384113,"is_reserved":false,"is_disabled":false,"rental_uris":{"android":"levelo://app?vid=3b5c4795-1ae1-4656-853b-8bcf294c9871","ios":"levelo://app?vid=3b5c4795-1ae1-4656-853b-8bcf294c9871"},"vehicle_type_id":"4","last_reported":1706364379,"current_range_meters":26400,"station_id":"ce4bh512rcd13ifvqe3g","pricing_plan_id":"free"},{"bike_id":"29c971f3-912e-4f79-8c22-d20e1f4b5d74","system_id":"levelo_inurba_marseille","lat":43.337168,"lon":5.391825,"is_reserved":false,"is_disabled":false,"rental_uris":{"android":"levelo://app?vid=29c971f3-912e-4f79-8c22-d20e1f4b5d74","ios":"levelo://app?vid=29c971f3-912e-4f79-8c22-d20e1f4b5d74"},"vehicle_type_id":"4","last_reported":1706364379,"current_range_meters":20400,"station_id":"ce4bhr92rcd13ifvqhsg","pricing_plan_id":"free"},{"bike_id":"2df848d9-f41f-4bb5-8e5e-43a01fa1129c","system_id":"levelo_inurba_marseille","lat":43.288497,"lon":5.393089,"is_reserved":false,"is_disabled":false,"rental_uris":{"android":"levelo://app?vid=2df848d9-f41f-4bb5-8e5e-43a01fa1129c","ios":"levelo://app?vid=2df848d9-f41f-4bb5-8e5e-43a01fa1129c"},"vehicle_type_id":"4","last_reported":1706364379,"current_range_meters":22400,"station_id":"ce4bh2p2rcd13ifvqdi0","pricing_plan_id":"free"},{"bike_id":"4f702587-78ce-48c8-8160-e74f8ab05ebe","system_id":"levelo_inurba_marseille","lat":43.284219,"lon":5.3497,"is_reserved":false,"is_disabled":false,"rental_uris":{"android":"levelo://app?vid=4f702587-78ce-48c8-8160-e74f8ab05ebe","ios":"levelo://app?vid=4f702587-78ce-48c8-8160-e74f8ab05ebe"},"vehicle_type_id":"4","last_reported":1706364379,"current_range_meters":25600,"station_id":"ce4bhbh2rcd13ifvqepg","pricing_plan_id":"free"},{"bike_id":"955a6116-28cb-4690-acfc-8f1efe78d27e","system_id":"levelo_inurba_marseille","lat":43.284282,"lon":5.349802,"is_reserved":false,"is_disabled":false,"rental_uris":{"android":"levelo://app?vid=955a6116-28cb-4690-acfc-8f1efe78d27e","ios":"levelo://app?vid=955a6116-28cb-4690-acfc-8f1efe78d27e"},"vehicle_type_id":"4","last_reported":1706364379,"current_range_meters":2400,"station_id":"ce4bhbh2rcd13ifvqepg","pricing_plan_id":"free"},{"bike_id":"1c7fda76-9fb1-4a7d-a516-4655d6fafbfc","system_id":"levelo_inurba_marseille","lat":43.28427,"lon":5.34983,"is_reserved":false,"is_disabled":false,"rental_uris":{"android":"levelo://app?vid=1c7fda76-9fb1-4a7d-a516-4655d6fafbfc","ios":"levelo://app?vid=1c7fda76-9fb1-4a7d-a516-4655d6fafbfc"},"vehicle_type_id":"4","last_reported":1706364379,"current_range_meters":8400,"station_id":"ce4bhbh2rcd13ifvqepg","pricing_plan_id":"free"},{"bike_id":"6cac8acd-ff1d-4dbf-909d-3dc3412ccc10","system_id":"levelo_inurba_marseille","lat":43.284219,"lon":5.3497,"is_reserved":false,"is_disabled":false,"rental_uris":{"android":"levelo://app?vid=6cac8acd-ff1d-4dbf-909d-3dc3412ccc10","ios":"levelo://app?vid=6cac8acd-ff1d-4dbf-909d-3dc3412ccc10"},"vehicle_type_id":"4","last_reported":1706364379,"current_range_meters":24000,"station_id":"ce4bhbh2rcd13ifvqepg","pricing_plan_id":"free"},{"bike_id":"abf0807d-4c4b-4d14-b881-b1e29f2f4f83","system_id":"levelo_inurba_marseille","lat":43.284219,"lon":5.3497,"is_reserved":false,"is_disabled":false,"rental_uris":{"android":"levelo://app?vid=abf0807d-4c4b-4d14-b881-b1e29f2f4f83","ios":"levelo://app?vid=abf0807d-4c4b-4d14-b881-b1e29f2f4f83"},"vehicle_type_id":"4","last_reported":1706364379,"current_range_meters":12400,"station_id":"ce4bhbh2rcd13ifvqepg","pricing_plan_id":"free"},{"bike_id":"92c20233-919e-485f-8391-041485e14939","system_id":"levelo_inurba_marseille","lat":43.284219,"lon":5.3497,"is_reserved":false,"is_disabled":false,"rental_uris":{"android":"levelo://app?vid=92c20233-919e-485f-8391-041485e14939","ios":"levelo://app?vid=92c20233-919e-485f-8391-041485e14939"},"vehicle_type_id":"4","last_reported":1706364379,"current_range_meters":22000,"station_id":"ce4bhbh2rcd13ifvqepg","pricing_plan_id":"free"},{"bike_id":"d7f38616-fac4-4771-b7ac-b8cdcb5c43bd","system_id":"levelo_inurba_marseille","lat":43.284214,"lon":5.349706,"is_reserved":false,"is_disabled":false,"rental_uris":{"android":"levelo://app?vid=d7f38616-fac4-4771-b7ac-b8cdcb5c43bd","ios":"levelo://app?vid=d7f38616-fac4-4771-b7ac-b8cdcb5c43bd"},"vehicle_type_id":"4","last_reported":1706364379,"current_range_meters":25600,"station_id":"ce4bhbh2rcd13ifvqepg","pricing_plan_id":"free"},{"bike_id":"98eb34fb-fdf0-4105-a920-cf10472e81d8","system_id":"levelo_inurba_marseille","lat":43.28424,"lon":5.34981,"is_reserved":false,"is_disabled":false,"rental_uris":{"android":"levelo://app?vid=98eb34fb-fdf0-4105-a920-cf10472e81d8","ios":"levelo://app?vid=98eb34fb-fdf0-4105-a920-cf10472e81d8"},"vehicle_type_id":"4","last_reported":1706364379,"current_range_meters":15600,"station_id":"ce4bhbh2rcd13ifvqepg","pricing_plan_id":"free"},{"bike_id":"ad3c6411-622f-4e9b-98e5-7a2c7937d741","system_id":"levelo_inurba_marseille","lat":43.284219,"lon":5.3497,"is_reserved":false,"is_disabled":false,"rental_uris":{"android":"levelo://app?vid=ad3c6411-622f-4e9b-98e5-7a2c7937d741","ios":"levelo://app?vid=ad3c6411-622f-4e9b-98e5-7a2c7937d741"},"vehicle_type_id":"4","last_reported":1706364379,"current_range_meters":15200,"station_id":"ce4bhbh2rcd13ifvqepg","pricing_plan_id":"free"},{"bike_id":"1d04d198-cd72-4d4a-9128-5411f3f5513d","system_id":"levelo_inurba_marseille","lat":43.28419,"lon":5.34995,"is_reserved":false,"is_disabled":false,"rental_uris":{"android":"levelo://app?vid=1d04d198-cd72-4d4a-9128-5411f3f5513d","ios":"levelo://app?vid=1d04d198-cd72-4d4a-9128-5411f3f5513d"},"vehicle_type_id":"4","last_reported":1706364379,"current_range_meters":17200,"station_id":"ce4bhbh2rcd13ifvqepg","pricing_plan_id":"free"},{"bike_id":"2be7a22f-f4b7-48a6-96ba-7fc49ff17fc4","system_id":"levelo_inurba_marseille","lat":43.284212,"lon":5.34986,"is_reserved":false,"is_disabled":false,"rental_uris":{"android":"levelo://app?vid=2be7a22f-f4b7-48a6-96ba-7fc49ff17fc4","ios":"levelo://app?vid=2be7a22f-f4b7-48a6-96ba-7fc49ff17fc4"},"vehicle_type_id":"4","last_reported":1706364379,"current_range_meters":19600,"station_id":"ce4bhbh2rcd13ifvqepg","pricing_plan_id":"free"},{"bike_id":"e1463530-1163-44ae-99c2-0849118f2907","system_id":"levelo_inurba_marseille","lat":43.284219,"lon":5.3497,"is_reserved":false,"is_disabled":false,"rental_uris":{"android":"levelo://app?vid=e1463530-1163-44ae-99c2-0849118f2907","ios":"levelo://app?vid=e1463530-1163-44ae-99c2-0849118f2907"},"vehicle_type_id":"4","last_reported":1706364379,"current_range_meters":4800,"station_id":"ce4bhbh2rcd13ifvqepg","pricing_plan_id":"free"},{"bike_id":"1db67312-b191-4be6-ae44-4c59a8de0356","system_id":"levelo_inurba_marseille","lat":43.28425,"lon":5.34973,"is_reserved":false,"is_disabled":false,"rental_uris":{"android":"levelo://app?vid=1db67312-b191-4be6-ae44-4c59a8de0356","ios":"levelo://app?vid=1db67312-b191-4be6-ae44-4c59a8de0356"},"vehicle_type_id":"4","last_reported":1706364379,"current_range_meters":18400,"station_id":"ce4bhbh2rcd13ifvqepg","pricing_plan_id":"free"},{"bike_id":"690adc0e-cdbc-4607-a73e-fac6db933777","system_id":"levelo_inurba_marseille","lat":43.284219,"lon":5.3497,"is_reserved":false,"is_disabled":false,"rental_uris":{"android":"levelo://app?vid=690adc0e-cdbc-4607-a73e-fac6db933777","ios":"levelo://app?vid=690adc0e-cdbc-4607-a73e-fac6db933777"},"vehicle_type_id":"4","last_reported":1706364379,"current_range_meters":7200,"station_id":"ce4bhbh2rcd13ifvqepg","pricing_plan_id":"free"},{"bike_id":"d9ed4bf7-ae2f-4ae0-8cb0-0ac62470cbc9","system_id":"levelo_inurba_marseille","lat":43.28421,"lon":5.34984,"is_reserved":false,"is_disabled":false,"rental_uris":{"android":"levelo://app?vid=d9ed4bf7-ae2f-4ae0-8cb0-0ac62470cbc9","ios":"levelo://app?vid=d9ed4bf7-ae2f-4ae0-8cb0-0ac62470cbc9"},"vehicle_type_id":"4","last_reported":1706364379,"current_range_meters":9200,"station_id":"ce4bhbh2rcd13ifvqepg","pricing_plan_id":"free"},{"bike_id":"2e78da9d-3201-4b44-bacd-f76c16d4d164","system_id":"levelo_inurba_marseille","lat":43.28417,"lon":5.34993,"is_reserved":false,"is_disabled":false,"rental_uris":{"android":"levelo://app?vid=2e78da9d-3201-4b44-bacd-f76c16d4d164","ios":"levelo://app?vid=2e78da9d-3201-4b44-bacd-f76c16d4d164"},"vehicle_type_id":"4","last_reported":1706364379,"current_range_meters":12400,"station_id":"ce4bhbh2rcd13ifvqepg","pricing_plan_id":"free"},{"bike_id":"4eae59f1-45e4-45ef-bb68-da9ab1fd31df","system_id":"levelo_inurba_marseille","lat":43.284219,"lon":5.3497,"is_reserved":false,"is_disabled":false,"rental_uris":{"android":"levelo://app?vid=4eae59f1-45e4-45ef-bb68-da9ab1fd31df","ios":"levelo://app?vid=4eae59f1-45e4-45ef-bb68-da9ab1fd31df"},"vehicle_type_id":"4","last_reported":1706364379,"current_range_meters":31200,"station_id":"ce4bhbh2rcd13ifvqepg","pricing_plan_id":"free"},{"bike_id":"fb3806ee-d358-4682-bd48-b6f7f51ab441","system_id":"levelo_inurba_marseille","lat":43.284219,"lon":5.3497,"is_reserved":false,"is_disabled":false,"rental_uris":{"android":"levelo://app?vid=fb3806ee-d358-4682-bd48-b6f7f51ab441","ios":"levelo://app?vid=fb3806ee-d358-4682-bd48-b6f7f51ab441"},"vehicle_type_id":"4","last_reported":1706364379,"current_range_meters":23600,"station_id":"ce4bhbh2rcd13ifvqepg","pricing_plan_id":"free"},{"bike_id":"d42d291b-ed36-4c65-ace3-4f60c773bd7e","system_id":"levelo_inurba_marseille","lat":43.284219,"lon":5.3497,"is_reserved":false,"is_disabled":false,"rental_uris":{"android":"levelo://app?vid=d42d291b-ed36-4c65-ace3-4f60c773bd7e","ios":"levelo://app?vid=d42d291b-ed36-4c65-ace3-4f60c773bd7e"},"vehicle_type_id":"4","last_reported":1706364379,"current_range_meters":23600,"station_id":"ce4bhbh2rcd13ifvqepg","pricing_plan_id":"free"},{"bike_id":"cdcd7439-ba98-493f-b10b-0d2a6c6b81a1","system_id":"levelo_inurba_marseille","lat":43.2842,"lon":5.34978,"is_reserved":false,"is_disabled":false,"rental_uris":{"android":"levelo://app?vid=cdcd7439-ba98-493f-b10b-0d2a6c6b81a1","ios":"levelo://app?vid=cdcd7439-ba98-493f-b10b-0d2a6c6b81a1"},"vehicle_type_id":"4","last_reported":1706364379,"current_range_meters":2000,"station_id":"ce4bhbh2rcd13ifvqepg","pricing_plan_id":"free"},{"bike_id":"898eeaa3-4723-489a-b2c4-625997b263c1","system_id":"levelo_inurba_marseille","lat":43.28419,"lon":5.34979,"is_reserved":false,"is_disabled":false,"rental_uris":{"android":"levelo://app?vid=898eeaa3-4723-489a-b2c4-625997b263c1","ios":"levelo://app?vid=898eeaa3-4723-489a-b2c4-625997b263c1"},"vehicle_type_id":"4","last_reported":1706364379,"current_range_meters":28800,"station_id":"ce4bhbh2rcd13ifvqepg","pricing_plan_id":"free"},{"bike_id":"21d42673-60e8-4dca-a33e-1e8637baa198","system_id":"levelo_inurba_marseille","lat":43.28419,"lon":5.34979,"is_reserved":false,"is_disabled":false,"rental_uris":{"android":"levelo://app?vid=21d42673-60e8-4dca-a33e-1e8637baa198","ios":"levelo://app?vid=21d42673-60e8-4dca-a33e-1e8637baa198"},"vehicle_type_id":"4","last_reported":1706364379,"current_range_meters":5200,"station_id":"ce4bhbh2rcd13ifvqepg","pricing_plan_id":"free"},{"bike_id":"ad724ad3-85b6-4723-8573-cc016cd28309","system_id":"levelo_inurba_marseille","lat":43.28413,"lon":5.34994,"is_reserved":false,"is_disabled":false,"rental_uris":{"android":"levelo://app?vid=ad724ad3-85b6-4723-8573-cc016cd28309","ios":"levelo://app?vid=ad724ad3-85b6-4723-8573-cc016cd28309"},"vehicle_type_id":"4","last_reported":1706364379,"current_range_meters":1200,"station_id":"ce4bhbh2rcd13ifvqepg","pricing_plan_id":"free"},{"bike_id":"11dee39c-7ee2-439e-b4f5-03bd3c494c1c","system_id":"levelo_inurba_marseille","lat":43.28417,"lon":5.3498,"is_reserved":false,"is_disabled":false,"rental_uris":{"android":"levelo://app?vid=11dee39c-7ee2-439e-b4f5-03bd3c494c1c","ios":"levelo://app?vid=11dee39c-7ee2-439e-b4f5-03bd3c494c1c"},"vehicle_type_id":"4","last_reported":1706364379,"current_range_meters":11600,"station_id":"ce4bhbh2rcd13ifvqepg","pricing_plan_id":"free"},{"bike_id":"ad9e898d-6b37-4a8e-8d0d-1417dba7880a","system_id":"levelo_inurba_marseille","lat":43.28411,"lon":5.34994,"is_reserved":false,"is_disabled":false,"rental_uris":{"android":"levelo://app?vid=ad9e898d-6b37-4a8e-8d0d-1417dba7880a","ios":"levelo://app?vid=ad9e898d-6b37-4a8e-8d0d-1417dba7880a"},"vehicle_type_id":"4","last_reported":1706364379,"current_range_meters":2800,"station_id":"ce4bhbh2rcd13ifvqepg","pricing_plan_id":"free"},{"bike_id":"ebfe9909-198e-4bc3-b372-0c66aa72f84c","system_id":"levelo_inurba_marseille","lat":43.284219,"lon":5.3497,"is_reserved":false,"is_disabled":false,"rental_uris":{"android":"levelo://app?vid=ebfe9909-198e-4bc3-b372-0c66aa72f84c","ios":"levelo://app?vid=ebfe9909-198e-4bc3-b372-0c66aa72f84c"},"vehicle_type_id":"4","last_reported":1706364379,"current_range_meters":15200,"station_id":"ce4bhbh2rcd13ifvqepg","pricing_plan_id":"free"},{"bike_id":"35cd06e5-eed7-49a3-bdd1-a24ef7ca3779","system_id":"levelo_inurba_marseille","lat":43.284219,"lon":5.3497,"is_reserved":false,"is_disabled":false,"rental_uris":{"android":"levelo://app?vid=35cd06e5-eed7-49a3-bdd1-a24ef7ca3779","ios":"levelo://app?vid=35cd06e5-eed7-49a3-bdd1-a24ef7ca3779"},"vehicle_type_id":"4","last_reported":1706364379,"current_range_meters":22800,"station_id":"ce4bhbh2rcd13ifvqepg","pricing_plan_id":"free"},{"bike_id":"d0114db0-d38e-4e30-8ef0-61b4aaaee3c4","system_id":"levelo_inurba_marseille","lat":43.284217,"lon":5.349697,"is_reserved":false,"is_disabled":false,"rental_uris":{"android":"levelo://app?vid=d0114db0-d38e-4e30-8ef0-61b4aaaee3c4","ios":"levelo://app?vid=d0114db0-d38e-4e30-8ef0-61b4aaaee3c4"},"vehicle_type_id":"4","last_reported":1706364379,"current_range_meters":20400,"station_id":"ce4bhbh2rcd13ifvqepg","pricing_plan_id":"free"},{"bike_id":"b41bcd76-cb12-4b33-95cd-9444d1e23578","system_id":"levelo_inurba_marseille","lat":43.293556,"lon":5.401561,"is_reserved":false,"is_disabled":false,"rental_uris":{"android":"levelo://app?vid=b41bcd76-cb12-4b33-95cd-9444d1e23578","ios":"levelo://app?vid=b41bcd76-cb12-4b33-95cd-9444d1e23578"},"vehicle_type_id":"4","last_reported":1706364379,"current_range_meters":10000,"station_id":"","pricing_plan_id":"free"},{"bike_id":"b27cdb1b-04a8-4606-a9e1-df8ca95d652c","system_id":"levelo_inurba_marseille","lat":43.292724,"lon":5.401131,"is_reserved":false,"is_disabled":false,"rental_uris":{"android":"levelo://app?vid=b27cdb1b-04a8-4606-a9e1-df8ca95d652c","ios":"levelo://app?vid=b27cdb1b-04a8-4606-a9e1-df8ca95d652c"},"vehicle_type_id":"4","last_reported":1706364379,"current_range_meters":18800,"station_id":"ce4bh312rcd13ifvqdk0","pricing_plan_id":"free"},{"bike_id":"b0cfa148-f23b-493c-8365-41f14b9960a0","system_id":"levelo_inurba_marseille","lat":43.28277,"lon":5.35069,"is_reserved":false,"is_disabled":false,"rental_uris":{"android":"levelo://app?vid=b0cfa148-f23b-493c-8365-41f14b9960a0","ios":"levelo://app?vid=b0cfa148-f23b-493c-8365-41f14b9960a0"},"vehicle_type_id":"4","last_reported":1706364379,"current_range_meters":21600,"station_id":"ce4bhbp2rcd13ifvqerg","pricing_plan_id":"free"},{"bike_id":"105e4a81-a967-4b98-81e5-b1ba5bb2a5d8","system_id":"levelo_inurba_marseille","lat":43.282744,"lon":5.350678,"is_reserved":false,"is_disabled":false,"rental_uris":{"android":"levelo://app?vid=105e4a81-a967-4b98-81e5-b1ba5bb2a5d8","ios":"levelo://app?vid=105e4a81-a967-4b98-81e5-b1ba5bb2a5d8"},"vehicle_type_id":"4","last_reported":1706364379,"current_range_meters":10800,"station_id":"ce4bhbp2rcd13ifvqerg","pricing_plan_id":"free"},{"bike_id":"791fe35b-1840-4b5d-bfe3-a3222faeddb4","system_id":"levelo_inurba_marseille","lat":43.28277,"lon":5.35057,"is_reserved":false,"is_disabled":false,"rental_uris":{"android":"levelo://app?vid=791fe35b-1840-4b5d-bfe3-a3222faeddb4","ios":"levelo://app?vid=791fe35b-1840-4b5d-bfe3-a3222faeddb4"},"vehicle_type_id":"4","last_reported":1706364379,"current_range_meters":8400,"station_id":"ce4bhbp2rcd13ifvqerg","pricing_plan_id":"free"},{"bike_id":"c37c3f22-f080-4c9b-b141-3c09c17c5012","system_id":"levelo_inurba_marseille","lat":43.28273,"lon":5.35067,"is_reserved":false,"is_disabled":false,"rental_uris":{"android":"levelo://app?vid=c37c3f22-f080-4c9b-b141-3c09c17c5012","ios":"levelo://app?vid=c37c3f22-f080-4c9b-b141-3c09c17c5012"},"vehicle_type_id":"4","last_reported":1706364379,"current_range_meters":0,"station_id":"ce4bhbp2rcd13ifvqerg","pricing_plan_id":"free"},{"bike_id":"aceb3af9-bc02-40e4-ab65-dc121505d6a7","system_id":"levelo_inurba_marseille","lat":43.282725,"lon":5.350656,"is_reserved":false,"is_disabled":false,"rental_uris":{"android":"levelo://app?vid=aceb3af9-bc02-40e4-ab65-dc121505d6a7","ios":"levelo://app?vid=aceb3af9-bc02-40e4-ab65-dc121505d6a7"},"vehicle_type_id":"4","last_reported":1706364379,"current_range_meters":29600,"station_id":"ce4bhbp2rcd13ifvqerg","pricing_plan_id":"free"},{"bike_id":"97606a34-ef2d-4914-b60b-9fd6e8e1cdca","system_id":"levelo_inurba_marseille","lat":43.2827,"lon":5.35069,"is_reserved":false,"is_disabled":false,"rental_uris":{"android":"levelo://app?vid=97606a34-ef2d-4914-b60b-9fd6e8e1cdca","ios":"levelo://app?vid=97606a34-ef2d-4914-b60b-9fd6e8e1cdca"},"vehicle_type_id":"4","last_reported":1706364379,"current_range_meters":4400,"station_id":"ce4bhbp2rcd13ifvqerg","pricing_plan_id":"free"},{"bike_id":"6f34af00-9c3d-4614-943a-6892b83f8cbb","system_id":"levelo_inurba_marseille","lat":43.28269,"lon":5.35072,"is_reserved":false,"is_disabled":false,"rental_uris":{"android":"levelo://app?vid=6f34af00-9c3d-4614-943a-6892b83f8cbb","ios":"levelo://app?vid=6f34af00-9c3d-4614-943a-6892b83f8cbb"},"vehicle_type_id":"4","last_reported":1706364379,"current_range_meters":8800,"station_id":"ce4bhbp2rcd13ifvqerg","pricing_plan_id":"free"},{"bike_id":"17d74d83-e6e5-4ab5-bb60-b44ce3735f6c","system_id":"levelo_inurba_marseille","lat":43.283502,"lon":5.386471,"is_reserved":false,"is_disabled":false,"rental_uris":{"android":"levelo://app?vid=17d74d83-e6e5-4ab5-bb60-b44ce3735f6c","ios":"levelo://app?vid=17d74d83-e6e5-4ab5-bb60-b44ce3735f6c"},"vehicle_type_id":"4","last_reported":1706364379,"current_range_meters":14800,"station_id":"ce4bh492rcd13ifvqdvg","pricing_plan_id":"free"},{"bike_id":"d1340f25-dae1-4073-9fbc-5ab684921469","system_id":"levelo_inurba_marseille","lat":43.28039,"lon":5.369297,"is_reserved":false,"is_disabled":false,"rental_uris":{"android":"levelo://app?vid=d1340f25-dae1-4073-9fbc-5ab684921469","ios":"levelo://app?vid=d1340f25-dae1-4073-9fbc-5ab684921469"},"vehicle_type_id":"4","last_reported":1706364379,"current_range_meters":24800,"station_id":"ce4bha12rcd13ifvqef0","pricing_plan_id":"free"},{"bike_id":"89f12e40-bd76-46f8-a140-ad48894b0a5e","system_id":"levelo_inurba_marseille","lat":43.273613,"lon":5.362705,"is_reserved":false,"is_disabled":false,"rental_uris":{"android":"levelo://app?vid=89f12e40-bd76-46f8-a140-ad48894b0a5e","ios":"levelo://app?vid=89f12e40-bd76-46f8-a140-ad48894b0a5e"},"vehicle_type_id":"4","last_reported":1706364379,"current_range_meters":12800,"station_id":"ce4bhbh2rcd13ifvqeo0","pricing_plan_id":"free"},{"bike_id":"c311ea8c-5511-4c27-bfb7-8fd64310a88e","system_id":"levelo_inurba_marseille","lat":43.280243,"lon":5.365797,"is_reserved":false,"is_disabled":false,"rental_uris":{"android":"levelo://app?vid=c311ea8c-5511-4c27-bfb7-8fd64310a88e","ios":"levelo://app?vid=c311ea8c-5511-4c27-bfb7-8fd64310a88e"},"vehicle_type_id":"4","last_reported":1706364379,"current_range_meters":26400,"station_id":"","pricing_plan_id":"free"},{"bike_id":"76a4f071-9c3a-4eda-9630-e9e85284b35b","system_id":"levelo_inurba_marseille","lat":43.29628,"lon":5.40599,"is_reserved":false,"is_disabled":false,"rental_uris":{"android":"levelo://app?vid=76a4f071-9c3a-4eda-9630-e9e85284b35b","ios":"levelo://app?vid=76a4f071-9c3a-4eda-9630-e9e85284b35b"},"vehicle_type_id":"4","last_reported":1706364379,"current_range_meters":1600,"station_id":"ce4bh0h2rcd13ifvqd60","pricing_plan_id":"free"},{"bike_id":"3ccfbe7b-d641-4ca8-88c5-8707352e09c9","system_id":"levelo_inurba_marseille","lat":43.326605,"lon":5.409903,"is_reserved":false,"is_disabled":false,"rental_uris":{"android":"levelo://app?vid=3ccfbe7b-d641-4ca8-88c5-8707352e09c9","ios":"levelo://app?vid=3ccfbe7b-d641-4ca8-88c5-8707352e09c9"},"vehicle_type_id":"4","last_reported":1706364379,"current_range_meters":20400,"station_id":"ce4bhpp2rcd13ifvqhgg","pricing_plan_id":"free"},{"bike_id":"24046c95-54af-466e-a05e-5b2ef5fcdd0d","system_id":"levelo_inurba_marseille","lat":43.32656,"lon":5.40993,"is_reserved":false,"is_disabled":false,"rental_uris":{"android":"levelo://app?vid=24046c95-54af-466e-a05e-5b2ef5fcdd0d","ios":"levelo://app?vid=24046c95-54af-466e-a05e-5b2ef5fcdd0d"},"vehicle_type_id":"4","last_reported":1706364379,"current_range_meters":28800,"station_id":"ce4bhpp2rcd13ifvqhgg","pricing_plan_id":"free"},{"bike_id":"fe3040a1-88fc-4e51-a555-a27442545771","system_id":"levelo_inurba_marseille","lat":43.326605,"lon":5.409903,"is_reserved":false,"is_disabled":false,"rental_uris":{"android":"levelo://app?vid=fe3040a1-88fc-4e51-a555-a27442545771","ios":"levelo://app?vid=fe3040a1-88fc-4e51-a555-a27442545771"},"vehicle_type_id":"4","last_reported":1706364379,"current_range_meters":26400,"station_id":"ce4bhpp2rcd13ifvqhgg","pricing_plan_id":"free"},{"bike_id":"b2769590-381c-4964-8cf1-c828a554a78e","system_id":"levelo_inurba_marseille","lat":43.326605,"lon":5.409903,"is_reserved":false,"is_disabled":false,"rental_uris":{"android":"levelo://app?vid=b2769590-381c-4964-8cf1-c828a554a78e","ios":"levelo://app?vid=b2769590-381c-4964-8cf1-c828a554a78e"},"vehicle_type_id":"4","last_reported":1706364379,"current_range_meters":20400,"station_id":"ce4bhpp2rcd13ifvqhgg","pricing_plan_id":"free"},{"bike_id":"9e080781-62c4-46d4-9c8e-a8f25066d475","system_id":"levelo_inurba_marseille","lat":43.304188,"lon":5.412904,"is_reserved":false,"is_disabled":false,"rental_uris":{"android":"levelo://app?vid=9e080781-62c4-46d4-9c8e-a8f25066d475","ios":"levelo://app?vid=9e080781-62c4-46d4-9c8e-a8f25066d475"},"vehicle_type_id":"4","last_reported":1706364379,"current_range_meters":16000,"station_id":"ce4bhop2rcd13ifvqh8g","pricing_plan_id":"free"},{"bike_id":"30b832a2-2c33-4dae-8b19-0b2dbdda0440","system_id":"levelo_inurba_marseille","lat":43.304188,"lon":5.412904,"is_reserved":false,"is_disabled":false,"rental_uris":{"android":"levelo://app?vid=30b832a2-2c33-4dae-8b19-0b2dbdda0440","ios":"levelo://app?vid=30b832a2-2c33-4dae-8b19-0b2dbdda0440"},"vehicle_type_id":"4","last_reported":1706364379,"current_range_meters":4000,"station_id":"ce4bhop2rcd13ifvqh8g","pricing_plan_id":"free"},{"bike_id":"1bc315a5-8079-41e2-989d-71d240307a89","system_id":"levelo_inurba_marseille","lat":43.30417,"lon":5.41293,"is_reserved":false,"is_disabled":false,"rental_uris":{"android":"levelo://app?vid=1bc315a5-8079-41e2-989d-71d240307a89","ios":"levelo://app?vid=1bc315a5-8079-41e2-989d-71d240307a89"},"vehicle_type_id":"4","last_reported":1706364379,"current_range_meters":25600,"station_id":"","pricing_plan_id":"free"},{"bike_id":"d7a36c2e-0934-4bcc-bfcc-17ba38d904bc","system_id":"levelo_inurba_marseille","lat":43.279087,"lon":5.380114,"is_reserved":false,"is_disabled":false,"rental_uris":{"android":"levelo://app?vid=d7a36c2e-0934-4bcc-bfcc-17ba38d904bc","ios":"levelo://app?vid=d7a36c2e-0934-4bcc-bfcc-17ba38d904bc"},"vehicle_type_id":"4","last_reported":1706364379,"current_range_meters":14400,"station_id":"ce4bhf92rcd13ifvqf50","pricing_plan_id":"free"},{"bike_id":"eaeff2f9-be33-4cbc-b315-c230be10dd9b","system_id":"levelo_inurba_marseille","lat":43.287154,"lon":5.399979,"is_reserved":false,"is_disabled":false,"rental_uris":{"android":"levelo://app?vid=eaeff2f9-be33-4cbc-b315-c230be10dd9b","ios":"levelo://app?vid=eaeff2f9-be33-4cbc-b315-c230be10dd9b"},"vehicle_type_id":"4","last_reported":1706364379,"current_range_meters":9600,"station_id":"ce4bho92rcd13ifvqh3g","pricing_plan_id":"free"},{"bike_id":"09b6ee3e-51fd-4add-b1f5-fb3703f213ce","system_id":"levelo_inurba_marseille","lat":43.320045,"lon":5.415046,"is_reserved":false,"is_disabled":false,"rental_uris":{"android":"levelo://app?vid=09b6ee3e-51fd-4add-b1f5-fb3703f213ce","ios":"levelo://app?vid=09b6ee3e-51fd-4add-b1f5-fb3703f213ce"},"vehicle_type_id":"4","last_reported":1706364379,"current_range_meters":8800,"station_id":"ce4bhq92rcd13ifvqhkg","pricing_plan_id":"free"},{"bike_id":"f83a3a7e-1d78-42cc-a2d9-6a1634b4b2ae","system_id":"levelo_inurba_marseille","lat":43.320045,"lon":5.415046,"is_reserved":false,"is_disabled":false,"rental_uris":{"android":"levelo://app?vid=f83a3a7e-1d78-42cc-a2d9-6a1634b4b2ae","ios":"levelo://app?vid=f83a3a7e-1d78-42cc-a2d9-6a1634b4b2ae"},"vehicle_type_id":"4","last_reported":1706364379,"current_range_meters":30400,"station_id":"ce4bhq92rcd13ifvqhkg","pricing_plan_id":"free"},{"bike_id":"865d8997-ba08-4c58-a12a-c2ec87bfb069","system_id":"levelo_inurba_marseille","lat":43.279742,"lon":5.38744,"is_reserved":false,"is_disabled":false,"rental_uris":{"android":"levelo://app?vid=865d8997-ba08-4c58-a12a-c2ec87bfb069","ios":"levelo://app?vid=865d8997-ba08-4c58-a12a-c2ec87bfb069"},"vehicle_type_id":"4","last_reported":1706364379,"current_range_meters":20400,"station_id":"ce4bhg12rcd13ifvqf80","pricing_plan_id":"free"},{"bike_id":"471d52a6-2477-46ec-aa9f-df0a4af0f005","system_id":"levelo_inurba_marseille","lat":43.279742,"lon":5.38744,"is_reserved":false,"is_disabled":false,"rental_uris":{"android":"levelo://app?vid=471d52a6-2477-46ec-aa9f-df0a4af0f005","ios":"levelo://app?vid=471d52a6-2477-46ec-aa9f-df0a4af0f005"},"vehicle_type_id":"4","last_reported":1706364379,"current_range_meters":18000,"station_id":"ce4bhg12rcd13ifvqf80","pricing_plan_id":"free"},{"bike_id":"b51b7ced-4605-45fd-b9f2-b6d81546ee30","system_id":"levelo_inurba_marseille","lat":43.27976,"lon":5.38727,"is_reserved":false,"is_disabled":false,"rental_uris":{"android":"levelo://app?vid=b51b7ced-4605-45fd-b9f2-b6d81546ee30","ios":"levelo://app?vid=b51b7ced-4605-45fd-b9f2-b6d81546ee30"},"vehicle_type_id":"4","last_reported":1706364379,"current_range_meters":1200,"station_id":"ce4bhg12rcd13ifvqf80","pricing_plan_id":"free"},{"bike_id":"fcf5ad55-9d29-48f4-b96b-b5827880831a","system_id":"levelo_inurba_marseille","lat":43.320447,"lon":5.41549,"is_reserved":false,"is_disabled":false,"rental_uris":{"android":"levelo://app?vid=fcf5ad55-9d29-48f4-b96b-b5827880831a","ios":"levelo://app?vid=fcf5ad55-9d29-48f4-b96b-b5827880831a"},"vehicle_type_id":"4","last_reported":1706364379,"current_range_meters":18000,"station_id":"ce4bhq92rcd13ifvqhkg","pricing_plan_id":"free"},{"bike_id":"4977dd65-369e-417b-9c52-fe977a945b82","system_id":"levelo_inurba_marseille","lat":43.320045,"lon":5.415048,"is_reserved":false,"is_disabled":false,"rental_uris":{"android":"levelo://app?vid=4977dd65-369e-417b-9c52-fe977a945b82","ios":"levelo://app?vid=4977dd65-369e-417b-9c52-fe977a945b82"},"vehicle_type_id":"4","last_reported":1706364379,"current_range_meters":30400,"station_id":"ce4bhq92rcd13ifvqhkg","pricing_plan_id":"free"},{"bike_id":"f705caf3-6c24-4f16-b4b4-504522141be8","system_id":"levelo_inurba_marseille","lat":43.279742,"lon":5.38744,"is_reserved":false,"is_disabled":false,"rental_uris":{"android":"levelo://app?vid=f705caf3-6c24-4f16-b4b4-504522141be8","ios":"levelo://app?vid=f705caf3-6c24-4f16-b4b4-504522141be8"},"vehicle_type_id":"4","last_reported":1706364379,"current_range_meters":14800,"station_id":"ce4bhg12rcd13ifvqf80","pricing_plan_id":"free"},{"bike_id":"239540cd-7c62-42a3-bb49-9dfa3eafc143","system_id":"levelo_inurba_marseille","lat":43.27618,"lon":5.361009,"is_reserved":false,"is_disabled":false,"rental_uris":{"android":"levelo://app?vid=239540cd-7c62-42a3-bb49-9dfa3eafc143","ios":"levelo://app?vid=239540cd-7c62-42a3-bb49-9dfa3eafc143"},"vehicle_type_id":"4","last_reported":1706364379,"current_range_meters":10000,"station_id":"ce4bgj92rcd13ifvqbe0","pricing_plan_id":"free"},{"bike_id":"472e2b13-857c-4469-94f6-c79d9e26ca68","system_id":"levelo_inurba_marseille","lat":43.27618,"lon":5.361009,"is_reserved":false,"is_disabled":false,"rental_uris":{"android":"levelo://app?vid=472e2b13-857c-4469-94f6-c79d9e26ca68","ios":"levelo://app?vid=472e2b13-857c-4469-94f6-c79d9e26ca68"},"vehicle_type_id":"4","last_reported":1706364379,"current_range_meters":0,"station_id":"ce4bgj92rcd13ifvqbe0","pricing_plan_id":"free"},{"bike_id":"b8836e51-57e6-4407-b171-a253f0f3f47a","system_id":"levelo_inurba_marseille","lat":43.27618,"lon":5.361009,"is_reserved":false,"is_disabled":false,"rental_uris":{"android":"levelo://app?vid=b8836e51-57e6-4407-b171-a253f0f3f47a","ios":"levelo://app?vid=b8836e51-57e6-4407-b171-a253f0f3f47a"},"vehicle_type_id":"4","last_reported":1706364379,"current_range_meters":18000,"station_id":"ce4bgj92rcd13ifvqbe0","pricing_plan_id":"free"},{"bike_id":"95d1494b-79a8-4a75-944d-fb0d89dbcf6c","system_id":"levelo_inurba_marseille","lat":43.27618,"lon":5.361009,"is_reserved":false,"is_disabled":false,"rental_uris":{"android":"levelo://app?vid=95d1494b-79a8-4a75-944d-fb0d89dbcf6c","ios":"levelo://app?vid=95d1494b-79a8-4a75-944d-fb0d89dbcf6c"},"vehicle_type_id":"4","last_reported":1706364379,"current_range_meters":400,"station_id":"ce4bgj92rcd13ifvqbe0","pricing_plan_id":"free"},{"bike_id":"f32134a7-23ab-4bd2-9f18-8d28a84754d3","system_id":"levelo_inurba_marseille","lat":43.276179,"lon":5.361009,"is_reserved":false,"is_disabled":false,"rental_uris":{"android":"levelo://app?vid=f32134a7-23ab-4bd2-9f18-8d28a84754d3","ios":"levelo://app?vid=f32134a7-23ab-4bd2-9f18-8d28a84754d3"},"vehicle_type_id":"4","last_reported":1706364379,"current_range_meters":15200,"station_id":"ce4bgj92rcd13ifvqbe0","pricing_plan_id":"free"},{"bike_id":"8fe6c65b-7d61-477f-bdfc-abbc34507755","system_id":"levelo_inurba_marseille","lat":43.27618,"lon":5.361009,"is_reserved":false,"is_disabled":false,"rental_uris":{"android":"levelo://app?vid=8fe6c65b-7d61-477f-bdfc-abbc34507755","ios":"levelo://app?vid=8fe6c65b-7d61-477f-bdfc-abbc34507755"},"vehicle_type_id":"4","last_reported":1706364379,"current_range_meters":13600,"station_id":"ce4bgj92rcd13ifvqbe0","pricing_plan_id":"free"},{"bike_id":"fecf969f-d050-4d3b-aa81-32e0fd7f0eb5","system_id":"levelo_inurba_marseille","lat":43.273613,"lon":5.362705,"is_reserved":false,"is_disabled":false,"rental_uris":{"android":"levelo://app?vid=fecf969f-d050-4d3b-aa81-32e0fd7f0eb5","ios":"levelo://app?vid=fecf969f-d050-4d3b-aa81-32e0fd7f0eb5"},"vehicle_type_id":"4","last_reported":1706364379,"current_range_meters":5600,"station_id":"ce4bhbh2rcd13ifvqeo0","pricing_plan_id":"free"},{"bike_id":"e29ecc74-8201-4bcd-8170-b5fa90db42da","system_id":"levelo_inurba_marseille","lat":43.273613,"lon":5.362705,"is_reserved":false,"is_disabled":false,"rental_uris":{"android":"levelo://app?vid=e29ecc74-8201-4bcd-8170-b5fa90db42da","ios":"levelo://app?vid=e29ecc74-8201-4bcd-8170-b5fa90db42da"},"vehicle_type_id":"4","last_reported":1706364379,"current_range_meters":14400,"station_id":"ce4bhbh2rcd13ifvqeo0","pricing_plan_id":"free"},{"bike_id":"1a8adb52-58c8-491e-8d84-df481aeeb4f0","system_id":"levelo_inurba_marseille","lat":43.273613,"lon":5.362705,"is_reserved":false,"is_disabled":false,"rental_uris":{"android":"levelo://app?vid=1a8adb52-58c8-491e-8d84-df481aeeb4f0","ios":"levelo://app?vid=1a8adb52-58c8-491e-8d84-df481aeeb4f0"},"vehicle_type_id":"4","last_reported":1706364379,"current_range_meters":24400,"station_id":"ce4bhbh2rcd13ifvqeo0","pricing_plan_id":"free"},{"bike_id":"b894f8c4-1813-4269-a73f-fe6fad26cbee","system_id":"levelo_inurba_marseille","lat":43.273613,"lon":5.362705,"is_reserved":false,"is_disabled":false,"rental_uris":{"android":"levelo://app?vid=b894f8c4-1813-4269-a73f-fe6fad26cbee","ios":"levelo://app?vid=b894f8c4-1813-4269-a73f-fe6fad26cbee"},"vehicle_type_id":"4","last_reported":1706364379,"current_range_meters":6000,"station_id":"ce4bhbh2rcd13ifvqeo0","pricing_plan_id":"free"},{"bike_id":"af46797e-664c-4fc7-b249-4beb9ba0a4e8","system_id":"levelo_inurba_marseille","lat":43.273613,"lon":5.362705,"is_reserved":false,"is_disabled":false,"rental_uris":{"android":"levelo://app?vid=af46797e-664c-4fc7-b249-4beb9ba0a4e8","ios":"levelo://app?vid=af46797e-664c-4fc7-b249-4beb9ba0a4e8"},"vehicle_type_id":"4","last_reported":1706364379,"current_range_meters":15600,"station_id":"ce4bhbh2rcd13ifvqeo0","pricing_plan_id":"free"},{"bike_id":"7360d279-3172-4afb-a82d-7065779f089d","system_id":"levelo_inurba_marseille","lat":43.273613,"lon":5.362705,"is_reserved":false,"is_disabled":false,"rental_uris":{"android":"levelo://app?vid=7360d279-3172-4afb-a82d-7065779f089d","ios":"levelo://app?vid=7360d279-3172-4afb-a82d-7065779f089d"},"vehicle_type_id":"4","last_reported":1706364379,"current_range_meters":30000,"station_id":"ce4bhbh2rcd13ifvqeo0","pricing_plan_id":"free"},{"bike_id":"759178d0-9530-4d1c-acdc-8e90faa4cfcc","system_id":"levelo_inurba_marseille","lat":43.273609,"lon":5.362708,"is_reserved":false,"is_disabled":false,"rental_uris":{"android":"levelo://app?vid=759178d0-9530-4d1c-acdc-8e90faa4cfcc","ios":"levelo://app?vid=759178d0-9530-4d1c-acdc-8e90faa4cfcc"},"vehicle_type_id":"4","last_reported":1706364379,"current_range_meters":12000,"station_id":"ce4bhbh2rcd13ifvqeo0","pricing_plan_id":"free"},{"bike_id":"6a5915bf-f0ae-43f7-826b-9e74758b4e7d","system_id":"levelo_inurba_marseille","lat":43.273609,"lon":5.362708,"is_reserved":false,"is_disabled":false,"rental_uris":{"android":"levelo://app?vid=6a5915bf-f0ae-43f7-826b-9e74758b4e7d","ios":"levelo://app?vid=6a5915bf-f0ae-43f7-826b-9e74758b4e7d"},"vehicle_type_id":"4","last_reported":1706364379,"current_range_meters":13600,"station_id":"ce4bhbh2rcd13ifvqeo0","pricing_plan_id":"free"},{"bike_id":"57a9551b-7efd-4228-a5ba-e12c22e66737","system_id":"levelo_inurba_marseille","lat":43.273613,"lon":5.362705,"is_reserved":false,"is_disabled":false,"rental_uris":{"android":"levelo://app?vid=57a9551b-7efd-4228-a5ba-e12c22e66737","ios":"levelo://app?vid=57a9551b-7efd-4228-a5ba-e12c22e66737"},"vehicle_type_id":"4","last_reported":1706364379,"current_range_meters":30000,"station_id":"ce4bhbh2rcd13ifvqeo0","pricing_plan_id":"free"},{"bike_id":"c9018451-8711-4c6f-9984-543b4bff5c95","system_id":"levelo_inurba_marseille","lat":43.273609,"lon":5.362708,"is_reserved":false,"is_disabled":false,"rental_uris":{"android":"levelo://app?vid=c9018451-8711-4c6f-9984-543b4bff5c95","ios":"levelo://app?vid=c9018451-8711-4c6f-9984-543b4bff5c95"},"vehicle_type_id":"4","last_reported":1706364379,"current_range_meters":17600,"station_id":"ce4bhbh2rcd13ifvqeo0","pricing_plan_id":"free"},{"bike_id":"d3ed1802-3642-4645-8a08-1420a357a1a1","system_id":"levelo_inurba_marseille","lat":43.33606,"lon":5.41017,"is_reserved":false,"is_disabled":false,"rental_uris":{"android":"levelo://app?vid=d3ed1802-3642-4645-8a08-1420a357a1a1","ios":"levelo://app?vid=d3ed1802-3642-4645-8a08-1420a357a1a1"},"vehicle_type_id":"4","last_reported":1706364379,"current_range_meters":0,"station_id":"ce4bhqh2rcd13ifvqhmg","pricing_plan_id":"free"},{"bike_id":"4f718384-7213-4aa9-bba4-a10465bc9440","system_id":"levelo_inurba_marseille","lat":43.273609,"lon":5.362708,"is_reserved":false,"is_disabled":false,"rental_uris":{"android":"levelo://app?vid=4f718384-7213-4aa9-bba4-a10465bc9440","ios":"levelo://app?vid=4f718384-7213-4aa9-bba4-a10465bc9440"},"vehicle_type_id":"4","last_reported":1706364379,"current_range_meters":11200,"station_id":"ce4bhbh2rcd13ifvqeo0","pricing_plan_id":"free"},{"bike_id":"4bafa364-f11d-407f-aa7f-ea21ac2b0f59","system_id":"levelo_inurba_marseille","lat":43.273609,"lon":5.362708,"is_reserved":false,"is_disabled":false,"rental_uris":{"android":"levelo://app?vid=4bafa364-f11d-407f-aa7f-ea21ac2b0f59","ios":"levelo://app?vid=4bafa364-f11d-407f-aa7f-ea21ac2b0f59"},"vehicle_type_id":"4","last_reported":1706364379,"current_range_meters":18400,"station_id":"ce4bhbh2rcd13ifvqeo0","pricing_plan_id":"free"},{"bike_id":"c4d7a47e-5e9e-410c-8d6f-2ccd3214dab2","system_id":"levelo_inurba_marseille","lat":43.336134,"lon":5.410341,"is_reserved":false,"is_disabled":false,"rental_uris":{"android":"levelo://app?vid=c4d7a47e-5e9e-410c-8d6f-2ccd3214dab2","ios":"levelo://app?vid=c4d7a47e-5e9e-410c-8d6f-2ccd3214dab2"},"vehicle_type_id":"4","last_reported":1706364379,"current_range_meters":31600,"station_id":"ce4bhqh2rcd13ifvqhmg","pricing_plan_id":"free"},{"bike_id":"63ee3fe3-6266-4f93-994d-8f55f68c1b56","system_id":"levelo_inurba_marseille","lat":43.273609,"lon":5.362708,"is_reserved":false,"is_disabled":false,"rental_uris":{"android":"levelo://app?vid=63ee3fe3-6266-4f93-994d-8f55f68c1b56","ios":"levelo://app?vid=63ee3fe3-6266-4f93-994d-8f55f68c1b56"},"vehicle_type_id":"4","last_reported":1706364379,"current_range_meters":25600,"station_id":"ce4bhbh2rcd13ifvqeo0","pricing_plan_id":"free"},{"bike_id":"1e0a6806-72a4-4f0f-ac10-31b26773860d","system_id":"levelo_inurba_marseille","lat":43.273609,"lon":5.362708,"is_reserved":false,"is_disabled":false,"rental_uris":{"android":"levelo://app?vid=1e0a6806-72a4-4f0f-ac10-31b26773860d","ios":"levelo://app?vid=1e0a6806-72a4-4f0f-ac10-31b26773860d"},"vehicle_type_id":"4","last_reported":1706364379,"current_range_meters":19200,"station_id":"ce4bhbh2rcd13ifvqeo0","pricing_plan_id":"free"},{"bike_id":"7b62f4e0-00ce-4090-8f87-32eb30b85fb7","system_id":"levelo_inurba_marseille","lat":43.279952,"lon":5.400085,"is_reserved":false,"is_disabled":false,"rental_uris":{"android":"levelo://app?vid=7b62f4e0-00ce-4090-8f87-32eb30b85fb7","ios":"levelo://app?vid=7b62f4e0-00ce-4090-8f87-32eb30b85fb7"},"vehicle_type_id":"4","last_reported":1706364379,"current_range_meters":24800,"station_id":"ce4bho92rcd13ifvqh4g","pricing_plan_id":"free"},{"bike_id":"cb8addf1-384f-4cef-b608-8e9bb2b191bf","system_id":"levelo_inurba_marseille","lat":43.279952,"lon":5.400085,"is_reserved":false,"is_disabled":false,"rental_uris":{"android":"levelo://app?vid=cb8addf1-384f-4cef-b608-8e9bb2b191bf","ios":"levelo://app?vid=cb8addf1-384f-4cef-b608-8e9bb2b191bf"},"vehicle_type_id":"4","last_reported":1706364379,"current_range_meters":8800,"station_id":"ce4bho92rcd13ifvqh4g","pricing_plan_id":"free"},{"bike_id":"6f46a34b-d5d1-4592-8607-98eec5146735","system_id":"levelo_inurba_marseille","lat":43.283686,"lon":5.407083,"is_reserved":false,"is_disabled":false,"rental_uris":{"android":"levelo://app?vid=6f46a34b-d5d1-4592-8607-98eec5146735","ios":"levelo://app?vid=6f46a34b-d5d1-4592-8607-98eec5146735"},"vehicle_type_id":"4","last_reported":1706364379,"current_range_meters":7200,"station_id":"","pricing_plan_id":"free"},{"bike_id":"d481f5a4-942f-450a-a783-707126c2e3cf","system_id":"levelo_inurba_marseille","lat":43.317121,"lon":5.423936,"is_reserved":false,"is_disabled":false,"rental_uris":{"android":"levelo://app?vid=d481f5a4-942f-450a-a783-707126c2e3cf","ios":"levelo://app?vid=d481f5a4-942f-450a-a783-707126c2e3cf"},"vehicle_type_id":"4","last_reported":1706364379,"current_range_meters":25600,"station_id":"ce4bhp92rcd13ifvqhbg","pricing_plan_id":"free"},{"bike_id":"76a1444e-7429-4c72-9ae5-313749a04157","system_id":"levelo_inurba_marseille","lat":43.31081,"lon":5.42436,"is_reserved":false,"is_disabled":false,"rental_uris":{"android":"levelo://app?vid=76a1444e-7429-4c72-9ae5-313749a04157","ios":"levelo://app?vid=76a1444e-7429-4c72-9ae5-313749a04157"},"vehicle_type_id":"4","last_reported":1706364379,"current_range_meters":18400,"station_id":"ce4bhp92rcd13ifvqhag","pricing_plan_id":"free"},{"bike_id":"efc0ba82-0c0c-4f9f-9dbe-e2536cbab82b","system_id":"levelo_inurba_marseille","lat":43.304096,"lon":5.425385,"is_reserved":false,"is_disabled":false,"rental_uris":{"android":"levelo://app?vid=efc0ba82-0c0c-4f9f-9dbe-e2536cbab82b","ios":"levelo://app?vid=efc0ba82-0c0c-4f9f-9dbe-e2536cbab82b"},"vehicle_type_id":"4","last_reported":1706364379,"current_range_meters":25600,"station_id":"ce4bhoh2rcd13ifvqh6g","pricing_plan_id":"free"},{"bike_id":"488a3164-3e71-4a3f-b156-8a6c4895d60b","system_id":"levelo_inurba_marseille","lat":43.304096,"lon":5.425385,"is_reserved":false,"is_disabled":false,"rental_uris":{"android":"levelo://app?vid=488a3164-3e71-4a3f-b156-8a6c4895d60b","ios":"levelo://app?vid=488a3164-3e71-4a3f-b156-8a6c4895d60b"},"vehicle_type_id":"4","last_reported":1706364379,"current_range_meters":14400,"station_id":"ce4bhoh2rcd13ifvqh6g","pricing_plan_id":"free"},{"bike_id":"fcdc46c5-b227-4944-9c67-9e426e0efa55","system_id":"levelo_inurba_marseille","lat":43.295511,"lon":5.422926,"is_reserved":false,"is_disabled":false,"rental_uris":{"android":"levelo://app?vid=fcdc46c5-b227-4944-9c67-9e426e0efa55","ios":"levelo://app?vid=fcdc46c5-b227-4944-9c67-9e426e0efa55"},"vehicle_type_id":"4","last_reported":1706364379,"current_range_meters":27600,"station_id":"ce4bhph2rcd13ifvqhdg","pricing_plan_id":"free"},{"bike_id":"960b9669-8dcd-4be5-bea8-05f487558cad","system_id":"levelo_inurba_marseille","lat":43.295511,"lon":5.422926,"is_reserved":false,"is_disabled":false,"rental_uris":{"android":"levelo://app?vid=960b9669-8dcd-4be5-bea8-05f487558cad","ios":"levelo://app?vid=960b9669-8dcd-4be5-bea8-05f487558cad"},"vehicle_type_id":"4","last_reported":1706364379,"current_range_meters":10000,"station_id":"ce4bhph2rcd13ifvqhdg","pricing_plan_id":"free"},{"bike_id":"6666f0d6-84fe-4029-b53c-8f911fde6ae1","system_id":"levelo_inurba_marseille","lat":43.295511,"lon":5.422926,"is_reserved":false,"is_disabled":false,"rental_uris":{"android":"levelo://app?vid=6666f0d6-84fe-4029-b53c-8f911fde6ae1","ios":"levelo://app?vid=6666f0d6-84fe-4029-b53c-8f911fde6ae1"},"vehicle_type_id":"4","last_reported":1706364379,"current_range_meters":7200,"station_id":"ce4bhph2rcd13ifvqhdg","pricing_plan_id":"free"},{"bike_id":"5b8abb81-a8e3-4bf5-9691-1cf67236940c","system_id":"levelo_inurba_marseille","lat":43.295523,"lon":5.422926,"is_reserved":false,"is_disabled":false,"rental_uris":{"android":"levelo://app?vid=5b8abb81-a8e3-4bf5-9691-1cf67236940c","ios":"levelo://app?vid=5b8abb81-a8e3-4bf5-9691-1cf67236940c"},"vehicle_type_id":"4","last_reported":1706364379,"current_range_meters":27200,"station_id":"ce4bhph2rcd13ifvqhdg","pricing_plan_id":"free"},{"bike_id":"79aba3fd-e7b6-41fe-974b-a11d6cc1ed17","system_id":"levelo_inurba_marseille","lat":43.29521,"lon":5.42268,"is_reserved":false,"is_disabled":false,"rental_uris":{"android":"levelo://app?vid=79aba3fd-e7b6-41fe-974b-a11d6cc1ed17","ios":"levelo://app?vid=79aba3fd-e7b6-41fe-974b-a11d6cc1ed17"},"vehicle_type_id":"4","last_reported":1706364379,"current_range_meters":22000,"station_id":"ce4bhph2rcd13ifvqhdg","pricing_plan_id":"free"},{"bike_id":"2547600e-d149-4a4d-8519-0adafb725a8e","system_id":"levelo_inurba_marseille","lat":43.295523,"lon":5.422926,"is_reserved":false,"is_disabled":false,"rental_uris":{"android":"levelo://app?vid=2547600e-d149-4a4d-8519-0adafb725a8e","ios":"levelo://app?vid=2547600e-d149-4a4d-8519-0adafb725a8e"},"vehicle_type_id":"4","last_reported":1706364379,"current_range_meters":17600,"station_id":"ce4bhph2rcd13ifvqhdg","pricing_plan_id":"free"},{"bike_id":"1e8a4928-2087-4f36-a906-ef996ea4d5ed","system_id":"levelo_inurba_marseille","lat":43.295523,"lon":5.422926,"is_reserved":false,"is_disabled":false,"rental_uris":{"android":"levelo://app?vid=1e8a4928-2087-4f36-a906-ef996ea4d5ed","ios":"levelo://app?vid=1e8a4928-2087-4f36-a906-ef996ea4d5ed"},"vehicle_type_id":"4","last_reported":1706364379,"current_range_meters":31200,"station_id":"ce4bhph2rcd13ifvqhdg","pricing_plan_id":"free"},{"bike_id":"b14eccbe-4a04-4adc-9837-27b973fdae43","system_id":"levelo_inurba_marseille","lat":43.295511,"lon":5.422926,"is_reserved":false,"is_disabled":false,"rental_uris":{"android":"levelo://app?vid=b14eccbe-4a04-4adc-9837-27b973fdae43","ios":"levelo://app?vid=b14eccbe-4a04-4adc-9837-27b973fdae43"},"vehicle_type_id":"4","last_reported":1706364379,"current_range_meters":6400,"station_id":"ce4bhph2rcd13ifvqhdg","pricing_plan_id":"free"},{"bike_id":"ce9282da-17cb-43ae-9599-73ae8dd31eb7","system_id":"levelo_inurba_marseille","lat":43.295532,"lon":5.422888,"is_reserved":false,"is_disabled":false,"rental_uris":{"android":"levelo://app?vid=ce9282da-17cb-43ae-9599-73ae8dd31eb7","ios":"levelo://app?vid=ce9282da-17cb-43ae-9599-73ae8dd31eb7"},"vehicle_type_id":"4","last_reported":1706364379,"current_range_meters":21200,"station_id":"","pricing_plan_id":"free"},{"bike_id":"70c114c8-7b5e-4171-afbf-dfaf4960bad3","system_id":"levelo_inurba_marseille","lat":43.295523,"lon":5.422926,"is_reserved":false,"is_disabled":false,"rental_uris":{"android":"levelo://app?vid=70c114c8-7b5e-4171-afbf-dfaf4960bad3","ios":"levelo://app?vid=70c114c8-7b5e-4171-afbf-dfaf4960bad3"},"vehicle_type_id":"4","last_reported":1706364379,"current_range_meters":800,"station_id":"ce4bhph2rcd13ifvqhdg","pricing_plan_id":"free"},{"bike_id":"c53ffbb8-f911-496d-9f2c-e04d8ac2dd28","system_id":"levelo_inurba_marseille","lat":43.295511,"lon":5.422926,"is_reserved":false,"is_disabled":false,"rental_uris":{"android":"levelo://app?vid=c53ffbb8-f911-496d-9f2c-e04d8ac2dd28","ios":"levelo://app?vid=c53ffbb8-f911-496d-9f2c-e04d8ac2dd28"},"vehicle_type_id":"4","last_reported":1706364379,"current_range_meters":7600,"station_id":"ce4bhph2rcd13ifvqhdg","pricing_plan_id":"free"},{"bike_id":"ce8546be-7ea0-4f38-904b-567ba5b62295","system_id":"levelo_inurba_marseille","lat":43.272124,"lon":5.391768,"is_reserved":false,"is_disabled":false,"rental_uris":{"android":"levelo://app?vid=ce8546be-7ea0-4f38-904b-567ba5b62295","ios":"levelo://app?vid=ce8546be-7ea0-4f38-904b-567ba5b62295"},"vehicle_type_id":"4","last_reported":1706364379,"current_range_meters":0,"station_id":"ce4bhhp2rcd13ifvqfm0","pricing_plan_id":"free"},{"bike_id":"d46863a5-33b8-4c61-bcfa-82cf3018a50e","system_id":"levelo_inurba_marseille","lat":43.272124,"lon":5.391768,"is_reserved":false,"is_disabled":false,"rental_uris":{"android":"levelo://app?vid=d46863a5-33b8-4c61-bcfa-82cf3018a50e","ios":"levelo://app?vid=d46863a5-33b8-4c61-bcfa-82cf3018a50e"},"vehicle_type_id":"4","last_reported":1706364379,"current_range_meters":16000,"station_id":"ce4bhhp2rcd13ifvqfm0","pricing_plan_id":"free"},{"bike_id":"e800902e-a338-4c81-aecb-22e212a8924c","system_id":"levelo_inurba_marseille","lat":43.27813,"lon":5.40718,"is_reserved":false,"is_disabled":false,"rental_uris":{"android":"levelo://app?vid=e800902e-a338-4c81-aecb-22e212a8924c","ios":"levelo://app?vid=e800902e-a338-4c81-aecb-22e212a8924c"},"vehicle_type_id":"4","last_reported":1706364379,"current_range_meters":25200,"station_id":"ce4bhnh2rcd13ifvqgtg","pricing_plan_id":"free"},{"bike_id":"c2231267-b1f4-4229-9ab3-5fbd80892aa8","system_id":"levelo_inurba_marseille","lat":43.279465,"lon":5.410561,"is_reserved":false,"is_disabled":false,"rental_uris":{"android":"levelo://app?vid=c2231267-b1f4-4229-9ab3-5fbd80892aa8","ios":"levelo://app?vid=c2231267-b1f4-4229-9ab3-5fbd80892aa8"},"vehicle_type_id":"4","last_reported":1706364379,"current_range_meters":22800,"station_id":"ce4bhnp2rcd13ifvqh0g","pricing_plan_id":"free"},{"bike_id":"c92f7772-3c90-489f-a872-770e2f3bd6c0","system_id":"levelo_inurba_marseille","lat":43.279417,"lon":5.410538,"is_reserved":false,"is_disabled":false,"rental_uris":{"android":"levelo://app?vid=c92f7772-3c90-489f-a872-770e2f3bd6c0","ios":"levelo://app?vid=c92f7772-3c90-489f-a872-770e2f3bd6c0"},"vehicle_type_id":"4","last_reported":1706364379,"current_range_meters":22000,"station_id":"ce4bhnp2rcd13ifvqh0g","pricing_plan_id":"free"},{"bike_id":"191300d9-9a87-4315-8668-85d4e103f795","system_id":"levelo_inurba_marseille","lat":43.26681,"lon":5.382694,"is_reserved":false,"is_disabled":false,"rental_uris":{"android":"levelo://app?vid=191300d9-9a87-4315-8668-85d4e103f795","ios":"levelo://app?vid=191300d9-9a87-4315-8668-85d4e103f795"},"vehicle_type_id":"4","last_reported":1706364379,"current_range_meters":11200,"station_id":"ce4bhg92rcd13ifvqf90","pricing_plan_id":"free"},{"bike_id":"823c3415-4bdd-4efc-9703-2618f2e36180","system_id":"levelo_inurba_marseille","lat":43.27996,"lon":5.416624,"is_reserved":false,"is_disabled":false,"rental_uris":{"android":"levelo://app?vid=823c3415-4bdd-4efc-9703-2618f2e36180","ios":"levelo://app?vid=823c3415-4bdd-4efc-9703-2618f2e36180"},"vehicle_type_id":"4","last_reported":1706364379,"current_range_meters":29600,"station_id":"ce4bho12rcd13ifvqh1g","pricing_plan_id":"free"},{"bike_id":"f8c657a5-2994-4aa2-b0f7-2de34349734d","system_id":"levelo_inurba_marseille","lat":43.27987,"lon":5.41659,"is_reserved":false,"is_disabled":false,"rental_uris":{"android":"levelo://app?vid=f8c657a5-2994-4aa2-b0f7-2de34349734d","ios":"levelo://app?vid=f8c657a5-2994-4aa2-b0f7-2de34349734d"},"vehicle_type_id":"4","last_reported":1706364379,"current_range_meters":29600,"station_id":"ce4bho12rcd13ifvqh1g","pricing_plan_id":"free"},{"bike_id":"edd16ce6-50c2-4d11-a9bf-d05357cb5ba8","system_id":"levelo_inurba_marseille","lat":43.27987,"lon":5.41659,"is_reserved":false,"is_disabled":false,"rental_uris":{"android":"levelo://app?vid=edd16ce6-50c2-4d11-a9bf-d05357cb5ba8","ios":"levelo://app?vid=edd16ce6-50c2-4d11-a9bf-d05357cb5ba8"},"vehicle_type_id":"4","last_reported":1706364379,"current_range_meters":30000,"station_id":"ce4bho12rcd13ifvqh1g","pricing_plan_id":"free"},{"bike_id":"7999f19b-c9d4-4e69-80b5-ac5c360909ae","system_id":"levelo_inurba_marseille","lat":43.27996,"lon":5.416624,"is_reserved":false,"is_disabled":false,"rental_uris":{"android":"levelo://app?vid=7999f19b-c9d4-4e69-80b5-ac5c360909ae","ios":"levelo://app?vid=7999f19b-c9d4-4e69-80b5-ac5c360909ae"},"vehicle_type_id":"4","last_reported":1706364379,"current_range_meters":31600,"station_id":"ce4bho12rcd13ifvqh1g","pricing_plan_id":"free"},{"bike_id":"194ba551-6320-4e4f-aeee-b4a0a08a4015","system_id":"levelo_inurba_marseille","lat":43.27987,"lon":5.41663,"is_reserved":false,"is_disabled":false,"rental_uris":{"android":"levelo://app?vid=194ba551-6320-4e4f-aeee-b4a0a08a4015","ios":"levelo://app?vid=194ba551-6320-4e4f-aeee-b4a0a08a4015"},"vehicle_type_id":"4","last_reported":1706364379,"current_range_meters":25200,"station_id":"ce4bho12rcd13ifvqh1g","pricing_plan_id":"free"},{"bike_id":"821050ca-5a75-4508-b510-658898690d44","system_id":"levelo_inurba_marseille","lat":43.27988,"lon":5.41665,"is_reserved":false,"is_disabled":false,"rental_uris":{"android":"levelo://app?vid=821050ca-5a75-4508-b510-658898690d44","ios":"levelo://app?vid=821050ca-5a75-4508-b510-658898690d44"},"vehicle_type_id":"4","last_reported":1706364379,"current_range_meters":28400,"station_id":"ce4bho12rcd13ifvqh1g","pricing_plan_id":"free"},{"bike_id":"96f57ba2-c3bf-4e53-867c-0cc334b59158","system_id":"levelo_inurba_marseille","lat":43.268,"lon":5.39408,"is_reserved":false,"is_disabled":false,"rental_uris":{"android":"levelo://app?vid=96f57ba2-c3bf-4e53-867c-0cc334b59158","ios":"levelo://app?vid=96f57ba2-c3bf-4e53-867c-0cc334b59158"},"vehicle_type_id":"4","last_reported":1706364379,"current_range_meters":28800,"station_id":"ce4bhg12rcd13ifvqf70","pricing_plan_id":"free"},{"bike_id":"17caaceb-b2bd-4c8a-983a-fd13b743e4cd","system_id":"levelo_inurba_marseille","lat":43.2679,"lon":5.3942,"is_reserved":false,"is_disabled":false,"rental_uris":{"android":"levelo://app?vid=17caaceb-b2bd-4c8a-983a-fd13b743e4cd","ios":"levelo://app?vid=17caaceb-b2bd-4c8a-983a-fd13b743e4cd"},"vehicle_type_id":"4","last_reported":1706364379,"current_range_meters":28400,"station_id":"ce4bhg12rcd13ifvqf70","pricing_plan_id":"free"},{"bike_id":"9213eddd-e6da-40b9-a48c-07caeae048ea","system_id":"levelo_inurba_marseille","lat":43.26788,"lon":5.39416,"is_reserved":false,"is_disabled":false,"rental_uris":{"android":"levelo://app?vid=9213eddd-e6da-40b9-a48c-07caeae048ea","ios":"levelo://app?vid=9213eddd-e6da-40b9-a48c-07caeae048ea"},"vehicle_type_id":"4","last_reported":1706364379,"current_range_meters":29200,"station_id":"ce4bhg12rcd13ifvqf70","pricing_plan_id":"free"},{"bike_id":"1b23f98a-3b36-4352-ae38-8d77cb403fbd","system_id":"levelo_inurba_marseille","lat":43.26788,"lon":5.39417,"is_reserved":false,"is_disabled":false,"rental_uris":{"android":"levelo://app?vid=1b23f98a-3b36-4352-ae38-8d77cb403fbd","ios":"levelo://app?vid=1b23f98a-3b36-4352-ae38-8d77cb403fbd"},"vehicle_type_id":"4","last_reported":1706364379,"current_range_meters":32000,"station_id":"ce4bhg12rcd13ifvqf70","pricing_plan_id":"free"},{"bike_id":"a44cfb30-f80d-4738-af9f-7566bbe5be5a","system_id":"levelo_inurba_marseille","lat":43.26786,"lon":5.39413,"is_reserved":false,"is_disabled":false,"rental_uris":{"android":"levelo://app?vid=a44cfb30-f80d-4738-af9f-7566bbe5be5a","ios":"levelo://app?vid=a44cfb30-f80d-4738-af9f-7566bbe5be5a"},"vehicle_type_id":"4","last_reported":1706364379,"current_range_meters":3200,"station_id":"ce4bhg12rcd13ifvqf70","pricing_plan_id":"free"},{"bike_id":"ebd7edae-f258-4002-acab-4f5490864507","system_id":"levelo_inurba_marseille","lat":43.267966,"lon":5.393976,"is_reserved":false,"is_disabled":false,"rental_uris":{"android":"levelo://app?vid=ebd7edae-f258-4002-acab-4f5490864507","ios":"levelo://app?vid=ebd7edae-f258-4002-acab-4f5490864507"},"vehicle_type_id":"4","last_reported":1706364379,"current_range_meters":30400,"station_id":"ce4bhh12rcd13ifvqfg0","pricing_plan_id":"free"},{"bike_id":"5b32a481-5f81-4d03-9b1e-fb857b5f8e4b","system_id":"levelo_inurba_marseille","lat":43.308051,"lon":5.43527,"is_reserved":false,"is_disabled":false,"rental_uris":{"android":"levelo://app?vid=5b32a481-5f81-4d03-9b1e-fb857b5f8e4b","ios":"levelo://app?vid=5b32a481-5f81-4d03-9b1e-fb857b5f8e4b"},"vehicle_type_id":"4","last_reported":1706364379,"current_range_meters":25200,"station_id":"ce4bhph2rcd13ifvqheg","pricing_plan_id":"free"},{"bike_id":"d0c4ba10-793e-47ca-9301-289f2d566884","system_id":"levelo_inurba_marseille","lat":43.265569,"lon":5.390047,"is_reserved":false,"is_disabled":false,"rental_uris":{"android":"levelo://app?vid=d0c4ba10-793e-47ca-9301-289f2d566884","ios":"levelo://app?vid=d0c4ba10-793e-47ca-9301-289f2d566884"},"vehicle_type_id":"4","last_reported":1706364379,"current_range_meters":22800,"station_id":"ce4bhe12rcd13ifvqf30","pricing_plan_id":"free"},