{"last_updated":1678864011,"ttl":30,"version":"2.2","data":{"bikes":[{"bike_id":"92d4e3f9-da80-4a85-b2a1-ce3eb1e16e06","system_id":"levelo_inurba_marseille","lat":43.312239,"lon":5.368562,"is_reserved":false,"is_disabled":false,"rental_uris":{"android":"levelo://app?vid=92d4e3f9-da80-4a85-b2a1-ce3eb1e16e06","ios":"levelo://app?vid=92d4e3f9-da80-4a85-b2a1-ce3eb1e16e06"},"vehicle_type_id":"4","last_reported":1678864011,"current_range_meters":30000,"station_id":"ce4bgl92rcd13ifvqbq0","pricing_plan_id":"free"},{"bike_id":"feffd22f-a58b-47fa-8f70-33692dad6f1f","system_id":"levelo_inurba_marseille","lat":43.312281,"lon":5.36864,"is_reserved":false,"is_disabled":false,"rental_uris":{"android":"levelo://app?vid=feffd22f-a58b-47fa-8f70-33692dad6f1f","ios":"levelo://app?vid=feffd22f-a58b-47fa-8f70-33692dad6f1f"},"vehicle_type_id":"4","last_reported":1678864011,"current_range_meters":16400,"station_id":"ce4bgl92rcd13ifvqbq0","pricing_plan_id":"free"},{"bike_id":"9ddf03b5-ba6f-4888-ae7b-bd632fbd49ed","system_id":"levelo_inurba_marseille","lat":43.312239,"lon":5.368562,"is_reserved":false,"is_disabled":false,"rental_uris":{"android":"levelo://app?vid=9ddf03b5-ba6f-4888-ae7b-bd632fbd49ed","ios":"levelo://app?vid=9ddf03b5-ba6f-4888-ae7b-bd632fbd49ed"},"vehicle_type_id":"4","last_reported":1678864011,"current_range_meters":26800,"station_id":"ce4bgl92rcd13ifvqbq0","pricing_plan_id":"free"},{"bike_id":"0916187f-28a3-47d6-bfe6-bc388f81be0e","system_id":"levelo_inurba_marseille","lat":43.313522,"lon":5.371404,"is_reserved":false,"is_disabled":false,"rental_uris":{"android":"levelo://app?vid=0916187f-28a3-47d6-bfe6-bc388f81be0e","ios":"levelo://app?vid=0916187f-28a3-47d6-bfe6-bc388f81be0e"},"vehicle_type_id":"4","last_reported":1678864011,"current_range_meters":4400,"station_id":"","pricing_plan_id":"free"},{"bike_id":"46a34962-90d9-4590-8f61-ffa3322b05e5","system_id":"levelo_inurba_marseille","lat":43.309076,"lon":5.368465,"is_reserved":false,"is_disabled":false,"rental_uris":{"android":"levelo://app?vid=46a34962-90d9-4590-8f61-ffa3322b05e5","ios":"levelo://app?vid=46a34962-90d9-4590-8f61-ffa3322b05e5"},"vehicle_type_id":"4","last_reported":1678864011,"current_range_meters":24000,"station_id":"ce4bgn92rcd13ifvqbvg","pricing_plan_id":"free"},{"bike_id":"573899ce-9cda-4cae-b4f0-57d76d938a77","system_id":"levelo_inurba_marseille","lat":43.309076,"lon":5.368465,"is_reserved":false,"is_disabled":false,"rental_uris":{"android":"levelo://app?vid=573899ce-9cda-4cae-b4f0-57d76d938a77","ios":"levelo://app?vid=573899ce-9cda-4cae-b4f0-57d76d938a77"},"vehicle_type_id":"4","last_reported":1678864011,"current_range_meters":28000,"station_id":"ce4bgn92rcd13ifvqbvg","pricing_plan_id":"free"},{"bike_id":"4ce0fb46-6195-418a-84d8-55f1dc16a062","system_id":"levelo_inurba_marseille","lat":43.309076,"lon":5.368465,"is_reserved":false,"is_disabled":false,"rental_uris":{"android":"levelo://app?vid=4ce0fb46-6195-418a-84d8-55f1dc16a062","ios":"levelo://app?vid=4ce0fb46-6195-418a-84d8-55f1dc16a062"},"vehicle_type_id":"4","last_reported":1678864011,"current_range_meters":30800,"station_id":"ce4bgn92rcd13ifvqbvg","pricing_plan_id":"free"},{"bike_id":"3f6e1228-710a-4498-8da1-f9a39fa35e42","system_id":"levelo_inurba_marseille","lat":43.297794,"lon":5.370888,"is_reserved":false,"is_disabled":false,"rental_uris":{"android":"levelo://app?vid=3f6e1228-710a-4498-8da1-f9a39fa35e42","ios":"levelo://app?vid=3f6e1228-710a-4498-8da1-f9a39fa35e42"},"vehicle_type_id":"4","last_reported":1678864011,"current_range_meters":26400,"station_id":"ce4bgop2rcd13ifvqc1g","pricing_plan_id":"free"},{"bike_id":"d28e89a6-71f7-460c-b379-504285b2febc","system_id":"levelo_inurba_marseille","lat":43.297794,"lon":5.370888,"is_reserved":false,"is_disabled":false,"rental_uris":{"android":"levelo://app?vid=d28e89a6-71f7-460c-b379-504285b2febc","ios":"levelo://app?vid=d28e89a6-71f7-460c-b379-504285b2febc"},"vehicle_type_id":"4","last_reported":1678864011,"current_range_meters":28000,"station_id":"ce4bgop2rcd13ifvqc1g","pricing_plan_id":"free"},{"bike_id":"a5f13487-c1d9-4790-92f6-e79e2c6afd2b","system_id":"levelo_inurba_marseille","lat":43.30906,"lon":5.36851,"is_reserved":false,"is_disabled":false,"rental_uris":{"android":"levelo://app?vid=a5f13487-c1d9-4790-92f6-e79e2c6afd2b","ios":"levelo://app?vid=a5f13487-c1d9-4790-92f6-e79e2c6afd2b"},"vehicle_type_id":"4","last_reported":1678864011,"current_range_meters":22400,"station_id":"","pricing_plan_id":"free"},{"bike_id":"5c08d2ba-d763-452c-8eec-5783b52b3a89","system_id":"levelo_inurba_marseille","lat":43.309076,"lon":5.368465,"is_reserved":false,"is_disabled":false,"rental_uris":{"android":"levelo://app?vid=5c08d2ba-d763-452c-8eec-5783b52b3a89","ios":"levelo://app?vid=5c08d2ba-d763-452c-8eec-5783b52b3a89"},"vehicle_type_id":"4","last_reported":1678864011,"current_range_meters":25600,"station_id":"ce4bgn92rcd13ifvqbvg","pricing_plan_id":"free"},{"bike_id":"055e1417-75f6-4cd5-8051-45e7b6310bef","system_id":"levelo_inurba_marseille","lat":43.309076,"lon":5.368465,"is_reserved":false,"is_disabled":false,"rental_uris":{"android":"levelo://app?vid=055e1417-75f6-4cd5-8051-45e7b6310bef","ios":"levelo://app?vid=055e1417-75f6-4cd5-8051-45e7b6310bef"},"vehicle_type_id":"4","last_reported":1678864011,"current_range_meters":14000,"station_id":"ce4bgn92rcd13ifvqbvg","pricing_plan_id":"free"},{"bike_id":"5b7a2f78-59aa-462e-a439-58c5ec26b0a4","system_id":"levelo_inurba_marseille","lat":43.314811,"lon":5.373103,"is_reserved":false,"is_disabled":false,"rental_uris":{"android":"levelo://app?vid=5b7a2f78-59aa-462e-a439-58c5ec26b0a4","ios":"levelo://app?vid=5b7a2f78-59aa-462e-a439-58c5ec26b0a4"},"vehicle_type_id":"4","last_reported":1678864011,"current_range_meters":14800,"station_id":"ce4bgt12rcd13ifvqcd0","pricing_plan_id":"free"},{"bike_id":"aa930d41-0efb-4b75-a732-c94706ee3a75","system_id":"levelo_inurba_marseille","lat":43.314811,"lon":5.373103,"is_reserved":false,"is_disabled":false,"rental_uris":{"android":"levelo://app?vid=aa930d41-0efb-4b75-a732-c94706ee3a75","ios":"levelo://app?vid=aa930d41-0efb-4b75-a732-c94706ee3a75"},"vehicle_type_id":"4","last_reported":1678864011,"current_range_meters":8000,"station_id":"ce4bgt12rcd13ifvqcd0","pricing_plan_id":"free"},{"bike_id":"e487af3f-903c-40c8-82c6-3b118c21d1c7","system_id":"levelo_inurba_marseille","lat":43.314811,"lon":5.373103,"is_reserved":false,"is_disabled":false,"rental_uris":{"android":"levelo://app?vid=e487af3f-903c-40c8-82c6-3b118c21d1c7","ios":"levelo://app?vid=e487af3f-903c-40c8-82c6-3b118c21d1c7"},"vehicle_type_id":"4","last_reported":1678864011,"current_range_meters":5200,"station_id":"ce4bgt12rcd13ifvqcd0","pricing_plan_id":"free"},{"bike_id":"0f2db333-4686-40a6-96b9-7fc93bec367c","system_id":"levelo_inurba_marseille","lat":43.30893,"lon":5.3719,"is_reserved":false,"is_disabled":false,"rental_uris":{"android":"levelo://app?vid=0f2db333-4686-40a6-96b9-7fc93bec367c","ios":"levelo://app?vid=0f2db333-4686-40a6-96b9-7fc93bec367c"},"vehicle_type_id":"4","last_reported":1678864011,"current_range_meters":2000,"station_id":"","pricing_plan_id":"free"},{"bike_id":"20f7f4c3-a0f6-4c54-a25f-a58a498f91a0","system_id":"levelo_inurba_marseille","lat":43.308874,"lon":5.371999,"is_reserved":false,"is_disabled":false,"rental_uris":{"android":"levelo://app?vid=20f7f4c3-a0f6-4c54-a25f-a58a498f91a0","ios":"levelo://app?vid=20f7f4c3-a0f6-4c54-a25f-a58a498f91a0"},"vehicle_type_id":"4","last_reported":1678864011,"current_range_meters":0,"station_id":"ce4bguh2rcd13ifvqckg","pricing_plan_id":"free"},{"bike_id":"1d1b4515-fdab-4b38-aeed-85cdf0ee288c","system_id":"levelo_inurba_marseille","lat":43.305989,"lon":5.37225,"is_reserved":false,"is_disabled":false,"rental_uris":{"android":"levelo://app?vid=1d1b4515-fdab-4b38-aeed-85cdf0ee288c","ios":"levelo://app?vid=1d1b4515-fdab-4b38-aeed-85cdf0ee288c"},"vehicle_type_id":"4","last_reported":1678864011,"current_range_meters":31200,"station_id":"ce4bgqh2rcd13ifvqc4g","pricing_plan_id":"free"},{"bike_id":"a59742e7-4098-460e-91d3-a0138af06b65","system_id":"levelo_inurba_marseille","lat":43.305989,"lon":5.37225,"is_reserved":false,"is_disabled":false,"rental_uris":{"android":"levelo://app?vid=a59742e7-4098-460e-91d3-a0138af06b65","ios":"levelo://app?vid=a59742e7-4098-460e-91d3-a0138af06b65"},"vehicle_type_id":"4","last_reported":1678864011,"current_range_meters":28000,"station_id":"ce4bgqh2rcd13ifvqc4g","pricing_plan_id":"free"},{"bike_id":"dddfb122-4e71-4f49-83ef-9ef4a6cbe8d2","system_id":"levelo_inurba_marseille","lat":43.305989,"lon":5.37225,"is_reserved":false,"is_disabled":false,"rental_uris":{"android":"levelo://app?vid=dddfb122-4e71-4f49-83ef-9ef4a6cbe8d2","ios":"levelo://app?vid=dddfb122-4e71-4f49-83ef-9ef4a6cbe8d2"},"vehicle_type_id":"4","last_reported":1678864011,"current_range_meters":8800,"station_id":"ce4bgqh2rcd13ifvqc4g","pricing_plan_id":"free"},{"bike_id":"53b1d42e-7921-4601-896f-2de8b26ef85b","system_id":"levelo_inurba_marseille","lat":43.316827,"lon":5.37741,"is_reserved":false,"is_disabled":false,"rental_uris":{"android":"levelo://app?vid=53b1d42e-7921-4601-896f-2de8b26ef85b","ios":"levelo://app?vid=53b1d42e-7921-4601-896f-2de8b26ef85b"},"vehicle_type_id":"4","last_reported":1678864011,"current_range_meters":26400,"station_id":"ce4bgth2rcd13ifvqch0","pricing_plan_id":"free"},{"bike_id":"c3c57741-9bee-44dd-a20a-4ea724093dde","system_id":"levelo_inurba_marseille","lat":43.316965,"lon":5.377521,"is_reserved":false,"is_disabled":false,"rental_uris":{"android":"levelo://app?vid=c3c57741-9bee-44dd-a20a-4ea724093dde","ios":"levelo://app?vid=c3c57741-9bee-44dd-a20a-4ea724093dde"},"vehicle_type_id":"4","last_reported":1678864011,"current_range_meters":1200,"station_id":"","pricing_plan_id":"free"},{"bike_id":"fa9792ce-f4ef-4ea2-b090-83028993ba44","system_id":"levelo_inurba_marseille","lat":43.317058,"lon":5.377507,"is_reserved":false,"is_disabled":false,"rental_uris":{"android":"levelo://app?vid=fa9792ce-f4ef-4ea2-b090-83028993ba44","ios":"levelo://app?vid=fa9792ce-f4ef-4ea2-b090-83028993ba44"},"vehicle_type_id":"4","last_reported":1678864011,"current_range_meters":15200,"station_id":"","pricing_plan_id":"free"},{"bike_id":"af21bf8d-e635-4666-bf85-36d6cabcde79","system_id":"levelo_inurba_marseille","lat":43.317027,"lon":5.377581,"is_reserved":false,"is_disabled":false,"rental_uris":{"android":"levelo://app?vid=af21bf8d-e635-4666-bf85-36d6cabcde79","ios":"levelo://app?vid=af21bf8d-e635-4666-bf85-36d6cabcde79"},"vehicle_type_id":"4","last_reported":1678864011,"current_range_meters":22000,"station_id":"","pricing_plan_id":"free"},{"bike_id":"1004557f-5b7b-456e-a447-da5ad01a0021","system_id":"levelo_inurba_marseille","lat":43.316949,"lon":5.377648,"is_reserved":false,"is_disabled":false,"rental_uris":{"android":"levelo://app?vid=1004557f-5b7b-456e-a447-da5ad01a0021","ios":"levelo://app?vid=1004557f-5b7b-456e-a447-da5ad01a0021"},"vehicle_type_id":"4","last_reported":1678864011,"current_range_meters":2400,"station_id":"ce4bgth2rcd13ifvqch0","pricing_plan_id":"free"},{"bike_id":"d22c0d3b-d3ef-4cd9-b11d-531ff22820dd","system_id":"levelo_inurba_marseille","lat":43.317052,"lon":5.377599,"is_reserved":false,"is_disabled":false,"rental_uris":{"android":"levelo://app?vid=d22c0d3b-d3ef-4cd9-b11d-531ff22820dd","ios":"levelo://app?vid=d22c0d3b-d3ef-4cd9-b11d-531ff22820dd"},"vehicle_type_id":"4","last_reported":1678864011,"current_range_meters":18000,"station_id":"ce4bgth2rcd13ifvqch0","pricing_plan_id":"free"},{"bike_id":"97b54df4-506a-417a-a221-9dfd33627f0b","system_id":"levelo_inurba_marseille","lat":43.317075,"lon":5.377367,"is_reserved":false,"is_disabled":false,"rental_uris":{"android":"levelo://app?vid=97b54df4-506a-417a-a221-9dfd33627f0b","ios":"levelo://app?vid=97b54df4-506a-417a-a221-9dfd33627f0b"},"vehicle_type_id":"4","last_reported":1678864011,"current_range_meters":29600,"station_id":"ce4bgth2rcd13ifvqch0","pricing_plan_id":"free"},{"bike_id":"e46cdb30-6289-45ec-8c13-e5c2accf67af","system_id":"levelo_inurba_marseille","lat":43.309368,"lon":5.379854,"is_reserved":false,"is_disabled":false,"rental_uris":{"android":"levelo://app?vid=e46cdb30-6289-45ec-8c13-e5c2accf67af","ios":"levelo://app?vid=e46cdb30-6289-45ec-8c13-e5c2accf67af"},"vehicle_type_id":"4","last_reported":1678864011,"current_range_meters":0,"station_id":"","pricing_plan_id":"free"},{"bike_id":"a6c6968b-7678-4e09-8d29-91713d745ec5","system_id":"levelo_inurba_marseille","lat":43.301939,"lon":5.366286,"is_reserved":false,"is_disabled":false,"rental_uris":{"android":"levelo://app?vid=a6c6968b-7678-4e09-8d29-91713d745ec5","ios":"levelo://app?vid=a6c6968b-7678-4e09-8d29-91713d745ec5"},"vehicle_type_id":"4","last_reported":1678864011,"current_range_meters":14000,"station_id":"ce4bgrh2rcd13ifvqc8g","pricing_plan_id":"free"},{"bike_id":"9e7a0e17-cca3-4cf0-86e8-1361e244a4bc","system_id":"levelo_inurba_marseille","lat":43.301939,"lon":5.366286,"is_reserved":false,"is_disabled":false,"rental_uris":{"android":"levelo://app?vid=9e7a0e17-cca3-4cf0-86e8-1361e244a4bc","ios":"levelo://app?vid=9e7a0e17-cca3-4cf0-86e8-1361e244a4bc"},"vehicle_type_id":"4","last_reported":1678864011,"current_range_meters":26800,"station_id":"ce4bgrh2rcd13ifvqc8g","pricing_plan_id":"free"},{"bike_id":"e9e40e77-857d-478a-84dd-78d96e9bc880","system_id":"levelo_inurba_marseille","lat":43.30185,"lon":5.36603,"is_reserved":false,"is_disabled":false,"rental_uris":{"android":"levelo://app?vid=e9e40e77-857d-478a-84dd-78d96e9bc880","ios":"levelo://app?vid=e9e40e77-857d-478a-84dd-78d96e9bc880"},"vehicle_type_id":"4","last_reported":1678864011,"current_range_meters":23600,"station_id":"ce4bgrh2rcd13ifvqc8g","pricing_plan_id":"free"},{"bike_id":"cd18b1a8-b0fc-4e94-8098-7c80dae31b1f","system_id":"levelo_inurba_marseille","lat":43.304606,"lon":5.379026,"is_reserved":false,"is_disabled":false,"rental_uris":{"android":"levelo://app?vid=cd18b1a8-b0fc-4e94-8098-7c80dae31b1f","ios":"levelo://app?vid=cd18b1a8-b0fc-4e94-8098-7c80dae31b1f"},"vehicle_type_id":"4","last_reported":1678864011,"current_range_meters":26000,"station_id":"ce4bgup2rcd13ifvqcn0","pricing_plan_id":"free"},{"bike_id":"a236dfbf-2bd0-47d0-ad93-ac27ba755ffb","system_id":"levelo_inurba_marseille","lat":43.304606,"lon":5.379026,"is_reserved":false,"is_disabled":false,"rental_uris":{"android":"levelo://app?vid=a236dfbf-2bd0-47d0-ad93-ac27ba755ffb","ios":"levelo://app?vid=a236dfbf-2bd0-47d0-ad93-ac27ba755ffb"},"vehicle_type_id":"4","last_reported":1678864011,"current_range_meters":5200,"station_id":"ce4bgup2rcd13ifvqcn0","pricing_plan_id":"free"},{"bike_id":"21d4e508-f77b-46e1-aac8-1149dbc6089d","system_id":"levelo_inurba_marseille","lat":43.304606,"lon":5.379026,"is_reserved":false,"is_disabled":false,"rental_uris":{"android":"levelo://app?vid=21d4e508-f77b-46e1-aac8-1149dbc6089d","ios":"levelo://app?vid=21d4e508-f77b-46e1-aac8-1149dbc6089d"},"vehicle_type_id":"4","last_reported":1678864011,"current_range_meters":24800,"station_id":"ce4bgup2rcd13ifvqcn0","pricing_plan_id":"free"},{"bike_id":"6fe050f0-867d-4c35-a6aa-9edad67a5f63","system_id":"levelo_inurba_marseille","lat":43.304606,"lon":5.379026,"is_reserved":false,"is_disabled":false,"rental_uris":{"android":"levelo://app?vid=6fe050f0-867d-4c35-a6aa-9edad67a5f63","ios":"levelo://app?vid=6fe050f0-867d-4c35-a6aa-9edad67a5f63"},"vehicle_type_id":"4","last_reported":1678864011,"current_range_meters":28400,"station_id":"ce4bgup2rcd13ifvqcn0","pricing_plan_id":"free"},{"bike_id":"b5c71e04-e115-41c8-8629-3d4ff2effeb2","system_id":"levelo_inurba_marseille","lat":43.304606,"lon":5.379026,"is_reserved":false,"is_disabled":false,"rental_uris":{"android":"levelo://app?vid=b5c71e04-e115-41c8-8629-3d4ff2effeb2","ios":"levelo://app?vid=b5c71e04-e115-41c8-8629-3d4ff2effeb2"},"vehicle_type_id":"4","last_reported":1678864011,"current_range_meters":26000,"station_id":"ce4bgup2rcd13ifvqcn0","pricing_plan_id":"free"},{"bike_id":"cf3d6400-4128-4831-bff1-117c48a755a3","system_id":"levelo_inurba_marseille","lat":43.304606,"lon":5.379026,"is_reserved":false,"is_disabled":false,"rental_uris":{"android":"levelo://app?vid=cf3d6400-4128-4831-bff1-117c48a755a3","ios":"levelo://app?vid=cf3d6400-4128-4831-bff1-117c48a755a3"},"vehicle_type_id":"4","last_reported":1678864011,"current_range_meters":31600,"station_id":"ce4bgup2rcd13ifvqcn0","pricing_plan_id":"free"},{"bike_id":"4c57cb2b-5ef6-4025-9362-a552989f362c","system_id":"levelo_inurba_marseille","lat":43.304606,"lon":5.379026,"is_reserved":false,"is_disabled":false,"rental_uris":{"android":"levelo://app?vid=4c57cb2b-5ef6-4025-9362-a552989f362c","ios":"levelo://app?vid=4c57cb2b-5ef6-4025-9362-a552989f362c"},"vehicle_type_id":"4","last_reported":1678864011,"current_range_meters":14000,"station_id":"ce4bgup2rcd13ifvqcn0","pricing_plan_id":"free"},{"bike_id":"0c333cfa-4112-4134-ac27-618c1dab89ab","system_id":"levelo_inurba_marseille","lat":43.304606,"lon":5.379026,"is_reserved":false,"is_disabled":false,"rental_uris":{"android":"levelo://app?vid=0c333cfa-4112-4134-ac27-618c1dab89ab","ios":"levelo://app?vid=0c333cfa-4112-4134-ac27-618c1dab89ab"},"vehicle_type_id":"4","last_reported":1678864011,"current_range_meters":2000,"station_id":"ce4bgup2rcd13ifvqcn0","pricing_plan_id":"free"},{"bike_id":"06d1c103-a8f6-4373-9643-56d8c1ceb052","system_id":"levelo_inurba_marseille","lat":43.304606,"lon":5.379026,"is_reserved":false,"is_disabled":false,"rental_uris":{"android":"levelo://app?vid=06d1c103-a8f6-4373-9643-56d8c1ceb052","ios":"levelo://app?vid=06d1c103-a8f6-4373-9643-56d8c1ceb052"},"vehicle_type_id":"4","last_reported":1678864011,"current_range_meters":27600,"station_id":"ce4bgup2rcd13ifvqcn0","pricing_plan_id":"free"},{"bike_id":"d43f0ef3-44a8-49ed-a8ce-b2102029d6ff","system_id":"levelo_inurba_marseille","lat":43.304606,"lon":5.379026,"is_reserved":false,"is_disabled":false,"rental_uris":{"android":"levelo://app?vid=d43f0ef3-44a8-49ed-a8ce-b2102029d6ff","ios":"levelo://app?vid=d43f0ef3-44a8-49ed-a8ce-b2102029d6ff"},"vehicle_type_id":"4","last_reported":1678864011,"current_range_meters":24400,"station_id":"ce4bgup2rcd13ifvqcn0","pricing_plan_id":"free"},{"bike_id":"99ba9d31-e17a-4ec8-91d3-82c317aa76bc","system_id":"levelo_inurba_marseille","lat":43.304606,"lon":5.379026,"is_reserved":false,"is_disabled":false,"rental_uris":{"android":"levelo://app?vid=99ba9d31-e17a-4ec8-91d3-82c317aa76bc","ios":"levelo://app?vid=99ba9d31-e17a-4ec8-91d3-82c317aa76bc"},"vehicle_type_id":"4","last_reported":1678864011,"current_range_meters":15200,"station_id":"ce4bgup2rcd13ifvqcn0","pricing_plan_id":"free"},{"bike_id":"12a5e212-e585-46a4-ad99-df37b777ab4e","system_id":"levelo_inurba_marseille","lat":43.304606,"lon":5.379026,"is_reserved":false,"is_disabled":false,"rental_uris":{"android":"levelo://app?vid=12a5e212-e585-46a4-ad99-df37b777ab4e","ios":"levelo://app?vid=12a5e212-e585-46a4-ad99-df37b777ab4e"},"vehicle_type_id":"4","last_reported":1678864011,"current_range_meters":10400,"station_id":"ce4bgup2rcd13ifvqcn0","pricing_plan_id":"free"},{"bike_id":"fa4ddd9c-36e6-4599-8bd2-e4604fbb4471","system_id":"levelo_inurba_marseille","lat":43.304606,"lon":5.379026,"is_reserved":false,"is_disabled":false,"rental_uris":{"android":"levelo://app?vid=fa4ddd9c-36e6-4599-8bd2-e4604fbb4471","ios":"levelo://app?vid=fa4ddd9c-36e6-4599-8bd2-e4604fbb4471"},"vehicle_type_id":"4","last_reported":1678864011,"current_range_meters":2800,"station_id":"ce4bgup2rcd13ifvqcn0","pricing_plan_id":"free"},{"bike_id":"2207376a-782e-401b-adfe-aab7d07c2910","system_id":"levelo_inurba_marseille","lat":43.304606,"lon":5.379026,"is_reserved":false,"is_disabled":false,"rental_uris":{"android":"levelo://app?vid=2207376a-782e-401b-adfe-aab7d07c2910","ios":"levelo://app?vid=2207376a-782e-401b-adfe-aab7d07c2910"},"vehicle_type_id":"4","last_reported":1678864011,"current_range_meters":17600,"station_id":"ce4bgup2rcd13ifvqcn0","pricing_plan_id":"free"},{"bike_id":"fb63a52e-75de-4a67-92bd-90dba3b8f8f4","system_id":"levelo_inurba_marseille","lat":43.304606,"lon":5.379026,"is_reserved":false,"is_disabled":false,"rental_uris":{"android":"levelo://app?vid=fb63a52e-75de-4a67-92bd-90dba3b8f8f4","ios":"levelo://app?vid=fb63a52e-75de-4a67-92bd-90dba3b8f8f4"},"vehicle_type_id":"4","last_reported":1678864011,"current_range_meters":11200,"station_id":"ce4bgup2rcd13ifvqcn0","pricing_plan_id":"free"},{"bike_id":"68472bb8-ea11-40fe-afcf-3f8812e25d59","system_id":"levelo_inurba_marseille","lat":43.304606,"lon":5.379026,"is_reserved":false,"is_disabled":false,"rental_uris":{"android":"levelo://app?vid=68472bb8-ea11-40fe-afcf-3f8812e25d59","ios":"levelo://app?vid=68472bb8-ea11-40fe-afcf-3f8812e25d59"},"vehicle_type_id":"4","last_reported":1678864011,"current_range_meters":14800,"station_id":"ce4bgup2rcd13ifvqcn0","pricing_plan_id":"free"},{"bike_id":"2cc3c30b-c4d6-424b-bc28-44b4bd123b0c","system_id":"levelo_inurba_marseille","lat":43.313571,"lon":5.384829,"is_reserved":false,"is_disabled":false,"rental_uris":{"android":"levelo://app?vid=2cc3c30b-c4d6-424b-bc28-44b4bd123b0c","ios":"levelo://app?vid=2cc3c30b-c4d6-424b-bc28-44b4bd123b0c"},"vehicle_type_id":"4","last_reported":1678864011,"current_range_meters":13600,"station_id":"ce4bgt92rcd13ifvqcf0","pricing_plan_id":"free"},{"bike_id":"457b822a-0301-4eff-9d0c-07c47bfe4d26","system_id":"levelo_inurba_marseille","lat":43.299094,"lon":5.365415,"is_reserved":false,"is_disabled":false,"rental_uris":{"android":"levelo://app?vid=457b822a-0301-4eff-9d0c-07c47bfe4d26","ios":"levelo://app?vid=457b822a-0301-4eff-9d0c-07c47bfe4d26"},"vehicle_type_id":"4","last_reported":1678864011,"current_range_meters":26800,"station_id":"ce4bgm92rcd13ifvqbr0","pricing_plan_id":"free"},{"bike_id":"54ce3e53-7ac9-4f88-945f-e642f916deec","system_id":"levelo_inurba_marseille","lat":43.311722,"lon":5.387247,"is_reserved":false,"is_disabled":false,"rental_uris":{"android":"levelo://app?vid=54ce3e53-7ac9-4f88-945f-e642f916deec","ios":"levelo://app?vid=54ce3e53-7ac9-4f88-945f-e642f916deec"},"vehicle_type_id":"4","last_reported":1678864011,"current_range_meters":24400,"station_id":"ce4bgv12rcd13ifvqcp0","pricing_plan_id":"free"},{"bike_id":"c14f455b-e76a-427a-84b8-89c0be5d0f5b","system_id":"levelo_inurba_marseille","lat":43.305364,"lon":5.384119,"is_reserved":false,"is_disabled":false,"rental_uris":{"android":"levelo://app?vid=c14f455b-e76a-427a-84b8-89c0be5d0f5b","ios":"levelo://app?vid=c14f455b-e76a-427a-84b8-89c0be5d0f5b"},"vehicle_type_id":"4","last_reported":1678864011,"current_range_meters":12800,"station_id":"ce4bgg92rcd13ifvqb30","pricing_plan_id":"free"},{"bike_id":"cae9a4d6-8512-4570-9b70-c957f5ba1a40","system_id":"levelo_inurba_marseille","lat":43.298433,"lon":5.362774,"is_reserved":false,"is_disabled":false,"rental_uris":{"android":"levelo://app?vid=cae9a4d6-8512-4570-9b70-c957f5ba1a40","ios":"levelo://app?vid=cae9a4d6-8512-4570-9b70-c957f5ba1a40"},"vehicle_type_id":"4","last_reported":1678864011,"current_range_meters":30000,"station_id":"ce4bgpp2rcd13ifvqc3g","pricing_plan_id":"free"},{"bike_id":"63f94a6a-b97c-46e3-9419-9153b1ae7776","system_id":"levelo_inurba_marseille","lat":43.298433,"lon":5.362774,"is_reserved":false,"is_disabled":false,"rental_uris":{"android":"levelo://app?vid=63f94a6a-b97c-46e3-9419-9153b1ae7776","ios":"levelo://app?vid=63f94a6a-b97c-46e3-9419-9153b1ae7776"},"vehicle_type_id":"4","last_reported":1678864011,"current_range_meters":26800,"station_id":"ce4bgpp2rcd13ifvqc3g","pricing_plan_id":"free"},{"bike_id":"74fcbcef-aabe-4a04-91d1-9d5a4b6ef892","system_id":"levelo_inurba_marseille","lat":43.298433,"lon":5.362774,"is_reserved":false,"is_disabled":false,"rental_uris":{"android":"levelo://app?vid=74fcbcef-aabe-4a04-91d1-9d5a4b6ef892","ios":"levelo://app?vid=74fcbcef-aabe-4a04-91d1-9d5a4b6ef892"},"vehicle_type_id":"4","last_reported":1678864011,"current_range_meters":30400,"station_id":"ce4bgpp2rcd13ifvqc3g","pricing_plan_id":"free"},{"bike_id":"ee37d07c-6938-4ed0-860d-45c37af74a09","system_id":"levelo_inurba_marseille","lat":43.298433,"lon":5.362774,"is_reserved":false,"is_disabled":false,"rental_uris":{"android":"levelo://app?vid=ee37d07c-6938-4ed0-860d-45c37af74a09","ios":"levelo://app?vid=ee37d07c-6938-4ed0-860d-45c37af74a09"},"vehicle_type_id":"4","last_reported":1678864011,"current_range_meters":30800,"station_id":"ce4bgpp2rcd13ifvqc3g","pricing_plan_id":"free"},{"bike_id":"3341795a-ed4d-4a21-9305-198d61c6f4da","system_id":"levelo_inurba_marseille","lat":43.298433,"lon":5.362774,"is_reserved":false,"is_disabled":false,"rental_uris":{"android":"levelo://app?vid=3341795a-ed4d-4a21-9305-198d61c6f4da","ios":"levelo://app?vid=3341795a-ed4d-4a21-9305-198d61c6f4da"},"vehicle_type_id":"4","last_reported":1678864011,"current_range_meters":30400,"station_id":"ce4bgpp2rcd13ifvqc3g","pricing_plan_id":"free"},{"bike_id":"70c381cd-541f-4b54-b78a-cadf669200db","system_id":"levelo_inurba_marseille","lat":43.298433,"lon":5.362774,"is_reserved":false,"is_disabled":false,"rental_uris":{"android":"levelo://app?vid=70c381cd-541f-4b54-b78a-cadf669200db","ios":"levelo://app?vid=70c381cd-541f-4b54-b78a-cadf669200db"},"vehicle_type_id":"4","last_reported":1678864011,"current_range_meters":29600,"station_id":"ce4bgpp2rcd13ifvqc3g","pricing_plan_id":"free"},{"bike_id":"b237aabe-9e86-43a9-a480-9e3984bc7668","system_id":"levelo_inurba_marseille","lat":43.305364,"lon":5.384119,"is_reserved":false,"is_disabled":false,"rental_uris":{"android":"levelo://app?vid=b237aabe-9e86-43a9-a480-9e3984bc7668","ios":"levelo://app?vid=b237aabe-9e86-43a9-a480-9e3984bc7668"},"vehicle_type_id":"4","last_reported":1678864011,"current_range_meters":4800,"station_id":"ce4bgg92rcd13ifvqb30","pricing_plan_id":"free"},{"bike_id":"27dedae0-0cc6-473d-853a-94cedbaca7e4","system_id":"levelo_inurba_marseille","lat":43.311722,"lon":5.387247,"is_reserved":false,"is_disabled":false,"rental_uris":{"android":"levelo://app?vid=27dedae0-0cc6-473d-853a-94cedbaca7e4","ios":"levelo://app?vid=27dedae0-0cc6-473d-853a-94cedbaca7e4"},"vehicle_type_id":"4","last_reported":1678864011,"current_range_meters":30400,"station_id":"ce4bgv12rcd13ifvqcp0","pricing_plan_id":"free"},{"bike_id":"a97794ad-a3b9-4f4d-a566-bec9f7ba02b5","system_id":"levelo_inurba_marseille","lat":43.297794,"lon":5.370888,"is_reserved":false,"is_disabled":false,"rental_uris":{"android":"levelo://app?vid=a97794ad-a3b9-4f4d-a566-bec9f7ba02b5","ios":"levelo://app?vid=a97794ad-a3b9-4f4d-a566-bec9f7ba02b5"},"vehicle_type_id":"4","last_reported":1678864011,"current_range_meters":25200,"station_id":"ce4bgop2rcd13ifvqc1g","pricing_plan_id":"free"},{"bike_id":"5c068b6d-e97d-4af5-8645-bb083c05bb25","system_id":"levelo_inurba_marseille","lat":43.297794,"lon":5.370888,"is_reserved":false,"is_disabled":false,"rental_uris":{"android":"levelo://app?vid=5c068b6d-e97d-4af5-8645-bb083c05bb25","ios":"levelo://app?vid=5c068b6d-e97d-4af5-8645-bb083c05bb25"},"vehicle_type_id":"4","last_reported":1678864011,"current_range_meters":27600,"station_id":"ce4bgop2rcd13ifvqc1g","pricing_plan_id":"free"},{"bike_id":"91776c2d-124d-4c57-884e-a13958ceed93","system_id":"levelo_inurba_marseille","lat":43.297774,"lon":5.370875,"is_reserved":false,"is_disabled":false,"rental_uris":{"android":"levelo://app?vid=91776c2d-124d-4c57-884e-a13958ceed93","ios":"levelo://app?vid=91776c2d-124d-4c57-884e-a13958ceed93"},"vehicle_type_id":"4","last_reported":1678864011,"current_range_meters":26400,"station_id":"ce4bgop2rcd13ifvqc1g","pricing_plan_id":"free"},{"bike_id":"d29b1ee3-d13b-44b7-b7c5-606089bd3e3f","system_id":"levelo_inurba_marseille","lat":43.328371,"lon":5.366912,"is_reserved":false,"is_disabled":false,"rental_uris":{"android":"levelo://app?vid=d29b1ee3-d13b-44b7-b7c5-606089bd3e3f","ios":"levelo://app?vid=d29b1ee3-d13b-44b7-b7c5-606089bd3e3f"},"vehicle_type_id":"4","last_reported":1678864011,"current_range_meters":23200,"station_id":"ce4bhs92rcd13ifvqi0g","pricing_plan_id":"free"},{"bike_id":"497f6697-e177-4e91-ad95-63dae856af89","system_id":"levelo_inurba_marseille","lat":43.328371,"lon":5.366912,"is_reserved":false,"is_disabled":false,"rental_uris":{"android":"levelo://app?vid=497f6697-e177-4e91-ad95-63dae856af89","ios":"levelo://app?vid=497f6697-e177-4e91-ad95-63dae856af89"},"vehicle_type_id":"4","last_reported":1678864011,"current_range_meters":0,"station_id":"ce4bhs92rcd13ifvqi0g","pricing_plan_id":"free"},{"bike_id":"cc0fafeb-3605-476d-89c6-d58097b14611","system_id":"levelo_inurba_marseille","lat":43.328273,"lon":5.366841,"is_reserved":false,"is_disabled":false,"rental_uris":{"android":"levelo://app?vid=cc0fafeb-3605-476d-89c6-d58097b14611","ios":"levelo://app?vid=cc0fafeb-3605-476d-89c6-d58097b14611"},"vehicle_type_id":"4","last_reported":1678864011,"current_range_meters":0,"station_id":"ce4bhs92rcd13ifvqi0g","pricing_plan_id":"free"},{"bike_id":"6ba7c09c-4298-4b0c-8256-d68443ed382f","system_id":"levelo_inurba_marseille","lat":43.328371,"lon":5.366912,"is_reserved":false,"is_disabled":false,"rental_uris":{"android":"levelo://app?vid=6ba7c09c-4298-4b0c-8256-d68443ed382f","ios":"levelo://app?vid=6ba7c09c-4298-4b0c-8256-d68443ed382f"},"vehicle_type_id":"4","last_reported":1678864011,"current_range_meters":0,"station_id":"ce4bhs92rcd13ifvqi0g","pricing_plan_id":"free"},{"bike_id":"87e362fd-2e24-4e73-a880-5fcb5f660808","system_id":"levelo_inurba_marseille","lat":43.328371,"lon":5.366912,"is_reserved":false,"is_disabled":false,"rental_uris":{"android":"levelo://app?vid=87e362fd-2e24-4e73-a880-5fcb5f660808","ios":"levelo://app?vid=87e362fd-2e24-4e73-a880-5fcb5f660808"},"vehicle_type_id":"4","last_reported":1678864011,"current_range_meters":3600,"station_id":"ce4bhs92rcd13ifvqi0g","pricing_plan_id":"free"},{"bike_id":"65a916e0-0301-424c-8c9c-3f335676ddad","system_id":"levelo_inurba_marseille","lat":43.32829,"lon":5.36689,"is_reserved":false,"is_disabled":false,"rental_uris":{"android":"levelo://app?vid=65a916e0-0301-424c-8c9c-3f335676ddad","ios":"levelo://app?vid=65a916e0-0301-424c-8c9c-3f335676ddad"},"vehicle_type_id":"4","last_reported":1678864011,"current_range_meters":8000,"station_id":"ce4bhs92rcd13ifvqi0g","pricing_plan_id":"free"},{"bike_id":"a04bd21f-4ddf-4476-8bee-b8b31f7b39ca","system_id":"levelo_inurba_marseille","lat":43.3283,"lon":5.36687,"is_reserved":false,"is_disabled":false,"rental_uris":{"android":"levelo://app?vid=a04bd21f-4ddf-4476-8bee-b8b31f7b39ca","ios":"levelo://app?vid=a04bd21f-4ddf-4476-8bee-b8b31f7b39ca"},"vehicle_type_id":"4","last_reported":1678864011,"current_range_meters":1200,"station_id":"ce4bhs92rcd13ifvqi0g","pricing_plan_id":"free"},{"bike_id":"76f35f13-417e-4388-bd2d-4e69169917c2","system_id":"levelo_inurba_marseille","lat":43.328304,"lon":5.366866,"is_reserved":false,"is_disabled":false,"rental_uris":{"android":"levelo://app?vid=76f35f13-417e-4388-bd2d-4e69169917c2","ios":"levelo://app?vid=76f35f13-417e-4388-bd2d-4e69169917c2"},"vehicle_type_id":"4","last_reported":1678864011,"current_range_meters":0,"station_id":"ce4bhs92rcd13ifvqi0g","pricing_plan_id":"free"},{"bike_id":"cda40396-d8d1-4629-86b6-a9171df27def","system_id":"levelo_inurba_marseille","lat":43.328306,"lon":5.366854,"is_reserved":false,"is_disabled":false,"rental_uris":{"android":"levelo://app?vid=cda40396-d8d1-4629-86b6-a9171df27def","ios":"levelo://app?vid=cda40396-d8d1-4629-86b6-a9171df27def"},"vehicle_type_id":"4","last_reported":1678864011,"current_range_meters":3200,"station_id":"ce4bhs92rcd13ifvqi0g","pricing_plan_id":"free"},{"bike_id":"ffe786f9-d932-437f-82dd-9f99dde0e6f6","system_id":"levelo_inurba_marseille","lat":43.328371,"lon":5.366912,"is_reserved":false,"is_disabled":false,"rental_uris":{"android":"levelo://app?vid=ffe786f9-d932-437f-82dd-9f99dde0e6f6","ios":"levelo://app?vid=ffe786f9-d932-437f-82dd-9f99dde0e6f6"},"vehicle_type_id":"4","last_reported":1678864011,"current_range_meters":12000,"station_id":"ce4bhs92rcd13ifvqi0g","pricing_plan_id":"free"},{"bike_id":"b43fa31d-2049-4a5f-9aaa-fbeb7bc76671","system_id":"levelo_inurba_marseille","lat":43.328326,"lon":5.366825,"is_reserved":false,"is_disabled":false,"rental_uris":{"android":"levelo://app?vid=b43fa31d-2049-4a5f-9aaa-fbeb7bc76671","ios":"levelo://app?vid=b43fa31d-2049-4a5f-9aaa-fbeb7bc76671"},"vehicle_type_id":"4","last_reported":1678864011,"current_range_meters":4800,"station_id":"ce4bhs92rcd13ifvqi0g","pricing_plan_id":"free"},{"bike_id":"bf8a8ec2-7efb-49cb-a9c6-3d0f1d0c1823","system_id":"levelo_inurba_marseille","lat":43.328346,"lon":5.36681,"is_reserved":false,"is_disabled":false,"rental_uris":{"android":"levelo://app?vid=bf8a8ec2-7efb-49cb-a9c6-3d0f1d0c1823","ios":"levelo://app?vid=bf8a8ec2-7efb-49cb-a9c6-3d0f1d0c1823"},"vehicle_type_id":"4","last_reported":1678864011,"current_range_meters":17600,"station_id":"ce4bhs92rcd13ifvqi0g","pricing_plan_id":"free"},{"bike_id":"9cf79eb7-f2c9-4744-b82a-75917af2f83d","system_id":"levelo_inurba_marseille","lat":43.297061,"lon":5.372782,"is_reserved":false,"is_disabled":false,"rental_uris":{"android":"levelo://app?vid=9cf79eb7-f2c9-4744-b82a-75917af2f83d","ios":"levelo://app?vid=9cf79eb7-f2c9-4744-b82a-75917af2f83d"},"vehicle_type_id":"4","last_reported":1678864011,"current_range_meters":20400,"station_id":"ce4bgk12rcd13ifvqbj0","pricing_plan_id":"free"},{"bike_id":"0348801b-fb24-4c49-926c-6b408d12db8a","system_id":"levelo_inurba_marseille","lat":43.296875,"lon":5.37293,"is_reserved":false,"is_disabled":false,"rental_uris":{"android":"levelo://app?vid=0348801b-fb24-4c49-926c-6b408d12db8a","ios":"levelo://app?vid=0348801b-fb24-4c49-926c-6b408d12db8a"},"vehicle_type_id":"4","last_reported":1678864011,"current_range_meters":20800,"station_id":"ce4bgk12rcd13ifvqbj0","pricing_plan_id":"free"},{"bike_id":"d8b123fd-f989-4c25-afc2-78464fea84b8","system_id":"levelo_inurba_marseille","lat":43.29684,"lon":5.372815,"is_reserved":false,"is_disabled":false,"rental_uris":{"android":"levelo://app?vid=d8b123fd-f989-4c25-afc2-78464fea84b8","ios":"levelo://app?vid=d8b123fd-f989-4c25-afc2-78464fea84b8"},"vehicle_type_id":"4","last_reported":1678864011,"current_range_meters":31600,"station_id":"ce4bgk12rcd13ifvqbj0","pricing_plan_id":"free"},{"bike_id":"a3706b3f-b238-4690-8dc6-44be5460d062","system_id":"levelo_inurba_marseille","lat":43.296131,"lon":5.370791,"is_reserved":false,"is_disabled":false,"rental_uris":{"android":"levelo://app?vid=a3706b3f-b238-4690-8dc6-44be5460d062","ios":"levelo://app?vid=a3706b3f-b238-4690-8dc6-44be5460d062"},"vehicle_type_id":"4","last_reported":1678864011,"current_range_meters":31600,"station_id":"ce4bgnh2rcd13ifvqc0g","pricing_plan_id":"free"},{"bike_id":"43d170fd-6f91-4ac7-b908-c5b21f5a8a10","system_id":"levelo_inurba_marseille","lat":43.2962,"lon":5.37156,"is_reserved":false,"is_disabled":false,"rental_uris":{"android":"levelo://app?vid=43d170fd-6f91-4ac7-b908-c5b21f5a8a10","ios":"levelo://app?vid=43d170fd-6f91-4ac7-b908-c5b21f5a8a10"},"vehicle_type_id":"4","last_reported":1678864011,"current_range_meters":5200,"station_id":"","pricing_plan_id":"free"},{"bike_id":"5ea87b58-7def-494e-ac4d-f81d83c6d7fe","system_id":"levelo_inurba_marseille","lat":43.296935,"lon":5.376544,"is_reserved":false,"is_disabled":false,"rental_uris":{"android":"levelo://app?vid=5ea87b58-7def-494e-ac4d-f81d83c6d7fe","ios":"levelo://app?vid=5ea87b58-7def-494e-ac4d-f81d83c6d7fe"},"vehicle_type_id":"4","last_reported":1678864011,"current_range_meters":10400,"station_id":"ce4bgkh2rcd13ifvqbl0","pricing_plan_id":"free"},{"bike_id":"e8355152-fdc1-489f-bcfc-5d2a583336d6","system_id":"levelo_inurba_marseille","lat":43.299028,"lon":5.381509,"is_reserved":false,"is_disabled":false,"rental_uris":{"android":"levelo://app?vid=e8355152-fdc1-489f-bcfc-5d2a583336d6","ios":"levelo://app?vid=e8355152-fdc1-489f-bcfc-5d2a583336d6"},"vehicle_type_id":"4","last_reported":1678864011,"current_range_meters":22000,"station_id":"ce4bgj12rcd13ifvqbc0","pricing_plan_id":"free"},{"bike_id":"a959c059-767a-48dc-8d05-4ba5ec685e12","system_id":"levelo_inurba_marseille","lat":43.299028,"lon":5.381509,"is_reserved":false,"is_disabled":false,"rental_uris":{"android":"levelo://app?vid=a959c059-767a-48dc-8d05-4ba5ec685e12","ios":"levelo://app?vid=a959c059-767a-48dc-8d05-4ba5ec685e12"},"vehicle_type_id":"4","last_reported":1678864011,"current_range_meters":28800,"station_id":"ce4bgj12rcd13ifvqbc0","pricing_plan_id":"free"},{"bike_id":"78d341e5-849f-4742-82e6-cc8663f9a863","system_id":"levelo_inurba_marseille","lat":43.299205,"lon":5.381679,"is_reserved":false,"is_disabled":false,"rental_uris":{"android":"levelo://app?vid=78d341e5-849f-4742-82e6-cc8663f9a863","ios":"levelo://app?vid=78d341e5-849f-4742-82e6-cc8663f9a863"},"vehicle_type_id":"4","last_reported":1678864011,"current_range_meters":26000,"station_id":"ce4bgj12rcd13ifvqbc0","pricing_plan_id":"free"},{"bike_id":"1f8d4a1a-f5ff-4959-9785-cdce87ada741","system_id":"levelo_inurba_marseille","lat":43.299028,"lon":5.381509,"is_reserved":false,"is_disabled":false,"rental_uris":{"android":"levelo://app?vid=1f8d4a1a-f5ff-4959-9785-cdce87ada741","ios":"levelo://app?vid=1f8d4a1a-f5ff-4959-9785-cdce87ada741"},"vehicle_type_id":"4","last_reported":1678864011,"current_range_meters":30000,"station_id":"ce4bgj12rcd13ifvqbc0","pricing_plan_id":"free"},{"bike_id":"9f454f2c-fce1-4799-bb30-62e45829f3cf","system_id":"levelo_inurba_marseille","lat":43.309589,"lon":5.390258,"is_reserved":false,"is_disabled":false,"rental_uris":{"android":"levelo://app?vid=9f454f2c-fce1-4799-bb30-62e45829f3cf","ios":"levelo://app?vid=9f454f2c-fce1-4799-bb30-62e45829f3cf"},"vehicle_type_id":"4","last_reported":1678864011,"current_range_meters":3600,"station_id":"ce4bgup2rcd13ifvqco0","pricing_plan_id":"free"},{"bike_id":"218f5fce-7789-4419-8e40-e6653f7dee8e","system_id":"levelo_inurba_marseille","lat":43.317557,"lon":5.390173,"is_reserved":false,"is_disabled":false,"rental_uris":{"android":"levelo://app?vid=218f5fce-7789-4419-8e40-e6653f7dee8e","ios":"levelo://app?vid=218f5fce-7789-4419-8e40-e6653f7dee8e"},"vehicle_type_id":"4","last_reported":1678864011,"current_range_meters":4000,"station_id":"ce4bhqp2rcd13ifvqhng","pricing_plan_id":"free"},{"bike_id":"c864e007-e020-4c61-a989-fde42df873a3","system_id":"levelo_inurba_marseille","lat":43.317557,"lon":5.390173,"is_reserved":false,"is_disabled":false,"rental_uris":{"android":"levelo://app?vid=c864e007-e020-4c61-a989-fde42df873a3","ios":"levelo://app?vid=c864e007-e020-4c61-a989-fde42df873a3"},"vehicle_type_id":"4","last_reported":1678864011,"current_range_meters":13600,"station_id":"ce4bhqp2rcd13ifvqhng","pricing_plan_id":"free"},{"bike_id":"61d09e04-2d12-4aec-a6d4-1a5da0924f07","system_id":"levelo_inurba_marseille","lat":43.317557,"lon":5.390173,"is_reserved":false,"is_disabled":false,"rental_uris":{"android":"levelo://app?vid=61d09e04-2d12-4aec-a6d4-1a5da0924f07","ios":"levelo://app?vid=61d09e04-2d12-4aec-a6d4-1a5da0924f07"},"vehicle_type_id":"4","last_reported":1678864011,"current_range_meters":7600,"station_id":"ce4bhqp2rcd13ifvqhng","pricing_plan_id":"free"},{"bike_id":"db57049a-50d7-490f-bbea-b72db5ab5225","system_id":"levelo_inurba_marseille","lat":43.317557,"lon":5.390173,"is_reserved":false,"is_disabled":false,"rental_uris":{"android":"levelo://app?vid=db57049a-50d7-490f-bbea-b72db5ab5225","ios":"levelo://app?vid=db57049a-50d7-490f-bbea-b72db5ab5225"},"vehicle_type_id":"4","last_reported":1678864011,"current_range_meters":3600,"station_id":"ce4bhqp2rcd13ifvqhng","pricing_plan_id":"free"},{"bike_id":"a415d14f-e6ae-4fd1-b1bc-bd3f6323c584","system_id":"levelo_inurba_marseille","lat":43.317557,"lon":5.390173,"is_reserved":false,"is_disabled":false,"rental_uris":{"android":"levelo://app?vid=a415d14f-e6ae-4fd1-b1bc-bd3f6323c584","ios":"levelo://app?vid=a415d14f-e6ae-4fd1-b1bc-bd3f6323c584"},"vehicle_type_id":"4","last_reported":1678864011,"current_range_meters":10000,"station_id":"ce4bhqp2rcd13ifvqhng","pricing_plan_id":"free"},{"bike_id":"bdf2477e-a628-4d60-abb0-469c4a9fc992","system_id":"levelo_inurba_marseille","lat":43.298037,"lon":5.381066,"is_reserved":false,"is_disabled":false,"rental_uris":{"android":"levelo://app?vid=bdf2477e-a628-4d60-abb0-469c4a9fc992","ios":"levelo://app?vid=bdf2477e-a628-4d60-abb0-469c4a9fc992"},"vehicle_type_id":"4","last_reported":1678864011,"current_range_meters":17600,"station_id":"ce4bgip2rcd13ifvqbb0","pricing_plan_id":"free"},{"bike_id":"bffdd594-cb07-4592-83f6-5e28993c6b38","system_id":"levelo_inurba_marseille","lat":43.298037,"lon":5.381066,"is_reserved":false,"is_disabled":false,"rental_uris":{"android":"levelo://app?vid=bffdd594-cb07-4592-83f6-5e28993c6b38","ios":"levelo://app?vid=bffdd594-cb07-4592-83f6-5e28993c6b38"},"vehicle_type_id":"4","last_reported":1678864011,"current_range_meters":30000,"station_id":"ce4bgip2rcd13ifvqbb0","pricing_plan_id":"free"},{"bike_id":"5cf4addc-5ce9-42cd-af38-922187287a5c","system_id":"levelo_inurba_marseille","lat":43.298037,"lon":5.381066,"is_reserved":false,"is_disabled":false,"rental_uris":{"android":"levelo://app?vid=5cf4addc-5ce9-42cd-af38-922187287a5c","ios":"levelo://app?vid=5cf4addc-5ce9-42cd-af38-922187287a5c"},"vehicle_type_id":"4","last_reported":1678864011,"current_range_meters":30000,"station_id":"ce4bgip2rcd13ifvqbb0","pricing_plan_id":"free"},{"bike_id":"2de8ef56-b8ce-4fb8-801f-48d9251a6b3d","system_id":"levelo_inurba_marseille","lat":43.298037,"lon":5.381066,"is_reserved":false,"is_disabled":false,"rental_uris":{"android":"levelo://app?vid=2de8ef56-b8ce-4fb8-801f-48d9251a6b3d","ios":"levelo://app?vid=2de8ef56-b8ce-4fb8-801f-48d9251a6b3d"},"vehicle_type_id":"4","last_reported":1678864011,"current_range_meters":22000,"station_id":"ce4bgip2rcd13ifvqbb0","pricing_plan_id":"free"},{"bike_id":"9c367cee-4c0d-4733-bf57-dec8aecf2416","system_id":"levelo_inurba_marseille","lat":43.30442,"lon":5.38894,"is_reserved":false,"is_disabled":false,"rental_uris":{"android":"levelo://app?vid=9c367cee-4c0d-4733-bf57-dec8aecf2416","ios":"levelo://app?vid=9c367cee-4c0d-4733-bf57-dec8aecf2416"},"vehicle_type_id":"4","last_reported":1678864011,"current_range_meters":20000,"station_id":"","pricing_plan_id":"free"},{"bike_id":"4a72f5f9-4c1f-4ace-b8ed-c35dbc96675c","system_id":"levelo_inurba_marseille","lat":43.304274,"lon":5.388873,"is_reserved":false,"is_disabled":false,"rental_uris":{"android":"levelo://app?vid=4a72f5f9-4c1f-4ace-b8ed-c35dbc96675c","ios":"levelo://app?vid=4a72f5f9-4c1f-4ace-b8ed-c35dbc96675c"},"vehicle_type_id":"4","last_reported":1678864011,"current_range_meters":7600,"station_id":"ce4bgk12rcd13ifvqbi0","pricing_plan_id":"free"},{"bike_id":"5e2c07c4-52b4-4638-a6e0-53f550a42193","system_id":"levelo_inurba_marseille","lat":43.30427,"lon":5.3889,"is_reserved":false,"is_disabled":false,"rental_uris":{"android":"levelo://app?vid=5e2c07c4-52b4-4638-a6e0-53f550a42193","ios":"levelo://app?vid=5e2c07c4-52b4-4638-a6e0-53f550a42193"},"vehicle_type_id":"4","last_reported":1678864011,"current_range_meters":26800,"station_id":"ce4bgk12rcd13ifvqbi0","pricing_plan_id":"free"},{"bike_id":"3a3ea05c-82f4-497f-89af-e875d8c51cff","system_id":"levelo_inurba_marseille","lat":43.29564,"lon":5.37512,"is_reserved":false,"is_disabled":false,"rental_uris":{"android":"levelo://app?vid=3a3ea05c-82f4-497f-89af-e875d8c51cff","ios":"levelo://app?vid=3a3ea05c-82f4-497f-89af-e875d8c51cff"},"vehicle_type_id":"4","last_reported":1678864011,"current_range_meters":31600,"station_id":"","pricing_plan_id":"free"},{"bike_id":"064ea5e7-6c34-41a7-ba42-b4b25cbda3e3","system_id":"levelo_inurba_marseille","lat":43.2943,"lon":5.37408,"is_reserved":false,"is_disabled":false,"rental_uris":{"android":"levelo://app?vid=064ea5e7-6c34-41a7-ba42-b4b25cbda3e3","ios":"levelo://app?vid=064ea5e7-6c34-41a7-ba42-b4b25cbda3e3"},"vehicle_type_id":"4","last_reported":1678864011,"current_range_meters":4800,"station_id":"","pricing_plan_id":"free"},{"bike_id":"ea4c11e9-7510-45c3-a119-638cc2fd8ded","system_id":"levelo_inurba_marseille","lat":43.32363,"lon":5.388693,"is_reserved":false,"is_disabled":false,"rental_uris":{"android":"levelo://app?vid=ea4c11e9-7510-45c3-a119-638cc2fd8ded","ios":"levelo://app?vid=ea4c11e9-7510-45c3-a119-638cc2fd8ded"},"vehicle_type_id":"4","last_reported":1678864011,"current_range_meters":4400,"station_id":"ce4bhqp2rcd13ifvqhog","pricing_plan_id":"free"},{"bike_id":"7142d826-5abe-413a-85f4-61b9f086ba1e","system_id":"levelo_inurba_marseille","lat":43.323613,"lon":5.388774,"is_reserved":false,"is_disabled":false,"rental_uris":{"android":"levelo://app?vid=7142d826-5abe-413a-85f4-61b9f086ba1e","ios":"levelo://app?vid=7142d826-5abe-413a-85f4-61b9f086ba1e"},"vehicle_type_id":"4","last_reported":1678864011,"current_range_meters":6400,"station_id":"ce4bhqp2rcd13ifvqhog","pricing_plan_id":"free"},{"bike_id":"cb4d3680-34f7-4b6f-8fe1-96a4d2146012","system_id":"levelo_inurba_marseille","lat":43.32367,"lon":5.38878,"is_reserved":false,"is_disabled":false,"rental_uris":{"android":"levelo://app?vid=cb4d3680-34f7-4b6f-8fe1-96a4d2146012","ios":"levelo://app?vid=cb4d3680-34f7-4b6f-8fe1-96a4d2146012"},"vehicle_type_id":"4","last_reported":1678864011,"current_range_meters":0,"station_id":"","pricing_plan_id":"free"},{"bike_id":"85525149-9c49-4ec6-8080-9c7fe5d9fa91","system_id":"levelo_inurba_marseille","lat":43.32367,"lon":5.388836,"is_reserved":false,"is_disabled":false,"rental_uris":{"android":"levelo://app?vid=85525149-9c49-4ec6-8080-9c7fe5d9fa91","ios":"levelo://app?vid=85525149-9c49-4ec6-8080-9c7fe5d9fa91"},"vehicle_type_id":"4","last_reported":1678864011,"current_range_meters":13200,"station_id":"ce4bhqp2rcd13ifvqhog","pricing_plan_id":"free"},{"bike_id":"ea3bb9f6-13f9-4424-a4c1-122f2e68fddc","system_id":"levelo_inurba_marseille","lat":43.30751,"lon":5.392628,"is_reserved":false,"is_disabled":false,"rental_uris":{"android":"levelo://app?vid=ea3bb9f6-13f9-4424-a4c1-122f2e68fddc","ios":"levelo://app?vid=ea3bb9f6-13f9-4424-a4c1-122f2e68fddc"},"vehicle_type_id":"4","last_reported":1678864011,"current_range_meters":12000,"station_id":"","pricing_plan_id":"free"},{"bike_id":"957b0943-91d8-49bf-a11d-25c0a6c52411","system_id":"levelo_inurba_marseille","lat":43.293249,"lon":5.371578,"is_reserved":false,"is_disabled":false,"rental_uris":{"android":"levelo://app?vid=957b0943-91d8-49bf-a11d-25c0a6c52411","ios":"levelo://app?vid=957b0943-91d8-49bf-a11d-25c0a6c52411"},"vehicle_type_id":"4","last_reported":1678864011,"current_range_meters":22800,"station_id":"ce4bgh92rcd13ifvqb40","pricing_plan_id":"free"},{"bike_id":"71496e16-82d6-462c-93dc-c1c41c7b7689","system_id":"levelo_inurba_marseille","lat":43.293065,"lon":5.37164,"is_reserved":false,"is_disabled":false,"rental_uris":{"android":"levelo://app?vid=71496e16-82d6-462c-93dc-c1c41c7b7689","ios":"levelo://app?vid=71496e16-82d6-462c-93dc-c1c41c7b7689"},"vehicle_type_id":"4","last_reported":1678864011,"current_range_meters":25200,"station_id":"ce4rr2p2rcd13i802rgg","pricing_plan_id":"free"},{"bike_id":"5b414e3f-42b5-48c9-98f5-950dc6266620","system_id":"levelo_inurba_marseille","lat":43.29303,"lon":5.37172,"is_reserved":false,"is_disabled":false,"rental_uris":{"android":"levelo://app?vid=5b414e3f-42b5-48c9-98f5-950dc6266620","ios":"levelo://app?vid=5b414e3f-42b5-48c9-98f5-950dc6266620"},"vehicle_type_id":"4","last_reported":1678864011,"current_range_meters":22000,"station_id":"ce4rr2p2rcd13i802rgg","pricing_plan_id":"free"},{"bike_id":"4e78067a-6476-47ef-8c26-ddef48cc9e04","system_id":"levelo_inurba_marseille","lat":43.305994,"lon":5.393687,"is_reserved":false,"is_disabled":false,"rental_uris":{"android":"levelo://app?vid=4e78067a-6476-47ef-8c26-ddef48cc9e04","ios":"levelo://app?vid=4e78067a-6476-47ef-8c26-ddef48cc9e04"},"vehicle_type_id":"4","last_reported":1678864011,"current_range_meters":31600,"station_id":"ce4bh0p2rcd13ifvqd80","pricing_plan_id":"free"},{"bike_id":"e6ec9c0a-7883-4f97-9c6b-8247ed323b9f","system_id":"levelo_inurba_marseille","lat":43.305994,"lon":5.393687,"is_reserved":false,"is_disabled":false,"rental_uris":{"android":"levelo://app?vid=e6ec9c0a-7883-4f97-9c6b-8247ed323b9f","ios":"levelo://app?vid=e6ec9c0a-7883-4f97-9c6b-8247ed323b9f"},"vehicle_type_id":"4","last_reported":1678864011,"current_range_meters":8000,"station_id":"ce4bh0p2rcd13ifvqd80","pricing_plan_id":"free"},{"bike_id":"4da70bb8-f776-4838-b861-71d4199b446d","system_id":"levelo_inurba_marseille","lat":43.305994,"lon":5.393687,"is_reserved":false,"is_disabled":false,"rental_uris":{"android":"levelo://app?vid=4da70bb8-f776-4838-b861-71d4199b446d","ios":"levelo://app?vid=4da70bb8-f776-4838-b861-71d4199b446d"},"vehicle_type_id":"4","last_reported":1678864011,"current_range_meters":28800,"station_id":"ce4bh0p2rcd13ifvqd80","pricing_plan_id":"free"},{"bike_id":"0bced615-779e-4e5c-803a-bd30c9da54fb","system_id":"levelo_inurba_marseille","lat":43.305994,"lon":5.393687,"is_reserved":false,"is_disabled":false,"rental_uris":{"android":"levelo://app?vid=0bced615-779e-4e5c-803a-bd30c9da54fb","ios":"levelo://app?vid=0bced615-779e-4e5c-803a-bd30c9da54fb"},"vehicle_type_id":"4","last_reported":1678864011,"current_range_meters":400,"station_id":"ce4bh0p2rcd13ifvqd80","pricing_plan_id":"free"},{"bike_id":"c486f7f2-21ac-4a93-b253-f64c379679c3","system_id":"levelo_inurba_marseille","lat":43.305994,"lon":5.393687,"is_reserved":false,"is_disabled":false,"rental_uris":{"android":"levelo://app?vid=c486f7f2-21ac-4a93-b253-f64c379679c3","ios":"levelo://app?vid=c486f7f2-21ac-4a93-b253-f64c379679c3"},"vehicle_type_id":"4","last_reported":1678864011,"current_range_meters":12000,"station_id":"ce4bh0p2rcd13ifvqd80","pricing_plan_id":"free"},{"bike_id":"11e9bafc-e493-4f5e-bb6a-10e1e2cd628a","system_id":"levelo_inurba_marseille","lat":43.293009,"lon":5.374584,"is_reserved":false,"is_disabled":false,"rental_uris":{"android":"levelo://app?vid=11e9bafc-e493-4f5e-bb6a-10e1e2cd628a","ios":"levelo://app?vid=11e9bafc-e493-4f5e-bb6a-10e1e2cd628a"},"vehicle_type_id":"4","last_reported":1678864011,"current_range_meters":24000,"station_id":"ce4bgi12rcd13ifvqb70","pricing_plan_id":"free"},{"bike_id":"ea15634d-8341-417e-9270-d1df15e146af","system_id":"levelo_inurba_marseille","lat":43.292761,"lon":5.359716,"is_reserved":false,"is_disabled":false,"rental_uris":{"android":"levelo://app?vid=ea15634d-8341-417e-9270-d1df15e146af","ios":"levelo://app?vid=ea15634d-8341-417e-9270-d1df15e146af"},"vehicle_type_id":"4","last_reported":1678864011,"current_range_meters":7600,"station_id":"","pricing_plan_id":"free"},{"bike_id":"9cbf0edb-f327-409d-b255-fd155dc5ab30","system_id":"levelo_inurba_marseille","lat":43.292311,"lon":5.360731,"is_reserved":false,"is_disabled":false,"rental_uris":{"android":"levelo://app?vid=9cbf0edb-f327-409d-b255-fd155dc5ab30","ios":"levelo://app?vid=9cbf0edb-f327-409d-b255-fd155dc5ab30"},"vehicle_type_id":"4","last_reported":1678864011,"current_range_meters":28400,"station_id":"ce4bhbh2rcd13ifvqeqg","pricing_plan_id":"free"},{"bike_id":"ba4f21fb-3699-4f34-929c-9c265b027229","system_id":"levelo_inurba_marseille","lat":43.291647,"lon":5.371425,"is_reserved":false,"is_disabled":false,"rental_uris":{"android":"levelo://app?vid=ba4f21fb-3699-4f34-929c-9c265b027229","ios":"levelo://app?vid=ba4f21fb-3699-4f34-929c-9c265b027229"},"vehicle_type_id":"4","last_reported":1678864011,"current_range_meters":10800,"station_id":"","pricing_plan_id":"free"},{"bike_id":"b8b3f9c1-ca17-4f8e-b6ab-8c565303fd0e","system_id":"levelo_inurba_marseille","lat":43.313291,"lon":5.396838,"is_reserved":false,"is_disabled":false,"rental_uris":{"android":"levelo://app?vid=b8b3f9c1-ca17-4f8e-b6ab-8c565303fd0e","ios":"levelo://app?vid=b8b3f9c1-ca17-4f8e-b6ab-8c565303fd0e"},"vehicle_type_id":"4","last_reported":1678864011,"current_range_meters":29600,"station_id":"ce4bgvp2rcd13ifvqcu0","pricing_plan_id":"free"},{"bike_id":"67830554-8aa2-45e0-9cfa-3f7333c14382","system_id":"levelo_inurba_marseille","lat":43.290779,"lon":5.371482,"is_reserved":false,"is_disabled":false,"rental_uris":{"android":"levelo://app?vid=67830554-8aa2-45e0-9cfa-3f7333c14382","ios":"levelo://app?vid=67830554-8aa2-45e0-9cfa-3f7333c14382"},"vehicle_type_id":"4","last_reported":1678864011,"current_range_meters":30800,"station_id":"ce4bh5p2rcd13ifvqe4g","pricing_plan_id":"free"},{"bike_id":"0b822673-dd93-4882-aaf1-28a018f074e9","system_id":"levelo_inurba_marseille","lat":43.302008,"lon":5.394694,"is_reserved":false,"is_disabled":false,"rental_uris":{"android":"levelo://app?vid=0b822673-dd93-4882-aaf1-28a018f074e9","ios":"levelo://app?vid=0b822673-dd93-4882-aaf1-28a018f074e9"},"vehicle_type_id":"4","last_reported":1678864011,"current_range_meters":6000,"station_id":"ce4bh0p2rcd13ifvqd70","pricing_plan_id":"free"},{"bike_id":"6d400e50-8b08-4bb6-be6c-0c34d3f7140f","system_id":"levelo_inurba_marseille","lat":43.302008,"lon":5.394694,"is_reserved":false,"is_disabled":false,"rental_uris":{"android":"levelo://app?vid=6d400e50-8b08-4bb6-be6c-0c34d3f7140f","ios":"levelo://app?vid=6d400e50-8b08-4bb6-be6c-0c34d3f7140f"},"vehicle_type_id":"4","last_reported":1678864011,"current_range_meters":12800,"station_id":"ce4bh0p2rcd13ifvqd70","pricing_plan_id":"free"},{"bike_id":"307d75cf-5554-4c9a-9e06-356bc5784269","system_id":"levelo_inurba_marseille","lat":43.302008,"lon":5.394694,"is_reserved":false,"is_disabled":false,"rental_uris":{"android":"levelo://app?vid=307d75cf-5554-4c9a-9e06-356bc5784269","ios":"levelo://app?vid=307d75cf-5554-4c9a-9e06-356bc5784269"},"vehicle_type_id":"4","last_reported":1678864011,"current_range_meters":25200,"station_id":"ce4bh0p2rcd13ifvqd70","pricing_plan_id":"free"},{"bike_id":"43d15730-c988-446f-a9d3-c8c517dae170","system_id":"levelo_inurba_marseille","lat":43.29044,"lon":5.35919,"is_reserved":false,"is_disabled":false,"rental_uris":{"android":"levelo://app?vid=43d15730-c988-446f-a9d3-c8c517dae170","ios":"levelo://app?vid=43d15730-c988-446f-a9d3-c8c517dae170"},"vehicle_type_id":"4","last_reported":1678864011,"current_range_meters":16400,"station_id":"ce4bha92rcd13ifvqeg0","pricing_plan_id":"free"},{"bike_id":"21d9531c-2e09-4db5-8c11-0f561fe09110","system_id":"levelo_inurba_marseille","lat":43.29043,"lon":5.359156,"is_reserved":false,"is_disabled":false,"rental_uris":{"android":"levelo://app?vid=21d9531c-2e09-4db5-8c11-0f561fe09110","ios":"levelo://app?vid=21d9531c-2e09-4db5-8c11-0f561fe09110"},"vehicle_type_id":"4","last_reported":1678864011,"current_range_meters":14400,"station_id":"ce4bha92rcd13ifvqeg0","pricing_plan_id":"free"},{"bike_id":"19ccb8a5-59aa-4f5b-9269-4fa09080482d","system_id":"levelo_inurba_marseille","lat":43.289184,"lon":5.366408,"is_reserved":false,"is_disabled":false,"rental_uris":{"android":"levelo://app?vid=19ccb8a5-59aa-4f5b-9269-4fa09080482d","ios":"levelo://app?vid=19ccb8a5-59aa-4f5b-9269-4fa09080482d"},"vehicle_type_id":"4","last_reported":1678864011,"current_range_meters":4000,"station_id":"ce4bhap2rcd13ifvqek0","pricing_plan_id":"free"},{"bike_id":"42c67150-f06a-456e-b101-bb7bd3fa5989","system_id":"levelo_inurba_marseille","lat":43.289184,"lon":5.366408,"is_reserved":false,"is_disabled":false,"rental_uris":{"android":"levelo://app?vid=42c67150-f06a-456e-b101-bb7bd3fa5989","ios":"levelo://app?vid=42c67150-f06a-456e-b101-bb7bd3fa5989"},"vehicle_type_id":"4","last_reported":1678864011,"current_range_meters":7200,"station_id":"ce4bhap2rcd13ifvqek0","pricing_plan_id":"free"},{"bike_id":"10666a28-335d-419b-b9c3-d089d66cc97b","system_id":"levelo_inurba_marseille","lat":43.289468,"lon":5.363719,"is_reserved":false,"is_disabled":false,"rental_uris":{"android":"levelo://app?vid=10666a28-335d-419b-b9c3-d089d66cc97b","ios":"levelo://app?vid=10666a28-335d-419b-b9c3-d089d66cc97b"},"vehicle_type_id":"4","last_reported":1678864011,"current_range_meters":4000,"station_id":"ce4bhc92rcd13ifvqetg","pricing_plan_id":"free"},{"bike_id":"9ce7cc5f-7250-4b66-9d73-37f90a1132e2","system_id":"levelo_inurba_marseille","lat":43.289184,"lon":5.366408,"is_reserved":false,"is_disabled":false,"rental_uris":{"android":"levelo://app?vid=9ce7cc5f-7250-4b66-9d73-37f90a1132e2","ios":"levelo://app?vid=9ce7cc5f-7250-4b66-9d73-37f90a1132e2"},"vehicle_type_id":"4","last_reported":1678864011,"current_range_meters":29200,"station_id":"ce4bhap2rcd13ifvqek0","pricing_plan_id":"free"},{"bike_id":"3179c9b1-dc04-4175-8e37-ff23ef2399a7","system_id":"levelo_inurba_marseille","lat":43.289184,"lon":5.366408,"is_reserved":false,"is_disabled":false,"rental_uris":{"android":"levelo://app?vid=3179c9b1-dc04-4175-8e37-ff23ef2399a7","ios":"levelo://app?vid=3179c9b1-dc04-4175-8e37-ff23ef2399a7"},"vehicle_type_id":"4","last_reported":1678864011,"current_range_meters":13600,"station_id":"ce4bhap2rcd13ifvqek0","pricing_plan_id":"free"},{"bike_id":"fcde38e8-7c54-41e2-b1d3-b2c012749fde","system_id":"levelo_inurba_marseille","lat":43.289184,"lon":5.366408,"is_reserved":false,"is_disabled":false,"rental_uris":{"android":"levelo://app?vid=fcde38e8-7c54-41e2-b1d3-b2c012749fde","ios":"levelo://app?vid=fcde38e8-7c54-41e2-b1d3-b2c012749fde"},"vehicle_type_id":"4","last_reported":1678864011,"current_range_meters":12800,"station_id":"ce4bhap2rcd13ifvqek0","pricing_plan_id":"free"},{"bike_id":"8226f9bf-12b3-4c09-ad71-1a7174d0ddfd","system_id":"levelo_inurba_marseille","lat":43.289468,"lon":5.363719,"is_reserved":false,"is_disabled":false,"rental_uris":{"android":"levelo://app?vid=8226f9bf-12b3-4c09-ad71-1a7174d0ddfd","ios":"levelo://app?vid=8226f9bf-12b3-4c09-ad71-1a7174d0ddfd"},"vehicle_type_id":"4","last_reported":1678864011,"current_range_meters":29600,"station_id":"ce4bhc92rcd13ifvqetg","pricing_plan_id":"free"},{"bike_id":"a582eab8-cc0c-45b0-8fc0-3a7b8c61f532","system_id":"levelo_inurba_marseille","lat":43.289184,"lon":5.366408,"is_reserved":false,"is_disabled":false,"rental_uris":{"android":"levelo://app?vid=a582eab8-cc0c-45b0-8fc0-3a7b8c61f532","ios":"levelo://app?vid=a582eab8-cc0c-45b0-8fc0-3a7b8c61f532"},"vehicle_type_id":"4","last_reported":1678864011,"current_range_meters":29600,"station_id":"ce4bhap2rcd13ifvqek0","pricing_plan_id":"free"},{"bike_id":"e7d601be-6c45-4fd9-8a2a-7cd221a44e6b","system_id":"levelo_inurba_marseille","lat":43.289468,"lon":5.363719,"is_reserved":false,"is_disabled":false,"rental_uris":{"android":"levelo://app?vid=e7d601be-6c45-4fd9-8a2a-7cd221a44e6b","ios":"levelo://app?vid=e7d601be-6c45-4fd9-8a2a-7cd221a44e6b"},"vehicle_type_id":"4","last_reported":1678864011,"current_range_meters":25600,"station_id":"ce4bhc92rcd13ifvqetg","pricing_plan_id":"free"},{"bike_id":"4a246d0e-61a3-446d-859e-c956033c2225","system_id":"levelo_inurba_marseille","lat":43.292644,"lon":5.384257,"is_reserved":false,"is_disabled":false,"rental_uris":{"android":"levelo://app?vid=4a246d0e-61a3-446d-859e-c956033c2225","ios":"levelo://app?vid=4a246d0e-61a3-446d-859e-c956033c2225"},"vehicle_type_id":"4","last_reported":1678864011,"current_range_meters":10400,"station_id":"ce4bh692rcd13ifvqea0","pricing_plan_id":"free"},{"bike_id":"c178dfb1-f4e4-408c-ad05-043f32c6923e","system_id":"levelo_inurba_marseille","lat":43.28892,"lon":5.36489,"is_reserved":false,"is_disabled":false,"rental_uris":{"android":"levelo://app?vid=c178dfb1-f4e4-408c-ad05-043f32c6923e","ios":"levelo://app?vid=c178dfb1-f4e4-408c-ad05-043f32c6923e"},"vehicle_type_id":"4","last_reported":1678864011,"current_range_meters":1200,"station_id":"","pricing_plan_id":"free"},{"bike_id":"637b495d-f38e-486f-8f92-933179b0022b","system_id":"levelo_inurba_marseille","lat":43.3304,"lon":5.3892,"is_reserved":false,"is_disabled":false,"rental_uris":{"android":"levelo://app?vid=637b495d-f38e-486f-8f92-933179b0022b","ios":"levelo://app?vid=637b495d-f38e-486f-8f92-933179b0022b"},"vehicle_type_id":"4","last_reported":1678864011,"current_range_meters":5200,"station_id":"","pricing_plan_id":"free"},{"bike_id":"d11be28a-8117-4606-a66a-24cbbcdf1c3e","system_id":"levelo_inurba_marseille","lat":43.29008,"lon":5.35617,"is_reserved":false,"is_disabled":false,"rental_uris":{"android":"levelo://app?vid=d11be28a-8117-4606-a66a-24cbbcdf1c3e","ios":"levelo://app?vid=d11be28a-8117-4606-a66a-24cbbcdf1c3e"},"vehicle_type_id":"4","last_reported":1678864011,"current_range_meters":18400,"station_id":"ce4bhb92rcd13ifvqen0","pricing_plan_id":"free"},{"bike_id":"60b2cedf-6549-4b76-afac-a8c04a2b862a","system_id":"levelo_inurba_marseille","lat":43.330442,"lon":5.389148,"is_reserved":false,"is_disabled":false,"rental_uris":{"android":"levelo://app?vid=60b2cedf-6549-4b76-afac-a8c04a2b862a","ios":"levelo://app?vid=60b2cedf-6549-4b76-afac-a8c04a2b862a"},"vehicle_type_id":"4","last_reported":1678864011,"current_range_meters":12800,"station_id":"ce4bhr92rcd13ifvqhrg","pricing_plan_id":"free"},{"bike_id":"eac80296-57cd-4fec-a94a-8d0d960ca867","system_id":"levelo_inurba_marseille","lat":43.330442,"lon":5.389148,"is_reserved":false,"is_disabled":false,"rental_uris":{"android":"levelo://app?vid=eac80296-57cd-4fec-a94a-8d0d960ca867","ios":"levelo://app?vid=eac80296-57cd-4fec-a94a-8d0d960ca867"},"vehicle_type_id":"4","last_reported":1678864011,"current_range_meters":22000,"station_id":"ce4bhr92rcd13ifvqhrg","pricing_plan_id":"free"},{"bike_id":"2d4e4201-1468-476c-9a02-1da787f40160","system_id":"levelo_inurba_marseille","lat":43.330442,"lon":5.389148,"is_reserved":false,"is_disabled":false,"rental_uris":{"android":"levelo://app?vid=2d4e4201-1468-476c-9a02-1da787f40160","ios":"levelo://app?vid=2d4e4201-1468-476c-9a02-1da787f40160"},"vehicle_type_id":"4","last_reported":1678864011,"current_range_meters":0,"station_id":"ce4bhr92rcd13ifvqhrg","pricing_plan_id":"free"},{"bike_id":"adccbc9a-6386-4609-ab54-5771d2669ed9","system_id":"levelo_inurba_marseille","lat":43.330442,"lon":5.389148,"is_reserved":false,"is_disabled":false,"rental_uris":{"android":"levelo://app?vid=adccbc9a-6386-4609-ab54-5771d2669ed9","ios":"levelo://app?vid=adccbc9a-6386-4609-ab54-5771d2669ed9"},"vehicle_type_id":"4","last_reported":1678864011,"current_range_meters":4000,"station_id":"ce4bhr92rcd13ifvqhrg","pricing_plan_id":"free"},{"bike_id":"3c927aca-66f4-4bea-ad84-d95e10fb2f23","system_id":"levelo_inurba_marseille","lat":43.330442,"lon":5.389148,"is_reserved":false,"is_disabled":false,"rental_uris":{"android":"levelo://app?vid=3c927aca-66f4-4bea-ad84-d95e10fb2f23","ios":"levelo://app?vid=3c927aca-66f4-4bea-ad84-d95e10fb2f23"},"vehicle_type_id":"4","last_reported":1678864011,"current_range_meters":0,"station_id":"ce4bhr92rcd13ifvqhrg","pricing_plan_id":"free"},{"bike_id":"1360099d-76af-47c1-9a4a-2416ee0a6a80","system_id":"levelo_inurba_marseille","lat":43.29003,"lon":5.35612,"is_reserved":false,"is_disabled":false,"rental_uris":{"android":"levelo://app?vid=1360099d-76af-47c1-9a4a-2416ee0a6a80","ios":"levelo://app?vid=1360099d-76af-47c1-9a4a-2416ee0a6a80"},"vehicle_type_id":"4","last_reported":1678864011,"current_range_meters":0,"station_id":"ce4bhb92rcd13ifvqen0","pricing_plan_id":"free"},{"bike_id":"cf3ad7c3-6ec0-4d00-a69b-51f73b41e5af","system_id":"levelo_inurba_marseille","lat":43.28995,"lon":5.35617,"is_reserved":false,"is_disabled":false,"rental_uris":{"android":"levelo://app?vid=cf3ad7c3-6ec0-4d00-a69b-51f73b41e5af","ios":"levelo://app?vid=cf3ad7c3-6ec0-4d00-a69b-51f73b41e5af"},"vehicle_type_id":"4","last_reported":1678864011,"current_range_meters":26800,"station_id":"ce4bhb92rcd13ifvqen0","pricing_plan_id":"free"},{"bike_id":"d9e617a0-1268-4165-b3a8-f81f685b94ee","system_id":"levelo_inurba_marseille","lat":43.28856,"lon":5.358371,"is_reserved":false,"is_disabled":false,"rental_uris":{"android":"levelo://app?vid=d9e617a0-1268-4165-b3a8-f81f685b94ee","ios":"levelo://app?vid=d9e617a0-1268-4165-b3a8-f81f685b94ee"},"vehicle_type_id":"4","last_reported":1678864011,"current_range_meters":10800,"station_id":"ce4bhb12rcd13ifvqem0","pricing_plan_id":"free"},{"bike_id":"8e122469-91d8-4582-9813-3888e85a2155","system_id":"levelo_inurba_marseille","lat":43.28856,"lon":5.358371,"is_reserved":false,"is_disabled":false,"rental_uris":{"android":"levelo://app?vid=8e122469-91d8-4582-9813-3888e85a2155","ios":"levelo://app?vid=8e122469-91d8-4582-9813-3888e85a2155"},"vehicle_type_id":"4","last_reported":1678864011,"current_range_meters":13200,"station_id":"ce4bhb12rcd13ifvqem0","pricing_plan_id":"free"},{"bike_id":"a81fc2dc-2296-4f80-b1e5-f9c0cb39f356","system_id":"levelo_inurba_marseille","lat":43.28856,"lon":5.358371,"is_reserved":false,"is_disabled":false,"rental_uris":{"android":"levelo://app?vid=a81fc2dc-2296-4f80-b1e5-f9c0cb39f356","ios":"levelo://app?vid=a81fc2dc-2296-4f80-b1e5-f9c0cb39f356"},"vehicle_type_id":"4","last_reported":1678864011,"current_range_meters":31200,"station_id":"ce4bhb12rcd13ifvqem0","pricing_plan_id":"free"},{"bike_id":"ad15892d-84e5-4935-b2fa-9e130c0bec14","system_id":"levelo_inurba_marseille","lat":43.29136,"lon":5.3846,"is_reserved":false,"is_disabled":false,"rental_uris":{"android":"levelo://app?vid=ad15892d-84e5-4935-b2fa-9e130c0bec14","ios":"levelo://app?vid=ad15892d-84e5-4935-b2fa-9e130c0bec14"},"vehicle_type_id":"4","last_reported":1678864011,"current_range_meters":31200,"station_id":"","pricing_plan_id":"free"},{"bike_id":"621eb7a1-8f83-4977-9977-38583836f361","system_id":"levelo_inurba_marseille","lat":43.28856,"lon":5.358371,"is_reserved":false,"is_disabled":false,"rental_uris":{"android":"levelo://app?vid=621eb7a1-8f83-4977-9977-38583836f361","ios":"levelo://app?vid=621eb7a1-8f83-4977-9977-38583836f361"},"vehicle_type_id":"4","last_reported":1678864011,"current_range_meters":25600,"station_id":"ce4bhb12rcd13ifvqem0","pricing_plan_id":"free"},{"bike_id":"0cf1d950-dbeb-49bb-a3c8-dfbd7c9175d8","system_id":"levelo_inurba_marseille","lat":43.28856,"lon":5.358371,"is_reserved":false,"is_disabled":false,"rental_uris":{"android":"levelo://app?vid=0cf1d950-dbeb-49bb-a3c8-dfbd7c9175d8","ios":"levelo://app?vid=0cf1d950-dbeb-49bb-a3c8-dfbd7c9175d8"},"vehicle_type_id":"4","last_reported":1678864011,"current_range_meters":29600,"station_id":"ce4bhb12rcd13ifvqem0","pricing_plan_id":"free"},{"bike_id":"bf342c86-4219-4239-9403-73bdc33934c3","system_id":"levelo_inurba_marseille","lat":43.28856,"lon":5.358371,"is_reserved":false,"is_disabled":false,"rental_uris":{"android":"levelo://app?vid=bf342c86-4219-4239-9403-73bdc33934c3","ios":"levelo://app?vid=bf342c86-4219-4239-9403-73bdc33934c3"},"vehicle_type_id":"4","last_reported":1678864011,"current_range_meters":32000,"station_id":"ce4bhb12rcd13ifvqem0","pricing_plan_id":"free"},{"bike_id":"551601c3-33cb-422e-a4b7-2aca4e4f5bbf","system_id":"levelo_inurba_marseille","lat":43.28856,"lon":5.358371,"is_reserved":false,"is_disabled":false,"rental_uris":{"android":"levelo://app?vid=551601c3-33cb-422e-a4b7-2aca4e4f5bbf","ios":"levelo://app?vid=551601c3-33cb-422e-a4b7-2aca4e4f5bbf"},"vehicle_type_id":"4","last_reported":1678864011,"current_range_meters":23600,"station_id":"ce4bhb12rcd13ifvqem0","pricing_plan_id":"free"},{"bike_id":"7e6c7856-236c-4813-9812-7d33849112a1","system_id":"levelo_inurba_marseille","lat":43.28856,"lon":5.358371,"is_reserved":false,"is_disabled":false,"rental_uris":{"android":"levelo://app?vid=7e6c7856-236c-4813-9812-7d33849112a1","ios":"levelo://app?vid=7e6c7856-236c-4813-9812-7d33849112a1"},"vehicle_type_id":"4","last_reported":1678864011,"current_range_meters":14400,"station_id":"ce4bhb12rcd13ifvqem0","pricing_plan_id":"free"},{"bike_id":"e4fcb2f6-b2d7-4565-a382-48217e5028b3","system_id":"levelo_inurba_marseille","lat":43.28856,"lon":5.358371,"is_reserved":false,"is_disabled":false,"rental_uris":{"android":"levelo://app?vid=e4fcb2f6-b2d7-4565-a382-48217e5028b3","ios":"levelo://app?vid=e4fcb2f6-b2d7-4565-a382-48217e5028b3"},"vehicle_type_id":"4","last_reported":1678864011,"current_range_meters":31200,"station_id":"ce4bhb12rcd13ifvqem0","pricing_plan_id":"free"},{"bike_id":"393cb2c3-a51a-432b-bd56-98bf8fabd0bb","system_id":"levelo_inurba_marseille","lat":43.28856,"lon":5.358371,"is_reserved":false,"is_disabled":false,"rental_uris":{"android":"levelo://app?vid=393cb2c3-a51a-432b-bd56-98bf8fabd0bb","ios":"levelo://app?vid=393cb2c3-a51a-432b-bd56-98bf8fabd0bb"},"vehicle_type_id":"4","last_reported":1678864011,"current_range_meters":32000,"station_id":"ce4bhb12rcd13ifvqem0","pricing_plan_id":"free"},{"bike_id":"2ae17c8a-df14-47fe-b8d7-8aeae9f44ec5","system_id":"levelo_inurba_marseille","lat":43.288489,"lon":5.358347,"is_reserved":false,"is_disabled":false,"rental_uris":{"android":"levelo://app?vid=2ae17c8a-df14-47fe-b8d7-8aeae9f44ec5","ios":"levelo://app?vid=2ae17c8a-df14-47fe-b8d7-8aeae9f44ec5"},"vehicle_type_id":"4","last_reported":1678864011,"current_range_meters":0,"station_id":"ce4bhb12rcd13ifvqem0","pricing_plan_id":"free"},{"bike_id":"0db6624d-0d94-45ef-804a-c7425b56162e","system_id":"levelo_inurba_marseille","lat":43.28856,"lon":5.358371,"is_reserved":false,"is_disabled":false,"rental_uris":{"android":"levelo://app?vid=0db6624d-0d94-45ef-804a-c7425b56162e","ios":"levelo://app?vid=0db6624d-0d94-45ef-804a-c7425b56162e"},"vehicle_type_id":"4","last_reported":1678864011,"current_range_meters":28400,"station_id":"ce4bhb12rcd13ifvqem0","pricing_plan_id":"free"},{"bike_id":"95014393-e589-486f-b0b1-b749c69ecb26","system_id":"levelo_inurba_marseille","lat":43.28856,"lon":5.358371,"is_reserved":false,"is_disabled":false,"rental_uris":{"android":"levelo://app?vid=95014393-e589-486f-b0b1-b749c69ecb26","ios":"levelo://app?vid=95014393-e589-486f-b0b1-b749c69ecb26"},"vehicle_type_id":"4","last_reported":1678864011,"current_range_meters":31600,"station_id":"ce4bhb12rcd13ifvqem0","pricing_plan_id":"free"},{"bike_id":"677b42b4-a72f-4b0c-a0db-6bc731c653bd","system_id":"levelo_inurba_marseille","lat":43.286736,"lon":5.363517,"is_reserved":false,"is_disabled":false,"rental_uris":{"android":"levelo://app?vid=677b42b4-a72f-4b0c-a0db-6bc731c653bd","ios":"levelo://app?vid=677b42b4-a72f-4b0c-a0db-6bc731c653bd"},"vehicle_type_id":"4","last_reported":1678864011,"current_range_meters":0,"station_id":"ce4bhah2rcd13ifvqej0","pricing_plan_id":"free"},{"bike_id":"fa5c8bdf-1a14-4b5b-97d5-c141d8b41e60","system_id":"levelo_inurba_marseille","lat":43.29517,"lon":5.394063,"is_reserved":false,"is_disabled":false,"rental_uris":{"android":"levelo://app?vid=fa5c8bdf-1a14-4b5b-97d5-c141d8b41e60","ios":"levelo://app?vid=fa5c8bdf-1a14-4b5b-97d5-c141d8b41e60"},"vehicle_type_id":"4","last_reported":1678864011,"current_range_meters":17200,"station_id":"ce4bh212rcd13ifvqde0","pricing_plan_id":"free"},{"bike_id":"9c69d151-1852-445d-90a3-be097e567d32","system_id":"levelo_inurba_marseille","lat":43.2904,"lon":5.38644,"is_reserved":false,"is_disabled":false,"rental_uris":{"android":"levelo://app?vid=9c69d151-1852-445d-90a3-be097e567d32","ios":"levelo://app?vid=9c69d151-1852-445d-90a3-be097e567d32"},"vehicle_type_id":"4","last_reported":1678864011,"current_range_meters":22800,"station_id":"","pricing_plan_id":"free"},{"bike_id":"85ccdfbd-a5fd-4f03-8317-fbac6330e1cd","system_id":"levelo_inurba_marseille","lat":43.290366,"lon":5.386422,"is_reserved":false,"is_disabled":false,"rental_uris":{"android":"levelo://app?vid=85ccdfbd-a5fd-4f03-8317-fbac6330e1cd","ios":"levelo://app?vid=85ccdfbd-a5fd-4f03-8317-fbac6330e1cd"},"vehicle_type_id":"4","last_reported":1678864011,"current_range_meters":26400,"station_id":"ce4bh4p2rcd13ifvqe0g","pricing_plan_id":"free"},{"bike_id":"cbdb8e62-5798-4329-bba7-7074be9ab324","system_id":"levelo_inurba_marseille","lat":43.290362,"lon":5.386472,"is_reserved":false,"is_disabled":false,"rental_uris":{"android":"levelo://app?vid=cbdb8e62-5798-4329-bba7-7074be9ab324","ios":"levelo://app?vid=cbdb8e62-5798-4329-bba7-7074be9ab324"},"vehicle_type_id":"4","last_reported":1678864011,"current_range_meters":19200,"station_id":"ce4bh4p2rcd13ifvqe0g","pricing_plan_id":"free"},{"bike_id":"ab6c25fa-6336-4df6-83e0-befc16d8cf5a","system_id":"levelo_inurba_marseille","lat":43.29038,"lon":5.38652,"is_reserved":false,"is_disabled":false,"rental_uris":{"android":"levelo://app?vid=ab6c25fa-6336-4df6-83e0-befc16d8cf5a","ios":"levelo://app?vid=ab6c25fa-6336-4df6-83e0-befc16d8cf5a"},"vehicle_type_id":"4","last_reported":1678864011,"current_range_meters":6800,"station_id":"ce4bh4p2rcd13ifvqe0g","pricing_plan_id":"free"},{"bike_id":"4df084e1-c384-4339-8dd1-e64eec0cad16","system_id":"levelo_inurba_marseille","lat":43.29033,"lon":5.38649,"is_reserved":false,"is_disabled":false,"rental_uris":{"android":"levelo://app?vid=4df084e1-c384-4339-8dd1-e64eec0cad16","ios":"levelo://app?vid=4df084e1-c384-4339-8dd1-e64eec0cad16"},"vehicle_type_id":"4","last_reported":1678864011,"current_range_meters":8800,"station_id":"","pricing_plan_id":"free"},{"bike_id":"7cccbfad-e0aa-43b7-9c2f-3d1ed625052e","system_id":"levelo_inurba_marseille","lat":43.29029,"lon":5.38644,"is_reserved":false,"is_disabled":false,"rental_uris":{"android":"levelo://app?vid=7cccbfad-e0aa-43b7-9c2f-3d1ed625052e","ios":"levelo://app?vid=7cccbfad-e0aa-43b7-9c2f-3d1ed625052e"},"vehicle_type_id":"4","last_reported":1678864011,"current_range_meters":0,"station_id":"ce4bh4p2rcd13ifvqe0g","pricing_plan_id":"free"},{"bike_id":"adc7cd37-56cd-44d7-93d6-e44d8d4169f5","system_id":"levelo_inurba_marseille","lat":43.286039,"lon":5.370679,"is_reserved":false,"is_disabled":false,"rental_uris":{"android":"levelo://app?vid=adc7cd37-56cd-44d7-93d6-e44d8d4169f5","ios":"levelo://app?vid=adc7cd37-56cd-44d7-93d6-e44d8d4169f5"},"vehicle_type_id":"4","last_reported":1678864011,"current_range_meters":0,"station_id":"ce4bht12rcd13ifvqi60","pricing_plan_id":"free"},{"bike_id":"4fbd6071-8df6-40f0-8b3d-fcd87ff5bedf","system_id":"levelo_inurba_marseille","lat":43.286039,"lon":5.370679,"is_reserved":false,"is_disabled":false,"rental_uris":{"android":"levelo://app?vid=4fbd6071-8df6-40f0-8b3d-fcd87ff5bedf","ios":"levelo://app?vid=4fbd6071-8df6-40f0-8b3d-fcd87ff5bedf"},"vehicle_type_id":"4","last_reported":1678864011,"current_range_meters":16400,"station_id":"ce4bht12rcd13ifvqi60","pricing_plan_id":"free"},{"bike_id":"7eb1bf91-beb9-4f39-a152-1777161b3e97","system_id":"levelo_inurba_marseille","lat":43.287118,"lon":5.379538,"is_reserved":false,"is_disabled":false,"rental_uris":{"android":"levelo://app?vid=7eb1bf91-beb9-4f39-a152-1777161b3e97","ios":"levelo://app?vid=7eb1bf91-beb9-4f39-a152-1777161b3e97"},"vehicle_type_id":"4","last_reported":1678864011,"current_range_meters":0,"station_id":"ce4bh9p2rcd13ifvqec0","pricing_plan_id":"free"},{"bike_id":"18175928-d90a-436f-a1ac-74a5d28c7150","system_id":"levelo_inurba_marseille","lat":43.3164,"lon":5.40433,"is_reserved":false,"is_disabled":false,"rental_uris":{"android":"levelo://app?vid=18175928-d90a-436f-a1ac-74a5d28c7150","ios":"levelo://app?vid=18175928-d90a-436f-a1ac-74a5d28c7150"},"vehicle_type_id":"4","last_reported":1678864011,"current_range_meters":6000,"station_id":"","pricing_plan_id":"free"},{"bike_id":"486e5458-4107-4440-8626-0825d845a216","system_id":"levelo_inurba_marseille","lat":43.31647,"lon":5.404326,"is_reserved":false,"is_disabled":false,"rental_uris":{"android":"levelo://app?vid=486e5458-4107-4440-8626-0825d845a216","ios":"levelo://app?vid=486e5458-4107-4440-8626-0825d845a216"},"vehicle_type_id":"4","last_reported":1678864011,"current_range_meters":30800,"station_id":"ce4bh012rcd13ifvqd00","pricing_plan_id":"free"},{"bike_id":"79e71bdb-bb6c-4310-aa9d-d3085faca536","system_id":"levelo_inurba_marseille","lat":43.304606,"lon":5.379026,"is_reserved":false,"is_disabled":false,"rental_uris":{"android":"levelo://app?vid=79e71bdb-bb6c-4310-aa9d-d3085faca536","ios":"levelo://app?vid=79e71bdb-bb6c-4310-aa9d-d3085faca536"},"vehicle_type_id":"4","last_reported":1678864011,"current_range_meters":25200,"station_id":"ce4bgup2rcd13ifvqcn0","pricing_plan_id":"free"},{"bike_id":"b8648ea5-b522-4975-82fc-9ff0482882cb","system_id":"levelo_inurba_marseille","lat":43.29102,"lon":5.39219,"is_reserved":false,"is_disabled":false,"rental_uris":{"android":"levelo://app?vid=b8648ea5-b522-4975-82fc-9ff0482882cb","ios":"levelo://app?vid=b8648ea5-b522-4975-82fc-9ff0482882cb"},"vehicle_type_id":"4","last_reported":1678864011,"current_range_meters":20800,"station_id":"","pricing_plan_id":"free"},{"bike_id":"b280afde-25b0-4cb5-9513-a0c3aa6f456a","system_id":"levelo_inurba_marseille","lat":43.28465,"lon":5.35889,"is_reserved":false,"is_disabled":false,"rental_uris":{"android":"levelo://app?vid=b280afde-25b0-4cb5-9513-a0c3aa6f456a","ios":"levelo://app?vid=b280afde-25b0-4cb5-9513-a0c3aa6f456a"},"vehicle_type_id":"4","last_reported":1678864011,"current_range_meters":24000,"station_id":"ce4bhah2rcd13ifvqei0","pricing_plan_id":"free"},{"bike_id":"98445cb1-5732-48a7-b133-8031e8935817","system_id":"levelo_inurba_marseille","lat":43.284587,"lon":5.358971,"is_reserved":false,"is_disabled":false,"rental_uris":{"android":"levelo://app?vid=98445cb1-5732-48a7-b133-8031e8935817","ios":"levelo://app?vid=98445cb1-5732-48a7-b133-8031e8935817"},"vehicle_type_id":"4","last_reported":1678864011,"current_range_meters":14400,"station_id":"ce4bhah2rcd13ifvqei0","pricing_plan_id":"free"},{"bike_id":"f00a3357-0cb7-409b-a88a-d90f0cf0fdb4","system_id":"levelo_inurba_marseille","lat":43.284581,"lon":5.358957,"is_reserved":false,"is_disabled":false,"rental_uris":{"android":"levelo://app?vid=f00a3357-0cb7-409b-a88a-d90f0cf0fdb4","ios":"levelo://app?vid=f00a3357-0cb7-409b-a88a-d90f0cf0fdb4"},"vehicle_type_id":"4","last_reported":1678864011,"current_range_meters":12800,"station_id":"ce4bhah2rcd13ifvqei0","pricing_plan_id":"free"},{"bike_id":"f0ccfd87-4d50-488b-90b2-f3a3853f54ac","system_id":"levelo_inurba_marseille","lat":43.284583,"lon":5.35894,"is_reserved":false,"is_disabled":false,"rental_uris":{"android":"levelo://app?vid=f0ccfd87-4d50-488b-90b2-f3a3853f54ac","ios":"levelo://app?vid=f0ccfd87-4d50-488b-90b2-f3a3853f54ac"},"vehicle_type_id":"4","last_reported":1678864011,"current_range_meters":24000,"station_id":"","pricing_plan_id":"free"},{"bike_id":"084c802d-3917-4c0a-a1ab-363175d4460e","system_id":"levelo_inurba_marseille","lat":43.284538,"lon":5.358657,"is_reserved":false,"is_disabled":false,"rental_uris":{"android":"levelo://app?vid=084c802d-3917-4c0a-a1ab-363175d4460e","ios":"levelo://app?vid=084c802d-3917-4c0a-a1ab-363175d4460e"},"vehicle_type_id":"4","last_reported":1678864011,"current_range_meters":12400,"station_id":"ce4bhah2rcd13ifvqei0","pricing_plan_id":"free"},{"bike_id":"060a80bd-3b6f-48ae-9826-7f2dca1a8cdd","system_id":"levelo_inurba_marseille","lat":43.284574,"lon":5.358881,"is_reserved":false,"is_disabled":false,"rental_uris":{"android":"levelo://app?vid=060a80bd-3b6f-48ae-9826-7f2dca1a8cdd","ios":"levelo://app?vid=060a80bd-3b6f-48ae-9826-7f2dca1a8cdd"},"vehicle_type_id":"4","last_reported":1678864011,"current_range_meters":3600,"station_id":"ce4bhah2rcd13ifvqei0","pricing_plan_id":"free"},{"bike_id":"9d81874b-c0a6-47d1-be7a-67b8686ffc4e","system_id":"levelo_inurba_marseille","lat":43.284538,"lon":5.358657,"is_reserved":false,"is_disabled":false,"rental_uris":{"android":"levelo://app?vid=9d81874b-c0a6-47d1-be7a-67b8686ffc4e","ios":"levelo://app?vid=9d81874b-c0a6-47d1-be7a-67b8686ffc4e"},"vehicle_type_id":"4","last_reported":1678864011,"current_range_meters":9200,"station_id":"ce4bhah2rcd13ifvqei0","pricing_plan_id":"free"},{"bike_id":"54c45dfd-e116-4ef1-8acd-3a6300ffb52e","system_id":"levelo_inurba_marseille","lat":43.304606,"lon":5.379026,"is_reserved":false,"is_disabled":false,"rental_uris":{"android":"levelo://app?vid=54c45dfd-e116-4ef1-8acd-3a6300ffb52e","ios":"levelo://app?vid=54c45dfd-e116-4ef1-8acd-3a6300ffb52e"},"vehicle_type_id":"4","last_reported":1678864011,"current_range_meters":32000,"station_id":"ce4bgup2rcd13ifvqcn0","pricing_plan_id":"free"},{"bike_id":"75beb8d9-bd7d-4516-ac3f-369176d68886","system_id":"levelo_inurba_marseille","lat":43.284793,"lon":5.384119,"is_reserved":false,"is_disabled":false,"rental_uris":{"android":"levelo://app?vid=75beb8d9-bd7d-4516-ac3f-369176d68886","ios":"levelo://app?vid=75beb8d9-bd7d-4516-ac3f-369176d68886"},"vehicle_type_id":"4","last_reported":1678864011,"current_range_meters":16400,"station_id":"ce4bh512rcd13ifvqe3g","pricing_plan_id":"free"},{"bike_id":"aa3feb23-9726-4b8c-b1eb-1a7e943f791f","system_id":"levelo_inurba_marseille","lat":43.28347,"lon":5.38118,"is_reserved":false,"is_disabled":false,"rental_uris":{"android":"levelo://app?vid=aa3feb23-9726-4b8c-b1eb-1a7e943f791f","ios":"levelo://app?vid=aa3feb23-9726-4b8c-b1eb-1a7e943f791f"},"vehicle_type_id":"4","last_reported":1678864011,"current_range_meters":2000,"station_id":"","pricing_plan_id":"free"},{"bike_id":"f0962dc4-95d2-4e71-abe8-f803d7663628","system_id":"levelo_inurba_marseille","lat":43.284219,"lon":5.3497,"is_reserved":false,"is_disabled":false,"rental_uris":{"android":"levelo://app?vid=f0962dc4-95d2-4e71-abe8-f803d7663628","ios":"levelo://app?vid=f0962dc4-95d2-4e71-abe8-f803d7663628"},"vehicle_type_id":"4","last_reported":1678864011,"current_range_meters":12000,"station_id":"ce4bhbh2rcd13ifvqepg","pricing_plan_id":"free"},{"bike_id":"3d261407-0d84-4158-b19d-193dd43c7cf8","system_id":"levelo_inurba_marseille","lat":43.324079,"lon":5.406708,"is_reserved":false,"is_disabled":false,"rental_uris":{"android":"levelo://app?vid=3d261407-0d84-4158-b19d-193dd43c7cf8","ios":"levelo://app?vid=3d261407-0d84-4158-b19d-193dd43c7cf8"},"vehicle_type_id":"4","last_reported":1678864011,"current_range_meters":2000,"station_id":"","pricing_plan_id":"free"},{"bike_id":"feb07ea7-f60c-4ade-b272-61cacd976b9a","system_id":"levelo_inurba_marseille","lat":43.284228,"lon":5.349842,"is_reserved":false,"is_disabled":false,"rental_uris":{"android":"levelo://app?vid=feb07ea7-f60c-4ade-b272-61cacd976b9a","ios":"levelo://app?vid=feb07ea7-f60c-4ade-b272-61cacd976b9a"},"vehicle_type_id":"4","last_reported":1678864011,"current_range_meters":0,"station_id":"ce4bhbh2rcd13ifvqepg","pricing_plan_id":"free"},{"bike_id":"e20be520-ddf3-42e1-abb3-025c35e2bc5d","system_id":"levelo_inurba_marseille","lat":43.284219,"lon":5.3497,"is_reserved":false,"is_disabled":false,"rental_uris":{"android":"levelo://app?vid=e20be520-ddf3-42e1-abb3-025c35e2bc5d","ios":"levelo://app?vid=e20be520-ddf3-42e1-abb3-025c35e2bc5d"},"vehicle_type_id":"4","last_reported":1678864011,"current_range_meters":10400,"station_id":"ce4bhbh2rcd13ifvqepg","pricing_plan_id":"free"},{"bike_id":"9b0bb7f0-3417-4355-a4e5-2513a558d105","system_id":"levelo_inurba_marseille","lat":43.289363,"lon":5.396322,"is_reserved":false,"is_disabled":false,"rental_uris":{"android":"levelo://app?vid=9b0bb7f0-3417-4355-a4e5-2513a558d105","ios":"levelo://app?vid=9b0bb7f0-3417-4355-a4e5-2513a558d105"},"vehicle_type_id":"4","last_reported":1678864011,"current_range_meters":31600,"station_id":"ce4bh3h2rcd13ifvqdn0","pricing_plan_id":"free"},{"bike_id":"38d0f166-12c0-4905-9a7e-0ca099f9bfee","system_id":"levelo_inurba_marseille","lat":43.292724,"lon":5.401131,"is_reserved":false,"is_disabled":false,"rental_uris":{"android":"levelo://app?vid=38d0f166-12c0-4905-9a7e-0ca099f9bfee","ios":"levelo://app?vid=38d0f166-12c0-4905-9a7e-0ca099f9bfee"},"vehicle_type_id":"4","last_reported":1678864011,"current_range_meters":18400,"station_id":"ce4bh312rcd13ifvqdk0","pricing_plan_id":"free"},{"bike_id":"5e1c3f33-907c-46b0-9592-aac85e3e18ae","system_id":"levelo_inurba_marseille","lat":43.282744,"lon":5.350533,"is_reserved":false,"is_disabled":false,"rental_uris":{"android":"levelo://app?vid=5e1c3f33-907c-46b0-9592-aac85e3e18ae","ios":"levelo://app?vid=5e1c3f33-907c-46b0-9592-aac85e3e18ae"},"vehicle_type_id":"4","last_reported":1678864011,"current_range_meters":16400,"station_id":"ce4bhbp2rcd13ifvqerg","pricing_plan_id":"free"},{"bike_id":"1160a25a-1d78-455f-a6c8-e224e4f516dd","system_id":"levelo_inurba_marseille","lat":43.282719,"lon":5.350744,"is_reserved":false,"is_disabled":false,"rental_uris":{"android":"levelo://app?vid=1160a25a-1d78-455f-a6c8-e224e4f516dd","ios":"levelo://app?vid=1160a25a-1d78-455f-a6c8-e224e4f516dd"},"vehicle_type_id":"4","last_reported":1678864011,"current_range_meters":11600,"station_id":"","pricing_plan_id":"free"},{"bike_id":"3f6cf8d2-3f1e-41fd-8137-6e0cf5b6bfef","system_id":"levelo_inurba_marseille","lat":43.28272,"lon":5.350733,"is_reserved":false,"is_disabled":false,"rental_uris":{"android":"levelo://app?vid=3f6cf8d2-3f1e-41fd-8137-6e0cf5b6bfef","ios":"levelo://app?vid=3f6cf8d2-3f1e-41fd-8137-6e0cf5b6bfef"},"vehicle_type_id":"4","last_reported":1678864011,"current_range_meters":10000,"station_id":"","pricing_plan_id":"free"},{"bike_id":"63bb3156-5b87-4e9f-b15d-3e1cbd289b61","system_id":"levelo_inurba_marseille","lat":43.283502,"lon":5.386471,"is_reserved":false,"is_disabled":false,"rental_uris":{"android":"levelo://app?vid=63bb3156-5b87-4e9f-b15d-3e1cbd289b61","ios":"levelo://app?vid=63bb3156-5b87-4e9f-b15d-3e1cbd289b61"},"vehicle_type_id":"4","last_reported":1678864011,"current_range_meters":0,"station_id":"ce4bh492rcd13ifvqdvg","pricing_plan_id":"free"},{"bike_id":"04e16192-94a6-425b-9b26-e34f3b05daef","system_id":"levelo_inurba_marseille","lat":43.282744,"lon":5.350533,"is_reserved":false,"is_disabled":false,"rental_uris":{"android":"levelo://app?vid=04e16192-94a6-425b-9b26-e34f3b05daef","ios":"levelo://app?vid=04e16192-94a6-425b-9b26-e34f3b05daef"},"vehicle_type_id":"4","last_reported":1678864011,"current_range_meters":26800,"station_id":"ce4bhbp2rcd13ifvqerg","pricing_plan_id":"free"},{"bike_id":"63305bd2-e040-49f8-8236-12616e924cab","system_id":"levelo_inurba_marseille","lat":43.281752,"lon":5.352765,"is_reserved":false,"is_disabled":false,"rental_uris":{"android":"levelo://app?vid=63305bd2-e040-49f8-8236-12616e924cab","ios":"levelo://app?vid=63305bd2-e040-49f8-8236-12616e924cab"},"vehicle_type_id":"4","last_reported":1678864011,"current_range_meters":9200,"station_id":"","pricing_plan_id":"free"},{"bike_id":"bcd553d8-b003-4c6c-9971-038dec0344e4","system_id":"levelo_inurba_marseille","lat":43.290412,"lon":5.399633,"is_reserved":false,"is_disabled":false,"rental_uris":{"android":"levelo://app?vid=bcd553d8-b003-4c6c-9971-038dec0344e4","ios":"levelo://app?vid=bcd553d8-b003-4c6c-9971-038dec0344e4"},"vehicle_type_id":"4","last_reported":1678864011,"current_range_meters":18000,"station_id":"ce4bh392rcd13ifvqdm0","pricing_plan_id":"free"},{"bike_id":"5486710e-a605-4fae-9f0b-cacdca8321a4","system_id":"levelo_inurba_marseille","lat":43.29041,"lon":5.399634,"is_reserved":false,"is_disabled":false,"rental_uris":{"android":"levelo://app?vid=5486710e-a605-4fae-9f0b-cacdca8321a4","ios":"levelo://app?vid=5486710e-a605-4fae-9f0b-cacdca8321a4"},"vehicle_type_id":"4","last_reported":1678864011,"current_range_meters":24800,"station_id":"ce4bh392rcd13ifvqdm0","pricing_plan_id":"free"},{"bike_id":"b3faea96-9a8d-45d6-b640-2dd4c952631d","system_id":"levelo_inurba_marseille","lat":43.290412,"lon":5.399633,"is_reserved":false,"is_disabled":false,"rental_uris":{"android":"levelo://app?vid=b3faea96-9a8d-45d6-b640-2dd4c952631d","ios":"levelo://app?vid=b3faea96-9a8d-45d6-b640-2dd4c952631d"},"vehicle_type_id":"4","last_reported":1678864011,"current_range_meters":8400,"station_id":"ce4bh392rcd13ifvqdm0","pricing_plan_id":"free"},{"bike_id":"39f7bc97-5fcb-4c76-ac7b-cd959db3e680","system_id":"levelo_inurba_marseille","lat":43.29041,"lon":5.399634,"is_reserved":false,"is_disabled":false,"rental_uris":{"android":"levelo://app?vid=39f7bc97-5fcb-4c76-ac7b-cd959db3e680","ios":"levelo://app?vid=39f7bc97-5fcb-4c76-ac7b-cd959db3e680"},"vehicle_type_id":"4","last_reported":1678864011,"current_range_meters":23600,"station_id":"ce4bh392rcd13ifvqdm0","pricing_plan_id":"free"},{"bike_id":"dd85d4fa-3f6d-41f6-bba5-59c6d796aa0e","system_id":"levelo_inurba_marseille","lat":43.231923,"lon":5.355545,"is_reserved":false,"is_disabled":false,"rental_uris":{"android":"levelo://app?vid=dd85d4fa-3f6d-41f6-bba5-59c6d796aa0e","ios":"levelo://app?vid=dd85d4fa-3f6d-41f6-bba5-59c6d796aa0e"},"vehicle_type_id":"4","last_reported":1678864011,"current_range_meters":30400,"station_id":"ce4bhu92rcd13ifvqi70","pricing_plan_id":"free"},{"bike_id":"7ac78a05-5a4d-4141-be82-bf0c2cc458fd","system_id":"levelo_inurba_marseille","lat":43.29041,"lon":5.399634,"is_reserved":false,"is_disabled":false,"rental_uris":{"android":"levelo://app?vid=7ac78a05-5a4d-4141-be82-bf0c2cc458fd","ios":"levelo://app?vid=7ac78a05-5a4d-4141-be82-bf0c2cc458fd"},"vehicle_type_id":"4","last_reported":1678864011,"current_range_meters":8000,"station_id":"ce4bh392rcd13ifvqdm0","pricing_plan_id":"free"},{"bike_id":"b28442c0-130a-457f-afea-c58e13370a1d","system_id":"levelo_inurba_marseille","lat":43.281062,"lon":5.378381,"is_reserved":false,"is_disabled":false,"rental_uris":{"android":"levelo://app?vid=b28442c0-130a-457f-afea-c58e13370a1d","ios":"levelo://app?vid=b28442c0-130a-457f-afea-c58e13370a1d"},"vehicle_type_id":"4","last_reported":1678864011,"current_range_meters":10400,"station_id":"","pricing_plan_id":"free"},{"bike_id":"1481202b-5141-44b3-aa80-9d92d3015241","system_id":"levelo_inurba_marseille","lat":43.281044,"lon":5.378308,"is_reserved":false,"is_disabled":false,"rental_uris":{"android":"levelo://app?vid=1481202b-5141-44b3-aa80-9d92d3015241","ios":"levelo://app?vid=1481202b-5141-44b3-aa80-9d92d3015241"},"vehicle_type_id":"4","last_reported":1678864011,"current_range_meters":3200,"station_id":"ce4bha12rcd13ifvqee0","pricing_plan_id":"free"},{"bike_id":"93374444-7602-49eb-ac0e-80c4bebc1b48","system_id":"levelo_inurba_marseille","lat":43.290412,"lon":5.399633,"is_reserved":false,"is_disabled":false,"rental_uris":{"android":"levelo://app?vid=93374444-7602-49eb-ac0e-80c4bebc1b48","ios":"levelo://app?vid=93374444-7602-49eb-ac0e-80c4bebc1b48"},"vehicle_type_id":"4","last_reported":1678864011,"current_range_meters":31200,"station_id":"ce4bh392rcd13ifvqdm0","pricing_plan_id":"free"},{"bike_id":"18d0aeb2-6e14-41e4-a5e6-d8733992f6bd","system_id":"levelo_inurba_marseille","lat":43.281044,"lon":5.378308,"is_reserved":false,"is_disabled":false,"rental_uris":{"android":"levelo://app?vid=18d0aeb2-6e14-41e4-a5e6-d8733992f6bd","ios":"levelo://app?vid=18d0aeb2-6e14-41e4-a5e6-d8733992f6bd"},"vehicle_type_id":"4","last_reported":1678864011,"current_range_meters":4400,"station_id":"ce4bha12rcd13ifvqee0","pricing_plan_id":"free"},{"bike_id":"d1e3fcdf-7e61-452e-a00c-60962f22750f","system_id":"levelo_inurba_marseille","lat":43.281044,"lon":5.378308,"is_reserved":false,"is_disabled":false,"rental_uris":{"android":"levelo://app?vid=d1e3fcdf-7e61-452e-a00c-60962f22750f","ios":"levelo://app?vid=d1e3fcdf-7e61-452e-a00c-60962f22750f"},"vehicle_type_id":"4","last_reported":1678864011,"current_range_meters":25600,"station_id":"ce4bha12rcd13ifvqee0","pricing_plan_id":"free"},{"bike_id":"0649d228-84a7-4e77-b137-992f6b5a15fc","system_id":"levelo_inurba_marseille","lat":43.29041,"lon":5.399634,"is_reserved":false,"is_disabled":false,"rental_uris":{"android":"levelo://app?vid=0649d228-84a7-4e77-b137-992f6b5a15fc","ios":"levelo://app?vid=0649d228-84a7-4e77-b137-992f6b5a15fc"},"vehicle_type_id":"4","last_reported":1678864011,"current_range_meters":24800,"station_id":"ce4bh392rcd13ifvqdm0","pricing_plan_id":"free"},{"bike_id":"8e6868cc-d13f-49fa-997d-c8b2949b7689","system_id":"levelo_inurba_marseille","lat":43.280421,"lon":5.378128,"is_reserved":false,"is_disabled":false,"rental_uris":{"android":"levelo://app?vid=8e6868cc-d13f-49fa-997d-c8b2949b7689","ios":"levelo://app?vid=8e6868cc-d13f-49fa-997d-c8b2949b7689"},"vehicle_type_id":"4","last_reported":1678864011,"current_range_meters":0,"station_id":"","pricing_plan_id":"free"},{"bike_id":"bf26412b-4d7c-4a8b-b4a2-c1ebfc028fc4","system_id":"levelo_inurba_marseille","lat":43.3042,"lon":5.41277,"is_reserved":false,"is_disabled":false,"rental_uris":{"android":"levelo://app?vid=bf26412b-4d7c-4a8b-b4a2-c1ebfc028fc4","ios":"levelo://app?vid=bf26412b-4d7c-4a8b-b4a2-c1ebfc028fc4"},"vehicle_type_id":"4","last_reported":1678864011,"current_range_meters":20800,"station_id":"ce4bhop2rcd13ifvqh8g","pricing_plan_id":"free"},{"bike_id":"95438de2-55d3-46d1-9e94-e128b474ffd6","system_id":"levelo_inurba_marseille","lat":43.287154,"lon":5.399979,"is_reserved":false,"is_disabled":false,"rental_uris":{"android":"levelo://app?vid=95438de2-55d3-46d1-9e94-e128b474ffd6","ios":"levelo://app?vid=95438de2-55d3-46d1-9e94-e128b474ffd6"},"vehicle_type_id":"4","last_reported":1678864011,"current_range_meters":0,"station_id":"ce4bho92rcd13ifvqh3g","pricing_plan_id":"free"},{"bike_id":"860cf057-0729-4593-a8e2-4732af9371fe","system_id":"levelo_inurba_marseille","lat":43.31678,"lon":5.41606,"is_reserved":false,"is_disabled":false,"rental_uris":{"android":"levelo://app?vid=860cf057-0729-4593-a8e2-4732af9371fe","ios":"levelo://app?vid=860cf057-0729-4593-a8e2-4732af9371fe"},"vehicle_type_id":"4","last_reported":1678864011,"current_range_meters":0,"station_id":"","pricing_plan_id":"free"},{"bike_id":"fd1cb00c-516a-4bdb-9e3f-3f41a33fe12f","system_id":"levelo_inurba_marseille","lat":43.29959,"lon":5.41314,"is_reserved":false,"is_disabled":false,"rental_uris":{"android":"levelo://app?vid=fd1cb00c-516a-4bdb-9e3f-3f41a33fe12f","ios":"levelo://app?vid=fd1cb00c-516a-4bdb-9e3f-3f41a33fe12f"},"vehicle_type_id":"4","last_reported":1678864011,"current_range_meters":0,"station_id":"ce4bhp12rcd13ifvqh9g","pricing_plan_id":"free"},{"bike_id":"06edb629-6ac1-48e1-8561-5d72a6e95c16","system_id":"levelo_inurba_marseille","lat":43.299577,"lon":5.413277,"is_reserved":false,"is_disabled":false,"rental_uris":{"android":"levelo://app?vid=06edb629-6ac1-48e1-8561-5d72a6e95c16","ios":"levelo://app?vid=06edb629-6ac1-48e1-8561-5d72a6e95c16"},"vehicle_type_id":"4","last_reported":1678864011,"current_range_meters":24400,"station_id":"ce4bhp12rcd13ifvqh9g","pricing_plan_id":"free"},{"bike_id":"980bb4b9-292f-4904-8d05-ae38b0f1a774","system_id":"levelo_inurba_marseille","lat":43.29957,"lon":5.41323,"is_reserved":false,"is_disabled":false,"rental_uris":{"android":"levelo://app?vid=980bb4b9-292f-4904-8d05-ae38b0f1a774","ios":"levelo://app?vid=980bb4b9-292f-4904-8d05-ae38b0f1a774"},"vehicle_type_id":"4","last_reported":1678864011,"current_range_meters":28800,"station_id":"","pricing_plan_id":"free"},{"bike_id":"1795bc8f-1b94-4bb6-b8b1-a8f040478a37","system_id":"levelo_inurba_marseille","lat":43.279686,"lon":5.387283,"is_reserved":false,"is_disabled":false,"rental_uris":{"android":"levelo://app?vid=1795bc8f-1b94-4bb6-b8b1-a8f040478a37","ios":"levelo://app?vid=1795bc8f-1b94-4bb6-b8b1-a8f040478a37"},"vehicle_type_id":"4","last_reported":1678864011,"current_range_meters":0,"station_id":"","pricing_plan_id":"free"},{"bike_id":"23c83d76-c390-4eb0-a4b3-8d039cc83e7a","system_id":"levelo_inurba_marseille","lat":43.325233,"lon":5.414318,"is_reserved":false,"is_disabled":false,"rental_uris":{"android":"levelo://app?vid=23c83d76-c390-4eb0-a4b3-8d039cc83e7a","ios":"levelo://app?vid=23c83d76-c390-4eb0-a4b3-8d039cc83e7a"},"vehicle_type_id":"4","last_reported":1678864011,"current_range_meters":400,"station_id":"ce4bhq12rcd13ifvqhhg","pricing_plan_id":"free"},{"bike_id":"52ad1a0b-40c0-4bca-af87-3e201c823e4c","system_id":"levelo_inurba_marseille","lat":43.325233,"lon":5.414318,"is_reserved":false,"is_disabled":false,"rental_uris":{"android":"levelo://app?vid=52ad1a0b-40c0-4bca-af87-3e201c823e4c","ios":"levelo://app?vid=52ad1a0b-40c0-4bca-af87-3e201c823e4c"},"vehicle_type_id":"4","last_reported":1678864011,"current_range_meters":3200,"station_id":"ce4bhq12rcd13ifvqhhg","pricing_plan_id":"free"},{"bike_id":"de325e61-8719-43c1-a4b2-6ba359458451","system_id":"levelo_inurba_marseille","lat":43.325243,"lon":5.414326,"is_reserved":false,"is_disabled":false,"rental_uris":{"android":"levelo://app?vid=de325e61-8719-43c1-a4b2-6ba359458451","ios":"levelo://app?vid=de325e61-8719-43c1-a4b2-6ba359458451"},"vehicle_type_id":"4","last_reported":1678864011,"current_range_meters":10400,"station_id":"ce4bhq12rcd13ifvqhhg","pricing_plan_id":"free"},{"bike_id":"e4c4db7f-ef64-4e27-8b61-b656d8e04a32","system_id":"levelo_inurba_marseille","lat":43.325367,"lon":5.41429,"is_reserved":false,"is_disabled":false,"rental_uris":{"android":"levelo://app?vid=e4c4db7f-ef64-4e27-8b61-b656d8e04a32","ios":"levelo://app?vid=e4c4db7f-ef64-4e27-8b61-b656d8e04a32"},"vehicle_type_id":"4","last_reported":1678864011,"current_range_meters":18800,"station_id":"","pricing_plan_id":"free"},{"bike_id":"b1ec5440-b2f8-4535-811c-c089620381d6","system_id":"levelo_inurba_marseille","lat":43.325233,"lon":5.414318,"is_reserved":false,"is_disabled":false,"rental_uris":{"android":"levelo://app?vid=b1ec5440-b2f8-4535-811c-c089620381d6","ios":"levelo://app?vid=b1ec5440-b2f8-4535-811c-c089620381d6"},"vehicle_type_id":"4","last_reported":1678864011,"current_range_meters":30000,"station_id":"ce4bhq12rcd13ifvqhhg","pricing_plan_id":"free"},{"bike_id":"50e8aa58-6a66-4829-88e2-f8617e32a848","system_id":"levelo_inurba_marseille","lat":43.276141,"lon":5.361083,"is_reserved":false,"is_disabled":false,"rental_uris":{"android":"levelo://app?vid=50e8aa58-6a66-4829-88e2-f8617e32a848","ios":"levelo://app?vid=50e8aa58-6a66-4829-88e2-f8617e32a848"},"vehicle_type_id":"4","last_reported":1678864011,"current_range_meters":17200,"station_id":"","pricing_plan_id":"free"},{"bike_id":"323a0426-d9b4-4858-b88e-eb32e5d56f3e","system_id":"levelo_inurba_marseille","lat":43.325391,"lon":5.414502,"is_reserved":false,"is_disabled":false,"rental_uris":{"android":"levelo://app?vid=323a0426-d9b4-4858-b88e-eb32e5d56f3e","ios":"levelo://app?vid=323a0426-d9b4-4858-b88e-eb32e5d56f3e"},"vehicle_type_id":"4","last_reported":1678864011,"current_range_meters":0,"station_id":"ce4bhq12rcd13ifvqhhg","pricing_plan_id":"free"},{"bike_id":"8eb85f7f-fd14-481e-93ec-188183fb1caa","system_id":"levelo_inurba_marseille","lat":43.27613,"lon":5.36107,"is_reserved":false,"is_disabled":false,"rental_uris":{"android":"levelo://app?vid=8eb85f7f-fd14-481e-93ec-188183fb1caa","ios":"levelo://app?vid=8eb85f7f-fd14-481e-93ec-188183fb1caa"},"vehicle_type_id":"4","last_reported":1678864011,"current_range_meters":24000,"station_id":"ce4bgj92rcd13ifvqbe0","pricing_plan_id":"free"},{"bike_id":"92d1bc41-d511-4e9f-936c-d802e2bdfc64","system_id":"levelo_inurba_marseille","lat":43.325394,"lon":5.414528,"is_reserved":false,"is_disabled":false,"rental_uris":{"android":"levelo://app?vid=92d1bc41-d511-4e9f-936c-d802e2bdfc64","ios":"levelo://app?vid=92d1bc41-d511-4e9f-936c-d802e2bdfc64"},"vehicle_type_id":"4","last_reported":1678864011,"current_range_meters":6000,"station_id":"ce4bhq12rcd13ifvqhhg","pricing_plan_id":"free"},{"bike_id":"7352a209-8e13-4a38-bc71-8f1112683004","system_id":"levelo_inurba_marseille","lat":43.325391,"lon":5.414536,"is_reserved":false,"is_disabled":false,"rental_uris":{"android":"levelo://app?vid=7352a209-8e13-4a38-bc71-8f1112683004","ios":"levelo://app?vid=7352a209-8e13-4a38-bc71-8f1112683004"},"vehicle_type_id":"4","last_reported":1678864011,"current_range_meters":11200,"station_id":"ce4bhq12rcd13ifvqhhg","pricing_plan_id":"free"},{"bike_id":"94876ddc-54d9-445e-a32d-f96668dc1d71","system_id":"levelo_inurba_marseille","lat":43.2761,"lon":5.36106,"is_reserved":false,"is_disabled":false,"rental_uris":{"android":"levelo://app?vid=94876ddc-54d9-445e-a32d-f96668dc1d71","ios":"levelo://app?vid=94876ddc-54d9-445e-a32d-f96668dc1d71"},"vehicle_type_id":"4","last_reported":1678864011,"current_range_meters":4000,"station_id":"ce4bgj92rcd13ifvqbe0","pricing_plan_id":"free"},{"bike_id":"779768a8-cf20-470c-81a3-e045441e4f5c","system_id":"levelo_inurba_marseille","lat":43.332795,"lon":5.410665,"is_reserved":false,"is_disabled":false,"rental_uris":{"android":"levelo://app?vid=779768a8-cf20-470c-81a3-e045441e4f5c","ios":"levelo://app?vid=779768a8-cf20-470c-81a3-e045441e4f5c"},"vehicle_type_id":"4","last_reported":1678864011,"current_range_meters":19600,"station_id":"","pricing_plan_id":"free"},{"bike_id":"e7e2140c-8f42-4c93-b284-ca4c4adfc3f7","system_id":"levelo_inurba_marseille","lat":43.280784,"lon":5.396622,"is_reserved":false,"is_disabled":false,"rental_uris":{"android":"levelo://app?vid=e7e2140c-8f42-4c93-b284-ca4c4adfc3f7","ios":"levelo://app?vid=e7e2140c-8f42-4c93-b284-ca4c4adfc3f7"},"vehicle_type_id":"4","last_reported":1678864011,"current_range_meters":0,"station_id":"ce4bho12rcd13ifvqh2g","pricing_plan_id":"free"},{"bike_id":"734729dc-b523-4f8a-bad3-72ade95122da","system_id":"levelo_inurba_marseille","lat":43.280738,"lon":5.396539,"is_reserved":false,"is_disabled":false,"rental_uris":{"android":"levelo://app?vid=734729dc-b523-4f8a-bad3-72ade95122da","ios":"levelo://app?vid=734729dc-b523-4f8a-bad3-72ade95122da"},