{"last_updated":1751026826,"ttl":60,"version":"2.2","data":{"bikes":[{"bike_id":"3da29fb8-fc97-44c6-b9ac-31dd456b2fd4","system_id":"levelo_inurba_marseille","lat":43.33771,"lon":5.37424,"is_reserved":false,"is_disabled":true,"rental_uris":{"android":"levelo://app?vid=3da29fb8-fc97-44c6-b9ac-31dd456b2fd4","ios":"levelo://app?vid=3da29fb8-fc97-44c6-b9ac-31dd456b2fd4"},"vehicle_type_id":"4","last_reported":1751026826,"current_range_meters":0,"station_id":"","pricing_plan_id":"cebpf4jnsgd1na2vs0mg"},{"bike_id":"01861ad8-a8d7-4be6-816e-651927c87584","system_id":"levelo_inurba_marseille","lat":43.33751,"lon":5.37456,"is_reserved":false,"is_disabled":true,"rental_uris":{"android":"levelo://app?vid=01861ad8-a8d7-4be6-816e-651927c87584","ios":"levelo://app?vid=01861ad8-a8d7-4be6-816e-651927c87584"},"vehicle_type_id":"4","last_reported":1751026826,"current_range_meters":0,"station_id":"","pricing_plan_id":"cebpf4jnsgd1na2vs0mg"},{"bike_id":"a147e67d-e0b1-425e-bbda-ae9524df353e","system_id":"levelo_inurba_marseille","lat":43.337541,"lon":5.374577,"is_reserved":false,"is_disabled":true,"rental_uris":{"android":"levelo://app?vid=a147e67d-e0b1-425e-bbda-ae9524df353e","ios":"levelo://app?vid=a147e67d-e0b1-425e-bbda-ae9524df353e"},"vehicle_type_id":"4","last_reported":1751026826,"current_range_meters":0,"station_id":"","pricing_plan_id":"cebpf4jnsgd1na2vs0mg"},{"bike_id":"d7ab0e84-3bbe-4115-b0ab-ab05a5f13dfd","system_id":"levelo_inurba_marseille","lat":43.33037,"lon":5.41043,"is_reserved":false,"is_disabled":true,"rental_uris":{"android":"levelo://app?vid=d7ab0e84-3bbe-4115-b0ab-ab05a5f13dfd","ios":"levelo://app?vid=d7ab0e84-3bbe-4115-b0ab-ab05a5f13dfd"},"vehicle_type_id":"4","last_reported":1751026826,"current_range_meters":0,"station_id":"","pricing_plan_id":"cebpf4jnsgd1na2vs0mg"},{"bike_id":"2c5ab5ef-6e3c-47bf-9405-4e96ff645858","system_id":"levelo_inurba_marseille","lat":43.34029,"lon":5.42905,"is_reserved":false,"is_disabled":true,"rental_uris":{"android":"levelo://app?vid=2c5ab5ef-6e3c-47bf-9405-4e96ff645858","ios":"levelo://app?vid=2c5ab5ef-6e3c-47bf-9405-4e96ff645858"},"vehicle_type_id":"4","last_reported":1751026826,"current_range_meters":0,"station_id":"","pricing_plan_id":"cebpf4jnsgd1na2vs0mg"},{"bike_id":"67a5051a-b32e-408a-8389-c22b54eb81f6","system_id":"levelo_inurba_marseille","lat":43.33023,"lon":5.456,"is_reserved":false,"is_disabled":true,"rental_uris":{"android":"levelo://app?vid=67a5051a-b32e-408a-8389-c22b54eb81f6","ios":"levelo://app?vid=67a5051a-b32e-408a-8389-c22b54eb81f6"},"vehicle_type_id":"4","last_reported":1751026826,"current_range_meters":0,"station_id":"","pricing_plan_id":"cebpf4jnsgd1na2vs0mg"},{"bike_id":"4d064f95-6dcb-4234-9e98-7c70fbb74351","system_id":"levelo_inurba_marseille","lat":43.337444,"lon":5.374475,"is_reserved":false,"is_disabled":true,"rental_uris":{"android":"levelo://app?vid=4d064f95-6dcb-4234-9e98-7c70fbb74351","ios":"levelo://app?vid=4d064f95-6dcb-4234-9e98-7c70fbb74351"},"vehicle_type_id":"4","last_reported":1751026826,"current_range_meters":0,"station_id":"","pricing_plan_id":"cebpf4jnsgd1na2vs0mg"},{"bike_id":"446c66be-a677-44c2-9116-79a23398a824","system_id":"levelo_inurba_marseille","lat":43.27598,"lon":5.43199,"is_reserved":false,"is_disabled":true,"rental_uris":{"android":"levelo://app?vid=446c66be-a677-44c2-9116-79a23398a824","ios":"levelo://app?vid=446c66be-a677-44c2-9116-79a23398a824"},"vehicle_type_id":"4","last_reported":1751026826,"current_range_meters":0,"station_id":"","pricing_plan_id":"cebpf4jnsgd1na2vs0mg"},{"bike_id":"2315c627-494e-41a8-a12f-403d40de57ef","system_id":"levelo_inurba_marseille","lat":43.299,"lon":5.40382,"is_reserved":false,"is_disabled":true,"rental_uris":{"android":"levelo://app?vid=2315c627-494e-41a8-a12f-403d40de57ef","ios":"levelo://app?vid=2315c627-494e-41a8-a12f-403d40de57ef"},"vehicle_type_id":"4","last_reported":1751026826,"current_range_meters":0,"station_id":"","pricing_plan_id":"cebpf4jnsgd1na2vs0mg"},{"bike_id":"d6609b4f-333b-43c1-9ebe-8726f5e76e88","system_id":"levelo_inurba_marseille","lat":43.337444,"lon":5.374475,"is_reserved":false,"is_disabled":true,"rental_uris":{"android":"levelo://app?vid=d6609b4f-333b-43c1-9ebe-8726f5e76e88","ios":"levelo://app?vid=d6609b4f-333b-43c1-9ebe-8726f5e76e88"},"vehicle_type_id":"4","last_reported":1751026826,"current_range_meters":0,"station_id":"","pricing_plan_id":"cebpf4jnsgd1na2vs0mg"},{"bike_id":"14903f35-1eaf-4a5d-86c3-23007b361999","system_id":"levelo_inurba_marseille","lat":43.27064,"lon":5.42274,"is_reserved":false,"is_disabled":true,"rental_uris":{"android":"levelo://app?vid=14903f35-1eaf-4a5d-86c3-23007b361999","ios":"levelo://app?vid=14903f35-1eaf-4a5d-86c3-23007b361999"},"vehicle_type_id":"4","last_reported":1751026826,"current_range_meters":0,"station_id":"","pricing_plan_id":"cebpf4jnsgd1na2vs0mg"},{"bike_id":"bf027107-0fe5-47a2-8fef-6473f83bb647","system_id":"levelo_inurba_marseille","lat":43.32936,"lon":5.36412,"is_reserved":false,"is_disabled":true,"rental_uris":{"android":"levelo://app?vid=bf027107-0fe5-47a2-8fef-6473f83bb647","ios":"levelo://app?vid=bf027107-0fe5-47a2-8fef-6473f83bb647"},"vehicle_type_id":"4","last_reported":1751026826,"current_range_meters":0,"station_id":"","pricing_plan_id":"cebpf4jnsgd1na2vs0mg"},{"bike_id":"b17b6606-336a-4606-9b65-af139c49de26","system_id":"levelo_inurba_marseille","lat":43.25673,"lon":5.42708,"is_reserved":false,"is_disabled":true,"rental_uris":{"android":"levelo://app?vid=b17b6606-336a-4606-9b65-af139c49de26","ios":"levelo://app?vid=b17b6606-336a-4606-9b65-af139c49de26"},"vehicle_type_id":"4","last_reported":1751026826,"current_range_meters":0,"station_id":"","pricing_plan_id":"cebpf4jnsgd1na2vs0mg"},{"bike_id":"9d3724b1-0dc8-4689-9d6a-55005a9503cb","system_id":"levelo_inurba_marseille","lat":43.28617,"lon":5.42826,"is_reserved":false,"is_disabled":true,"rental_uris":{"android":"levelo://app?vid=9d3724b1-0dc8-4689-9d6a-55005a9503cb","ios":"levelo://app?vid=9d3724b1-0dc8-4689-9d6a-55005a9503cb"},"vehicle_type_id":"4","last_reported":1751026826,"current_range_meters":0,"station_id":"","pricing_plan_id":"cebpf4jnsgd1na2vs0mg"},{"bike_id":"ce774a04-a4be-4eca-a30f-78eb921955bd","system_id":"levelo_inurba_marseille","lat":43.33854,"lon":5.35531,"is_reserved":false,"is_disabled":true,"rental_uris":{"android":"levelo://app?vid=ce774a04-a4be-4eca-a30f-78eb921955bd","ios":"levelo://app?vid=ce774a04-a4be-4eca-a30f-78eb921955bd"},"vehicle_type_id":"4","last_reported":1751026826,"current_range_meters":0,"station_id":"","pricing_plan_id":"cebpf4jnsgd1na2vs0mg"},{"bike_id":"d3927187-4c24-4136-8212-488c21e07e1d","system_id":"levelo_inurba_marseille","lat":43.29312,"lon":5.37177,"is_reserved":false,"is_disabled":true,"rental_uris":{"android":"levelo://app?vid=d3927187-4c24-4136-8212-488c21e07e1d","ios":"levelo://app?vid=d3927187-4c24-4136-8212-488c21e07e1d"},"vehicle_type_id":"4","last_reported":1751026826,"current_range_meters":0,"station_id":"ce4bgh92rcd13ifvqb40","pricing_plan_id":"cebpf4jnsgd1na2vs0mg"},{"bike_id":"2929d79b-b825-4545-86df-f3a2416562cb","system_id":"levelo_inurba_marseille","lat":43.29269,"lon":5.40114,"is_reserved":false,"is_disabled":true,"rental_uris":{"android":"levelo://app?vid=2929d79b-b825-4545-86df-f3a2416562cb","ios":"levelo://app?vid=2929d79b-b825-4545-86df-f3a2416562cb"},"vehicle_type_id":"4","last_reported":1751026826,"current_range_meters":0,"station_id":"ce4bh312rcd13ifvqdk0","pricing_plan_id":"cebpf4jnsgd1na2vs0mg"},{"bike_id":"e2cdeaa9-a8d6-4101-ac11-d955f765709d","system_id":"levelo_inurba_marseille","lat":43.290302,"lon":5.386463,"is_reserved":false,"is_disabled":true,"rental_uris":{"android":"levelo://app?vid=e2cdeaa9-a8d6-4101-ac11-d955f765709d","ios":"levelo://app?vid=e2cdeaa9-a8d6-4101-ac11-d955f765709d"},"vehicle_type_id":"4","last_reported":1751026826,"current_range_meters":0,"station_id":"ce4bh4p2rcd13ifvqe0g","pricing_plan_id":"cebpf4jnsgd1na2vs0mg"},{"bike_id":"10b45913-bca5-4606-bbb7-c67b78fb88df","system_id":"levelo_inurba_marseille","lat":43.28411,"lon":5.34974,"is_reserved":false,"is_disabled":true,"rental_uris":{"android":"levelo://app?vid=10b45913-bca5-4606-bbb7-c67b78fb88df","ios":"levelo://app?vid=10b45913-bca5-4606-bbb7-c67b78fb88df"},"vehicle_type_id":"4","last_reported":1751026826,"current_range_meters":0,"station_id":"ce4bhbh2rcd13ifvqepg","pricing_plan_id":"cebpf4jnsgd1na2vs0mg"},{"bike_id":"b5b34be9-07b5-4db7-963c-2c7146c1cfd1","system_id":"levelo_inurba_marseille","lat":43.2719,"lon":5.41017,"is_reserved":false,"is_disabled":true,"rental_uris":{"android":"levelo://app?vid=b5b34be9-07b5-4db7-963c-2c7146c1cfd1","ios":"levelo://app?vid=b5b34be9-07b5-4db7-963c-2c7146c1cfd1"},"vehicle_type_id":"4","last_reported":1751026826,"current_range_meters":0,"station_id":"ce4bhl12rcd13ifvqgf0","pricing_plan_id":"cebpf4jnsgd1na2vs0mg"},{"bike_id":"ae838b2e-74e1-4ab3-b3f8-d1208753850a","system_id":"levelo_inurba_marseille","lat":43.23197,"lon":5.35557,"is_reserved":false,"is_disabled":true,"rental_uris":{"android":"levelo://app?vid=ae838b2e-74e1-4ab3-b3f8-d1208753850a","ios":"levelo://app?vid=ae838b2e-74e1-4ab3-b3f8-d1208753850a"},"vehicle_type_id":"4","last_reported":1751026826,"current_range_meters":0,"station_id":"ce4bhu92rcd13ifvqi70","pricing_plan_id":"cebpf4jnsgd1na2vs0mg"},{"bike_id":"a1ae4fee-cbeb-43dc-a969-5827f87e448d","system_id":"levelo_inurba_marseille","lat":43.383968,"lon":5.365264,"is_reserved":false,"is_disabled":true,"rental_uris":{"android":"levelo://app?vid=a1ae4fee-cbeb-43dc-a969-5827f87e448d","ios":"levelo://app?vid=a1ae4fee-cbeb-43dc-a969-5827f87e448d"},"vehicle_type_id":"4","last_reported":1751026826,"current_range_meters":400,"station_id":"","pricing_plan_id":"cebpf4jnsgd1na2vs0mg"},{"bike_id":"adda5012-0abb-4596-bafd-b5a508954798","system_id":"levelo_inurba_marseille","lat":43.30662,"lon":5.4008,"is_reserved":false,"is_disabled":true,"rental_uris":{"android":"levelo://app?vid=adda5012-0abb-4596-bafd-b5a508954798","ios":"levelo://app?vid=adda5012-0abb-4596-bafd-b5a508954798"},"vehicle_type_id":"4","last_reported":1751026826,"current_range_meters":400,"station_id":"ce4bh112rcd13ifvqda0","pricing_plan_id":"cebpf4jnsgd1na2vs0mg"},{"bike_id":"6e6a1d96-0842-4d87-a971-94de8fe02d84","system_id":"levelo_inurba_marseille","lat":43.28675,"lon":5.38674,"is_reserved":false,"is_disabled":true,"rental_uris":{"android":"levelo://app?vid=6e6a1d96-0842-4d87-a971-94de8fe02d84","ios":"levelo://app?vid=6e6a1d96-0842-4d87-a971-94de8fe02d84"},"vehicle_type_id":"4","last_reported":1751026826,"current_range_meters":400,"station_id":"ce4bh492rcd13ifvqdug","pricing_plan_id":"cebpf4jnsgd1na2vs0mg"},{"bike_id":"41de19e9-9992-4fb1-ab07-ea51b9ad8912","system_id":"levelo_inurba_marseille","lat":43.27915,"lon":5.38025,"is_reserved":false,"is_disabled":true,"rental_uris":{"android":"levelo://app?vid=41de19e9-9992-4fb1-ab07-ea51b9ad8912","ios":"levelo://app?vid=41de19e9-9992-4fb1-ab07-ea51b9ad8912"},"vehicle_type_id":"4","last_reported":1751026826,"current_range_meters":800,"station_id":"ce4bhf92rcd13ifvqf50","pricing_plan_id":"cebpf4jnsgd1na2vs0mg"},{"bike_id":"c6bf24b7-99ff-4c97-952f-7c45d5ee3134","system_id":"levelo_inurba_marseille","lat":43.26192,"lon":5.37457,"is_reserved":false,"is_disabled":true,"rental_uris":{"android":"levelo://app?vid=c6bf24b7-99ff-4c97-952f-7c45d5ee3134","ios":"levelo://app?vid=c6bf24b7-99ff-4c97-952f-7c45d5ee3134"},"vehicle_type_id":"4","last_reported":1751026826,"current_range_meters":800,"station_id":"ce4bhgp2rcd13ifvqfc0","pricing_plan_id":"cebpf4jnsgd1na2vs0mg"},{"bike_id":"38db06cd-cfed-4c25-ad5d-3f3a99d2136c","system_id":"levelo_inurba_marseille","lat":43.24392,"lon":5.3706,"is_reserved":false,"is_disabled":true,"rental_uris":{"android":"levelo://app?vid=38db06cd-cfed-4c25-ad5d-3f3a99d2136c","ios":"levelo://app?vid=38db06cd-cfed-4c25-ad5d-3f3a99d2136c"},"vehicle_type_id":"4","last_reported":1751026826,"current_range_meters":800,"station_id":"ce4bhhh2rcd13ifvqfk0","pricing_plan_id":"cebpf4jnsgd1na2vs0mg"},{"bike_id":"fed1680d-f887-458f-a5fd-e3fdd34ed035","system_id":"levelo_inurba_marseille","lat":43.32661,"lon":5.40989,"is_reserved":false,"is_disabled":true,"rental_uris":{"android":"levelo://app?vid=fed1680d-f887-458f-a5fd-e3fdd34ed035","ios":"levelo://app?vid=fed1680d-f887-458f-a5fd-e3fdd34ed035"},"vehicle_type_id":"4","last_reported":1751026826,"current_range_meters":800,"station_id":"ce4bhpp2rcd13ifvqhgg","pricing_plan_id":"cebpf4jnsgd1na2vs0mg"},{"bike_id":"75b99ce5-98e2-480a-a889-073abbac7a3e","system_id":"levelo_inurba_marseille","lat":43.29305,"lon":5.37464,"is_reserved":false,"is_disabled":true,"rental_uris":{"android":"levelo://app?vid=75b99ce5-98e2-480a-a889-073abbac7a3e","ios":"levelo://app?vid=75b99ce5-98e2-480a-a889-073abbac7a3e"},"vehicle_type_id":"4","last_reported":1751026826,"current_range_meters":1200,"station_id":"ce4bgi12rcd13ifvqb70","pricing_plan_id":"cebpf4jnsgd1na2vs0mg"},{"bike_id":"5b1e8db7-399f-4000-8c87-c87f17573779","system_id":"levelo_inurba_marseille","lat":43.24548,"lon":5.39522,"is_reserved":false,"is_disabled":true,"rental_uris":{"android":"levelo://app?vid=5b1e8db7-399f-4000-8c87-c87f17573779","ios":"levelo://app?vid=5b1e8db7-399f-4000-8c87-c87f17573779"},"vehicle_type_id":"4","last_reported":1751026826,"current_range_meters":1200,"station_id":"ce4bhlp2rcd13ifvqgjg","pricing_plan_id":"cebpf4jnsgd1na2vs0mg"},{"bike_id":"3bcb056d-77b9-4c1e-9972-570fa34052f6","system_id":"levelo_inurba_marseille","lat":43.24178,"lon":5.36396,"is_reserved":false,"is_disabled":true,"rental_uris":{"android":"levelo://app?vid=3bcb056d-77b9-4c1e-9972-570fa34052f6","ios":"levelo://app?vid=3bcb056d-77b9-4c1e-9972-570fa34052f6"},"vehicle_type_id":"4","last_reported":1751026826,"current_range_meters":1200,"station_id":"cpo36qri1sfpv3e86is0","pricing_plan_id":"cebpf4jnsgd1na2vs0mg"},{"bike_id":"7b55a214-0e75-4898-a0e0-471e89551080","system_id":"levelo_inurba_marseille","lat":43.304259,"lon":5.388908,"is_reserved":false,"is_disabled":true,"rental_uris":{"android":"levelo://app?vid=7b55a214-0e75-4898-a0e0-471e89551080","ios":"levelo://app?vid=7b55a214-0e75-4898-a0e0-471e89551080"},"vehicle_type_id":"4","last_reported":1751026826,"current_range_meters":1600,"station_id":"ce4bgk12rcd13ifvqbi0","pricing_plan_id":"cebpf4jnsgd1na2vs0mg"},{"bike_id":"80dc2108-ee12-4bbd-8eda-a9adeb5ea21a","system_id":"levelo_inurba_marseille","lat":43.29207,"lon":5.39335,"is_reserved":false,"is_disabled":true,"rental_uris":{"android":"levelo://app?vid=80dc2108-ee12-4bbd-8eda-a9adeb5ea21a","ios":"levelo://app?vid=80dc2108-ee12-4bbd-8eda-a9adeb5ea21a"},"vehicle_type_id":"4","last_reported":1751026826,"current_range_meters":1600,"station_id":"ce4bh192rcd13ifvqdd0","pricing_plan_id":"cebpf4jnsgd1na2vs0mg"},{"bike_id":"a86d2f9f-83d8-4f17-8422-d08e982c4a2a","system_id":"levelo_inurba_marseille","lat":43.29743,"lon":5.44843,"is_reserved":false,"is_disabled":true,"rental_uris":{"android":"levelo://app?vid=a86d2f9f-83d8-4f17-8422-d08e982c4a2a","ios":"levelo://app?vid=a86d2f9f-83d8-4f17-8422-d08e982c4a2a"},"vehicle_type_id":"4","last_reported":1751026826,"current_range_meters":2000,"station_id":"","pricing_plan_id":"cebpf4jnsgd1na2vs0mg"},{"bike_id":"d58c2489-7212-4fff-818a-d8ffb4d08aa0","system_id":"levelo_inurba_marseille","lat":43.3089,"lon":5.39666,"is_reserved":false,"is_disabled":true,"rental_uris":{"android":"levelo://app?vid=d58c2489-7212-4fff-818a-d8ffb4d08aa0","ios":"levelo://app?vid=d58c2489-7212-4fff-818a-d8ffb4d08aa0"},"vehicle_type_id":"4","last_reported":1751026826,"current_range_meters":2000,"station_id":"ce4bh012rcd13ifvqcv0","pricing_plan_id":"cebpf4jnsgd1na2vs0mg"},{"bike_id":"8d74d498-1d2c-40c0-b8b5-be272eb12d01","system_id":"levelo_inurba_marseille","lat":43.2908,"lon":5.3716,"is_reserved":false,"is_disabled":true,"rental_uris":{"android":"levelo://app?vid=8d74d498-1d2c-40c0-b8b5-be272eb12d01","ios":"levelo://app?vid=8d74d498-1d2c-40c0-b8b5-be272eb12d01"},"vehicle_type_id":"4","last_reported":1751026826,"current_range_meters":2000,"station_id":"ce4bh5p2rcd13ifvqe4g","pricing_plan_id":"cebpf4jnsgd1na2vs0mg"},{"bike_id":"d60113c8-3387-46de-adde-b2b1abf1350a","system_id":"levelo_inurba_marseille","lat":43.29962,"lon":5.41319,"is_reserved":false,"is_disabled":true,"rental_uris":{"android":"levelo://app?vid=d60113c8-3387-46de-adde-b2b1abf1350a","ios":"levelo://app?vid=d60113c8-3387-46de-adde-b2b1abf1350a"},"vehicle_type_id":"4","last_reported":1751026826,"current_range_meters":2000,"station_id":"ce4bhp12rcd13ifvqh9g","pricing_plan_id":"cebpf4jnsgd1na2vs0mg"},{"bike_id":"e0c7a3ec-a84e-44f2-a21b-f93b4bdca005","system_id":"levelo_inurba_marseille","lat":43.29535,"lon":5.37503,"is_reserved":false,"is_disabled":false,"rental_uris":{"android":"levelo://app?vid=e0c7a3ec-a84e-44f2-a21b-f93b4bdca005","ios":"levelo://app?vid=e0c7a3ec-a84e-44f2-a21b-f93b4bdca005"},"vehicle_type_id":"4","last_reported":1751026826,"current_range_meters":2800,"station_id":"ce4bgkp2rcd13ifvqbmg","pricing_plan_id":"cebpf4jnsgd1na2vs0mg"},{"bike_id":"924b96c6-ed06-4800-ae77-c68422817e3a","system_id":"levelo_inurba_marseille","lat":43.2964,"lon":5.406,"is_reserved":false,"is_disabled":false,"rental_uris":{"android":"levelo://app?vid=924b96c6-ed06-4800-ae77-c68422817e3a","ios":"levelo://app?vid=924b96c6-ed06-4800-ae77-c68422817e3a"},"vehicle_type_id":"4","last_reported":1751026826,"current_range_meters":2800,"station_id":"ce4bh0h2rcd13ifvqd60","pricing_plan_id":"cebpf4jnsgd1na2vs0mg"},{"bike_id":"7607df12-78de-4ac1-8ff7-aad06581f5aa","system_id":"levelo_inurba_marseille","lat":43.27921,"lon":5.39578,"is_reserved":false,"is_disabled":false,"rental_uris":{"android":"levelo://app?vid=7607df12-78de-4ac1-8ff7-aad06581f5aa","ios":"levelo://app?vid=7607df12-78de-4ac1-8ff7-aad06581f5aa"},"vehicle_type_id":"4","last_reported":1751026826,"current_range_meters":2800,"station_id":"ce4bhf92rcd13ifvqf40","pricing_plan_id":"cebpf4jnsgd1na2vs0mg"},{"bike_id":"26a14eba-87a9-47b8-9607-30bd0042d428","system_id":"levelo_inurba_marseille","lat":43.31469,"lon":5.39434,"is_reserved":false,"is_disabled":false,"rental_uris":{"android":"levelo://app?vid=26a14eba-87a9-47b8-9607-30bd0042d428","ios":"levelo://app?vid=26a14eba-87a9-47b8-9607-30bd0042d428"},"vehicle_type_id":"4","last_reported":1751026826,"current_range_meters":3200,"station_id":"","pricing_plan_id":"cebpf4jnsgd1na2vs0mg"},{"bike_id":"3e5d0ae7-bac3-40ea-95d2-50ef1aae7bc7","system_id":"levelo_inurba_marseille","lat":43.26848,"lon":5.41586,"is_reserved":false,"is_disabled":false,"rental_uris":{"android":"levelo://app?vid=3e5d0ae7-bac3-40ea-95d2-50ef1aae7bc7","ios":"levelo://app?vid=3e5d0ae7-bac3-40ea-95d2-50ef1aae7bc7"},"vehicle_type_id":"4","last_reported":1751026826,"current_range_meters":3200,"station_id":"","pricing_plan_id":"cebpf4jnsgd1na2vs0mg"},{"bike_id":"47daeacd-af38-4cc8-8df7-17ff3fc83f93","system_id":"levelo_inurba_marseille","lat":43.27382,"lon":5.36265,"is_reserved":false,"is_disabled":false,"rental_uris":{"android":"levelo://app?vid=47daeacd-af38-4cc8-8df7-17ff3fc83f93","ios":"levelo://app?vid=47daeacd-af38-4cc8-8df7-17ff3fc83f93"},"vehicle_type_id":"4","last_reported":1751026826,"current_range_meters":3200,"station_id":"ce4bhbh2rcd13ifvqeo0","pricing_plan_id":"cebpf4jnsgd1na2vs0mg"},{"bike_id":"5851b21a-9f77-4769-82f0-4906d071d338","system_id":"levelo_inurba_marseille","lat":43.26568,"lon":5.37256,"is_reserved":false,"is_disabled":false,"rental_uris":{"android":"levelo://app?vid=5851b21a-9f77-4769-82f0-4906d071d338","ios":"levelo://app?vid=5851b21a-9f77-4769-82f0-4906d071d338"},"vehicle_type_id":"4","last_reported":1751026826,"current_range_meters":3200,"station_id":"ce4bhg12rcd13ifvqf70","pricing_plan_id":"cebpf4jnsgd1na2vs0mg"},{"bike_id":"af112b62-19de-41d4-b8d7-e14d0172315d","system_id":"levelo_inurba_marseille","lat":43.32667,"lon":5.39264,"is_reserved":false,"is_disabled":false,"rental_uris":{"android":"levelo://app?vid=af112b62-19de-41d4-b8d7-e14d0172315d","ios":"levelo://app?vid=af112b62-19de-41d4-b8d7-e14d0172315d"},"vehicle_type_id":"4","last_reported":1751026826,"current_range_meters":3600,"station_id":"","pricing_plan_id":"cebpf4jnsgd1na2vs0mg"},{"bike_id":"7d5b7f9b-1501-4f7d-bc70-b588d87f91e0","system_id":"levelo_inurba_marseille","lat":43.30715,"lon":5.40325,"is_reserved":false,"is_disabled":false,"rental_uris":{"android":"levelo://app?vid=7d5b7f9b-1501-4f7d-bc70-b588d87f91e0","ios":"levelo://app?vid=7d5b7f9b-1501-4f7d-bc70-b588d87f91e0"},"vehicle_type_id":"4","last_reported":1751026826,"current_range_meters":3600,"station_id":"","pricing_plan_id":"cebpf4jnsgd1na2vs0mg"},{"bike_id":"004f3971-7568-4f0d-a493-ae954dcbf8d4","system_id":"levelo_inurba_marseille","lat":43.2997,"lon":5.38493,"is_reserved":false,"is_disabled":false,"rental_uris":{"android":"levelo://app?vid=004f3971-7568-4f0d-a493-ae954dcbf8d4","ios":"levelo://app?vid=004f3971-7568-4f0d-a493-ae954dcbf8d4"},"vehicle_type_id":"4","last_reported":1751026826,"current_range_meters":3600,"station_id":"ce4bgj92rcd13ifvqbd0","pricing_plan_id":"cebpf4jnsgd1na2vs0mg"},{"bike_id":"2d0357ae-5f0a-4520-9137-8044d3dff3a3","system_id":"levelo_inurba_marseille","lat":43.309507,"lon":5.390357,"is_reserved":false,"is_disabled":false,"rental_uris":{"android":"levelo://app?vid=2d0357ae-5f0a-4520-9137-8044d3dff3a3","ios":"levelo://app?vid=2d0357ae-5f0a-4520-9137-8044d3dff3a3"},"vehicle_type_id":"4","last_reported":1751026826,"current_range_meters":3600,"station_id":"ce4bgup2rcd13ifvqco0","pricing_plan_id":"cebpf4jnsgd1na2vs0mg"},{"bike_id":"d1f0a5a2-2998-4b29-8323-2b4f1c528972","system_id":"levelo_inurba_marseille","lat":43.28042,"lon":5.3695,"is_reserved":false,"is_disabled":false,"rental_uris":{"android":"levelo://app?vid=d1f0a5a2-2998-4b29-8323-2b4f1c528972","ios":"levelo://app?vid=d1f0a5a2-2998-4b29-8323-2b4f1c528972"},"vehicle_type_id":"4","last_reported":1751026826,"current_range_meters":3600,"station_id":"ce4bha12rcd13ifvqef0","pricing_plan_id":"cebpf4jnsgd1na2vs0mg"},{"bike_id":"658c9dc0-8625-4dcf-91c0-ba2c484762ec","system_id":"levelo_inurba_marseille","lat":43.269054,"lon":5.402896,"is_reserved":false,"is_disabled":false,"rental_uris":{"android":"levelo://app?vid=658c9dc0-8625-4dcf-91c0-ba2c484762ec","ios":"levelo://app?vid=658c9dc0-8625-4dcf-91c0-ba2c484762ec"},"vehicle_type_id":"4","last_reported":1751026826,"current_range_meters":3600,"station_id":"cjm6bp8fraef2m0cb0m0","pricing_plan_id":"cebpf4jnsgd1na2vs0mg"},{"bike_id":"784b48b6-254f-44fc-addf-bb5f2aa170fc","system_id":"levelo_inurba_marseille","lat":43.309357,"lon":5.368202,"is_reserved":false,"is_disabled":false,"rental_uris":{"android":"levelo://app?vid=784b48b6-254f-44fc-addf-bb5f2aa170fc","ios":"levelo://app?vid=784b48b6-254f-44fc-addf-bb5f2aa170fc"},"vehicle_type_id":"4","last_reported":1751026826,"current_range_meters":4000,"station_id":"ce4bgn92rcd13ifvqbvg","pricing_plan_id":"cebpf4jnsgd1na2vs0mg"},{"bike_id":"3c6ce3d0-22ea-4501-948b-bb8a5fef99a6","system_id":"levelo_inurba_marseille","lat":43.2997,"lon":5.37172,"is_reserved":false,"is_disabled":false,"rental_uris":{"android":"levelo://app?vid=3c6ce3d0-22ea-4501-948b-bb8a5fef99a6","ios":"levelo://app?vid=3c6ce3d0-22ea-4501-948b-bb8a5fef99a6"},"vehicle_type_id":"4","last_reported":1751026826,"current_range_meters":4000,"station_id":"ce4bgr92rcd13ifvqc7g","pricing_plan_id":"cebpf4jnsgd1na2vs0mg"},{"bike_id":"b9d0420b-1757-4cb5-b543-80ccccbc5f10","system_id":"levelo_inurba_marseille","lat":43.29009,"lon":5.35615,"is_reserved":false,"is_disabled":false,"rental_uris":{"android":"levelo://app?vid=b9d0420b-1757-4cb5-b543-80ccccbc5f10","ios":"levelo://app?vid=b9d0420b-1757-4cb5-b543-80ccccbc5f10"},"vehicle_type_id":"4","last_reported":1751026826,"current_range_meters":4000,"station_id":"ce4bhb92rcd13ifvqen0","pricing_plan_id":"cebpf4jnsgd1na2vs0mg"},{"bike_id":"9ce852fe-9449-4c16-b29b-642a7abdbbbf","system_id":"levelo_inurba_marseille","lat":43.27407,"lon":5.3621,"is_reserved":false,"is_disabled":false,"rental_uris":{"android":"levelo://app?vid=9ce852fe-9449-4c16-b29b-642a7abdbbbf","ios":"levelo://app?vid=9ce852fe-9449-4c16-b29b-642a7abdbbbf"},"vehicle_type_id":"4","last_reported":1751026826,"current_range_meters":4400,"station_id":"","pricing_plan_id":"cebpf4jnsgd1na2vs0mg"},{"bike_id":"3d9debfa-82f0-4e72-91a2-2fbaf3d7ac6e","system_id":"levelo_inurba_marseille","lat":43.308,"lon":5.38156,"is_reserved":false,"is_disabled":false,"rental_uris":{"android":"levelo://app?vid=3d9debfa-82f0-4e72-91a2-2fbaf3d7ac6e","ios":"levelo://app?vid=3d9debfa-82f0-4e72-91a2-2fbaf3d7ac6e"},"vehicle_type_id":"4","last_reported":1751026826,"current_range_meters":4400,"station_id":"ce4bgt12rcd13ifvqce0","pricing_plan_id":"cebpf4jnsgd1na2vs0mg"},{"bike_id":"71558870-9ccf-4104-9f13-9711992fe8c5","system_id":"levelo_inurba_marseille","lat":43.288527,"lon":5.359383,"is_reserved":false,"is_disabled":false,"rental_uris":{"android":"levelo://app?vid=71558870-9ccf-4104-9f13-9711992fe8c5","ios":"levelo://app?vid=71558870-9ccf-4104-9f13-9711992fe8c5"},"vehicle_type_id":"4","last_reported":1751026826,"current_range_meters":4400,"station_id":"ce4bhb92rcd13ifvqen0","pricing_plan_id":"cebpf4jnsgd1na2vs0mg"},{"bike_id":"6c199aa8-01ad-4c3c-8867-d79f825c0356","system_id":"levelo_inurba_marseille","lat":43.26561,"lon":5.37281,"is_reserved":false,"is_disabled":false,"rental_uris":{"android":"levelo://app?vid=6c199aa8-01ad-4c3c-8867-d79f825c0356","ios":"levelo://app?vid=6c199aa8-01ad-4c3c-8867-d79f825c0356"},"vehicle_type_id":"4","last_reported":1751026826,"current_range_meters":4400,"station_id":"ce4bhg12rcd13ifvqf70","pricing_plan_id":"cebpf4jnsgd1na2vs0mg"},{"bike_id":"6e7263a7-a355-477b-a467-ce0a473b8ba4","system_id":"levelo_inurba_marseille","lat":43.2396,"lon":5.36643,"is_reserved":false,"is_disabled":false,"rental_uris":{"android":"levelo://app?vid=6e7263a7-a355-477b-a467-ce0a473b8ba4","ios":"levelo://app?vid=6e7263a7-a355-477b-a467-ce0a473b8ba4"},"vehicle_type_id":"4","last_reported":1751026826,"current_range_meters":4400,"station_id":"ce4bhi12rcd13ifvqfp0","pricing_plan_id":"cebpf4jnsgd1na2vs0mg"},{"bike_id":"2311ce92-3e99-4db8-8ef5-6d723827fa13","system_id":"levelo_inurba_marseille","lat":43.30558,"lon":5.36539,"is_reserved":false,"is_disabled":false,"rental_uris":{"android":"levelo://app?vid=2311ce92-3e99-4db8-8ef5-6d723827fa13","ios":"levelo://app?vid=2311ce92-3e99-4db8-8ef5-6d723827fa13"},"vehicle_type_id":"4","last_reported":1751026826,"current_range_meters":5600,"station_id":"ce4bgs12rcd13ifvqcag","pricing_plan_id":"cebpf4jnsgd1na2vs0mg"},{"bike_id":"03d773fb-2954-4708-823c-56e95b7920b5","system_id":"levelo_inurba_marseille","lat":43.29277,"lon":5.36834,"is_reserved":false,"is_disabled":false,"rental_uris":{"android":"levelo://app?vid=03d773fb-2954-4708-823c-56e95b7920b5","ios":"levelo://app?vid=03d773fb-2954-4708-823c-56e95b7920b5"},"vehicle_type_id":"4","last_reported":1751026826,"current_range_meters":5600,"station_id":"ce4bhbp2rcd13ifvqesg","pricing_plan_id":"cebpf4jnsgd1na2vs0mg"},{"bike_id":"861fd57c-5f64-405f-a375-e3433df77006","system_id":"levelo_inurba_marseille","lat":43.27202,"lon":5.39183,"is_reserved":false,"is_disabled":false,"rental_uris":{"android":"levelo://app?vid=861fd57c-5f64-405f-a375-e3433df77006","ios":"levelo://app?vid=861fd57c-5f64-405f-a375-e3433df77006"},"vehicle_type_id":"4","last_reported":1751026826,"current_range_meters":5600,"station_id":"ce4bhhp2rcd13ifvqfm0","pricing_plan_id":"cebpf4jnsgd1na2vs0mg"},{"bike_id":"efb01ad2-81f6-4325-9b8c-5f000c5cc7b7","system_id":"levelo_inurba_marseille","lat":43.273725,"lon":5.362571,"is_reserved":false,"is_disabled":false,"rental_uris":{"android":"levelo://app?vid=efb01ad2-81f6-4325-9b8c-5f000c5cc7b7","ios":"levelo://app?vid=efb01ad2-81f6-4325-9b8c-5f000c5cc7b7"},"vehicle_type_id":"4","last_reported":1751026826,"current_range_meters":6000,"station_id":"","pricing_plan_id":"cebpf4jnsgd1na2vs0mg"},{"bike_id":"bcb8aad5-e193-4303-90ba-1583c663f038","system_id":"levelo_inurba_marseille","lat":43.290706,"lon":5.371145,"is_reserved":false,"is_disabled":false,"rental_uris":{"android":"levelo://app?vid=bcb8aad5-e193-4303-90ba-1583c663f038","ios":"levelo://app?vid=bcb8aad5-e193-4303-90ba-1583c663f038"},"vehicle_type_id":"4","last_reported":1751026826,"current_range_meters":6000,"station_id":"ce4bhch2rcd13ifvqeug","pricing_plan_id":"cebpf4jnsgd1na2vs0mg"},{"bike_id":"482ce41e-5995-4fe6-a2b4-7016f2c63c00","system_id":"levelo_inurba_marseille","lat":43.27908,"lon":5.39578,"is_reserved":false,"is_disabled":false,"rental_uris":{"android":"levelo://app?vid=482ce41e-5995-4fe6-a2b4-7016f2c63c00","ios":"levelo://app?vid=482ce41e-5995-4fe6-a2b4-7016f2c63c00"},"vehicle_type_id":"4","last_reported":1751026826,"current_range_meters":6000,"station_id":"ce4bhf92rcd13ifvqf40","pricing_plan_id":"cebpf4jnsgd1na2vs0mg"},{"bike_id":"e2f5b300-4a63-4778-aada-c29a8a0ea1e8","system_id":"levelo_inurba_marseille","lat":43.32797,"lon":5.392092,"is_reserved":false,"is_disabled":false,"rental_uris":{"android":"levelo://app?vid=e2f5b300-4a63-4778-aada-c29a8a0ea1e8","ios":"levelo://app?vid=e2f5b300-4a63-4778-aada-c29a8a0ea1e8"},"vehicle_type_id":"4","last_reported":1751026826,"current_range_meters":6400,"station_id":"","pricing_plan_id":"cebpf4jnsgd1na2vs0mg"},{"bike_id":"bf5298eb-2696-4878-996c-58eef9f9e9a5","system_id":"levelo_inurba_marseille","lat":43.29724,"lon":5.37699,"is_reserved":false,"is_disabled":false,"rental_uris":{"android":"levelo://app?vid=bf5298eb-2696-4878-996c-58eef9f9e9a5","ios":"levelo://app?vid=bf5298eb-2696-4878-996c-58eef9f9e9a5"},"vehicle_type_id":"4","last_reported":1751026826,"current_range_meters":6400,"station_id":"ce4bgkh2rcd13ifvqbl0","pricing_plan_id":"cebpf4jnsgd1na2vs0mg"},{"bike_id":"d3aa9c97-81b0-417b-a3eb-1cf5add54f4f","system_id":"levelo_inurba_marseille","lat":43.30521,"lon":5.36548,"is_reserved":false,"is_disabled":false,"rental_uris":{"android":"levelo://app?vid=d3aa9c97-81b0-417b-a3eb-1cf5add54f4f","ios":"levelo://app?vid=d3aa9c97-81b0-417b-a3eb-1cf5add54f4f"},"vehicle_type_id":"4","last_reported":1751026826,"current_range_meters":6400,"station_id":"ce4bgs12rcd13ifvqcag","pricing_plan_id":"cebpf4jnsgd1na2vs0mg"},{"bike_id":"72618704-75b1-423d-87e7-1848875a9115","system_id":"levelo_inurba_marseille","lat":43.29176,"lon":5.37172,"is_reserved":false,"is_disabled":false,"rental_uris":{"android":"levelo://app?vid=72618704-75b1-423d-87e7-1848875a9115","ios":"levelo://app?vid=72618704-75b1-423d-87e7-1848875a9115"},"vehicle_type_id":"4","last_reported":1751026826,"current_range_meters":6400,"station_id":"ce4bha92rcd13ifvqeh0","pricing_plan_id":"cebpf4jnsgd1na2vs0mg"},{"bike_id":"6462bf02-ad17-476a-9208-888197713840","system_id":"levelo_inurba_marseille","lat":43.29226,"lon":5.36065,"is_reserved":false,"is_disabled":false,"rental_uris":{"android":"levelo://app?vid=6462bf02-ad17-476a-9208-888197713840","ios":"levelo://app?vid=6462bf02-ad17-476a-9208-888197713840"},"vehicle_type_id":"4","last_reported":1751026826,"current_range_meters":6400,"station_id":"ce4bhbh2rcd13ifvqeqg","pricing_plan_id":"cebpf4jnsgd1na2vs0mg"},{"bike_id":"a98fd970-88ac-431a-90ba-3731e0931174","system_id":"levelo_inurba_marseille","lat":43.31335,"lon":5.38594,"is_reserved":false,"is_disabled":false,"rental_uris":{"android":"levelo://app?vid=a98fd970-88ac-431a-90ba-3731e0931174","ios":"levelo://app?vid=a98fd970-88ac-431a-90ba-3731e0931174"},"vehicle_type_id":"4","last_reported":1751026826,"current_range_meters":6800,"station_id":"","pricing_plan_id":"cebpf4jnsgd1na2vs0mg"},{"bike_id":"68f9ebbc-a0ff-4195-9762-5f672975ecc4","system_id":"levelo_inurba_marseille","lat":43.23966,"lon":5.36626,"is_reserved":false,"is_disabled":true,"rental_uris":{"android":"levelo://app?vid=68f9ebbc-a0ff-4195-9762-5f672975ecc4","ios":"levelo://app?vid=68f9ebbc-a0ff-4195-9762-5f672975ecc4"},"vehicle_type_id":"4","last_reported":1751026826,"current_range_meters":6800,"station_id":"ce4bhi12rcd13ifvqfp0","pricing_plan_id":"cebpf4jnsgd1na2vs0mg"},{"bike_id":"d05e96d7-0fcc-4c97-b63a-6d841be2e24c","system_id":"levelo_inurba_marseille","lat":43.29871,"lon":5.39733,"is_reserved":false,"is_disabled":false,"rental_uris":{"android":"levelo://app?vid=d05e96d7-0fcc-4c97-b63a-6d841be2e24c","ios":"levelo://app?vid=d05e96d7-0fcc-4c97-b63a-6d841be2e24c"},"vehicle_type_id":"4","last_reported":1751026826,"current_range_meters":7200,"station_id":"ce4bh0h2rcd13ifvqd50","pricing_plan_id":"cebpf4jnsgd1na2vs0mg"},{"bike_id":"d545d443-982f-4300-bd0d-c31a805e59d6","system_id":"levelo_inurba_marseille","lat":43.25936,"lon":5.40908,"is_reserved":false,"is_disabled":false,"rental_uris":{"android":"levelo://app?vid=d545d443-982f-4300-bd0d-c31a805e59d6","ios":"levelo://app?vid=d545d443-982f-4300-bd0d-c31a805e59d6"},"vehicle_type_id":"4","last_reported":1751026826,"current_range_meters":7200,"station_id":"ce4bhm92rcd13ifvqglg","pricing_plan_id":"cebpf4jnsgd1na2vs0mg"},{"bike_id":"7ac2d6ad-16d3-463d-9f49-789f3bb8e5d0","system_id":"levelo_inurba_marseille","lat":43.33751,"lon":5.39182,"is_reserved":false,"is_disabled":false,"rental_uris":{"android":"levelo://app?vid=7ac2d6ad-16d3-463d-9f49-789f3bb8e5d0","ios":"levelo://app?vid=7ac2d6ad-16d3-463d-9f49-789f3bb8e5d0"},"vehicle_type_id":"4","last_reported":1751026826,"current_range_meters":7200,"station_id":"ce4bhr92rcd13ifvqhsg","pricing_plan_id":"cebpf4jnsgd1na2vs0mg"},{"bike_id":"db4e2ea3-c22f-48f0-b53e-224aec501d16","system_id":"levelo_inurba_marseille","lat":43.32369,"lon":5.36775,"is_reserved":false,"is_disabled":false,"rental_uris":{"android":"levelo://app?vid=db4e2ea3-c22f-48f0-b53e-224aec501d16","ios":"levelo://app?vid=db4e2ea3-c22f-48f0-b53e-224aec501d16"},"vehicle_type_id":"4","last_reported":1751026826,"current_range_meters":7200,"station_id":"ce4bhsh2rcd13ifvqi2g","pricing_plan_id":"cebpf4jnsgd1na2vs0mg"},{"bike_id":"a9d25cad-d480-4c75-aec5-3969f1a4e6c7","system_id":"levelo_inurba_marseille","lat":43.32933,"lon":5.39039,"is_reserved":false,"is_disabled":false,"rental_uris":{"android":"levelo://app?vid=a9d25cad-d480-4c75-aec5-3969f1a4e6c7","ios":"levelo://app?vid=a9d25cad-d480-4c75-aec5-3969f1a4e6c7"},"vehicle_type_id":"4","last_reported":1751026826,"current_range_meters":8000,"station_id":"","pricing_plan_id":"cebpf4jnsgd1na2vs0mg"},{"bike_id":"3ed97791-4fd1-4beb-9e6b-4998740d59d9","system_id":"levelo_inurba_marseille","lat":43.271719,"lon":5.410008,"is_reserved":false,"is_disabled":false,"rental_uris":{"android":"levelo://app?vid=3ed97791-4fd1-4beb-9e6b-4998740d59d9","ios":"levelo://app?vid=3ed97791-4fd1-4beb-9e6b-4998740d59d9"},"vehicle_type_id":"4","last_reported":1751026826,"current_range_meters":8000,"station_id":"","pricing_plan_id":"cebpf4jnsgd1na2vs0mg"},{"bike_id":"98146d93-e48b-47bc-9798-aa56f6c33055","system_id":"levelo_inurba_marseille","lat":43.29581,"lon":5.37504,"is_reserved":false,"is_disabled":false,"rental_uris":{"android":"levelo://app?vid=98146d93-e48b-47bc-9798-aa56f6c33055","ios":"levelo://app?vid=98146d93-e48b-47bc-9798-aa56f6c33055"},"vehicle_type_id":"4","last_reported":1751026826,"current_range_meters":8000,"station_id":"ce4bgh92rcd13ifvqb50","pricing_plan_id":"cebpf4jnsgd1na2vs0mg"},{"bike_id":"f8f907f8-f0db-484a-80a6-7ddbb30d1c54","system_id":"levelo_inurba_marseille","lat":43.28082,"lon":5.3966,"is_reserved":false,"is_disabled":false,"rental_uris":{"android":"levelo://app?vid=f8f907f8-f0db-484a-80a6-7ddbb30d1c54","ios":"levelo://app?vid=f8f907f8-f0db-484a-80a6-7ddbb30d1c54"},"vehicle_type_id":"4","last_reported":1751026826,"current_range_meters":8000,"station_id":"ce4bho12rcd13ifvqh2g","pricing_plan_id":"cebpf4jnsgd1na2vs0mg"},{"bike_id":"a47ee647-b777-4c68-a199-5cbebb4cf51c","system_id":"levelo_inurba_marseille","lat":43.28721,"lon":5.37932,"is_reserved":false,"is_disabled":false,"rental_uris":{"android":"levelo://app?vid=a47ee647-b777-4c68-a199-5cbebb4cf51c","ios":"levelo://app?vid=a47ee647-b777-4c68-a199-5cbebb4cf51c"},"vehicle_type_id":"4","last_reported":1751026826,"current_range_meters":8400,"station_id":"ce4bh9p2rcd13ifvqec0","pricing_plan_id":"cebpf4jnsgd1na2vs0mg"},{"bike_id":"f47876d7-9c85-474e-92c5-7a242e08b67c","system_id":"levelo_inurba_marseille","lat":43.30565,"lon":5.37569,"is_reserved":false,"is_disabled":false,"rental_uris":{"android":"levelo://app?vid=f47876d7-9c85-474e-92c5-7a242e08b67c","ios":"levelo://app?vid=f47876d7-9c85-474e-92c5-7a242e08b67c"},"vehicle_type_id":"4","last_reported":1751026826,"current_range_meters":8800,"station_id":"","pricing_plan_id":"cebpf4jnsgd1na2vs0mg"},{"bike_id":"e2b1b81d-27e8-495b-9fce-5bef10a02ecf","system_id":"levelo_inurba_marseille","lat":43.27043,"lon":5.3883,"is_reserved":false,"is_disabled":false,"rental_uris":{"android":"levelo://app?vid=e2b1b81d-27e8-495b-9fce-5bef10a02ecf","ios":"levelo://app?vid=e2b1b81d-27e8-495b-9fce-5bef10a02ecf"},"vehicle_type_id":"4","last_reported":1751026826,"current_range_meters":8800,"station_id":"","pricing_plan_id":"cebpf4jnsgd1na2vs0mg"},{"bike_id":"c79a1a24-e636-4de3-9f02-2e1fee74a3af","system_id":"levelo_inurba_marseille","lat":43.30138,"lon":5.38781,"is_reserved":false,"is_disabled":false,"rental_uris":{"android":"levelo://app?vid=c79a1a24-e636-4de3-9f02-2e1fee74a3af","ios":"levelo://app?vid=c79a1a24-e636-4de3-9f02-2e1fee74a3af"},"vehicle_type_id":"4","last_reported":1751026826,"current_range_meters":8800,"station_id":"ce4bghh2rcd13ifvqb60","pricing_plan_id":"cebpf4jnsgd1na2vs0mg"},{"bike_id":"94e84186-d780-461a-b647-8d1cf3f036ad","system_id":"levelo_inurba_marseille","lat":43.31808,"lon":5.37662,"is_reserved":false,"is_disabled":false,"rental_uris":{"android":"levelo://app?vid=94e84186-d780-461a-b647-8d1cf3f036ad","ios":"levelo://app?vid=94e84186-d780-461a-b647-8d1cf3f036ad"},"vehicle_type_id":"4","last_reported":1751026826,"current_range_meters":8800,"station_id":"ce4bgth2rcd13ifvqch0","pricing_plan_id":"cebpf4jnsgd1na2vs0mg"},{"bike_id":"21aa95ed-2e6f-4899-a2e9-e7cf13d3bf9d","system_id":"levelo_inurba_marseille","lat":43.2901,"lon":5.38118,"is_reserved":false,"is_disabled":false,"rental_uris":{"android":"levelo://app?vid=21aa95ed-2e6f-4899-a2e9-e7cf13d3bf9d","ios":"levelo://app?vid=21aa95ed-2e6f-4899-a2e9-e7cf13d3bf9d"},"vehicle_type_id":"4","last_reported":1751026826,"current_range_meters":8800,"station_id":"ce4bh4p2rcd13ifvqe1g","pricing_plan_id":"cebpf4jnsgd1na2vs0mg"},{"bike_id":"03b5348c-ee39-4d54-8f25-73a9c6bc36df","system_id":"levelo_inurba_marseille","lat":43.30363,"lon":5.42502,"is_reserved":false,"is_disabled":false,"rental_uris":{"android":"levelo://app?vid=03b5348c-ee39-4d54-8f25-73a9c6bc36df","ios":"levelo://app?vid=03b5348c-ee39-4d54-8f25-73a9c6bc36df"},"vehicle_type_id":"4","last_reported":1751026826,"current_range_meters":8800,"station_id":"ce4bhoh2rcd13ifvqh6g","pricing_plan_id":"cebpf4jnsgd1na2vs0mg"},{"bike_id":"01cf810a-9369-4c5a-b1be-e3cfb5a5c547","system_id":"levelo_inurba_marseille","lat":43.29919,"lon":5.37469,"is_reserved":false,"is_disabled":false,"rental_uris":{"android":"levelo://app?vid=01cf810a-9369-4c5a-b1be-e3cfb5a5c547","ios":"levelo://app?vid=01cf810a-9369-4c5a-b1be-e3cfb5a5c547"},"vehicle_type_id":"4","last_reported":1751026826,"current_range_meters":9200,"station_id":"ce4bgjh2rcd13ifvqbg0","pricing_plan_id":"cebpf4jnsgd1na2vs0mg"},{"bike_id":"5d6cd767-9c47-42c3-878d-869668770072","system_id":"levelo_inurba_marseille","lat":43.28565,"lon":5.395,"is_reserved":false,"is_disabled":false,"rental_uris":{"android":"levelo://app?vid=5d6cd767-9c47-42c3-878d-869668770072","ios":"levelo://app?vid=5d6cd767-9c47-42c3-878d-869668770072"},"vehicle_type_id":"4","last_reported":1751026826,"current_range_meters":9200,"station_id":"ce4bh292rcd13ifvqdg0","pricing_plan_id":"cebpf4jnsgd1na2vs0mg"},{"bike_id":"1bb0abec-3add-4e9b-9d38-d2e0f5e453ed","system_id":"levelo_inurba_marseille","lat":43.30377,"lon":5.42493,"is_reserved":false,"is_disabled":false,"rental_uris":{"android":"levelo://app?vid=1bb0abec-3add-4e9b-9d38-d2e0f5e453ed","ios":"levelo://app?vid=1bb0abec-3add-4e9b-9d38-d2e0f5e453ed"},"vehicle_type_id":"4","last_reported":1751026826,"current_range_meters":9200,"station_id":"ce4bhoh2rcd13ifvqh6g","pricing_plan_id":"cebpf4jnsgd1na2vs0mg"},{"bike_id":"6d31f048-d73c-41cc-b3c8-639d13f63e10","system_id":"levelo_inurba_marseille","lat":43.3205,"lon":5.41545,"is_reserved":false,"is_disabled":false,"rental_uris":{"android":"levelo://app?vid=6d31f048-d73c-41cc-b3c8-639d13f63e10","ios":"levelo://app?vid=6d31f048-d73c-41cc-b3c8-639d13f63e10"},"vehicle_type_id":"4","last_reported":1751026826,"current_range_meters":9200,"station_id":"ce4bhq92rcd13ifvqhkg","pricing_plan_id":"cebpf4jnsgd1na2vs0mg"},{"bike_id":"a8d020af-a517-43d3-a9f5-e1fd3a6f59ef","system_id":"levelo_inurba_marseille","lat":43.31739,"lon":5.39023,"is_reserved":false,"is_disabled":false,"rental_uris":{"android":"levelo://app?vid=a8d020af-a517-43d3-a9f5-e1fd3a6f59ef","ios":"levelo://app?vid=a8d020af-a517-43d3-a9f5-e1fd3a6f59ef"},"vehicle_type_id":"4","last_reported":1751026826,"current_range_meters":9200,"station_id":"ce4bhqp2rcd13ifvqhng","pricing_plan_id":"cebpf4jnsgd1na2vs0mg"},{"bike_id":"4d06c23d-5186-47c3-82a2-4c156c24f905","system_id":"levelo_inurba_marseille","lat":43.21764,"lon":5.34608,"is_reserved":false,"is_disabled":false,"rental_uris":{"android":"levelo://app?vid=4d06c23d-5186-47c3-82a2-4c156c24f905","ios":"levelo://app?vid=4d06c23d-5186-47c3-82a2-4c156c24f905"},"vehicle_type_id":"4","last_reported":1751026826,"current_range_meters":9200,"station_id":"st_cvj6r9ubvosntc0bgbag","pricing_plan_id":"cebpf4jnsgd1na2vs0mg"},{"bike_id":"4b8da722-ee9e-48a4-a5e5-3a8a10364708","system_id":"levelo_inurba_marseille","lat":43.312213,"lon":5.378161,"is_reserved":false,"is_disabled":false,"rental_uris":{"android":"levelo://app?vid=4b8da722-ee9e-48a4-a5e5-3a8a10364708","ios":"levelo://app?vid=4b8da722-ee9e-48a4-a5e5-3a8a10364708"},"vehicle_type_id":"4","last_reported":1751026826,"current_range_meters":9600,"station_id":"","pricing_plan_id":"cebpf4jnsgd1na2vs0mg"},{"bike_id":"767c4f0c-3729-4b20-b6d6-9ac5f78bc107","system_id":"levelo_inurba_marseille","lat":43.30592,"lon":5.39353,"is_reserved":false,"is_disabled":false,"rental_uris":{"android":"levelo://app?vid=767c4f0c-3729-4b20-b6d6-9ac5f78bc107","ios":"levelo://app?vid=767c4f0c-3729-4b20-b6d6-9ac5f78bc107"},"vehicle_type_id":"4","last_reported":1751026826,"current_range_meters":9600,"station_id":"ce4bh0p2rcd13ifvqd80","pricing_plan_id":"cebpf4jnsgd1na2vs0mg"},{"bike_id":"d4e177ad-79e4-456e-933f-1e1248bff5f2","system_id":"levelo_inurba_marseille","lat":43.27084,"lon":5.42315,"is_reserved":false,"is_disabled":false,"rental_uris":{"android":"levelo://app?vid=d4e177ad-79e4-456e-933f-1e1248bff5f2","ios":"levelo://app?vid=d4e177ad-79e4-456e-933f-1e1248bff5f2"},"vehicle_type_id":"4","last_reported":1751026826,"current_range_meters":9600,"station_id":"ce4bhk92rcd13ifvqgb0","pricing_plan_id":"cebpf4jnsgd1na2vs0mg"},{"bike_id":"6e333cad-8154-4d5d-9ce4-405ad8359f75","system_id":"levelo_inurba_marseille","lat":43.229305,"lon":5.353831,"is_reserved":false,"is_disabled":false,"rental_uris":{"android":"levelo://app?vid=6e333cad-8154-4d5d-9ce4-405ad8359f75","ios":"levelo://app?vid=6e333cad-8154-4d5d-9ce4-405ad8359f75"},"vehicle_type_id":"4","last_reported":1751026826,"current_range_meters":9600,"station_id":"cpo3532slgdg3j2ikp40","pricing_plan_id":"cebpf4jnsgd1na2vs0mg"},{"bike_id":"ec2d5728-9962-43e7-8b03-1359420b0dd3","system_id":"levelo_inurba_marseille","lat":43.30726,"lon":5.40324,"is_reserved":false,"is_disabled":false,"rental_uris":{"android":"levelo://app?vid=ec2d5728-9962-43e7-8b03-1359420b0dd3","ios":"levelo://app?vid=ec2d5728-9962-43e7-8b03-1359420b0dd3"},"vehicle_type_id":"4","last_reported":1751026826,"current_range_meters":10000,"station_id":"","pricing_plan_id":"cebpf4jnsgd1na2vs0mg"},{"bike_id":"5af29b47-5801-4072-abd5-bd8606baa8c6","system_id":"levelo_inurba_marseille","lat":43.292012,"lon":5.371747,"is_reserved":false,"is_disabled":false,"rental_uris":{"android":"levelo://app?vid=5af29b47-5801-4072-abd5-bd8606baa8c6","ios":"levelo://app?vid=5af29b47-5801-4072-abd5-bd8606baa8c6"},"vehicle_type_id":"4","last_reported":1751026826,"current_range_meters":10000,"station_id":"ce4bgk12rcd13ifvqbi0","pricing_plan_id":"cebpf4jnsgd1na2vs0mg"},{"bike_id":"a883f219-e577-4c8c-8a63-91ae6336dd84","system_id":"levelo_inurba_marseille","lat":43.2995,"lon":5.36538,"is_reserved":false,"is_disabled":false,"rental_uris":{"android":"levelo://app?vid=a883f219-e577-4c8c-8a63-91ae6336dd84","ios":"levelo://app?vid=a883f219-e577-4c8c-8a63-91ae6336dd84"},"vehicle_type_id":"4","last_reported":1751026826,"current_range_meters":10000,"station_id":"ce4bgm92rcd13ifvqbr0","pricing_plan_id":"cebpf4jnsgd1na2vs0mg"},{"bike_id":"98babce1-157f-4af8-991d-456ccada4aae","system_id":"levelo_inurba_marseille","lat":43.30891,"lon":5.3966,"is_reserved":false,"is_disabled":false,"rental_uris":{"android":"levelo://app?vid=98babce1-157f-4af8-991d-456ccada4aae","ios":"levelo://app?vid=98babce1-157f-4af8-991d-456ccada4aae"},"vehicle_type_id":"4","last_reported":1751026826,"current_range_meters":10000,"station_id":"ce4bh012rcd13ifvqcv0","pricing_plan_id":"cebpf4jnsgd1na2vs0mg"},{"bike_id":"45fa0d60-c92e-42df-8bdc-2132ce97e89f","system_id":"levelo_inurba_marseille","lat":43.27382,"lon":5.36261,"is_reserved":false,"is_disabled":false,"rental_uris":{"android":"levelo://app?vid=45fa0d60-c92e-42df-8bdc-2132ce97e89f","ios":"levelo://app?vid=45fa0d60-c92e-42df-8bdc-2132ce97e89f"},"vehicle_type_id":"4","last_reported":1751026826,"current_range_meters":10000,"station_id":"ce4bhbh2rcd13ifvqeo0","pricing_plan_id":"cebpf4jnsgd1na2vs0mg"},{"bike_id":"6459e319-9df9-4feb-acbb-2862ebb67fdb","system_id":"levelo_inurba_marseille","lat":43.27839,"lon":5.39208,"is_reserved":false,"is_disabled":false,"rental_uris":{"android":"levelo://app?vid=6459e319-9df9-4feb-acbb-2862ebb67fdb","ios":"levelo://app?vid=6459e319-9df9-4feb-acbb-2862ebb67fdb"},"vehicle_type_id":"4","last_reported":1751026826,"current_range_meters":10000,"station_id":"ce4bhjp2rcd13ifvqga0","pricing_plan_id":"cebpf4jnsgd1na2vs0mg"},{"bike_id":"467e2ea8-e11c-4e3b-a2e3-1aa2102aee15","system_id":"levelo_inurba_marseille","lat":43.27939,"lon":5.41056,"is_reserved":false,"is_disabled":false,"rental_uris":{"android":"levelo://app?vid=467e2ea8-e11c-4e3b-a2e3-1aa2102aee15","ios":"levelo://app?vid=467e2ea8-e11c-4e3b-a2e3-1aa2102aee15"},"vehicle_type_id":"4","last_reported":1751026826,"current_range_meters":10000,"station_id":"ce4bhnp2rcd13ifvqh0g","pricing_plan_id":"cebpf4jnsgd1na2vs0mg"},{"bike_id":"bdee4145-fdcc-4fee-bf03-ffa3a6a5fef9","system_id":"levelo_inurba_marseille","lat":43.32113,"lon":5.36771,"is_reserved":false,"is_disabled":false,"rental_uris":{"android":"levelo://app?vid=bdee4145-fdcc-4fee-bf03-ffa3a6a5fef9","ios":"levelo://app?vid=bdee4145-fdcc-4fee-bf03-ffa3a6a5fef9"},"vehicle_type_id":"4","last_reported":1751026826,"current_range_meters":10000,"station_id":"ce4bhrh2rcd13ifvqhug","pricing_plan_id":"cebpf4jnsgd1na2vs0mg"},{"bike_id":"959a6144-1b8c-4394-b676-453ee52d4830","system_id":"levelo_inurba_marseille","lat":43.32462,"lon":5.36582,"is_reserved":false,"is_disabled":false,"rental_uris":{"android":"levelo://app?vid=959a6144-1b8c-4394-b676-453ee52d4830","ios":"levelo://app?vid=959a6144-1b8c-4394-b676-453ee52d4830"},"vehicle_type_id":"4","last_reported":1751026826,"current_range_meters":10000,"station_id":"ce4bhs12rcd13ifvqhvg","pricing_plan_id":"cebpf4jnsgd1na2vs0mg"},{"bike_id":"d2541864-294e-4fa8-8ed4-da3902bb58d5","system_id":"levelo_inurba_marseille","lat":43.22931,"lon":5.353691,"is_reserved":false,"is_disabled":false,"rental_uris":{"android":"levelo://app?vid=d2541864-294e-4fa8-8ed4-da3902bb58d5","ios":"levelo://app?vid=d2541864-294e-4fa8-8ed4-da3902bb58d5"},"vehicle_type_id":"4","last_reported":1751026826,"current_range_meters":10000,"station_id":"cpo3532slgdg3j2ikp40","pricing_plan_id":"cebpf4jnsgd1na2vs0mg"},{"bike_id":"38ee6c99-ed1c-4320-bb3c-b1d717388b30","system_id":"levelo_inurba_marseille","lat":43.22945,"lon":5.3538,"is_reserved":false,"is_disabled":false,"rental_uris":{"android":"levelo://app?vid=38ee6c99-ed1c-4320-bb3c-b1d717388b30","ios":"levelo://app?vid=38ee6c99-ed1c-4320-bb3c-b1d717388b30"},"vehicle_type_id":"4","last_reported":1751026826,"current_range_meters":10000,"station_id":"cpo3532slgdg3j2ikp40","pricing_plan_id":"cebpf4jnsgd1na2vs0mg"},{"bike_id":"6bb25087-4929-40aa-a0d7-d130e48685f0","system_id":"levelo_inurba_marseille","lat":43.24171,"lon":5.36394,"is_reserved":false,"is_disabled":false,"rental_uris":{"android":"levelo://app?vid=6bb25087-4929-40aa-a0d7-d130e48685f0","ios":"levelo://app?vid=6bb25087-4929-40aa-a0d7-d130e48685f0"},"vehicle_type_id":"4","last_reported":1751026826,"current_range_meters":10000,"station_id":"cpo36qri1sfpv3e86is0","pricing_plan_id":"cebpf4jnsgd1na2vs0mg"},{"bike_id":"61d52301-5315-4462-9419-d597d7d2d7dd","system_id":"levelo_inurba_marseille","lat":43.21745,"lon":5.34593,"is_reserved":false,"is_disabled":false,"rental_uris":{"android":"levelo://app?vid=61d52301-5315-4462-9419-d597d7d2d7dd","ios":"levelo://app?vid=61d52301-5315-4462-9419-d597d7d2d7dd"},"vehicle_type_id":"4","last_reported":1751026826,"current_range_meters":10000,"station_id":"st_cvj6r9ubvosntc0bgbag","pricing_plan_id":"cebpf4jnsgd1na2vs0mg"},{"bike_id":"768c0104-715f-4ae7-8bb0-ad9c0d98e622","system_id":"levelo_inurba_marseille","lat":43.3106,"lon":5.40089,"is_reserved":false,"is_disabled":false,"rental_uris":{"android":"levelo://app?vid=768c0104-715f-4ae7-8bb0-ad9c0d98e622","ios":"levelo://app?vid=768c0104-715f-4ae7-8bb0-ad9c0d98e622"},"vehicle_type_id":"4","last_reported":1751026826,"current_range_meters":10800,"station_id":"","pricing_plan_id":"cebpf4jnsgd1na2vs0mg"},{"bike_id":"fea895d1-80ad-4d60-9883-c4d114a92e95","system_id":"levelo_inurba_marseille","lat":43.27381,"lon":5.36265,"is_reserved":false,"is_disabled":false,"rental_uris":{"android":"levelo://app?vid=fea895d1-80ad-4d60-9883-c4d114a92e95","ios":"levelo://app?vid=fea895d1-80ad-4d60-9883-c4d114a92e95"},"vehicle_type_id":"4","last_reported":1751026826,"current_range_meters":10800,"station_id":"ce4bhbh2rcd13ifvqeo0","pricing_plan_id":"cebpf4jnsgd1na2vs0mg"},{"bike_id":"ac77be35-cbad-4502-b992-159757bf2178","system_id":"levelo_inurba_marseille","lat":43.27432,"lon":5.39415,"is_reserved":false,"is_disabled":false,"rental_uris":{"android":"levelo://app?vid=ac77be35-cbad-4502-b992-159757bf2178","ios":"levelo://app?vid=ac77be35-cbad-4502-b992-159757bf2178"},"vehicle_type_id":"4","last_reported":1751026826,"current_range_meters":10800,"station_id":"ce4bhdp2rcd13ifvqf20","pricing_plan_id":"cebpf4jnsgd1na2vs0mg"},{"bike_id":"c63e1b0c-2046-4c56-a66c-55f5fa9def69","system_id":"levelo_inurba_marseille","lat":43.2511,"lon":5.40319,"is_reserved":false,"is_disabled":false,"rental_uris":{"android":"levelo://app?vid=c63e1b0c-2046-4c56-a66c-55f5fa9def69","ios":"levelo://app?vid=c63e1b0c-2046-4c56-a66c-55f5fa9def69"},"vehicle_type_id":"4","last_reported":1751026826,"current_range_meters":10800,"station_id":"ce4bhlh2rcd13ifvqgig","pricing_plan_id":"cebpf4jnsgd1na2vs0mg"},{"bike_id":"b7d0d8a1-c5dd-4278-8b3b-f5786872fe32","system_id":"levelo_inurba_marseille","lat":43.320902,"lon":5.367784,"is_reserved":false,"is_disabled":false,"rental_uris":{"android":"levelo://app?vid=b7d0d8a1-c5dd-4278-8b3b-f5786872fe32","ios":"levelo://app?vid=b7d0d8a1-c5dd-4278-8b3b-f5786872fe32"},"vehicle_type_id":"4","last_reported":1751026826,"current_range_meters":10800,"station_id":"ce4bhrh2rcd13ifvqhug","pricing_plan_id":"cebpf4jnsgd1na2vs0mg"},{"bike_id":"ff97c997-50a4-4c1e-bba0-485e3e8bc75d","system_id":"levelo_inurba_marseille","lat":43.29978,"lon":5.37183,"is_reserved":false,"is_disabled":false,"rental_uris":{"android":"levelo://app?vid=ff97c997-50a4-4c1e-bba0-485e3e8bc75d","ios":"levelo://app?vid=ff97c997-50a4-4c1e-bba0-485e3e8bc75d"},"vehicle_type_id":"4","last_reported":1751026826,"current_range_meters":11200,"station_id":"ce4bgr92rcd13ifvqc7g","pricing_plan_id":"cebpf4jnsgd1na2vs0mg"},{"bike_id":"319c5708-2d11-4f58-8eca-ce353bd868dd","system_id":"levelo_inurba_marseille","lat":43.25002,"lon":5.38921,"is_reserved":false,"is_disabled":false,"rental_uris":{"android":"levelo://app?vid=319c5708-2d11-4f58-8eca-ce353bd868dd","ios":"levelo://app?vid=319c5708-2d11-4f58-8eca-ce353bd868dd"},"vehicle_type_id":"4","last_reported":1751026826,"current_range_meters":11200,"station_id":"ce4bhgp2rcd13ifvqfd0","pricing_plan_id":"cebpf4jnsgd1na2vs0mg"},{"bike_id":"977cc76a-fbac-496b-801a-a7258c87532a","system_id":"levelo_inurba_marseille","lat":43.26499,"lon":5.39534,"is_reserved":false,"is_disabled":false,"rental_uris":{"android":"levelo://app?vid=977cc76a-fbac-496b-801a-a7258c87532a","ios":"levelo://app?vid=977cc76a-fbac-496b-801a-a7258c87532a"},"vehicle_type_id":"4","last_reported":1751026826,"current_range_meters":11200,"station_id":"ce4bhi12rcd13ifvqfq0","pricing_plan_id":"cebpf4jnsgd1na2vs0mg"},{"bike_id":"8fb0134c-03f4-4dd2-9376-71ae6a95a378","system_id":"levelo_inurba_marseille","lat":43.27063,"lon":5.40251,"is_reserved":false,"is_disabled":false,"rental_uris":{"android":"levelo://app?vid=8fb0134c-03f4-4dd2-9376-71ae6a95a378","ios":"levelo://app?vid=8fb0134c-03f4-4dd2-9376-71ae6a95a378"},"vehicle_type_id":"4","last_reported":1751026826,"current_range_meters":11600,"station_id":"ce4bhk92rcd13ifvqgc0","pricing_plan_id":"cebpf4jnsgd1na2vs0mg"},{"bike_id":"1f57257b-fa02-4885-a067-d7258e241ab1","system_id":"levelo_inurba_marseille","lat":43.29976,"lon":5.37183,"is_reserved":false,"is_disabled":false,"rental_uris":{"android":"levelo://app?vid=1f57257b-fa02-4885-a067-d7258e241ab1","ios":"levelo://app?vid=1f57257b-fa02-4885-a067-d7258e241ab1"},"vehicle_type_id":"4","last_reported":1751026826,"current_range_meters":12000,"station_id":"ce4bgr92rcd13ifvqc7g","pricing_plan_id":"cebpf4jnsgd1na2vs0mg"},{"bike_id":"a73906b6-85b7-4e93-a763-ea5b0926372d","system_id":"levelo_inurba_marseille","lat":43.341368,"lon":5.408992,"is_reserved":false,"is_disabled":false,"rental_uris":{"android":"levelo://app?vid=a73906b6-85b7-4e93-a763-ea5b0926372d","ios":"levelo://app?vid=a73906b6-85b7-4e93-a763-ea5b0926372d"},"vehicle_type_id":"4","last_reported":1751026826,"current_range_meters":12000,"station_id":"ce4bhqh2rcd13ifvqhlg","pricing_plan_id":"cebpf4jnsgd1na2vs0mg"},{"bike_id":"a440f2f6-8cf8-4348-9ba1-e21002a18a07","system_id":"levelo_inurba_marseille","lat":43.32093,"lon":5.36809,"is_reserved":false,"is_disabled":false,"rental_uris":{"android":"levelo://app?vid=a440f2f6-8cf8-4348-9ba1-e21002a18a07","ios":"levelo://app?vid=a440f2f6-8cf8-4348-9ba1-e21002a18a07"},"vehicle_type_id":"4","last_reported":1751026826,"current_range_meters":12000,"station_id":"ce4bhrh2rcd13ifvqhug","pricing_plan_id":"cebpf4jnsgd1na2vs0mg"},{"bike_id":"d93518a7-acea-49d1-8b1d-66917831e25a","system_id":"levelo_inurba_marseille","lat":43.28366,"lon":5.39589,"is_reserved":false,"is_disabled":false,"rental_uris":{"android":"levelo://app?vid=d93518a7-acea-49d1-8b1d-66917831e25a","ios":"levelo://app?vid=d93518a7-acea-49d1-8b1d-66917831e25a"},"vehicle_type_id":"4","last_reported":1751026826,"current_range_meters":12400,"station_id":"","pricing_plan_id":"cebpf4jnsgd1na2vs0mg"},{"bike_id":"106f51a6-8d14-465d-b94f-be0112029c3d","system_id":"levelo_inurba_marseille","lat":43.305292,"lon":5.365335,"is_reserved":false,"is_disabled":false,"rental_uris":{"android":"levelo://app?vid=106f51a6-8d14-465d-b94f-be0112029c3d","ios":"levelo://app?vid=106f51a6-8d14-465d-b94f-be0112029c3d"},"vehicle_type_id":"4","last_reported":1751026826,"current_range_meters":12400,"station_id":"ce4bgs12rcd13ifvqcag","pricing_plan_id":"cebpf4jnsgd1na2vs0mg"},{"bike_id":"dbff0a2d-15ca-4d61-8134-cd37d810d54b","system_id":"levelo_inurba_marseille","lat":43.30957,"lon":5.39033,"is_reserved":false,"is_disabled":false,"rental_uris":{"android":"levelo://app?vid=dbff0a2d-15ca-4d61-8134-cd37d810d54b","ios":"levelo://app?vid=dbff0a2d-15ca-4d61-8134-cd37d810d54b"},"vehicle_type_id":"4","last_reported":1751026826,"current_range_meters":12400,"station_id":"ce4bgup2rcd13ifvqco0","pricing_plan_id":"cebpf4jnsgd1na2vs0mg"},{"bike_id":"45a21c55-35fe-4b5e-b573-f8b131f0c7ea","system_id":"levelo_inurba_marseille","lat":43.30956,"lon":5.39037,"is_reserved":false,"is_disabled":false,"rental_uris":{"android":"levelo://app?vid=45a21c55-35fe-4b5e-b573-f8b131f0c7ea","ios":"levelo://app?vid=45a21c55-35fe-4b5e-b573-f8b131f0c7ea"},"vehicle_type_id":"4","last_reported":1751026826,"current_range_meters":12400,"station_id":"ce4bgup2rcd13ifvqco0","pricing_plan_id":"cebpf4jnsgd1na2vs0mg"},{"bike_id":"0393d43e-e4ff-4a41-b3cb-97a56261aeef","system_id":"levelo_inurba_marseille","lat":43.30605,"lon":5.39367,"is_reserved":false,"is_disabled":false,"rental_uris":{"android":"levelo://app?vid=0393d43e-e4ff-4a41-b3cb-97a56261aeef","ios":"levelo://app?vid=0393d43e-e4ff-4a41-b3cb-97a56261aeef"},"vehicle_type_id":"4","last_reported":1751026826,"current_range_meters":12400,"station_id":"ce4bh0p2rcd13ifvqd80","pricing_plan_id":"cebpf4jnsgd1na2vs0mg"},{"bike_id":"da3cec43-a4f7-4ba0-8b27-bc79deaefb2d","system_id":"levelo_inurba_marseille","lat":43.29007,"lon":5.35611,"is_reserved":false,"is_disabled":false,"rental_uris":{"android":"levelo://app?vid=da3cec43-a4f7-4ba0-8b27-bc79deaefb2d","ios":"levelo://app?vid=da3cec43-a4f7-4ba0-8b27-bc79deaefb2d"},"vehicle_type_id":"4","last_reported":1751026826,"current_range_meters":12400,"station_id":"ce4bhb92rcd13ifvqen0","pricing_plan_id":"cebpf4jnsgd1na2vs0mg"},{"bike_id":"b8954a9f-7ce8-456c-a0b7-ca33c9473361","system_id":"levelo_inurba_marseille","lat":43.319948,"lon":5.381445,"is_reserved":false,"is_disabled":false,"rental_uris":{"android":"levelo://app?vid=b8954a9f-7ce8-456c-a0b7-ca33c9473361","ios":"levelo://app?vid=b8954a9f-7ce8-456c-a0b7-ca33c9473361"},"vehicle_type_id":"4","last_reported":1751026826,"current_range_meters":12400,"station_id":"ce4bhr12rcd13ifvqhpg","pricing_plan_id":"cebpf4jnsgd1na2vs0mg"},{"bike_id":"1c8ab180-05fd-405f-9922-b2b2c2d5142f","system_id":"levelo_inurba_marseille","lat":43.32095,"lon":5.36783,"is_reserved":false,"is_disabled":false,"rental_uris":{"android":"levelo://app?vid=1c8ab180-05fd-405f-9922-b2b2c2d5142f","ios":"levelo://app?vid=1c8ab180-05fd-405f-9922-b2b2c2d5142f"},"vehicle_type_id":"4","last_reported":1751026826,"current_range_meters":12400,"station_id":"ce4bhrh2rcd13ifvqhug","pricing_plan_id":"cebpf4jnsgd1na2vs0mg"},{"bike_id":"3f2e5038-cd5f-466d-9578-2783163f088e","system_id":"levelo_inurba_marseille","lat":43.32087,"lon":5.36794,"is_reserved":false,"is_disabled":false,"rental_uris":{"android":"levelo://app?vid=3f2e5038-cd5f-466d-9578-2783163f088e","ios":"levelo://app?vid=3f2e5038-cd5f-466d-9578-2783163f088e"},"vehicle_type_id":"4","last_reported":1751026826,"current_range_meters":12400,"station_id":"ce4bhrh2rcd13ifvqhug","pricing_plan_id":"cebpf4jnsgd1na2vs0mg"},{"bike_id":"8cc635f4-9d20-4987-8628-a4926e36fbf3","system_id":"levelo_inurba_marseille","lat":43.30473,"lon":5.37929,"is_reserved":false,"is_disabled":false,"rental_uris":{"android":"levelo://app?vid=8cc635f4-9d20-4987-8628-a4926e36fbf3","ios":"levelo://app?vid=8cc635f4-9d20-4987-8628-a4926e36fbf3"},"vehicle_type_id":"4","last_reported":1751026826,"current_range_meters":12800,"station_id":"","pricing_plan_id":"cebpf4jnsgd1na2vs0mg"},{"bike_id":"1643776b-773e-467d-b078-65ac39facdb4","system_id":"levelo_inurba_marseille","lat":43.27388,"lon":5.36259,"is_reserved":false,"is_disabled":false,"rental_uris":{"android":"levelo://app?vid=1643776b-773e-467d-b078-65ac39facdb4","ios":"levelo://app?vid=1643776b-773e-467d-b078-65ac39facdb4"},"vehicle_type_id":"4","last_reported":1751026826,"current_range_meters":12800,"station_id":"ce4bhbh2rcd13ifvqeo0","pricing_plan_id":"cebpf4jnsgd1na2vs0mg"},{"bike_id":"df9d330a-cbd4-4597-b999-ed135ac2cc4e","system_id":"levelo_inurba_marseille","lat":43.28617,"lon":5.35099,"is_reserved":false,"is_disabled":false,"rental_uris":{"android":"levelo://app?vid=df9d330a-cbd4-4597-b999-ed135ac2cc4e","ios":"levelo://app?vid=df9d330a-cbd4-4597-b999-ed135ac2cc4e"},"vehicle_type_id":"4","last_reported":1751026826,"current_range_meters":12800,"station_id":"ce4bhch2rcd13ifvqeug","pricing_plan_id":"cebpf4jnsgd1na2vs0mg"},{"bike_id":"7c4d4cf3-7771-479f-b9eb-fc23d5882019","system_id":"levelo_inurba_marseille","lat":43.303446,"lon":5.418886,"is_reserved":false,"is_disabled":false,"rental_uris":{"android":"levelo://app?vid=7c4d4cf3-7771-479f-b9eb-fc23d5882019","ios":"levelo://app?vid=7c4d4cf3-7771-479f-b9eb-fc23d5882019"},"vehicle_type_id":"4","last_reported":1751026826,"current_range_meters":12800,"station_id":"ce4bhop2rcd13ifvqh7g","pricing_plan_id":"cebpf4jnsgd1na2vs0mg"},{"bike_id":"918f9b2d-c2db-45f1-990c-b4fff80783d6","system_id":"levelo_inurba_marseille","lat":43.28204,"lon":5.36294,"is_reserved":false,"is_disabled":false,"rental_uris":{"android":"levelo://app?vid=918f9b2d-c2db-45f1-990c-b4fff80783d6","ios":"levelo://app?vid=918f9b2d-c2db-45f1-990c-b4fff80783d6"},"vehicle_type_id":"4","last_reported":1751026826,"current_range_meters":13600,"station_id":"","pricing_plan_id":"cebpf4jnsgd1na2vs0mg"},{"bike_id":"42965af1-5f1e-4ddc-919f-443a0deda30d","system_id":"levelo_inurba_marseille","lat":43.29714,"lon":5.36611,"is_reserved":false,"is_disabled":false,"rental_uris":{"android":"levelo://app?vid=42965af1-5f1e-4ddc-919f-443a0deda30d","ios":"levelo://app?vid=42965af1-5f1e-4ddc-919f-443a0deda30d"},"vehicle_type_id":"4","last_reported":1751026826,"current_range_meters":13600,"station_id":"ce4bgn12rcd13ifvqbt0","pricing_plan_id":"cebpf4jnsgd1na2vs0mg"},{"bike_id":"64922d42-fdb5-4501-9d86-270ac003823f","system_id":"levelo_inurba_marseille","lat":43.30557,"lon":5.365521,"is_reserved":false,"is_disabled":false,"rental_uris":{"android":"levelo://app?vid=64922d42-fdb5-4501-9d86-270ac003823f","ios":"levelo://app?vid=64922d42-fdb5-4501-9d86-270ac003823f"},"vehicle_type_id":"4","last_reported":1751026826,"current_range_meters":13600,"station_id":"ce4bgs12rcd13ifvqcag","pricing_plan_id":"cebpf4jnsgd1na2vs0mg"},{"bike_id":"41ba8ee4-1c1d-4513-978e-5702602b273f","system_id":"levelo_inurba_marseille","lat":43.27383,"lon":5.36261,"is_reserved":false,"is_disabled":false,"rental_uris":{"android":"levelo://app?vid=41ba8ee4-1c1d-4513-978e-5702602b273f","ios":"levelo://app?vid=41ba8ee4-1c1d-4513-978e-5702602b273f"},"vehicle_type_id":"4","last_reported":1751026826,"current_range_meters":13600,"station_id":"ce4bhbh2rcd13ifvqeo0","pricing_plan_id":"cebpf4jnsgd1na2vs0mg"},{"bike_id":"104d9a39-d4fe-4577-bd3e-dfa2a6c208e7","system_id":"levelo_inurba_marseille","lat":43.27201,"lon":5.41065,"is_reserved":false,"is_disabled":false,"rental_uris":{"android":"levelo://app?vid=104d9a39-d4fe-4577-bd3e-dfa2a6c208e7","ios":"levelo://app?vid=104d9a39-d4fe-4577-bd3e-dfa2a6c208e7"},"vehicle_type_id":"4","last_reported":1751026826,"current_range_meters":13600,"station_id":"ce4bhl12rcd13ifvqgf0","pricing_plan_id":"cebpf4jnsgd1na2vs0mg"},{"bike_id":"e7c86b76-fec6-4d82-9589-044e8efa048a","system_id":"levelo_inurba_marseille","lat":43.32293,"lon":5.38255,"is_reserved":false,"is_disabled":false,"rental_uris":{"android":"levelo://app?vid=e7c86b76-fec6-4d82-9589-044e8efa048a","ios":"levelo://app?vid=e7c86b76-fec6-4d82-9589-044e8efa048a"},"vehicle_type_id":"4","last_reported":1751026826,"current_range_meters":13600,"station_id":"ce4bhr12rcd13ifvqhqg","pricing_plan_id":"cebpf4jnsgd1na2vs0mg"},{"bike_id":"8ecfabf6-c043-414f-abb3-bf6144dd51a8","system_id":"levelo_inurba_marseille","lat":43.29249,"lon":5.36594,"is_reserved":false,"is_disabled":false,"rental_uris":{"android":"levelo://app?vid=8ecfabf6-c043-414f-abb3-bf6144dd51a8","ios":"levelo://app?vid=8ecfabf6-c043-414f-abb3-bf6144dd51a8"},"vehicle_type_id":"4","last_reported":1751026826,"current_range_meters":14000,"station_id":"","pricing_plan_id":"cebpf4jnsgd1na2vs0mg"},{"bike_id":"5a01ae6d-9064-484c-8d77-2d9e141e2313","system_id":"levelo_inurba_marseille","lat":43.24484,"lon":5.38999,"is_reserved":false,"is_disabled":false,"rental_uris":{"android":"levelo://app?vid=5a01ae6d-9064-484c-8d77-2d9e141e2313","ios":"levelo://app?vid=5a01ae6d-9064-484c-8d77-2d9e141e2313"},"vehicle_type_id":"4","last_reported":1751026826,"current_range_meters":14000,"station_id":"","pricing_plan_id":"cebpf4jnsgd1na2vs0mg"},{"bike_id":"e5ae1fdd-ad1c-4e69-ac70-f715e6402e6b","system_id":"levelo_inurba_marseille","lat":43.277306,"lon":5.398718,"is_reserved":false,"is_disabled":false,"rental_uris":{"android":"levelo://app?vid=e5ae1fdd-ad1c-4e69-ac70-f715e6402e6b","ios":"levelo://app?vid=e5ae1fdd-ad1c-4e69-ac70-f715e6402e6b"},"vehicle_type_id":"4","last_reported":1751026826,"current_range_meters":14400,"station_id":"","pricing_plan_id":"cebpf4jnsgd1na2vs0mg"},{"bike_id":"e0a68072-0227-4636-b9b6-672b7d8ae02f","system_id":"levelo_inurba_marseille","lat":43.3123,"lon":5.36859,"is_reserved":false,"is_disabled":false,"rental_uris":{"android":"levelo://app?vid=e0a68072-0227-4636-b9b6-672b7d8ae02f","ios":"levelo://app?vid=e0a68072-0227-4636-b9b6-672b7d8ae02f"},"vehicle_type_id":"4","last_reported":1751026826,"current_range_meters":14400,"station_id":"ce4bgl92rcd13ifvqbq0","pricing_plan_id":"cebpf4jnsgd1na2vs0mg"},{"bike_id":"b2266362-b15a-41cf-8ae9-a3e230564c1e","system_id":"levelo_inurba_marseille","lat":43.3055,"lon":5.36739,"is_reserved":false,"is_disabled":false,"rental_uris":{"android":"levelo://app?vid=b2266362-b15a-41cf-8ae9-a3e230564c1e","ios":"levelo://app?vid=b2266362-b15a-41cf-8ae9-a3e230564c1e"},"vehicle_type_id":"4","last_reported":1751026826,"current_range_meters":14400,"station_id":"ce4bgrp2rcd13ifvqc9g","pricing_plan_id":"cebpf4jnsgd1na2vs0mg"},{"bike_id":"d2146768-df0d-4ea1-8c1e-6d4e02c0f18e","system_id":"levelo_inurba_marseille","lat":43.27377,"lon":5.36264,"is_reserved":false,"is_disabled":false,"rental_uris":{"android":"levelo://app?vid=d2146768-df0d-4ea1-8c1e-6d4e02c0f18e","ios":"levelo://app?vid=d2146768-df0d-4ea1-8c1e-6d4e02c0f18e"},"vehicle_type_id":"4","last_reported":1751026826,"current_range_meters":14400,"station_id":"ce4bhbh2rcd13ifvqeo0","pricing_plan_id":"cebpf4jnsgd1na2vs0mg"},{"bike_id":"293052b2-3b0b-497e-aea4-d84d45f461fc","system_id":"levelo_inurba_marseille","lat":43.28424,"lon":5.34974,"is_reserved":false,"is_disabled":false,"rental_uris":{"android":"levelo://app?vid=293052b2-3b0b-497e-aea4-d84d45f461fc","ios":"levelo://app?vid=293052b2-3b0b-497e-aea4-d84d45f461fc"},"vehicle_type_id":"4","last_reported":1751026826,"current_range_meters":14400,"station_id":"ce4bhbh2rcd13ifvqepg","pricing_plan_id":"cebpf4jnsgd1na2vs0mg"},{"bike_id":"cefc4803-4bc8-49e1-b0ee-01e83e6bf58d","system_id":"levelo_inurba_marseille","lat":43.305343,"lon":5.3843,"is_reserved":false,"is_disabled":false,"rental_uris":{"android":"levelo://app?vid=cefc4803-4bc8-49e1-b0ee-01e83e6bf58d","ios":"levelo://app?vid=cefc4803-4bc8-49e1-b0ee-01e83e6bf58d"},"vehicle_type_id":"4","last_reported":1751026826,"current_range_meters":14800,"station_id":"ce4bgg92rcd13ifvqb30","pricing_plan_id":"cebpf4jnsgd1na2vs0mg"},{"bike_id":"4580801f-f83f-4c8d-9e59-f24c54689b7e","system_id":"levelo_inurba_marseille","lat":43.29782,"lon":5.370987,"is_reserved":false,"is_disabled":false,"rental_uris":{"android":"levelo://app?vid=4580801f-f83f-4c8d-9e59-f24c54689b7e","ios":"levelo://app?vid=4580801f-f83f-4c8d-9e59-f24c54689b7e"},"vehicle_type_id":"4","last_reported":1751026826,"current_range_meters":14800,"station_id":"ce4bgop2rcd13ifvqc1g","pricing_plan_id":"cebpf4jnsgd1na2vs0mg"},{"bike_id":"d2b6899a-4fd7-456e-a51f-91f254d564fe","system_id":"levelo_inurba_marseille","lat":43.301907,"lon":5.366108,"is_reserved":false,"is_disabled":false,"rental_uris":{"android":"levelo://app?vid=d2b6899a-4fd7-456e-a51f-91f254d564fe","ios":"levelo://app?vid=d2b6899a-4fd7-456e-a51f-91f254d564fe"},"vehicle_type_id":"4","last_reported":1751026826,"current_range_meters":14800,"station_id":"ce4bgrh2rcd13ifvqc8g","pricing_plan_id":"cebpf4jnsgd1na2vs0mg"},{"bike_id":"5d4164c2-df8c-4cfb-a850-2f8f984d4e42","system_id":"levelo_inurba_marseille","lat":43.314858,"lon":5.37299,"is_reserved":false,"is_disabled":false,"rental_uris":{"android":"levelo://app?vid=5d4164c2-df8c-4cfb-a850-2f8f984d4e42","ios":"levelo://app?vid=5d4164c2-df8c-4cfb-a850-2f8f984d4e42"},"vehicle_type_id":"4","last_reported":1751026826,"current_range_meters":14800,"station_id":"ce4bgt12rcd13ifvqcd0","pricing_plan_id":"cebpf4jnsgd1na2vs0mg"},{"bike_id":"d121aa6f-9adf-4b98-b0a9-5ee14759d27f","system_id":"levelo_inurba_marseille","lat":43.286167,"lon":5.350963,"is_reserved":false,"is_disabled":false,"rental_uris":{"android":"levelo://app?vid=d121aa6f-9adf-4b98-b0a9-5ee14759d27f","ios":"levelo://app?vid=d121aa6f-9adf-4b98-b0a9-5ee14759d27f"},"vehicle_type_id":"4","last_reported":1751026826,"current_range_meters":14800,"station_id":"ce4bhch2rcd13ifvqeug","pricing_plan_id":"cebpf4jnsgd1na2vs0mg"},{"bike_id":"923db655-3782-488a-9734-2f4c58243389","system_id":"levelo_inurba_marseille","lat":43.27942,"lon":5.4105,"is_reserved":false,"is_disabled":false,"rental_uris":{"android":"levelo://app?vid=923db655-3782-488a-9734-2f4c58243389","ios":"levelo://app?vid=923db655-3782-488a-9734-2f4c58243389"},"vehicle_type_id":"4","last_reported":1751026826,"current_range_meters":14800,"station_id":"ce4bhnp2rcd13ifvqh0g","pricing_plan_id":"cebpf4jnsgd1na2vs0mg"},{"bike_id":"46fc1da8-b21e-49ec-9f51-bd3892d403d9","system_id":"levelo_inurba_marseille","lat":43.24154,"lon":5.36433,"is_reserved":false,"is_disabled":false,"rental_uris":{"android":"levelo://app?vid=46fc1da8-b21e-49ec-9f51-bd3892d403d9","ios":"levelo://app?vid=46fc1da8-b21e-49ec-9f51-bd3892d403d9"},"vehicle_type_id":"4","last_reported":1751026826,"current_range_meters":14800,"station_id":"cpo36qri1sfpv3e86is0","pricing_plan_id":"cebpf4jnsgd1na2vs0mg"},{"bike_id":"bb69c1e1-7084-4be7-966a-57a7bcdfcb6c","system_id":"levelo_inurba_marseille","lat":43.246203,"lon":5.416115,"is_reserved":false,"is_disabled":false,"rental_uris":{"android":"levelo://app?vid=bb69c1e1-7084-4be7-966a-57a7bcdfcb6c","ios":"levelo://app?vid=bb69c1e1-7084-4be7-966a-57a7bcdfcb6c"},"vehicle_type_id":"4","last_reported":1751026826,"current_range_meters":15200,"station_id":"","pricing_plan_id":"cebpf4jnsgd1na2vs0mg"},{"bike_id":"146d2391-8612-40ba-894e-d5c94a92ac11","system_id":"levelo_inurba_marseille","lat":43.30799,"lon":5.43522,"is_reserved":false,"is_disabled":false,"rental_uris":{"android":"levelo://app?vid=146d2391-8612-40ba-894e-d5c94a92ac11","ios":"levelo://app?vid=146d2391-8612-40ba-894e-d5c94a92ac11"},"vehicle_type_id":"4","last_reported":1751026826,"current_range_meters":15200,"station_id":"ce4bhph2rcd13ifvqheg","pricing_plan_id":"cebpf4jnsgd1na2vs0mg"},{"bike_id":"071b13cb-6188-410a-9240-e5fb9a8a36af","system_id":"levelo_inurba_marseille","lat":43.27544,"lon":5.36039,"is_reserved":false,"is_disabled":false,"rental_uris":{"android":"levelo://app?vid=071b13cb-6188-410a-9240-e5fb9a8a36af","ios":"levelo://app?vid=071b13cb-6188-410a-9240-e5fb9a8a36af"},"vehicle_type_id":"4","last_reported":1751026826,"current_range_meters":16000,"station_id":"","pricing_plan_id":"cebpf4jnsgd1na2vs0mg"},{"bike_id":"33fd0fe9-99c2-4f72-bdef-90e03213ec50","system_id":"levelo_inurba_marseille","lat":43.21191,"lon":5.35076,"is_reserved":false,"is_disabled":false,"rental_uris":{"android":"levelo://app?vid=33fd0fe9-99c2-4f72-bdef-90e03213ec50","ios":"levelo://app?vid=33fd0fe9-99c2-4f72-bdef-90e03213ec50"},"vehicle_type_id":"4","last_reported":1751026826,"current_range_meters":16000,"station_id":"","pricing_plan_id":"cebpf4jnsgd1na2vs0mg"},{"bike_id":"ad31fae6-4da4-4b6b-8844-651d9203a873","system_id":"levelo_inurba_marseille","lat":43.29936,"lon":5.36544,"is_reserved":false,"is_disabled":false,"rental_uris":{"android":"levelo://app?vid=ad31fae6-4da4-4b6b-8844-651d9203a873","ios":"levelo://app?vid=ad31fae6-4da4-4b6b-8844-651d9203a873"},"vehicle_type_id":"4","last_reported":1751026826,"current_range_meters":16000,"station_id":"ce4bgm92rcd13ifvqbr0","pricing_plan_id":"cebpf4jnsgd1na2vs0mg"},{"bike_id":"7a43e46a-c47a-41ae-a2bf-b61186c01a3f","system_id":"levelo_inurba_marseille","lat":43.3049,"lon":5.37925,"is_reserved":false,"is_disabled":false,"rental_uris":{"android":"levelo://app?vid=7a43e46a-c47a-41ae-a2bf-b61186c01a3f","ios":"levelo://app?vid=7a43e46a-c47a-41ae-a2bf-b61186c01a3f"},"vehicle_type_id":"4","last_reported":1751026826,"current_range_meters":16000,"station_id":"ce4bgup2rcd13ifvqcn0","pricing_plan_id":"cebpf4jnsgd1na2vs0mg"},{"bike_id":"e6ce70f7-9138-485c-a4db-2c9174614cff","system_id":"levelo_inurba_marseille","lat":43.317741,"lon":5.368724,"is_reserved":false,"is_disabled":false,"rental_uris":{"android":"levelo://app?vid=e6ce70f7-9138-485c-a4db-2c9174614cff","ios":"levelo://app?vid=e6ce70f7-9138-485c-a4db-2c9174614cff"},"vehicle_type_id":"4","last_reported":1751026826,"current_range_meters":16400,"station_id":"","pricing_plan_id":"cebpf4jnsgd1na2vs0mg"},{"bike_id":"dc3ddb9f-f54a-4448-9b81-5b4e9e7288a6","system_id":"levelo_inurba_marseille","lat":43.295307,"lon":5.385423,"is_reserved":false,"is_disabled":false,"rental_uris":{"android":"levelo://app?vid=dc3ddb9f-f54a-4448-9b81-5b4e9e7288a6","ios":"levelo://app?vid=dc3ddb9f-f54a-4448-9b81-5b4e9e7288a6"},"vehicle_type_id":"4","last_reported":1751026826,"current_range_meters":16400,"station_id":"ce4bgih2rcd13ifvqba0","pricing_plan_id":"cebpf4jnsgd1na2vs0mg"},{"bike_id":"bf649877-60fb-4035-aa02-f13779874670","system_id":"levelo_inurba_marseille","lat":43.29906,"lon":5.37471,"is_reserved":false,"is_disabled":false,"rental_uris":{"android":"levelo://app?vid=bf649877-60fb-4035-aa02-f13779874670","ios":"levelo://app?vid=bf649877-60fb-4035-aa02-f13779874670"},"vehicle_type_id":"4","last_reported":1751026826,"current_range_meters":16400,"station_id":"ce4bgjh2rcd13ifvqbg0","pricing_plan_id":"cebpf4jnsgd1na2vs0mg"},{"bike_id":"7be9d13f-e351-4088-8de1-c3e988843820","system_id":"levelo_inurba_marseille","lat":43.25942,"lon":5.40899,"is_reserved":false,"is_disabled":false,"rental_uris":{"android":"levelo://app?vid=7be9d13f-e351-4088-8de1-c3e988843820","ios":"levelo://app?vid=7be9d13f-e351-4088-8de1-c3e988843820"},"vehicle_type_id":"4","last_reported":1751026826,"current_range_meters":16400,"station_id":"ce4bhm92rcd13ifvqglg","pricing_plan_id":"cebpf4jnsgd1na2vs0mg"},{"bike_id":"57d6eb9e-33e5-482e-9465-914c364d7397","system_id":"levelo_inurba_marseille","lat":43.32286,"lon":5.38293,"is_reserved":false,"is_disabled":false,"rental_uris":{"android":"levelo://app?vid=57d6eb9e-33e5-482e-9465-914c364d7397","ios":"levelo://app?vid=57d6eb9e-33e5-482e-9465-914c364d7397"},"vehicle_type_id":"4","last_reported":1751026826,"current_range_meters":16400,"station_id":"ce4bhr12rcd13ifvqhqg","pricing_plan_id":"cebpf4jnsgd1na2vs0mg"},{"bike_id":"bbc4a376-bee7-4ad5-a49a-1022d27c1489","system_id":"levelo_inurba_marseille","lat":43.32071,"lon":5.36862,"is_reserved":false,"is_disabled":false,"rental_uris":{"android":"levelo://app?vid=bbc4a376-bee7-4ad5-a49a-1022d27c1489","ios":"levelo://app?vid=bbc4a376-bee7-4ad5-a49a-1022d27c1489"},"vehicle_type_id":"4","last_reported":1751026826,"current_range_meters":16400,"station_id":"ce4bhrh2rcd13ifvqhug","pricing_plan_id":"cebpf4jnsgd1na2vs0mg"},{"bike_id":"7dfc5216-abd2-4eb0-aa98-27c7a95c769d","system_id":"levelo_inurba_marseille","lat":43.22937,"lon":5.35378,"is_reserved":false,"is_disabled":false,"rental_uris":{"android":"levelo://app?vid=7dfc5216-abd2-4eb0-aa98-27c7a95c769d","ios":"levelo://app?vid=7dfc5216-abd2-4eb0-aa98-27c7a95c769d"},"vehicle_type_id":"4","last_reported":1751026826,"current_range_meters":16400,"station_id":"cpo3532slgdg3j2ikp40","pricing_plan_id":"cebpf4jnsgd1na2vs0mg"},{"bike_id":"834ea9c2-9ad0-4ddb-bd7d-21774b9745cd","system_id":"levelo_inurba_marseille","lat":43.22498,"lon":5.34785,"is_reserved":false,"is_disabled":false,"rental_uris":{"android":"levelo://app?vid=834ea9c2-9ad0-4ddb-bd7d-21774b9745cd","ios":"levelo://app?vid=834ea9c2-9ad0-4ddb-bd7d-21774b9745cd"},"vehicle_type_id":"4","last_reported":1751026826,"current_range_meters":16400,"station_id":"st_cvj5dfep6f1abm77gieg","pricing_plan_id":"cebpf4jnsgd1na2vs0mg"},{"bike_id":"f0057ca2-de2d-4464-8902-068dc3677e00","system_id":"levelo_inurba_marseille","lat":43.21193,"lon":5.35079,"is_reserved":false,"is_disabled":false,"rental_uris":{"android":"levelo://app?vid=f0057ca2-de2d-4464-8902-068dc3677e00","ios":"levelo://app?vid=f0057ca2-de2d-4464-8902-068dc3677e00"},"vehicle_type_id":"4","last_reported":1751026826,"current_range_meters":16400,"station_id":"st_cvj6sg6p6f1abm77japg","pricing_plan_id":"cebpf4jnsgd1na2vs0mg"},{"bike_id":"bad20152-5d0c-479b-8656-e3b2e99e76b6","system_id":"levelo_inurba_marseille","lat":43.30549,"lon":5.3654,"is_reserved":false,"is_disabled":false,"rental_uris":{"android":"levelo://app?vid=bad20152-5d0c-479b-8656-e3b2e99e76b6","ios":"levelo://app?vid=bad20152-5d0c-479b-8656-e3b2e99e76b6"},"vehicle_type_id":"4","last_reported":1751026826,"current_range_meters":16800,"station_id":"ce4bgs12rcd13ifvqcag","pricing_plan_id":"cebpf4jnsgd1na2vs0mg"},{"bike_id":"130fd3b1-7e84-47c4-97a9-9edd92f6cd4b","system_id":"levelo_inurba_marseille","lat":43.30467,"lon":5.37899,"is_reserved":false,"is_disabled":false,"rental_uris":{"android":"levelo://app?vid=130fd3b1-7e84-47c4-97a9-9edd92f6cd4b","ios":"levelo://app?vid=130fd3b1-7e84-47c4-97a9-9edd92f6cd4b"},"vehicle_type_id":"4","last_reported":1751026826,"current_range_meters":16800,"station_id":"ce4bgup2rcd13ifvqcn0","pricing_plan_id":"cebpf4jnsgd1na2vs0mg"},{"bike_id":"78f70454-16cc-41ae-937d-e6e4a0cb0ab5","system_id":"levelo_inurba_marseille","lat":43.28361,"lon":5.38106,"is_reserved":false,"is_disabled":false,"rental_uris":{"android":"levelo://app?vid=78f70454-16cc-41ae-937d-e6e4a0cb0ab5","ios":"levelo://app?vid=78f70454-16cc-41ae-937d-e6e4a0cb0ab5"},"vehicle_type_id":"4","last_reported":1751026826,"current_range_meters":16800,"station_id":"ce4bh412rcd13ifvqdr0","pricing_plan_id":"cebpf4jnsgd1na2vs0mg"},{"bike_id":"9fc78494-d523-4743-bdb8-8cac6ec9812e","system_id":"levelo_inurba_marseille","lat":43.28429,"lon":5.35005,"is_reserved":false,"is_disabled":false,"rental_uris":{"android":"levelo://app?vid=9fc78494-d523-4743-bdb8-8cac6ec9812e","ios":"levelo://app?vid=9fc78494-d523-4743-bdb8-8cac6ec9812e"},"vehicle_type_id":"4","last_reported":1751026826,"current_range_meters":16800,"station_id":"ce4bhbh2rcd13ifvqepg","pricing_plan_id":"cebpf4jnsgd1na2vs0mg"},{"bike_id":"0fa90822-5f38-4204-9e93-3250645d491e","system_id":"levelo_inurba_marseille","lat":43.26503,"lon":5.39545,"is_reserved":false,"is_disabled":false,"rental_uris":{"android":"levelo://app?vid=0fa90822-5f38-4204-9e93-3250645d491e","ios":"levelo://app?vid=0fa90822-5f38-4204-9e93-3250645d491e"},"vehicle_type_id":"4","last_reported":1751026826,"current_range_meters":16800,"station_id":"ce4bhi12rcd13ifvqfq0","pricing_plan_id":"cebpf4jnsgd1na2vs0mg"},{"bike_id":"935c8062-ae25-46e0-901d-4b81929b99b7","system_id":"levelo_inurba_marseille","lat":43.21746,"lon":5.34585,"is_reserved":false,"is_disabled":false,"rental_uris":{"android":"levelo://app?vid=935c8062-ae25-46e0-901d-4b81929b99b7","ios":"levelo://app?vid=935c8062-ae25-46e0-901d-4b81929b99b7"},"vehicle_type_id":"4","last_reported":1751026826,"current_range_meters":16800,"station_id":"st_cvj6r9ubvosntc0bgbag","pricing_plan_id":"cebpf4jnsgd1na2vs0mg"},{"bike_id":"e3aa9769-07bd-40fc-b1ee-9cc66211ab32","system_id":"levelo_inurba_marseille","lat":43.337662,"lon":5.374369,"is_reserved":false,"is_disabled":false,"rental_uris":{"android":"levelo://app?vid=e3aa9769-07bd-40fc-b1ee-9cc66211ab32","ios":"levelo://app?vid=e3aa9769-07bd-40fc-b1ee-9cc66211ab32"},"vehicle_type_id":"4","last_reported":1751026826,"current_range_meters":17200,"station_id":"","pricing_plan_id":"cebpf4jnsgd1na2vs0mg"},{"bike_id":"815201a7-dbbe-4827-ab77-bd49f80ea5ee","system_id":"levelo_inurba_marseille","lat":43.29766,"lon":5.45998,"is_reserved":false,"is_disabled":false,"rental_uris":{"android":"levelo://app?vid=815201a7-dbbe-4827-ab77-bd49f80ea5ee","ios":"levelo://app?vid=815201a7-dbbe-4827-ab77-bd49f80ea5ee"},"vehicle_type_id":"4","last_reported":1751026826,"current_range_meters":17200,"station_id":"","pricing_plan_id":"cebpf4jnsgd1na2vs0mg"},{"bike_id":"1b39abf9-3a3f-4d80-915b-22905554f4a6","system_id":"levelo_inurba_marseille","lat":43.30127,"lon":5.36458,"is_reserved":false,"is_disabled":false,"rental_uris":{"android":"levelo://app?vid=1b39abf9-3a3f-4d80-915b-22905554f4a6","ios":"levelo://app?vid=1b39abf9-3a3f-4d80-915b-22905554f4a6"},"vehicle_type_id":"4","last_reported":1751026826,"current_range_meters":17200,"station_id":"","pricing_plan_id":"cebpf4jnsgd1na2vs0mg"},{"bike_id":"48b79ef4-3496-4797-b5ec-9e0f5fccf302","system_id":"levelo_inurba_marseille","lat":43.29282,"lon":5.37636,"is_reserved":false,"is_disabled":false,"rental_uris":{"android":"levelo://app?vid=48b79ef4-3496-4797-b5ec-9e0f5fccf302","ios":"levelo://app?vid=48b79ef4-3496-4797-b5ec-9e0f5fccf302"},"vehicle_type_id":"4","last_reported":1751026826,"current_range_meters":17200,"station_id":"ce4bgi12rcd13ifvqb80","pricing_plan_id":"cebpf4jnsgd1na2vs0mg"},{"bike_id":"1af7fe64-8296-4db2-8129-994f21406321","system_id":"levelo_inurba_marseille","lat":43.30301,"lon":5.39221,"is_reserved":false,"is_disabled":false,"rental_uris":{"android":"levelo://app?vid=1af7fe64-8296-4db2-8129-994f21406321","ios":"levelo://app?vid=1af7fe64-8296-4db2-8129-994f21406321"},"vehicle_type_id":"4","last_reported":1751026826,"current_range_meters":17200,"station_id":"ce4bgkh2rcd13ifvqbk0","pricing_plan_id":"cebpf4jnsgd1na2vs0mg"},{"bike_id":"70613386-ba62-4bea-93d5-1a2aba01b0ec","system_id":"levelo_inurba_marseille","lat":43.28549,"lon":5.37487,"is_reserved":false,"is_disabled":false,"rental_uris":{"android":"levelo://app?vid=70613386-ba62-4bea-93d5-1a2aba01b0ec","ios":"levelo://app?vid=70613386-ba62-4bea-93d5-1a2aba01b0ec"},"vehicle_type_id":"4","last_reported":1751026826,"current_range_meters":17200,"station_id":"ce4bh412rcd13ifvqds0","pricing_plan_id":"cebpf4jnsgd1na2vs0mg"},{"bike_id":"d82aef51-8b3a-4e7b-825a-977130d7411d","system_id":"levelo_inurba_marseille","lat":43.27373,"lon":5.36263,"is_reserved":false,"is_disabled":false,"rental_uris":{"android":"levelo://app?vid=d82aef51-8b3a-4e7b-825a-977130d7411d","ios":"levelo://app?vid=d82aef51-8b3a-4e7b-825a-977130d7411d"},"vehicle_type_id":"4","last_reported":1751026826,"current_range_meters":17200,"station_id":"ce4bhbh2rcd13ifvqeo0","pricing_plan_id":"cebpf4jnsgd1na2vs0mg"},{"bike_id":"e355721e-8779-48b3-a756-656678ad5790","system_id":"levelo_inurba_marseille","lat":43.27378,"lon":5.36257,"is_reserved":false,"is_disabled":false,"rental_uris":{"android":"levelo://app?vid=e355721e-8779-48b3-a756-656678ad5790","ios":"levelo://app?vid=e355721e-8779-48b3-a756-656678ad5790"},"vehicle_type_id":"4","last_reported":1751026826,"current_range_meters":17200,"station_id":"ce4bhbh2rcd13ifvqeo0","pricing_plan_id":"cebpf4jnsgd1na2vs0mg"},{"bike_id":"b5302c5e-1626-414b-8b40-6d72d7569a78","system_id":"levelo_inurba_marseille","lat":43.255,"lon":5.37647,"is_reserved":false,"is_disabled":false,"rental_uris":{"android":"levelo://app?vid=b5302c5e-1626-414b-8b40-6d72d7569a78","ios":"levelo://app?vid=b5302c5e-1626-414b-8b40-6d72d7569a78"},"vehicle_type_id":"4","last_reported":1751026826,"current_range_meters":17200,"station_id":"ce4bhh12rcd13ifvqff0","pricing_plan_id":"cebpf4jnsgd1na2vs0mg"},{"bike_id":"59ea4d82-23d8-4659-8df9-40d1ed1b4885","system_id":"levelo_inurba_marseille","lat":43.24398,"lon":5.37049,"is_reserved":false,"is_disabled":false,"rental_uris":{"android":"levelo://app?vid=59ea4d82-23d8-4659-8df9-40d1ed1b4885","ios":"levelo://app?vid=59ea4d82-23d8-4659-8df9-40d1ed1b4885"},"vehicle_type_id":"4","last_reported":1751026826,"current_range_meters":17200,"station_id":"ce4bhhh2rcd13ifvqfk0","pricing_plan_id":"cebpf4jnsgd1na2vs0mg"},{"bike_id":"5132bc78-73df-4613-a7dd-0f8ae2846a9f","system_id":"levelo_inurba_marseille","lat":43.21755,"lon":5.34602,"is_reserved":false,"is_disabled":false,"rental_uris":{"android":"levelo://app?vid=5132bc78-73df-4613-a7dd-0f8ae2846a9f","ios":"levelo://app?vid=5132bc78-73df-4613-a7dd-0f8ae2846a9f"},"vehicle_type_id":"4","last_reported":1751026826,"current_range_meters":17200,"station_id":"st_cvj6r9ubvosntc0bgbag","pricing_plan_id":"cebpf4jnsgd1na2vs0mg"},{"bike_id":"b2bbbbce-d1e9-4a1e-bf71-0e0d9afd1a54","system_id":"levelo_inurba_marseille","lat":43.2971,"lon":5.37106,"is_reserved":false,"is_disabled":false,"rental_uris":{"android":"levelo://app?vid=b2bbbbce-d1e9-4a1e-bf71-0e0d9afd1a54","ios":"levelo://app?vid=b2bbbbce-d1e9-4a1e-bf71-0e0d9afd1a54"},"vehicle_type_id":"4","last_reported":1751026826,"current_range_meters":17600,"station_id":"","pricing_plan_id":"cebpf4jnsgd1na2vs0mg"},{"bike_id":"3e1232f5-8b67-4594-9354-d0c1a38e7cb6","system_id":"levelo_inurba_marseille","lat":43.23992,"lon":5.3775,"is_reserved":false,"is_disabled":false,"rental_uris":{"android":"levelo://app?vid=3e1232f5-8b67-4594-9354-d0c1a38e7cb6","ios":"levelo://app?vid=3e1232f5-8b67-4594-9354-d0c1a38e7cb6"},"vehicle_type_id":"4","last_reported":1751026826,"current_range_meters":17600,"station_id":"","pricing_plan_id":"cebpf4jnsgd1na2vs0mg"},{"bike_id":"68d4376c-5437-4504-8162-34a3e56b0d8a","system_id":"levelo_inurba_marseille","lat":43.29534,"lon":5.37504,"is_reserved":false,"is_disabled":false,"rental_uris":{"android":"levelo://app?vid=68d4376c-5437-4504-8162-34a3e56b0d8a","ios":"levelo://app?vid=68d4376c-5437-4504-8162-34a3e56b0d8a"},"vehicle_type_id":"4","last_reported":1751026826,"current_range_meters":17600,"station_id":"ce4bgkp2rcd13ifvqbmg","pricing_plan_id":"cebpf4jnsgd1na2vs0mg"},{"bike_id":"ad7c4717-55a4-46c2-9f97-7e180e080972","system_id":"levelo_inurba_marseille","lat":43.30592,"lon":5.37268,"is_reserved":false,"is_disabled":false,"rental_uris":{"android":"levelo://app?vid=ad7c4717-55a4-46c2-9f97-7e180e080972","ios":"levelo://app?vid=ad7c4717-55a4-46c2-9f97-7e180e080972"},"vehicle_type_id":"4","last_reported":1751026826,"current_range_meters":17600,"station_id":"ce4bgqh2rcd13ifvqc4g","pricing_plan_id":"cebpf4jnsgd1na2vs0mg"},{"bike_id":"d28364e6-b3cd-4906-8717-3361f5c7d376","system_id":"levelo_inurba_marseille","lat":43.27367,"lon":5.36221,"is_reserved":false,"is_disabled":false,"rental_uris":{"android":"levelo://app?vid=d28364e6-b3cd-4906-8717-3361f5c7d376","ios":"levelo://app?vid=d28364e6-b3cd-4906-8717-3361f5c7d376"},"vehicle_type_id":"4","last_reported":1751026826,"current_range_meters":17600,"station_id":"ce4bhbh2rcd13ifvqeo0","pricing_plan_id":"cebpf4jnsgd1na2vs0mg"},{"bike_id":"52fee8af-df7b-451b-ae1c-09ab55309eff","system_id":"levelo_inurba_marseille","lat":43.24816,"lon":5.37436,"is_reserved":false,"is_disabled":false,"rental_uris":{"android":"levelo://app?vid=52fee8af-df7b-451b-ae1c-09ab55309eff","ios":"levelo://app?vid=52fee8af-df7b-451b-ae1c-09ab55309eff"},"vehicle_type_id":"4","last_reported":1751026826,"current_range_meters":17600,"station_id":"ce4bhgh2rcd13ifvqfb0","pricing_plan_id":"cebpf4jnsgd1na2vs0mg"},{"bike_id":"05d2bf2d-1212-4e74-b748-079f01826789","system_id":"levelo_inurba_marseille","lat":43.25495,"lon":5.37645,"is_reserved":false,"is_disabled":false,"rental_uris":{"android":"levelo://app?vid=05d2bf2d-1212-4e74-b748-079f01826789","ios":"levelo://app?vid=05d2bf2d-1212-4e74-b748-079f01826789"},"vehicle_type_id":"4","last_reported":1751026826,"current_range_meters":17600,"station_id":"ce4bhh12rcd13ifvqff0","pricing_plan_id":"cebpf4jnsgd1na2vs0mg"},{"bike_id":"7ff9d163-80f4-44f5-bb4c-0f96fec457c2","system_id":"levelo_inurba_marseille","lat":43.27216,"lon":5.39183,"is_reserved":false,"is_disabled":false,"rental_uris":{"android":"levelo://app?vid=7ff9d163-80f4-44f5-bb4c-0f96fec457c2","ios":"levelo://app?vid=7ff9d163-80f4-44f5-bb4c-0f96fec457c2"},"vehicle_type_id":"4","last_reported":1751026826,"current_range_meters":17600,"station_id":"ce4bhhp2rcd13ifvqfm0","pricing_plan_id":"cebpf4jnsgd1na2vs0mg"},{"bike_id":"cd19ceac-0a46-4558-85f5-e1590efe0ba9","system_id":"levelo_inurba_marseille","lat":43.23965,"lon":5.36628,"is_reserved":false,"is_disabled":false,"rental_uris":{"android":"levelo://app?vid=cd19ceac-0a46-4558-85f5-e1590efe0ba9","ios":"levelo://app?vid=cd19ceac-0a46-4558-85f5-e1590efe0ba9"},"vehicle_type_id":"4","last_reported":1751026826,"current_range_meters":17600,"station_id":"ce4bhi12rcd13ifvqfp0","pricing_plan_id":"cebpf4jnsgd1na2vs0mg"},{"bike_id":"e66518b9-6ff9-4195-a973-49d1c69a32d5","system_id":"levelo_inurba_marseille","lat":43.27845,"lon":5.39216,"is_reserved":false,"is_disabled":false,"rental_uris":{"android":"levelo://app?vid=e66518b9-6ff9-4195-a973-49d1c69a32d5","ios":"levelo://app?vid=e66518b9-6ff9-4195-a973-49d1c69a32d5"},"vehicle_type_id":"4","last_reported":1751026826,"current_range_meters":17600,"station_id":"ce4bhjp2rcd13ifvqga0","pricing_plan_id":"cebpf4jnsgd1na2vs0mg"},{"bike_id":"9c007d2b-99e0-4469-ba73-06c57adc38c5","system_id":"levelo_inurba_marseille","lat":43.25923,"lon":5.40894,"is_reserved":false,"is_disabled":false,"rental_uris":{"android":"levelo://app?vid=9c007d2b-99e0-4469-ba73-06c57adc38c5","ios":"levelo://app?vid=9c007d2b-99e0-4469-ba73-06c57adc38c5"},"vehicle_type_id":"4","last_reported":1751026826,"current_range_meters":17600,"station_id":"ce4bhm92rcd13ifvqglg","pricing_plan_id":"cebpf4jnsgd1na2vs0mg"},{"bike_id":"4e46f229-3160-4f0e-a4ec-628897dab2cc","system_id":"levelo_inurba_marseille","lat":43.24167,"lon":5.39676,"is_reserved":false,"is_disabled":false,"rental_uris":{"android":"levelo://app?vid=4e46f229-3160-4f0e-a4ec-628897dab2cc","ios":"levelo://app?vid=4e46f229-3160-4f0e-a4ec-628897dab2cc"},"vehicle_type_id":"4","last_reported":1751026826,"current_range_meters":17600,"station_id":"ce4bhn12rcd13ifvqgpg","pricing_plan_id":"cebpf4jnsgd1na2vs0mg"},{"bike_id":"15d128bd-cfe4-4fde-84e3-861a91e21785","system_id":"levelo_inurba_marseille","lat":43.33734,"lon":5.39185,"is_reserved":false,"is_disabled":false,"rental_uris":{"android":"levelo://app?vid=15d128bd-cfe4-4fde-84e3-861a91e21785","ios":"levelo://app?vid=15d128bd-cfe4-4fde-84e3-861a91e21785"},"vehicle_type_id":"4","last_reported":1751026826,"current_range_meters":17600,"station_id":"ce4bhr92rcd13ifvqhsg","pricing_plan_id":"cebpf4jnsgd1na2vs0mg"},{"bike_id":"906c9fd0-307b-400d-9e57-baec56363022","system_id":"levelo_inurba_marseille","lat":43.21194,"lon":5.35067,"is_reserved":false,"is_disabled":false,"rental_uris":{"android":"levelo://app?vid=906c9fd0-307b-400d-9e57-baec56363022","ios":"levelo://app?vid=906c9fd0-307b-400d-9e57-baec56363022"},"vehicle_type_id":"4","last_reported":1751026826,"current_range_meters":17600,"station_id":"st_cvj6sg6p6f1abm77japg","pricing_plan_id":"cebpf4jnsgd1na2vs0mg"},{"bike_id":"8e5b6e5d-213c-45bf-bc04-d7c364a0d41b","system_id":"levelo_inurba_marseille","lat":43.27898,"lon":5.38018,"is_reserved":false,"is_disabled":false,"rental_uris":{"android":"levelo://app?vid=8e5b6e5d-213c-45bf-bc04-d7c364a0d41b","ios":"levelo://app?vid=8e5b6e5d-213c-45bf-bc04-d7c364a0d41b"},"vehicle_type_id":"4","last_reported":1751026826,"current_range_meters":18000,"station_id":"","pricing_plan_id":"cebpf4jnsgd1na2vs0mg"},{"bike_id":"721165c1-ef6f-40cc-8d33-af3a7999864b","system_id":"levelo_inurba_marseille","lat":43.32744,"lon":5.37971,"is_reserved":false,"is_disabled":false,"rental_uris":{"android":"levelo://app?vid=721165c1-ef6f-40cc-8d33-af3a7999864b","ios":"levelo://app?vid=721165c1-ef6f-40cc-8d33-af3a7999864b"},"vehicle_type_id":"4","last_reported":1751026826,"current_range_meters":18000,"station_id":"","pricing_plan_id":"cebpf4jnsgd1na2vs0mg"},{"bike_id":"9b8348d8-41f3-4558-a995-13030a92a6e6","system_id":"levelo_inurba_marseille","lat":43.30605,"lon":5.3725,"is_reserved":false,"is_disabled":false,"rental_uris":{"android":"levelo://app?vid=9b8348d8-41f3-4558-a995-13030a92a6e6","ios":"levelo://app?vid=9b8348d8-41f3-4558-a995-13030a92a6e6"},"vehicle_type_id":"4","last_reported":1751026826,"current_range_meters":18000,"station_id":"ce4bgqh2rcd13ifvqc4g","pricing_plan_id":"cebpf4jnsgd1na2vs0mg"},{"bike_id":"182a4a3c-d380-424b-83a6-a7ae58271c41","system_id":"levelo_inurba_marseille","lat":43.27374,"lon":5.36258,"is_reserved":false,"is_disabled":false,"rental_uris":{"android":"levelo://app?vid=182a4a3c-d380-424b-83a6-a7ae58271c41","ios":"levelo://app?vid=182a4a3c-d380-424b-83a6-a7ae58271c41"},"vehicle_type_id":"4","last_reported":1751026826,"current_range_meters":18000,"station_id":"ce4bhbh2rcd13ifvqeo0","pricing_plan_id":"cebpf4jnsgd1na2vs0mg"},{"bike_id":"e938f511-2310-4c0f-9d74-35c325934964","system_id":"levelo_inurba_marseille","lat":43.25864,"lon":5.39901,"is_reserved":false,"is_disabled":false,"rental_uris":{"android":"levelo://app?vid=e938f511-2310-4c0f-9d74-35c325934964","ios":"levelo://app?vid=e938f511-2310-4c0f-9d74-35c325934964"},"vehicle_type_id":"4","last_reported":1751026826,"current_range_meters":18000,"station_id":"ce4bhl92rcd13ifvqghg","pricing_plan_id":"cebpf4jnsgd1na2vs0mg"},{"bike_id":"066e0e1e-56ed-45ab-bc74-0af6c3a5f522","system_id":"levelo_inurba_marseille","lat":43.251057,"lon":5.40331,"is_reserved":false,"is_disabled":false,"rental_uris":{"android":"levelo://app?vid=066e0e1e-56ed-45ab-bc74-0af6c3a5f522","ios":"levelo://app?vid=066e0e1e-56ed-45ab-bc74-0af6c3a5f522"},"vehicle_type_id":"4","last_reported":1751026826,"current_range_meters":18000,"station_id":"ce4bhlh2rcd13ifvqgig","pricing_plan_id":"cebpf4jnsgd1na2vs0mg"},{"bike_id":"81115363-d7ba-42ce-969b-a1d7ad97fa06","system_id":"levelo_inurba_marseille","lat":43.33726,"lon":5.39192,"is_reserved":false,"is_disabled":false,"rental_uris":{"android":"levelo://app?vid=81115363-d7ba-42ce-969b-a1d7ad97fa06","ios":"levelo://app?vid=81115363-d7ba-42ce-969b-a1d7ad97fa06"},"vehicle_type_id":"4","last_reported":1751026826,"current_range_meters":18000,"station_id":"ce4bhr92rcd13ifvqhsg","pricing_plan_id":"cebpf4jnsgd1na2vs0mg"},{"bike_id":"8883081d-deb2-4e62-bad6-7053e32cc610","system_id":"levelo_inurba_marseille","lat":43.33764,"lon":5.37421,"is_reserved":false,"is_disabled":false,"rental_uris":{"android":"levelo://app?vid=8883081d-deb2-4e62-bad6-7053e32cc610","ios":"levelo://app?vid=8883081d-deb2-4e62-bad6-7053e32cc610"},"vehicle_type_id":"4","last_reported":1751026826,"current_range_meters":18800,"station_id":"","pricing_plan_id":"cebpf4jnsgd1na2vs0mg"},{"bike_id":"3c3143db-eff2-43ab-93c6-7cc207b8a48b","system_id":"levelo_inurba_marseille","lat":43.33781,"lon":5.37436,"is_reserved":false,"is_disabled":false,"rental_uris":{"android":"levelo://app?vid=3c3143db-eff2-43ab-93c6-7cc207b8a48b","ios":"levelo://app?vid=3c3143db-eff2-43ab-93c6-7cc207b8a48b"},"vehicle_type_id":"4","last_reported":1751026826,"current_range_meters":18800,"station_id":"","pricing_plan_id":"cebpf4jnsgd1na2vs0mg"},{"bike_id":"bf7bfaa4-1766-4fac-91b2-08775d131c9e","system_id":"levelo_inurba_marseille","lat":43.31483,"lon":5.37313,"is_reserved":false,"is_disabled":false,"rental_uris":{"android":"levelo://app?vid=bf7bfaa4-1766-4fac-91b2-08775d131c9e","ios":"levelo://app?vid=bf7bfaa4-1766-4fac-91b2-08775d131c9e"},"vehicle_type_id":"4","last_reported":1751026826,"current_range_meters":18800,"station_id":"ce4bgt12rcd13ifvqcd0","pricing_plan_id":"cebpf4jnsgd1na2vs0mg"},{"bike_id":"72ff45c5-b10d-4c3a-8563-0107df916433","system_id":"levelo_inurba_marseille","lat":43.26556,"lon":5.37296,"is_reserved":false,"is_disabled":false,"rental_uris":{"android":"levelo://app?vid=72ff45c5-b10d-4c3a-8563-0107df916433","ios":"levelo://app?vid=72ff45c5-b10d-4c3a-8563-0107df916433"},"vehicle_type_id":"4","last_reported":1751026826,"current_range_meters":18800,"station_id":"ce4bhg12rcd13ifvqf70","pricing_plan_id":"cebpf4jnsgd1na2vs0mg"},{"bike_id":"003ea3b0-a95a-49e1-9238-2bfab6f03756","system_id":"levelo_inurba_marseille","lat":43.27946,"lon":5.41044,"is_reserved":false,"is_disabled":false,"rental_uris":{"android":"levelo://app?vid=003ea3b0-a95a-49e1-9238-2bfab6f03756","ios":"levelo://app?vid=003ea3b0-a95a-49e1-9238-2bfab6f03756"},"vehicle_type_id":"4","last_reported":1751026826,"current_range_meters":18800,"station_id":"ce4bhnp2rcd13ifvqh0g","pricing_plan_id":"cebpf4jnsgd1na2vs0mg"},{"bike_id":"a7883090-0e10-4075-944b-a3cca54bc544","system_id":"levelo_inurba_marseille","lat":43.225,"lon":5.34779,"is_reserved":false,"is_disabled":false,"rental_uris":{"android":"levelo://app?vid=a7883090-0e10-4075-944b-a3cca54bc544","ios":"levelo://app?vid=a7883090-0e10-4075-944b-a3cca54bc544"},"vehicle_type_id":"4","last_reported":1751026826,"current_range_meters":18800,"station_id":"st_cvj5dfep6f1abm77gieg","pricing_plan_id":"cebpf4jnsgd1na2vs0mg"},{"bike_id":"5a3dab73-c126-4de6-a97f-f9ca71f0b35f","system_id":"levelo_inurba_marseille","lat":43.21752,"lon":5.34608,"is_reserved":false,"is_disabled":false,"rental_uris":{"android":"levelo://app?vid=5a3dab73-c126-4de6-a97f-f9ca71f0b35f","ios":"levelo://app?vid=5a3dab73-c126-4de6-a97f-f9ca71f0b35f"},"vehicle_type_id":"4","last_reported":1751026826,"current_range_meters":18800,"station_id":"st_cvj6r9ubvosntc0bgbag","pricing_plan_id":"cebpf4jnsgd1na2vs0mg"},{"bike_id":"12c7fc9f-7c7b-4185-9b2f-badd0c17e36b","system_id":"levelo_inurba_marseille","lat":43.247429,"lon":5.374403,"is_reserved":false,"is_disabled":false,"rental_uris":{"android":"levelo://app?vid=12c7fc9f-7c7b-4185-9b2f-badd0c17e36b","ios":"levelo://app?vid=12c7fc9f-7c7b-4185-9b2f-badd0c17e36b"},"vehicle_type_id":"4","last_reported":1751026826,"current_range_meters":19200,"station_id":"","pricing_plan_id":"cebpf4jnsgd1na2vs0mg"},{"bike_id":"4b951f33-6065-45b2-b6db-53241d933c32","system_id":"levelo_inurba_marseille","lat":43.29943,"lon":5.36556,"is_reserved":false,"is_disabled":false,"rental_uris":{"android":"levelo://app?vid=4b951f33-6065-45b2-b6db-53241d933c32","ios":"levelo://app?vid=4b951f33-6065-45b2-b6db-53241d933c32"},"vehicle_type_id":"4","last_reported":1751026826,"current_range_meters":19200,"station_id":"ce4bgm92rcd13ifvqbr0","pricing_plan_id":"cebpf4jnsgd1na2vs0mg"},{"bike_id":"a490124f-a100-484c-97dd-7fa757b12c02","system_id":"levelo_inurba_marseille","lat":43.29591,"lon":5.36749,"is_reserved":false,"is_disabled":false,"rental_uris":{"android":"levelo://app?vid=a490124f-a100-484c-97dd-7fa757b12c02","ios":"levelo://app?vid=a490124f-a100-484c-97dd-7fa757b12c02"},"vehicle_type_id":"4","last_reported":1751026826,"current_range_meters":19200,"station_id":"ce4bgph2rcd13ifvqc2g","pricing_plan_id":"cebpf4jnsgd1na2vs0mg"},{"bike_id":"e439c01c-6717-4826-a6d1-1fb3d24d0cd0","system_id":"levelo_inurba_marseille","lat":43.29583,"lon":5.36735,"is_reserved":false,"is_disabled":false,"rental_uris":{"android":"levelo://app?vid=e439c01c-6717-4826-a6d1-1fb3d24d0cd0","ios":"levelo://app?vid=e439c01c-6717-4826-a6d1-1fb3d24d0cd0"},"vehicle_type_id":"4","last_reported":1751026826,"current_range_meters":19200,"station_id":"ce4bgph2rcd13ifvqc2g","pricing_plan_id":"cebpf4jnsgd1na2vs0mg"},{"bike_id":"7500fd35-cc13-48a2-9148-dc2a521f437f","system_id":"levelo_inurba_marseille","lat":43.29841,"lon":5.36264,"is_reserved":false,"is_disabled":false,"rental_uris":{"android":"levelo://app?vid=7500fd35-cc13-48a2-9148-dc2a521f437f","ios":"levelo://app?vid=7500fd35-cc13-48a2-9148-dc2a521f437f"},"vehicle_type_id":"4","last_reported":1751026826,"current_range_meters":19200,"station_id":"ce4bgpp2rcd13ifvqc3g","pricing_plan_id":"cebpf4jnsgd1na2vs0mg"},{"bike_id":"63d8db14-a19a-4f4d-ad94-261325219f2d","system_id":"levelo_inurba_marseille","lat":43.27375,"lon":5.36263,"is_reserved":false,"is_disabled":false,"rental_uris":{"android":"levelo://app?vid=63d8db14-a19a-4f4d-ad94-261325219f2d","ios":"levelo://app?vid=63d8db14-a19a-4f4d-ad94-261325219f2d"},"vehicle_type_id":"4","last_reported":1751026826,"current_range_meters":19200,"station_id":"ce4bhbh2rcd13ifvqeo0","pricing_plan_id":"cebpf4jnsgd1na2vs0mg"},{"bike_id":"0d47017b-aa75-477b-8525-6f45b5b4b36b","system_id":"levelo_inurba_marseille","lat":43.31082,"lon":5.42429,"is_reserved":false,"is_disabled":false,"rental_uris":{"android":"levelo://app?vid=0d47017b-aa75-477b-8525-6f45b5b4b36b","ios":"levelo://app?vid=0d47017b-aa75-477b-8525-6f45b5b4b36b"},"vehicle_type_id":"4","last_reported":1751026826,"current_range_meters":19200,"station_id":"ce4bhp92rcd13ifvqhag","pricing_plan_id":"cebpf4jnsgd1na2vs0mg"},