{"last_updated":1756357850,"ttl":60,"version":"2.2","data":{"bikes":[{"bike_id":"932266f1-6d81-484b-bfc3-906276f16aea","system_id":"levelo_inurba_marseille","lat":43.33769,"lon":5.37459,"is_reserved":false,"is_disabled":false,"rental_uris":{"android":"levelo://app?vid=932266f1-6d81-484b-bfc3-906276f16aea","ios":"levelo://app?vid=932266f1-6d81-484b-bfc3-906276f16aea"},"vehicle_type_id":"4","last_reported":1756357851,"current_range_meters":2800,"station_id":"","pricing_plan_id":"cebpf4jnsgd1na2vs0mg"},{"bike_id":"b4355a8b-6620-41c5-aaa4-2b969fb59e8f","system_id":"levelo_inurba_marseille","lat":43.266953,"lon":5.382587,"is_reserved":false,"is_disabled":true,"rental_uris":{"android":"levelo://app?vid=b4355a8b-6620-41c5-aaa4-2b969fb59e8f","ios":"levelo://app?vid=b4355a8b-6620-41c5-aaa4-2b969fb59e8f"},"vehicle_type_id":"4","last_reported":1756357851,"current_range_meters":2800,"station_id":"ce4bhg92rcd13ifvqf90","pricing_plan_id":"cebpf4jnsgd1na2vs0mg"},{"bike_id":"2582e31b-61df-455f-b413-1117e795f975","system_id":"levelo_inurba_marseille","lat":43.3206,"lon":5.41555,"is_reserved":false,"is_disabled":false,"rental_uris":{"android":"levelo://app?vid=2582e31b-61df-455f-b413-1117e795f975","ios":"levelo://app?vid=2582e31b-61df-455f-b413-1117e795f975"},"vehicle_type_id":"4","last_reported":1756357851,"current_range_meters":3200,"station_id":"ce4bhq92rcd13ifvqhkg","pricing_plan_id":"cebpf4jnsgd1na2vs0mg"},{"bike_id":"70698924-f07a-4421-af4c-f1094e75e7d4","system_id":"levelo_inurba_marseille","lat":43.21196,"lon":5.35065,"is_reserved":false,"is_disabled":false,"rental_uris":{"android":"levelo://app?vid=70698924-f07a-4421-af4c-f1094e75e7d4","ios":"levelo://app?vid=70698924-f07a-4421-af4c-f1094e75e7d4"},"vehicle_type_id":"4","last_reported":1756357851,"current_range_meters":3600,"station_id":"st_cvj6sg6p6f1abm77japg","pricing_plan_id":"cebpf4jnsgd1na2vs0mg"},{"bike_id":"eeb42e78-373a-42a8-ad92-d1dc5831d4c3","system_id":"levelo_inurba_marseille","lat":43.248106,"lon":5.374628,"is_reserved":false,"is_disabled":true,"rental_uris":{"android":"levelo://app?vid=eeb42e78-373a-42a8-ad92-d1dc5831d4c3","ios":"levelo://app?vid=eeb42e78-373a-42a8-ad92-d1dc5831d4c3"},"vehicle_type_id":"4","last_reported":1756357851,"current_range_meters":4000,"station_id":"ce4bhgh2rcd13ifvqfb0","pricing_plan_id":"cebpf4jnsgd1na2vs0mg"},{"bike_id":"a1b65173-adbc-4b26-9c32-e4dc8d5732e5","system_id":"levelo_inurba_marseille","lat":43.26038,"lon":5.37537,"is_reserved":false,"is_disabled":false,"rental_uris":{"android":"levelo://app?vid=a1b65173-adbc-4b26-9c32-e4dc8d5732e5","ios":"levelo://app?vid=a1b65173-adbc-4b26-9c32-e4dc8d5732e5"},"vehicle_type_id":"4","last_reported":1756357851,"current_range_meters":4000,"station_id":"ce4bhgh2rcd13ifvqfa0","pricing_plan_id":"cebpf4jnsgd1na2vs0mg"},{"bike_id":"2732b203-8d34-41ae-80bd-b4f151d77aad","system_id":"levelo_inurba_marseille","lat":43.30257,"lon":5.40519,"is_reserved":false,"is_disabled":false,"rental_uris":{"android":"levelo://app?vid=2732b203-8d34-41ae-80bd-b4f151d77aad","ios":"levelo://app?vid=2732b203-8d34-41ae-80bd-b4f151d77aad"},"vehicle_type_id":"4","last_reported":1756357851,"current_range_meters":4000,"station_id":"","pricing_plan_id":"cebpf4jnsgd1na2vs0mg"},{"bike_id":"a62db57c-9de1-4ab0-a6c0-4a6d5a7d273d","system_id":"levelo_inurba_marseille","lat":43.28699,"lon":5.3739,"is_reserved":false,"is_disabled":false,"rental_uris":{"android":"levelo://app?vid=a62db57c-9de1-4ab0-a6c0-4a6d5a7d273d","ios":"levelo://app?vid=a62db57c-9de1-4ab0-a6c0-4a6d5a7d273d"},"vehicle_type_id":"4","last_reported":1756357851,"current_range_meters":4400,"station_id":"ce4bh3p2rcd13ifvqdq0","pricing_plan_id":"cebpf4jnsgd1na2vs0mg"},{"bike_id":"0d502687-08ef-4491-8893-8a03d8688be8","system_id":"levelo_inurba_marseille","lat":43.29602,"lon":5.36147,"is_reserved":false,"is_disabled":false,"rental_uris":{"android":"levelo://app?vid=0d502687-08ef-4491-8893-8a03d8688be8","ios":"levelo://app?vid=0d502687-08ef-4491-8893-8a03d8688be8"},"vehicle_type_id":"4","last_reported":1756357851,"current_range_meters":4400,"station_id":"","pricing_plan_id":"cebpf4jnsgd1na2vs0mg"},{"bike_id":"ae1aa7bb-95d3-4fdc-8e9e-bc7dee4dc5f2","system_id":"levelo_inurba_marseille","lat":43.33038,"lon":5.39036,"is_reserved":false,"is_disabled":false,"rental_uris":{"android":"levelo://app?vid=ae1aa7bb-95d3-4fdc-8e9e-bc7dee4dc5f2","ios":"levelo://app?vid=ae1aa7bb-95d3-4fdc-8e9e-bc7dee4dc5f2"},"vehicle_type_id":"4","last_reported":1756357851,"current_range_meters":4800,"station_id":"ce4bhr92rcd13ifvqhrg","pricing_plan_id":"cebpf4jnsgd1na2vs0mg"},{"bike_id":"69b4ff08-bcc7-439d-919d-ecacd6d9051a","system_id":"levelo_inurba_marseille","lat":43.28382,"lon":5.45601,"is_reserved":false,"is_disabled":false,"rental_uris":{"android":"levelo://app?vid=69b4ff08-bcc7-439d-919d-ecacd6d9051a","ios":"levelo://app?vid=69b4ff08-bcc7-439d-919d-ecacd6d9051a"},"vehicle_type_id":"4","last_reported":1756357851,"current_range_meters":4800,"station_id":"","pricing_plan_id":"cebpf4jnsgd1na2vs0mg"},{"bike_id":"9b1226dc-082e-4d11-926b-5ea351a24c6b","system_id":"levelo_inurba_marseille","lat":43.30143,"lon":5.38072,"is_reserved":false,"is_disabled":false,"rental_uris":{"android":"levelo://app?vid=9b1226dc-082e-4d11-926b-5ea351a24c6b","ios":"levelo://app?vid=9b1226dc-082e-4d11-926b-5ea351a24c6b"},"vehicle_type_id":"4","last_reported":1756357851,"current_range_meters":5600,"station_id":"ce4bgjp2rcd13ifvqbh0","pricing_plan_id":"cebpf4jnsgd1na2vs0mg"},{"bike_id":"d0929797-eccc-45d1-a5f1-aea03c095a59","system_id":"levelo_inurba_marseille","lat":43.27991,"lon":5.4166,"is_reserved":false,"is_disabled":true,"rental_uris":{"android":"levelo://app?vid=d0929797-eccc-45d1-a5f1-aea03c095a59","ios":"levelo://app?vid=d0929797-eccc-45d1-a5f1-aea03c095a59"},"vehicle_type_id":"4","last_reported":1756357851,"current_range_meters":5600,"station_id":"ce4bho12rcd13ifvqh1g","pricing_plan_id":"cebpf4jnsgd1na2vs0mg"},{"bike_id":"e1cc485f-c6f0-41fe-b8d8-b5e94a231de5","system_id":"levelo_inurba_marseille","lat":43.30743,"lon":5.37716,"is_reserved":false,"is_disabled":false,"rental_uris":{"android":"levelo://app?vid=e1cc485f-c6f0-41fe-b8d8-b5e94a231de5","ios":"levelo://app?vid=e1cc485f-c6f0-41fe-b8d8-b5e94a231de5"},"vehicle_type_id":"4","last_reported":1756357851,"current_range_meters":6000,"station_id":"","pricing_plan_id":"cebpf4jnsgd1na2vs0mg"},{"bike_id":"17cb2fe0-534a-4cc2-9379-c36300902e12","system_id":"levelo_inurba_marseille","lat":43.29044,"lon":5.399681,"is_reserved":false,"is_disabled":false,"rental_uris":{"android":"levelo://app?vid=17cb2fe0-534a-4cc2-9379-c36300902e12","ios":"levelo://app?vid=17cb2fe0-534a-4cc2-9379-c36300902e12"},"vehicle_type_id":"4","last_reported":1756357851,"current_range_meters":6000,"station_id":"ce4bh392rcd13ifvqdm0","pricing_plan_id":"cebpf4jnsgd1na2vs0mg"},{"bike_id":"19453317-7841-4e65-89da-f7108166fcfe","system_id":"levelo_inurba_marseille","lat":43.292805,"lon":5.401335,"is_reserved":false,"is_disabled":false,"rental_uris":{"android":"levelo://app?vid=19453317-7841-4e65-89da-f7108166fcfe","ios":"levelo://app?vid=19453317-7841-4e65-89da-f7108166fcfe"},"vehicle_type_id":"4","last_reported":1756357851,"current_range_meters":6400,"station_id":"ce4bh312rcd13ifvqdk0","pricing_plan_id":"cebpf4jnsgd1na2vs0mg"},{"bike_id":"51842e17-ef10-4624-a23e-c8a182427991","system_id":"levelo_inurba_marseille","lat":43.316284,"lon":5.381844,"is_reserved":false,"is_disabled":false,"rental_uris":{"android":"levelo://app?vid=51842e17-ef10-4624-a23e-c8a182427991","ios":"levelo://app?vid=51842e17-ef10-4624-a23e-c8a182427991"},"vehicle_type_id":"4","last_reported":1756357851,"current_range_meters":6400,"station_id":"","pricing_plan_id":"cebpf4jnsgd1na2vs0mg"},{"bike_id":"69a01144-4cb0-4f43-b8a7-d8bba1210d75","system_id":"levelo_inurba_marseille","lat":43.315842,"lon":5.374358,"is_reserved":false,"is_disabled":false,"rental_uris":{"android":"levelo://app?vid=69a01144-4cb0-4f43-b8a7-d8bba1210d75","ios":"levelo://app?vid=69a01144-4cb0-4f43-b8a7-d8bba1210d75"},"vehicle_type_id":"4","last_reported":1756357851,"current_range_meters":6400,"station_id":"","pricing_plan_id":"cebpf4jnsgd1na2vs0mg"},{"bike_id":"24df2c59-c2ae-4cf6-8d73-b821e9ca9612","system_id":"levelo_inurba_marseille","lat":43.27875,"lon":5.39948,"is_reserved":false,"is_disabled":true,"rental_uris":{"android":"levelo://app?vid=24df2c59-c2ae-4cf6-8d73-b821e9ca9612","ios":"levelo://app?vid=24df2c59-c2ae-4cf6-8d73-b821e9ca9612"},"vehicle_type_id":"4","last_reported":1756357851,"current_range_meters":6400,"station_id":"","pricing_plan_id":"cebpf4jnsgd1na2vs0mg"},{"bike_id":"8ff3ebc3-b8cc-483f-9232-7e0c6220b0be","system_id":"levelo_inurba_marseille","lat":43.29954,"lon":5.41318,"is_reserved":false,"is_disabled":true,"rental_uris":{"android":"levelo://app?vid=8ff3ebc3-b8cc-483f-9232-7e0c6220b0be","ios":"levelo://app?vid=8ff3ebc3-b8cc-483f-9232-7e0c6220b0be"},"vehicle_type_id":"4","last_reported":1756357851,"current_range_meters":6800,"station_id":"ce4bhp12rcd13ifvqh9g","pricing_plan_id":"cebpf4jnsgd1na2vs0mg"},{"bike_id":"23038a23-8213-4d5b-a784-616373105311","system_id":"levelo_inurba_marseille","lat":43.29897,"lon":5.43667,"is_reserved":false,"is_disabled":false,"rental_uris":{"android":"levelo://app?vid=23038a23-8213-4d5b-a784-616373105311","ios":"levelo://app?vid=23038a23-8213-4d5b-a784-616373105311"},"vehicle_type_id":"4","last_reported":1756357851,"current_range_meters":6800,"station_id":"ce4bhpp2rcd13ifvqhfg","pricing_plan_id":"cebpf4jnsgd1na2vs0mg"},{"bike_id":"ff202b66-e4c7-412a-a886-fea6a2f01062","system_id":"levelo_inurba_marseille","lat":43.28622,"lon":5.35093,"is_reserved":false,"is_disabled":false,"rental_uris":{"android":"levelo://app?vid=ff202b66-e4c7-412a-a886-fea6a2f01062","ios":"levelo://app?vid=ff202b66-e4c7-412a-a886-fea6a2f01062"},"vehicle_type_id":"4","last_reported":1756357851,"current_range_meters":6800,"station_id":"ce4bhch2rcd13ifvqeug","pricing_plan_id":"cebpf4jnsgd1na2vs0mg"},{"bike_id":"899ef22f-86b1-41e7-8c70-f9240174a6d4","system_id":"levelo_inurba_marseille","lat":43.286775,"lon":5.386501,"is_reserved":false,"is_disabled":false,"rental_uris":{"android":"levelo://app?vid=899ef22f-86b1-41e7-8c70-f9240174a6d4","ios":"levelo://app?vid=899ef22f-86b1-41e7-8c70-f9240174a6d4"},"vehicle_type_id":"4","last_reported":1756357851,"current_range_meters":6800,"station_id":"ce4bh492rcd13ifvqdug","pricing_plan_id":"cebpf4jnsgd1na2vs0mg"},{"bike_id":"7e8cb43d-b846-46bd-bc33-055dd7a36655","system_id":"levelo_inurba_marseille","lat":43.30787,"lon":5.37647,"is_reserved":false,"is_disabled":false,"rental_uris":{"android":"levelo://app?vid=7e8cb43d-b846-46bd-bc33-055dd7a36655","ios":"levelo://app?vid=7e8cb43d-b846-46bd-bc33-055dd7a36655"},"vehicle_type_id":"4","last_reported":1756357851,"current_range_meters":6800,"station_id":"ce4bgv92rcd13ifvqcq0","pricing_plan_id":"cebpf4jnsgd1na2vs0mg"},{"bike_id":"8ec3cc2f-40be-488c-bf4a-d316bcab75bc","system_id":"levelo_inurba_marseille","lat":43.30466,"lon":5.37912,"is_reserved":false,"is_disabled":false,"rental_uris":{"android":"levelo://app?vid=8ec3cc2f-40be-488c-bf4a-d316bcab75bc","ios":"levelo://app?vid=8ec3cc2f-40be-488c-bf4a-d316bcab75bc"},"vehicle_type_id":"4","last_reported":1756357851,"current_range_meters":7200,"station_id":"ce4bgup2rcd13ifvqcn0","pricing_plan_id":"cebpf4jnsgd1na2vs0mg"},{"bike_id":"0f2017f4-e5c1-46a2-a7d8-e957ce265a72","system_id":"levelo_inurba_marseille","lat":43.33773,"lon":5.37451,"is_reserved":false,"is_disabled":false,"rental_uris":{"android":"levelo://app?vid=0f2017f4-e5c1-46a2-a7d8-e957ce265a72","ios":"levelo://app?vid=0f2017f4-e5c1-46a2-a7d8-e957ce265a72"},"vehicle_type_id":"4","last_reported":1756357851,"current_range_meters":7200,"station_id":"","pricing_plan_id":"cebpf4jnsgd1na2vs0mg"},{"bike_id":"8f56a38a-ea80-41cf-8440-66d6f92e4e9b","system_id":"levelo_inurba_marseille","lat":43.30241,"lon":5.38055,"is_reserved":false,"is_disabled":false,"rental_uris":{"android":"levelo://app?vid=8f56a38a-ea80-41cf-8440-66d6f92e4e9b","ios":"levelo://app?vid=8f56a38a-ea80-41cf-8440-66d6f92e4e9b"},"vehicle_type_id":"4","last_reported":1756357851,"current_range_meters":7200,"station_id":"ce4bgjp2rcd13ifvqbh0","pricing_plan_id":"cebpf4jnsgd1na2vs0mg"},{"bike_id":"a6ef8657-5b8a-423b-993f-c3df43dec0a0","system_id":"levelo_inurba_marseille","lat":43.326998,"lon":5.392208,"is_reserved":false,"is_disabled":false,"rental_uris":{"android":"levelo://app?vid=a6ef8657-5b8a-423b-993f-c3df43dec0a0","ios":"levelo://app?vid=a6ef8657-5b8a-423b-993f-c3df43dec0a0"},"vehicle_type_id":"4","last_reported":1756357851,"current_range_meters":7200,"station_id":"","pricing_plan_id":"cebpf4jnsgd1na2vs0mg"},{"bike_id":"49f60e81-aa7a-4e46-bbc1-fc06ed848e16","system_id":"levelo_inurba_marseille","lat":43.30587,"lon":5.39338,"is_reserved":false,"is_disabled":false,"rental_uris":{"android":"levelo://app?vid=49f60e81-aa7a-4e46-bbc1-fc06ed848e16","ios":"levelo://app?vid=49f60e81-aa7a-4e46-bbc1-fc06ed848e16"},"vehicle_type_id":"4","last_reported":1756357851,"current_range_meters":7200,"station_id":"ce4bh0p2rcd13ifvqd80","pricing_plan_id":"cebpf4jnsgd1na2vs0mg"},{"bike_id":"1d7023ef-959e-48df-b075-0a4bd90cc9ae","system_id":"levelo_inurba_marseille","lat":43.27365,"lon":5.36253,"is_reserved":false,"is_disabled":true,"rental_uris":{"android":"levelo://app?vid=1d7023ef-959e-48df-b075-0a4bd90cc9ae","ios":"levelo://app?vid=1d7023ef-959e-48df-b075-0a4bd90cc9ae"},"vehicle_type_id":"4","last_reported":1756357851,"current_range_meters":8000,"station_id":"ce4bhbh2rcd13ifvqeo0","pricing_plan_id":"cebpf4jnsgd1na2vs0mg"},{"bike_id":"2d0e77b8-c9d8-4e57-b6d3-0a222f73256a","system_id":"levelo_inurba_marseille","lat":43.26195,"lon":5.37447,"is_reserved":false,"is_disabled":true,"rental_uris":{"android":"levelo://app?vid=2d0e77b8-c9d8-4e57-b6d3-0a222f73256a","ios":"levelo://app?vid=2d0e77b8-c9d8-4e57-b6d3-0a222f73256a"},"vehicle_type_id":"4","last_reported":1756357851,"current_range_meters":8000,"station_id":"ce4bhgp2rcd13ifvqfc0","pricing_plan_id":"cebpf4jnsgd1na2vs0mg"},{"bike_id":"e9099ed8-f39c-4735-a545-38ff6ccc85d8","system_id":"levelo_inurba_marseille","lat":43.322494,"lon":5.385376,"is_reserved":false,"is_disabled":false,"rental_uris":{"android":"levelo://app?vid=e9099ed8-f39c-4735-a545-38ff6ccc85d8","ios":"levelo://app?vid=e9099ed8-f39c-4735-a545-38ff6ccc85d8"},"vehicle_type_id":"4","last_reported":1756357851,"current_range_meters":8400,"station_id":"","pricing_plan_id":"cebpf4jnsgd1na2vs0mg"},{"bike_id":"70ade437-224c-4858-a942-4ebdac131747","system_id":"levelo_inurba_marseille","lat":43.28342,"lon":5.38088,"is_reserved":false,"is_disabled":false,"rental_uris":{"android":"levelo://app?vid=70ade437-224c-4858-a942-4ebdac131747","ios":"levelo://app?vid=70ade437-224c-4858-a942-4ebdac131747"},"vehicle_type_id":"4","last_reported":1756357851,"current_range_meters":8400,"station_id":"ce4bh412rcd13ifvqdr0","pricing_plan_id":"cebpf4jnsgd1na2vs0mg"},{"bike_id":"1546df9e-d1cb-482b-8d1f-d121540fd829","system_id":"levelo_inurba_marseille","lat":43.211985,"lon":5.350668,"is_reserved":false,"is_disabled":false,"rental_uris":{"android":"levelo://app?vid=1546df9e-d1cb-482b-8d1f-d121540fd829","ios":"levelo://app?vid=1546df9e-d1cb-482b-8d1f-d121540fd829"},"vehicle_type_id":"4","last_reported":1756357851,"current_range_meters":8400,"station_id":"st_cvj6sg6p6f1abm77japg","pricing_plan_id":"cebpf4jnsgd1na2vs0mg"},{"bike_id":"29fc8535-fcb9-42f5-8620-052867ccd337","system_id":"levelo_inurba_marseille","lat":43.260222,"lon":5.375417,"is_reserved":false,"is_disabled":true,"rental_uris":{"android":"levelo://app?vid=29fc8535-fcb9-42f5-8620-052867ccd337","ios":"levelo://app?vid=29fc8535-fcb9-42f5-8620-052867ccd337"},"vehicle_type_id":"4","last_reported":1756357851,"current_range_meters":8400,"station_id":"ce4bhgh2rcd13ifvqfa0","pricing_plan_id":"cebpf4jnsgd1na2vs0mg"},{"bike_id":"cceb5e99-5104-49c8-8506-8e6a58d67871","system_id":"levelo_inurba_marseille","lat":43.241807,"lon":5.397082,"is_reserved":false,"is_disabled":true,"rental_uris":{"android":"levelo://app?vid=cceb5e99-5104-49c8-8506-8e6a58d67871","ios":"levelo://app?vid=cceb5e99-5104-49c8-8506-8e6a58d67871"},"vehicle_type_id":"4","last_reported":1756357851,"current_range_meters":8400,"station_id":"ce4bhn12rcd13ifvqgpg","pricing_plan_id":"cebpf4jnsgd1na2vs0mg"},{"bike_id":"5bce688b-fc81-4596-8277-b66f54be87c1","system_id":"levelo_inurba_marseille","lat":43.33768,"lon":5.37438,"is_reserved":false,"is_disabled":false,"rental_uris":{"android":"levelo://app?vid=5bce688b-fc81-4596-8277-b66f54be87c1","ios":"levelo://app?vid=5bce688b-fc81-4596-8277-b66f54be87c1"},"vehicle_type_id":"4","last_reported":1756357851,"current_range_meters":8800,"station_id":"","pricing_plan_id":"cebpf4jnsgd1na2vs0mg"},{"bike_id":"d2d39256-6788-442b-b27b-5120dd8b53ef","system_id":"levelo_inurba_marseille","lat":43.28942,"lon":5.36625,"is_reserved":false,"is_disabled":false,"rental_uris":{"android":"levelo://app?vid=d2d39256-6788-442b-b27b-5120dd8b53ef","ios":"levelo://app?vid=d2d39256-6788-442b-b27b-5120dd8b53ef"},"vehicle_type_id":"4","last_reported":1756357851,"current_range_meters":8800,"station_id":"ce4bhap2rcd13ifvqek0","pricing_plan_id":"cebpf4jnsgd1na2vs0mg"},{"bike_id":"a514a555-395b-41ab-ad3a-fd86a43d07ab","system_id":"levelo_inurba_marseille","lat":43.265577,"lon":5.372838,"is_reserved":false,"is_disabled":false,"rental_uris":{"android":"levelo://app?vid=a514a555-395b-41ab-ad3a-fd86a43d07ab","ios":"levelo://app?vid=a514a555-395b-41ab-ad3a-fd86a43d07ab"},"vehicle_type_id":"4","last_reported":1756357851,"current_range_meters":8800,"station_id":"ce4bhg12rcd13ifvqf70","pricing_plan_id":"cebpf4jnsgd1na2vs0mg"},{"bike_id":"e337d582-364a-4312-af91-67d0c81052aa","system_id":"levelo_inurba_marseille","lat":43.3255,"lon":5.36452,"is_reserved":false,"is_disabled":false,"rental_uris":{"android":"levelo://app?vid=e337d582-364a-4312-af91-67d0c81052aa","ios":"levelo://app?vid=e337d582-364a-4312-af91-67d0c81052aa"},"vehicle_type_id":"4","last_reported":1756357851,"current_range_meters":8800,"station_id":"","pricing_plan_id":"cebpf4jnsgd1na2vs0mg"},{"bike_id":"a87f97d0-b06d-49ed-8a1e-b35acdcbe0c3","system_id":"levelo_inurba_marseille","lat":43.308076,"lon":5.435157,"is_reserved":false,"is_disabled":false,"rental_uris":{"android":"levelo://app?vid=a87f97d0-b06d-49ed-8a1e-b35acdcbe0c3","ios":"levelo://app?vid=a87f97d0-b06d-49ed-8a1e-b35acdcbe0c3"},"vehicle_type_id":"4","last_reported":1756357851,"current_range_meters":8800,"station_id":"ce4bhph2rcd13ifvqheg","pricing_plan_id":"cebpf4jnsgd1na2vs0mg"},{"bike_id":"98b5d953-937e-48a2-a5e5-1c6a780d56ce","system_id":"levelo_inurba_marseille","lat":43.2811,"lon":5.37821,"is_reserved":false,"is_disabled":false,"rental_uris":{"android":"levelo://app?vid=98b5d953-937e-48a2-a5e5-1c6a780d56ce","ios":"levelo://app?vid=98b5d953-937e-48a2-a5e5-1c6a780d56ce"},"vehicle_type_id":"4","last_reported":1756357851,"current_range_meters":9200,"station_id":"ce4bha12rcd13ifvqee0","pricing_plan_id":"cebpf4jnsgd1na2vs0mg"},{"bike_id":"a7c879e6-fbdc-41cc-b936-a235aa17adb5","system_id":"levelo_inurba_marseille","lat":43.331251,"lon":5.381623,"is_reserved":false,"is_disabled":false,"rental_uris":{"android":"levelo://app?vid=a7c879e6-fbdc-41cc-b936-a235aa17adb5","ios":"levelo://app?vid=a7c879e6-fbdc-41cc-b936-a235aa17adb5"},"vehicle_type_id":"4","last_reported":1756357851,"current_range_meters":9200,"station_id":"","pricing_plan_id":"cebpf4jnsgd1na2vs0mg"},{"bike_id":"e5eabf25-4e1c-476e-b130-9f83cdcfc80c","system_id":"levelo_inurba_marseille","lat":43.29817,"lon":5.41702,"is_reserved":false,"is_disabled":false,"rental_uris":{"android":"levelo://app?vid=e5eabf25-4e1c-476e-b130-9f83cdcfc80c","ios":"levelo://app?vid=e5eabf25-4e1c-476e-b130-9f83cdcfc80c"},"vehicle_type_id":"4","last_reported":1756357851,"current_range_meters":9200,"station_id":"","pricing_plan_id":"cebpf4jnsgd1na2vs0mg"},{"bike_id":"2b2ebf1d-a923-4959-8b1a-e5f303b7fe84","system_id":"levelo_inurba_marseille","lat":43.29282,"lon":5.401245,"is_reserved":false,"is_disabled":false,"rental_uris":{"android":"levelo://app?vid=2b2ebf1d-a923-4959-8b1a-e5f303b7fe84","ios":"levelo://app?vid=2b2ebf1d-a923-4959-8b1a-e5f303b7fe84"},"vehicle_type_id":"4","last_reported":1756357851,"current_range_meters":9600,"station_id":"ce4bh312rcd13ifvqdk0","pricing_plan_id":"cebpf4jnsgd1na2vs0mg"},{"bike_id":"40359052-9f3d-44f8-a43b-f486217c4075","system_id":"levelo_inurba_marseille","lat":43.281,"lon":5.37843,"is_reserved":false,"is_disabled":false,"rental_uris":{"android":"levelo://app?vid=40359052-9f3d-44f8-a43b-f486217c4075","ios":"levelo://app?vid=40359052-9f3d-44f8-a43b-f486217c4075"},"vehicle_type_id":"4","last_reported":1756357851,"current_range_meters":10000,"station_id":"ce4bha12rcd13ifvqee0","pricing_plan_id":"cebpf4jnsgd1na2vs0mg"},{"bike_id":"aa375831-c987-4042-97d7-4bc96d6caa6a","system_id":"levelo_inurba_marseille","lat":43.26331,"lon":5.37402,"is_reserved":false,"is_disabled":true,"rental_uris":{"android":"levelo://app?vid=aa375831-c987-4042-97d7-4bc96d6caa6a","ios":"levelo://app?vid=aa375831-c987-4042-97d7-4bc96d6caa6a"},"vehicle_type_id":"4","last_reported":1756357851,"current_range_meters":10000,"station_id":"","pricing_plan_id":"cebpf4jnsgd1na2vs0mg"},{"bike_id":"8637e1aa-9c9a-41e1-a5d5-f0342a65118e","system_id":"levelo_inurba_marseille","lat":43.31707,"lon":5.43716,"is_reserved":false,"is_disabled":false,"rental_uris":{"android":"levelo://app?vid=8637e1aa-9c9a-41e1-a5d5-f0342a65118e","ios":"levelo://app?vid=8637e1aa-9c9a-41e1-a5d5-f0342a65118e"},"vehicle_type_id":"4","last_reported":1756357851,"current_range_meters":10000,"station_id":"ce4bhp92rcd13ifvqhcg","pricing_plan_id":"cebpf4jnsgd1na2vs0mg"},{"bike_id":"0e4f6931-1d2d-444d-8fcd-29db3c13d97b","system_id":"levelo_inurba_marseille","lat":43.28342,"lon":5.38105,"is_reserved":false,"is_disabled":false,"rental_uris":{"android":"levelo://app?vid=0e4f6931-1d2d-444d-8fcd-29db3c13d97b","ios":"levelo://app?vid=0e4f6931-1d2d-444d-8fcd-29db3c13d97b"},"vehicle_type_id":"4","last_reported":1756357851,"current_range_meters":10000,"station_id":"ce4bh412rcd13ifvqdr0","pricing_plan_id":"cebpf4jnsgd1na2vs0mg"},{"bike_id":"ac631280-124e-4e54-bf31-e8c590daca4d","system_id":"levelo_inurba_marseille","lat":43.298089,"lon":5.381118,"is_reserved":false,"is_disabled":false,"rental_uris":{"android":"levelo://app?vid=ac631280-124e-4e54-bf31-e8c590daca4d","ios":"levelo://app?vid=ac631280-124e-4e54-bf31-e8c590daca4d"},"vehicle_type_id":"4","last_reported":1756357851,"current_range_meters":10000,"station_id":"ce4bgip2rcd13ifvqbb0","pricing_plan_id":"cebpf4jnsgd1na2vs0mg"},{"bike_id":"9308f021-ec84-4fe8-8c25-145b6405b7e0","system_id":"levelo_inurba_marseille","lat":43.30531,"lon":5.36691,"is_reserved":false,"is_disabled":true,"rental_uris":{"android":"levelo://app?vid=9308f021-ec84-4fe8-8c25-145b6405b7e0","ios":"levelo://app?vid=9308f021-ec84-4fe8-8c25-145b6405b7e0"},"vehicle_type_id":"4","last_reported":1756357851,"current_range_meters":10000,"station_id":"ce4bgrp2rcd13ifvqc9g","pricing_plan_id":"cebpf4jnsgd1na2vs0mg"},{"bike_id":"452c64c1-c18e-429f-ac02-5f3cc7af3941","system_id":"levelo_inurba_marseille","lat":43.21755,"lon":5.34576,"is_reserved":false,"is_disabled":false,"rental_uris":{"android":"levelo://app?vid=452c64c1-c18e-429f-ac02-5f3cc7af3941","ios":"levelo://app?vid=452c64c1-c18e-429f-ac02-5f3cc7af3941"},"vehicle_type_id":"4","last_reported":1756357851,"current_range_meters":10000,"station_id":"st_cvj6r9ubvosntc0bgbag","pricing_plan_id":"cebpf4jnsgd1na2vs0mg"},{"bike_id":"2a1d7d54-556b-4bcd-9fcc-f37876054f8a","system_id":"levelo_inurba_marseille","lat":43.28509,"lon":5.38421,"is_reserved":false,"is_disabled":false,"rental_uris":{"android":"levelo://app?vid=2a1d7d54-556b-4bcd-9fcc-f37876054f8a","ios":"levelo://app?vid=2a1d7d54-556b-4bcd-9fcc-f37876054f8a"},"vehicle_type_id":"4","last_reported":1756357851,"current_range_meters":10000,"station_id":"ce4bh512rcd13ifvqe3g","pricing_plan_id":"cebpf4jnsgd1na2vs0mg"},{"bike_id":"04b7a9f3-b443-44fd-b605-c1e0083e2b14","system_id":"levelo_inurba_marseille","lat":43.280834,"lon":5.39646,"is_reserved":false,"is_disabled":false,"rental_uris":{"android":"levelo://app?vid=04b7a9f3-b443-44fd-b605-c1e0083e2b14","ios":"levelo://app?vid=04b7a9f3-b443-44fd-b605-c1e0083e2b14"},"vehicle_type_id":"4","last_reported":1756357851,"current_range_meters":10800,"station_id":"ce4bho12rcd13ifvqh2g","pricing_plan_id":"cebpf4jnsgd1na2vs0mg"},{"bike_id":"57d77259-e64a-40b9-b711-05759afb0982","system_id":"levelo_inurba_marseille","lat":43.31721,"lon":5.40459,"is_reserved":false,"is_disabled":false,"rental_uris":{"android":"levelo://app?vid=57d77259-e64a-40b9-b711-05759afb0982","ios":"levelo://app?vid=57d77259-e64a-40b9-b711-05759afb0982"},"vehicle_type_id":"4","last_reported":1756357851,"current_range_meters":10800,"station_id":"ce4bh012rcd13ifvqd00","pricing_plan_id":"cebpf4jnsgd1na2vs0mg"},{"bike_id":"7e3ffa88-6346-44b3-b141-4da26e78c620","system_id":"levelo_inurba_marseille","lat":43.24173,"lon":5.39728,"is_reserved":false,"is_disabled":false,"rental_uris":{"android":"levelo://app?vid=7e3ffa88-6346-44b3-b141-4da26e78c620","ios":"levelo://app?vid=7e3ffa88-6346-44b3-b141-4da26e78c620"},"vehicle_type_id":"4","last_reported":1756357851,"current_range_meters":10800,"station_id":"ce4bhn12rcd13ifvqgpg","pricing_plan_id":"cebpf4jnsgd1na2vs0mg"},{"bike_id":"c585dd86-e6af-4090-bba4-a9ee7f425450","system_id":"levelo_inurba_marseille","lat":43.28362,"lon":5.38642,"is_reserved":false,"is_disabled":false,"rental_uris":{"android":"levelo://app?vid=c585dd86-e6af-4090-bba4-a9ee7f425450","ios":"levelo://app?vid=c585dd86-e6af-4090-bba4-a9ee7f425450"},"vehicle_type_id":"4","last_reported":1756357851,"current_range_meters":10800,"station_id":"ce4bh492rcd13ifvqdvg","pricing_plan_id":"cebpf4jnsgd1na2vs0mg"},{"bike_id":"6bfbf7b1-a4a1-4287-abfb-a1fa867bee3a","system_id":"levelo_inurba_marseille","lat":43.230699,"lon":5.354818,"is_reserved":false,"is_disabled":false,"rental_uris":{"android":"levelo://app?vid=6bfbf7b1-a4a1-4287-abfb-a1fa867bee3a","ios":"levelo://app?vid=6bfbf7b1-a4a1-4287-abfb-a1fa867bee3a"},"vehicle_type_id":"4","last_reported":1756357851,"current_range_meters":10800,"station_id":"cpo3342slgdg3j2ifvpg","pricing_plan_id":"cebpf4jnsgd1na2vs0mg"},{"bike_id":"758925e6-bd9a-4169-81c0-f7af7a29a755","system_id":"levelo_inurba_marseille","lat":43.26029,"lon":5.37545,"is_reserved":false,"is_disabled":true,"rental_uris":{"android":"levelo://app?vid=758925e6-bd9a-4169-81c0-f7af7a29a755","ios":"levelo://app?vid=758925e6-bd9a-4169-81c0-f7af7a29a755"},"vehicle_type_id":"4","last_reported":1756357851,"current_range_meters":10800,"station_id":"ce4bhgh2rcd13ifvqfa0","pricing_plan_id":"cebpf4jnsgd1na2vs0mg"},{"bike_id":"aa2058b8-1184-4978-b0a6-ba7a562980b6","system_id":"levelo_inurba_marseille","lat":43.28952,"lon":5.36632,"is_reserved":false,"is_disabled":false,"rental_uris":{"android":"levelo://app?vid=aa2058b8-1184-4978-b0a6-ba7a562980b6","ios":"levelo://app?vid=aa2058b8-1184-4978-b0a6-ba7a562980b6"},"vehicle_type_id":"4","last_reported":1756357851,"current_range_meters":10800,"station_id":"ce4bhap2rcd13ifvqek0","pricing_plan_id":"cebpf4jnsgd1na2vs0mg"},{"bike_id":"38014ce3-3239-4ccf-a0a6-44e5034bc736","system_id":"levelo_inurba_marseille","lat":43.25897,"lon":5.39902,"is_reserved":false,"is_disabled":false,"rental_uris":{"android":"levelo://app?vid=38014ce3-3239-4ccf-a0a6-44e5034bc736","ios":"levelo://app?vid=38014ce3-3239-4ccf-a0a6-44e5034bc736"},"vehicle_type_id":"4","last_reported":1756357851,"current_range_meters":11200,"station_id":"ce4bhl92rcd13ifvqghg","pricing_plan_id":"cebpf4jnsgd1na2vs0mg"},{"bike_id":"10b9bb1d-4b1c-4f5c-bf78-a659488e4700","system_id":"levelo_inurba_marseille","lat":43.262766,"lon":5.398874,"is_reserved":false,"is_disabled":false,"rental_uris":{"android":"levelo://app?vid=10b9bb1d-4b1c-4f5c-bf78-a659488e4700","ios":"levelo://app?vid=10b9bb1d-4b1c-4f5c-bf78-a659488e4700"},"vehicle_type_id":"4","last_reported":1756357851,"current_range_meters":11200,"station_id":"","pricing_plan_id":"cebpf4jnsgd1na2vs0mg"},{"bike_id":"07f3c348-251f-475b-bdcc-b91dd94163be","system_id":"levelo_inurba_marseille","lat":43.21745,"lon":5.34599,"is_reserved":false,"is_disabled":true,"rental_uris":{"android":"levelo://app?vid=07f3c348-251f-475b-bdcc-b91dd94163be","ios":"levelo://app?vid=07f3c348-251f-475b-bdcc-b91dd94163be"},"vehicle_type_id":"4","last_reported":1756357851,"current_range_meters":11200,"station_id":"st_cvj6r9ubvosntc0bgbag","pricing_plan_id":"cebpf4jnsgd1na2vs0mg"},{"bike_id":"013e62a3-1f4c-4b29-a2db-c25e59913baa","system_id":"levelo_inurba_marseille","lat":43.28872,"lon":5.43373,"is_reserved":false,"is_disabled":false,"rental_uris":{"android":"levelo://app?vid=013e62a3-1f4c-4b29-a2db-c25e59913baa","ios":"levelo://app?vid=013e62a3-1f4c-4b29-a2db-c25e59913baa"},"vehicle_type_id":"4","last_reported":1756357851,"current_range_meters":11600,"station_id":"","pricing_plan_id":"cebpf4jnsgd1na2vs0mg"},{"bike_id":"ff026c57-bc57-4fc4-9e8b-5d578db6903d","system_id":"levelo_inurba_marseille","lat":43.24064,"lon":5.37742,"is_reserved":false,"is_disabled":false,"rental_uris":{"android":"levelo://app?vid=ff026c57-bc57-4fc4-9e8b-5d578db6903d","ios":"levelo://app?vid=ff026c57-bc57-4fc4-9e8b-5d578db6903d"},"vehicle_type_id":"4","last_reported":1756357851,"current_range_meters":11600,"station_id":"ce4bhnp2rcd13ifvqgvg","pricing_plan_id":"cebpf4jnsgd1na2vs0mg"},{"bike_id":"8d3d5947-84ea-4cd6-b722-368b0b69afde","system_id":"levelo_inurba_marseille","lat":43.24694,"lon":5.38139,"is_reserved":false,"is_disabled":false,"rental_uris":{"android":"levelo://app?vid=8d3d5947-84ea-4cd6-b722-368b0b69afde","ios":"levelo://app?vid=8d3d5947-84ea-4cd6-b722-368b0b69afde"},"vehicle_type_id":"4","last_reported":1756357851,"current_range_meters":11600,"station_id":"ce4bhih2rcd13ifvqfr0","pricing_plan_id":"cebpf4jnsgd1na2vs0mg"},{"bike_id":"98c96329-3edb-4eec-a3f6-606d0522135f","system_id":"levelo_inurba_marseille","lat":43.211995,"lon":5.350659,"is_reserved":false,"is_disabled":false,"rental_uris":{"android":"levelo://app?vid=98c96329-3edb-4eec-a3f6-606d0522135f","ios":"levelo://app?vid=98c96329-3edb-4eec-a3f6-606d0522135f"},"vehicle_type_id":"4","last_reported":1756357851,"current_range_meters":11600,"station_id":"st_cvj6sg6p6f1abm77japg","pricing_plan_id":"cebpf4jnsgd1na2vs0mg"},{"bike_id":"f5ee2120-b8b8-472b-9bcc-efc824cd719b","system_id":"levelo_inurba_marseille","lat":43.29551,"lon":5.42273,"is_reserved":false,"is_disabled":false,"rental_uris":{"android":"levelo://app?vid=f5ee2120-b8b8-472b-9bcc-efc824cd719b","ios":"levelo://app?vid=f5ee2120-b8b8-472b-9bcc-efc824cd719b"},"vehicle_type_id":"4","last_reported":1756357851,"current_range_meters":11600,"station_id":"ce4bhph2rcd13ifvqhdg","pricing_plan_id":"cebpf4jnsgd1na2vs0mg"},{"bike_id":"11a38367-deb6-4141-b3c1-0cba6ea43c8d","system_id":"levelo_inurba_marseille","lat":43.290007,"lon":5.35621,"is_reserved":false,"is_disabled":true,"rental_uris":{"android":"levelo://app?vid=11a38367-deb6-4141-b3c1-0cba6ea43c8d","ios":"levelo://app?vid=11a38367-deb6-4141-b3c1-0cba6ea43c8d"},"vehicle_type_id":"4","last_reported":1756357851,"current_range_meters":12000,"station_id":"ce4bhb92rcd13ifvqen0","pricing_plan_id":"cebpf4jnsgd1na2vs0mg"},{"bike_id":"5c26a54e-1e97-4ad3-a16d-614ad930b130","system_id":"levelo_inurba_marseille","lat":43.321012,"lon":5.367748,"is_reserved":false,"is_disabled":false,"rental_uris":{"android":"levelo://app?vid=5c26a54e-1e97-4ad3-a16d-614ad930b130","ios":"levelo://app?vid=5c26a54e-1e97-4ad3-a16d-614ad930b130"},"vehicle_type_id":"4","last_reported":1756357851,"current_range_meters":12000,"station_id":"ce4bhrh2rcd13ifvqhug","pricing_plan_id":"cebpf4jnsgd1na2vs0mg"},{"bike_id":"99a1f6e8-f9f4-47c7-aa48-e7c25f733bb1","system_id":"levelo_inurba_marseille","lat":43.24642,"lon":5.43138,"is_reserved":false,"is_disabled":false,"rental_uris":{"android":"levelo://app?vid=99a1f6e8-f9f4-47c7-aa48-e7c25f733bb1","ios":"levelo://app?vid=99a1f6e8-f9f4-47c7-aa48-e7c25f733bb1"},"vehicle_type_id":"4","last_reported":1756357851,"current_range_meters":12000,"station_id":"st_d2m6c4gdas8pm72e190g","pricing_plan_id":"cebpf4jnsgd1na2vs0mg"},{"bike_id":"06d7a368-7156-454c-a01c-b0a0ebbf9e53","system_id":"levelo_inurba_marseille","lat":43.27944,"lon":5.38721,"is_reserved":false,"is_disabled":false,"rental_uris":{"android":"levelo://app?vid=06d7a368-7156-454c-a01c-b0a0ebbf9e53","ios":"levelo://app?vid=06d7a368-7156-454c-a01c-b0a0ebbf9e53"},"vehicle_type_id":"4","last_reported":1756357851,"current_range_meters":12000,"station_id":"ce4bhg12rcd13ifvqf80","pricing_plan_id":"cebpf4jnsgd1na2vs0mg"},{"bike_id":"3d399bfe-7fbc-42b7-a070-a73b13325d3f","system_id":"levelo_inurba_marseille","lat":43.231038,"lon":5.354878,"is_reserved":false,"is_disabled":false,"rental_uris":{"android":"levelo://app?vid=3d399bfe-7fbc-42b7-a070-a73b13325d3f","ios":"levelo://app?vid=3d399bfe-7fbc-42b7-a070-a73b13325d3f"},"vehicle_type_id":"4","last_reported":1756357851,"current_range_meters":12000,"station_id":"","pricing_plan_id":"cebpf4jnsgd1na2vs0mg"},{"bike_id":"07a20f3a-56e5-4ad8-9408-6e989d6fc4b4","system_id":"levelo_inurba_marseille","lat":43.284323,"lon":5.391948,"is_reserved":false,"is_disabled":false,"rental_uris":{"android":"levelo://app?vid=07a20f3a-56e5-4ad8-9408-6e989d6fc4b4","ios":"levelo://app?vid=07a20f3a-56e5-4ad8-9408-6e989d6fc4b4"},"vehicle_type_id":"4","last_reported":1756357851,"current_range_meters":12000,"station_id":"ce4bhoh2rcd13ifvqh5g","pricing_plan_id":"cebpf4jnsgd1na2vs0mg"},{"bike_id":"61e0aeb8-5699-47ea-a3ed-bf5e89f7b855","system_id":"levelo_inurba_marseille","lat":43.28116,"lon":5.37857,"is_reserved":false,"is_disabled":false,"rental_uris":{"android":"levelo://app?vid=61e0aeb8-5699-47ea-a3ed-bf5e89f7b855","ios":"levelo://app?vid=61e0aeb8-5699-47ea-a3ed-bf5e89f7b855"},"vehicle_type_id":"4","last_reported":1756357851,"current_range_meters":12000,"station_id":"ce4bha12rcd13ifvqee0","pricing_plan_id":"cebpf4jnsgd1na2vs0mg"},{"bike_id":"19eabc24-80d3-4327-b947-9ec7f85cd494","system_id":"levelo_inurba_marseille","lat":43.27332,"lon":5.39093,"is_reserved":false,"is_disabled":true,"rental_uris":{"android":"levelo://app?vid=19eabc24-80d3-4327-b947-9ec7f85cd494","ios":"levelo://app?vid=19eabc24-80d3-4327-b947-9ec7f85cd494"},"vehicle_type_id":"4","last_reported":1756357851,"current_range_meters":12400,"station_id":"ce4bhgp2rcd13ifvqfe0","pricing_plan_id":"cebpf4jnsgd1na2vs0mg"},{"bike_id":"f67c8e5e-7af8-4847-a4ce-1e12088b4291","system_id":"levelo_inurba_marseille","lat":43.33026,"lon":5.39247,"is_reserved":false,"is_disabled":false,"rental_uris":{"android":"levelo://app?vid=f67c8e5e-7af8-4847-a4ce-1e12088b4291","ios":"levelo://app?vid=f67c8e5e-7af8-4847-a4ce-1e12088b4291"},"vehicle_type_id":"4","last_reported":1756357851,"current_range_meters":12400,"station_id":"","pricing_plan_id":"cebpf4jnsgd1na2vs0mg"},{"bike_id":"359102ea-c324-4464-ab7b-c8fc55e6b44d","system_id":"levelo_inurba_marseille","lat":43.29196,"lon":5.35795,"is_reserved":false,"is_disabled":false,"rental_uris":{"android":"levelo://app?vid=359102ea-c324-4464-ab7b-c8fc55e6b44d","ios":"levelo://app?vid=359102ea-c324-4464-ab7b-c8fc55e6b44d"},"vehicle_type_id":"4","last_reported":1756357851,"current_range_meters":12400,"station_id":"ce4bhb12rcd13ifvqel0","pricing_plan_id":"cebpf4jnsgd1na2vs0mg"},{"bike_id":"6d12ec8b-28b9-42cf-8ccf-f15298987f34","system_id":"levelo_inurba_marseille","lat":43.30792,"lon":5.38159,"is_reserved":false,"is_disabled":false,"rental_uris":{"android":"levelo://app?vid=6d12ec8b-28b9-42cf-8ccf-f15298987f34","ios":"levelo://app?vid=6d12ec8b-28b9-42cf-8ccf-f15298987f34"},"vehicle_type_id":"4","last_reported":1756357851,"current_range_meters":12400,"station_id":"ce4bgt12rcd13ifvqce0","pricing_plan_id":"cebpf4jnsgd1na2vs0mg"},{"bike_id":"e62adc39-0802-4ba8-addd-7e20a90f00f1","system_id":"levelo_inurba_marseille","lat":43.25734,"lon":5.41095,"is_reserved":false,"is_disabled":false,"rental_uris":{"android":"levelo://app?vid=e62adc39-0802-4ba8-addd-7e20a90f00f1","ios":"levelo://app?vid=e62adc39-0802-4ba8-addd-7e20a90f00f1"},"vehicle_type_id":"4","last_reported":1756357851,"current_range_meters":12400,"station_id":"ce4bhkp2rcd13ifvqgd0","pricing_plan_id":"cebpf4jnsgd1na2vs0mg"},{"bike_id":"729739b4-f167-4b2d-a0cd-f111e90e83bc","system_id":"levelo_inurba_marseille","lat":43.27295,"lon":5.36287,"is_reserved":false,"is_disabled":false,"rental_uris":{"android":"levelo://app?vid=729739b4-f167-4b2d-a0cd-f111e90e83bc","ios":"levelo://app?vid=729739b4-f167-4b2d-a0cd-f111e90e83bc"},"vehicle_type_id":"4","last_reported":1756357851,"current_range_meters":12400,"station_id":"","pricing_plan_id":"cebpf4jnsgd1na2vs0mg"},{"bike_id":"23f58a12-6af4-4be2-95d2-332c92e0e560","system_id":"levelo_inurba_marseille","lat":43.26219,"lon":5.40468,"is_reserved":false,"is_disabled":false,"rental_uris":{"android":"levelo://app?vid=23f58a12-6af4-4be2-95d2-332c92e0e560","ios":"levelo://app?vid=23f58a12-6af4-4be2-95d2-332c92e0e560"},"vehicle_type_id":"4","last_reported":1756357851,"current_range_meters":12400,"station_id":"ce4bhmh2rcd13ifvqgmg","pricing_plan_id":"cebpf4jnsgd1na2vs0mg"},{"bike_id":"6605fc1c-ad9a-4105-930a-c87dc2602b87","system_id":"levelo_inurba_marseille","lat":43.30467,"lon":5.37909,"is_reserved":false,"is_disabled":false,"rental_uris":{"android":"levelo://app?vid=6605fc1c-ad9a-4105-930a-c87dc2602b87","ios":"levelo://app?vid=6605fc1c-ad9a-4105-930a-c87dc2602b87"},"vehicle_type_id":"4","last_reported":1756357851,"current_range_meters":12800,"station_id":"ce4bgup2rcd13ifvqcn0","pricing_plan_id":"cebpf4jnsgd1na2vs0mg"},{"bike_id":"44d9d2d8-1bb9-431f-bdd1-622d8e0ea90c","system_id":"levelo_inurba_marseille","lat":43.262451,"lon":5.396732,"is_reserved":false,"is_disabled":false,"rental_uris":{"android":"levelo://app?vid=44d9d2d8-1bb9-431f-bdd1-622d8e0ea90c","ios":"levelo://app?vid=44d9d2d8-1bb9-431f-bdd1-622d8e0ea90c"},"vehicle_type_id":"4","last_reported":1756357851,"current_range_meters":12800,"station_id":"","pricing_plan_id":"cebpf4jnsgd1na2vs0mg"},{"bike_id":"33ffe8ad-3e71-485d-af01-f47a9c2c9077","system_id":"levelo_inurba_marseille","lat":43.28867,"lon":5.39306,"is_reserved":false,"is_disabled":false,"rental_uris":{"android":"levelo://app?vid=33ffe8ad-3e71-485d-af01-f47a9c2c9077","ios":"levelo://app?vid=33ffe8ad-3e71-485d-af01-f47a9c2c9077"},"vehicle_type_id":"4","last_reported":1756357851,"current_range_meters":12800,"station_id":"ce4bh2p2rcd13ifvqdi0","pricing_plan_id":"cebpf4jnsgd1na2vs0mg"},{"bike_id":"91a18ddd-16a6-4be8-9f6d-05b082ff6624","system_id":"levelo_inurba_marseille","lat":43.284601,"lon":5.358977,"is_reserved":false,"is_disabled":false,"rental_uris":{"android":"levelo://app?vid=91a18ddd-16a6-4be8-9f6d-05b082ff6624","ios":"levelo://app?vid=91a18ddd-16a6-4be8-9f6d-05b082ff6624"},"vehicle_type_id":"4","last_reported":1756357851,"current_range_meters":12800,"station_id":"ce4bhah2rcd13ifvqei0","pricing_plan_id":"cebpf4jnsgd1na2vs0mg"},{"bike_id":"d1e0c5c0-2021-47c7-80fe-e78f82330db3","system_id":"levelo_inurba_marseille","lat":43.212149,"lon":5.35065,"is_reserved":false,"is_disabled":false,"rental_uris":{"android":"levelo://app?vid=d1e0c5c0-2021-47c7-80fe-e78f82330db3","ios":"levelo://app?vid=d1e0c5c0-2021-47c7-80fe-e78f82330db3"},"vehicle_type_id":"4","last_reported":1756357851,"current_range_meters":12800,"station_id":"st_cvj6sg6p6f1abm77japg","pricing_plan_id":"cebpf4jnsgd1na2vs0mg"},{"bike_id":"6e960ddb-9219-467a-922d-e72c40cbd813","system_id":"levelo_inurba_marseille","lat":43.28507,"lon":5.38555,"is_reserved":false,"is_disabled":false,"rental_uris":{"android":"levelo://app?vid=6e960ddb-9219-467a-922d-e72c40cbd813","ios":"levelo://app?vid=6e960ddb-9219-467a-922d-e72c40cbd813"},"vehicle_type_id":"4","last_reported":1756357851,"current_range_meters":12800,"station_id":"ce4bh8p2rcd13ifvqeb0","pricing_plan_id":"cebpf4jnsgd1na2vs0mg"},{"bike_id":"5c2a547a-042f-4d69-adea-bd78d220979c","system_id":"levelo_inurba_marseille","lat":43.2407,"lon":5.37749,"is_reserved":false,"is_disabled":false,"rental_uris":{"android":"levelo://app?vid=5c2a547a-042f-4d69-adea-bd78d220979c","ios":"levelo://app?vid=5c2a547a-042f-4d69-adea-bd78d220979c"},"vehicle_type_id":"4","last_reported":1756357851,"current_range_meters":12800,"station_id":"ce4bhnp2rcd13ifvqgvg","pricing_plan_id":"cebpf4jnsgd1na2vs0mg"},{"bike_id":"3dff11d5-3872-4ffe-8cce-b5631d6c6058","system_id":"levelo_inurba_marseille","lat":43.32059,"lon":5.38603,"is_reserved":false,"is_disabled":false,"rental_uris":{"android":"levelo://app?vid=3dff11d5-3872-4ffe-8cce-b5631d6c6058","ios":"levelo://app?vid=3dff11d5-3872-4ffe-8cce-b5631d6c6058"},"vehicle_type_id":"4","last_reported":1756357851,"current_range_meters":12800,"station_id":"","pricing_plan_id":"cebpf4jnsgd1na2vs0mg"},{"bike_id":"ddc762ff-52be-4836-9e13-79d383c1aeb4","system_id":"levelo_inurba_marseille","lat":43.286945,"lon":5.387336,"is_reserved":false,"is_disabled":false,"rental_uris":{"android":"levelo://app?vid=ddc762ff-52be-4836-9e13-79d383c1aeb4","ios":"levelo://app?vid=ddc762ff-52be-4836-9e13-79d383c1aeb4"},"vehicle_type_id":"4","last_reported":1756357851,"current_range_meters":12800,"station_id":"ce4bh492rcd13ifvqdug","pricing_plan_id":"cebpf4jnsgd1na2vs0mg"},{"bike_id":"8498fa8e-4f91-459d-a0f4-2fbed7e50f59","system_id":"levelo_inurba_marseille","lat":43.28709,"lon":5.39958,"is_reserved":false,"is_disabled":false,"rental_uris":{"android":"levelo://app?vid=8498fa8e-4f91-459d-a0f4-2fbed7e50f59","ios":"levelo://app?vid=8498fa8e-4f91-459d-a0f4-2fbed7e50f59"},"vehicle_type_id":"4","last_reported":1756357851,"current_range_meters":12800,"station_id":"ce4bho92rcd13ifvqh3g","pricing_plan_id":"cebpf4jnsgd1na2vs0mg"},{"bike_id":"48bce130-f4d9-4be0-b479-1ef9eb4281d3","system_id":"levelo_inurba_marseille","lat":43.338825,"lon":5.355199,"is_reserved":false,"is_disabled":false,"rental_uris":{"android":"levelo://app?vid=48bce130-f4d9-4be0-b479-1ef9eb4281d3","ios":"levelo://app?vid=48bce130-f4d9-4be0-b479-1ef9eb4281d3"},"vehicle_type_id":"4","last_reported":1756357851,"current_range_meters":12800,"station_id":"","pricing_plan_id":"cebpf4jnsgd1na2vs0mg"},{"bike_id":"c67682e4-ad86-4b65-b4ef-e774963b7e60","system_id":"levelo_inurba_marseille","lat":43.231966,"lon":5.355501,"is_reserved":false,"is_disabled":false,"rental_uris":{"android":"levelo://app?vid=c67682e4-ad86-4b65-b4ef-e774963b7e60","ios":"levelo://app?vid=c67682e4-ad86-4b65-b4ef-e774963b7e60"},"vehicle_type_id":"4","last_reported":1756357851,"current_range_meters":13600,"station_id":"ce4bhu92rcd13ifvqi70","pricing_plan_id":"cebpf4jnsgd1na2vs0mg"},{"bike_id":"4cb373c2-c866-4ffe-be1f-de93e275c529","system_id":"levelo_inurba_marseille","lat":43.290175,"lon":5.367613,"is_reserved":false,"is_disabled":false,"rental_uris":{"android":"levelo://app?vid=4cb373c2-c866-4ffe-be1f-de93e275c529","ios":"levelo://app?vid=4cb373c2-c866-4ffe-be1f-de93e275c529"},"vehicle_type_id":"4","last_reported":1756357851,"current_range_meters":13600,"station_id":"","pricing_plan_id":"cebpf4jnsgd1na2vs0mg"},{"bike_id":"9a14b610-6214-4fbe-bcd4-79ea0b737e0d","system_id":"levelo_inurba_marseille","lat":43.2588,"lon":5.39886,"is_reserved":false,"is_disabled":false,"rental_uris":{"android":"levelo://app?vid=9a14b610-6214-4fbe-bcd4-79ea0b737e0d","ios":"levelo://app?vid=9a14b610-6214-4fbe-bcd4-79ea0b737e0d"},"vehicle_type_id":"4","last_reported":1756357851,"current_range_meters":13600,"station_id":"ce4bhl92rcd13ifvqghg","pricing_plan_id":"cebpf4jnsgd1na2vs0mg"},{"bike_id":"6772850d-2dee-4ad5-893e-2335ed13d3ef","system_id":"levelo_inurba_marseille","lat":43.3135,"lon":5.36697,"is_reserved":false,"is_disabled":false,"rental_uris":{"android":"levelo://app?vid=6772850d-2dee-4ad5-893e-2335ed13d3ef","ios":"levelo://app?vid=6772850d-2dee-4ad5-893e-2335ed13d3ef"},"vehicle_type_id":"4","last_reported":1756357851,"current_range_meters":13600,"station_id":"ce4bgr92rcd13ifvqc6g","pricing_plan_id":"cebpf4jnsgd1na2vs0mg"},{"bike_id":"d810acf0-5bd2-4bf1-848d-31cd30d105e6","system_id":"levelo_inurba_marseille","lat":43.269831,"lon":5.392782,"is_reserved":false,"is_disabled":false,"rental_uris":{"android":"levelo://app?vid=d810acf0-5bd2-4bf1-848d-31cd30d105e6","ios":"levelo://app?vid=d810acf0-5bd2-4bf1-848d-31cd30d105e6"},"vehicle_type_id":"4","last_reported":1756357851,"current_range_meters":13600,"station_id":"","pricing_plan_id":"cebpf4jnsgd1na2vs0mg"},{"bike_id":"e7adfa58-9cff-4ae4-9f5c-c741f262e33a","system_id":"levelo_inurba_marseille","lat":43.28775,"lon":5.37922,"is_reserved":false,"is_disabled":false,"rental_uris":{"android":"levelo://app?vid=e7adfa58-9cff-4ae4-9f5c-c741f262e33a","ios":"levelo://app?vid=e7adfa58-9cff-4ae4-9f5c-c741f262e33a"},"vehicle_type_id":"4","last_reported":1756357851,"current_range_meters":13600,"station_id":"","pricing_plan_id":"cebpf4jnsgd1na2vs0mg"},{"bike_id":"0cc2ba36-2773-44c0-ae42-a8723d5b9aa2","system_id":"levelo_inurba_marseille","lat":43.32338,"lon":5.406206,"is_reserved":false,"is_disabled":false,"rental_uris":{"android":"levelo://app?vid=0cc2ba36-2773-44c0-ae42-a8723d5b9aa2","ios":"levelo://app?vid=0cc2ba36-2773-44c0-ae42-a8723d5b9aa2"},"vehicle_type_id":"4","last_reported":1756357851,"current_range_meters":13600,"station_id":"ce4bhq92rcd13ifvqhjg","pricing_plan_id":"cebpf4jnsgd1na2vs0mg"},{"bike_id":"9c401436-7aa7-494a-9cc1-967079e60b6f","system_id":"levelo_inurba_marseille","lat":43.259404,"lon":5.408985,"is_reserved":false,"is_disabled":false,"rental_uris":{"android":"levelo://app?vid=9c401436-7aa7-494a-9cc1-967079e60b6f","ios":"levelo://app?vid=9c401436-7aa7-494a-9cc1-967079e60b6f"},"vehicle_type_id":"4","last_reported":1756357851,"current_range_meters":14000,"station_id":"ce4bhm92rcd13ifvqglg","pricing_plan_id":"cebpf4jnsgd1na2vs0mg"},{"bike_id":"e418fb94-db17-4127-be4f-92de47e467a4","system_id":"levelo_inurba_marseille","lat":43.26764,"lon":5.39431,"is_reserved":false,"is_disabled":false,"rental_uris":{"android":"levelo://app?vid=e418fb94-db17-4127-be4f-92de47e467a4","ios":"levelo://app?vid=e418fb94-db17-4127-be4f-92de47e467a4"},"vehicle_type_id":"4","last_reported":1756357851,"current_range_meters":13600,"station_id":"ce4bhh12rcd13ifvqfg0","pricing_plan_id":"cebpf4jnsgd1na2vs0mg"},{"bike_id":"91db6367-0818-4789-a8cd-90e86676342d","system_id":"levelo_inurba_marseille","lat":43.323347,"lon":5.406179,"is_reserved":false,"is_disabled":false,"rental_uris":{"android":"levelo://app?vid=91db6367-0818-4789-a8cd-90e86676342d","ios":"levelo://app?vid=91db6367-0818-4789-a8cd-90e86676342d"},"vehicle_type_id":"4","last_reported":1756357851,"current_range_meters":14400,"station_id":"ce4bhq92rcd13ifvqhjg","pricing_plan_id":"cebpf4jnsgd1na2vs0mg"},{"bike_id":"314e5b61-0440-43b6-a483-16d59e93a622","system_id":"levelo_inurba_marseille","lat":43.28504,"lon":5.38553,"is_reserved":false,"is_disabled":false,"rental_uris":{"android":"levelo://app?vid=314e5b61-0440-43b6-a483-16d59e93a622","ios":"levelo://app?vid=314e5b61-0440-43b6-a483-16d59e93a622"},"vehicle_type_id":"4","last_reported":1756357851,"current_range_meters":14400,"station_id":"ce4bh8p2rcd13ifvqeb0","pricing_plan_id":"cebpf4jnsgd1na2vs0mg"},{"bike_id":"23ae6fed-deff-411b-8b6e-f95e32ccd4d0","system_id":"levelo_inurba_marseille","lat":43.32131,"lon":5.36767,"is_reserved":false,"is_disabled":false,"rental_uris":{"android":"levelo://app?vid=23ae6fed-deff-411b-8b6e-f95e32ccd4d0","ios":"levelo://app?vid=23ae6fed-deff-411b-8b6e-f95e32ccd4d0"},"vehicle_type_id":"4","last_reported":1756357851,"current_range_meters":14400,"station_id":"ce4bhrh2rcd13ifvqhug","pricing_plan_id":"cebpf4jnsgd1na2vs0mg"},{"bike_id":"9f03e1e2-4e9a-43c4-963b-4baf28706312","system_id":"levelo_inurba_marseille","lat":43.304801,"lon":5.367576,"is_reserved":false,"is_disabled":false,"rental_uris":{"android":"levelo://app?vid=9f03e1e2-4e9a-43c4-963b-4baf28706312","ios":"levelo://app?vid=9f03e1e2-4e9a-43c4-963b-4baf28706312"},"vehicle_type_id":"4","last_reported":1756357851,"current_range_meters":14400,"station_id":"","pricing_plan_id":"cebpf4jnsgd1na2vs0mg"},{"bike_id":"50ffaa2c-7bf6-45b3-8b8e-135dbae3a90b","system_id":"levelo_inurba_marseille","lat":43.27971,"lon":5.38718,"is_reserved":false,"is_disabled":false,"rental_uris":{"android":"levelo://app?vid=50ffaa2c-7bf6-45b3-8b8e-135dbae3a90b","ios":"levelo://app?vid=50ffaa2c-7bf6-45b3-8b8e-135dbae3a90b"},"vehicle_type_id":"4","last_reported":1756357851,"current_range_meters":14400,"station_id":"ce4bhg12rcd13ifvqf80","pricing_plan_id":"cebpf4jnsgd1na2vs0mg"},{"bike_id":"b6b271e2-82dd-4664-b5fa-347b63e52291","system_id":"levelo_inurba_marseille","lat":43.33755,"lon":5.37441,"is_reserved":false,"is_disabled":false,"rental_uris":{"android":"levelo://app?vid=b6b271e2-82dd-4664-b5fa-347b63e52291","ios":"levelo://app?vid=b6b271e2-82dd-4664-b5fa-347b63e52291"},"vehicle_type_id":"4","last_reported":1756357851,"current_range_meters":14400,"station_id":"","pricing_plan_id":"cebpf4jnsgd1na2vs0mg"},{"bike_id":"156465f3-28c4-4423-8a25-3cae51bd34b9","system_id":"levelo_inurba_marseille","lat":43.29041,"lon":5.3995,"is_reserved":false,"is_disabled":false,"rental_uris":{"android":"levelo://app?vid=156465f3-28c4-4423-8a25-3cae51bd34b9","ios":"levelo://app?vid=156465f3-28c4-4423-8a25-3cae51bd34b9"},"vehicle_type_id":"4","last_reported":1756357851,"current_range_meters":14400,"station_id":"ce4bh392rcd13ifvqdm0","pricing_plan_id":"cebpf4jnsgd1na2vs0mg"},{"bike_id":"ffe6df59-3fc1-4d81-9326-f6f6418e7718","system_id":"levelo_inurba_marseille","lat":43.29754,"lon":5.37324,"is_reserved":false,"is_disabled":false,"rental_uris":{"android":"levelo://app?vid=ffe6df59-3fc1-4d81-9326-f6f6418e7718","ios":"levelo://app?vid=ffe6df59-3fc1-4d81-9326-f6f6418e7718"},"vehicle_type_id":"4","last_reported":1756357851,"current_range_meters":14800,"station_id":"","pricing_plan_id":"cebpf4jnsgd1na2vs0mg"},{"bike_id":"43485147-2ceb-4191-89c1-80fb0a5527a5","system_id":"levelo_inurba_marseille","lat":43.292763,"lon":5.368495,"is_reserved":false,"is_disabled":false,"rental_uris":{"android":"levelo://app?vid=43485147-2ceb-4191-89c1-80fb0a5527a5","ios":"levelo://app?vid=43485147-2ceb-4191-89c1-80fb0a5527a5"},"vehicle_type_id":"4","last_reported":1756357851,"current_range_meters":14800,"station_id":"ce4bhbp2rcd13ifvqesg","pricing_plan_id":"cebpf4jnsgd1na2vs0mg"},{"bike_id":"7aa62654-cac6-483e-9d4f-f026b078f0a0","system_id":"levelo_inurba_marseille","lat":43.30159,"lon":5.38078,"is_reserved":false,"is_disabled":false,"rental_uris":{"android":"levelo://app?vid=7aa62654-cac6-483e-9d4f-f026b078f0a0","ios":"levelo://app?vid=7aa62654-cac6-483e-9d4f-f026b078f0a0"},"vehicle_type_id":"4","last_reported":1756357851,"current_range_meters":14800,"station_id":"ce4bgjp2rcd13ifvqbh0","pricing_plan_id":"cebpf4jnsgd1na2vs0mg"},{"bike_id":"0793473c-7c91-4d1f-8ffb-c00486129b1d","system_id":"levelo_inurba_marseille","lat":43.30107,"lon":5.39077,"is_reserved":false,"is_disabled":true,"rental_uris":{"android":"levelo://app?vid=0793473c-7c91-4d1f-8ffb-c00486129b1d","ios":"levelo://app?vid=0793473c-7c91-4d1f-8ffb-c00486129b1d"},"vehicle_type_id":"4","last_reported":1756357851,"current_range_meters":14800,"station_id":"ce4bh192rcd13ifvqdb0","pricing_plan_id":"cebpf4jnsgd1na2vs0mg"},{"bike_id":"01acadab-cadc-479f-8160-13b317197971","system_id":"levelo_inurba_marseille","lat":43.28108,"lon":5.37828,"is_reserved":false,"is_disabled":false,"rental_uris":{"android":"levelo://app?vid=01acadab-cadc-479f-8160-13b317197971","ios":"levelo://app?vid=01acadab-cadc-479f-8160-13b317197971"},"vehicle_type_id":"4","last_reported":1756357851,"current_range_meters":15200,"station_id":"ce4bha12rcd13ifvqee0","pricing_plan_id":"cebpf4jnsgd1na2vs0mg"},{"bike_id":"8df4d72a-2534-4225-b0d0-5b48bd4c7385","system_id":"levelo_inurba_marseille","lat":43.29417,"lon":5.39739,"is_reserved":false,"is_disabled":false,"rental_uris":{"android":"levelo://app?vid=8df4d72a-2534-4225-b0d0-5b48bd4c7385","ios":"levelo://app?vid=8df4d72a-2534-4225-b0d0-5b48bd4c7385"},"vehicle_type_id":"4","last_reported":1756357851,"current_range_meters":16000,"station_id":"ce4bh3h2rcd13ifvqdo0","pricing_plan_id":"cebpf4jnsgd1na2vs0mg"},{"bike_id":"d251262e-bd9f-4f68-a255-2df35b58189d","system_id":"levelo_inurba_marseille","lat":43.29296,"lon":5.36856,"is_reserved":false,"is_disabled":false,"rental_uris":{"android":"levelo://app?vid=d251262e-bd9f-4f68-a255-2df35b58189d","ios":"levelo://app?vid=d251262e-bd9f-4f68-a255-2df35b58189d"},"vehicle_type_id":"4","last_reported":1756357851,"current_range_meters":16000,"station_id":"ce4bhbp2rcd13ifvqesg","pricing_plan_id":"cebpf4jnsgd1na2vs0mg"},{"bike_id":"f81d9078-265a-4cc3-81fe-a4e37d459336","system_id":"levelo_inurba_marseille","lat":43.26692,"lon":5.38288,"is_reserved":false,"is_disabled":true,"rental_uris":{"android":"levelo://app?vid=f81d9078-265a-4cc3-81fe-a4e37d459336","ios":"levelo://app?vid=f81d9078-265a-4cc3-81fe-a4e37d459336"},"vehicle_type_id":"4","last_reported":1756357851,"current_range_meters":16000,"station_id":"ce4bhg92rcd13ifvqf90","pricing_plan_id":"cebpf4jnsgd1na2vs0mg"},{"bike_id":"1091f287-02ee-4a66-888b-59c35fd65791","system_id":"levelo_inurba_marseille","lat":43.231951,"lon":5.355513,"is_reserved":false,"is_disabled":false,"rental_uris":{"android":"levelo://app?vid=1091f287-02ee-4a66-888b-59c35fd65791","ios":"levelo://app?vid=1091f287-02ee-4a66-888b-59c35fd65791"},"vehicle_type_id":"4","last_reported":1756357851,"current_range_meters":16000,"station_id":"ce4bhu92rcd13ifvqi70","pricing_plan_id":"cebpf4jnsgd1na2vs0mg"},{"bike_id":"ec0f9f0d-0796-42ac-9cf5-bb8596cdf342","system_id":"levelo_inurba_marseille","lat":43.21198,"lon":5.35068,"is_reserved":false,"is_disabled":false,"rental_uris":{"android":"levelo://app?vid=ec0f9f0d-0796-42ac-9cf5-bb8596cdf342","ios":"levelo://app?vid=ec0f9f0d-0796-42ac-9cf5-bb8596cdf342"},"vehicle_type_id":"4","last_reported":1756357851,"current_range_meters":16000,"station_id":"","pricing_plan_id":"cebpf4jnsgd1na2vs0mg"},{"bike_id":"831a2354-0919-4530-8e5a-84c32dcc2c03","system_id":"levelo_inurba_marseille","lat":43.272052,"lon":5.391826,"is_reserved":false,"is_disabled":false,"rental_uris":{"android":"levelo://app?vid=831a2354-0919-4530-8e5a-84c32dcc2c03","ios":"levelo://app?vid=831a2354-0919-4530-8e5a-84c32dcc2c03"},"vehicle_type_id":"4","last_reported":1756357851,"current_range_meters":16000,"station_id":"","pricing_plan_id":"cebpf4jnsgd1na2vs0mg"},{"bike_id":"cddd7129-2972-4408-becb-877207b06e82","system_id":"levelo_inurba_marseille","lat":43.284625,"lon":5.358731,"is_reserved":false,"is_disabled":false,"rental_uris":{"android":"levelo://app?vid=cddd7129-2972-4408-becb-877207b06e82","ios":"levelo://app?vid=cddd7129-2972-4408-becb-877207b06e82"},"vehicle_type_id":"4","last_reported":1756357851,"current_range_meters":16000,"station_id":"ce4bhah2rcd13ifvqei0","pricing_plan_id":"cebpf4jnsgd1na2vs0mg"},{"bike_id":"e26e264a-ce3c-445c-ad42-2ecb68c24979","system_id":"levelo_inurba_marseille","lat":43.23163,"lon":5.43717,"is_reserved":false,"is_disabled":false,"rental_uris":{"android":"levelo://app?vid=e26e264a-ce3c-445c-ad42-2ecb68c24979","ios":"levelo://app?vid=e26e264a-ce3c-445c-ad42-2ecb68c24979"},"vehicle_type_id":"4","last_reported":1756357851,"current_range_meters":16000,"station_id":"ce4bhmp2rcd13ifvqgog","pricing_plan_id":"cebpf4jnsgd1na2vs0mg"},{"bike_id":"b8a902ee-665f-4364-8e6c-11516b53590a","system_id":"levelo_inurba_marseille","lat":43.29586,"lon":5.375227,"is_reserved":false,"is_disabled":false,"rental_uris":{"android":"levelo://app?vid=b8a902ee-665f-4364-8e6c-11516b53590a","ios":"levelo://app?vid=b8a902ee-665f-4364-8e6c-11516b53590a"},"vehicle_type_id":"4","last_reported":1756357851,"current_range_meters":16400,"station_id":"","pricing_plan_id":"cebpf4jnsgd1na2vs0mg"},{"bike_id":"615f9cb4-bc08-43f1-87ef-884359fe2e39","system_id":"levelo_inurba_marseille","lat":43.323599,"lon":5.367499,"is_reserved":false,"is_disabled":false,"rental_uris":{"android":"levelo://app?vid=615f9cb4-bc08-43f1-87ef-884359fe2e39","ios":"levelo://app?vid=615f9cb4-bc08-43f1-87ef-884359fe2e39"},"vehicle_type_id":"4","last_reported":1756357851,"current_range_meters":16400,"station_id":"ce4bhsh2rcd13ifvqi2g","pricing_plan_id":"cebpf4jnsgd1na2vs0mg"},{"bike_id":"82d9cb72-f6f8-4fda-b856-2f617fc890ac","system_id":"levelo_inurba_marseille","lat":43.24159,"lon":5.39715,"is_reserved":false,"is_disabled":false,"rental_uris":{"android":"levelo://app?vid=82d9cb72-f6f8-4fda-b856-2f617fc890ac","ios":"levelo://app?vid=82d9cb72-f6f8-4fda-b856-2f617fc890ac"},"vehicle_type_id":"4","last_reported":1756357851,"current_range_meters":16400,"station_id":"ce4bhn12rcd13ifvqgpg","pricing_plan_id":"cebpf4jnsgd1na2vs0mg"},{"bike_id":"9a7edf6e-5f68-421e-a102-2ef5b337d341","system_id":"levelo_inurba_marseille","lat":43.279511,"lon":5.410456,"is_reserved":false,"is_disabled":true,"rental_uris":{"android":"levelo://app?vid=9a7edf6e-5f68-421e-a102-2ef5b337d341","ios":"levelo://app?vid=9a7edf6e-5f68-421e-a102-2ef5b337d341"},"vehicle_type_id":"4","last_reported":1756357851,"current_range_meters":16400,"station_id":"ce4bhnp2rcd13ifvqh0g","pricing_plan_id":"cebpf4jnsgd1na2vs0mg"},{"bike_id":"c374af20-61f7-48e9-9ca3-9d45d119be74","system_id":"levelo_inurba_marseille","lat":43.31506,"lon":5.37288,"is_reserved":false,"is_disabled":false,"rental_uris":{"android":"levelo://app?vid=c374af20-61f7-48e9-9ca3-9d45d119be74","ios":"levelo://app?vid=c374af20-61f7-48e9-9ca3-9d45d119be74"},"vehicle_type_id":"4","last_reported":1756357851,"current_range_meters":16400,"station_id":"ce4bgt12rcd13ifvqcd0","pricing_plan_id":"cebpf4jnsgd1na2vs0mg"},{"bike_id":"4065efaf-7189-487d-b340-7559ec59c7d4","system_id":"levelo_inurba_marseille","lat":43.299871,"lon":5.371711,"is_reserved":false,"is_disabled":true,"rental_uris":{"android":"levelo://app?vid=4065efaf-7189-487d-b340-7559ec59c7d4","ios":"levelo://app?vid=4065efaf-7189-487d-b340-7559ec59c7d4"},"vehicle_type_id":"4","last_reported":1756357851,"current_range_meters":16400,"station_id":"ce4bgr92rcd13ifvqc7g","pricing_plan_id":"cebpf4jnsgd1na2vs0mg"},{"bike_id":"17e913a4-9bad-45a2-a833-803e708ff009","system_id":"levelo_inurba_marseille","lat":43.279741,"lon":5.387191,"is_reserved":false,"is_disabled":false,"rental_uris":{"android":"levelo://app?vid=17e913a4-9bad-45a2-a833-803e708ff009","ios":"levelo://app?vid=17e913a4-9bad-45a2-a833-803e708ff009"},"vehicle_type_id":"4","last_reported":1756357851,"current_range_meters":16400,"station_id":"ce4bhg12rcd13ifvqf80","pricing_plan_id":"cebpf4jnsgd1na2vs0mg"},{"bike_id":"2c246624-962d-4f72-8341-3c6523db29ef","system_id":"levelo_inurba_marseille","lat":43.26606,"lon":5.37296,"is_reserved":false,"is_disabled":true,"rental_uris":{"android":"levelo://app?vid=2c246624-962d-4f72-8341-3c6523db29ef","ios":"levelo://app?vid=2c246624-962d-4f72-8341-3c6523db29ef"},"vehicle_type_id":"4","last_reported":1756357851,"current_range_meters":16400,"station_id":"ce4bhg12rcd13ifvqf70","pricing_plan_id":"cebpf4jnsgd1na2vs0mg"},{"bike_id":"07296681-3400-48d5-88e2-c863a00e5bf3","system_id":"levelo_inurba_marseille","lat":43.22929,"lon":5.35374,"is_reserved":false,"is_disabled":false,"rental_uris":{"android":"levelo://app?vid=07296681-3400-48d5-88e2-c863a00e5bf3","ios":"levelo://app?vid=07296681-3400-48d5-88e2-c863a00e5bf3"},"vehicle_type_id":"4","last_reported":1756357851,"current_range_meters":16400,"station_id":"cpo3532slgdg3j2ikp40","pricing_plan_id":"cebpf4jnsgd1na2vs0mg"},{"bike_id":"258572ab-1841-4f9f-844b-3213e1bf0409","system_id":"levelo_inurba_marseille","lat":43.26228,"lon":5.40447,"is_reserved":false,"is_disabled":false,"rental_uris":{"android":"levelo://app?vid=258572ab-1841-4f9f-844b-3213e1bf0409","ios":"levelo://app?vid=258572ab-1841-4f9f-844b-3213e1bf0409"},"vehicle_type_id":"4","last_reported":1756357851,"current_range_meters":16400,"station_id":"ce4bhmh2rcd13ifvqgmg","pricing_plan_id":"cebpf4jnsgd1na2vs0mg"},{"bike_id":"7f96cfc7-6b62-4cd3-a164-5a1ee471a17d","system_id":"levelo_inurba_marseille","lat":43.30556,"lon":5.36517,"is_reserved":false,"is_disabled":false,"rental_uris":{"android":"levelo://app?vid=7f96cfc7-6b62-4cd3-a164-5a1ee471a17d","ios":"levelo://app?vid=7f96cfc7-6b62-4cd3-a164-5a1ee471a17d"},"vehicle_type_id":"4","last_reported":1756357851,"current_range_meters":16400,"station_id":"ce4bgs12rcd13ifvqcag","pricing_plan_id":"cebpf4jnsgd1na2vs0mg"},{"bike_id":"ed53376a-8c9c-4ff8-9c32-c69f55f82243","system_id":"levelo_inurba_marseille","lat":43.30357,"lon":5.4188,"is_reserved":false,"is_disabled":true,"rental_uris":{"android":"levelo://app?vid=ed53376a-8c9c-4ff8-9c32-c69f55f82243","ios":"levelo://app?vid=ed53376a-8c9c-4ff8-9c32-c69f55f82243"},"vehicle_type_id":"4","last_reported":1756357851,"current_range_meters":16800,"station_id":"ce4bhop2rcd13ifvqh7g","pricing_plan_id":"cebpf4jnsgd1na2vs0mg"},{"bike_id":"e6caca03-e4c1-40ce-9f4e-cc5046f7af92","system_id":"levelo_inurba_marseille","lat":43.319965,"lon":5.381433,"is_reserved":false,"is_disabled":false,"rental_uris":{"android":"levelo://app?vid=e6caca03-e4c1-40ce-9f4e-cc5046f7af92","ios":"levelo://app?vid=e6caca03-e4c1-40ce-9f4e-cc5046f7af92"},"vehicle_type_id":"4","last_reported":1756357851,"current_range_meters":16800,"station_id":"ce4bhr12rcd13ifvqhpg","pricing_plan_id":"cebpf4jnsgd1na2vs0mg"},{"bike_id":"00865bff-72de-47be-acda-9cf6ec16a836","system_id":"levelo_inurba_marseille","lat":43.32107,"lon":5.367776,"is_reserved":false,"is_disabled":false,"rental_uris":{"android":"levelo://app?vid=00865bff-72de-47be-acda-9cf6ec16a836","ios":"levelo://app?vid=00865bff-72de-47be-acda-9cf6ec16a836"},"vehicle_type_id":"4","last_reported":1756357851,"current_range_meters":16800,"station_id":"ce4bhrh2rcd13ifvqhug","pricing_plan_id":"cebpf4jnsgd1na2vs0mg"},{"bike_id":"6e90629e-f4d8-4637-aacd-a67a627dc6e3","system_id":"levelo_inurba_marseille","lat":43.2928,"lon":5.40122,"is_reserved":false,"is_disabled":false,"rental_uris":{"android":"levelo://app?vid=6e90629e-f4d8-4637-aacd-a67a627dc6e3","ios":"levelo://app?vid=6e90629e-f4d8-4637-aacd-a67a627dc6e3"},"vehicle_type_id":"4","last_reported":1756357851,"current_range_meters":16800,"station_id":"ce4bh312rcd13ifvqdk0","pricing_plan_id":"cebpf4jnsgd1na2vs0mg"},{"bike_id":"259905c0-0b2a-48d2-8997-dcb3931ef5bd","system_id":"levelo_inurba_marseille","lat":43.28101,"lon":5.37841,"is_reserved":false,"is_disabled":false,"rental_uris":{"android":"levelo://app?vid=259905c0-0b2a-48d2-8997-dcb3931ef5bd","ios":"levelo://app?vid=259905c0-0b2a-48d2-8997-dcb3931ef5bd"},"vehicle_type_id":"4","last_reported":1756357851,"current_range_meters":16800,"station_id":"ce4bha12rcd13ifvqee0","pricing_plan_id":"cebpf4jnsgd1na2vs0mg"},{"bike_id":"8a72b4e3-dba1-4109-8dd9-232fe8116587","system_id":"levelo_inurba_marseille","lat":43.24676,"lon":5.38135,"is_reserved":false,"is_disabled":false,"rental_uris":{"android":"levelo://app?vid=8a72b4e3-dba1-4109-8dd9-232fe8116587","ios":"levelo://app?vid=8a72b4e3-dba1-4109-8dd9-232fe8116587"},"vehicle_type_id":"4","last_reported":1756357851,"current_range_meters":16800,"station_id":"ce4bhih2rcd13ifvqfr0","pricing_plan_id":"cebpf4jnsgd1na2vs0mg"},{"bike_id":"a7668575-95a7-454a-b35f-d58c8e9e5d47","system_id":"levelo_inurba_marseille","lat":43.286863,"lon":5.386634,"is_reserved":false,"is_disabled":false,"rental_uris":{"android":"levelo://app?vid=a7668575-95a7-454a-b35f-d58c8e9e5d47","ios":"levelo://app?vid=a7668575-95a7-454a-b35f-d58c8e9e5d47"},"vehicle_type_id":"4","last_reported":1756357851,"current_range_meters":16800,"station_id":"ce4bh492rcd13ifvqdug","pricing_plan_id":"cebpf4jnsgd1na2vs0mg"},{"bike_id":"b43d7a83-48eb-4bc3-814f-5aeaa6724e9a","system_id":"levelo_inurba_marseille","lat":43.31381,"lon":5.38507,"is_reserved":false,"is_disabled":false,"rental_uris":{"android":"levelo://app?vid=b43d7a83-48eb-4bc3-814f-5aeaa6724e9a","ios":"levelo://app?vid=b43d7a83-48eb-4bc3-814f-5aeaa6724e9a"},"vehicle_type_id":"4","last_reported":1756357851,"current_range_meters":16800,"station_id":"ce4bgt92rcd13ifvqcf0","pricing_plan_id":"cebpf4jnsgd1na2vs0mg"},{"bike_id":"29c55d68-58c5-4ef2-b442-72bb9c55ddb0","system_id":"levelo_inurba_marseille","lat":43.32358,"lon":5.367288,"is_reserved":false,"is_disabled":false,"rental_uris":{"android":"levelo://app?vid=29c55d68-58c5-4ef2-b442-72bb9c55ddb0","ios":"levelo://app?vid=29c55d68-58c5-4ef2-b442-72bb9c55ddb0"},"vehicle_type_id":"4","last_reported":1756357851,"current_range_meters":16800,"station_id":"ce4bhsh2rcd13ifvqi2g","pricing_plan_id":"cebpf4jnsgd1na2vs0mg"},{"bike_id":"8cd383a6-fbd9-4809-9873-430c643e5314","system_id":"levelo_inurba_marseille","lat":43.243903,"lon":5.370576,"is_reserved":false,"is_disabled":false,"rental_uris":{"android":"levelo://app?vid=8cd383a6-fbd9-4809-9873-430c643e5314","ios":"levelo://app?vid=8cd383a6-fbd9-4809-9873-430c643e5314"},"vehicle_type_id":"4","last_reported":1756357851,"current_range_meters":16800,"station_id":"ce4bhhh2rcd13ifvqfk0","pricing_plan_id":"cebpf4jnsgd1na2vs0mg"},{"bike_id":"4c9c5e8f-e8ef-4293-bfce-8e0678777f42","system_id":"levelo_inurba_marseille","lat":43.29045,"lon":5.39993,"is_reserved":false,"is_disabled":false,"rental_uris":{"android":"levelo://app?vid=4c9c5e8f-e8ef-4293-bfce-8e0678777f42","ios":"levelo://app?vid=4c9c5e8f-e8ef-4293-bfce-8e0678777f42"},"vehicle_type_id":"4","last_reported":1756357851,"current_range_meters":16800,"station_id":"ce4bh392rcd13ifvqdm0","pricing_plan_id":"cebpf4jnsgd1na2vs0mg"},{"bike_id":"d4411ce1-1269-4134-adda-1eb61c16980f","system_id":"levelo_inurba_marseille","lat":43.281164,"lon":5.378584,"is_reserved":false,"is_disabled":true,"rental_uris":{"android":"levelo://app?vid=d4411ce1-1269-4134-adda-1eb61c16980f","ios":"levelo://app?vid=d4411ce1-1269-4134-adda-1eb61c16980f"},"vehicle_type_id":"4","last_reported":1756357851,"current_range_meters":17200,"station_id":"ce4bha12rcd13ifvqee0","pricing_plan_id":"cebpf4jnsgd1na2vs0mg"},{"bike_id":"66c18246-ed6d-44bb-ab2f-81b7604b07d8","system_id":"levelo_inurba_marseille","lat":43.2835,"lon":5.3809,"is_reserved":false,"is_disabled":false,"rental_uris":{"android":"levelo://app?vid=66c18246-ed6d-44bb-ab2f-81b7604b07d8","ios":"levelo://app?vid=66c18246-ed6d-44bb-ab2f-81b7604b07d8"},"vehicle_type_id":"4","last_reported":1756357851,"current_range_meters":17200,"station_id":"ce4bh412rcd13ifvqdr0","pricing_plan_id":"cebpf4jnsgd1na2vs0mg"},{"bike_id":"5e776573-7fe8-4c6a-8df1-f882385cb88f","system_id":"levelo_inurba_marseille","lat":43.30162,"lon":5.38094,"is_reserved":false,"is_disabled":false,"rental_uris":{"android":"levelo://app?vid=5e776573-7fe8-4c6a-8df1-f882385cb88f","ios":"levelo://app?vid=5e776573-7fe8-4c6a-8df1-f882385cb88f"},"vehicle_type_id":"4","last_reported":1756357851,"current_range_meters":17200,"station_id":"ce4bgjp2rcd13ifvqbh0","pricing_plan_id":"cebpf4jnsgd1na2vs0mg"},{"bike_id":"086fb8bd-6d0b-46ba-bd91-901ac277021b","system_id":"levelo_inurba_marseille","lat":43.269705,"lon":5.390362,"is_reserved":false,"is_disabled":false,"rental_uris":{"android":"levelo://app?vid=086fb8bd-6d0b-46ba-bd91-901ac277021b","ios":"levelo://app?vid=086fb8bd-6d0b-46ba-bd91-901ac277021b"},"vehicle_type_id":"4","last_reported":1756357851,"current_range_meters":17200,"station_id":"","pricing_plan_id":"cebpf4jnsgd1na2vs0mg"},{"bike_id":"fad509bb-f53b-44b6-a94f-044ddb828f7d","system_id":"levelo_inurba_marseille","lat":43.27064,"lon":5.40258,"is_reserved":false,"is_disabled":true,"rental_uris":{"android":"levelo://app?vid=fad509bb-f53b-44b6-a94f-044ddb828f7d","ios":"levelo://app?vid=fad509bb-f53b-44b6-a94f-044ddb828f7d"},"vehicle_type_id":"4","last_reported":1756357851,"current_range_meters":17200,"station_id":"cjm6bp8fraef2m0cb0m0","pricing_plan_id":"cebpf4jnsgd1na2vs0mg"},{"bike_id":"fb6a8521-484d-4352-b1eb-1592447f7f98","system_id":"levelo_inurba_marseille","lat":43.28453,"lon":5.35888,"is_reserved":false,"is_disabled":false,"rental_uris":{"android":"levelo://app?vid=fb6a8521-484d-4352-b1eb-1592447f7f98","ios":"levelo://app?vid=fb6a8521-484d-4352-b1eb-1592447f7f98"},"vehicle_type_id":"4","last_reported":1756357851,"current_range_meters":17200,"station_id":"ce4bhah2rcd13ifvqei0","pricing_plan_id":"cebpf4jnsgd1na2vs0mg"},{"bike_id":"4e9a300f-6092-4b28-8755-06fe9c3e1c46","system_id":"levelo_inurba_marseille","lat":43.29071,"lon":5.39991,"is_reserved":false,"is_disabled":false,"rental_uris":{"android":"levelo://app?vid=4e9a300f-6092-4b28-8755-06fe9c3e1c46","ios":"levelo://app?vid=4e9a300f-6092-4b28-8755-06fe9c3e1c46"},"vehicle_type_id":"4","last_reported":1756357851,"current_range_meters":17200,"station_id":"ce4bh392rcd13ifvqdm0","pricing_plan_id":"cebpf4jnsgd1na2vs0mg"},{"bike_id":"a66cf846-0eb4-49c2-a409-deac34f83121","system_id":"levelo_inurba_marseille","lat":43.299753,"lon":5.384929,"is_reserved":false,"is_disabled":true,"rental_uris":{"android":"levelo://app?vid=a66cf846-0eb4-49c2-a409-deac34f83121","ios":"levelo://app?vid=a66cf846-0eb4-49c2-a409-deac34f83121"},"vehicle_type_id":"4","last_reported":1756357851,"current_range_meters":17200,"station_id":"ce4bgj92rcd13ifvqbd0","pricing_plan_id":"cebpf4jnsgd1na2vs0mg"},{"bike_id":"d6a76d0f-a9d1-4617-9b61-109898a0e698","system_id":"levelo_inurba_marseille","lat":43.2455,"lon":5.3952,"is_reserved":false,"is_disabled":false,"rental_uris":{"android":"levelo://app?vid=d6a76d0f-a9d1-4617-9b61-109898a0e698","ios":"levelo://app?vid=d6a76d0f-a9d1-4617-9b61-109898a0e698"},"vehicle_type_id":"4","last_reported":1756357851,"current_range_meters":17200,"station_id":"ce4bhlp2rcd13ifvqgjg","pricing_plan_id":"cebpf4jnsgd1na2vs0mg"},{"bike_id":"9c8400d3-bf6a-452a-a361-cb727e9c5324","system_id":"levelo_inurba_marseille","lat":43.29245,"lon":5.37137,"is_reserved":false,"is_disabled":false,"rental_uris":{"android":"levelo://app?vid=9c8400d3-bf6a-452a-a361-cb727e9c5324","ios":"levelo://app?vid=9c8400d3-bf6a-452a-a361-cb727e9c5324"},"vehicle_type_id":"4","last_reported":1756357851,"current_range_meters":17600,"station_id":"","pricing_plan_id":"cebpf4jnsgd1na2vs0mg"},{"bike_id":"731ff345-1377-45e9-acf9-0825f15b172a","system_id":"levelo_inurba_marseille","lat":43.22912,"lon":5.35366,"is_reserved":false,"is_disabled":false,"rental_uris":{"android":"levelo://app?vid=731ff345-1377-45e9-acf9-0825f15b172a","ios":"levelo://app?vid=731ff345-1377-45e9-acf9-0825f15b172a"},"vehicle_type_id":"4","last_reported":1756357851,"current_range_meters":17600,"station_id":"cpo3532slgdg3j2ikp40","pricing_plan_id":"cebpf4jnsgd1na2vs0mg"},{"bike_id":"db886a6e-1dd7-4ad6-80af-762275a5c8b0","system_id":"levelo_inurba_marseille","lat":43.27937,"lon":5.41034,"is_reserved":false,"is_disabled":false,"rental_uris":{"android":"levelo://app?vid=db886a6e-1dd7-4ad6-80af-762275a5c8b0","ios":"levelo://app?vid=db886a6e-1dd7-4ad6-80af-762275a5c8b0"},"vehicle_type_id":"4","last_reported":1756357851,"current_range_meters":17600,"station_id":"ce4bhnp2rcd13ifvqh0g","pricing_plan_id":"cebpf4jnsgd1na2vs0mg"},{"bike_id":"62a8c0bf-06af-44b2-acbd-3e96055782c5","system_id":"levelo_inurba_marseille","lat":43.23075,"lon":5.35469,"is_reserved":false,"is_disabled":false,"rental_uris":{"android":"levelo://app?vid=62a8c0bf-06af-44b2-acbd-3e96055782c5","ios":"levelo://app?vid=62a8c0bf-06af-44b2-acbd-3e96055782c5"},"vehicle_type_id":"4","last_reported":1756357851,"current_range_meters":17600,"station_id":"cpo3342slgdg3j2ifvpg","pricing_plan_id":"cebpf4jnsgd1na2vs0mg"},{"bike_id":"888feb6a-0a42-486b-8d98-ecf3ac765de2","system_id":"levelo_inurba_marseille","lat":43.29953,"lon":5.3719,"is_reserved":false,"is_disabled":false,"rental_uris":{"android":"levelo://app?vid=888feb6a-0a42-486b-8d98-ecf3ac765de2","ios":"levelo://app?vid=888feb6a-0a42-486b-8d98-ecf3ac765de2"},"vehicle_type_id":"4","last_reported":1756357851,"current_range_meters":17600,"station_id":"ce4bgr92rcd13ifvqc7g","pricing_plan_id":"cebpf4jnsgd1na2vs0mg"},{"bike_id":"4db00c46-fd2c-4f92-af00-732ea18acab4","system_id":"levelo_inurba_marseille","lat":43.28106,"lon":5.37863,"is_reserved":false,"is_disabled":false,"rental_uris":{"android":"levelo://app?vid=4db00c46-fd2c-4f92-af00-732ea18acab4","ios":"levelo://app?vid=4db00c46-fd2c-4f92-af00-732ea18acab4"},"vehicle_type_id":"4","last_reported":1756357851,"current_range_meters":17600,"station_id":"ce4bha12rcd13ifvqee0","pricing_plan_id":"cebpf4jnsgd1na2vs0mg"},{"bike_id":"8b29b749-bc81-4c76-9fbe-41a119eee602","system_id":"levelo_inurba_marseille","lat":43.29062,"lon":5.39973,"is_reserved":false,"is_disabled":true,"rental_uris":{"android":"levelo://app?vid=8b29b749-bc81-4c76-9fbe-41a119eee602","ios":"levelo://app?vid=8b29b749-bc81-4c76-9fbe-41a119eee602"},"vehicle_type_id":"4","last_reported":1756357851,"current_range_meters":17600,"station_id":"ce4bh392rcd13ifvqdm0","pricing_plan_id":"cebpf4jnsgd1na2vs0mg"},{"bike_id":"d535bf59-462f-46ae-b9fb-52bfa64316d1","system_id":"levelo_inurba_marseille","lat":43.241792,"lon":5.39724,"is_reserved":false,"is_disabled":false,"rental_uris":{"android":"levelo://app?vid=d535bf59-462f-46ae-b9fb-52bfa64316d1","ios":"levelo://app?vid=d535bf59-462f-46ae-b9fb-52bfa64316d1"},"vehicle_type_id":"4","last_reported":1756357851,"current_range_meters":18000,"station_id":"ce4bhn12rcd13ifvqgpg","pricing_plan_id":"cebpf4jnsgd1na2vs0mg"},{"bike_id":"4fbce97f-acb9-4c6a-8eb5-11735db2ebfe","system_id":"levelo_inurba_marseille","lat":43.28215,"lon":5.39061,"is_reserved":false,"is_disabled":false,"rental_uris":{"android":"levelo://app?vid=4fbce97f-acb9-4c6a-8eb5-11735db2ebfe","ios":"levelo://app?vid=4fbce97f-acb9-4c6a-8eb5-11735db2ebfe"},"vehicle_type_id":"4","last_reported":1756357851,"current_range_meters":18000,"station_id":"ce4bhn92rcd13ifvqgsg","pricing_plan_id":"cebpf4jnsgd1na2vs0mg"},{"bike_id":"491a51e4-1469-463f-b9cc-ff15d2c85312","system_id":"levelo_inurba_marseille","lat":43.295345,"lon":5.385484,"is_reserved":false,"is_disabled":true,"rental_uris":{"android":"levelo://app?vid=491a51e4-1469-463f-b9cc-ff15d2c85312","ios":"levelo://app?vid=491a51e4-1469-463f-b9cc-ff15d2c85312"},"vehicle_type_id":"4","last_reported":1756357851,"current_range_meters":18000,"station_id":"ce4bgih2rcd13ifvqba0","pricing_plan_id":"cebpf4jnsgd1na2vs0mg"},{"bike_id":"1d6d2e3d-e6be-45f3-9550-08daca30c94e","system_id":"levelo_inurba_marseille","lat":43.2315,"lon":5.43712,"is_reserved":false,"is_disabled":false,"rental_uris":{"android":"levelo://app?vid=1d6d2e3d-e6be-45f3-9550-08daca30c94e","ios":"levelo://app?vid=1d6d2e3d-e6be-45f3-9550-08daca30c94e"},"vehicle_type_id":"4","last_reported":1756357851,"current_range_meters":18000,"station_id":"ce4bhmp2rcd13ifvqgog","pricing_plan_id":"cebpf4jnsgd1na2vs0mg"},{"bike_id":"8a3d08a4-6e22-43fc-a3af-efea32020201","system_id":"levelo_inurba_marseille","lat":43.32359,"lon":5.367643,"is_reserved":false,"is_disabled":false,"rental_uris":{"android":"levelo://app?vid=8a3d08a4-6e22-43fc-a3af-efea32020201","ios":"levelo://app?vid=8a3d08a4-6e22-43fc-a3af-efea32020201"},"vehicle_type_id":"4","last_reported":1756357851,"current_range_meters":18000,"station_id":"ce4bhsh2rcd13ifvqi2g","pricing_plan_id":"cebpf4jnsgd1na2vs0mg"},{"bike_id":"06669016-cd47-459f-9dbc-b8f7fe75d379","system_id":"levelo_inurba_marseille","lat":43.322858,"lon":5.382646,"is_reserved":false,"is_disabled":false,"rental_uris":{"android":"levelo://app?vid=06669016-cd47-459f-9dbc-b8f7fe75d379","ios":"levelo://app?vid=06669016-cd47-459f-9dbc-b8f7fe75d379"},"vehicle_type_id":"4","last_reported":1756357851,"current_range_meters":18000,"station_id":"ce4bhr12rcd13ifvqhqg","pricing_plan_id":"cebpf4jnsgd1na2vs0mg"},{"bike_id":"89f42997-cba2-42ca-8470-bfb8f54fa2a2","system_id":"levelo_inurba_marseille","lat":43.29916,"lon":5.38527,"is_reserved":false,"is_disabled":false,"rental_uris":{"android":"levelo://app?vid=89f42997-cba2-42ca-8470-bfb8f54fa2a2","ios":"levelo://app?vid=89f42997-cba2-42ca-8470-bfb8f54fa2a2"},"vehicle_type_id":"4","last_reported":1756357851,"current_range_meters":18000,"station_id":"","pricing_plan_id":"cebpf4jnsgd1na2vs0mg"},{"bike_id":"92594421-8cf0-4b8b-889c-a8296396cf9c","system_id":"levelo_inurba_marseille","lat":43.30186,"lon":5.38075,"is_reserved":false,"is_disabled":false,"rental_uris":{"android":"levelo://app?vid=92594421-8cf0-4b8b-889c-a8296396cf9c","ios":"levelo://app?vid=92594421-8cf0-4b8b-889c-a8296396cf9c"},"vehicle_type_id":"4","last_reported":1756357851,"current_range_meters":18000,"station_id":"ce4bgjp2rcd13ifvqbh0","pricing_plan_id":"cebpf4jnsgd1na2vs0mg"},{"bike_id":"c8ed8afa-4750-4d5e-b29e-7da3cd8f4dc7","system_id":"levelo_inurba_marseille","lat":43.32357,"lon":5.36776,"is_reserved":false,"is_disabled":false,"rental_uris":{"android":"levelo://app?vid=c8ed8afa-4750-4d5e-b29e-7da3cd8f4dc7","ios":"levelo://app?vid=c8ed8afa-4750-4d5e-b29e-7da3cd8f4dc7"},"vehicle_type_id":"4","last_reported":1756357851,"current_range_meters":18000,"station_id":"ce4bhsh2rcd13ifvqi2g","pricing_plan_id":"cebpf4jnsgd1na2vs0mg"},{"bike_id":"4d6f874e-bcf0-4679-a5b6-b337bf3488b1","system_id":"levelo_inurba_marseille","lat":43.302081,"lon":5.394595,"is_reserved":false,"is_disabled":false,"rental_uris":{"android":"levelo://app?vid=4d6f874e-bcf0-4679-a5b6-b337bf3488b1","ios":"levelo://app?vid=4d6f874e-bcf0-4679-a5b6-b337bf3488b1"},"vehicle_type_id":"4","last_reported":1756357851,"current_range_meters":18000,"station_id":"ce4bh0p2rcd13ifvqd70","pricing_plan_id":"cebpf4jnsgd1na2vs0mg"},{"bike_id":"faba2006-96fb-424d-892f-a20666d212a6","system_id":"levelo_inurba_marseille","lat":43.265712,"lon":5.39016,"is_reserved":false,"is_disabled":false,"rental_uris":{"android":"levelo://app?vid=faba2006-96fb-424d-892f-a20666d212a6","ios":"levelo://app?vid=faba2006-96fb-424d-892f-a20666d212a6"},"vehicle_type_id":"4","last_reported":1756357851,"current_range_meters":18800,"station_id":"ce4bhe12rcd13ifvqf30","pricing_plan_id":"cebpf4jnsgd1na2vs0mg"},{"bike_id":"42515969-df58-4bc3-81b4-d2c5b3092781","system_id":"levelo_inurba_marseille","lat":43.27707,"lon":5.4198,"is_reserved":false,"is_disabled":false,"rental_uris":{"android":"levelo://app?vid=42515969-df58-4bc3-81b4-d2c5b3092781","ios":"levelo://app?vid=42515969-df58-4bc3-81b4-d2c5b3092781"},"vehicle_type_id":"4","last_reported":1756357851,"current_range_meters":18800,"station_id":"","pricing_plan_id":"cebpf4jnsgd1na2vs0mg"},{"bike_id":"2592d48e-4f91-4661-a841-16b2ce57828c","system_id":"levelo_inurba_marseille","lat":43.24221,"lon":5.38718,"is_reserved":false,"is_disabled":false,"rental_uris":{"android":"levelo://app?vid=2592d48e-4f91-4661-a841-16b2ce57828c","ios":"levelo://app?vid=2592d48e-4f91-4661-a841-16b2ce57828c"},"vehicle_type_id":"4","last_reported":1756357851,"current_range_meters":18800,"station_id":"","pricing_plan_id":"cebpf4jnsgd1na2vs0mg"},{"bike_id":"8d86e82e-f0ad-4fc8-af5b-5787d176b397","system_id":"levelo_inurba_marseille","lat":43.30635,"lon":5.40096,"is_reserved":false,"is_disabled":false,"rental_uris":{"android":"levelo://app?vid=8d86e82e-f0ad-4fc8-af5b-5787d176b397","ios":"levelo://app?vid=8d86e82e-f0ad-4fc8-af5b-5787d176b397"},"vehicle_type_id":"4","last_reported":1756357851,"current_range_meters":18800,"station_id":"ce4bh112rcd13ifvqda0","pricing_plan_id":"cebpf4jnsgd1na2vs0mg"},{"bike_id":"56ed4804-e791-4589-ad7d-aca5bcb98d45","system_id":"levelo_inurba_marseille","lat":43.28616,"lon":5.35097,"is_reserved":false,"is_disabled":false,"rental_uris":{"android":"levelo://app?vid=56ed4804-e791-4589-ad7d-aca5bcb98d45","ios":"levelo://app?vid=56ed4804-e791-4589-ad7d-aca5bcb98d45"},"vehicle_type_id":"4","last_reported":1756357851,"current_range_meters":18800,"station_id":"ce4bhch2rcd13ifvqeug","pricing_plan_id":"cebpf4jnsgd1na2vs0mg"},{"bike_id":"aecefe84-afe2-4dc5-be5b-719995a8c9da","system_id":"levelo_inurba_marseille","lat":43.2798,"lon":5.41663,"is_reserved":false,"is_disabled":false,"rental_uris":{"android":"levelo://app?vid=aecefe84-afe2-4dc5-be5b-719995a8c9da","ios":"levelo://app?vid=aecefe84-afe2-4dc5-be5b-719995a8c9da"},"vehicle_type_id":"4","last_reported":1756357851,"current_range_meters":0,"station_id":"ce4bho12rcd13ifvqh1g","pricing_plan_id":"cebpf4jnsgd1na2vs0mg"},{"bike_id":"38a32b4a-4f95-48c0-aeac-30a814a6510d","system_id":"levelo_inurba_marseille","lat":43.28386,"lon":5.37484,"is_reserved":false,"is_disabled":false,"rental_uris":{"android":"levelo://app?vid=38a32b4a-4f95-48c0-aeac-30a814a6510d","ios":"levelo://app?vid=38a32b4a-4f95-48c0-aeac-30a814a6510d"},"vehicle_type_id":"4","last_reported":1756357851,"current_range_meters":18800,"station_id":"ce4bh412rcd13ifvqds0","pricing_plan_id":"cebpf4jnsgd1na2vs0mg"},{"bike_id":"a105b77d-2efb-4159-9821-8cb9fb53320e","system_id":"levelo_inurba_marseille","lat":43.231884,"lon":5.399992,"is_reserved":false,"is_disabled":false,"rental_uris":{"android":"levelo://app?vid=a105b77d-2efb-4159-9821-8cb9fb53320e","ios":"levelo://app?vid=a105b77d-2efb-4159-9821-8cb9fb53320e"},"vehicle_type_id":"4","last_reported":1756357851,"current_range_meters":18800,"station_id":"ce4bhn12rcd13ifvqgqg","pricing_plan_id":"cebpf4jnsgd1na2vs0mg"},{"bike_id":"3d14d85f-1bc8-43df-8ea9-56d585eef156","system_id":"levelo_inurba_marseille","lat":43.23968,"lon":5.36633,"is_reserved":false,"is_disabled":false,"rental_uris":{"android":"levelo://app?vid=3d14d85f-1bc8-43df-8ea9-56d585eef156","ios":"levelo://app?vid=3d14d85f-1bc8-43df-8ea9-56d585eef156"},"vehicle_type_id":"4","last_reported":1756357851,"current_range_meters":18800,"station_id":"ce4bhi12rcd13ifvqfp0","pricing_plan_id":"cebpf4jnsgd1na2vs0mg"},{"bike_id":"a3e4ee41-5175-47da-ad6e-4c5ae3eb42d9","system_id":"levelo_inurba_marseille","lat":43.211965,"lon":5.35065,"is_reserved":false,"is_disabled":false,"rental_uris":{"android":"levelo://app?vid=a3e4ee41-5175-47da-ad6e-4c5ae3eb42d9","ios":"levelo://app?vid=a3e4ee41-5175-47da-ad6e-4c5ae3eb42d9"},"vehicle_type_id":"4","last_reported":1756357851,"current_range_meters":18800,"station_id":"st_cvj6sg6p6f1abm77japg","pricing_plan_id":"cebpf4jnsgd1na2vs0mg"},{"bike_id":"b7f5d4fc-8af5-442f-b471-e28f343fd67e","system_id":"levelo_inurba_marseille","lat":43.33771,"lon":5.37481,"is_reserved":false,"is_disabled":false,"rental_uris":{"android":"levelo://app?vid=b7f5d4fc-8af5-442f-b471-e28f343fd67e","ios":"levelo://app?vid=b7f5d4fc-8af5-442f-b471-e28f343fd67e"},"vehicle_type_id":"4","last_reported":1756357851,"current_range_meters":18800,"station_id":"","pricing_plan_id":"cebpf4jnsgd1na2vs0mg"},{"bike_id":"5c521629-f807-425a-bcbb-c3e99fd6e4e1","system_id":"levelo_inurba_marseille","lat":43.251118,"lon":5.403262,"is_reserved":false,"is_disabled":false,"rental_uris":{"android":"levelo://app?vid=5c521629-f807-425a-bcbb-c3e99fd6e4e1","ios":"levelo://app?vid=5c521629-f807-425a-bcbb-c3e99fd6e4e1"},"vehicle_type_id":"4","last_reported":1756357851,"current_range_meters":19200,"station_id":"ce4bhlh2rcd13ifvqgig","pricing_plan_id":"cebpf4jnsgd1na2vs0mg"},{"bike_id":"96bad607-0a18-4892-af5b-e3ae9d74d97b","system_id":"levelo_inurba_marseille","lat":43.23065,"lon":5.35489,"is_reserved":false,"is_disabled":false,"rental_uris":{"android":"levelo://app?vid=96bad607-0a18-4892-af5b-e3ae9d74d97b","ios":"levelo://app?vid=96bad607-0a18-4892-af5b-e3ae9d74d97b"},"vehicle_type_id":"4","last_reported":1756357851,"current_range_meters":19200,"station_id":"cpo3342slgdg3j2ifvpg","pricing_plan_id":"cebpf4jnsgd1na2vs0mg"},{"bike_id":"629279d5-1d26-4cb0-9c4e-578c5e0532a9","system_id":"levelo_inurba_marseille","lat":43.30657,"lon":5.400911,"is_reserved":false,"is_disabled":false,"rental_uris":{"android":"levelo://app?vid=629279d5-1d26-4cb0-9c4e-578c5e0532a9","ios":"levelo://app?vid=629279d5-1d26-4cb0-9c4e-578c5e0532a9"},"vehicle_type_id":"4","last_reported":1756357851,"current_range_meters":19200,"station_id":"ce4bh112rcd13ifvqda0","pricing_plan_id":"cebpf4jnsgd1na2vs0mg"},{"bike_id":"764e5c33-34d3-4729-9871-6b92da99894f","system_id":"levelo_inurba_marseille","lat":43.28102,"lon":5.37839,"is_reserved":false,"is_disabled":false,"rental_uris":{"android":"levelo://app?vid=764e5c33-34d3-4729-9871-6b92da99894f","ios":"levelo://app?vid=764e5c33-34d3-4729-9871-6b92da99894f"},"vehicle_type_id":"4","last_reported":1756357851,"current_range_meters":19200,"station_id":"ce4bha12rcd13ifvqee0","pricing_plan_id":"cebpf4jnsgd1na2vs0mg"},{"bike_id":"cc605096-5180-4716-aed8-ea9a188e2624","system_id":"levelo_inurba_marseille","lat":43.27922,"lon":5.39575,"is_reserved":false,"is_disabled":false,"rental_uris":{"android":"levelo://app?vid=cc605096-5180-4716-aed8-ea9a188e2624","ios":"levelo://app?vid=cc605096-5180-4716-aed8-ea9a188e2624"},"vehicle_type_id":"4","last_reported":1756357851,"current_range_meters":19200,"station_id":"ce4bhf92rcd13ifvqf40","pricing_plan_id":"cebpf4jnsgd1na2vs0mg"},{"bike_id":"3d5aa2e5-19b6-4546-9f2c-20c48df2b60d","system_id":"levelo_inurba_marseille","lat":43.25951,"lon":5.41365,"is_reserved":false,"is_disabled":false,"rental_uris":{"android":"levelo://app?vid=3d5aa2e5-19b6-4546-9f2c-20c48df2b60d","ios":"levelo://app?vid=3d5aa2e5-19b6-4546-9f2c-20c48df2b60d"},"vehicle_type_id":"4","last_reported":1756357851,"current_range_meters":19200,"station_id":"","pricing_plan_id":"cebpf4jnsgd1na2vs0mg"},{"bike_id":"9cedf42c-e5c5-45d5-9b6d-6932ebbd5ed4","system_id":"levelo_inurba_marseille","lat":43.31328,"lon":5.39678,"is_reserved":false,"is_disabled":false,"rental_uris":{"android":"levelo://app?vid=9cedf42c-e5c5-45d5-9b6d-6932ebbd5ed4","ios":"levelo://app?vid=9cedf42c-e5c5-45d5-9b6d-6932ebbd5ed4"},"vehicle_type_id":"4","last_reported":1756357851,"current_range_meters":19200,"station_id":"ce4bgvp2rcd13ifvqcu0","pricing_plan_id":"cebpf4jnsgd1na2vs0mg"},{"bike_id":"f0384fbb-6485-4c18-9cc5-2fe16aa6e603","system_id":"levelo_inurba_marseille","lat":43.241698,"lon":5.363939,"is_reserved":false,"is_disabled":false,"rental_uris":{"android":"levelo://app?vid=f0384fbb-6485-4c18-9cc5-2fe16aa6e603","ios":"levelo://app?vid=f0384fbb-6485-4c18-9cc5-2fe16aa6e603"},"vehicle_type_id":"4","last_reported":1756357851,"current_range_meters":19200,"station_id":"cpo36qri1sfpv3e86is0","pricing_plan_id":"cebpf4jnsgd1na2vs0mg"},{"bike_id":"89a9786f-67c9-44e6-87fb-c9915a642bde","system_id":"levelo_inurba_marseille","lat":43.287078,"lon":5.399844,"is_reserved":false,"is_disabled":false,"rental_uris":{"android":"levelo://app?vid=89a9786f-67c9-44e6-87fb-c9915a642bde","ios":"levelo://app?vid=89a9786f-67c9-44e6-87fb-c9915a642bde"},"vehicle_type_id":"4","last_reported":1756357851,"current_range_meters":19600,"station_id":"ce4bho92rcd13ifvqh3g","pricing_plan_id":"cebpf4jnsgd1na2vs0mg"},{"bike_id":"9bee6c81-bef5-4109-894d-a231db231dd9","system_id":"levelo_inurba_marseille","lat":43.310747,"lon":5.383511,"is_reserved":false,"is_disabled":false,"rental_uris":{"android":"levelo://app?vid=9bee6c81-bef5-4109-894d-a231db231dd9","ios":"levelo://app?vid=9bee6c81-bef5-4109-894d-a231db231dd9"},"vehicle_type_id":"4","last_reported":1756357851,"current_range_meters":19600,"station_id":"ce4bgv92rcd13ifvqcr0","pricing_plan_id":"cebpf4jnsgd1na2vs0mg"},{"bike_id":"80534d71-fd84-4f3d-9b9a-87b1c3907d80","system_id":"levelo_inurba_marseille","lat":43.29869,"lon":5.39729,"is_reserved":false,"is_disabled":false,"rental_uris":{"android":"levelo://app?vid=80534d71-fd84-4f3d-9b9a-87b1c3907d80","ios":"levelo://app?vid=80534d71-fd84-4f3d-9b9a-87b1c3907d80"},"vehicle_type_id":"4","last_reported":1756357851,"current_range_meters":19600,"station_id":"ce4bh0h2rcd13ifvqd50","pricing_plan_id":"cebpf4jnsgd1na2vs0mg"},{"bike_id":"7b1b67ce-ec3a-4306-99ef-9044c3533e21","system_id":"levelo_inurba_marseille","lat":43.231538,"lon":5.437086,"is_reserved":false,"is_disabled":false,"rental_uris":{"android":"levelo://app?vid=7b1b67ce-ec3a-4306-99ef-9044c3533e21","ios":"levelo://app?vid=7b1b67ce-ec3a-4306-99ef-9044c3533e21"},"vehicle_type_id":"4","last_reported":1756357851,"current_range_meters":19600,"station_id":"ce4bhmp2rcd13ifvqgog","pricing_plan_id":"cebpf4jnsgd1na2vs0mg"},{"bike_id":"5657ba0c-bd4a-4098-a3be-c140f18945de","system_id":"levelo_inurba_marseille","lat":43.26916,"lon":5.40225,"is_reserved":false,"is_disabled":true,"rental_uris":{"android":"levelo://app?vid=5657ba0c-bd4a-4098-a3be-c140f18945de","ios":"levelo://app?vid=5657ba0c-bd4a-4098-a3be-c140f18945de"},"vehicle_type_id":"4","last_reported":1756357851,"current_range_meters":19600,"station_id":"cjm6bp8fraef2m0cb0m0","pricing_plan_id":"cebpf4jnsgd1na2vs0mg"},{"bike_id":"e36ac928-4535-4c0a-9fee-0953be656982","system_id":"levelo_inurba_marseille","lat":43.308067,"lon":5.381449,"is_reserved":false,"is_disabled":false,"rental_uris":{"android":"levelo://app?vid=e36ac928-4535-4c0a-9fee-0953be656982","ios":"levelo://app?vid=e36ac928-4535-4c0a-9fee-0953be656982"},"vehicle_type_id":"4","last_reported":1756357851,"current_range_meters":19600,"station_id":"ce4bgt12rcd13ifvqce0","pricing_plan_id":"cebpf4jnsgd1na2vs0mg"},{"bike_id":"f7cd213d-8b5c-44c2-9a2a-6c74fe359cab","system_id":"levelo_inurba_marseille","lat":43.26016,"lon":5.37539,"is_reserved":false,"is_disabled":false,"rental_uris":{"android":"levelo://app?vid=f7cd213d-8b5c-44c2-9a2a-6c74fe359cab","ios":"levelo://app?vid=f7cd213d-8b5c-44c2-9a2a-6c74fe359cab"},"vehicle_type_id":"4","last_reported":1756357851,"current_range_meters":20000,"station_id":"","pricing_plan_id":"cebpf4jnsgd1na2vs0mg"},{"bike_id":"6ce208cc-7877-4168-a5a1-9ef7d1a760ce","system_id":"levelo_inurba_marseille","lat":43.289353,"lon":5.363979,"is_reserved":false,"is_disabled":false,"rental_uris":{"android":"levelo://app?vid=6ce208cc-7877-4168-a5a1-9ef7d1a760ce","ios":"levelo://app?vid=6ce208cc-7877-4168-a5a1-9ef7d1a760ce"},"vehicle_type_id":"4","last_reported":1756357851,"current_range_meters":19600,"station_id":"ce4bhc92rcd13ifvqetg","pricing_plan_id":"cebpf4jnsgd1na2vs0mg"},{"bike_id":"3b12bc8e-850d-426b-9fe5-d4e33b5086b0","system_id":"levelo_inurba_marseille","lat":43.2895,"lon":5.3639,"is_reserved":false,"is_disabled":false,"rental_uris":{"android":"levelo://app?vid=3b12bc8e-850d-426b-9fe5-d4e33b5086b0","ios":"levelo://app?vid=3b12bc8e-850d-426b-9fe5-d4e33b5086b0"},"vehicle_type_id":"4","last_reported":1756357851,"current_range_meters":19600,"station_id":"ce4bhc92rcd13ifvqetg","pricing_plan_id":"cebpf4jnsgd1na2vs0mg"},{"bike_id":"4d627891-488a-407e-91ee-43cb47c77aec","system_id":"levelo_inurba_marseille","lat":43.29761,"lon":5.39329,"is_reserved":false,"is_disabled":false,"rental_uris":{"android":"levelo://app?vid=4d627891-488a-407e-91ee-43cb47c77aec","ios":"levelo://app?vid=4d627891-488a-407e-91ee-43cb47c77aec"},"vehicle_type_id":"4","last_reported":1756357851,"current_range_meters":19600,"station_id":"chh1huq6cuj3fo74tm60","pricing_plan_id":"cebpf4jnsgd1na2vs0mg"},{"bike_id":"295b5131-2ce7-4504-997b-819bd8cd05de","system_id":"levelo_inurba_marseille","lat":43.24085,"lon":5.37752,"is_reserved":false,"is_disabled":false,"rental_uris":{"android":"levelo://app?vid=295b5131-2ce7-4504-997b-819bd8cd05de","ios":"levelo://app?vid=295b5131-2ce7-4504-997b-819bd8cd05de"},"vehicle_type_id":"4","last_reported":1756357851,"current_range_meters":19600,"station_id":"ce4bhnp2rcd13ifvqgvg","pricing_plan_id":"cebpf4jnsgd1na2vs0mg"},{"bike_id":"d2dedc8c-958b-4158-a1e7-2313bfd8aa02","system_id":"levelo_inurba_marseille","lat":43.31763,"lon":5.38463,"is_reserved":false,"is_disabled":false,"rental_uris":{"android":"levelo://app?vid=d2dedc8c-958b-4158-a1e7-2313bfd8aa02","ios":"levelo://app?vid=d2dedc8c-958b-4158-a1e7-2313bfd8aa02"},"vehicle_type_id":"4","last_reported":1756357851,"current_range_meters":20000,"station_id":"","pricing_plan_id":"cebpf4jnsgd1na2vs0mg"},{"bike_id":"dee5fc92-9d8d-42ec-97e1-996d8f5266a8","system_id":"levelo_inurba_marseille","lat":43.229259,"lon":5.353724,"is_reserved":false,"is_disabled":false,"rental_uris":{"android":"levelo://app?vid=dee5fc92-9d8d-42ec-97e1-996d8f5266a8","ios":"levelo://app?vid=dee5fc92-9d8d-42ec-97e1-996d8f5266a8"},"vehicle_type_id":"4","last_reported":1756357851,"current_range_meters":20000,"station_id":"cpo3532slgdg3j2ikp40","pricing_plan_id":"cebpf4jnsgd1na2vs0mg"},{"bike_id":"2e89ae07-86c1-4e8e-b18f-948a92d2f6e7","system_id":"levelo_inurba_marseille","lat":43.30092,"lon":5.39096,"is_reserved":false,"is_disabled":false,"rental_uris":{"android":"levelo://app?vid=2e89ae07-86c1-4e8e-b18f-948a92d2f6e7","ios":"levelo://app?vid=2e89ae07-86c1-4e8e-b18f-948a92d2f6e7"},"vehicle_type_id":"4","last_reported":1756357851,"current_range_meters":20000,"station_id":"ce4bh192rcd13ifvqdb0","pricing_plan_id":"cebpf4jnsgd1na2vs0mg"},{"bike_id":"60863403-b289-4c9c-b2d0-3d448abf417f","system_id":"levelo_inurba_marseille","lat":43.282749,"lon":5.350701,"is_reserved":false,"is_disabled":true,"rental_uris":{"android":"levelo://app?vid=60863403-b289-4c9c-b2d0-3d448abf417f","ios":"levelo://app?vid=60863403-b289-4c9c-b2d0-3d448abf417f"},"vehicle_type_id":"4","last_reported":1756357851,"current_range_meters":20000,"station_id":"ce4bhbp2rcd13ifvqerg","pricing_plan_id":"cebpf4jnsgd1na2vs0mg"},{"bike_id":"688af5fb-6252-4eed-9501-ed7d2b2be597","system_id":"levelo_inurba_marseille","lat":43.24179,"lon":5.36402,"is_reserved":false,"is_disabled":false,"rental_uris":{"android":"levelo://app?vid=688af5fb-6252-4eed-9501-ed7d2b2be597","ios":"levelo://app?vid=688af5fb-6252-4eed-9501-ed7d2b2be597"},"vehicle_type_id":"4","last_reported":1756357851,"current_range_meters":20000,"station_id":"cpo36qri1sfpv3e86is0","pricing_plan_id":"cebpf4jnsgd1na2vs0mg"},{"bike_id":"2be27af2-3046-497e-8c06-a87c1462f737","system_id":"levelo_inurba_marseille","lat":43.295364,"lon":5.385442,"is_reserved":false,"is_disabled":true,"rental_uris":{"android":"levelo://app?vid=2be27af2-3046-497e-8c06-a87c1462f737","ios":"levelo://app?vid=2be27af2-3046-497e-8c06-a87c1462f737"},"vehicle_type_id":"4","last_reported":1756357851,"current_range_meters":20000,"station_id":"ce4bgih2rcd13ifvqba0","pricing_plan_id":"cebpf4jnsgd1na2vs0mg"},{"bike_id":"ab2b2968-2afc-4029-82d1-f9d7f0e7846c","system_id":"levelo_inurba_marseille","lat":43.292618,"lon":5.376212,"is_reserved":false,"is_disabled":false,"rental_uris":{"android":"levelo://app?vid=ab2b2968-2afc-4029-82d1-f9d7f0e7846c","ios":"levelo://app?vid=ab2b2968-2afc-4029-82d1-f9d7f0e7846c"},"vehicle_type_id":"4","last_reported":1756357851,"current_range_meters":20400,"station_id":"ce4bgi12rcd13ifvqb80","pricing_plan_id":"cebpf4jnsgd1na2vs0mg"},{"bike_id":"2ff1f530-4543-4341-996a-45ef572189f3","system_id":"levelo_inurba_marseille","lat":43.30157,"lon":5.3987,"is_reserved":false,"is_disabled":false,"rental_uris":{"android":"levelo://app?vid=2ff1f530-4543-4341-996a-45ef572189f3","ios":"levelo://app?vid=2ff1f530-4543-4341-996a-45ef572189f3"},"vehicle_type_id":"4","last_reported":1756357851,"current_range_meters":20400,"station_id":"ce4bh0h2rcd13ifvqd40","pricing_plan_id":"cebpf4jnsgd1na2vs0mg"},{"bike_id":"af0e337f-d4cf-4e28-9020-c2f2b620012b","system_id":"levelo_inurba_marseille","lat":43.229259,"lon":5.353759,"is_reserved":false,"is_disabled":false,"rental_uris":{"android":"levelo://app?vid=af0e337f-d4cf-4e28-9020-c2f2b620012b","ios":"levelo://app?vid=af0e337f-d4cf-4e28-9020-c2f2b620012b"},"vehicle_type_id":"4","last_reported":1756357851,"current_range_meters":20400,"station_id":"cpo3532slgdg3j2ikp40","pricing_plan_id":"cebpf4jnsgd1na2vs0mg"},{"bike_id":"196169a4-3222-419a-be3c-e08cc270c692","system_id":"levelo_inurba_marseille","lat":43.29316,"lon":5.37289,"is_reserved":false,"is_disabled":false,"rental_uris":{"android":"levelo://app?vid=196169a4-3222-419a-be3c-e08cc270c692","ios":"levelo://app?vid=196169a4-3222-419a-be3c-e08cc270c692"},"vehicle_type_id":"4","last_reported":1756357851,"current_range_meters":20400,"station_id":"","pricing_plan_id":"cebpf4jnsgd1na2vs0mg"},{"bike_id":"239722dc-8548-47bb-85cb-de762ab886f0","system_id":"levelo_inurba_marseille","lat":43.275,"lon":5.42447,"is_reserved":false,"is_disabled":false,"rental_uris":{"android":"levelo://app?vid=239722dc-8548-47bb-85cb-de762ab886f0","ios":"levelo://app?vid=239722dc-8548-47bb-85cb-de762ab886f0"},"vehicle_type_id":"4","last_reported":1756357851,"current_range_meters":20400,"station_id":"ce4bhn92rcd13ifvqgrg","pricing_plan_id":"cebpf4jnsgd1na2vs0mg"},{"bike_id":"b4c83a61-63eb-4c1b-aabc-26ec8a3306b8","system_id":"levelo_inurba_marseille","lat":43.31528,"lon":5.38613,"is_reserved":false,"is_disabled":false,"rental_uris":{"android":"levelo://app?vid=b4c83a61-63eb-4c1b-aabc-26ec8a3306b8","ios":"levelo://app?vid=b4c83a61-63eb-4c1b-aabc-26ec8a3306b8"},"vehicle_type_id":"4","last_reported":1756357851,"current_range_meters":20400,"station_id":"","pricing_plan_id":"cebpf4jnsgd1na2vs0mg"},{"bike_id":"f8723100-2994-4dae-a132-5dda30b316bf","system_id":"levelo_inurba_marseille","lat":43.32337,"lon":5.40623,"is_reserved":false,"is_disabled":false,"rental_uris":{"android":"levelo://app?vid=f8723100-2994-4dae-a132-5dda30b316bf","ios":"levelo://app?vid=f8723100-2994-4dae-a132-5dda30b316bf"},"vehicle_type_id":"4","last_reported":1756357851,"current_range_meters":20400,"station_id":"ce4bhq92rcd13ifvqhjg","pricing_plan_id":"cebpf4jnsgd1na2vs0mg"},{"bike_id":"6c6d719e-a8c1-4e2f-9b89-6e8ef872bc6a","system_id":"levelo_inurba_marseille","lat":43.273477,"lon":5.378438,"is_reserved":false,"is_disabled":false,"rental_uris":{"android":"levelo://app?vid=6c6d719e-a8c1-4e2f-9b89-6e8ef872bc6a","ios":"levelo://app?vid=6c6d719e-a8c1-4e2f-9b89-6e8ef872bc6a"},"vehicle_type_id":"4","last_reported":1756357851,"current_range_meters":20400,"station_id":"","pricing_plan_id":"cebpf4jnsgd1na2vs0mg"},{"bike_id":"d1012ec4-1fc3-4e5f-a82c-9d7d73d65c20","system_id":"levelo_inurba_marseille","lat":43.260321,"lon":5.417392,"is_reserved":false,"is_disabled":false,"rental_uris":{"android":"levelo://app?vid=d1012ec4-1fc3-4e5f-a82c-9d7d73d65c20","ios":"levelo://app?vid=d1012ec4-1fc3-4e5f-a82c-9d7d73d65c20"},"vehicle_type_id":"4","last_reported":1756357851,"current_range_meters":20400,"station_id":"","pricing_plan_id":"cebpf4jnsgd1na2vs0mg"},{"bike_id":"73062ea2-c8f0-4ed7-b195-1239ee6e1904","system_id":"levelo_inurba_marseille","lat":43.306081,"lon":5.372351,"is_reserved":false,"is_disabled":false,"rental_uris":{"android":"levelo://app?vid=73062ea2-c8f0-4ed7-b195-1239ee6e1904","ios":"levelo://app?vid=73062ea2-c8f0-4ed7-b195-1239ee6e1904"},"vehicle_type_id":"4","last_reported":1756357851,"current_range_meters":20800,"station_id":"ce4bgqh2rcd13ifvqc4g","pricing_plan_id":"cebpf4jnsgd1na2vs0mg"},{"bike_id":"98ef70d3-b515-433a-8b30-db98078e03f2","system_id":"levelo_inurba_marseille","lat":43.3054,"lon":5.384286,"is_reserved":false,"is_disabled":false,"rental_uris":{"android":"levelo://app?vid=98ef70d3-b515-433a-8b30-db98078e03f2","ios":"levelo://app?vid=98ef70d3-b515-433a-8b30-db98078e03f2"},"vehicle_type_id":"4","last_reported":1756357851,"current_range_meters":20800,"station_id":"ce4bgg92rcd13ifvqb30","pricing_plan_id":"cebpf4jnsgd1na2vs0mg"},{"bike_id":"6166bfd1-2ee9-4ad1-b509-7e03fe6f760b","system_id":"levelo_inurba_marseille","lat":43.311248,"lon":5.377665,"is_reserved":false,"is_disabled":true,"rental_uris":{"android":"levelo://app?vid=6166bfd1-2ee9-4ad1-b509-7e03fe6f760b","ios":"levelo://app?vid=6166bfd1-2ee9-4ad1-b509-7e03fe6f760b"},"vehicle_type_id":"4","last_reported":1756357851,"current_range_meters":20800,"station_id":"ce4bgt92rcd13ifvqcg0","pricing_plan_id":"cebpf4jnsgd1na2vs0mg"},{"bike_id":"75bfbaf3-808c-4902-83fc-5daac8bc1a7e","system_id":"levelo_inurba_marseille","lat":43.27186,"lon":5.4099,"is_reserved":false,"is_disabled":false,"rental_uris":{"android":"levelo://app?vid=75bfbaf3-808c-4902-83fc-5daac8bc1a7e","ios":"levelo://app?vid=75bfbaf3-808c-4902-83fc-5daac8bc1a7e"},"vehicle_type_id":"4","last_reported":1756357851,"current_range_meters":20800,"station_id":"ce4bhl12rcd13ifvqgf0","pricing_plan_id":"cebpf4jnsgd1na2vs0mg"},{"bike_id":"c6a5edcb-70de-442c-867d-206ab7fa279a","system_id":"levelo_inurba_marseille","lat":43.33785,"lon":5.374611,"is_reserved":false,"is_disabled":true,"rental_uris":{"android":"levelo://app?vid=c6a5edcb-70de-442c-867d-206ab7fa279a","ios":"levelo://app?vid=c6a5edcb-70de-442c-867d-206ab7fa279a"},"vehicle_type_id":"4","last_reported":1756357851,"current_range_meters":20800,"station_id":"","pricing_plan_id":"cebpf4jnsgd1na2vs0mg"},