{"last_updated":1743145842,"ttl":60,"version":"2.2","data":{"bikes":[{"bike_id":"658c746c-e8c8-41b3-ba7b-1994d8589c16","system_id":"levelo_inurba_marseille","lat":43.26772,"lon":5.39421,"is_reserved":false,"is_disabled":false,"rental_uris":{"android":"levelo://app?vid=658c746c-e8c8-41b3-ba7b-1994d8589c16","ios":"levelo://app?vid=658c746c-e8c8-41b3-ba7b-1994d8589c16"},"vehicle_type_id":"4","last_reported":1743145843,"current_range_meters":2000,"station_id":"ce4bhh12rcd13ifvqfg0","pricing_plan_id":"cebpf4jnsgd1na2vs0mg"},{"bike_id":"843df293-1c8b-4686-a778-ffa4c17a3a3a","system_id":"levelo_inurba_marseille","lat":43.288598,"lon":5.358477,"is_reserved":false,"is_disabled":false,"rental_uris":{"android":"levelo://app?vid=843df293-1c8b-4686-a778-ffa4c17a3a3a","ios":"levelo://app?vid=843df293-1c8b-4686-a778-ffa4c17a3a3a"},"vehicle_type_id":"4","last_reported":1743145843,"current_range_meters":2800,"station_id":"ce4bgjp2rcd13ifvqbh0","pricing_plan_id":"cebpf4jnsgd1na2vs0mg"},{"bike_id":"b23a18f8-619d-4580-8b65-a001e546f2de","system_id":"levelo_inurba_marseille","lat":43.30364,"lon":5.41891,"is_reserved":false,"is_disabled":true,"rental_uris":{"android":"levelo://app?vid=b23a18f8-619d-4580-8b65-a001e546f2de","ios":"levelo://app?vid=b23a18f8-619d-4580-8b65-a001e546f2de"},"vehicle_type_id":"4","last_reported":1743145843,"current_range_meters":2800,"station_id":"ce4bhop2rcd13ifvqh7g","pricing_plan_id":"cebpf4jnsgd1na2vs0mg"},{"bike_id":"46c34d26-c0c3-4a6a-a026-c8b3d80a994f","system_id":"levelo_inurba_marseille","lat":43.27213,"lon":5.39184,"is_reserved":false,"is_disabled":false,"rental_uris":{"android":"levelo://app?vid=46c34d26-c0c3-4a6a-a026-c8b3d80a994f","ios":"levelo://app?vid=46c34d26-c0c3-4a6a-a026-c8b3d80a994f"},"vehicle_type_id":"4","last_reported":1743145843,"current_range_meters":2800,"station_id":"ce4bhhp2rcd13ifvqfm0","pricing_plan_id":"cebpf4jnsgd1na2vs0mg"},{"bike_id":"a6b1ea2b-6ccb-40ac-9502-0f0bbdb1c898","system_id":"levelo_inurba_marseille","lat":43.30478,"lon":5.3793,"is_reserved":false,"is_disabled":false,"rental_uris":{"android":"levelo://app?vid=a6b1ea2b-6ccb-40ac-9502-0f0bbdb1c898","ios":"levelo://app?vid=a6b1ea2b-6ccb-40ac-9502-0f0bbdb1c898"},"vehicle_type_id":"4","last_reported":1743145843,"current_range_meters":3200,"station_id":"ce4bgup2rcd13ifvqcn0","pricing_plan_id":"cebpf4jnsgd1na2vs0mg"},{"bike_id":"99efc1f2-d62d-419c-a0db-cfaadfa06cd6","system_id":"levelo_inurba_marseille","lat":43.2319,"lon":5.39987,"is_reserved":false,"is_disabled":false,"rental_uris":{"android":"levelo://app?vid=99efc1f2-d62d-419c-a0db-cfaadfa06cd6","ios":"levelo://app?vid=99efc1f2-d62d-419c-a0db-cfaadfa06cd6"},"vehicle_type_id":"4","last_reported":1743145843,"current_range_meters":3200,"station_id":"ce4bhn12rcd13ifvqgqg","pricing_plan_id":"cebpf4jnsgd1na2vs0mg"},{"bike_id":"919cf337-dd99-4661-b221-e70196ebefca","system_id":"levelo_inurba_marseille","lat":43.27494,"lon":5.4245,"is_reserved":false,"is_disabled":false,"rental_uris":{"android":"levelo://app?vid=919cf337-dd99-4661-b221-e70196ebefca","ios":"levelo://app?vid=919cf337-dd99-4661-b221-e70196ebefca"},"vehicle_type_id":"4","last_reported":1743145843,"current_range_meters":3200,"station_id":"ce4bhn92rcd13ifvqgrg","pricing_plan_id":"cebpf4jnsgd1na2vs0mg"},{"bike_id":"9b0db4f1-c6a1-4ca7-86c5-ec1daffe0ea2","system_id":"levelo_inurba_marseille","lat":43.25107,"lon":5.39538,"is_reserved":false,"is_disabled":false,"rental_uris":{"android":"levelo://app?vid=9b0db4f1-c6a1-4ca7-86c5-ec1daffe0ea2","ios":"levelo://app?vid=9b0db4f1-c6a1-4ca7-86c5-ec1daffe0ea2"},"vehicle_type_id":"4","last_reported":1743145843,"current_range_meters":3200,"station_id":"ce4bhm12rcd13ifvqgkg","pricing_plan_id":"cebpf4jnsgd1na2vs0mg"},{"bike_id":"f1fd61b6-faa0-4589-b0c0-ea3c9b40d5f6","system_id":"levelo_inurba_marseille","lat":43.24994,"lon":5.38931,"is_reserved":false,"is_disabled":false,"rental_uris":{"android":"levelo://app?vid=f1fd61b6-faa0-4589-b0c0-ea3c9b40d5f6","ios":"levelo://app?vid=f1fd61b6-faa0-4589-b0c0-ea3c9b40d5f6"},"vehicle_type_id":"4","last_reported":1743145843,"current_range_meters":2800,"station_id":"ce4bhgp2rcd13ifvqfd0","pricing_plan_id":"cebpf4jnsgd1na2vs0mg"},{"bike_id":"c30b4351-a752-4c84-8bf9-e20988da7341","system_id":"levelo_inurba_marseille","lat":43.31505,"lon":5.37309,"is_reserved":false,"is_disabled":false,"rental_uris":{"android":"levelo://app?vid=c30b4351-a752-4c84-8bf9-e20988da7341","ios":"levelo://app?vid=c30b4351-a752-4c84-8bf9-e20988da7341"},"vehicle_type_id":"4","last_reported":1743145843,"current_range_meters":3200,"station_id":"ce4bgt12rcd13ifvqcd0","pricing_plan_id":"cebpf4jnsgd1na2vs0mg"},{"bike_id":"35839a26-4f2a-4f6b-b055-dfb39b8593a4","system_id":"levelo_inurba_marseille","lat":43.24072,"lon":5.37763,"is_reserved":false,"is_disabled":false,"rental_uris":{"android":"levelo://app?vid=35839a26-4f2a-4f6b-b055-dfb39b8593a4","ios":"levelo://app?vid=35839a26-4f2a-4f6b-b055-dfb39b8593a4"},"vehicle_type_id":"4","last_reported":1743145843,"current_range_meters":3200,"station_id":"ce4bhnp2rcd13ifvqgvg","pricing_plan_id":"cebpf4jnsgd1na2vs0mg"},{"bike_id":"f94bc91e-590f-495c-8d0a-1f0907b0ca77","system_id":"levelo_inurba_marseille","lat":43.28268,"lon":5.35063,"is_reserved":false,"is_disabled":false,"rental_uris":{"android":"levelo://app?vid=f94bc91e-590f-495c-8d0a-1f0907b0ca77","ios":"levelo://app?vid=f94bc91e-590f-495c-8d0a-1f0907b0ca77"},"vehicle_type_id":"4","last_reported":1743145843,"current_range_meters":3600,"station_id":"ce4bhbp2rcd13ifvqerg","pricing_plan_id":"cebpf4jnsgd1na2vs0mg"},{"bike_id":"745db27b-7d09-42e9-857e-1a3c13cd5302","system_id":"levelo_inurba_marseille","lat":43.23213,"lon":5.35555,"is_reserved":false,"is_disabled":false,"rental_uris":{"android":"levelo://app?vid=745db27b-7d09-42e9-857e-1a3c13cd5302","ios":"levelo://app?vid=745db27b-7d09-42e9-857e-1a3c13cd5302"},"vehicle_type_id":"4","last_reported":1743145843,"current_range_meters":3600,"station_id":"ce4bhu92rcd13ifvqi70","pricing_plan_id":"cebpf4jnsgd1na2vs0mg"},{"bike_id":"6f47431d-520d-4ae6-bbee-cd128c6d539e","system_id":"levelo_inurba_marseille","lat":43.29894,"lon":5.38808,"is_reserved":false,"is_disabled":false,"rental_uris":{"android":"levelo://app?vid=6f47431d-520d-4ae6-bbee-cd128c6d539e","ios":"levelo://app?vid=6f47431d-520d-4ae6-bbee-cd128c6d539e"},"vehicle_type_id":"4","last_reported":1743145843,"current_range_meters":3600,"station_id":"","pricing_plan_id":"cebpf4jnsgd1na2vs0mg"},{"bike_id":"4e6faa15-fb9c-4955-93bf-3fbbc874f1da","system_id":"levelo_inurba_marseille","lat":43.27987,"lon":5.38684,"is_reserved":false,"is_disabled":false,"rental_uris":{"android":"levelo://app?vid=4e6faa15-fb9c-4955-93bf-3fbbc874f1da","ios":"levelo://app?vid=4e6faa15-fb9c-4955-93bf-3fbbc874f1da"},"vehicle_type_id":"4","last_reported":1743145843,"current_range_meters":3600,"station_id":"","pricing_plan_id":"cebpf4jnsgd1na2vs0mg"},{"bike_id":"abf7290b-7f7a-4eb8-88df-1da5b3c8ffc4","system_id":"levelo_inurba_marseille","lat":43.27506,"lon":5.42449,"is_reserved":false,"is_disabled":false,"rental_uris":{"android":"levelo://app?vid=abf7290b-7f7a-4eb8-88df-1da5b3c8ffc4","ios":"levelo://app?vid=abf7290b-7f7a-4eb8-88df-1da5b3c8ffc4"},"vehicle_type_id":"4","last_reported":1743145843,"current_range_meters":2000,"station_id":"ce4bhn92rcd13ifvqgrg","pricing_plan_id":"cebpf4jnsgd1na2vs0mg"},{"bike_id":"0a66299f-ae8e-48e0-af7a-343db9bc16e9","system_id":"levelo_inurba_marseille","lat":43.286831,"lon":5.399919,"is_reserved":false,"is_disabled":true,"rental_uris":{"android":"levelo://app?vid=0a66299f-ae8e-48e0-af7a-343db9bc16e9","ios":"levelo://app?vid=0a66299f-ae8e-48e0-af7a-343db9bc16e9"},"vehicle_type_id":"4","last_reported":1743145843,"current_range_meters":3600,"station_id":"","pricing_plan_id":"cebpf4jnsgd1na2vs0mg"},{"bike_id":"dc8ccdc9-a018-4504-b0a9-676297905591","system_id":"levelo_inurba_marseille","lat":43.29311,"lon":5.36991,"is_reserved":false,"is_disabled":false,"rental_uris":{"android":"levelo://app?vid=dc8ccdc9-a018-4504-b0a9-676297905591","ios":"levelo://app?vid=dc8ccdc9-a018-4504-b0a9-676297905591"},"vehicle_type_id":"4","last_reported":1743145843,"current_range_meters":3600,"station_id":"","pricing_plan_id":"cebpf4jnsgd1na2vs0mg"},{"bike_id":"7af5af8d-0ade-47ab-9243-72a977ca2327","system_id":"levelo_inurba_marseille","lat":43.23192,"lon":5.39985,"is_reserved":false,"is_disabled":false,"rental_uris":{"android":"levelo://app?vid=7af5af8d-0ade-47ab-9243-72a977ca2327","ios":"levelo://app?vid=7af5af8d-0ade-47ab-9243-72a977ca2327"},"vehicle_type_id":"4","last_reported":1743145843,"current_range_meters":4000,"station_id":"","pricing_plan_id":"cebpf4jnsgd1na2vs0mg"},{"bike_id":"c752cc87-456e-4134-9a44-62eff5dadbd0","system_id":"levelo_inurba_marseille","lat":43.27818,"lon":5.40726,"is_reserved":false,"is_disabled":false,"rental_uris":{"android":"levelo://app?vid=c752cc87-456e-4134-9a44-62eff5dadbd0","ios":"levelo://app?vid=c752cc87-456e-4134-9a44-62eff5dadbd0"},"vehicle_type_id":"4","last_reported":1743145843,"current_range_meters":4000,"station_id":"ce4bhnh2rcd13ifvqgtg","pricing_plan_id":"cebpf4jnsgd1na2vs0mg"},{"bike_id":"38b6247d-7a08-4407-867b-6e9cb2228b7f","system_id":"levelo_inurba_marseille","lat":43.24083,"lon":5.37749,"is_reserved":false,"is_disabled":false,"rental_uris":{"android":"levelo://app?vid=38b6247d-7a08-4407-867b-6e9cb2228b7f","ios":"levelo://app?vid=38b6247d-7a08-4407-867b-6e9cb2228b7f"},"vehicle_type_id":"4","last_reported":1743145843,"current_range_meters":4000,"station_id":"ce4bhnp2rcd13ifvqgvg","pricing_plan_id":"cebpf4jnsgd1na2vs0mg"},{"bike_id":"ea7865e6-f563-4287-ba8f-84168523db35","system_id":"levelo_inurba_marseille","lat":43.283702,"lon":5.380763,"is_reserved":false,"is_disabled":false,"rental_uris":{"android":"levelo://app?vid=ea7865e6-f563-4287-ba8f-84168523db35","ios":"levelo://app?vid=ea7865e6-f563-4287-ba8f-84168523db35"},"vehicle_type_id":"4","last_reported":1743145843,"current_range_meters":4000,"station_id":"ce4bh412rcd13ifvqdr0","pricing_plan_id":"cebpf4jnsgd1na2vs0mg"},{"bike_id":"e62e2f35-f797-4cb0-b8cd-a8d619e448fc","system_id":"levelo_inurba_marseille","lat":43.287064,"lon":5.399765,"is_reserved":false,"is_disabled":false,"rental_uris":{"android":"levelo://app?vid=e62e2f35-f797-4cb0-b8cd-a8d619e448fc","ios":"levelo://app?vid=e62e2f35-f797-4cb0-b8cd-a8d619e448fc"},"vehicle_type_id":"4","last_reported":1743145843,"current_range_meters":4400,"station_id":"ce4bho92rcd13ifvqh3g","pricing_plan_id":"cebpf4jnsgd1na2vs0mg"},{"bike_id":"84a7a785-5392-42bc-8088-fb903bcc7f5c","system_id":"levelo_inurba_marseille","lat":43.23061,"lon":5.35492,"is_reserved":false,"is_disabled":false,"rental_uris":{"android":"levelo://app?vid=84a7a785-5392-42bc-8088-fb903bcc7f5c","ios":"levelo://app?vid=84a7a785-5392-42bc-8088-fb903bcc7f5c"},"vehicle_type_id":"4","last_reported":1743145843,"current_range_meters":4400,"station_id":"cpo3342slgdg3j2ifvpg","pricing_plan_id":"cebpf4jnsgd1na2vs0mg"},{"bike_id":"3c5b9de9-2126-4391-ae19-7c9396efc28b","system_id":"levelo_inurba_marseille","lat":43.25574,"lon":5.38234,"is_reserved":false,"is_disabled":false,"rental_uris":{"android":"levelo://app?vid=3c5b9de9-2126-4391-ae19-7c9396efc28b","ios":"levelo://app?vid=3c5b9de9-2126-4391-ae19-7c9396efc28b"},"vehicle_type_id":"4","last_reported":1743145843,"current_range_meters":4400,"station_id":"ce4bhih2rcd13ifvqfs0","pricing_plan_id":"cebpf4jnsgd1na2vs0mg"},{"bike_id":"aa7c2e22-86c3-413e-9872-8513d57b9e13","system_id":"levelo_inurba_marseille","lat":43.23038,"lon":5.35517,"is_reserved":false,"is_disabled":false,"rental_uris":{"android":"levelo://app?vid=aa7c2e22-86c3-413e-9872-8513d57b9e13","ios":"levelo://app?vid=aa7c2e22-86c3-413e-9872-8513d57b9e13"},"vehicle_type_id":"4","last_reported":1743145843,"current_range_meters":4400,"station_id":"cpo3342slgdg3j2ifvpg","pricing_plan_id":"cebpf4jnsgd1na2vs0mg"},{"bike_id":"8d022c24-2692-4c3d-bde4-f3d25e8d0841","system_id":"levelo_inurba_marseille","lat":43.22934,"lon":5.35377,"is_reserved":false,"is_disabled":false,"rental_uris":{"android":"levelo://app?vid=8d022c24-2692-4c3d-bde4-f3d25e8d0841","ios":"levelo://app?vid=8d022c24-2692-4c3d-bde4-f3d25e8d0841"},"vehicle_type_id":"4","last_reported":1743145843,"current_range_meters":4400,"station_id":"cpo3532slgdg3j2ikp40","pricing_plan_id":"cebpf4jnsgd1na2vs0mg"},{"bike_id":"18cf2e35-ced7-456c-9cdf-6c3d31d9091d","system_id":"levelo_inurba_marseille","lat":43.232029,"lon":5.355474,"is_reserved":false,"is_disabled":false,"rental_uris":{"android":"levelo://app?vid=18cf2e35-ced7-456c-9cdf-6c3d31d9091d","ios":"levelo://app?vid=18cf2e35-ced7-456c-9cdf-6c3d31d9091d"},"vehicle_type_id":"4","last_reported":1743145843,"current_range_meters":4800,"station_id":"ce4bhu92rcd13ifvqi70","pricing_plan_id":"cebpf4jnsgd1na2vs0mg"},{"bike_id":"29e2f5e2-552c-4bc0-ae69-29504b2730bf","system_id":"levelo_inurba_marseille","lat":43.30258,"lon":5.40067,"is_reserved":false,"is_disabled":false,"rental_uris":{"android":"levelo://app?vid=29e2f5e2-552c-4bc0-ae69-29504b2730bf","ios":"levelo://app?vid=29e2f5e2-552c-4bc0-ae69-29504b2730bf"},"vehicle_type_id":"4","last_reported":1743145843,"current_range_meters":4800,"station_id":"ce4bgvh2rcd13ifvqcs0","pricing_plan_id":"cebpf4jnsgd1na2vs0mg"},{"bike_id":"dd5783c6-158d-4cbc-b771-8d0cc786b4bb","system_id":"levelo_inurba_marseille","lat":43.265613,"lon":5.390045,"is_reserved":false,"is_disabled":false,"rental_uris":{"android":"levelo://app?vid=dd5783c6-158d-4cbc-b771-8d0cc786b4bb","ios":"levelo://app?vid=dd5783c6-158d-4cbc-b771-8d0cc786b4bb"},"vehicle_type_id":"4","last_reported":1743145843,"current_range_meters":4800,"station_id":"ce4bhe12rcd13ifvqf30","pricing_plan_id":"cebpf4jnsgd1na2vs0mg"},{"bike_id":"bd5d6a8b-b8f9-43e0-a506-62778ce0545d","system_id":"levelo_inurba_marseille","lat":43.29022,"lon":5.38645,"is_reserved":false,"is_disabled":false,"rental_uris":{"android":"levelo://app?vid=bd5d6a8b-b8f9-43e0-a506-62778ce0545d","ios":"levelo://app?vid=bd5d6a8b-b8f9-43e0-a506-62778ce0545d"},"vehicle_type_id":"4","last_reported":1743145843,"current_range_meters":4800,"station_id":"ce4bh4p2rcd13ifvqe0g","pricing_plan_id":"cebpf4jnsgd1na2vs0mg"},{"bike_id":"a2cca4d0-900f-4d24-81a4-a34f6c38f996","system_id":"levelo_inurba_marseille","lat":43.2695,"lon":5.40302,"is_reserved":false,"is_disabled":false,"rental_uris":{"android":"levelo://app?vid=a2cca4d0-900f-4d24-81a4-a34f6c38f996","ios":"levelo://app?vid=a2cca4d0-900f-4d24-81a4-a34f6c38f996"},"vehicle_type_id":"4","last_reported":1743145843,"current_range_meters":4800,"station_id":"cjm6bp8fraef2m0cb0m0","pricing_plan_id":"cebpf4jnsgd1na2vs0mg"},{"bike_id":"88a5784f-6807-415e-8139-a442d7119eb7","system_id":"levelo_inurba_marseille","lat":43.30609,"lon":5.3936,"is_reserved":false,"is_disabled":true,"rental_uris":{"android":"levelo://app?vid=88a5784f-6807-415e-8139-a442d7119eb7","ios":"levelo://app?vid=88a5784f-6807-415e-8139-a442d7119eb7"},"vehicle_type_id":"4","last_reported":1743145843,"current_range_meters":4800,"station_id":"ce4bh0p2rcd13ifvqd80","pricing_plan_id":"cebpf4jnsgd1na2vs0mg"},{"bike_id":"ece1a5ca-08a5-4705-913e-a2931f6eb127","system_id":"levelo_inurba_marseille","lat":43.305647,"lon":5.382647,"is_reserved":false,"is_disabled":false,"rental_uris":{"android":"levelo://app?vid=ece1a5ca-08a5-4705-913e-a2931f6eb127","ios":"levelo://app?vid=ece1a5ca-08a5-4705-913e-a2931f6eb127"},"vehicle_type_id":"4","last_reported":1743145843,"current_range_meters":5600,"station_id":"ce4bgup2rcd13ifvqcn0","pricing_plan_id":"cebpf4jnsgd1na2vs0mg"},{"bike_id":"2c22799e-ea82-4e88-a93a-7d4c8ef1626c","system_id":"levelo_inurba_marseille","lat":43.304352,"lon":5.388994,"is_reserved":false,"is_disabled":false,"rental_uris":{"android":"levelo://app?vid=2c22799e-ea82-4e88-a93a-7d4c8ef1626c","ios":"levelo://app?vid=2c22799e-ea82-4e88-a93a-7d4c8ef1626c"},"vehicle_type_id":"4","last_reported":1743145843,"current_range_meters":5600,"station_id":"ce4bgk12rcd13ifvqbi0","pricing_plan_id":"cebpf4jnsgd1na2vs0mg"},{"bike_id":"2483566e-47c3-41d6-9cbd-286a95146329","system_id":"levelo_inurba_marseille","lat":43.243878,"lon":5.370568,"is_reserved":false,"is_disabled":false,"rental_uris":{"android":"levelo://app?vid=2483566e-47c3-41d6-9cbd-286a95146329","ios":"levelo://app?vid=2483566e-47c3-41d6-9cbd-286a95146329"},"vehicle_type_id":"4","last_reported":1743145843,"current_range_meters":5600,"station_id":"ce4bhhh2rcd13ifvqfk0","pricing_plan_id":"cebpf4jnsgd1na2vs0mg"},{"bike_id":"f6df5df7-0c6d-4f12-bd8f-6f8eaeb807d7","system_id":"levelo_inurba_marseille","lat":43.27939,"lon":5.41046,"is_reserved":false,"is_disabled":false,"rental_uris":{"android":"levelo://app?vid=f6df5df7-0c6d-4f12-bd8f-6f8eaeb807d7","ios":"levelo://app?vid=f6df5df7-0c6d-4f12-bd8f-6f8eaeb807d7"},"vehicle_type_id":"4","last_reported":1743145843,"current_range_meters":5600,"station_id":"ce4bhnp2rcd13ifvqh0g","pricing_plan_id":"cebpf4jnsgd1na2vs0mg"},{"bike_id":"bf8f689d-9d07-4902-b5ae-7d4e985b967a","system_id":"levelo_inurba_marseille","lat":43.29529,"lon":5.39036,"is_reserved":false,"is_disabled":true,"rental_uris":{"android":"levelo://app?vid=bf8f689d-9d07-4902-b5ae-7d4e985b967a","ios":"levelo://app?vid=bf8f689d-9d07-4902-b5ae-7d4e985b967a"},"vehicle_type_id":"4","last_reported":1743145843,"current_range_meters":5600,"station_id":"ce4bh3p2rcd13ifvqdp0","pricing_plan_id":"cebpf4jnsgd1na2vs0mg"},{"bike_id":"b1a4651c-c27c-4a45-a5cc-0bdd35d02e20","system_id":"levelo_inurba_marseille","lat":43.31695,"lon":5.37732,"is_reserved":false,"is_disabled":false,"rental_uris":{"android":"levelo://app?vid=b1a4651c-c27c-4a45-a5cc-0bdd35d02e20","ios":"levelo://app?vid=b1a4651c-c27c-4a45-a5cc-0bdd35d02e20"},"vehicle_type_id":"4","last_reported":1743145843,"current_range_meters":5600,"station_id":"ce4bgth2rcd13ifvqch0","pricing_plan_id":"cebpf4jnsgd1na2vs0mg"},{"bike_id":"72407b9c-71b7-4feb-83e9-97e5f2a36163","system_id":"levelo_inurba_marseille","lat":43.24166,"lon":5.36401,"is_reserved":false,"is_disabled":false,"rental_uris":{"android":"levelo://app?vid=72407b9c-71b7-4feb-83e9-97e5f2a36163","ios":"levelo://app?vid=72407b9c-71b7-4feb-83e9-97e5f2a36163"},"vehicle_type_id":"4","last_reported":1743145843,"current_range_meters":6000,"station_id":"cpo36qri1sfpv3e86is0","pricing_plan_id":"cebpf4jnsgd1na2vs0mg"},{"bike_id":"3d757611-64f1-4f35-a117-e58c1211c296","system_id":"levelo_inurba_marseille","lat":43.3046,"lon":5.3791,"is_reserved":false,"is_disabled":false,"rental_uris":{"android":"levelo://app?vid=3d757611-64f1-4f35-a117-e58c1211c296","ios":"levelo://app?vid=3d757611-64f1-4f35-a117-e58c1211c296"},"vehicle_type_id":"4","last_reported":1743145843,"current_range_meters":6000,"station_id":"ce4bgup2rcd13ifvqcn0","pricing_plan_id":"cebpf4jnsgd1na2vs0mg"},{"bike_id":"a4d800e4-39bc-4da7-938b-6d70bc0258cd","system_id":"levelo_inurba_marseille","lat":43.28461,"lon":5.35897,"is_reserved":false,"is_disabled":false,"rental_uris":{"android":"levelo://app?vid=a4d800e4-39bc-4da7-938b-6d70bc0258cd","ios":"levelo://app?vid=a4d800e4-39bc-4da7-938b-6d70bc0258cd"},"vehicle_type_id":"4","last_reported":1743145843,"current_range_meters":6000,"station_id":"ce4bhah2rcd13ifvqei0","pricing_plan_id":"cebpf4jnsgd1na2vs0mg"},{"bike_id":"8a3b71e0-e9af-42e8-ba18-9fedf3139055","system_id":"levelo_inurba_marseille","lat":43.241222,"lon":5.378483,"is_reserved":false,"is_disabled":false,"rental_uris":{"android":"levelo://app?vid=8a3b71e0-e9af-42e8-ba18-9fedf3139055","ios":"levelo://app?vid=8a3b71e0-e9af-42e8-ba18-9fedf3139055"},"vehicle_type_id":"4","last_reported":1743145843,"current_range_meters":6000,"station_id":"ce4bhnp2rcd13ifvqgvg","pricing_plan_id":"cebpf4jnsgd1na2vs0mg"},{"bike_id":"40046afd-c6aa-43ea-88bd-183a4d2ec61c","system_id":"levelo_inurba_marseille","lat":43.31598,"lon":5.41675,"is_reserved":false,"is_disabled":false,"rental_uris":{"android":"levelo://app?vid=40046afd-c6aa-43ea-88bd-183a4d2ec61c","ios":"levelo://app?vid=40046afd-c6aa-43ea-88bd-183a4d2ec61c"},"vehicle_type_id":"4","last_reported":1743145843,"current_range_meters":6400,"station_id":"","pricing_plan_id":"cebpf4jnsgd1na2vs0mg"},{"bike_id":"67372431-a0a3-4e95-b53b-6e36bdd9f44f","system_id":"levelo_inurba_marseille","lat":43.31475,"lon":5.37269,"is_reserved":false,"is_disabled":false,"rental_uris":{"android":"levelo://app?vid=67372431-a0a3-4e95-b53b-6e36bdd9f44f","ios":"levelo://app?vid=67372431-a0a3-4e95-b53b-6e36bdd9f44f"},"vehicle_type_id":"4","last_reported":1743145843,"current_range_meters":6400,"station_id":"ce4bgt12rcd13ifvqcd0","pricing_plan_id":"cebpf4jnsgd1na2vs0mg"},{"bike_id":"e7c35463-5451-48d4-bbfe-19c6748f509b","system_id":"levelo_inurba_marseille","lat":43.27499,"lon":5.42449,"is_reserved":false,"is_disabled":false,"rental_uris":{"android":"levelo://app?vid=e7c35463-5451-48d4-bbfe-19c6748f509b","ios":"levelo://app?vid=e7c35463-5451-48d4-bbfe-19c6748f509b"},"vehicle_type_id":"4","last_reported":1743145843,"current_range_meters":6400,"station_id":"ce4bhn92rcd13ifvqgrg","pricing_plan_id":"cebpf4jnsgd1na2vs0mg"},{"bike_id":"0e173472-5a4b-4021-b0c5-dd55f1f57390","system_id":"levelo_inurba_marseille","lat":43.25099,"lon":5.39521,"is_reserved":false,"is_disabled":false,"rental_uris":{"android":"levelo://app?vid=0e173472-5a4b-4021-b0c5-dd55f1f57390","ios":"levelo://app?vid=0e173472-5a4b-4021-b0c5-dd55f1f57390"},"vehicle_type_id":"4","last_reported":1743145843,"current_range_meters":6400,"station_id":"ce4bhm12rcd13ifvqgkg","pricing_plan_id":"cebpf4jnsgd1na2vs0mg"},{"bike_id":"46c92c67-a9e1-4996-b4c8-2976ff580333","system_id":"levelo_inurba_marseille","lat":43.24064,"lon":5.37745,"is_reserved":false,"is_disabled":false,"rental_uris":{"android":"levelo://app?vid=46c92c67-a9e1-4996-b4c8-2976ff580333","ios":"levelo://app?vid=46c92c67-a9e1-4996-b4c8-2976ff580333"},"vehicle_type_id":"4","last_reported":1743145843,"current_range_meters":6400,"station_id":"ce4bhnp2rcd13ifvqgvg","pricing_plan_id":"cebpf4jnsgd1na2vs0mg"},{"bike_id":"73bec13f-6c3e-46ec-a921-7aa3adfe7694","system_id":"levelo_inurba_marseille","lat":43.24076,"lon":5.37747,"is_reserved":false,"is_disabled":false,"rental_uris":{"android":"levelo://app?vid=73bec13f-6c3e-46ec-a921-7aa3adfe7694","ios":"levelo://app?vid=73bec13f-6c3e-46ec-a921-7aa3adfe7694"},"vehicle_type_id":"4","last_reported":1743145843,"current_range_meters":8000,"station_id":"ce4bhnp2rcd13ifvqgvg","pricing_plan_id":"cebpf4jnsgd1na2vs0mg"},{"bike_id":"da11e873-8731-4153-a3ab-5e5a7f846d22","system_id":"levelo_inurba_marseille","lat":43.2869,"lon":5.39982,"is_reserved":false,"is_disabled":false,"rental_uris":{"android":"levelo://app?vid=da11e873-8731-4153-a3ab-5e5a7f846d22","ios":"levelo://app?vid=da11e873-8731-4153-a3ab-5e5a7f846d22"},"vehicle_type_id":"4","last_reported":1743145843,"current_range_meters":6400,"station_id":"ce4bho92rcd13ifvqh3g","pricing_plan_id":"cebpf4jnsgd1na2vs0mg"},{"bike_id":"4ea2dc4a-53b8-4d21-b056-faf850ab7b24","system_id":"levelo_inurba_marseille","lat":43.29563,"lon":5.42279,"is_reserved":false,"is_disabled":false,"rental_uris":{"android":"levelo://app?vid=4ea2dc4a-53b8-4d21-b056-faf850ab7b24","ios":"levelo://app?vid=4ea2dc4a-53b8-4d21-b056-faf850ab7b24"},"vehicle_type_id":"4","last_reported":1743145843,"current_range_meters":6800,"station_id":"ce4bhph2rcd13ifvqhdg","pricing_plan_id":"cebpf4jnsgd1na2vs0mg"},{"bike_id":"401ad98b-504b-439e-a2c1-ed1028804652","system_id":"levelo_inurba_marseille","lat":43.30527,"lon":5.3653,"is_reserved":false,"is_disabled":false,"rental_uris":{"android":"levelo://app?vid=401ad98b-504b-439e-a2c1-ed1028804652","ios":"levelo://app?vid=401ad98b-504b-439e-a2c1-ed1028804652"},"vehicle_type_id":"4","last_reported":1743145843,"current_range_meters":6800,"station_id":"ce4bgs12rcd13ifvqcag","pricing_plan_id":"cebpf4jnsgd1na2vs0mg"},{"bike_id":"02e20fb1-7577-485c-843b-b7f55b498856","system_id":"levelo_inurba_marseille","lat":43.302,"lon":5.39476,"is_reserved":false,"is_disabled":false,"rental_uris":{"android":"levelo://app?vid=02e20fb1-7577-485c-843b-b7f55b498856","ios":"levelo://app?vid=02e20fb1-7577-485c-843b-b7f55b498856"},"vehicle_type_id":"4","last_reported":1743145843,"current_range_meters":6800,"station_id":"ce4bh0p2rcd13ifvqd70","pricing_plan_id":"cebpf4jnsgd1na2vs0mg"},{"bike_id":"364c967b-8ec0-4ffb-9c1f-f3dcbe8f35a4","system_id":"levelo_inurba_marseille","lat":43.29029,"lon":5.39973,"is_reserved":false,"is_disabled":false,"rental_uris":{"android":"levelo://app?vid=364c967b-8ec0-4ffb-9c1f-f3dcbe8f35a4","ios":"levelo://app?vid=364c967b-8ec0-4ffb-9c1f-f3dcbe8f35a4"},"vehicle_type_id":"4","last_reported":1743145843,"current_range_meters":6800,"station_id":"ce4bh392rcd13ifvqdm0","pricing_plan_id":"cebpf4jnsgd1na2vs0mg"},{"bike_id":"30cd612a-8cb0-4fab-9e3a-cd08e9fc22b5","system_id":"levelo_inurba_marseille","lat":43.29521,"lon":5.39403,"is_reserved":false,"is_disabled":true,"rental_uris":{"android":"levelo://app?vid=30cd612a-8cb0-4fab-9e3a-cd08e9fc22b5","ios":"levelo://app?vid=30cd612a-8cb0-4fab-9e3a-cd08e9fc22b5"},"vehicle_type_id":"4","last_reported":1743145843,"current_range_meters":6800,"station_id":"ce4bh292rcd13ifvqdf0","pricing_plan_id":"cebpf4jnsgd1na2vs0mg"},{"bike_id":"3ed43adb-6748-4a3f-86d5-ca191d511593","system_id":"levelo_inurba_marseille","lat":43.28659,"lon":5.36338,"is_reserved":false,"is_disabled":false,"rental_uris":{"android":"levelo://app?vid=3ed43adb-6748-4a3f-86d5-ca191d511593","ios":"levelo://app?vid=3ed43adb-6748-4a3f-86d5-ca191d511593"},"vehicle_type_id":"4","last_reported":1743145843,"current_range_meters":6800,"station_id":"ce4bhah2rcd13ifvqej0","pricing_plan_id":"cebpf4jnsgd1na2vs0mg"},{"bike_id":"c18155db-65c7-4d5a-8c5b-923eb75c675d","system_id":"levelo_inurba_marseille","lat":43.32111,"lon":5.36786,"is_reserved":false,"is_disabled":false,"rental_uris":{"android":"levelo://app?vid=c18155db-65c7-4d5a-8c5b-923eb75c675d","ios":"levelo://app?vid=c18155db-65c7-4d5a-8c5b-923eb75c675d"},"vehicle_type_id":"4","last_reported":1743145843,"current_range_meters":6800,"station_id":"ce4bhrh2rcd13ifvqhug","pricing_plan_id":"cebpf4jnsgd1na2vs0mg"},{"bike_id":"32a26601-876e-446b-9cd6-57aab3decca3","system_id":"levelo_inurba_marseille","lat":43.240736,"lon":5.377654,"is_reserved":false,"is_disabled":false,"rental_uris":{"android":"levelo://app?vid=32a26601-876e-446b-9cd6-57aab3decca3","ios":"levelo://app?vid=32a26601-876e-446b-9cd6-57aab3decca3"},"vehicle_type_id":"4","last_reported":1743145843,"current_range_meters":6800,"station_id":"ce4bhnp2rcd13ifvqgvg","pricing_plan_id":"cebpf4jnsgd1na2vs0mg"},{"bike_id":"698d76f0-70ff-4d11-945c-f5b734af1d7d","system_id":"levelo_inurba_marseille","lat":43.30465,"lon":5.37902,"is_reserved":false,"is_disabled":false,"rental_uris":{"android":"levelo://app?vid=698d76f0-70ff-4d11-945c-f5b734af1d7d","ios":"levelo://app?vid=698d76f0-70ff-4d11-945c-f5b734af1d7d"},"vehicle_type_id":"4","last_reported":1743145843,"current_range_meters":6800,"station_id":"ce4bgup2rcd13ifvqcn0","pricing_plan_id":"cebpf4jnsgd1na2vs0mg"},{"bike_id":"27b21e06-28c3-4316-8913-c1642119c8d8","system_id":"levelo_inurba_marseille","lat":43.30543,"lon":5.36707,"is_reserved":false,"is_disabled":false,"rental_uris":{"android":"levelo://app?vid=27b21e06-28c3-4316-8913-c1642119c8d8","ios":"levelo://app?vid=27b21e06-28c3-4316-8913-c1642119c8d8"},"vehicle_type_id":"4","last_reported":1743145843,"current_range_meters":6800,"station_id":"ce4bgrp2rcd13ifvqc9g","pricing_plan_id":"cebpf4jnsgd1na2vs0mg"},{"bike_id":"06599078-8d3c-4fc3-a42a-a2f2b001382c","system_id":"levelo_inurba_marseille","lat":43.30543,"lon":5.36592,"is_reserved":false,"is_disabled":false,"rental_uris":{"android":"levelo://app?vid=06599078-8d3c-4fc3-a42a-a2f2b001382c","ios":"levelo://app?vid=06599078-8d3c-4fc3-a42a-a2f2b001382c"},"vehicle_type_id":"4","last_reported":1743145843,"current_range_meters":6800,"station_id":"ce4bgs12rcd13ifvqcag","pricing_plan_id":"cebpf4jnsgd1na2vs0mg"},{"bike_id":"2572e6e3-dd66-4d2f-adbc-7c4ae747f503","system_id":"levelo_inurba_marseille","lat":43.28224,"lon":5.390714,"is_reserved":false,"is_disabled":false,"rental_uris":{"android":"levelo://app?vid=2572e6e3-dd66-4d2f-adbc-7c4ae747f503","ios":"levelo://app?vid=2572e6e3-dd66-4d2f-adbc-7c4ae747f503"},"vehicle_type_id":"4","last_reported":1743145843,"current_range_meters":7200,"station_id":"ce4bh392rcd13ifvqdm0","pricing_plan_id":"cebpf4jnsgd1na2vs0mg"},{"bike_id":"2079e143-15fb-4fca-b428-1dcdbd2da2aa","system_id":"levelo_inurba_marseille","lat":43.27821,"lon":5.40718,"is_reserved":false,"is_disabled":false,"rental_uris":{"android":"levelo://app?vid=2079e143-15fb-4fca-b428-1dcdbd2da2aa","ios":"levelo://app?vid=2079e143-15fb-4fca-b428-1dcdbd2da2aa"},"vehicle_type_id":"4","last_reported":1743145843,"current_range_meters":7200,"station_id":"ce4bhnh2rcd13ifvqgtg","pricing_plan_id":"cebpf4jnsgd1na2vs0mg"},{"bike_id":"b692cfb6-c9c0-405d-8e0a-61268b620404","system_id":"levelo_inurba_marseille","lat":43.29261,"lon":5.38441,"is_reserved":false,"is_disabled":true,"rental_uris":{"android":"levelo://app?vid=b692cfb6-c9c0-405d-8e0a-61268b620404","ios":"levelo://app?vid=b692cfb6-c9c0-405d-8e0a-61268b620404"},"vehicle_type_id":"4","last_reported":1743145843,"current_range_meters":7200,"station_id":"ce4bh692rcd13ifvqea0","pricing_plan_id":"cebpf4jnsgd1na2vs0mg"},{"bike_id":"17b1da2e-cc36-4637-a80f-4ef293dab478","system_id":"levelo_inurba_marseille","lat":43.28354,"lon":5.38105,"is_reserved":false,"is_disabled":false,"rental_uris":{"android":"levelo://app?vid=17b1da2e-cc36-4637-a80f-4ef293dab478","ios":"levelo://app?vid=17b1da2e-cc36-4637-a80f-4ef293dab478"},"vehicle_type_id":"4","last_reported":1743145843,"current_range_meters":7200,"station_id":"ce4bh412rcd13ifvqdr0","pricing_plan_id":"cebpf4jnsgd1na2vs0mg"},{"bike_id":"3c277b55-24b0-4d11-9ee6-025bbff850b5","system_id":"levelo_inurba_marseille","lat":43.31517,"lon":5.373,"is_reserved":false,"is_disabled":false,"rental_uris":{"android":"levelo://app?vid=3c277b55-24b0-4d11-9ee6-025bbff850b5","ios":"levelo://app?vid=3c277b55-24b0-4d11-9ee6-025bbff850b5"},"vehicle_type_id":"4","last_reported":1743145843,"current_range_meters":7200,"station_id":"ce4bgt12rcd13ifvqcd0","pricing_plan_id":"cebpf4jnsgd1na2vs0mg"},{"bike_id":"c5d17eb8-cde1-49a3-9672-ac8d8cf34632","system_id":"levelo_inurba_marseille","lat":43.334265,"lon":5.399834,"is_reserved":false,"is_disabled":false,"rental_uris":{"android":"levelo://app?vid=c5d17eb8-cde1-49a3-9672-ac8d8cf34632","ios":"levelo://app?vid=c5d17eb8-cde1-49a3-9672-ac8d8cf34632"},"vehicle_type_id":"4","last_reported":1743145843,"current_range_meters":7200,"station_id":"","pricing_plan_id":"cebpf4jnsgd1na2vs0mg"},{"bike_id":"e6edd587-41df-46b2-b0cb-080dae2363e0","system_id":"levelo_inurba_marseille","lat":43.23165,"lon":5.43712,"is_reserved":false,"is_disabled":false,"rental_uris":{"android":"levelo://app?vid=e6edd587-41df-46b2-b0cb-080dae2363e0","ios":"levelo://app?vid=e6edd587-41df-46b2-b0cb-080dae2363e0"},"vehicle_type_id":"4","last_reported":1743145843,"current_range_meters":7200,"station_id":"ce4bhmp2rcd13ifvqgog","pricing_plan_id":"cebpf4jnsgd1na2vs0mg"},{"bike_id":"09a227f9-e81f-4ae4-8d74-65daf422601e","system_id":"levelo_inurba_marseille","lat":43.248158,"lon":5.374598,"is_reserved":false,"is_disabled":false,"rental_uris":{"android":"levelo://app?vid=09a227f9-e81f-4ae4-8d74-65daf422601e","ios":"levelo://app?vid=09a227f9-e81f-4ae4-8d74-65daf422601e"},"vehicle_type_id":"4","last_reported":1743145843,"current_range_meters":8000,"station_id":"ce4bhgh2rcd13ifvqfb0","pricing_plan_id":"cebpf4jnsgd1na2vs0mg"},{"bike_id":"83d5c7e2-d0f3-454f-a357-cd5f0b5613b3","system_id":"levelo_inurba_marseille","lat":43.288626,"lon":5.358412,"is_reserved":false,"is_disabled":false,"rental_uris":{"android":"levelo://app?vid=83d5c7e2-d0f3-454f-a357-cd5f0b5613b3","ios":"levelo://app?vid=83d5c7e2-d0f3-454f-a357-cd5f0b5613b3"},"vehicle_type_id":"4","last_reported":1743145843,"current_range_meters":8000,"station_id":"ce4bgrp2rcd13ifvqc9g","pricing_plan_id":"cebpf4jnsgd1na2vs0mg"},{"bike_id":"918a58ed-e860-41ef-bd73-9cdbd97e19d1","system_id":"levelo_inurba_marseille","lat":43.240755,"lon":5.37753,"is_reserved":false,"is_disabled":false,"rental_uris":{"android":"levelo://app?vid=918a58ed-e860-41ef-bd73-9cdbd97e19d1","ios":"levelo://app?vid=918a58ed-e860-41ef-bd73-9cdbd97e19d1"},"vehicle_type_id":"4","last_reported":1743145843,"current_range_meters":8000,"station_id":"ce4bhnp2rcd13ifvqgvg","pricing_plan_id":"cebpf4jnsgd1na2vs0mg"},{"bike_id":"e8230e4e-d9a7-46c2-83b0-eec450bbd0c3","system_id":"levelo_inurba_marseille","lat":43.28737,"lon":5.36108,"is_reserved":false,"is_disabled":false,"rental_uris":{"android":"levelo://app?vid=e8230e4e-d9a7-46c2-83b0-eec450bbd0c3","ios":"levelo://app?vid=e8230e4e-d9a7-46c2-83b0-eec450bbd0c3"},"vehicle_type_id":"4","last_reported":1743145843,"current_range_meters":8000,"station_id":"cki0cbj6b192h4jlfktg","pricing_plan_id":"cebpf4jnsgd1na2vs0mg"},{"bike_id":"bd7353bc-e48b-402d-814b-fe59b4e09d98","system_id":"levelo_inurba_marseille","lat":43.28367,"lon":5.38134,"is_reserved":false,"is_disabled":false,"rental_uris":{"android":"levelo://app?vid=bd7353bc-e48b-402d-814b-fe59b4e09d98","ios":"levelo://app?vid=bd7353bc-e48b-402d-814b-fe59b4e09d98"},"vehicle_type_id":"4","last_reported":1743145843,"current_range_meters":8000,"station_id":"ce4bh412rcd13ifvqdr0","pricing_plan_id":"cebpf4jnsgd1na2vs0mg"},{"bike_id":"0d268bc8-088b-4f54-90a0-0d14ccc60ae3","system_id":"levelo_inurba_marseille","lat":43.29287,"lon":5.37443,"is_reserved":false,"is_disabled":true,"rental_uris":{"android":"levelo://app?vid=0d268bc8-088b-4f54-90a0-0d14ccc60ae3","ios":"levelo://app?vid=0d268bc8-088b-4f54-90a0-0d14ccc60ae3"},"vehicle_type_id":"4","last_reported":1743145843,"current_range_meters":8000,"station_id":"ce4bgi12rcd13ifvqb70","pricing_plan_id":"cebpf4jnsgd1na2vs0mg"},{"bike_id":"c2b2855c-41ae-499f-8875-ca6d2f28e759","system_id":"levelo_inurba_marseille","lat":43.30781,"lon":5.43521,"is_reserved":false,"is_disabled":false,"rental_uris":{"android":"levelo://app?vid=c2b2855c-41ae-499f-8875-ca6d2f28e759","ios":"levelo://app?vid=c2b2855c-41ae-499f-8875-ca6d2f28e759"},"vehicle_type_id":"4","last_reported":1743145843,"current_range_meters":8000,"station_id":"ce4bhph2rcd13ifvqheg","pricing_plan_id":"cebpf4jnsgd1na2vs0mg"},{"bike_id":"19e38d77-2365-4e29-8b7f-4b939803f13f","system_id":"levelo_inurba_marseille","lat":43.29935,"lon":5.36552,"is_reserved":false,"is_disabled":false,"rental_uris":{"android":"levelo://app?vid=19e38d77-2365-4e29-8b7f-4b939803f13f","ios":"levelo://app?vid=19e38d77-2365-4e29-8b7f-4b939803f13f"},"vehicle_type_id":"4","last_reported":1743145843,"current_range_meters":8000,"station_id":"ce4bgm92rcd13ifvqbr0","pricing_plan_id":"cebpf4jnsgd1na2vs0mg"},{"bike_id":"fc8e8371-f4e9-4721-bc19-563801e389dc","system_id":"levelo_inurba_marseille","lat":43.337444,"lon":5.374475,"is_reserved":false,"is_disabled":false,"rental_uris":{"android":"levelo://app?vid=fc8e8371-f4e9-4721-bc19-563801e389dc","ios":"levelo://app?vid=fc8e8371-f4e9-4721-bc19-563801e389dc"},"vehicle_type_id":"4","last_reported":1743145843,"current_range_meters":8000,"station_id":"","pricing_plan_id":"cebpf4jnsgd1na2vs0mg"},{"bike_id":"653b8eba-a23a-45fe-87c3-6a270637d839","system_id":"levelo_inurba_marseille","lat":43.30336,"lon":5.4044,"is_reserved":false,"is_disabled":false,"rental_uris":{"android":"levelo://app?vid=653b8eba-a23a-45fe-87c3-6a270637d839","ios":"levelo://app?vid=653b8eba-a23a-45fe-87c3-6a270637d839"},"vehicle_type_id":"4","last_reported":1743145843,"current_range_meters":8400,"station_id":"ce4bh012rcd13ifvqd10","pricing_plan_id":"cebpf4jnsgd1na2vs0mg"},{"bike_id":"3a9bdcca-abab-46db-a40a-336182c98f57","system_id":"levelo_inurba_marseille","lat":43.278224,"lon":5.407162,"is_reserved":false,"is_disabled":false,"rental_uris":{"android":"levelo://app?vid=3a9bdcca-abab-46db-a40a-336182c98f57","ios":"levelo://app?vid=3a9bdcca-abab-46db-a40a-336182c98f57"},"vehicle_type_id":"4","last_reported":1743145843,"current_range_meters":8400,"station_id":"ce4bhnh2rcd13ifvqgtg","pricing_plan_id":"cebpf4jnsgd1na2vs0mg"},{"bike_id":"ec940620-2a09-4eae-aace-1a0a72b62180","system_id":"levelo_inurba_marseille","lat":43.30291,"lon":5.40078,"is_reserved":false,"is_disabled":false,"rental_uris":{"android":"levelo://app?vid=ec940620-2a09-4eae-aace-1a0a72b62180","ios":"levelo://app?vid=ec940620-2a09-4eae-aace-1a0a72b62180"},"vehicle_type_id":"4","last_reported":1743145843,"current_range_meters":8400,"station_id":"ce4bgvh2rcd13ifvqcs0","pricing_plan_id":"cebpf4jnsgd1na2vs0mg"},{"bike_id":"2f2e3b28-5b12-41a4-9525-3ffcfe8f97e9","system_id":"levelo_inurba_marseille","lat":43.28038,"lon":5.36964,"is_reserved":false,"is_disabled":false,"rental_uris":{"android":"levelo://app?vid=2f2e3b28-5b12-41a4-9525-3ffcfe8f97e9","ios":"levelo://app?vid=2f2e3b28-5b12-41a4-9525-3ffcfe8f97e9"},"vehicle_type_id":"4","last_reported":1743145843,"current_range_meters":8400,"station_id":"ce4bha12rcd13ifvqef0","pricing_plan_id":"cebpf4jnsgd1na2vs0mg"},{"bike_id":"0ac88cdf-dd3a-494f-aaa5-2b24d1ce393f","system_id":"levelo_inurba_marseille","lat":43.23201,"lon":5.35561,"is_reserved":false,"is_disabled":false,"rental_uris":{"android":"levelo://app?vid=0ac88cdf-dd3a-494f-aaa5-2b24d1ce393f","ios":"levelo://app?vid=0ac88cdf-dd3a-494f-aaa5-2b24d1ce393f"},"vehicle_type_id":"4","last_reported":1743145843,"current_range_meters":8400,"station_id":"ce4bhu92rcd13ifvqi70","pricing_plan_id":"cebpf4jnsgd1na2vs0mg"},{"bike_id":"24eff780-b655-482e-9351-f5e8389bfe7e","system_id":"levelo_inurba_marseille","lat":43.28742,"lon":5.36084,"is_reserved":false,"is_disabled":false,"rental_uris":{"android":"levelo://app?vid=24eff780-b655-482e-9351-f5e8389bfe7e","ios":"levelo://app?vid=24eff780-b655-482e-9351-f5e8389bfe7e"},"vehicle_type_id":"4","last_reported":1743145843,"current_range_meters":8400,"station_id":"cki0cbj6b192h4jlfktg","pricing_plan_id":"cebpf4jnsgd1na2vs0mg"},{"bike_id":"19221227-42ec-4f4b-8f04-42a0818e22f5","system_id":"levelo_inurba_marseille","lat":43.32104,"lon":5.36753,"is_reserved":false,"is_disabled":false,"rental_uris":{"android":"levelo://app?vid=19221227-42ec-4f4b-8f04-42a0818e22f5","ios":"levelo://app?vid=19221227-42ec-4f4b-8f04-42a0818e22f5"},"vehicle_type_id":"4","last_reported":1743145843,"current_range_meters":8400,"station_id":"ce4bhrh2rcd13ifvqhug","pricing_plan_id":"cebpf4jnsgd1na2vs0mg"},{"bike_id":"64f0ea86-1180-4755-95e1-3cbc9c8d4cf5","system_id":"levelo_inurba_marseille","lat":43.330058,"lon":5.438541,"is_reserved":false,"is_disabled":true,"rental_uris":{"android":"levelo://app?vid=64f0ea86-1180-4755-95e1-3cbc9c8d4cf5","ios":"levelo://app?vid=64f0ea86-1180-4755-95e1-3cbc9c8d4cf5"},"vehicle_type_id":"4","last_reported":1743145843,"current_range_meters":8400,"station_id":"","pricing_plan_id":"cebpf4jnsgd1na2vs0mg"},{"bike_id":"17ad65fb-68d1-4f5a-8936-4a8b650acc48","system_id":"levelo_inurba_marseille","lat":43.2931,"lon":5.40194,"is_reserved":false,"is_disabled":false,"rental_uris":{"android":"levelo://app?vid=17ad65fb-68d1-4f5a-8936-4a8b650acc48","ios":"levelo://app?vid=17ad65fb-68d1-4f5a-8936-4a8b650acc48"},"vehicle_type_id":"4","last_reported":1743145843,"current_range_meters":8400,"station_id":"ce4bh312rcd13ifvqdk0","pricing_plan_id":"cebpf4jnsgd1na2vs0mg"},{"bike_id":"565801bb-8452-44aa-89a5-a6fee27728e6","system_id":"levelo_inurba_marseille","lat":43.30592,"lon":5.39366,"is_reserved":false,"is_disabled":false,"rental_uris":{"android":"levelo://app?vid=565801bb-8452-44aa-89a5-a6fee27728e6","ios":"levelo://app?vid=565801bb-8452-44aa-89a5-a6fee27728e6"},"vehicle_type_id":"4","last_reported":1743145843,"current_range_meters":8400,"station_id":"ce4bh0p2rcd13ifvqd80","pricing_plan_id":"cebpf4jnsgd1na2vs0mg"},{"bike_id":"b6277294-9c97-4bd2-bb72-519bd900d431","system_id":"levelo_inurba_marseille","lat":43.2929,"lon":5.37465,"is_reserved":false,"is_disabled":true,"rental_uris":{"android":"levelo://app?vid=b6277294-9c97-4bd2-bb72-519bd900d431","ios":"levelo://app?vid=b6277294-9c97-4bd2-bb72-519bd900d431"},"vehicle_type_id":"4","last_reported":1743145843,"current_range_meters":8800,"station_id":"ce4bgi12rcd13ifvqb70","pricing_plan_id":"cebpf4jnsgd1na2vs0mg"},{"bike_id":"709d54f0-4d2f-4217-93c2-009c42b743ed","system_id":"levelo_inurba_marseille","lat":43.30155,"lon":5.3808,"is_reserved":false,"is_disabled":false,"rental_uris":{"android":"levelo://app?vid=709d54f0-4d2f-4217-93c2-009c42b743ed","ios":"levelo://app?vid=709d54f0-4d2f-4217-93c2-009c42b743ed"},"vehicle_type_id":"4","last_reported":1743145843,"current_range_meters":8800,"station_id":"ce4bgjp2rcd13ifvqbh0","pricing_plan_id":"cebpf4jnsgd1na2vs0mg"},{"bike_id":"bc3f138a-3af0-4b4e-9b07-2d2a8e540795","system_id":"levelo_inurba_marseille","lat":43.26484,"lon":5.39567,"is_reserved":false,"is_disabled":true,"rental_uris":{"android":"levelo://app?vid=bc3f138a-3af0-4b4e-9b07-2d2a8e540795","ios":"levelo://app?vid=bc3f138a-3af0-4b4e-9b07-2d2a8e540795"},"vehicle_type_id":"4","last_reported":1743145843,"current_range_meters":8800,"station_id":"ce4bhi12rcd13ifvqfq0","pricing_plan_id":"cebpf4jnsgd1na2vs0mg"},{"bike_id":"5875f80b-03a3-45d1-8f83-212a3faf71e7","system_id":"levelo_inurba_marseille","lat":43.29921,"lon":5.37483,"is_reserved":false,"is_disabled":false,"rental_uris":{"android":"levelo://app?vid=5875f80b-03a3-45d1-8f83-212a3faf71e7","ios":"levelo://app?vid=5875f80b-03a3-45d1-8f83-212a3faf71e7"},"vehicle_type_id":"4","last_reported":1743145843,"current_range_meters":8400,"station_id":"ce4bgjh2rcd13ifvqbg0","pricing_plan_id":"cebpf4jnsgd1na2vs0mg"},{"bike_id":"866db647-9a5e-402b-bf85-9d8caec53627","system_id":"levelo_inurba_marseille","lat":43.26571,"lon":5.3902,"is_reserved":false,"is_disabled":false,"rental_uris":{"android":"levelo://app?vid=866db647-9a5e-402b-bf85-9d8caec53627","ios":"levelo://app?vid=866db647-9a5e-402b-bf85-9d8caec53627"},"vehicle_type_id":"4","last_reported":1743145843,"current_range_meters":8800,"station_id":"ce4bhe12rcd13ifvqf30","pricing_plan_id":"cebpf4jnsgd1na2vs0mg"},{"bike_id":"813634ed-e21d-4b9e-88e8-aa8b87581eb3","system_id":"levelo_inurba_marseille","lat":43.32041,"lon":5.36765,"is_reserved":false,"is_disabled":false,"rental_uris":{"android":"levelo://app?vid=813634ed-e21d-4b9e-88e8-aa8b87581eb3","ios":"levelo://app?vid=813634ed-e21d-4b9e-88e8-aa8b87581eb3"},"vehicle_type_id":"4","last_reported":1743145843,"current_range_meters":9200,"station_id":"ce4bhrh2rcd13ifvqhug","pricing_plan_id":"cebpf4jnsgd1na2vs0mg"},{"bike_id":"34d003e9-06a3-4103-807d-a36e26c6c146","system_id":"levelo_inurba_marseille","lat":43.29028,"lon":5.38646,"is_reserved":false,"is_disabled":false,"rental_uris":{"android":"levelo://app?vid=34d003e9-06a3-4103-807d-a36e26c6c146","ios":"levelo://app?vid=34d003e9-06a3-4103-807d-a36e26c6c146"},"vehicle_type_id":"4","last_reported":1743145843,"current_range_meters":9200,"station_id":"ce4bh4p2rcd13ifvqe0g","pricing_plan_id":"cebpf4jnsgd1na2vs0mg"},{"bike_id":"f00e0bf1-e77c-4752-8f1b-63a2e565cf51","system_id":"levelo_inurba_marseille","lat":43.279572,"lon":5.387203,"is_reserved":false,"is_disabled":true,"rental_uris":{"android":"levelo://app?vid=f00e0bf1-e77c-4752-8f1b-63a2e565cf51","ios":"levelo://app?vid=f00e0bf1-e77c-4752-8f1b-63a2e565cf51"},"vehicle_type_id":"4","last_reported":1743145843,"current_range_meters":9200,"station_id":"ce4bhg12rcd13ifvqf80","pricing_plan_id":"cebpf4jnsgd1na2vs0mg"},{"bike_id":"95807bf6-1d94-4b49-882e-a895eb82b1fc","system_id":"levelo_inurba_marseille","lat":43.24662,"lon":5.38165,"is_reserved":false,"is_disabled":false,"rental_uris":{"android":"levelo://app?vid=95807bf6-1d94-4b49-882e-a895eb82b1fc","ios":"levelo://app?vid=95807bf6-1d94-4b49-882e-a895eb82b1fc"},"vehicle_type_id":"4","last_reported":1743145843,"current_range_meters":8800,"station_id":"ce4bhih2rcd13ifvqfr0","pricing_plan_id":"cebpf4jnsgd1na2vs0mg"},{"bike_id":"b1d443ea-0a9b-45b3-b54b-ee844688df1f","system_id":"levelo_inurba_marseille","lat":43.23186,"lon":5.39994,"is_reserved":false,"is_disabled":false,"rental_uris":{"android":"levelo://app?vid=b1d443ea-0a9b-45b3-b54b-ee844688df1f","ios":"levelo://app?vid=b1d443ea-0a9b-45b3-b54b-ee844688df1f"},"vehicle_type_id":"4","last_reported":1743145843,"current_range_meters":9200,"station_id":"ce4bhn12rcd13ifvqgqg","pricing_plan_id":"cebpf4jnsgd1na2vs0mg"},{"bike_id":"25c93242-72e6-4525-aea7-7d96e2cd1825","system_id":"levelo_inurba_marseille","lat":43.33094,"lon":5.40848,"is_reserved":false,"is_disabled":false,"rental_uris":{"android":"levelo://app?vid=25c93242-72e6-4525-aea7-7d96e2cd1825","ios":"levelo://app?vid=25c93242-72e6-4525-aea7-7d96e2cd1825"},"vehicle_type_id":"4","last_reported":1743145843,"current_range_meters":9200,"station_id":"","pricing_plan_id":"cebpf4jnsgd1na2vs0mg"},{"bike_id":"89d1e7b1-a268-487f-bedc-84c7c4b58b0e","system_id":"levelo_inurba_marseille","lat":43.30461,"lon":5.37908,"is_reserved":false,"is_disabled":false,"rental_uris":{"android":"levelo://app?vid=89d1e7b1-a268-487f-bedc-84c7c4b58b0e","ios":"levelo://app?vid=89d1e7b1-a268-487f-bedc-84c7c4b58b0e"},"vehicle_type_id":"4","last_reported":1743145843,"current_range_meters":9200,"station_id":"ce4bgup2rcd13ifvqcn0","pricing_plan_id":"cebpf4jnsgd1na2vs0mg"},{"bike_id":"34805b4a-ac2d-4367-961b-5651d4251865","system_id":"levelo_inurba_marseille","lat":43.28708,"lon":5.39983,"is_reserved":false,"is_disabled":false,"rental_uris":{"android":"levelo://app?vid=34805b4a-ac2d-4367-961b-5651d4251865","ios":"levelo://app?vid=34805b4a-ac2d-4367-961b-5651d4251865"},"vehicle_type_id":"4","last_reported":1743145843,"current_range_meters":9200,"station_id":"ce4bho92rcd13ifvqh3g","pricing_plan_id":"cebpf4jnsgd1na2vs0mg"},{"bike_id":"e8d201f1-9aa9-4ae6-a427-58a645e166df","system_id":"levelo_inurba_marseille","lat":43.298722,"lon":5.397328,"is_reserved":false,"is_disabled":false,"rental_uris":{"android":"levelo://app?vid=e8d201f1-9aa9-4ae6-a427-58a645e166df","ios":"levelo://app?vid=e8d201f1-9aa9-4ae6-a427-58a645e166df"},"vehicle_type_id":"4","last_reported":1743145843,"current_range_meters":9200,"station_id":"ce4bh0h2rcd13ifvqd50","pricing_plan_id":"cebpf4jnsgd1na2vs0mg"},{"bike_id":"8d7eaa6d-e14a-4506-8a15-dde0ecb1dcec","system_id":"levelo_inurba_marseille","lat":43.303507,"lon":5.368034,"is_reserved":false,"is_disabled":false,"rental_uris":{"android":"levelo://app?vid=8d7eaa6d-e14a-4506-8a15-dde0ecb1dcec","ios":"levelo://app?vid=8d7eaa6d-e14a-4506-8a15-dde0ecb1dcec"},"vehicle_type_id":"4","last_reported":1743145843,"current_range_meters":9200,"station_id":"ce4bgjh2rcd13ifvqbf0","pricing_plan_id":"cebpf4jnsgd1na2vs0mg"},{"bike_id":"4c732124-8b69-4726-a111-e3a8d012a4e3","system_id":"levelo_inurba_marseille","lat":43.30327,"lon":5.40443,"is_reserved":false,"is_disabled":false,"rental_uris":{"android":"levelo://app?vid=4c732124-8b69-4726-a111-e3a8d012a4e3","ios":"levelo://app?vid=4c732124-8b69-4726-a111-e3a8d012a4e3"},"vehicle_type_id":"4","last_reported":1743145843,"current_range_meters":9600,"station_id":"ce4bh012rcd13ifvqd10","pricing_plan_id":"cebpf4jnsgd1na2vs0mg"},{"bike_id":"cfed900d-e17f-46a7-9847-c8d921508ac3","system_id":"levelo_inurba_marseille","lat":43.23947,"lon":5.36649,"is_reserved":false,"is_disabled":false,"rental_uris":{"android":"levelo://app?vid=cfed900d-e17f-46a7-9847-c8d921508ac3","ios":"levelo://app?vid=cfed900d-e17f-46a7-9847-c8d921508ac3"},"vehicle_type_id":"4","last_reported":1743145843,"current_range_meters":9600,"station_id":"ce4bhi12rcd13ifvqfp0","pricing_plan_id":"cebpf4jnsgd1na2vs0mg"},{"bike_id":"fc4627ac-1fb9-41f4-847a-25e041359ec9","system_id":"levelo_inurba_marseille","lat":43.305374,"lon":5.365546,"is_reserved":false,"is_disabled":false,"rental_uris":{"android":"levelo://app?vid=fc4627ac-1fb9-41f4-847a-25e041359ec9","ios":"levelo://app?vid=fc4627ac-1fb9-41f4-847a-25e041359ec9"},"vehicle_type_id":"4","last_reported":1743145843,"current_range_meters":9600,"station_id":"ce4bgs12rcd13ifvqcag","pricing_plan_id":"cebpf4jnsgd1na2vs0mg"},{"bike_id":"476c0689-a3b2-4efe-ba8e-3ca3838879f4","system_id":"levelo_inurba_marseille","lat":43.289431,"lon":5.364049,"is_reserved":false,"is_disabled":false,"rental_uris":{"android":"levelo://app?vid=476c0689-a3b2-4efe-ba8e-3ca3838879f4","ios":"levelo://app?vid=476c0689-a3b2-4efe-ba8e-3ca3838879f4"},"vehicle_type_id":"4","last_reported":1743145843,"current_range_meters":9600,"station_id":"ce4bhc92rcd13ifvqetg","pricing_plan_id":"cebpf4jnsgd1na2vs0mg"},{"bike_id":"d75f9f5e-4772-4de2-8f78-058b650907ab","system_id":"levelo_inurba_marseille","lat":43.24162,"lon":5.3642,"is_reserved":false,"is_disabled":false,"rental_uris":{"android":"levelo://app?vid=d75f9f5e-4772-4de2-8f78-058b650907ab","ios":"levelo://app?vid=d75f9f5e-4772-4de2-8f78-058b650907ab"},"vehicle_type_id":"4","last_reported":1743145843,"current_range_meters":9600,"station_id":"cpo36qri1sfpv3e86is0","pricing_plan_id":"cebpf4jnsgd1na2vs0mg"},{"bike_id":"34d07891-8c02-4c2b-a31e-e054161d5fa3","system_id":"levelo_inurba_marseille","lat":43.28421,"lon":5.37516,"is_reserved":false,"is_disabled":false,"rental_uris":{"android":"levelo://app?vid=34d07891-8c02-4c2b-a31e-e054161d5fa3","ios":"levelo://app?vid=34d07891-8c02-4c2b-a31e-e054161d5fa3"},"vehicle_type_id":"4","last_reported":1743145843,"current_range_meters":9600,"station_id":"ce4bh412rcd13ifvqds0","pricing_plan_id":"cebpf4jnsgd1na2vs0mg"},{"bike_id":"31b70556-0e78-4dbc-ae32-026bcc157afd","system_id":"levelo_inurba_marseille","lat":43.26947,"lon":5.38627,"is_reserved":false,"is_disabled":false,"rental_uris":{"android":"levelo://app?vid=31b70556-0e78-4dbc-ae32-026bcc157afd","ios":"levelo://app?vid=31b70556-0e78-4dbc-ae32-026bcc157afd"},"vehicle_type_id":"4","last_reported":1743145843,"current_range_meters":9600,"station_id":"ce4bhh92rcd13ifvqfh0","pricing_plan_id":"cebpf4jnsgd1na2vs0mg"},{"bike_id":"17e4c003-c09d-4423-ad21-2ac44c03c6f5","system_id":"levelo_inurba_marseille","lat":43.25495,"lon":5.37649,"is_reserved":false,"is_disabled":false,"rental_uris":{"android":"levelo://app?vid=17e4c003-c09d-4423-ad21-2ac44c03c6f5","ios":"levelo://app?vid=17e4c003-c09d-4423-ad21-2ac44c03c6f5"},"vehicle_type_id":"4","last_reported":1743145843,"current_range_meters":9600,"station_id":"ce4bhh12rcd13ifvqff0","pricing_plan_id":"cebpf4jnsgd1na2vs0mg"},{"bike_id":"706a1c19-2815-4115-881f-f39c33bbc89c","system_id":"levelo_inurba_marseille","lat":43.259358,"lon":5.40897,"is_reserved":false,"is_disabled":false,"rental_uris":{"android":"levelo://app?vid=706a1c19-2815-4115-881f-f39c33bbc89c","ios":"levelo://app?vid=706a1c19-2815-4115-881f-f39c33bbc89c"},"vehicle_type_id":"4","last_reported":1743145843,"current_range_meters":10000,"station_id":"ce4bhm92rcd13ifvqglg","pricing_plan_id":"cebpf4jnsgd1na2vs0mg"},{"bike_id":"4a42ca1e-41e4-4233-a4bb-a180f04564d6","system_id":"levelo_inurba_marseille","lat":43.29178,"lon":5.37151,"is_reserved":false,"is_disabled":true,"rental_uris":{"android":"levelo://app?vid=4a42ca1e-41e4-4233-a4bb-a180f04564d6","ios":"levelo://app?vid=4a42ca1e-41e4-4233-a4bb-a180f04564d6"},"vehicle_type_id":"4","last_reported":1743145843,"current_range_meters":10000,"station_id":"ce4bha92rcd13ifvqeh0","pricing_plan_id":"cebpf4jnsgd1na2vs0mg"},{"bike_id":"cbf7177e-6e28-4340-bbb6-69b4f76d24c6","system_id":"levelo_inurba_marseille","lat":43.30325,"lon":5.40439,"is_reserved":false,"is_disabled":false,"rental_uris":{"android":"levelo://app?vid=cbf7177e-6e28-4340-bbb6-69b4f76d24c6","ios":"levelo://app?vid=cbf7177e-6e28-4340-bbb6-69b4f76d24c6"},"vehicle_type_id":"4","last_reported":1743145843,"current_range_meters":10000,"station_id":"ce4bh012rcd13ifvqd10","pricing_plan_id":"cebpf4jnsgd1na2vs0mg"},{"bike_id":"b0e58752-d151-4446-9b1b-4d8b4235b96c","system_id":"levelo_inurba_marseille","lat":43.26956,"lon":5.38632,"is_reserved":false,"is_disabled":false,"rental_uris":{"android":"levelo://app?vid=b0e58752-d151-4446-9b1b-4d8b4235b96c","ios":"levelo://app?vid=b0e58752-d151-4446-9b1b-4d8b4235b96c"},"vehicle_type_id":"4","last_reported":1743145843,"current_range_meters":10000,"station_id":"ce4bhh92rcd13ifvqfh0","pricing_plan_id":"cebpf4jnsgd1na2vs0mg"},{"bike_id":"2e919ca5-ce98-4c47-a9d7-66e6ab7584e4","system_id":"levelo_inurba_marseille","lat":43.32106,"lon":5.36767,"is_reserved":false,"is_disabled":false,"rental_uris":{"android":"levelo://app?vid=2e919ca5-ce98-4c47-a9d7-66e6ab7584e4","ios":"levelo://app?vid=2e919ca5-ce98-4c47-a9d7-66e6ab7584e4"},"vehicle_type_id":"4","last_reported":1743145843,"current_range_meters":10000,"station_id":"ce4bhrh2rcd13ifvqhug","pricing_plan_id":"cebpf4jnsgd1na2vs0mg"},{"bike_id":"4a74370e-ca92-4e0a-83cf-7fbe9f339599","system_id":"levelo_inurba_marseille","lat":43.29255,"lon":5.40904,"is_reserved":false,"is_disabled":false,"rental_uris":{"android":"levelo://app?vid=4a74370e-ca92-4e0a-83cf-7fbe9f339599","ios":"levelo://app?vid=4a74370e-ca92-4e0a-83cf-7fbe9f339599"},"vehicle_type_id":"4","last_reported":1743145843,"current_range_meters":10000,"station_id":"ce4bh192rcd13ifvqdc0","pricing_plan_id":"cebpf4jnsgd1na2vs0mg"},{"bike_id":"ed3f340d-7b56-49a7-952a-c79c8daa5f0f","system_id":"levelo_inurba_marseille","lat":43.301287,"lon":5.387786,"is_reserved":false,"is_disabled":true,"rental_uris":{"android":"levelo://app?vid=ed3f340d-7b56-49a7-952a-c79c8daa5f0f","ios":"levelo://app?vid=ed3f340d-7b56-49a7-952a-c79c8daa5f0f"},"vehicle_type_id":"4","last_reported":1743145843,"current_range_meters":10000,"station_id":"ce4bghh2rcd13ifvqb60","pricing_plan_id":"cebpf4jnsgd1na2vs0mg"},{"bike_id":"a069fe8c-4d3e-4788-9f94-55090391ca1a","system_id":"levelo_inurba_marseille","lat":43.28952,"lon":5.37843,"is_reserved":false,"is_disabled":false,"rental_uris":{"android":"levelo://app?vid=a069fe8c-4d3e-4788-9f94-55090391ca1a","ios":"levelo://app?vid=a069fe8c-4d3e-4788-9f94-55090391ca1a"},"vehicle_type_id":"4","last_reported":1743145843,"current_range_meters":10000,"station_id":"ce4bh9p2rcd13ifvqed0","pricing_plan_id":"cebpf4jnsgd1na2vs0mg"},{"bike_id":"74bb3be4-214a-4907-a0a6-cb5edcf13a83","system_id":"levelo_inurba_marseille","lat":43.29705,"lon":5.36601,"is_reserved":false,"is_disabled":true,"rental_uris":{"android":"levelo://app?vid=74bb3be4-214a-4907-a0a6-cb5edcf13a83","ios":"levelo://app?vid=74bb3be4-214a-4907-a0a6-cb5edcf13a83"},"vehicle_type_id":"4","last_reported":1743145843,"current_range_meters":10000,"station_id":"ce4bgn12rcd13ifvqbt0","pricing_plan_id":"cebpf4jnsgd1na2vs0mg"},{"bike_id":"bfa018d7-4766-430e-8a9d-9b17e9a65a71","system_id":"levelo_inurba_marseille","lat":43.25096,"lon":5.39537,"is_reserved":false,"is_disabled":false,"rental_uris":{"android":"levelo://app?vid=bfa018d7-4766-430e-8a9d-9b17e9a65a71","ios":"levelo://app?vid=bfa018d7-4766-430e-8a9d-9b17e9a65a71"},"vehicle_type_id":"4","last_reported":1743145843,"current_range_meters":10000,"station_id":"ce4bhm12rcd13ifvqgkg","pricing_plan_id":"cebpf4jnsgd1na2vs0mg"},{"bike_id":"1c14bf9c-ada4-4a36-8853-740a1a2c000a","system_id":"levelo_inurba_marseille","lat":43.23198,"lon":5.35555,"is_reserved":false,"is_disabled":false,"rental_uris":{"android":"levelo://app?vid=1c14bf9c-ada4-4a36-8853-740a1a2c000a","ios":"levelo://app?vid=1c14bf9c-ada4-4a36-8853-740a1a2c000a"},"vehicle_type_id":"4","last_reported":1743145843,"current_range_meters":10000,"station_id":"ce4bhu92rcd13ifvqi70","pricing_plan_id":"cebpf4jnsgd1na2vs0mg"},{"bike_id":"b9a7285e-d479-4e5c-bf78-8ed176740831","system_id":"levelo_inurba_marseille","lat":43.30594,"lon":5.39357,"is_reserved":false,"is_disabled":false,"rental_uris":{"android":"levelo://app?vid=b9a7285e-d479-4e5c-bf78-8ed176740831","ios":"levelo://app?vid=b9a7285e-d479-4e5c-bf78-8ed176740831"},"vehicle_type_id":"4","last_reported":1743145843,"current_range_meters":10800,"station_id":"ce4bh0p2rcd13ifvqd80","pricing_plan_id":"cebpf4jnsgd1na2vs0mg"},{"bike_id":"b30f95ac-b828-44d6-b742-4883a6572fc6","system_id":"levelo_inurba_marseille","lat":43.27086,"lon":5.42745,"is_reserved":false,"is_disabled":false,"rental_uris":{"android":"levelo://app?vid=b30f95ac-b828-44d6-b742-4883a6572fc6","ios":"levelo://app?vid=b30f95ac-b828-44d6-b742-4883a6572fc6"},"vehicle_type_id":"4","last_reported":1743145843,"current_range_meters":10800,"station_id":"","pricing_plan_id":"cebpf4jnsgd1na2vs0mg"},{"bike_id":"0c7c8c97-c432-41cd-96f5-01a03f56e852","system_id":"levelo_inurba_marseille","lat":43.24171,"lon":5.36379,"is_reserved":false,"is_disabled":false,"rental_uris":{"android":"levelo://app?vid=0c7c8c97-c432-41cd-96f5-01a03f56e852","ios":"levelo://app?vid=0c7c8c97-c432-41cd-96f5-01a03f56e852"},"vehicle_type_id":"4","last_reported":1743145843,"current_range_meters":10800,"station_id":"cpo36qri1sfpv3e86is0","pricing_plan_id":"cebpf4jnsgd1na2vs0mg"},{"bike_id":"14e00f19-48fc-4b76-bb6e-3eee4c46cff1","system_id":"levelo_inurba_marseille","lat":43.313293,"lon":5.367474,"is_reserved":false,"is_disabled":false,"rental_uris":{"android":"levelo://app?vid=14e00f19-48fc-4b76-bb6e-3eee4c46cff1","ios":"levelo://app?vid=14e00f19-48fc-4b76-bb6e-3eee4c46cff1"},"vehicle_type_id":"4","last_reported":1743145843,"current_range_meters":10800,"station_id":"ce4bgr92rcd13ifvqc6g","pricing_plan_id":"cebpf4jnsgd1na2vs0mg"},{"bike_id":"7c267a2c-f76c-4aab-b917-cdb92e190a96","system_id":"levelo_inurba_marseille","lat":43.2737,"lon":5.36264,"is_reserved":false,"is_disabled":false,"rental_uris":{"android":"levelo://app?vid=7c267a2c-f76c-4aab-b917-cdb92e190a96","ios":"levelo://app?vid=7c267a2c-f76c-4aab-b917-cdb92e190a96"},"vehicle_type_id":"4","last_reported":1743145843,"current_range_meters":10800,"station_id":"ce4bhbh2rcd13ifvqeo0","pricing_plan_id":"cebpf4jnsgd1na2vs0mg"},{"bike_id":"2487664b-6ca6-4300-b86d-a9ce75c31f9e","system_id":"levelo_inurba_marseille","lat":43.30544,"lon":5.36553,"is_reserved":false,"is_disabled":false,"rental_uris":{"android":"levelo://app?vid=2487664b-6ca6-4300-b86d-a9ce75c31f9e","ios":"levelo://app?vid=2487664b-6ca6-4300-b86d-a9ce75c31f9e"},"vehicle_type_id":"4","last_reported":1743145843,"current_range_meters":10800,"station_id":"ce4bgs12rcd13ifvqcag","pricing_plan_id":"cebpf4jnsgd1na2vs0mg"},{"bike_id":"c33330fd-2e2c-4925-b179-9d4c4cae5bcf","system_id":"levelo_inurba_marseille","lat":43.29298,"lon":5.37463,"is_reserved":false,"is_disabled":false,"rental_uris":{"android":"levelo://app?vid=c33330fd-2e2c-4925-b179-9d4c4cae5bcf","ios":"levelo://app?vid=c33330fd-2e2c-4925-b179-9d4c4cae5bcf"},"vehicle_type_id":"4","last_reported":1743145843,"current_range_meters":10800,"station_id":"ce4bgi12rcd13ifvqb70","pricing_plan_id":"cebpf4jnsgd1na2vs0mg"},{"bike_id":"14e8351b-7d71-46ca-82eb-d58cf3fecc4a","system_id":"levelo_inurba_marseille","lat":43.24655,"lon":5.38909,"is_reserved":false,"is_disabled":false,"rental_uris":{"android":"levelo://app?vid=14e8351b-7d71-46ca-82eb-d58cf3fecc4a","ios":"levelo://app?vid=14e8351b-7d71-46ca-82eb-d58cf3fecc4a"},"vehicle_type_id":"4","last_reported":1743145843,"current_range_meters":10800,"station_id":"ce4bhg12rcd13ifvqf60","pricing_plan_id":"cebpf4jnsgd1na2vs0mg"},{"bike_id":"90abd429-0584-4e8e-a91a-b15d0c48ba98","system_id":"levelo_inurba_marseille","lat":43.28938,"lon":5.39627,"is_reserved":false,"is_disabled":false,"rental_uris":{"android":"levelo://app?vid=90abd429-0584-4e8e-a91a-b15d0c48ba98","ios":"levelo://app?vid=90abd429-0584-4e8e-a91a-b15d0c48ba98"},"vehicle_type_id":"4","last_reported":1743145843,"current_range_meters":10800,"station_id":"ce4bh3h2rcd13ifvqdn0","pricing_plan_id":"cebpf4jnsgd1na2vs0mg"},{"bike_id":"c5b747b8-0a33-4be6-a6c0-180ceea5e00d","system_id":"levelo_inurba_marseille","lat":43.28082,"lon":5.39669,"is_reserved":false,"is_disabled":true,"rental_uris":{"android":"levelo://app?vid=c5b747b8-0a33-4be6-a6c0-180ceea5e00d","ios":"levelo://app?vid=c5b747b8-0a33-4be6-a6c0-180ceea5e00d"},"vehicle_type_id":"4","last_reported":1743145843,"current_range_meters":10800,"station_id":"ce4bho12rcd13ifvqh2g","pricing_plan_id":"cebpf4jnsgd1na2vs0mg"},{"bike_id":"2af88473-74eb-4225-bc8f-06c7c27d1bce","system_id":"levelo_inurba_marseille","lat":43.24077,"lon":5.37762,"is_reserved":false,"is_disabled":false,"rental_uris":{"android":"levelo://app?vid=2af88473-74eb-4225-bc8f-06c7c27d1bce","ios":"levelo://app?vid=2af88473-74eb-4225-bc8f-06c7c27d1bce"},"vehicle_type_id":"4","last_reported":1743145843,"current_range_meters":11200,"station_id":"ce4bhnp2rcd13ifvqgvg","pricing_plan_id":"cebpf4jnsgd1na2vs0mg"},{"bike_id":"d828f196-fa3f-48d9-88b1-e41567bbb9ab","system_id":"levelo_inurba_marseille","lat":43.30548,"lon":5.36544,"is_reserved":false,"is_disabled":false,"rental_uris":{"android":"levelo://app?vid=d828f196-fa3f-48d9-88b1-e41567bbb9ab","ios":"levelo://app?vid=d828f196-fa3f-48d9-88b1-e41567bbb9ab"},"vehicle_type_id":"4","last_reported":1743145843,"current_range_meters":11200,"station_id":"ce4bgs12rcd13ifvqcag","pricing_plan_id":"cebpf4jnsgd1na2vs0mg"},{"bike_id":"0f1f83e7-db71-4d69-bca1-763d2105909b","system_id":"levelo_inurba_marseille","lat":43.30313,"lon":5.4045,"is_reserved":false,"is_disabled":false,"rental_uris":{"android":"levelo://app?vid=0f1f83e7-db71-4d69-bca1-763d2105909b","ios":"levelo://app?vid=0f1f83e7-db71-4d69-bca1-763d2105909b"},"vehicle_type_id":"4","last_reported":1743145843,"current_range_meters":11200,"station_id":"ce4bh012rcd13ifvqd10","pricing_plan_id":"cebpf4jnsgd1na2vs0mg"},{"bike_id":"718b270c-18f2-47fe-a374-60421b8ede1e","system_id":"levelo_inurba_marseille","lat":43.29037,"lon":5.38642,"is_reserved":false,"is_disabled":false,"rental_uris":{"android":"levelo://app?vid=718b270c-18f2-47fe-a374-60421b8ede1e","ios":"levelo://app?vid=718b270c-18f2-47fe-a374-60421b8ede1e"},"vehicle_type_id":"4","last_reported":1743145843,"current_range_meters":11200,"station_id":"ce4bh4p2rcd13ifvqe0g","pricing_plan_id":"cebpf4jnsgd1na2vs0mg"},{"bike_id":"8ef25a5e-c9a5-4304-9487-1d09b0e325be","system_id":"levelo_inurba_marseille","lat":43.27212,"lon":5.3918,"is_reserved":false,"is_disabled":false,"rental_uris":{"android":"levelo://app?vid=8ef25a5e-c9a5-4304-9487-1d09b0e325be","ios":"levelo://app?vid=8ef25a5e-c9a5-4304-9487-1d09b0e325be"},"vehicle_type_id":"4","last_reported":1743145843,"current_range_meters":10800,"station_id":"ce4bhhp2rcd13ifvqfm0","pricing_plan_id":"cebpf4jnsgd1na2vs0mg"},{"bike_id":"767b3de5-c408-4bff-92a2-6b38b23a008d","system_id":"levelo_inurba_marseille","lat":43.295174,"lon":5.389193,"is_reserved":false,"is_disabled":false,"rental_uris":{"android":"levelo://app?vid=767b3de5-c408-4bff-92a2-6b38b23a008d","ios":"levelo://app?vid=767b3de5-c408-4bff-92a2-6b38b23a008d"},"vehicle_type_id":"4","last_reported":1743145843,"current_range_meters":11200,"station_id":"","pricing_plan_id":"cebpf4jnsgd1na2vs0mg"},{"bike_id":"62feeb8e-b2cc-48d6-9f73-3dd1b580c165","system_id":"levelo_inurba_marseille","lat":43.25132,"lon":5.40292,"is_reserved":false,"is_disabled":false,"rental_uris":{"android":"levelo://app?vid=62feeb8e-b2cc-48d6-9f73-3dd1b580c165","ios":"levelo://app?vid=62feeb8e-b2cc-48d6-9f73-3dd1b580c165"},"vehicle_type_id":"4","last_reported":1743145843,"current_range_meters":11600,"station_id":"ce4bhlh2rcd13ifvqgig","pricing_plan_id":"cebpf4jnsgd1na2vs0mg"},{"bike_id":"213522d2-34be-42dc-a861-71dacdd3d79c","system_id":"levelo_inurba_marseille","lat":43.25108,"lon":5.40324,"is_reserved":false,"is_disabled":false,"rental_uris":{"android":"levelo://app?vid=213522d2-34be-42dc-a861-71dacdd3d79c","ios":"levelo://app?vid=213522d2-34be-42dc-a861-71dacdd3d79c"},"vehicle_type_id":"4","last_reported":1743145843,"current_range_meters":11600,"station_id":"ce4bhlh2rcd13ifvqgig","pricing_plan_id":"cebpf4jnsgd1na2vs0mg"},{"bike_id":"db9e776b-26ab-40b9-9d42-0708576098cb","system_id":"levelo_inurba_marseille","lat":43.28155,"lon":5.4265,"is_reserved":false,"is_disabled":false,"rental_uris":{"android":"levelo://app?vid=db9e776b-26ab-40b9-9d42-0708576098cb","ios":"levelo://app?vid=db9e776b-26ab-40b9-9d42-0708576098cb"},"vehicle_type_id":"4","last_reported":1743145843,"current_range_meters":11600,"station_id":"ce4bhnh2rcd13ifvqgug","pricing_plan_id":"cebpf4jnsgd1na2vs0mg"},{"bike_id":"3adb0333-5dcc-465c-b9a1-32daa268df5b","system_id":"levelo_inurba_marseille","lat":43.28954,"lon":5.36617,"is_reserved":false,"is_disabled":false,"rental_uris":{"android":"levelo://app?vid=3adb0333-5dcc-465c-b9a1-32daa268df5b","ios":"levelo://app?vid=3adb0333-5dcc-465c-b9a1-32daa268df5b"},"vehicle_type_id":"4","last_reported":1743145843,"current_range_meters":11600,"station_id":"ce4bhap2rcd13ifvqek0","pricing_plan_id":"cebpf4jnsgd1na2vs0mg"},{"bike_id":"5dc14234-03b0-4dcb-bce4-cd1aa6e63cd2","system_id":"levelo_inurba_marseille","lat":43.283661,"lon":5.386264,"is_reserved":false,"is_disabled":false,"rental_uris":{"android":"levelo://app?vid=5dc14234-03b0-4dcb-bce4-cd1aa6e63cd2","ios":"levelo://app?vid=5dc14234-03b0-4dcb-bce4-cd1aa6e63cd2"},"vehicle_type_id":"4","last_reported":1743145843,"current_range_meters":11600,"station_id":"ce4bh492rcd13ifvqdvg","pricing_plan_id":"cebpf4jnsgd1na2vs0mg"},{"bike_id":"aeee719e-56c9-4414-9561-e5b2a78b28a9","system_id":"levelo_inurba_marseille","lat":43.2509,"lon":5.39515,"is_reserved":false,"is_disabled":false,"rental_uris":{"android":"levelo://app?vid=aeee719e-56c9-4414-9561-e5b2a78b28a9","ios":"levelo://app?vid=aeee719e-56c9-4414-9561-e5b2a78b28a9"},"vehicle_type_id":"4","last_reported":1743145843,"current_range_meters":11600,"station_id":"ce4bhm12rcd13ifvqgkg","pricing_plan_id":"cebpf4jnsgd1na2vs0mg"},{"bike_id":"6018f228-b321-41b9-9d12-4b704446d546","system_id":"levelo_inurba_marseille","lat":43.29249,"lon":5.40902,"is_reserved":false,"is_disabled":false,"rental_uris":{"android":"levelo://app?vid=6018f228-b321-41b9-9d12-4b704446d546","ios":"levelo://app?vid=6018f228-b321-41b9-9d12-4b704446d546"},"vehicle_type_id":"4","last_reported":1743145843,"current_range_meters":11600,"station_id":"ce4bh192rcd13ifvqdc0","pricing_plan_id":"cebpf4jnsgd1na2vs0mg"},{"bike_id":"3fbcdfd8-5176-471d-aa84-e8e20bb4418e","system_id":"levelo_inurba_marseille","lat":43.32112,"lon":5.36794,"is_reserved":false,"is_disabled":false,"rental_uris":{"android":"levelo://app?vid=3fbcdfd8-5176-471d-aa84-e8e20bb4418e","ios":"levelo://app?vid=3fbcdfd8-5176-471d-aa84-e8e20bb4418e"},"vehicle_type_id":"4","last_reported":1743145843,"current_range_meters":12000,"station_id":"ce4bhrh2rcd13ifvqhug","pricing_plan_id":"cebpf4jnsgd1na2vs0mg"},{"bike_id":"2fe43890-8d23-48d1-b090-cead481cbdda","system_id":"levelo_inurba_marseille","lat":43.26505,"lon":5.39542,"is_reserved":false,"is_disabled":false,"rental_uris":{"android":"levelo://app?vid=2fe43890-8d23-48d1-b090-cead481cbdda","ios":"levelo://app?vid=2fe43890-8d23-48d1-b090-cead481cbdda"},"vehicle_type_id":"4","last_reported":1743145843,"current_range_meters":11600,"station_id":"ce4bhi12rcd13ifvqfq0","pricing_plan_id":"cebpf4jnsgd1na2vs0mg"},{"bike_id":"6cbddcc1-9609-4503-9874-4b78c26df24e","system_id":"levelo_inurba_marseille","lat":43.32108,"lon":5.36796,"is_reserved":false,"is_disabled":false,"rental_uris":{"android":"levelo://app?vid=6cbddcc1-9609-4503-9874-4b78c26df24e","ios":"levelo://app?vid=6cbddcc1-9609-4503-9874-4b78c26df24e"},"vehicle_type_id":"4","last_reported":1743145843,"current_range_meters":12000,"station_id":"ce4bhrh2rcd13ifvqhug","pricing_plan_id":"cebpf4jnsgd1na2vs0mg"},{"bike_id":"64fba503-c128-4c17-b783-8a96bc96ec81","system_id":"levelo_inurba_marseille","lat":43.31881,"lon":5.40734,"is_reserved":false,"is_disabled":false,"rental_uris":{"android":"levelo://app?vid=64fba503-c128-4c17-b783-8a96bc96ec81","ios":"levelo://app?vid=64fba503-c128-4c17-b783-8a96bc96ec81"},"vehicle_type_id":"4","last_reported":1743145843,"current_range_meters":12000,"station_id":"ce4bhq12rcd13ifvqhig","pricing_plan_id":"cebpf4jnsgd1na2vs0mg"},{"bike_id":"d8688447-b8ce-4bc0-9571-24215d635277","system_id":"levelo_inurba_marseille","lat":43.28467,"lon":5.35891,"is_reserved":false,"is_disabled":false,"rental_uris":{"android":"levelo://app?vid=d8688447-b8ce-4bc0-9571-24215d635277","ios":"levelo://app?vid=d8688447-b8ce-4bc0-9571-24215d635277"},"vehicle_type_id":"4","last_reported":1743145843,"current_range_meters":12000,"station_id":"ce4bhah2rcd13ifvqei0","pricing_plan_id":"cebpf4jnsgd1na2vs0mg"},{"bike_id":"68e9fc26-8998-4bf7-8da8-af47209f9b7c","system_id":"levelo_inurba_marseille","lat":43.32107,"lon":5.36779,"is_reserved":false,"is_disabled":false,"rental_uris":{"android":"levelo://app?vid=68e9fc26-8998-4bf7-8da8-af47209f9b7c","ios":"levelo://app?vid=68e9fc26-8998-4bf7-8da8-af47209f9b7c"},"vehicle_type_id":"4","last_reported":1743145843,"current_range_meters":12000,"station_id":"ce4bhrh2rcd13ifvqhug","pricing_plan_id":"cebpf4jnsgd1na2vs0mg"},{"bike_id":"c137871e-a58c-4f51-8021-faf24fe0f355","system_id":"levelo_inurba_marseille","lat":43.28722,"lon":5.3608,"is_reserved":false,"is_disabled":false,"rental_uris":{"android":"levelo://app?vid=c137871e-a58c-4f51-8021-faf24fe0f355","ios":"levelo://app?vid=c137871e-a58c-4f51-8021-faf24fe0f355"},"vehicle_type_id":"4","last_reported":1743145843,"current_range_meters":12000,"station_id":"cki0cbj6b192h4jlfktg","pricing_plan_id":"cebpf4jnsgd1na2vs0mg"},{"bike_id":"ac776cf5-d9af-47cc-83cc-cf37e00c8684","system_id":"levelo_inurba_marseille","lat":43.30316,"lon":5.40225,"is_reserved":false,"is_disabled":false,"rental_uris":{"android":"levelo://app?vid=ac776cf5-d9af-47cc-83cc-cf37e00c8684","ios":"levelo://app?vid=ac776cf5-d9af-47cc-83cc-cf37e00c8684"},"vehicle_type_id":"4","last_reported":1743145843,"current_range_meters":12000,"station_id":"","pricing_plan_id":"cebpf4jnsgd1na2vs0mg"},{"bike_id":"c527ac51-4362-4d1f-b9e1-306c1ebece74","system_id":"levelo_inurba_marseille","lat":43.29902,"lon":5.43688,"is_reserved":false,"is_disabled":false,"rental_uris":{"android":"levelo://app?vid=c527ac51-4362-4d1f-b9e1-306c1ebece74","ios":"levelo://app?vid=c527ac51-4362-4d1f-b9e1-306c1ebece74"},"vehicle_type_id":"4","last_reported":1743145843,"current_range_meters":12400,"station_id":"ce4bhpp2rcd13ifvqhfg","pricing_plan_id":"cebpf4jnsgd1na2vs0mg"},{"bike_id":"c452779f-1869-468a-bc1a-a1c333da66e1","system_id":"levelo_inurba_marseille","lat":43.30768,"lon":5.37652,"is_reserved":false,"is_disabled":false,"rental_uris":{"android":"levelo://app?vid=c452779f-1869-468a-bc1a-a1c333da66e1","ios":"levelo://app?vid=c452779f-1869-468a-bc1a-a1c333da66e1"},"vehicle_type_id":"4","last_reported":1743145843,"current_range_meters":12400,"station_id":"ce4bgv92rcd13ifvqcq0","pricing_plan_id":"cebpf4jnsgd1na2vs0mg"},{"bike_id":"4c07b0e1-7b6a-4244-a285-5e78e0390425","system_id":"levelo_inurba_marseille","lat":43.3254,"lon":5.41431,"is_reserved":false,"is_disabled":false,"rental_uris":{"android":"levelo://app?vid=4c07b0e1-7b6a-4244-a285-5e78e0390425","ios":"levelo://app?vid=4c07b0e1-7b6a-4244-a285-5e78e0390425"},"vehicle_type_id":"4","last_reported":1743145843,"current_range_meters":12400,"station_id":"ce4bhq12rcd13ifvqhhg","pricing_plan_id":"cebpf4jnsgd1na2vs0mg"},{"bike_id":"ddc8eae7-8dd5-4236-ae82-3475ef892145","system_id":"levelo_inurba_marseille","lat":43.287261,"lon":5.378088,"is_reserved":false,"is_disabled":false,"rental_uris":{"android":"levelo://app?vid=ddc8eae7-8dd5-4236-ae82-3475ef892145","ios":"levelo://app?vid=ddc8eae7-8dd5-4236-ae82-3475ef892145"},"vehicle_type_id":"4","last_reported":1743145843,"current_range_meters":12400,"station_id":"ce4bh9p2rcd13ifvqec0","pricing_plan_id":"cebpf4jnsgd1na2vs0mg"},{"bike_id":"0ddc3ef9-c9ca-479a-8b28-e2773a58874a","system_id":"levelo_inurba_marseille","lat":43.284059,"lon":5.375272,"is_reserved":false,"is_disabled":false,"rental_uris":{"android":"levelo://app?vid=0ddc3ef9-c9ca-479a-8b28-e2773a58874a","ios":"levelo://app?vid=0ddc3ef9-c9ca-479a-8b28-e2773a58874a"},"vehicle_type_id":"4","last_reported":1743145843,"current_range_meters":12400,"station_id":"ce4bh412rcd13ifvqds0","pricing_plan_id":"cebpf4jnsgd1na2vs0mg"},{"bike_id":"f39111df-5884-4a5c-b789-71b29daecc16","system_id":"levelo_inurba_marseille","lat":43.29599,"lon":5.38106,"is_reserved":false,"is_disabled":false,"rental_uris":{"android":"levelo://app?vid=f39111df-5884-4a5c-b789-71b29daecc16","ios":"levelo://app?vid=f39111df-5884-4a5c-b789-71b29daecc16"},"vehicle_type_id":"4","last_reported":1743145843,"current_range_meters":12000,"station_id":"ce4bgl12rcd13ifvqbo0","pricing_plan_id":"cebpf4jnsgd1na2vs0mg"},{"bike_id":"6082a6d8-29f3-4441-bd82-d0f95ead75d7","system_id":"levelo_inurba_marseille","lat":43.231935,"lon":5.355463,"is_reserved":false,"is_disabled":false,"rental_uris":{"android":"levelo://app?vid=6082a6d8-29f3-4441-bd82-d0f95ead75d7","ios":"levelo://app?vid=6082a6d8-29f3-4441-bd82-d0f95ead75d7"},"vehicle_type_id":"4","last_reported":1743145843,"current_range_meters":12400,"station_id":"ce4bhu92rcd13ifvqi70","pricing_plan_id":"cebpf4jnsgd1na2vs0mg"},{"bike_id":"61cbf880-9a2a-4781-8c78-79509486930b","system_id":"levelo_inurba_marseille","lat":43.30433,"lon":5.38906,"is_reserved":false,"is_disabled":false,"rental_uris":{"android":"levelo://app?vid=61cbf880-9a2a-4781-8c78-79509486930b","ios":"levelo://app?vid=61cbf880-9a2a-4781-8c78-79509486930b"},"vehicle_type_id":"4","last_reported":1743145843,"current_range_meters":12000,"station_id":"ce4bgk12rcd13ifvqbi0","pricing_plan_id":"cebpf4jnsgd1na2vs0mg"},{"bike_id":"65c86302-8ef0-46f4-ab6e-bac7149a2865","system_id":"levelo_inurba_marseille","lat":43.32118,"lon":5.36794,"is_reserved":false,"is_disabled":false,"rental_uris":{"android":"levelo://app?vid=65c86302-8ef0-46f4-ab6e-bac7149a2865","ios":"levelo://app?vid=65c86302-8ef0-46f4-ab6e-bac7149a2865"},"vehicle_type_id":"4","last_reported":1743145843,"current_range_meters":12400,"station_id":"ce4bhrh2rcd13ifvqhug","pricing_plan_id":"cebpf4jnsgd1na2vs0mg"},{"bike_id":"44a0312e-696a-47eb-a749-805754cd4b60","system_id":"levelo_inurba_marseille","lat":43.27492,"lon":5.42455,"is_reserved":false,"is_disabled":false,"rental_uris":{"android":"levelo://app?vid=44a0312e-696a-47eb-a749-805754cd4b60","ios":"levelo://app?vid=44a0312e-696a-47eb-a749-805754cd4b60"},"vehicle_type_id":"4","last_reported":1743145843,"current_range_meters":12400,"station_id":"ce4bhn92rcd13ifvqgrg","pricing_plan_id":"cebpf4jnsgd1na2vs0mg"},{"bike_id":"b1c6b5eb-b3e3-44e4-ab47-ce04ca5e2364","system_id":"levelo_inurba_marseille","lat":43.241805,"lon":5.397195,"is_reserved":false,"is_disabled":true,"rental_uris":{"android":"levelo://app?vid=b1c6b5eb-b3e3-44e4-ab47-ce04ca5e2364","ios":"levelo://app?vid=b1c6b5eb-b3e3-44e4-ab47-ce04ca5e2364"},"vehicle_type_id":"4","last_reported":1743145843,"current_range_meters":12800,"station_id":"ce4bhn12rcd13ifvqgpg","pricing_plan_id":"cebpf4jnsgd1na2vs0mg"},{"bike_id":"fb348b09-6abb-47a4-a266-91f2eeaee291","system_id":"levelo_inurba_marseille","lat":43.32091,"lon":5.36767,"is_reserved":false,"is_disabled":false,"rental_uris":{"android":"levelo://app?vid=fb348b09-6abb-47a4-a266-91f2eeaee291","ios":"levelo://app?vid=fb348b09-6abb-47a4-a266-91f2eeaee291"},"vehicle_type_id":"4","last_reported":1743145843,"current_range_meters":12800,"station_id":"ce4bhrh2rcd13ifvqhug","pricing_plan_id":"cebpf4jnsgd1na2vs0mg"},{"bike_id":"d96bb5a2-30b5-4cd8-b587-c4f7dd419de8","system_id":"levelo_inurba_marseille","lat":43.29306,"lon":5.408713,"is_reserved":false,"is_disabled":false,"rental_uris":{"android":"levelo://app?vid=d96bb5a2-30b5-4cd8-b587-c4f7dd419de8","ios":"levelo://app?vid=d96bb5a2-30b5-4cd8-b587-c4f7dd419de8"},"vehicle_type_id":"4","last_reported":1743145843,"current_range_meters":12800,"station_id":"ce4bh192rcd13ifvqdc0","pricing_plan_id":"cebpf4jnsgd1na2vs0mg"},{"bike_id":"9462a91b-8b4b-430a-ac7a-4612f1bebb31","system_id":"levelo_inurba_marseille","lat":43.29095,"lon":5.38161,"is_reserved":false,"is_disabled":true,"rental_uris":{"android":"levelo://app?vid=9462a91b-8b4b-430a-ac7a-4612f1bebb31","ios":"levelo://app?vid=9462a91b-8b4b-430a-ac7a-4612f1bebb31"},"vehicle_type_id":"4","last_reported":1743145843,"current_range_meters":12800,"station_id":"ce4bh512rcd13ifvqe2g","pricing_plan_id":"cebpf4jnsgd1na2vs0mg"},{"bike_id":"58643b71-d571-418b-bdee-cb649d06c3ca","system_id":"levelo_inurba_marseille","lat":43.29033,"lon":5.39996,"is_reserved":false,"is_disabled":false,"rental_uris":{"android":"levelo://app?vid=58643b71-d571-418b-bdee-cb649d06c3ca","ios":"levelo://app?vid=58643b71-d571-418b-bdee-cb649d06c3ca"},"vehicle_type_id":"4","last_reported":1743145843,"current_range_meters":12800,"station_id":"ce4bh392rcd13ifvqdm0","pricing_plan_id":"cebpf4jnsgd1na2vs0mg"},{"bike_id":"7345e260-acae-4210-8667-2224ea3f52e1","system_id":"levelo_inurba_marseille","lat":43.30591,"lon":5.39358,"is_reserved":false,"is_disabled":false,"rental_uris":{"android":"levelo://app?vid=7345e260-acae-4210-8667-2224ea3f52e1","ios":"levelo://app?vid=7345e260-acae-4210-8667-2224ea3f52e1"},"vehicle_type_id":"4","last_reported":1743145843,"current_range_meters":12800,"station_id":"ce4bh0p2rcd13ifvqd80","pricing_plan_id":"cebpf4jnsgd1na2vs0mg"},{"bike_id":"ca7e0dc1-95b1-41ee-bfb6-6f7d653c8926","system_id":"levelo_inurba_marseille","lat":43.30379,"lon":5.37516,"is_reserved":false,"is_disabled":true,"rental_uris":{"android":"levelo://app?vid=ca7e0dc1-95b1-41ee-bfb6-6f7d653c8926","ios":"levelo://app?vid=ca7e0dc1-95b1-41ee-bfb6-6f7d653c8926"},"vehicle_type_id":"4","last_reported":1743145843,"current_range_meters":13600,"station_id":"","pricing_plan_id":"cebpf4jnsgd1na2vs0mg"},{"bike_id":"d5e4bccb-91bc-47c5-b5c7-b38babf2a5a2","system_id":"levelo_inurba_marseille","lat":43.24071,"lon":5.37754,"is_reserved":false,"is_disabled":false,"rental_uris":{"android":"levelo://app?vid=d5e4bccb-91bc-47c5-b5c7-b38babf2a5a2","ios":"levelo://app?vid=d5e4bccb-91bc-47c5-b5c7-b38babf2a5a2"},"vehicle_type_id":"4","last_reported":1743145843,"current_range_meters":13600,"station_id":"ce4bhnp2rcd13ifvqgvg","pricing_plan_id":"cebpf4jnsgd1na2vs0mg"},{"bike_id":"e4cda1a5-ed5a-4080-bd26-0b718e550ad4","system_id":"levelo_inurba_marseille","lat":43.281558,"lon":5.426362,"is_reserved":false,"is_disabled":false,"rental_uris":{"android":"levelo://app?vid=e4cda1a5-ed5a-4080-bd26-0b718e550ad4","ios":"levelo://app?vid=e4cda1a5-ed5a-4080-bd26-0b718e550ad4"},"vehicle_type_id":"4","last_reported":1743145843,"current_range_meters":13600,"station_id":"ce4bhnh2rcd13ifvqgug","pricing_plan_id":"cebpf4jnsgd1na2vs0mg"},{"bike_id":"52d3653b-04a8-4ed6-bc62-5cef2a068b3e","system_id":"levelo_inurba_marseille","lat":43.29048,"lon":5.39995,"is_reserved":false,"is_disabled":false,"rental_uris":{"android":"levelo://app?vid=52d3653b-04a8-4ed6-bc62-5cef2a068b3e","ios":"levelo://app?vid=52d3653b-04a8-4ed6-bc62-5cef2a068b3e"},"vehicle_type_id":"4","last_reported":1743145843,"current_range_meters":13600,"station_id":"ce4bh392rcd13ifvqdm0","pricing_plan_id":"cebpf4jnsgd1na2vs0mg"},{"bike_id":"ab79c7bb-1730-4a4c-b7ca-6d520982e325","system_id":"levelo_inurba_marseille","lat":43.2407,"lon":5.37741,"is_reserved":false,"is_disabled":false,"rental_uris":{"android":"levelo://app?vid=ab79c7bb-1730-4a4c-b7ca-6d520982e325","ios":"levelo://app?vid=ab79c7bb-1730-4a4c-b7ca-6d520982e325"},"vehicle_type_id":"4","last_reported":1743145843,"current_range_meters":13600,"station_id":"ce4bhnp2rcd13ifvqgvg","pricing_plan_id":"cebpf4jnsgd1na2vs0mg"},{"bike_id":"aed2caaf-e63e-4d9f-9fab-effd4b56045d","system_id":"levelo_inurba_marseille","lat":43.26234,"lon":5.40462,"is_reserved":false,"is_disabled":false,"rental_uris":{"android":"levelo://app?vid=aed2caaf-e63e-4d9f-9fab-effd4b56045d","ios":"levelo://app?vid=aed2caaf-e63e-4d9f-9fab-effd4b56045d"},"vehicle_type_id":"4","last_reported":1743145843,"current_range_meters":13600,"station_id":"ce4bhmh2rcd13ifvqgmg","pricing_plan_id":"cebpf4jnsgd1na2vs0mg"},{"bike_id":"c6c8fb31-86de-4758-859b-e74b70125ab7","system_id":"levelo_inurba_marseille","lat":43.32106,"lon":5.36795,"is_reserved":false,"is_disabled":false,"rental_uris":{"android":"levelo://app?vid=c6c8fb31-86de-4758-859b-e74b70125ab7","ios":"levelo://app?vid=c6c8fb31-86de-4758-859b-e74b70125ab7"},"vehicle_type_id":"4","last_reported":1743145843,"current_range_meters":13600,"station_id":"ce4bhrh2rcd13ifvqhug","pricing_plan_id":"cebpf4jnsgd1na2vs0mg"},{"bike_id":"7f9d4433-4e2b-4ff0-b944-2dadd6027623","system_id":"levelo_inurba_marseille","lat":43.321054,"lon":5.367656,"is_reserved":false,"is_disabled":false,"rental_uris":{"android":"levelo://app?vid=7f9d4433-4e2b-4ff0-b944-2dadd6027623","ios":"levelo://app?vid=7f9d4433-4e2b-4ff0-b944-2dadd6027623"},"vehicle_type_id":"4","last_reported":1743145843,"current_range_meters":14000,"station_id":"ce4bhrh2rcd13ifvqhug","pricing_plan_id":"cebpf4jnsgd1na2vs0mg"},{"bike_id":"67fed4e3-1acb-48c1-9e11-11d9c5d5413b","system_id":"levelo_inurba_marseille","lat":43.23152,"lon":5.43718,"is_reserved":false,"is_disabled":false,"rental_uris":{"android":"levelo://app?vid=67fed4e3-1acb-48c1-9e11-11d9c5d5413b","ios":"levelo://app?vid=67fed4e3-1acb-48c1-9e11-11d9c5d5413b"},"vehicle_type_id":"4","last_reported":1743145843,"current_range_meters":14000,"station_id":"ce4bhmp2rcd13ifvqgog","pricing_plan_id":"cebpf4jnsgd1na2vs0mg"},{"bike_id":"b167f564-f669-414f-bc71-254c81de072c","system_id":"levelo_inurba_marseille","lat":43.30148,"lon":5.38088,"is_reserved":false,"is_disabled":false,"rental_uris":{"android":"levelo://app?vid=b167f564-f669-414f-bc71-254c81de072c","ios":"levelo://app?vid=b167f564-f669-414f-bc71-254c81de072c"},"vehicle_type_id":"4","last_reported":1743145843,"current_range_meters":14000,"station_id":"ce4bgjp2rcd13ifvqbh0","pricing_plan_id":"cebpf4jnsgd1na2vs0mg"},{"bike_id":"c14b619a-d8da-4bbf-846f-02b7c7eb6274","system_id":"levelo_inurba_marseille","lat":43.32101,"lon":5.36784,"is_reserved":false,"is_disabled":false,"rental_uris":{"android":"levelo://app?vid=c14b619a-d8da-4bbf-846f-02b7c7eb6274","ios":"levelo://app?vid=c14b619a-d8da-4bbf-846f-02b7c7eb6274"},"vehicle_type_id":"4","last_reported":1743145843,"current_range_meters":14400,"station_id":"ce4bhrh2rcd13ifvqhug","pricing_plan_id":"cebpf4jnsgd1na2vs0mg"},{"bike_id":"7c5937cd-9b8a-4a66-b604-3a6cb98744b3","system_id":"levelo_inurba_marseille","lat":43.28156,"lon":5.42645,"is_reserved":false,"is_disabled":false,"rental_uris":{"android":"levelo://app?vid=7c5937cd-9b8a-4a66-b604-3a6cb98744b3","ios":"levelo://app?vid=7c5937cd-9b8a-4a66-b604-3a6cb98744b3"},"vehicle_type_id":"4","last_reported":1743145843,"current_range_meters":14400,"station_id":"ce4bhnh2rcd13ifvqgug","pricing_plan_id":"cebpf4jnsgd1na2vs0mg"},{"bike_id":"9492c0b3-582b-414f-8ce3-8444d654aada","system_id":"levelo_inurba_marseille","lat":43.26569,"lon":5.39013,"is_reserved":false,"is_disabled":false,"rental_uris":{"android":"levelo://app?vid=9492c0b3-582b-414f-8ce3-8444d654aada","ios":"levelo://app?vid=9492c0b3-582b-414f-8ce3-8444d654aada"},"vehicle_type_id":"4","last_reported":1743145843,"current_range_meters":14400,"station_id":"ce4bhe12rcd13ifvqf30","pricing_plan_id":"cebpf4jnsgd1na2vs0mg"},{"bike_id":"721be6c1-73eb-45a0-a048-3dca4a33bf3e","system_id":"levelo_inurba_marseille","lat":43.29694,"lon":5.36617,"is_reserved":false,"is_disabled":false,"rental_uris":{"android":"levelo://app?vid=721be6c1-73eb-45a0-a048-3dca4a33bf3e","ios":"levelo://app?vid=721be6c1-73eb-45a0-a048-3dca4a33bf3e"},"vehicle_type_id":"4","last_reported":1743145843,"current_range_meters":14000,"station_id":"ce4bgn12rcd13ifvqbt0","pricing_plan_id":"cebpf4jnsgd1na2vs0mg"},{"bike_id":"2069114f-a483-4b58-b6e7-fe6695da5f18","system_id":"levelo_inurba_marseille","lat":43.28546,"lon":5.40007,"is_reserved":false,"is_disabled":false,"rental_uris":{"android":"levelo://app?vid=2069114f-a483-4b58-b6e7-fe6695da5f18","ios":"levelo://app?vid=2069114f-a483-4b58-b6e7-fe6695da5f18"},"vehicle_type_id":"4","last_reported":1743145843,"current_range_meters":14400,"station_id":"","pricing_plan_id":"cebpf4jnsgd1na2vs0mg"},{"bike_id":"938b6d80-c940-4a47-9dbc-f24cc0f9aea7","system_id":"levelo_inurba_marseille","lat":43.23975,"lon":5.36659,"is_reserved":false,"is_disabled":false,"rental_uris":{"android":"levelo://app?vid=938b6d80-c940-4a47-9dbc-f24cc0f9aea7","ios":"levelo://app?vid=938b6d80-c940-4a47-9dbc-f24cc0f9aea7"},"vehicle_type_id":"4","last_reported":1743145843,"current_range_meters":14400,"station_id":"ce4bhi12rcd13ifvqfp0","pricing_plan_id":"cebpf4jnsgd1na2vs0mg"},{"bike_id":"54600087-e372-4f3e-b29e-1f17c4fe5f0f","system_id":"levelo_inurba_marseille","lat":43.29576,"lon":5.40002,"is_reserved":false,"is_disabled":false,"rental_uris":{"android":"levelo://app?vid=54600087-e372-4f3e-b29e-1f17c4fe5f0f","ios":"levelo://app?vid=54600087-e372-4f3e-b29e-1f17c4fe5f0f"},"vehicle_type_id":"4","last_reported":1743145843,"current_range_meters":14000,"station_id":"ce4bh312rcd13ifvqdj0","pricing_plan_id":"cebpf4jnsgd1na2vs0mg"},{"bike_id":"a84b3a51-eb20-4937-b0a4-5b7394b04845","system_id":"levelo_inurba_marseille","lat":43.2978,"lon":5.40436,"is_reserved":false,"is_disabled":false,"rental_uris":{"android":"levelo://app?vid=a84b3a51-eb20-4937-b0a4-5b7394b04845","ios":"levelo://app?vid=a84b3a51-eb20-4937-b0a4-5b7394b04845"},"vehicle_type_id":"4","last_reported":1743145843,"current_range_meters":14800,"station_id":"ce4bh112rcd13ifvqd90","pricing_plan_id":"cebpf4jnsgd1na2vs0mg"},{"bike_id":"57c03374-e2e3-466b-a358-3b7ab41c163e","system_id":"levelo_inurba_marseille","lat":43.30417,"lon":5.41318,"is_reserved":false,"is_disabled":false,"rental_uris":{"android":"levelo://app?vid=57c03374-e2e3-466b-a358-3b7ab41c163e","ios":"levelo://app?vid=57c03374-e2e3-466b-a358-3b7ab41c163e"},"vehicle_type_id":"4","last_reported":1743145843,"current_range_meters":14800,"station_id":"ce4bhop2rcd13ifvqh8g","pricing_plan_id":"cebpf4jnsgd1na2vs0mg"},{"bike_id":"98160033-c0f7-4753-8c63-b6bf58aedb85","system_id":"levelo_inurba_marseille","lat":43.2465,"lon":5.38929,"is_reserved":false,"is_disabled":false,"rental_uris":{"android":"levelo://app?vid=98160033-c0f7-4753-8c63-b6bf58aedb85","ios":"levelo://app?vid=98160033-c0f7-4753-8c63-b6bf58aedb85"},"vehicle_type_id":"4","last_reported":1743145843,"current_range_meters":14800,"station_id":"ce4bhg12rcd13ifvqf60","pricing_plan_id":"cebpf4jnsgd1na2vs0mg"},{"bike_id":"c6565aef-9d89-47cb-aa56-920ffaf32dc1","system_id":"levelo_inurba_marseille","lat":43.30894,"lon":5.37185,"is_reserved":false,"is_disabled":false,"rental_uris":{"android":"levelo://app?vid=c6565aef-9d89-47cb-aa56-920ffaf32dc1","ios":"levelo://app?vid=c6565aef-9d89-47cb-aa56-920ffaf32dc1"},"vehicle_type_id":"4","last_reported":1743145843,"current_range_meters":14800,"station_id":"ce4bguh2rcd13ifvqckg","pricing_plan_id":"cebpf4jnsgd1na2vs0mg"},{"bike_id":"e8be0c7f-0b06-4d18-a0a5-7b0d358f3498","system_id":"levelo_inurba_marseille","lat":43.29025,"lon":5.38648,"is_reserved":false,"is_disabled":true,"rental_uris":{"android":"levelo://app?vid=e8be0c7f-0b06-4d18-a0a5-7b0d358f3498","ios":"levelo://app?vid=e8be0c7f-0b06-4d18-a0a5-7b0d358f3498"},"vehicle_type_id":"4","last_reported":1743145843,"current_range_meters":14800,"station_id":"ce4bh4p2rcd13ifvqe0g","pricing_plan_id":"cebpf4jnsgd1na2vs0mg"},{"bike_id":"64837c1d-4023-49ba-9c13-8dcdcacb590c","system_id":"levelo_inurba_marseille","lat":43.24082,"lon":5.37758,"is_reserved":false,"is_disabled":false,"rental_uris":{"android":"levelo://app?vid=64837c1d-4023-49ba-9c13-8dcdcacb590c","ios":"levelo://app?vid=64837c1d-4023-49ba-9c13-8dcdcacb590c"},"vehicle_type_id":"4","last_reported":1743145843,"current_range_meters":14800,"station_id":"ce4bhnp2rcd13ifvqgvg","pricing_plan_id":"cebpf4jnsgd1na2vs0mg"},{"bike_id":"983c4c9f-ee1a-4d13-8ce7-bfd36c479f46","system_id":"levelo_inurba_marseille","lat":43.24171,"lon":5.36403,"is_reserved":false,"is_disabled":false,"rental_uris":{"android":"levelo://app?vid=983c4c9f-ee1a-4d13-8ce7-bfd36c479f46","ios":"levelo://app?vid=983c4c9f-ee1a-4d13-8ce7-bfd36c479f46"},"vehicle_type_id":"4","last_reported":1743145843,"current_range_meters":15200,"station_id":"cpo36qri1sfpv3e86is0","pricing_plan_id":"cebpf4jnsgd1na2vs0mg"},{"bike_id":"59eaaff4-a50e-4aa6-8ca2-c1fc5907e199","system_id":"levelo_inurba_marseille","lat":43.289886,"lon":5.366377,"is_reserved":false,"is_disabled":false,"rental_uris":{"android":"levelo://app?vid=59eaaff4-a50e-4aa6-8ca2-c1fc5907e199","ios":"levelo://app?vid=59eaaff4-a50e-4aa6-8ca2-c1fc5907e199"},"vehicle_type_id":"4","last_reported":1743145843,"current_range_meters":15200,"station_id":"","pricing_plan_id":"cebpf4jnsgd1na2vs0mg"},{"bike_id":"212c8e98-dbd0-430f-965c-a5211ae16902","system_id":"levelo_inurba_marseille","lat":43.25096,"lon":5.39563,"is_reserved":false,"is_disabled":false,"rental_uris":{"android":"levelo://app?vid=212c8e98-dbd0-430f-965c-a5211ae16902","ios":"levelo://app?vid=212c8e98-dbd0-430f-965c-a5211ae16902"},"vehicle_type_id":"4","last_reported":1743145843,"current_range_meters":15200,"station_id":"ce4bhm12rcd13ifvqgkg","pricing_plan_id":"cebpf4jnsgd1na2vs0mg"},{"bike_id":"279b8783-93c4-4dcd-a0fc-1fcf498bef1d","system_id":"levelo_inurba_marseille","lat":43.28444,"lon":5.35942,"is_reserved":false,"is_disabled":false,"rental_uris":{"android":"levelo://app?vid=279b8783-93c4-4dcd-a0fc-1fcf498bef1d","ios":"levelo://app?vid=279b8783-93c4-4dcd-a0fc-1fcf498bef1d"},"vehicle_type_id":"4","last_reported":1743145843,"current_range_meters":15200,"station_id":"","pricing_plan_id":"cebpf4jnsgd1na2vs0mg"},{"bike_id":"bb318dbb-adaf-4287-8e5b-ec1efee6e8b7","system_id":"levelo_inurba_marseille","lat":43.27067,"lon":5.40266,"is_reserved":false,"is_disabled":false,"rental_uris":{"android":"levelo://app?vid=bb318dbb-adaf-4287-8e5b-ec1efee6e8b7","ios":"levelo://app?vid=bb318dbb-adaf-4287-8e5b-ec1efee6e8b7"},"vehicle_type_id":"4","last_reported":1743145843,"current_range_meters":15200,"station_id":"ce4bhk92rcd13ifvqgc0","pricing_plan_id":"cebpf4jnsgd1na2vs0mg"},{"bike_id":"96ae61cc-dc92-40bd-9d81-e3b4548b4e29","system_id":"levelo_inurba_marseille","lat":43.2978,"lon":5.38103,"is_reserved":false,"is_disabled":false,"rental_uris":{"android":"levelo://app?vid=96ae61cc-dc92-40bd-9d81-e3b4548b4e29","ios":"levelo://app?vid=96ae61cc-dc92-40bd-9d81-e3b4548b4e29"},"vehicle_type_id":"4","last_reported":1743145843,"current_range_meters":15200,"station_id":"ce4bgip2rcd13ifvqbb0","pricing_plan_id":"cebpf4jnsgd1na2vs0mg"},{"bike_id":"a5d79401-d37b-4866-afa7-15b041f466cb","system_id":"levelo_inurba_marseille","lat":43.25585,"lon":5.38262,"is_reserved":false,"is_disabled":false,"rental_uris":{"android":"levelo://app?vid=a5d79401-d37b-4866-afa7-15b041f466cb","ios":"levelo://app?vid=a5d79401-d37b-4866-afa7-15b041f466cb"},"vehicle_type_id":"4","last_reported":1743145843,"current_range_meters":15200,"station_id":"ce4bhih2rcd13ifvqfs0","pricing_plan_id":"cebpf4jnsgd1na2vs0mg"},{"bike_id":"d9f692ac-5bc7-4519-b469-2323a4066399","system_id":"levelo_inurba_marseille","lat":43.30963,"lon":5.39032,"is_reserved":false,"is_disabled":false,"rental_uris":{"android":"levelo://app?vid=d9f692ac-5bc7-4519-b469-2323a4066399","ios":"levelo://app?vid=d9f692ac-5bc7-4519-b469-2323a4066399"},"vehicle_type_id":"4","last_reported":1743145843,"current_range_meters":16000,"station_id":"ce4bgup2rcd13ifvqco0","pricing_plan_id":"cebpf4jnsgd1na2vs0mg"},{"bike_id":"30430c19-c4d7-44f3-8525-0eb89a26610b","system_id":"levelo_inurba_marseille","lat":43.28716,"lon":5.36092,"is_reserved":false,"is_disabled":false,"rental_uris":{"android":"levelo://app?vid=30430c19-c4d7-44f3-8525-0eb89a26610b","ios":"levelo://app?vid=30430c19-c4d7-44f3-8525-0eb89a26610b"},"vehicle_type_id":"4","last_reported":1743145843,"current_range_meters":16000,"station_id":"cki0cbj6b192h4jlfktg","pricing_plan_id":"cebpf4jnsgd1na2vs0mg"},{"bike_id":"d67d8652-0f04-45a0-b34d-bbd8839b9d56","system_id":"levelo_inurba_marseille","lat":43.26284,"lon":5.38826,"is_reserved":false,"is_disabled":false,"rental_uris":{"android":"levelo://app?vid=d67d8652-0f04-45a0-b34d-bbd8839b9d56","ios":"levelo://app?vid=d67d8652-0f04-45a0-b34d-bbd8839b9d56"},"vehicle_type_id":"4","last_reported":1743145843,"current_range_meters":16000,"station_id":"","pricing_plan_id":"cebpf4jnsgd1na2vs0mg"},{"bike_id":"400afa6a-7d96-4c52-abe3-6f9f2d9c0f2b","system_id":"levelo_inurba_marseille","lat":43.28495,"lon":5.35918,"is_reserved":false,"is_disabled":false,"rental_uris":{"android":"levelo://app?vid=400afa6a-7d96-4c52-abe3-6f9f2d9c0f2b","ios":"levelo://app?vid=400afa6a-7d96-4c52-abe3-6f9f2d9c0f2b"},"vehicle_type_id":"4","last_reported":1743145843,"current_range_meters":16000,"station_id":"ce4bhah2rcd13ifvqei0","pricing_plan_id":"cebpf4jnsgd1na2vs0mg"},{"bike_id":"7ba5f7c6-7d30-4d5a-b675-aa48927a0fef","system_id":"levelo_inurba_marseille","lat":43.3185,"lon":5.37509,"is_reserved":false,"is_disabled":false,"rental_uris":{"android":"levelo://app?vid=7ba5f7c6-7d30-4d5a-b675-aa48927a0fef","ios":"levelo://app?vid=7ba5f7c6-7d30-4d5a-b675-aa48927a0fef"},"vehicle_type_id":"4","last_reported":1743145843,"current_range_meters":16000,"station_id":"","pricing_plan_id":"cebpf4jnsgd1na2vs0mg"},{"bike_id":"2b929b80-a73b-44cb-97e3-b3c172b0c1fa","system_id":"levelo_inurba_marseille","lat":43.28352,"lon":5.3811,"is_reserved":false,"is_disabled":false,"rental_uris":{"android":"levelo://app?vid=2b929b80-a73b-44cb-97e3-b3c172b0c1fa","ios":"levelo://app?vid=2b929b80-a73b-44cb-97e3-b3c172b0c1fa"},"vehicle_type_id":"4","last_reported":1743145843,"current_range_meters":16000,"station_id":"ce4bh412rcd13ifvqdr0","pricing_plan_id":"cebpf4jnsgd1na2vs0mg"},{"bike_id":"091ab900-0ca6-4e1d-b46b-ed2e59d60ea1","system_id":"levelo_inurba_marseille","lat":43.30864,"lon":5.3963,"is_reserved":false,"is_disabled":false,"rental_uris":{"android":"levelo://app?vid=091ab900-0ca6-4e1d-b46b-ed2e59d60ea1","ios":"levelo://app?vid=091ab900-0ca6-4e1d-b46b-ed2e59d60ea1"},"vehicle_type_id":"4","last_reported":1743145843,"current_range_meters":16000,"station_id":"ce4bh012rcd13ifvqcv0","pricing_plan_id":"cebpf4jnsgd1na2vs0mg"},{"bike_id":"68b97121-2d41-494f-a12c-e34770fcd1f1","system_id":"levelo_inurba_marseille","lat":43.23187,"lon":5.39982,"is_reserved":false,"is_disabled":false,"rental_uris":{"android":"levelo://app?vid=68b97121-2d41-494f-a12c-e34770fcd1f1","ios":"levelo://app?vid=68b97121-2d41-494f-a12c-e34770fcd1f1"},"vehicle_type_id":"4","last_reported":1743145843,"current_range_meters":16000,"station_id":"ce4bhn12rcd13ifvqgqg","pricing_plan_id":"cebpf4jnsgd1na2vs0mg"},{"bike_id":"fcdf51d5-5003-402a-a3fa-5a56da5837da","system_id":"levelo_inurba_marseille","lat":43.279513,"lon":5.410533,"is_reserved":false,"is_disabled":true,"rental_uris":{"android":"levelo://app?vid=fcdf51d5-5003-402a-a3fa-5a56da5837da","ios":"levelo://app?vid=fcdf51d5-5003-402a-a3fa-5a56da5837da"},"vehicle_type_id":"4","last_reported":1743145843,"current_range_meters":16000,"station_id":"ce4bhnp2rcd13ifvqh0g","pricing_plan_id":"cebpf4jnsgd1na2vs0mg"},{"bike_id":"9f2583cf-461d-4d57-8c37-99ef1e89cade","system_id":"levelo_inurba_marseille","lat":43.231949,"lon":5.355551,"is_reserved":false,"is_disabled":false,"rental_uris":{"android":"levelo://app?vid=9f2583cf-461d-4d57-8c37-99ef1e89cade","ios":"levelo://app?vid=9f2583cf-461d-4d57-8c37-99ef1e89cade"},"vehicle_type_id":"4","last_reported":1743145843,"current_range_meters":16000,"station_id":"ce4bhu92rcd13ifvqi70","pricing_plan_id":"cebpf4jnsgd1na2vs0mg"},{"bike_id":"bcf8a7c0-7c32-4572-a185-4a7f80109b8f","system_id":"levelo_inurba_marseille","lat":43.2792,"lon":5.38005,"is_reserved":false,"is_disabled":false,"rental_uris":{"android":"levelo://app?vid=bcf8a7c0-7c32-4572-a185-4a7f80109b8f","ios":"levelo://app?vid=bcf8a7c0-7c32-4572-a185-4a7f80109b8f"},"vehicle_type_id":"4","last_reported":1743145843,"current_range_meters":16400,"station_id":"ce4bhf92rcd13ifvqf50","pricing_plan_id":"cebpf4jnsgd1na2vs0mg"},{"bike_id":"261d4ffc-0dae-4abc-8ed7-8c4a439b4b9a","system_id":"levelo_inurba_marseille","lat":43.27936,"lon":5.41083,"is_reserved":false,"is_disabled":false,"rental_uris":{"android":"levelo://app?vid=261d4ffc-0dae-4abc-8ed7-8c4a439b4b9a","ios":"levelo://app?vid=261d4ffc-0dae-4abc-8ed7-8c4a439b4b9a"},"vehicle_type_id":"4","last_reported":1743145843,"current_range_meters":16400,"station_id":"ce4bhnp2rcd13ifvqh0g","pricing_plan_id":"cebpf4jnsgd1na2vs0mg"},{"bike_id":"8726463f-aab1-4a63-835f-8b8664a1f152","system_id":"levelo_inurba_marseille","lat":43.30598,"lon":5.39365,"is_reserved":false,"is_disabled":false,"rental_uris":{"android":"levelo://app?vid=8726463f-aab1-4a63-835f-8b8664a1f152","ios":"levelo://app?vid=8726463f-aab1-4a63-835f-8b8664a1f152"},"vehicle_type_id":"4","last_reported":1743145843,"current_range_meters":16400,"station_id":"ce4bh0p2rcd13ifvqd80","pricing_plan_id":"cebpf4jnsgd1na2vs0mg"},{"bike_id":"155e3fe2-30b5-42ce-ba12-b1f697461e90","system_id":"levelo_inurba_marseille","lat":43.3013,"lon":5.39878,"is_reserved":false,"is_disabled":false,"rental_uris":{"android":"levelo://app?vid=155e3fe2-30b5-42ce-ba12-b1f697461e90","ios":"levelo://app?vid=155e3fe2-30b5-42ce-ba12-b1f697461e90"},"vehicle_type_id":"4","last_reported":1743145843,"current_range_meters":16400,"station_id":"ce4bh0h2rcd13ifvqd40","pricing_plan_id":"cebpf4jnsgd1na2vs0mg"},{"bike_id":"42642fc0-90e0-4a62-8b45-c40b6cd8b705","system_id":"levelo_inurba_marseille","lat":43.28661,"lon":5.39997,"is_reserved":false,"is_disabled":false,"rental_uris":{"android":"levelo://app?vid=42642fc0-90e0-4a62-8b45-c40b6cd8b705","ios":"levelo://app?vid=42642fc0-90e0-4a62-8b45-c40b6cd8b705"},"vehicle_type_id":"4","last_reported":1743145843,"current_range_meters":16400,"station_id":"","pricing_plan_id":"cebpf4jnsgd1na2vs0mg"},{"bike_id":"21c23e58-1912-4f71-a00e-f6c0c41af9d9","system_id":"levelo_inurba_marseille","lat":43.29248,"lon":5.40905,"is_reserved":false,"is_disabled":false,"rental_uris":{"android":"levelo://app?vid=21c23e58-1912-4f71-a00e-f6c0c41af9d9","ios":"levelo://app?vid=21c23e58-1912-4f71-a00e-f6c0c41af9d9"},"vehicle_type_id":"4","last_reported":1743145843,"current_range_meters":16400,"station_id":"ce4bh192rcd13ifvqdc0","pricing_plan_id":"cebpf4jnsgd1na2vs0mg"},{"bike_id":"f93f9f15-47ba-42b2-8099-f8263dde0883","system_id":"levelo_inurba_marseille","lat":43.28736,"lon":5.36121,"is_reserved":false,"is_disabled":false,"rental_uris":{"android":"levelo://app?vid=f93f9f15-47ba-42b2-8099-f8263dde0883","ios":"levelo://app?vid=f93f9f15-47ba-42b2-8099-f8263dde0883"},"vehicle_type_id":"4","last_reported":1743145843,"current_range_meters":16400,"station_id":"cki0cbj6b192h4jlfktg","pricing_plan_id":"cebpf4jnsgd1na2vs0mg"},{"bike_id":"4b2323ae-94b8-41f7-9062-4d9bd4bd549e","system_id":"levelo_inurba_marseille","lat":43.24183,"lon":5.36442,"is_reserved":false,"is_disabled":false,"rental_uris":{"android":"levelo://app?vid=4b2323ae-94b8-41f7-9062-4d9bd4bd549e","ios":"levelo://app?vid=4b2323ae-94b8-41f7-9062-4d9bd4bd549e"},"vehicle_type_id":"4","last_reported":1743145843,"current_range_meters":16400,"station_id":"cpo36qri1sfpv3e86is0","pricing_plan_id":"cebpf4jnsgd1na2vs0mg"},{"bike_id":"9332bb6f-7d03-494a-b8f1-c646f60ba3df","system_id":"levelo_inurba_marseille","lat":43.314261,"lon":5.401463,"is_reserved":false,"is_disabled":false,"rental_uris":{"android":"levelo://app?vid=9332bb6f-7d03-494a-b8f1-c646f60ba3df","ios":"levelo://app?vid=9332bb6f-7d03-494a-b8f1-c646f60ba3df"},"vehicle_type_id":"4","last_reported":1743145843,"current_range_meters":16400,"station_id":"","pricing_plan_id":"cebpf4jnsgd1na2vs0mg"},{"bike_id":"f14ebf07-0725-40a9-b416-0c9efeddb656","system_id":"levelo_inurba_marseille","lat":43.304172,"lon":5.412828,"is_reserved":false,"is_disabled":false,"rental_uris":{"android":"levelo://app?vid=f14ebf07-0725-40a9-b416-0c9efeddb656","ios":"levelo://app?vid=f14ebf07-0725-40a9-b416-0c9efeddb656"},"vehicle_type_id":"4","last_reported":1743145843,"current_range_meters":16400,"station_id":"ce4bhop2rcd13ifvqh8g","pricing_plan_id":"cebpf4jnsgd1na2vs0mg"},{"bike_id":"1bf6a983-2362-4d52-a710-cee871b9d2a4","system_id":"levelo_inurba_marseille","lat":43.321126,"lon":5.367689,"is_reserved":false,"is_disabled":false,"rental_uris":{"android":"levelo://app?vid=1bf6a983-2362-4d52-a710-cee871b9d2a4","ios":"levelo://app?vid=1bf6a983-2362-4d52-a710-cee871b9d2a4"},"vehicle_type_id":"4","last_reported":1743145843,"current_range_meters":16400,"station_id":"ce4bhrh2rcd13ifvqhug","pricing_plan_id":"cebpf4jnsgd1na2vs0mg"},{"bike_id":"960b2929-80f3-4691-ac48-f3f60f3f9e96","system_id":"levelo_inurba_marseille","lat":43.299659,"lon":5.385138,"is_reserved":false,"is_disabled":true,"rental_uris":{"android":"levelo://app?vid=960b2929-80f3-4691-ac48-f3f60f3f9e96","ios":"levelo://app?vid=960b2929-80f3-4691-ac48-f3f60f3f9e96"},