{"last_updated":1744276246,"ttl":60,"version":"2.2","data":{"bikes":[{"bike_id":"1e9b191f-87f3-4c6d-86d9-fcb43e5db3c0","system_id":"levelo_inurba_marseille","lat":43.29012,"lon":5.38125,"is_reserved":false,"is_disabled":false,"rental_uris":{"android":"levelo://app?vid=1e9b191f-87f3-4c6d-86d9-fcb43e5db3c0","ios":"levelo://app?vid=1e9b191f-87f3-4c6d-86d9-fcb43e5db3c0"},"vehicle_type_id":"4","last_reported":1744276246,"current_range_meters":2800,"station_id":"ce4bh4p2rcd13ifvqe1g","pricing_plan_id":"cebpf4jnsgd1na2vs0mg"},{"bike_id":"9e822e95-4ea7-48d8-b009-628669aaaad9","system_id":"levelo_inurba_marseille","lat":43.23964,"lon":5.36627,"is_reserved":false,"is_disabled":false,"rental_uris":{"android":"levelo://app?vid=9e822e95-4ea7-48d8-b009-628669aaaad9","ios":"levelo://app?vid=9e822e95-4ea7-48d8-b009-628669aaaad9"},"vehicle_type_id":"4","last_reported":1744276246,"current_range_meters":2000,"station_id":"ce4bhi12rcd13ifvqfp0","pricing_plan_id":"cebpf4jnsgd1na2vs0mg"},{"bike_id":"848354e3-5c18-4dca-b715-896e711a628a","system_id":"levelo_inurba_marseille","lat":43.29315,"lon":5.3717,"is_reserved":false,"is_disabled":true,"rental_uris":{"android":"levelo://app?vid=848354e3-5c18-4dca-b715-896e711a628a","ios":"levelo://app?vid=848354e3-5c18-4dca-b715-896e711a628a"},"vehicle_type_id":"4","last_reported":1744276246,"current_range_meters":2800,"station_id":"ce4bgh92rcd13ifvqb40","pricing_plan_id":"cebpf4jnsgd1na2vs0mg"},{"bike_id":"768e903f-f3e6-4581-9c8a-59e608429ee4","system_id":"levelo_inurba_marseille","lat":43.26681,"lon":5.38271,"is_reserved":false,"is_disabled":true,"rental_uris":{"android":"levelo://app?vid=768e903f-f3e6-4581-9c8a-59e608429ee4","ios":"levelo://app?vid=768e903f-f3e6-4581-9c8a-59e608429ee4"},"vehicle_type_id":"4","last_reported":1744276246,"current_range_meters":2800,"station_id":"ce4bhg92rcd13ifvqf90","pricing_plan_id":"cebpf4jnsgd1na2vs0mg"},{"bike_id":"93074736-bad9-45f5-adfe-676d5c332211","system_id":"levelo_inurba_marseille","lat":43.24997,"lon":5.38924,"is_reserved":false,"is_disabled":false,"rental_uris":{"android":"levelo://app?vid=93074736-bad9-45f5-adfe-676d5c332211","ios":"levelo://app?vid=93074736-bad9-45f5-adfe-676d5c332211"},"vehicle_type_id":"4","last_reported":1744276246,"current_range_meters":2800,"station_id":"ce4bhgp2rcd13ifvqfd0","pricing_plan_id":"cebpf4jnsgd1na2vs0mg"},{"bike_id":"ae7fc30f-36a4-4b2d-8b99-bb40d3c9eacc","system_id":"levelo_inurba_marseille","lat":43.294189,"lon":5.386185,"is_reserved":false,"is_disabled":false,"rental_uris":{"android":"levelo://app?vid=ae7fc30f-36a4-4b2d-8b99-bb40d3c9eacc","ios":"levelo://app?vid=ae7fc30f-36a4-4b2d-8b99-bb40d3c9eacc"},"vehicle_type_id":"4","last_reported":1744276246,"current_range_meters":3200,"station_id":"ce4bh2h2rcd13ifvqdh0","pricing_plan_id":"cebpf4jnsgd1na2vs0mg"},{"bike_id":"46156e5f-25cc-45da-83c4-da2aa986f209","system_id":"levelo_inurba_marseille","lat":43.2475,"lon":5.412,"is_reserved":false,"is_disabled":false,"rental_uris":{"android":"levelo://app?vid=46156e5f-25cc-45da-83c4-da2aa986f209","ios":"levelo://app?vid=46156e5f-25cc-45da-83c4-da2aa986f209"},"vehicle_type_id":"4","last_reported":1744276246,"current_range_meters":3200,"station_id":"","pricing_plan_id":"cebpf4jnsgd1na2vs0mg"},{"bike_id":"3edddd02-919d-4186-b933-1d6a0628347a","system_id":"levelo_inurba_marseille","lat":43.276154,"lon":5.361064,"is_reserved":false,"is_disabled":false,"rental_uris":{"android":"levelo://app?vid=3edddd02-919d-4186-b933-1d6a0628347a","ios":"levelo://app?vid=3edddd02-919d-4186-b933-1d6a0628347a"},"vehicle_type_id":"4","last_reported":1744276246,"current_range_meters":3200,"station_id":"ce4bgj92rcd13ifvqbe0","pricing_plan_id":"cebpf4jnsgd1na2vs0mg"},{"bike_id":"03926bc9-f9d8-4451-80fc-eb49eedc74e1","system_id":"levelo_inurba_marseille","lat":43.278124,"lon":5.40703,"is_reserved":false,"is_disabled":false,"rental_uris":{"android":"levelo://app?vid=03926bc9-f9d8-4451-80fc-eb49eedc74e1","ios":"levelo://app?vid=03926bc9-f9d8-4451-80fc-eb49eedc74e1"},"vehicle_type_id":"4","last_reported":1744276246,"current_range_meters":3600,"station_id":"ce4bhnh2rcd13ifvqgtg","pricing_plan_id":"cebpf4jnsgd1na2vs0mg"},{"bike_id":"951a075f-4063-499f-95ef-2ec50db6526c","system_id":"levelo_inurba_marseille","lat":43.22934,"lon":5.35356,"is_reserved":false,"is_disabled":true,"rental_uris":{"android":"levelo://app?vid=951a075f-4063-499f-95ef-2ec50db6526c","ios":"levelo://app?vid=951a075f-4063-499f-95ef-2ec50db6526c"},"vehicle_type_id":"4","last_reported":1744276246,"current_range_meters":4000,"station_id":"cpo3532slgdg3j2ikp40","pricing_plan_id":"cebpf4jnsgd1na2vs0mg"},{"bike_id":"68d1cc33-0218-451e-8e10-d32225c21263","system_id":"levelo_inurba_marseille","lat":43.23162,"lon":5.43698,"is_reserved":false,"is_disabled":true,"rental_uris":{"android":"levelo://app?vid=68d1cc33-0218-451e-8e10-d32225c21263","ios":"levelo://app?vid=68d1cc33-0218-451e-8e10-d32225c21263"},"vehicle_type_id":"4","last_reported":1744276246,"current_range_meters":3600,"station_id":"ce4bhmp2rcd13ifvqgog","pricing_plan_id":"cebpf4jnsgd1na2vs0mg"},{"bike_id":"d2801a2e-e3bd-47c8-83f0-dd56f02a3b6e","system_id":"levelo_inurba_marseille","lat":43.23153,"lon":5.43723,"is_reserved":false,"is_disabled":false,"rental_uris":{"android":"levelo://app?vid=d2801a2e-e3bd-47c8-83f0-dd56f02a3b6e","ios":"levelo://app?vid=d2801a2e-e3bd-47c8-83f0-dd56f02a3b6e"},"vehicle_type_id":"4","last_reported":1744276246,"current_range_meters":3600,"station_id":"ce4bhmp2rcd13ifvqgog","pricing_plan_id":"cebpf4jnsgd1na2vs0mg"},{"bike_id":"3bfd792d-8024-4b3d-8c0a-4428de874fa2","system_id":"levelo_inurba_marseille","lat":43.32042,"lon":5.38592,"is_reserved":false,"is_disabled":true,"rental_uris":{"android":"levelo://app?vid=3bfd792d-8024-4b3d-8c0a-4428de874fa2","ios":"levelo://app?vid=3bfd792d-8024-4b3d-8c0a-4428de874fa2"},"vehicle_type_id":"4","last_reported":1744276246,"current_range_meters":4000,"station_id":"","pricing_plan_id":"cebpf4jnsgd1na2vs0mg"},{"bike_id":"d1225491-d48c-48dc-b902-b5d8e368ee94","system_id":"levelo_inurba_marseille","lat":43.26508,"lon":5.39551,"is_reserved":false,"is_disabled":false,"rental_uris":{"android":"levelo://app?vid=d1225491-d48c-48dc-b902-b5d8e368ee94","ios":"levelo://app?vid=d1225491-d48c-48dc-b902-b5d8e368ee94"},"vehicle_type_id":"4","last_reported":1744276246,"current_range_meters":4000,"station_id":"ce4bhi12rcd13ifvqfq0","pricing_plan_id":"cebpf4jnsgd1na2vs0mg"},{"bike_id":"c40a2e2c-2a66-4aa2-81cf-c4ae98211b54","system_id":"levelo_inurba_marseille","lat":43.21764,"lon":5.34594,"is_reserved":false,"is_disabled":false,"rental_uris":{"android":"levelo://app?vid=c40a2e2c-2a66-4aa2-81cf-c4ae98211b54","ios":"levelo://app?vid=c40a2e2c-2a66-4aa2-81cf-c4ae98211b54"},"vehicle_type_id":"4","last_reported":1744276246,"current_range_meters":4000,"station_id":"st_cvj6r9ubvosntc0bgbag","pricing_plan_id":"cebpf4jnsgd1na2vs0mg"},{"bike_id":"ad5ad6f0-7a98-43fb-94d0-77a9ac348cd1","system_id":"levelo_inurba_marseille","lat":43.27818,"lon":5.40705,"is_reserved":false,"is_disabled":false,"rental_uris":{"android":"levelo://app?vid=ad5ad6f0-7a98-43fb-94d0-77a9ac348cd1","ios":"levelo://app?vid=ad5ad6f0-7a98-43fb-94d0-77a9ac348cd1"},"vehicle_type_id":"4","last_reported":1744276246,"current_range_meters":4000,"station_id":"ce4bhnh2rcd13ifvqgtg","pricing_plan_id":"cebpf4jnsgd1na2vs0mg"},{"bike_id":"1bded073-d497-42d3-9fda-07daed6d7973","system_id":"levelo_inurba_marseille","lat":43.225072,"lon":5.34785,"is_reserved":false,"is_disabled":false,"rental_uris":{"android":"levelo://app?vid=1bded073-d497-42d3-9fda-07daed6d7973","ios":"levelo://app?vid=1bded073-d497-42d3-9fda-07daed6d7973"},"vehicle_type_id":"4","last_reported":1744276246,"current_range_meters":4800,"station_id":"ce4bhbp2rcd13ifvqesg","pricing_plan_id":"cebpf4jnsgd1na2vs0mg"},{"bike_id":"feca3d9e-12e9-4a3a-8f8a-211aa953b3fa","system_id":"levelo_inurba_marseille","lat":43.29341,"lon":5.4115,"is_reserved":false,"is_disabled":false,"rental_uris":{"android":"levelo://app?vid=feca3d9e-12e9-4a3a-8f8a-211aa953b3fa","ios":"levelo://app?vid=feca3d9e-12e9-4a3a-8f8a-211aa953b3fa"},"vehicle_type_id":"4","last_reported":1744276246,"current_range_meters":4800,"station_id":"","pricing_plan_id":"cebpf4jnsgd1na2vs0mg"},{"bike_id":"83c23dd8-d315-428e-b915-6dfe0d42cef7","system_id":"levelo_inurba_marseille","lat":43.31347,"lon":5.367077,"is_reserved":false,"is_disabled":false,"rental_uris":{"android":"levelo://app?vid=83c23dd8-d315-428e-b915-6dfe0d42cef7","ios":"levelo://app?vid=83c23dd8-d315-428e-b915-6dfe0d42cef7"},"vehicle_type_id":"4","last_reported":1744276246,"current_range_meters":4800,"station_id":"ce4bgr92rcd13ifvqc6g","pricing_plan_id":"cebpf4jnsgd1na2vs0mg"},{"bike_id":"80663e12-6b64-446d-88c9-20255bde1a8a","system_id":"levelo_inurba_marseille","lat":43.308812,"lon":5.396519,"is_reserved":false,"is_disabled":true,"rental_uris":{"android":"levelo://app?vid=80663e12-6b64-446d-88c9-20255bde1a8a","ios":"levelo://app?vid=80663e12-6b64-446d-88c9-20255bde1a8a"},"vehicle_type_id":"4","last_reported":1744276246,"current_range_meters":5600,"station_id":"ce4bh012rcd13ifvqcv0","pricing_plan_id":"cebpf4jnsgd1na2vs0mg"},{"bike_id":"bf0c585e-5b41-4721-a51a-71274899cf15","system_id":"levelo_inurba_marseille","lat":43.2968,"lon":5.3791,"is_reserved":false,"is_disabled":false,"rental_uris":{"android":"levelo://app?vid=bf0c585e-5b41-4721-a51a-71274899cf15","ios":"levelo://app?vid=bf0c585e-5b41-4721-a51a-71274899cf15"},"vehicle_type_id":"4","last_reported":1744276246,"current_range_meters":5600,"station_id":"","pricing_plan_id":"cebpf4jnsgd1na2vs0mg"},{"bike_id":"00755629-ef7b-42fc-ba89-f99384474d44","system_id":"levelo_inurba_marseille","lat":43.270049,"lon":5.365653,"is_reserved":false,"is_disabled":false,"rental_uris":{"android":"levelo://app?vid=00755629-ef7b-42fc-ba89-f99384474d44","ios":"levelo://app?vid=00755629-ef7b-42fc-ba89-f99384474d44"},"vehicle_type_id":"4","last_reported":1744276246,"current_range_meters":5600,"station_id":"ce4bhh12rcd13ifvqff0","pricing_plan_id":"cebpf4jnsgd1na2vs0mg"},{"bike_id":"660652a2-e624-48ab-b332-d1244521f61f","system_id":"levelo_inurba_marseille","lat":43.25492,"lon":5.37647,"is_reserved":false,"is_disabled":true,"rental_uris":{"android":"levelo://app?vid=660652a2-e624-48ab-b332-d1244521f61f","ios":"levelo://app?vid=660652a2-e624-48ab-b332-d1244521f61f"},"vehicle_type_id":"4","last_reported":1744276246,"current_range_meters":5600,"station_id":"ce4bhh12rcd13ifvqff0","pricing_plan_id":"cebpf4jnsgd1na2vs0mg"},{"bike_id":"9cefc95d-bb98-48c1-9873-8d16bac532d6","system_id":"levelo_inurba_marseille","lat":43.28268,"lon":5.35059,"is_reserved":false,"is_disabled":false,"rental_uris":{"android":"levelo://app?vid=9cefc95d-bb98-48c1-9873-8d16bac532d6","ios":"levelo://app?vid=9cefc95d-bb98-48c1-9873-8d16bac532d6"},"vehicle_type_id":"4","last_reported":1744276246,"current_range_meters":5600,"station_id":"ce4bhbp2rcd13ifvqerg","pricing_plan_id":"cebpf4jnsgd1na2vs0mg"},{"bike_id":"fde8e82a-ae35-4e24-9f10-6dfd8eb546df","system_id":"levelo_inurba_marseille","lat":43.29024,"lon":5.39983,"is_reserved":false,"is_disabled":false,"rental_uris":{"android":"levelo://app?vid=fde8e82a-ae35-4e24-9f10-6dfd8eb546df","ios":"levelo://app?vid=fde8e82a-ae35-4e24-9f10-6dfd8eb546df"},"vehicle_type_id":"4","last_reported":1744276246,"current_range_meters":5600,"station_id":"ce4bh392rcd13ifvqdm0","pricing_plan_id":"cebpf4jnsgd1na2vs0mg"},{"bike_id":"8fb3b961-0cd2-4258-ad9f-1980809da7a8","system_id":"levelo_inurba_marseille","lat":43.29997,"lon":5.3718,"is_reserved":false,"is_disabled":false,"rental_uris":{"android":"levelo://app?vid=8fb3b961-0cd2-4258-ad9f-1980809da7a8","ios":"levelo://app?vid=8fb3b961-0cd2-4258-ad9f-1980809da7a8"},"vehicle_type_id":"4","last_reported":1744276246,"current_range_meters":6000,"station_id":"ce4bgr92rcd13ifvqc7g","pricing_plan_id":"cebpf4jnsgd1na2vs0mg"},{"bike_id":"c1152fc8-b7fb-4034-a3a1-a3a68f5df83c","system_id":"levelo_inurba_marseille","lat":43.23151,"lon":5.43709,"is_reserved":false,"is_disabled":false,"rental_uris":{"android":"levelo://app?vid=c1152fc8-b7fb-4034-a3a1-a3a68f5df83c","ios":"levelo://app?vid=c1152fc8-b7fb-4034-a3a1-a3a68f5df83c"},"vehicle_type_id":"4","last_reported":1744276246,"current_range_meters":6000,"station_id":"ce4bhmp2rcd13ifvqgog","pricing_plan_id":"cebpf4jnsgd1na2vs0mg"},{"bike_id":"4a9a2a88-b7aa-410e-bfe8-10ac7056326d","system_id":"levelo_inurba_marseille","lat":43.28959,"lon":5.39633,"is_reserved":false,"is_disabled":true,"rental_uris":{"android":"levelo://app?vid=4a9a2a88-b7aa-410e-bfe8-10ac7056326d","ios":"levelo://app?vid=4a9a2a88-b7aa-410e-bfe8-10ac7056326d"},"vehicle_type_id":"4","last_reported":1744276246,"current_range_meters":6400,"station_id":"ce4bh3h2rcd13ifvqdn0","pricing_plan_id":"cebpf4jnsgd1na2vs0mg"},{"bike_id":"1adcfecd-7da9-485c-b40f-e62ffc130e51","system_id":"levelo_inurba_marseille","lat":43.2175,"lon":5.34599,"is_reserved":false,"is_disabled":false,"rental_uris":{"android":"levelo://app?vid=1adcfecd-7da9-485c-b40f-e62ffc130e51","ios":"levelo://app?vid=1adcfecd-7da9-485c-b40f-e62ffc130e51"},"vehicle_type_id":"4","last_reported":1744276246,"current_range_meters":6400,"station_id":"st_cvj6r9ubvosntc0bgbag","pricing_plan_id":"cebpf4jnsgd1na2vs0mg"},{"bike_id":"758e8708-ecd2-494d-80c8-3ff8f0fbc44b","system_id":"levelo_inurba_marseille","lat":43.299608,"lon":5.413259,"is_reserved":false,"is_disabled":false,"rental_uris":{"android":"levelo://app?vid=758e8708-ecd2-494d-80c8-3ff8f0fbc44b","ios":"levelo://app?vid=758e8708-ecd2-494d-80c8-3ff8f0fbc44b"},"vehicle_type_id":"4","last_reported":1744276246,"current_range_meters":6400,"station_id":"ce4bhp12rcd13ifvqh9g","pricing_plan_id":"cebpf4jnsgd1na2vs0mg"},{"bike_id":"ec80396c-83b7-40dd-a7f1-669b581de951","system_id":"levelo_inurba_marseille","lat":43.25858,"lon":5.40937,"is_reserved":false,"is_disabled":false,"rental_uris":{"android":"levelo://app?vid=ec80396c-83b7-40dd-a7f1-669b581de951","ios":"levelo://app?vid=ec80396c-83b7-40dd-a7f1-669b581de951"},"vehicle_type_id":"4","last_reported":1744276246,"current_range_meters":6400,"station_id":"ce4bhm92rcd13ifvqglg","pricing_plan_id":"cebpf4jnsgd1na2vs0mg"},{"bike_id":"08f9c0c8-8b33-4578-8a03-20f44d582241","system_id":"levelo_inurba_marseille","lat":43.3057,"lon":5.36955,"is_reserved":false,"is_disabled":false,"rental_uris":{"android":"levelo://app?vid=08f9c0c8-8b33-4578-8a03-20f44d582241","ios":"levelo://app?vid=08f9c0c8-8b33-4578-8a03-20f44d582241"},"vehicle_type_id":"4","last_reported":1744276246,"current_range_meters":6400,"station_id":"","pricing_plan_id":"cebpf4jnsgd1na2vs0mg"},{"bike_id":"d733319a-1ef7-4099-a58e-5896deba1461","system_id":"levelo_inurba_marseille","lat":43.28459,"lon":5.35886,"is_reserved":false,"is_disabled":false,"rental_uris":{"android":"levelo://app?vid=d733319a-1ef7-4099-a58e-5896deba1461","ios":"levelo://app?vid=d733319a-1ef7-4099-a58e-5896deba1461"},"vehicle_type_id":"4","last_reported":1744276246,"current_range_meters":6400,"station_id":"ce4bhah2rcd13ifvqei0","pricing_plan_id":"cebpf4jnsgd1na2vs0mg"},{"bike_id":"16301999-0171-49e0-a118-7a4dc1981351","system_id":"levelo_inurba_marseille","lat":43.225046,"lon":5.347849,"is_reserved":false,"is_disabled":false,"rental_uris":{"android":"levelo://app?vid=16301999-0171-49e0-a118-7a4dc1981351","ios":"levelo://app?vid=16301999-0171-49e0-a118-7a4dc1981351"},"vehicle_type_id":"4","last_reported":1744276246,"current_range_meters":6800,"station_id":"ce4bhhh2rcd13ifvqfk0","pricing_plan_id":"cebpf4jnsgd1na2vs0mg"},{"bike_id":"ca694a22-41c2-40a4-a6cb-89a01d1002db","system_id":"levelo_inurba_marseille","lat":43.28426,"lon":5.34989,"is_reserved":false,"is_disabled":false,"rental_uris":{"android":"levelo://app?vid=ca694a22-41c2-40a4-a6cb-89a01d1002db","ios":"levelo://app?vid=ca694a22-41c2-40a4-a6cb-89a01d1002db"},"vehicle_type_id":"4","last_reported":1744276246,"current_range_meters":6800,"station_id":"ce4bhbh2rcd13ifvqepg","pricing_plan_id":"cebpf4jnsgd1na2vs0mg"},{"bike_id":"f9fde33d-3e05-4f24-9670-2ad2d1cacdc1","system_id":"levelo_inurba_marseille","lat":43.28829,"lon":5.37281,"is_reserved":false,"is_disabled":false,"rental_uris":{"android":"levelo://app?vid=f9fde33d-3e05-4f24-9670-2ad2d1cacdc1","ios":"levelo://app?vid=f9fde33d-3e05-4f24-9670-2ad2d1cacdc1"},"vehicle_type_id":"4","last_reported":1744276246,"current_range_meters":6800,"station_id":"","pricing_plan_id":"cebpf4jnsgd1na2vs0mg"},{"bike_id":"ac18df24-ac06-4d13-a6e4-365cd202fc3a","system_id":"levelo_inurba_marseille","lat":43.26032,"lon":5.41013,"is_reserved":false,"is_disabled":false,"rental_uris":{"android":"levelo://app?vid=ac18df24-ac06-4d13-a6e4-365cd202fc3a","ios":"levelo://app?vid=ac18df24-ac06-4d13-a6e4-365cd202fc3a"},"vehicle_type_id":"4","last_reported":1744276246,"current_range_meters":6800,"station_id":"","pricing_plan_id":"cebpf4jnsgd1na2vs0mg"},{"bike_id":"f4b606ab-666b-448e-a085-5d2d8bb291d0","system_id":"levelo_inurba_marseille","lat":43.30963,"lon":5.39043,"is_reserved":false,"is_disabled":false,"rental_uris":{"android":"levelo://app?vid=f4b606ab-666b-448e-a085-5d2d8bb291d0","ios":"levelo://app?vid=f4b606ab-666b-448e-a085-5d2d8bb291d0"},"vehicle_type_id":"4","last_reported":1744276246,"current_range_meters":7200,"station_id":"ce4bgup2rcd13ifvqco0","pricing_plan_id":"cebpf4jnsgd1na2vs0mg"},{"bike_id":"10790b2b-c447-40cf-871b-6bee3f31059c","system_id":"levelo_inurba_marseille","lat":43.31727,"lon":5.43699,"is_reserved":false,"is_disabled":false,"rental_uris":{"android":"levelo://app?vid=10790b2b-c447-40cf-871b-6bee3f31059c","ios":"levelo://app?vid=10790b2b-c447-40cf-871b-6bee3f31059c"},"vehicle_type_id":"4","last_reported":1744276246,"current_range_meters":7200,"station_id":"ce4bhp92rcd13ifvqhcg","pricing_plan_id":"cebpf4jnsgd1na2vs0mg"},{"bike_id":"841cc48f-644f-4c42-a397-236e943da4b4","system_id":"levelo_inurba_marseille","lat":43.27062,"lon":5.4227,"is_reserved":false,"is_disabled":false,"rental_uris":{"android":"levelo://app?vid=841cc48f-644f-4c42-a397-236e943da4b4","ios":"levelo://app?vid=841cc48f-644f-4c42-a397-236e943da4b4"},"vehicle_type_id":"4","last_reported":1744276246,"current_range_meters":7200,"station_id":"ce4bhk92rcd13ifvqgb0","pricing_plan_id":"cebpf4jnsgd1na2vs0mg"},{"bike_id":"5cdd10f7-da55-43c1-ae47-1a2ffd321ba2","system_id":"levelo_inurba_marseille","lat":43.29617,"lon":5.37167,"is_reserved":false,"is_disabled":false,"rental_uris":{"android":"levelo://app?vid=5cdd10f7-da55-43c1-ae47-1a2ffd321ba2","ios":"levelo://app?vid=5cdd10f7-da55-43c1-ae47-1a2ffd321ba2"},"vehicle_type_id":"4","last_reported":1744276246,"current_range_meters":8000,"station_id":"ce4bgnh2rcd13ifvqc0g","pricing_plan_id":"cebpf4jnsgd1na2vs0mg"},{"bike_id":"f0bf4e59-5178-4232-9b12-802037eba459","system_id":"levelo_inurba_marseille","lat":43.31342,"lon":5.36698,"is_reserved":false,"is_disabled":false,"rental_uris":{"android":"levelo://app?vid=f0bf4e59-5178-4232-9b12-802037eba459","ios":"levelo://app?vid=f0bf4e59-5178-4232-9b12-802037eba459"},"vehicle_type_id":"4","last_reported":1744276246,"current_range_meters":8000,"station_id":"ce4bgr92rcd13ifvqc6g","pricing_plan_id":"cebpf4jnsgd1na2vs0mg"},{"bike_id":"72fbd3e8-c086-473f-bbc0-c9e4f0931076","system_id":"levelo_inurba_marseille","lat":43.23151,"lon":5.43706,"is_reserved":false,"is_disabled":false,"rental_uris":{"android":"levelo://app?vid=72fbd3e8-c086-473f-bbc0-c9e4f0931076","ios":"levelo://app?vid=72fbd3e8-c086-473f-bbc0-c9e4f0931076"},"vehicle_type_id":"4","last_reported":1744276246,"current_range_meters":8000,"station_id":"ce4bhmp2rcd13ifvqgog","pricing_plan_id":"cebpf4jnsgd1na2vs0mg"},{"bike_id":"d3a4196e-af63-440d-88b4-175f84acd438","system_id":"levelo_inurba_marseille","lat":43.25934,"lon":5.409,"is_reserved":false,"is_disabled":false,"rental_uris":{"android":"levelo://app?vid=d3a4196e-af63-440d-88b4-175f84acd438","ios":"levelo://app?vid=d3a4196e-af63-440d-88b4-175f84acd438"},"vehicle_type_id":"4","last_reported":1744276246,"current_range_meters":8000,"station_id":"ce4bhm92rcd13ifvqglg","pricing_plan_id":"cebpf4jnsgd1na2vs0mg"},{"bike_id":"113b2727-803d-4cbb-9aa7-39cc9cb48146","system_id":"levelo_inurba_marseille","lat":43.29248,"lon":5.4091,"is_reserved":false,"is_disabled":false,"rental_uris":{"android":"levelo://app?vid=113b2727-803d-4cbb-9aa7-39cc9cb48146","ios":"levelo://app?vid=113b2727-803d-4cbb-9aa7-39cc9cb48146"},"vehicle_type_id":"4","last_reported":1744276246,"current_range_meters":8400,"station_id":"ce4bh192rcd13ifvqdc0","pricing_plan_id":"cebpf4jnsgd1na2vs0mg"},{"bike_id":"924a65d8-8ba7-467e-bfe9-bc400cc766dd","system_id":"levelo_inurba_marseille","lat":43.23195,"lon":5.3555,"is_reserved":false,"is_disabled":false,"rental_uris":{"android":"levelo://app?vid=924a65d8-8ba7-467e-bfe9-bc400cc766dd","ios":"levelo://app?vid=924a65d8-8ba7-467e-bfe9-bc400cc766dd"},"vehicle_type_id":"4","last_reported":1744276246,"current_range_meters":8400,"station_id":"ce4bhu92rcd13ifvqi70","pricing_plan_id":"cebpf4jnsgd1na2vs0mg"},{"bike_id":"8fa78f52-8834-4b2c-8a1d-e4f911c35cd4","system_id":"levelo_inurba_marseille","lat":43.25724,"lon":5.41114,"is_reserved":false,"is_disabled":true,"rental_uris":{"android":"levelo://app?vid=8fa78f52-8834-4b2c-8a1d-e4f911c35cd4","ios":"levelo://app?vid=8fa78f52-8834-4b2c-8a1d-e4f911c35cd4"},"vehicle_type_id":"4","last_reported":1744276246,"current_range_meters":8400,"station_id":"ce4bhkp2rcd13ifvqgd0","pricing_plan_id":"cebpf4jnsgd1na2vs0mg"},{"bike_id":"84c3bcfd-d68a-410c-9672-768f878c5077","system_id":"levelo_inurba_marseille","lat":43.25579,"lon":5.38238,"is_reserved":false,"is_disabled":false,"rental_uris":{"android":"levelo://app?vid=84c3bcfd-d68a-410c-9672-768f878c5077","ios":"levelo://app?vid=84c3bcfd-d68a-410c-9672-768f878c5077"},"vehicle_type_id":"4","last_reported":1744276246,"current_range_meters":8400,"station_id":"ce4bhih2rcd13ifvqfs0","pricing_plan_id":"cebpf4jnsgd1na2vs0mg"},{"bike_id":"523f199e-c50d-4cd7-8cb0-ecd6da8f7fb1","system_id":"levelo_inurba_marseille","lat":43.31722,"lon":5.42402,"is_reserved":false,"is_disabled":false,"rental_uris":{"android":"levelo://app?vid=523f199e-c50d-4cd7-8cb0-ecd6da8f7fb1","ios":"levelo://app?vid=523f199e-c50d-4cd7-8cb0-ecd6da8f7fb1"},"vehicle_type_id":"4","last_reported":1744276246,"current_range_meters":8400,"station_id":"ce4bhp92rcd13ifvqhbg","pricing_plan_id":"cebpf4jnsgd1na2vs0mg"},{"bike_id":"8a1d0deb-cbe4-48e6-9813-4c1be535e37c","system_id":"levelo_inurba_marseille","lat":43.28614,"lon":5.35105,"is_reserved":false,"is_disabled":false,"rental_uris":{"android":"levelo://app?vid=8a1d0deb-cbe4-48e6-9813-4c1be535e37c","ios":"levelo://app?vid=8a1d0deb-cbe4-48e6-9813-4c1be535e37c"},"vehicle_type_id":"4","last_reported":1744276246,"current_range_meters":8400,"station_id":"ce4bhch2rcd13ifvqeug","pricing_plan_id":"cebpf4jnsgd1na2vs0mg"},{"bike_id":"0034db4b-efd6-4119-a358-80e858a45e83","system_id":"levelo_inurba_marseille","lat":43.31764,"lon":5.38915,"is_reserved":false,"is_disabled":false,"rental_uris":{"android":"levelo://app?vid=0034db4b-efd6-4119-a358-80e858a45e83","ios":"levelo://app?vid=0034db4b-efd6-4119-a358-80e858a45e83"},"vehicle_type_id":"4","last_reported":1744276246,"current_range_meters":8400,"station_id":"","pricing_plan_id":"cebpf4jnsgd1na2vs0mg"},{"bike_id":"12750fe1-41e3-4833-9e3c-41ece8ab8dec","system_id":"levelo_inurba_marseille","lat":43.30156,"lon":5.38087,"is_reserved":false,"is_disabled":false,"rental_uris":{"android":"levelo://app?vid=12750fe1-41e3-4833-9e3c-41ece8ab8dec","ios":"levelo://app?vid=12750fe1-41e3-4833-9e3c-41ece8ab8dec"},"vehicle_type_id":"4","last_reported":1744276246,"current_range_meters":8400,"station_id":"ce4bgjp2rcd13ifvqbh0","pricing_plan_id":"cebpf4jnsgd1na2vs0mg"},{"bike_id":"89c3460a-aa5d-44a6-852d-b5ef36d2e9c1","system_id":"levelo_inurba_marseille","lat":43.2315,"lon":5.43722,"is_reserved":false,"is_disabled":false,"rental_uris":{"android":"levelo://app?vid=89c3460a-aa5d-44a6-852d-b5ef36d2e9c1","ios":"levelo://app?vid=89c3460a-aa5d-44a6-852d-b5ef36d2e9c1"},"vehicle_type_id":"4","last_reported":1744276246,"current_range_meters":8400,"station_id":"ce4bhmp2rcd13ifvqgog","pricing_plan_id":"cebpf4jnsgd1na2vs0mg"},{"bike_id":"024d619a-f5f6-439a-aa16-a3c7dc2d879b","system_id":"levelo_inurba_marseille","lat":43.30956,"lon":5.39045,"is_reserved":false,"is_disabled":false,"rental_uris":{"android":"levelo://app?vid=024d619a-f5f6-439a-aa16-a3c7dc2d879b","ios":"levelo://app?vid=024d619a-f5f6-439a-aa16-a3c7dc2d879b"},"vehicle_type_id":"4","last_reported":1744276246,"current_range_meters":8400,"station_id":"ce4bgup2rcd13ifvqco0","pricing_plan_id":"cebpf4jnsgd1na2vs0mg"},{"bike_id":"a14f72ed-ad11-4871-a779-6f279cf67eeb","system_id":"levelo_inurba_marseille","lat":43.2175,"lon":5.34601,"is_reserved":false,"is_disabled":true,"rental_uris":{"android":"levelo://app?vid=a14f72ed-ad11-4871-a779-6f279cf67eeb","ios":"levelo://app?vid=a14f72ed-ad11-4871-a779-6f279cf67eeb"},"vehicle_type_id":"4","last_reported":1744276246,"current_range_meters":8400,"station_id":"ce4bhoh2rcd13ifvqh5g","pricing_plan_id":"cebpf4jnsgd1na2vs0mg"},{"bike_id":"7242f1ee-8035-4b11-9f38-261a4efc473f","system_id":"levelo_inurba_marseille","lat":43.31386,"lon":5.36686,"is_reserved":false,"is_disabled":false,"rental_uris":{"android":"levelo://app?vid=7242f1ee-8035-4b11-9f38-261a4efc473f","ios":"levelo://app?vid=7242f1ee-8035-4b11-9f38-261a4efc473f"},"vehicle_type_id":"4","last_reported":1744276246,"current_range_meters":8400,"station_id":"","pricing_plan_id":"cebpf4jnsgd1na2vs0mg"},{"bike_id":"c66e0227-8dab-43f7-959d-ad39878fa71f","system_id":"levelo_inurba_marseille","lat":43.23063,"lon":5.35495,"is_reserved":false,"is_disabled":false,"rental_uris":{"android":"levelo://app?vid=c66e0227-8dab-43f7-959d-ad39878fa71f","ios":"levelo://app?vid=c66e0227-8dab-43f7-959d-ad39878fa71f"},"vehicle_type_id":"4","last_reported":1744276246,"current_range_meters":8800,"station_id":"","pricing_plan_id":"cebpf4jnsgd1na2vs0mg"},{"bike_id":"79e125c3-3148-4a09-818d-58cf2054a85e","system_id":"levelo_inurba_marseille","lat":43.30308,"lon":5.36892,"is_reserved":false,"is_disabled":false,"rental_uris":{"android":"levelo://app?vid=79e125c3-3148-4a09-818d-58cf2054a85e","ios":"levelo://app?vid=79e125c3-3148-4a09-818d-58cf2054a85e"},"vehicle_type_id":"4","last_reported":1744276246,"current_range_meters":8800,"station_id":"ce4bgqh2rcd13ifvqc5g","pricing_plan_id":"cebpf4jnsgd1na2vs0mg"},{"bike_id":"7e1b4596-58c9-4f5c-b304-08af8b98822f","system_id":"levelo_inurba_marseille","lat":43.25864,"lon":5.39893,"is_reserved":false,"is_disabled":false,"rental_uris":{"android":"levelo://app?vid=7e1b4596-58c9-4f5c-b304-08af8b98822f","ios":"levelo://app?vid=7e1b4596-58c9-4f5c-b304-08af8b98822f"},"vehicle_type_id":"4","last_reported":1744276246,"current_range_meters":9200,"station_id":"ce4bhl92rcd13ifvqghg","pricing_plan_id":"cebpf4jnsgd1na2vs0mg"},{"bike_id":"731ab783-7108-4c3e-b37f-6c6bd8a6f1ac","system_id":"levelo_inurba_marseille","lat":43.25902,"lon":5.40855,"is_reserved":false,"is_disabled":false,"rental_uris":{"android":"levelo://app?vid=731ab783-7108-4c3e-b37f-6c6bd8a6f1ac","ios":"levelo://app?vid=731ab783-7108-4c3e-b37f-6c6bd8a6f1ac"},"vehicle_type_id":"4","last_reported":1744276246,"current_range_meters":9200,"station_id":"ce4bhm92rcd13ifvqglg","pricing_plan_id":"cebpf4jnsgd1na2vs0mg"},{"bike_id":"01e31f15-bc9b-4d18-bebd-edf19bcedef2","system_id":"levelo_inurba_marseille","lat":43.28749,"lon":5.37944,"is_reserved":false,"is_disabled":true,"rental_uris":{"android":"levelo://app?vid=01e31f15-bc9b-4d18-bebd-edf19bcedef2","ios":"levelo://app?vid=01e31f15-bc9b-4d18-bebd-edf19bcedef2"},"vehicle_type_id":"4","last_reported":1744276246,"current_range_meters":9200,"station_id":"ce4bh9p2rcd13ifvqec0","pricing_plan_id":"cebpf4jnsgd1na2vs0mg"},{"bike_id":"5f30a5a4-de9f-499e-b151-b811ebb3b43a","system_id":"levelo_inurba_marseille","lat":43.31058,"lon":5.38336,"is_reserved":false,"is_disabled":true,"rental_uris":{"android":"levelo://app?vid=5f30a5a4-de9f-499e-b151-b811ebb3b43a","ios":"levelo://app?vid=5f30a5a4-de9f-499e-b151-b811ebb3b43a"},"vehicle_type_id":"4","last_reported":1744276246,"current_range_meters":9200,"station_id":"ce4bgv92rcd13ifvqcr0","pricing_plan_id":"cebpf4jnsgd1na2vs0mg"},{"bike_id":"bff67837-c676-4b88-9fdc-8db7fe587121","system_id":"levelo_inurba_marseille","lat":43.30246,"lon":5.40054,"is_reserved":false,"is_disabled":true,"rental_uris":{"android":"levelo://app?vid=bff67837-c676-4b88-9fdc-8db7fe587121","ios":"levelo://app?vid=bff67837-c676-4b88-9fdc-8db7fe587121"},"vehicle_type_id":"4","last_reported":1744276246,"current_range_meters":9200,"station_id":"ce4bgvh2rcd13ifvqcs0","pricing_plan_id":"cebpf4jnsgd1na2vs0mg"},{"bike_id":"8e3db607-961f-4786-9be2-1aa618df27a6","system_id":"levelo_inurba_marseille","lat":43.27373,"lon":5.36234,"is_reserved":false,"is_disabled":false,"rental_uris":{"android":"levelo://app?vid=8e3db607-961f-4786-9be2-1aa618df27a6","ios":"levelo://app?vid=8e3db607-961f-4786-9be2-1aa618df27a6"},"vehicle_type_id":"4","last_reported":1744276246,"current_range_meters":9200,"station_id":"ce4bhbh2rcd13ifvqeo0","pricing_plan_id":"cebpf4jnsgd1na2vs0mg"},{"bike_id":"d1afc0fc-ecb5-4336-a85d-04a73a08fadb","system_id":"levelo_inurba_marseille","lat":43.21753,"lon":5.346,"is_reserved":false,"is_disabled":false,"rental_uris":{"android":"levelo://app?vid=d1afc0fc-ecb5-4336-a85d-04a73a08fadb","ios":"levelo://app?vid=d1afc0fc-ecb5-4336-a85d-04a73a08fadb"},"vehicle_type_id":"4","last_reported":1744276246,"current_range_meters":9600,"station_id":"st_cvj6r9ubvosntc0bgbag","pricing_plan_id":"cebpf4jnsgd1na2vs0mg"},{"bike_id":"9fce7fb9-26b6-4832-9f96-ea1b75c489f0","system_id":"levelo_inurba_marseille","lat":43.21216,"lon":5.35066,"is_reserved":false,"is_disabled":false,"rental_uris":{"android":"levelo://app?vid=9fce7fb9-26b6-4832-9f96-ea1b75c489f0","ios":"levelo://app?vid=9fce7fb9-26b6-4832-9f96-ea1b75c489f0"},"vehicle_type_id":"4","last_reported":1744276246,"current_range_meters":9600,"station_id":"st_cvj6sg6p6f1abm77japg","pricing_plan_id":"cebpf4jnsgd1na2vs0mg"},{"bike_id":"3cfa414a-56ce-4678-b27b-88f21f1ddfeb","system_id":"levelo_inurba_marseille","lat":43.30273,"lon":5.377,"is_reserved":false,"is_disabled":false,"rental_uris":{"android":"levelo://app?vid=3cfa414a-56ce-4678-b27b-88f21f1ddfeb","ios":"levelo://app?vid=3cfa414a-56ce-4678-b27b-88f21f1ddfeb"},"vehicle_type_id":"4","last_reported":1744276246,"current_range_meters":9600,"station_id":"ce4bguh2rcd13ifvqcj0","pricing_plan_id":"cebpf4jnsgd1na2vs0mg"},{"bike_id":"e0cb5a1e-10b6-480d-b742-670fba860825","system_id":"levelo_inurba_marseille","lat":43.2316,"lon":5.43706,"is_reserved":false,"is_disabled":false,"rental_uris":{"android":"levelo://app?vid=e0cb5a1e-10b6-480d-b742-670fba860825","ios":"levelo://app?vid=e0cb5a1e-10b6-480d-b742-670fba860825"},"vehicle_type_id":"4","last_reported":1744276246,"current_range_meters":9600,"station_id":"ce4bhmp2rcd13ifvqgog","pricing_plan_id":"cebpf4jnsgd1na2vs0mg"},{"bike_id":"49e8836a-430d-4c2d-a967-ad7f667a5605","system_id":"levelo_inurba_marseille","lat":43.31151,"lon":5.36874,"is_reserved":false,"is_disabled":false,"rental_uris":{"android":"levelo://app?vid=49e8836a-430d-4c2d-a967-ad7f667a5605","ios":"levelo://app?vid=49e8836a-430d-4c2d-a967-ad7f667a5605"},"vehicle_type_id":"4","last_reported":1744276246,"current_range_meters":9600,"station_id":"","pricing_plan_id":"cebpf4jnsgd1na2vs0mg"},{"bike_id":"c243072f-6bd2-4d94-ba83-04162cf2a05c","system_id":"levelo_inurba_marseille","lat":43.27193,"lon":5.40146,"is_reserved":false,"is_disabled":false,"rental_uris":{"android":"levelo://app?vid=c243072f-6bd2-4d94-ba83-04162cf2a05c","ios":"levelo://app?vid=c243072f-6bd2-4d94-ba83-04162cf2a05c"},"vehicle_type_id":"4","last_reported":1744276246,"current_range_meters":9600,"station_id":"","pricing_plan_id":"cebpf4jnsgd1na2vs0mg"},{"bike_id":"6b383df4-9571-4b6b-8882-b1538f985b7f","system_id":"levelo_inurba_marseille","lat":43.30533,"lon":5.3653,"is_reserved":false,"is_disabled":false,"rental_uris":{"android":"levelo://app?vid=6b383df4-9571-4b6b-8882-b1538f985b7f","ios":"levelo://app?vid=6b383df4-9571-4b6b-8882-b1538f985b7f"},"vehicle_type_id":"4","last_reported":1744276246,"current_range_meters":9600,"station_id":"ce4bgs12rcd13ifvqcag","pricing_plan_id":"cebpf4jnsgd1na2vs0mg"},{"bike_id":"043ef758-38f2-4174-bf6b-a65fd3b2d25b","system_id":"levelo_inurba_marseille","lat":43.23153,"lon":5.43717,"is_reserved":false,"is_disabled":false,"rental_uris":{"android":"levelo://app?vid=043ef758-38f2-4174-bf6b-a65fd3b2d25b","ios":"levelo://app?vid=043ef758-38f2-4174-bf6b-a65fd3b2d25b"},"vehicle_type_id":"4","last_reported":1744276246,"current_range_meters":10000,"station_id":"ce4bhmp2rcd13ifvqgog","pricing_plan_id":"cebpf4jnsgd1na2vs0mg"},{"bike_id":"2d121465-9d49-48fa-8a7a-2036f6ec2b12","system_id":"levelo_inurba_marseille","lat":43.30468,"lon":5.37885,"is_reserved":false,"is_disabled":false,"rental_uris":{"android":"levelo://app?vid=2d121465-9d49-48fa-8a7a-2036f6ec2b12","ios":"levelo://app?vid=2d121465-9d49-48fa-8a7a-2036f6ec2b12"},"vehicle_type_id":"4","last_reported":1744276246,"current_range_meters":10000,"station_id":"ce4bgup2rcd13ifvqcn0","pricing_plan_id":"cebpf4jnsgd1na2vs0mg"},{"bike_id":"8e7cd50c-4fc7-4c82-82dd-19554ec5ae97","system_id":"levelo_inurba_marseille","lat":43.28934,"lon":5.36391,"is_reserved":false,"is_disabled":false,"rental_uris":{"android":"levelo://app?vid=8e7cd50c-4fc7-4c82-82dd-19554ec5ae97","ios":"levelo://app?vid=8e7cd50c-4fc7-4c82-82dd-19554ec5ae97"},"vehicle_type_id":"4","last_reported":1744276246,"current_range_meters":10000,"station_id":"ce4bhc92rcd13ifvqetg","pricing_plan_id":"cebpf4jnsgd1na2vs0mg"},{"bike_id":"0378d55d-59a9-4563-89ab-6a3bbcce2d51","system_id":"levelo_inurba_marseille","lat":43.29036,"lon":5.39975,"is_reserved":false,"is_disabled":false,"rental_uris":{"android":"levelo://app?vid=0378d55d-59a9-4563-89ab-6a3bbcce2d51","ios":"levelo://app?vid=0378d55d-59a9-4563-89ab-6a3bbcce2d51"},"vehicle_type_id":"4","last_reported":1744276246,"current_range_meters":10000,"station_id":"ce4bh392rcd13ifvqdm0","pricing_plan_id":"cebpf4jnsgd1na2vs0mg"},{"bike_id":"1305e074-2d29-4e5f-a908-aaa85c8bd511","system_id":"levelo_inurba_marseille","lat":43.30463,"lon":5.37897,"is_reserved":false,"is_disabled":false,"rental_uris":{"android":"levelo://app?vid=1305e074-2d29-4e5f-a908-aaa85c8bd511","ios":"levelo://app?vid=1305e074-2d29-4e5f-a908-aaa85c8bd511"},"vehicle_type_id":"4","last_reported":1744276246,"current_range_meters":9600,"station_id":"ce4bgup2rcd13ifvqcn0","pricing_plan_id":"cebpf4jnsgd1na2vs0mg"},{"bike_id":"905080af-8fab-4cc8-b569-1bfd6f15b7b1","system_id":"levelo_inurba_marseille","lat":43.27614,"lon":5.36097,"is_reserved":false,"is_disabled":false,"rental_uris":{"android":"levelo://app?vid=905080af-8fab-4cc8-b569-1bfd6f15b7b1","ios":"levelo://app?vid=905080af-8fab-4cc8-b569-1bfd6f15b7b1"},"vehicle_type_id":"4","last_reported":1744276246,"current_range_meters":10000,"station_id":"","pricing_plan_id":"cebpf4jnsgd1na2vs0mg"},{"bike_id":"122cdde6-9512-4fc1-b3dd-8da01087c3ed","system_id":"levelo_inurba_marseille","lat":43.21189,"lon":5.35059,"is_reserved":false,"is_disabled":false,"rental_uris":{"android":"levelo://app?vid=122cdde6-9512-4fc1-b3dd-8da01087c3ed","ios":"levelo://app?vid=122cdde6-9512-4fc1-b3dd-8da01087c3ed"},"vehicle_type_id":"4","last_reported":1744276246,"current_range_meters":10000,"station_id":"st_cvj6sg6p6f1abm77japg","pricing_plan_id":"cebpf4jnsgd1na2vs0mg"},{"bike_id":"3daf3483-c330-4563-ba63-4baa607346ed","system_id":"levelo_inurba_marseille","lat":43.30954,"lon":5.36853,"is_reserved":false,"is_disabled":false,"rental_uris":{"android":"levelo://app?vid=3daf3483-c330-4563-ba63-4baa607346ed","ios":"levelo://app?vid=3daf3483-c330-4563-ba63-4baa607346ed"},"vehicle_type_id":"4","last_reported":1744276246,"current_range_meters":10000,"station_id":"","pricing_plan_id":"cebpf4jnsgd1na2vs0mg"},{"bike_id":"664e5e3c-4dcd-40ae-9182-02be717b623a","system_id":"levelo_inurba_marseille","lat":43.30186,"lon":5.37396,"is_reserved":false,"is_disabled":false,"rental_uris":{"android":"levelo://app?vid=664e5e3c-4dcd-40ae-9182-02be717b623a","ios":"levelo://app?vid=664e5e3c-4dcd-40ae-9182-02be717b623a"},"vehicle_type_id":"4","last_reported":1744276246,"current_range_meters":10000,"station_id":"ce4bgs92rcd13ifvqcc0","pricing_plan_id":"cebpf4jnsgd1na2vs0mg"},{"bike_id":"aeb5d532-a5df-474f-a469-24b81f00135c","system_id":"levelo_inurba_marseille","lat":43.30363,"lon":5.41871,"is_reserved":false,"is_disabled":true,"rental_uris":{"android":"levelo://app?vid=aeb5d532-a5df-474f-a469-24b81f00135c","ios":"levelo://app?vid=aeb5d532-a5df-474f-a469-24b81f00135c"},"vehicle_type_id":"4","last_reported":1744276246,"current_range_meters":10800,"station_id":"ce4bhop2rcd13ifvqh7g","pricing_plan_id":"cebpf4jnsgd1na2vs0mg"},{"bike_id":"ecdcd749-f457-44b6-94f1-73b5a11ecd6c","system_id":"levelo_inurba_marseille","lat":43.296302,"lon":5.377334,"is_reserved":false,"is_disabled":false,"rental_uris":{"android":"levelo://app?vid=ecdcd749-f457-44b6-94f1-73b5a11ecd6c","ios":"levelo://app?vid=ecdcd749-f457-44b6-94f1-73b5a11ecd6c"},"vehicle_type_id":"4","last_reported":1744276246,"current_range_meters":10800,"station_id":"ce4bgi92rcd13ifvqb90","pricing_plan_id":"cebpf4jnsgd1na2vs0mg"},{"bike_id":"9f88194e-ae6a-4273-9cc2-e1057466f644","system_id":"levelo_inurba_marseille","lat":43.30532,"lon":5.36696,"is_reserved":false,"is_disabled":false,"rental_uris":{"android":"levelo://app?vid=9f88194e-ae6a-4273-9cc2-e1057466f644","ios":"levelo://app?vid=9f88194e-ae6a-4273-9cc2-e1057466f644"},"vehicle_type_id":"4","last_reported":1744276246,"current_range_meters":10800,"station_id":"ce4bgrp2rcd13ifvqc9g","pricing_plan_id":"cebpf4jnsgd1na2vs0mg"},{"bike_id":"a4bec7fc-9991-48f2-a9cb-1716cd5a96a5","system_id":"levelo_inurba_marseille","lat":43.30953,"lon":5.39027,"is_reserved":false,"is_disabled":false,"rental_uris":{"android":"levelo://app?vid=a4bec7fc-9991-48f2-a9cb-1716cd5a96a5","ios":"levelo://app?vid=a4bec7fc-9991-48f2-a9cb-1716cd5a96a5"},"vehicle_type_id":"4","last_reported":1744276246,"current_range_meters":10800,"station_id":"ce4bgup2rcd13ifvqco0","pricing_plan_id":"cebpf4jnsgd1na2vs0mg"},{"bike_id":"5ce45e9e-65fe-46ed-a21d-f9943f0fa2b8","system_id":"levelo_inurba_marseille","lat":43.23176,"lon":5.39987,"is_reserved":false,"is_disabled":false,"rental_uris":{"android":"levelo://app?vid=5ce45e9e-65fe-46ed-a21d-f9943f0fa2b8","ios":"levelo://app?vid=5ce45e9e-65fe-46ed-a21d-f9943f0fa2b8"},"vehicle_type_id":"4","last_reported":1744276246,"current_range_meters":11200,"station_id":"ce4bhn12rcd13ifvqgqg","pricing_plan_id":"cebpf4jnsgd1na2vs0mg"},{"bike_id":"b5a497b9-a79c-4434-bae5-ae0df984fca4","system_id":"levelo_inurba_marseille","lat":43.30914,"lon":5.36857,"is_reserved":false,"is_disabled":false,"rental_uris":{"android":"levelo://app?vid=b5a497b9-a79c-4434-bae5-ae0df984fca4","ios":"levelo://app?vid=b5a497b9-a79c-4434-bae5-ae0df984fca4"},"vehicle_type_id":"4","last_reported":1744276246,"current_range_meters":11200,"station_id":"ce4bgn92rcd13ifvqbvg","pricing_plan_id":"cebpf4jnsgd1na2vs0mg"},{"bike_id":"e6b27e51-7a6f-4c87-9cdb-e0dbaf392783","system_id":"levelo_inurba_marseille","lat":43.3101,"lon":5.39659,"is_reserved":false,"is_disabled":false,"rental_uris":{"android":"levelo://app?vid=e6b27e51-7a6f-4c87-9cdb-e0dbaf392783","ios":"levelo://app?vid=e6b27e51-7a6f-4c87-9cdb-e0dbaf392783"},"vehicle_type_id":"4","last_reported":1744276246,"current_range_meters":11200,"station_id":"","pricing_plan_id":"cebpf4jnsgd1na2vs0mg"},{"bike_id":"5a0fa541-6fc2-4ae1-99ec-a2e2ec69a941","system_id":"levelo_inurba_marseille","lat":43.33037,"lon":5.4385,"is_reserved":false,"is_disabled":false,"rental_uris":{"android":"levelo://app?vid=5a0fa541-6fc2-4ae1-99ec-a2e2ec69a941","ios":"levelo://app?vid=5a0fa541-6fc2-4ae1-99ec-a2e2ec69a941"},"vehicle_type_id":"4","last_reported":1744276246,"current_range_meters":11600,"station_id":"","pricing_plan_id":"cebpf4jnsgd1na2vs0mg"},{"bike_id":"080020d5-b2f6-4571-bf33-09cd8705aa12","system_id":"levelo_inurba_marseille","lat":43.3266,"lon":5.40991,"is_reserved":false,"is_disabled":false,"rental_uris":{"android":"levelo://app?vid=080020d5-b2f6-4571-bf33-09cd8705aa12","ios":"levelo://app?vid=080020d5-b2f6-4571-bf33-09cd8705aa12"},"vehicle_type_id":"4","last_reported":1744276246,"current_range_meters":11600,"station_id":"ce4bhpp2rcd13ifvqhgg","pricing_plan_id":"cebpf4jnsgd1na2vs0mg"},{"bike_id":"3b6c803f-a6b4-4741-95d3-98bd77a6a3b1","system_id":"levelo_inurba_marseille","lat":43.30424,"lon":5.397428,"is_reserved":false,"is_disabled":false,"rental_uris":{"android":"levelo://app?vid=3b6c803f-a6b4-4741-95d3-98bd77a6a3b1","ios":"levelo://app?vid=3b6c803f-a6b4-4741-95d3-98bd77a6a3b1"},"vehicle_type_id":"4","last_reported":1744276246,"current_range_meters":11600,"station_id":"ce4bh092rcd13ifvqd20","pricing_plan_id":"cebpf4jnsgd1na2vs0mg"},{"bike_id":"e2eabb6f-1682-4ab3-9c87-b5de0cd7d459","system_id":"levelo_inurba_marseille","lat":43.26194,"lon":5.37448,"is_reserved":false,"is_disabled":false,"rental_uris":{"android":"levelo://app?vid=e2eabb6f-1682-4ab3-9c87-b5de0cd7d459","ios":"levelo://app?vid=e2eabb6f-1682-4ab3-9c87-b5de0cd7d459"},"vehicle_type_id":"4","last_reported":1744276246,"current_range_meters":11600,"station_id":"ce4bhgp2rcd13ifvqfc0","pricing_plan_id":"cebpf4jnsgd1na2vs0mg"},{"bike_id":"d15b9c0e-f89f-4872-b188-98dfe10fe3b6","system_id":"levelo_inurba_marseille","lat":43.30545,"lon":5.36701,"is_reserved":false,"is_disabled":false,"rental_uris":{"android":"levelo://app?vid=d15b9c0e-f89f-4872-b188-98dfe10fe3b6","ios":"levelo://app?vid=d15b9c0e-f89f-4872-b188-98dfe10fe3b6"},"vehicle_type_id":"4","last_reported":1744276246,"current_range_meters":11600,"station_id":"ce4bgrp2rcd13ifvqc9g","pricing_plan_id":"cebpf4jnsgd1na2vs0mg"},{"bike_id":"2b31347d-64f6-4358-bb5c-8015c0044236","system_id":"levelo_inurba_marseille","lat":43.27371,"lon":5.36256,"is_reserved":false,"is_disabled":false,"rental_uris":{"android":"levelo://app?vid=2b31347d-64f6-4358-bb5c-8015c0044236","ios":"levelo://app?vid=2b31347d-64f6-4358-bb5c-8015c0044236"},"vehicle_type_id":"4","last_reported":1744276246,"current_range_meters":12000,"station_id":"ce4bhbh2rcd13ifvqeo0","pricing_plan_id":"cebpf4jnsgd1na2vs0mg"},{"bike_id":"c4b2988e-46ee-40d0-bf61-40850ebfbe2b","system_id":"levelo_inurba_marseille","lat":43.26059,"lon":5.39393,"is_reserved":false,"is_disabled":false,"rental_uris":{"android":"levelo://app?vid=c4b2988e-46ee-40d0-bf61-40850ebfbe2b","ios":"levelo://app?vid=c4b2988e-46ee-40d0-bf61-40850ebfbe2b"},"vehicle_type_id":"4","last_reported":1744276246,"current_range_meters":12000,"station_id":"ce4bhh92rcd13ifvqfj0","pricing_plan_id":"cebpf4jnsgd1na2vs0mg"},{"bike_id":"5bf3f4a1-3271-4dad-9593-ab76c7ea5f4f","system_id":"levelo_inurba_marseille","lat":43.30567,"lon":5.36527,"is_reserved":false,"is_disabled":false,"rental_uris":{"android":"levelo://app?vid=5bf3f4a1-3271-4dad-9593-ab76c7ea5f4f","ios":"levelo://app?vid=5bf3f4a1-3271-4dad-9593-ab76c7ea5f4f"},"vehicle_type_id":"4","last_reported":1744276246,"current_range_meters":12000,"station_id":"ce4bgs12rcd13ifvqcag","pricing_plan_id":"cebpf4jnsgd1na2vs0mg"},{"bike_id":"99260628-93ca-4816-84c2-7509aaf9aff8","system_id":"levelo_inurba_marseille","lat":43.312473,"lon":5.368607,"is_reserved":false,"is_disabled":false,"rental_uris":{"android":"levelo://app?vid=99260628-93ca-4816-84c2-7509aaf9aff8","ios":"levelo://app?vid=99260628-93ca-4816-84c2-7509aaf9aff8"},"vehicle_type_id":"4","last_reported":1744276246,"current_range_meters":12000,"station_id":"ce4bgl92rcd13ifvqbq0","pricing_plan_id":"cebpf4jnsgd1na2vs0mg"},{"bike_id":"675a2941-75b6-4959-b303-6910d6997080","system_id":"levelo_inurba_marseille","lat":43.29287,"lon":5.37465,"is_reserved":false,"is_disabled":false,"rental_uris":{"android":"levelo://app?vid=675a2941-75b6-4959-b303-6910d6997080","ios":"levelo://app?vid=675a2941-75b6-4959-b303-6910d6997080"},"vehicle_type_id":"4","last_reported":1744276246,"current_range_meters":12000,"station_id":"ce4bgi12rcd13ifvqb70","pricing_plan_id":"cebpf4jnsgd1na2vs0mg"},{"bike_id":"1a3cd0ab-ec77-41b3-982c-74e5093499a8","system_id":"levelo_inurba_marseille","lat":43.30446,"lon":5.38873,"is_reserved":false,"is_disabled":true,"rental_uris":{"android":"levelo://app?vid=1a3cd0ab-ec77-41b3-982c-74e5093499a8","ios":"levelo://app?vid=1a3cd0ab-ec77-41b3-982c-74e5093499a8"},"vehicle_type_id":"4","last_reported":1744276246,"current_range_meters":12400,"station_id":"ce4bgk12rcd13ifvqbi0","pricing_plan_id":"cebpf4jnsgd1na2vs0mg"},{"bike_id":"8ef273ac-c689-4f24-a851-468efa4e0854","system_id":"levelo_inurba_marseille","lat":43.29025,"lon":5.36852,"is_reserved":false,"is_disabled":false,"rental_uris":{"android":"levelo://app?vid=8ef273ac-c689-4f24-a851-468efa4e0854","ios":"levelo://app?vid=8ef273ac-c689-4f24-a851-468efa4e0854"},"vehicle_type_id":"4","last_reported":1744276246,"current_range_meters":12400,"station_id":"","pricing_plan_id":"cebpf4jnsgd1na2vs0mg"},{"bike_id":"c1c7ca60-b5bb-4107-8f49-35ca01c60f71","system_id":"levelo_inurba_marseille","lat":43.2954,"lon":5.375,"is_reserved":false,"is_disabled":false,"rental_uris":{"android":"levelo://app?vid=c1c7ca60-b5bb-4107-8f49-35ca01c60f71","ios":"levelo://app?vid=c1c7ca60-b5bb-4107-8f49-35ca01c60f71"},"vehicle_type_id":"4","last_reported":1744276246,"current_range_meters":12800,"station_id":"ce4bgkp2rcd13ifvqbmg","pricing_plan_id":"cebpf4jnsgd1na2vs0mg"},{"bike_id":"3001b31d-31a5-4d35-9cf8-bf1abf8e13a2","system_id":"levelo_inurba_marseille","lat":43.25107,"lon":5.40315,"is_reserved":false,"is_disabled":false,"rental_uris":{"android":"levelo://app?vid=3001b31d-31a5-4d35-9cf8-bf1abf8e13a2","ios":"levelo://app?vid=3001b31d-31a5-4d35-9cf8-bf1abf8e13a2"},"vehicle_type_id":"4","last_reported":1744276246,"current_range_meters":12800,"station_id":"ce4bhlh2rcd13ifvqgig","pricing_plan_id":"cebpf4jnsgd1na2vs0mg"},{"bike_id":"dcc47738-1c24-4f04-a915-dcd0924e27e5","system_id":"levelo_inurba_marseille","lat":43.29432,"lon":5.39746,"is_reserved":false,"is_disabled":false,"rental_uris":{"android":"levelo://app?vid=dcc47738-1c24-4f04-a915-dcd0924e27e5","ios":"levelo://app?vid=dcc47738-1c24-4f04-a915-dcd0924e27e5"},"vehicle_type_id":"4","last_reported":1744276246,"current_range_meters":12800,"station_id":"ce4bh3h2rcd13ifvqdo0","pricing_plan_id":"cebpf4jnsgd1na2vs0mg"},{"bike_id":"051f5b5c-9d33-490b-990d-82823d5a619a","system_id":"levelo_inurba_marseille","lat":43.29267,"lon":5.38429,"is_reserved":false,"is_disabled":false,"rental_uris":{"android":"levelo://app?vid=051f5b5c-9d33-490b-990d-82823d5a619a","ios":"levelo://app?vid=051f5b5c-9d33-490b-990d-82823d5a619a"},"vehicle_type_id":"4","last_reported":1744276246,"current_range_meters":12800,"station_id":"ce4bh692rcd13ifvqea0","pricing_plan_id":"cebpf4jnsgd1na2vs0mg"},{"bike_id":"5047455d-c97a-4875-9440-a0dd56a0356d","system_id":"levelo_inurba_marseille","lat":43.32319,"lon":5.36612,"is_reserved":false,"is_disabled":false,"rental_uris":{"android":"levelo://app?vid=5047455d-c97a-4875-9440-a0dd56a0356d","ios":"levelo://app?vid=5047455d-c97a-4875-9440-a0dd56a0356d"},"vehicle_type_id":"4","last_reported":1744276246,"current_range_meters":12800,"station_id":"ce4bhsh2rcd13ifvqi2g","pricing_plan_id":"cebpf4jnsgd1na2vs0mg"},{"bike_id":"ceb584a8-bfcf-4e68-96cb-97b2c09da309","system_id":"levelo_inurba_marseille","lat":43.30545,"lon":5.36703,"is_reserved":false,"is_disabled":false,"rental_uris":{"android":"levelo://app?vid=ceb584a8-bfcf-4e68-96cb-97b2c09da309","ios":"levelo://app?vid=ceb584a8-bfcf-4e68-96cb-97b2c09da309"},"vehicle_type_id":"4","last_reported":1744276246,"current_range_meters":13600,"station_id":"ce4bgrp2rcd13ifvqc9g","pricing_plan_id":"cebpf4jnsgd1na2vs0mg"},{"bike_id":"fabb47bc-9c1e-40a7-b509-9bbe963c0862","system_id":"levelo_inurba_marseille","lat":43.32659,"lon":5.40982,"is_reserved":false,"is_disabled":false,"rental_uris":{"android":"levelo://app?vid=fabb47bc-9c1e-40a7-b509-9bbe963c0862","ios":"levelo://app?vid=fabb47bc-9c1e-40a7-b509-9bbe963c0862"},"vehicle_type_id":"4","last_reported":1744276246,"current_range_meters":13600,"station_id":"ce4bhpp2rcd13ifvqhgg","pricing_plan_id":"cebpf4jnsgd1na2vs0mg"},{"bike_id":"85bedd27-e495-40e1-947a-aef0fcb13aeb","system_id":"levelo_inurba_marseille","lat":43.29428,"lon":5.38617,"is_reserved":false,"is_disabled":false,"rental_uris":{"android":"levelo://app?vid=85bedd27-e495-40e1-947a-aef0fcb13aeb","ios":"levelo://app?vid=85bedd27-e495-40e1-947a-aef0fcb13aeb"},"vehicle_type_id":"4","last_reported":1744276246,"current_range_meters":13600,"station_id":"ce4bh2h2rcd13ifvqdh0","pricing_plan_id":"cebpf4jnsgd1na2vs0mg"},{"bike_id":"28cfefe7-a6c8-4416-bd7b-b3f5ff0fad2d","system_id":"levelo_inurba_marseille","lat":43.30953,"lon":5.39044,"is_reserved":false,"is_disabled":false,"rental_uris":{"android":"levelo://app?vid=28cfefe7-a6c8-4416-bd7b-b3f5ff0fad2d","ios":"levelo://app?vid=28cfefe7-a6c8-4416-bd7b-b3f5ff0fad2d"},"vehicle_type_id":"4","last_reported":1744276246,"current_range_meters":14000,"station_id":"ce4bgup2rcd13ifvqco0","pricing_plan_id":"cebpf4jnsgd1na2vs0mg"},{"bike_id":"e532a779-9d42-47ea-a0b7-06fe119520a0","system_id":"levelo_inurba_marseille","lat":43.273732,"lon":5.362652,"is_reserved":false,"is_disabled":false,"rental_uris":{"android":"levelo://app?vid=e532a779-9d42-47ea-a0b7-06fe119520a0","ios":"levelo://app?vid=e532a779-9d42-47ea-a0b7-06fe119520a0"},"vehicle_type_id":"4","last_reported":1744276246,"current_range_meters":13600,"station_id":"ce4bhbh2rcd13ifvqeo0","pricing_plan_id":"cebpf4jnsgd1na2vs0mg"},{"bike_id":"58a06d5c-23f8-466b-a88d-449307d0c901","system_id":"levelo_inurba_marseille","lat":43.31482,"lon":5.3678,"is_reserved":false,"is_disabled":false,"rental_uris":{"android":"levelo://app?vid=58a06d5c-23f8-466b-a88d-449307d0c901","ios":"levelo://app?vid=58a06d5c-23f8-466b-a88d-449307d0c901"},"vehicle_type_id":"4","last_reported":1744276246,"current_range_meters":14000,"station_id":"","pricing_plan_id":"cebpf4jnsgd1na2vs0mg"},{"bike_id":"cb986afa-0706-475e-8f3c-11ee95eb1194","system_id":"levelo_inurba_marseille","lat":43.23155,"lon":5.43723,"is_reserved":false,"is_disabled":false,"rental_uris":{"android":"levelo://app?vid=cb986afa-0706-475e-8f3c-11ee95eb1194","ios":"levelo://app?vid=cb986afa-0706-475e-8f3c-11ee95eb1194"},"vehicle_type_id":"4","last_reported":1744276246,"current_range_meters":14400,"station_id":"ce4bhmp2rcd13ifvqgog","pricing_plan_id":"cebpf4jnsgd1na2vs0mg"},{"bike_id":"459bc253-387d-45df-930d-539d8d2b9124","system_id":"levelo_inurba_marseille","lat":43.24184,"lon":5.39723,"is_reserved":false,"is_disabled":false,"rental_uris":{"android":"levelo://app?vid=459bc253-387d-45df-930d-539d8d2b9124","ios":"levelo://app?vid=459bc253-387d-45df-930d-539d8d2b9124"},"vehicle_type_id":"4","last_reported":1744276246,"current_range_meters":14400,"station_id":"ce4bhn12rcd13ifvqgpg","pricing_plan_id":"cebpf4jnsgd1na2vs0mg"},{"bike_id":"f10eaa92-034b-466a-8ac9-20fcbdaff0ab","system_id":"levelo_inurba_marseille","lat":43.31359,"lon":5.36721,"is_reserved":false,"is_disabled":false,"rental_uris":{"android":"levelo://app?vid=f10eaa92-034b-466a-8ac9-20fcbdaff0ab","ios":"levelo://app?vid=f10eaa92-034b-466a-8ac9-20fcbdaff0ab"},"vehicle_type_id":"4","last_reported":1744276246,"current_range_meters":14400,"station_id":"ce4bgr92rcd13ifvqc6g","pricing_plan_id":"cebpf4jnsgd1na2vs0mg"},{"bike_id":"6d76978a-2740-4f57-9972-fcce06d4c9a8","system_id":"levelo_inurba_marseille","lat":43.31364,"lon":5.3671,"is_reserved":false,"is_disabled":false,"rental_uris":{"android":"levelo://app?vid=6d76978a-2740-4f57-9972-fcce06d4c9a8","ios":"levelo://app?vid=6d76978a-2740-4f57-9972-fcce06d4c9a8"},"vehicle_type_id":"4","last_reported":1744276246,"current_range_meters":14800,"station_id":"ce4bgr92rcd13ifvqc6g","pricing_plan_id":"cebpf4jnsgd1na2vs0mg"},{"bike_id":"771e5c88-0894-4838-8ec4-4667279f7dd9","system_id":"levelo_inurba_marseille","lat":43.2315,"lon":5.43709,"is_reserved":false,"is_disabled":false,"rental_uris":{"android":"levelo://app?vid=771e5c88-0894-4838-8ec4-4667279f7dd9","ios":"levelo://app?vid=771e5c88-0894-4838-8ec4-4667279f7dd9"},"vehicle_type_id":"4","last_reported":1744276246,"current_range_meters":14800,"station_id":"ce4bhmp2rcd13ifvqgog","pricing_plan_id":"cebpf4jnsgd1na2vs0mg"},{"bike_id":"e3c3a051-8134-4ed3-913b-374aa217874c","system_id":"levelo_inurba_marseille","lat":43.2559,"lon":5.40455,"is_reserved":false,"is_disabled":false,"rental_uris":{"android":"levelo://app?vid=e3c3a051-8134-4ed3-913b-374aa217874c","ios":"levelo://app?vid=e3c3a051-8134-4ed3-913b-374aa217874c"},"vehicle_type_id":"4","last_reported":1744276246,"current_range_meters":14800,"station_id":"","pricing_plan_id":"cebpf4jnsgd1na2vs0mg"},{"bike_id":"8fc75a06-b383-4356-9ce0-507c4c1bc08f","system_id":"levelo_inurba_marseille","lat":43.2708,"lon":5.42258,"is_reserved":false,"is_disabled":false,"rental_uris":{"android":"levelo://app?vid=8fc75a06-b383-4356-9ce0-507c4c1bc08f","ios":"levelo://app?vid=8fc75a06-b383-4356-9ce0-507c4c1bc08f"},"vehicle_type_id":"4","last_reported":1744276246,"current_range_meters":14800,"station_id":"ce4bhk92rcd13ifvqgb0","pricing_plan_id":"cebpf4jnsgd1na2vs0mg"},{"bike_id":"29ee90ae-26ca-406d-ba03-d691be3fd5ba","system_id":"levelo_inurba_marseille","lat":43.26213,"lon":5.37438,"is_reserved":false,"is_disabled":false,"rental_uris":{"android":"levelo://app?vid=29ee90ae-26ca-406d-ba03-d691be3fd5ba","ios":"levelo://app?vid=29ee90ae-26ca-406d-ba03-d691be3fd5ba"},"vehicle_type_id":"4","last_reported":1744276246,"current_range_meters":14800,"station_id":"ce4bhgp2rcd13ifvqfc0","pricing_plan_id":"cebpf4jnsgd1na2vs0mg"},{"bike_id":"c7a0b639-1b85-44a3-b1ee-af4ecf90a377","system_id":"levelo_inurba_marseille","lat":43.31679,"lon":5.40473,"is_reserved":false,"is_disabled":false,"rental_uris":{"android":"levelo://app?vid=c7a0b639-1b85-44a3-b1ee-af4ecf90a377","ios":"levelo://app?vid=c7a0b639-1b85-44a3-b1ee-af4ecf90a377"},"vehicle_type_id":"4","last_reported":1744276246,"current_range_meters":14800,"station_id":"ce4bh012rcd13ifvqd00","pricing_plan_id":"cebpf4jnsgd1na2vs0mg"},{"bike_id":"8e0893d6-a031-4a1a-b1f8-381348b84109","system_id":"levelo_inurba_marseille","lat":43.24437,"lon":5.37071,"is_reserved":false,"is_disabled":false,"rental_uris":{"android":"levelo://app?vid=8e0893d6-a031-4a1a-b1f8-381348b84109","ios":"levelo://app?vid=8e0893d6-a031-4a1a-b1f8-381348b84109"},"vehicle_type_id":"4","last_reported":1744276246,"current_range_meters":15200,"station_id":"ce4bhhh2rcd13ifvqfk0","pricing_plan_id":"cebpf4jnsgd1na2vs0mg"},{"bike_id":"d1f92f28-9609-4256-bd4a-880c7b09d4e8","system_id":"levelo_inurba_marseille","lat":43.293289,"lon":5.411535,"is_reserved":false,"is_disabled":false,"rental_uris":{"android":"levelo://app?vid=d1f92f28-9609-4256-bd4a-880c7b09d4e8","ios":"levelo://app?vid=d1f92f28-9609-4256-bd4a-880c7b09d4e8"},"vehicle_type_id":"4","last_reported":1744276246,"current_range_meters":15200,"station_id":"","pricing_plan_id":"cebpf4jnsgd1na2vs0mg"},{"bike_id":"db7766ae-ecd8-4eb1-afab-106a4c216130","system_id":"levelo_inurba_marseille","lat":43.30956,"lon":5.39052,"is_reserved":false,"is_disabled":false,"rental_uris":{"android":"levelo://app?vid=db7766ae-ecd8-4eb1-afab-106a4c216130","ios":"levelo://app?vid=db7766ae-ecd8-4eb1-afab-106a4c216130"},"vehicle_type_id":"4","last_reported":1744276246,"current_range_meters":15200,"station_id":"ce4bgup2rcd13ifvqco0","pricing_plan_id":"cebpf4jnsgd1na2vs0mg"},{"bike_id":"39d569f2-804d-4c1f-93cb-ffdd8bba0563","system_id":"levelo_inurba_marseille","lat":43.30581,"lon":5.38459,"is_reserved":false,"is_disabled":true,"rental_uris":{"android":"levelo://app?vid=39d569f2-804d-4c1f-93cb-ffdd8bba0563","ios":"levelo://app?vid=39d569f2-804d-4c1f-93cb-ffdd8bba0563"},"vehicle_type_id":"4","last_reported":1744276246,"current_range_meters":16000,"station_id":"","pricing_plan_id":"cebpf4jnsgd1na2vs0mg"},{"bike_id":"f78bf8a8-b506-43e9-9fc4-9ec4cb688e82","system_id":"levelo_inurba_marseille","lat":43.32115,"lon":5.36746,"is_reserved":false,"is_disabled":false,"rental_uris":{"android":"levelo://app?vid=f78bf8a8-b506-43e9-9fc4-9ec4cb688e82","ios":"levelo://app?vid=f78bf8a8-b506-43e9-9fc4-9ec4cb688e82"},"vehicle_type_id":"4","last_reported":1744276246,"current_range_meters":16000,"station_id":"ce4bhrh2rcd13ifvqhug","pricing_plan_id":"cebpf4jnsgd1na2vs0mg"},{"bike_id":"1a8fb86a-a16f-4372-9f9e-b82551d343c8","system_id":"levelo_inurba_marseille","lat":43.31361,"lon":5.36704,"is_reserved":false,"is_disabled":false,"rental_uris":{"android":"levelo://app?vid=1a8fb86a-a16f-4372-9f9e-b82551d343c8","ios":"levelo://app?vid=1a8fb86a-a16f-4372-9f9e-b82551d343c8"},"vehicle_type_id":"4","last_reported":1744276246,"current_range_meters":16000,"station_id":"ce4bgr92rcd13ifvqc6g","pricing_plan_id":"cebpf4jnsgd1na2vs0mg"},{"bike_id":"c74893b0-7990-42e1-81ba-6333fadd7f5e","system_id":"levelo_inurba_marseille","lat":43.30534,"lon":5.36516,"is_reserved":false,"is_disabled":false,"rental_uris":{"android":"levelo://app?vid=c74893b0-7990-42e1-81ba-6333fadd7f5e","ios":"levelo://app?vid=c74893b0-7990-42e1-81ba-6333fadd7f5e"},"vehicle_type_id":"4","last_reported":1744276246,"current_range_meters":16000,"station_id":"ce4bgs12rcd13ifvqcag","pricing_plan_id":"cebpf4jnsgd1na2vs0mg"},{"bike_id":"b0daa17d-bd88-40c5-b571-9bf15d3bf2c5","system_id":"levelo_inurba_marseille","lat":43.23135,"lon":5.43709,"is_reserved":false,"is_disabled":false,"rental_uris":{"android":"levelo://app?vid=b0daa17d-bd88-40c5-b571-9bf15d3bf2c5","ios":"levelo://app?vid=b0daa17d-bd88-40c5-b571-9bf15d3bf2c5"},"vehicle_type_id":"4","last_reported":1744276246,"current_range_meters":16000,"station_id":"ce4bhmp2rcd13ifvqgog","pricing_plan_id":"cebpf4jnsgd1na2vs0mg"},{"bike_id":"53d2413a-de46-4967-b219-c3851c5e719c","system_id":"levelo_inurba_marseille","lat":43.25942,"lon":5.408842,"is_reserved":false,"is_disabled":false,"rental_uris":{"android":"levelo://app?vid=53d2413a-de46-4967-b219-c3851c5e719c","ios":"levelo://app?vid=53d2413a-de46-4967-b219-c3851c5e719c"},"vehicle_type_id":"4","last_reported":1744276246,"current_range_meters":16000,"station_id":"ce4bhm92rcd13ifvqglg","pricing_plan_id":"cebpf4jnsgd1na2vs0mg"},{"bike_id":"6aea74ed-ea0d-40c2-9455-d10b07283bfc","system_id":"levelo_inurba_marseille","lat":43.24175,"lon":5.39714,"is_reserved":false,"is_disabled":false,"rental_uris":{"android":"levelo://app?vid=6aea74ed-ea0d-40c2-9455-d10b07283bfc","ios":"levelo://app?vid=6aea74ed-ea0d-40c2-9455-d10b07283bfc"},"vehicle_type_id":"4","last_reported":1744276246,"current_range_meters":16000,"station_id":"ce4bhn12rcd13ifvqgpg","pricing_plan_id":"cebpf4jnsgd1na2vs0mg"},{"bike_id":"740ed816-09b2-41bd-867d-52a35d1745f1","system_id":"levelo_inurba_marseille","lat":43.24667,"lon":5.38172,"is_reserved":false,"is_disabled":true,"rental_uris":{"android":"levelo://app?vid=740ed816-09b2-41bd-867d-52a35d1745f1","ios":"levelo://app?vid=740ed816-09b2-41bd-867d-52a35d1745f1"},"vehicle_type_id":"4","last_reported":1744276246,"current_range_meters":16400,"station_id":"ce4bhih2rcd13ifvqfr0","pricing_plan_id":"cebpf4jnsgd1na2vs0mg"},{"bike_id":"8ee9f686-4549-4aad-af30-9017baadcb23","system_id":"levelo_inurba_marseille","lat":43.314263,"lon":5.37575,"is_reserved":false,"is_disabled":false,"rental_uris":{"android":"levelo://app?vid=8ee9f686-4549-4aad-af30-9017baadcb23","ios":"levelo://app?vid=8ee9f686-4549-4aad-af30-9017baadcb23"},"vehicle_type_id":"4","last_reported":1744276246,"current_range_meters":16400,"station_id":"","pricing_plan_id":"cebpf4jnsgd1na2vs0mg"},{"bike_id":"b4a374ee-bbd8-4423-a8ca-8cf5a3e3d7d8","system_id":"levelo_inurba_marseille","lat":43.29609,"lon":5.37732,"is_reserved":false,"is_disabled":false,"rental_uris":{"android":"levelo://app?vid=b4a374ee-bbd8-4423-a8ca-8cf5a3e3d7d8","ios":"levelo://app?vid=b4a374ee-bbd8-4423-a8ca-8cf5a3e3d7d8"},"vehicle_type_id":"4","last_reported":1744276246,"current_range_meters":16400,"station_id":"ce4bgi92rcd13ifvqb90","pricing_plan_id":"cebpf4jnsgd1na2vs0mg"},{"bike_id":"ce0c9aa6-af9a-42f4-85e6-8aabb4971ae5","system_id":"levelo_inurba_marseille","lat":43.26675,"lon":5.38268,"is_reserved":false,"is_disabled":false,"rental_uris":{"android":"levelo://app?vid=ce0c9aa6-af9a-42f4-85e6-8aabb4971ae5","ios":"levelo://app?vid=ce0c9aa6-af9a-42f4-85e6-8aabb4971ae5"},"vehicle_type_id":"4","last_reported":1744276246,"current_range_meters":16000,"station_id":"ce4bhg92rcd13ifvqf90","pricing_plan_id":"cebpf4jnsgd1na2vs0mg"},{"bike_id":"d1cd1b25-6432-4bde-87f0-3f927aac83c2","system_id":"levelo_inurba_marseille","lat":43.30536,"lon":5.36524,"is_reserved":false,"is_disabled":false,"rental_uris":{"android":"levelo://app?vid=d1cd1b25-6432-4bde-87f0-3f927aac83c2","ios":"levelo://app?vid=d1cd1b25-6432-4bde-87f0-3f927aac83c2"},"vehicle_type_id":"4","last_reported":1744276246,"current_range_meters":16400,"station_id":"ce4bgs12rcd13ifvqcag","pricing_plan_id":"cebpf4jnsgd1na2vs0mg"},{"bike_id":"69453b73-2d1a-4d69-a56c-2a033ab4613a","system_id":"levelo_inurba_marseille","lat":43.3054,"lon":5.36532,"is_reserved":false,"is_disabled":false,"rental_uris":{"android":"levelo://app?vid=69453b73-2d1a-4d69-a56c-2a033ab4613a","ios":"levelo://app?vid=69453b73-2d1a-4d69-a56c-2a033ab4613a"},"vehicle_type_id":"4","last_reported":1744276246,"current_range_meters":16400,"station_id":"ce4bgs12rcd13ifvqcag","pricing_plan_id":"cebpf4jnsgd1na2vs0mg"},{"bike_id":"edcc2472-e7bf-4e0c-91d2-956f1c779ee1","system_id":"levelo_inurba_marseille","lat":43.24183,"lon":5.39739,"is_reserved":false,"is_disabled":false,"rental_uris":{"android":"levelo://app?vid=edcc2472-e7bf-4e0c-91d2-956f1c779ee1","ios":"levelo://app?vid=edcc2472-e7bf-4e0c-91d2-956f1c779ee1"},"vehicle_type_id":"4","last_reported":1744276246,"current_range_meters":16800,"station_id":"ce4bhn12rcd13ifvqgpg","pricing_plan_id":"cebpf4jnsgd1na2vs0mg"},{"bike_id":"2b54a496-5bb2-42c4-bb01-6f1e5c2215a7","system_id":"levelo_inurba_marseille","lat":43.30779,"lon":5.37641,"is_reserved":false,"is_disabled":true,"rental_uris":{"android":"levelo://app?vid=2b54a496-5bb2-42c4-bb01-6f1e5c2215a7","ios":"levelo://app?vid=2b54a496-5bb2-42c4-bb01-6f1e5c2215a7"},"vehicle_type_id":"4","last_reported":1744276246,"current_range_meters":16800,"station_id":"ce4bgv92rcd13ifvqcq0","pricing_plan_id":"cebpf4jnsgd1na2vs0mg"},{"bike_id":"a78e936c-2e35-4f27-9389-a31c3205dc13","system_id":"levelo_inurba_marseille","lat":43.28701,"lon":5.37416,"is_reserved":false,"is_disabled":false,"rental_uris":{"android":"levelo://app?vid=a78e936c-2e35-4f27-9389-a31c3205dc13","ios":"levelo://app?vid=a78e936c-2e35-4f27-9389-a31c3205dc13"},"vehicle_type_id":"4","last_reported":1744276246,"current_range_meters":16800,"station_id":"ce4bh3p2rcd13ifvqdq0","pricing_plan_id":"cebpf4jnsgd1na2vs0mg"},{"bike_id":"eab6cbfa-cb8e-47d7-b0d6-226ab7facec7","system_id":"levelo_inurba_marseille","lat":43.31718,"lon":5.42389,"is_reserved":false,"is_disabled":true,"rental_uris":{"android":"levelo://app?vid=eab6cbfa-cb8e-47d7-b0d6-226ab7facec7","ios":"levelo://app?vid=eab6cbfa-cb8e-47d7-b0d6-226ab7facec7"},"vehicle_type_id":"4","last_reported":1744276246,"current_range_meters":16800,"station_id":"ce4bhp92rcd13ifvqhbg","pricing_plan_id":"cebpf4jnsgd1na2vs0mg"},{"bike_id":"24231488-5645-46fa-bdcb-cb0f61d4579c","system_id":"levelo_inurba_marseille","lat":43.29034,"lon":5.39992,"is_reserved":false,"is_disabled":false,"rental_uris":{"android":"levelo://app?vid=24231488-5645-46fa-bdcb-cb0f61d4579c","ios":"levelo://app?vid=24231488-5645-46fa-bdcb-cb0f61d4579c"},"vehicle_type_id":"4","last_reported":1744276246,"current_range_meters":16800,"station_id":"ce4bh392rcd13ifvqdm0","pricing_plan_id":"cebpf4jnsgd1na2vs0mg"},{"bike_id":"0922821c-4e1d-4817-9469-860e55f8f0d1","system_id":"levelo_inurba_marseille","lat":43.22511,"lon":5.34765,"is_reserved":false,"is_disabled":true,"rental_uris":{"android":"levelo://app?vid=0922821c-4e1d-4817-9469-860e55f8f0d1","ios":"levelo://app?vid=0922821c-4e1d-4817-9469-860e55f8f0d1"},"vehicle_type_id":"4","last_reported":1744276246,"current_range_meters":16800,"station_id":"st_cvj5dfep6f1abm77gieg","pricing_plan_id":"cebpf4jnsgd1na2vs0mg"},{"bike_id":"c5c8e54b-74c8-4967-8411-fa31d9d294f8","system_id":"levelo_inurba_marseille","lat":43.32488,"lon":5.36564,"is_reserved":false,"is_disabled":false,"rental_uris":{"android":"levelo://app?vid=c5c8e54b-74c8-4967-8411-fa31d9d294f8","ios":"levelo://app?vid=c5c8e54b-74c8-4967-8411-fa31d9d294f8"},"vehicle_type_id":"4","last_reported":1744276246,"current_range_meters":16800,"station_id":"ce4bhs12rcd13ifvqhvg","pricing_plan_id":"cebpf4jnsgd1na2vs0mg"},{"bike_id":"789a06d7-f5ea-4a8b-bea9-981a0c59e6e6","system_id":"levelo_inurba_marseille","lat":43.29607,"lon":5.37724,"is_reserved":false,"is_disabled":false,"rental_uris":{"android":"levelo://app?vid=789a06d7-f5ea-4a8b-bea9-981a0c59e6e6","ios":"levelo://app?vid=789a06d7-f5ea-4a8b-bea9-981a0c59e6e6"},"vehicle_type_id":"4","last_reported":1744276246,"current_range_meters":17200,"station_id":"ce4bgi92rcd13ifvqb90","pricing_plan_id":"cebpf4jnsgd1na2vs0mg"},{"bike_id":"b6dd4b82-b379-4efe-b6fa-df1987aeb412","system_id":"levelo_inurba_marseille","lat":43.29717,"lon":5.37671,"is_reserved":false,"is_disabled":false,"rental_uris":{"android":"levelo://app?vid=b6dd4b82-b379-4efe-b6fa-df1987aeb412","ios":"levelo://app?vid=b6dd4b82-b379-4efe-b6fa-df1987aeb412"},"vehicle_type_id":"4","last_reported":1744276246,"current_range_meters":17200,"station_id":"ce4bgkh2rcd13ifvqbl0","pricing_plan_id":"cebpf4jnsgd1na2vs0mg"},{"bike_id":"4b8ac1b7-5f53-4b59-ab52-4c9a17e8f238","system_id":"levelo_inurba_marseille","lat":43.25501,"lon":5.37651,"is_reserved":false,"is_disabled":false,"rental_uris":{"android":"levelo://app?vid=4b8ac1b7-5f53-4b59-ab52-4c9a17e8f238","ios":"levelo://app?vid=4b8ac1b7-5f53-4b59-ab52-4c9a17e8f238"},"vehicle_type_id":"4","last_reported":1744276246,"current_range_meters":17200,"station_id":"ce4bhh12rcd13ifvqff0","pricing_plan_id":"cebpf4jnsgd1na2vs0mg"},{"bike_id":"b30b1dea-997c-4d2f-b1ba-a139d5302ebc","system_id":"levelo_inurba_marseille","lat":43.27954,"lon":5.41045,"is_reserved":false,"is_disabled":false,"rental_uris":{"android":"levelo://app?vid=b30b1dea-997c-4d2f-b1ba-a139d5302ebc","ios":"levelo://app?vid=b30b1dea-997c-4d2f-b1ba-a139d5302ebc"},"vehicle_type_id":"4","last_reported":1744276246,"current_range_meters":17200,"station_id":"ce4bhnp2rcd13ifvqh0g","pricing_plan_id":"cebpf4jnsgd1na2vs0mg"},{"bike_id":"686a5207-cd40-45e0-9295-98b36eae431e","system_id":"levelo_inurba_marseille","lat":43.241743,"lon":5.39724,"is_reserved":false,"is_disabled":false,"rental_uris":{"android":"levelo://app?vid=686a5207-cd40-45e0-9295-98b36eae431e","ios":"levelo://app?vid=686a5207-cd40-45e0-9295-98b36eae431e"},"vehicle_type_id":"4","last_reported":1744276246,"current_range_meters":17200,"station_id":"ce4bhn12rcd13ifvqgpg","pricing_plan_id":"cebpf4jnsgd1na2vs0mg"},{"bike_id":"b6324d72-3b37-416f-ae63-e7ffa79a39f9","system_id":"levelo_inurba_marseille","lat":43.229283,"lon":5.353785,"is_reserved":false,"is_disabled":false,"rental_uris":{"android":"levelo://app?vid=b6324d72-3b37-416f-ae63-e7ffa79a39f9","ios":"levelo://app?vid=b6324d72-3b37-416f-ae63-e7ffa79a39f9"},"vehicle_type_id":"4","last_reported":1744276246,"current_range_meters":17200,"station_id":"cpo3532slgdg3j2ikp40","pricing_plan_id":"cebpf4jnsgd1na2vs0mg"},{"bike_id":"604a4f83-0324-4dd2-8bc9-367cc0ebec93","system_id":"levelo_inurba_marseille","lat":43.29028,"lon":5.39983,"is_reserved":false,"is_disabled":false,"rental_uris":{"android":"levelo://app?vid=604a4f83-0324-4dd2-8bc9-367cc0ebec93","ios":"levelo://app?vid=604a4f83-0324-4dd2-8bc9-367cc0ebec93"},"vehicle_type_id":"4","last_reported":1744276246,"current_range_meters":17200,"station_id":"ce4bh392rcd13ifvqdm0","pricing_plan_id":"cebpf4jnsgd1na2vs0mg"},{"bike_id":"47c8f69e-7d0a-4681-aaef-ac17c85ba421","system_id":"levelo_inurba_marseille","lat":43.24387,"lon":5.37054,"is_reserved":false,"is_disabled":false,"rental_uris":{"android":"levelo://app?vid=47c8f69e-7d0a-4681-aaef-ac17c85ba421","ios":"levelo://app?vid=47c8f69e-7d0a-4681-aaef-ac17c85ba421"},"vehicle_type_id":"4","last_reported":1744276246,"current_range_meters":17600,"station_id":"ce4bhhh2rcd13ifvqfk0","pricing_plan_id":"cebpf4jnsgd1na2vs0mg"},{"bike_id":"23718e9a-5ce7-4d28-99a5-8f754f56e13c","system_id":"levelo_inurba_marseille","lat":43.22492,"lon":5.34808,"is_reserved":false,"is_disabled":false,"rental_uris":{"android":"levelo://app?vid=23718e9a-5ce7-4d28-99a5-8f754f56e13c","ios":"levelo://app?vid=23718e9a-5ce7-4d28-99a5-8f754f56e13c"},"vehicle_type_id":"4","last_reported":1744276246,"current_range_meters":17600,"station_id":"","pricing_plan_id":"cebpf4jnsgd1na2vs0mg"},{"bike_id":"976d91c5-1540-4886-a130-e04e2440cf69","system_id":"levelo_inurba_marseille","lat":43.25125,"lon":5.4031,"is_reserved":false,"is_disabled":false,"rental_uris":{"android":"levelo://app?vid=976d91c5-1540-4886-a130-e04e2440cf69","ios":"levelo://app?vid=976d91c5-1540-4886-a130-e04e2440cf69"},"vehicle_type_id":"4","last_reported":1744276246,"current_range_meters":17600,"station_id":"ce4bhlh2rcd13ifvqgig","pricing_plan_id":"cebpf4jnsgd1na2vs0mg"},{"bike_id":"5336beb7-2639-49ce-9068-8e72e61fc789","system_id":"levelo_inurba_marseille","lat":43.28723,"lon":5.39963,"is_reserved":false,"is_disabled":false,"rental_uris":{"android":"levelo://app?vid=5336beb7-2639-49ce-9068-8e72e61fc789","ios":"levelo://app?vid=5336beb7-2639-49ce-9068-8e72e61fc789"},"vehicle_type_id":"4","last_reported":1744276246,"current_range_meters":17600,"station_id":"ce4bho92rcd13ifvqh3g","pricing_plan_id":"cebpf4jnsgd1na2vs0mg"},{"bike_id":"75281068-07ca-4011-af96-24f26f060c47","system_id":"levelo_inurba_marseille","lat":43.3022,"lon":5.39447,"is_reserved":false,"is_disabled":false,"rental_uris":{"android":"levelo://app?vid=75281068-07ca-4011-af96-24f26f060c47","ios":"levelo://app?vid=75281068-07ca-4011-af96-24f26f060c47"},"vehicle_type_id":"4","last_reported":1744276246,"current_range_meters":18000,"station_id":"ce4bh0p2rcd13ifvqd70","pricing_plan_id":"cebpf4jnsgd1na2vs0mg"},{"bike_id":"b5ca0173-860f-4e09-8ae0-f89867ca9dd6","system_id":"levelo_inurba_marseille","lat":43.31875,"lon":5.37315,"is_reserved":false,"is_disabled":false,"rental_uris":{"android":"levelo://app?vid=b5ca0173-860f-4e09-8ae0-f89867ca9dd6","ios":"levelo://app?vid=b5ca0173-860f-4e09-8ae0-f89867ca9dd6"},"vehicle_type_id":"4","last_reported":1744276246,"current_range_meters":18000,"station_id":"","pricing_plan_id":"cebpf4jnsgd1na2vs0mg"},{"bike_id":"221b5d38-61dc-40aa-b23e-5b0391fc47a1","system_id":"levelo_inurba_marseille","lat":43.26229,"lon":5.4045,"is_reserved":false,"is_disabled":false,"rental_uris":{"android":"levelo://app?vid=221b5d38-61dc-40aa-b23e-5b0391fc47a1","ios":"levelo://app?vid=221b5d38-61dc-40aa-b23e-5b0391fc47a1"},"vehicle_type_id":"4","last_reported":1744276246,"current_range_meters":18000,"station_id":"ce4bhmh2rcd13ifvqgmg","pricing_plan_id":"cebpf4jnsgd1na2vs0mg"},{"bike_id":"658a8364-0afc-40de-b43c-28573a3cb826","system_id":"levelo_inurba_marseille","lat":43.30955,"lon":5.39052,"is_reserved":false,"is_disabled":false,"rental_uris":{"android":"levelo://app?vid=658a8364-0afc-40de-b43c-28573a3cb826","ios":"levelo://app?vid=658a8364-0afc-40de-b43c-28573a3cb826"},"vehicle_type_id":"4","last_reported":1744276246,"current_range_meters":18000,"station_id":"ce4bgup2rcd13ifvqco0","pricing_plan_id":"cebpf4jnsgd1na2vs0mg"},{"bike_id":"550669c9-2c2c-44c1-a8a3-dd9756269d1e","system_id":"levelo_inurba_marseille","lat":43.3216,"lon":5.37963,"is_reserved":false,"is_disabled":false,"rental_uris":{"android":"levelo://app?vid=550669c9-2c2c-44c1-a8a3-dd9756269d1e","ios":"levelo://app?vid=550669c9-2c2c-44c1-a8a3-dd9756269d1e"},"vehicle_type_id":"4","last_reported":1744276246,"current_range_meters":18000,"station_id":"","pricing_plan_id":"cebpf4jnsgd1na2vs0mg"},{"bike_id":"94455896-0f19-4fae-bd72-9879f01fcd6e","system_id":"levelo_inurba_marseille","lat":43.29548,"lon":5.42278,"is_reserved":false,"is_disabled":true,"rental_uris":{"android":"levelo://app?vid=94455896-0f19-4fae-bd72-9879f01fcd6e","ios":"levelo://app?vid=94455896-0f19-4fae-bd72-9879f01fcd6e"},"vehicle_type_id":"4","last_reported":1744276246,"current_range_meters":18000,"station_id":"ce4bhph2rcd13ifvqhdg","pricing_plan_id":"cebpf4jnsgd1na2vs0mg"},{"bike_id":"ebbde2c2-f2b0-4c4c-833b-198b518f2d22","system_id":"levelo_inurba_marseille","lat":43.27369,"lon":5.36255,"is_reserved":false,"is_disabled":false,"rental_uris":{"android":"levelo://app?vid=ebbde2c2-f2b0-4c4c-833b-198b518f2d22","ios":"levelo://app?vid=ebbde2c2-f2b0-4c4c-833b-198b518f2d22"},"vehicle_type_id":"4","last_reported":1744276246,"current_range_meters":18000,"station_id":"ce4bhbh2rcd13ifvqeo0","pricing_plan_id":"cebpf4jnsgd1na2vs0mg"},{"bike_id":"761ab4c6-4800-4be8-a1fe-1b0640d4f959","system_id":"levelo_inurba_marseille","lat":43.3231,"lon":5.37664,"is_reserved":false,"is_disabled":false,"rental_uris":{"android":"levelo://app?vid=761ab4c6-4800-4be8-a1fe-1b0640d4f959","ios":"levelo://app?vid=761ab4c6-4800-4be8-a1fe-1b0640d4f959"},"vehicle_type_id":"4","last_reported":1744276246,"current_range_meters":18000,"station_id":"","pricing_plan_id":"cebpf4jnsgd1na2vs0mg"},{"bike_id":"182650a6-9433-4951-80ba-44b6e3878dab","system_id":"levelo_inurba_marseille","lat":43.30571,"lon":5.38434,"is_reserved":false,"is_disabled":true,"rental_uris":{"android":"levelo://app?vid=182650a6-9433-4951-80ba-44b6e3878dab","ios":"levelo://app?vid=182650a6-9433-4951-80ba-44b6e3878dab"},"vehicle_type_id":"4","last_reported":1744276246,"current_range_meters":18000,"station_id":"ce4bgg92rcd13ifvqb30","pricing_plan_id":"cebpf4jnsgd1na2vs0mg"},{"bike_id":"2158251e-dadc-48b3-a5af-ea98b09513fe","system_id":"levelo_inurba_marseille","lat":43.30308,"lon":5.39175,"is_reserved":false,"is_disabled":true,"rental_uris":{"android":"levelo://app?vid=2158251e-dadc-48b3-a5af-ea98b09513fe","ios":"levelo://app?vid=2158251e-dadc-48b3-a5af-ea98b09513fe"},"vehicle_type_id":"4","last_reported":1744276246,"current_range_meters":18000,"station_id":"ce4bgkh2rcd13ifvqbk0","pricing_plan_id":"cebpf4jnsgd1na2vs0mg"},{"bike_id":"0e7bf4ae-5aed-4055-a1f8-96debbb9847e","system_id":"levelo_inurba_marseille","lat":43.24171,"lon":5.36397,"is_reserved":false,"is_disabled":false,"rental_uris":{"android":"levelo://app?vid=0e7bf4ae-5aed-4055-a1f8-96debbb9847e","ios":"levelo://app?vid=0e7bf4ae-5aed-4055-a1f8-96debbb9847e"},"vehicle_type_id":"4","last_reported":1744276246,"current_range_meters":18000,"station_id":"cpo36qri1sfpv3e86is0","pricing_plan_id":"cebpf4jnsgd1na2vs0mg"},{"bike_id":"204e4ebf-dbf2-49a6-9c7f-bede59e102a8","system_id":"levelo_inurba_marseille","lat":43.30367,"lon":5.41877,"is_reserved":false,"is_disabled":false,"rental_uris":{"android":"levelo://app?vid=204e4ebf-dbf2-49a6-9c7f-bede59e102a8","ios":"levelo://app?vid=204e4ebf-dbf2-49a6-9c7f-bede59e102a8"},"vehicle_type_id":"4","last_reported":1744276246,"current_range_meters":18800,"station_id":"ce4bhop2rcd13ifvqh7g","pricing_plan_id":"cebpf4jnsgd1na2vs0mg"},{"bike_id":"fd21b386-518d-4fea-ae8e-459e38dc9ebf","system_id":"levelo_inurba_marseille","lat":43.30537,"lon":5.36702,"is_reserved":false,"is_disabled":false,"rental_uris":{"android":"levelo://app?vid=fd21b386-518d-4fea-ae8e-459e38dc9ebf","ios":"levelo://app?vid=fd21b386-518d-4fea-ae8e-459e38dc9ebf"},"vehicle_type_id":"4","last_reported":1744276246,"current_range_meters":18800,"station_id":"ce4bgrp2rcd13ifvqc9g","pricing_plan_id":"cebpf4jnsgd1na2vs0mg"},{"bike_id":"aeb315f8-5663-4264-8421-f5acbb6ac33d","system_id":"levelo_inurba_marseille","lat":43.26222,"lon":5.40423,"is_reserved":false,"is_disabled":false,"rental_uris":{"android":"levelo://app?vid=aeb315f8-5663-4264-8421-f5acbb6ac33d","ios":"levelo://app?vid=aeb315f8-5663-4264-8421-f5acbb6ac33d"},"vehicle_type_id":"4","last_reported":1744276246,"current_range_meters":18800,"station_id":"ce4bhmh2rcd13ifvqgmg","pricing_plan_id":"cebpf4jnsgd1na2vs0mg"},{"bike_id":"35b36e91-763a-4885-8944-e030c3a30dcf","system_id":"levelo_inurba_marseille","lat":43.31288,"lon":5.36863,"is_reserved":false,"is_disabled":false,"rental_uris":{"android":"levelo://app?vid=35b36e91-763a-4885-8944-e030c3a30dcf","ios":"levelo://app?vid=35b36e91-763a-4885-8944-e030c3a30dcf"},"vehicle_type_id":"4","last_reported":1744276246,"current_range_meters":18800,"station_id":"","pricing_plan_id":"cebpf4jnsgd1na2vs0mg"},{"bike_id":"799f3bdc-38c0-4b71-9a34-196020b0e68f","system_id":"levelo_inurba_marseille","lat":43.292598,"lon":5.368455,"is_reserved":false,"is_disabled":false,"rental_uris":{"android":"levelo://app?vid=799f3bdc-38c0-4b71-9a34-196020b0e68f","ios":"levelo://app?vid=799f3bdc-38c0-4b71-9a34-196020b0e68f"},"vehicle_type_id":"4","last_reported":1744276246,"current_range_meters":18800,"station_id":"ce4bhbp2rcd13ifvqesg","pricing_plan_id":"cebpf4jnsgd1na2vs0mg"},{"bike_id":"6f5a3fba-5124-42a7-b36e-1ce41590f370","system_id":"levelo_inurba_marseille","lat":43.32282,"lon":5.36606,"is_reserved":false,"is_disabled":false,"rental_uris":{"android":"levelo://app?vid=6f5a3fba-5124-42a7-b36e-1ce41590f370","ios":"levelo://app?vid=6f5a3fba-5124-42a7-b36e-1ce41590f370"},"vehicle_type_id":"4","last_reported":1744276246,"current_range_meters":18800,"station_id":"ce4bhsh2rcd13ifvqi2g","pricing_plan_id":"cebpf4jnsgd1na2vs0mg"},{"bike_id":"0b73b15a-9d08-4a64-a420-9110a325b597","system_id":"levelo_inurba_marseille","lat":43.23148,"lon":5.43722,"is_reserved":false,"is_disabled":false,"rental_uris":{"android":"levelo://app?vid=0b73b15a-9d08-4a64-a420-9110a325b597","ios":"levelo://app?vid=0b73b15a-9d08-4a64-a420-9110a325b597"},"vehicle_type_id":"4","last_reported":1744276246,"current_range_meters":18800,"station_id":"ce4bhmp2rcd13ifvqgog","pricing_plan_id":"cebpf4jnsgd1na2vs0mg"},{"bike_id":"678b2156-23d8-4979-9a24-20656752f490","system_id":"levelo_inurba_marseille","lat":43.23205,"lon":5.35561,"is_reserved":false,"is_disabled":false,"rental_uris":{"android":"levelo://app?vid=678b2156-23d8-4979-9a24-20656752f490","ios":"levelo://app?vid=678b2156-23d8-4979-9a24-20656752f490"},"vehicle_type_id":"4","last_reported":1744276246,"current_range_meters":18800,"station_id":"ce4bhu92rcd13ifvqi70","pricing_plan_id":"cebpf4jnsgd1na2vs0mg"},{"bike_id":"4edc23c2-b972-4046-a206-b666f2bd32e7","system_id":"levelo_inurba_marseille","lat":43.24809,"lon":5.37458,"is_reserved":false,"is_disabled":false,"rental_uris":{"android":"levelo://app?vid=4edc23c2-b972-4046-a206-b666f2bd32e7","ios":"levelo://app?vid=4edc23c2-b972-4046-a206-b666f2bd32e7"},"vehicle_type_id":"4","last_reported":1744276246,"current_range_meters":18000,"station_id":"ce4bhgh2rcd13ifvqfb0","pricing_plan_id":"cebpf4jnsgd1na2vs0mg"},{"bike_id":"49ef98c9-49ed-461a-8fcf-8c95814de0da","system_id":"levelo_inurba_marseille","lat":43.2548,"lon":5.37648,"is_reserved":false,"is_disabled":false,"rental_uris":{"android":"levelo://app?vid=49ef98c9-49ed-461a-8fcf-8c95814de0da","ios":"levelo://app?vid=49ef98c9-49ed-461a-8fcf-8c95814de0da"},"vehicle_type_id":"4","last_reported":1744276246,"current_range_meters":18800,"station_id":"ce4bhh12rcd13ifvqff0","pricing_plan_id":"cebpf4jnsgd1na2vs0mg"},{"bike_id":"d324405a-0e22-4d8f-9e6a-87134e316705","system_id":"levelo_inurba_marseille","lat":43.23142,"lon":5.43719,"is_reserved":false,"is_disabled":false,"rental_uris":{"android":"levelo://app?vid=d324405a-0e22-4d8f-9e6a-87134e316705","ios":"levelo://app?vid=d324405a-0e22-4d8f-9e6a-87134e316705"},"vehicle_type_id":"4","last_reported":1744276246,"current_range_meters":18800,"station_id":"ce4bhmp2rcd13ifvqgog","pricing_plan_id":"cebpf4jnsgd1na2vs0mg"},{"bike_id":"501fa997-908f-46c4-b868-f7df51633695","system_id":"levelo_inurba_marseille","lat":43.29591,"lon":5.37508,"is_reserved":false,"is_disabled":false,"rental_uris":{"android":"levelo://app?vid=501fa997-908f-46c4-b868-f7df51633695","ios":"levelo://app?vid=501fa997-908f-46c4-b868-f7df51633695"},"vehicle_type_id":"4","last_reported":1744276246,"current_range_meters":19200,"station_id":"ce4bgh92rcd13ifvqb50","pricing_plan_id":"cebpf4jnsgd1na2vs0mg"},{"bike_id":"593cc697-220e-4df3-9f2b-b1793070fa32","system_id":"levelo_inurba_marseille","lat":43.30557,"lon":5.36554,"is_reserved":false,"is_disabled":false,"rental_uris":{"android":"levelo://app?vid=593cc697-220e-4df3-9f2b-b1793070fa32","ios":"levelo://app?vid=593cc697-220e-4df3-9f2b-b1793070fa32"},"vehicle_type_id":"4","last_reported":1744276246,"current_range_meters":19200,"station_id":"ce4bgs12rcd13ifvqcag","pricing_plan_id":"cebpf4jnsgd1na2vs0mg"},{"bike_id":"463b41fd-37bb-48c0-a6e4-12f737a3d7cf","system_id":"levelo_inurba_marseille","lat":43.26936,"lon":5.40292,"is_reserved":false,"is_disabled":true,"rental_uris":{"android":"levelo://app?vid=463b41fd-37bb-48c0-a6e4-12f737a3d7cf","ios":"levelo://app?vid=463b41fd-37bb-48c0-a6e4-12f737a3d7cf"},"vehicle_type_id":"4","last_reported":1744276246,"current_range_meters":19200,"station_id":"cjm6bp8fraef2m0cb0m0","pricing_plan_id":"cebpf4jnsgd1na2vs0mg"},{"bike_id":"3e81aa37-fc41-454a-b1b0-b6e7606609e2","system_id":"levelo_inurba_marseille","lat":43.30619,"lon":5.37234,"is_reserved":false,"is_disabled":false,"rental_uris":{"android":"levelo://app?vid=3e81aa37-fc41-454a-b1b0-b6e7606609e2","ios":"levelo://app?vid=3e81aa37-fc41-454a-b1b0-b6e7606609e2"},"vehicle_type_id":"4","last_reported":1744276246,"current_range_meters":19200,"station_id":"ce4bgqh2rcd13ifvqc4g","pricing_plan_id":"cebpf4jnsgd1na2vs0mg"},{"bike_id":"d5c40fa2-8caf-4c7e-9d6c-472c31634ec1","system_id":"levelo_inurba_marseille","lat":43.25583,"lon":5.38234,"is_reserved":false,"is_disabled":false,"rental_uris":{"android":"levelo://app?vid=d5c40fa2-8caf-4c7e-9d6c-472c31634ec1","ios":"levelo://app?vid=d5c40fa2-8caf-4c7e-9d6c-472c31634ec1"},"vehicle_type_id":"4","last_reported":1744276246,"current_range_meters":19200,"station_id":"ce4bhih2rcd13ifvqfs0","pricing_plan_id":"cebpf4jnsgd1na2vs0mg"},{"bike_id":"5d039be0-b25d-4d1f-932f-9f388ac822dc","system_id":"levelo_inurba_marseille","lat":43.29043,"lon":5.38128,"is_reserved":false,"is_disabled":false,"rental_uris":{"android":"levelo://app?vid=5d039be0-b25d-4d1f-932f-9f388ac822dc","ios":"levelo://app?vid=5d039be0-b25d-4d1f-932f-9f388ac822dc"},"vehicle_type_id":"4","last_reported":1744276246,"current_range_meters":14400,"station_id":"ce4bh4p2rcd13ifvqe1g","pricing_plan_id":"cebpf4jnsgd1na2vs0mg"},{"bike_id":"70333d08-b89a-4e2b-ae7b-375ce248ec2b","system_id":"levelo_inurba_marseille","lat":43.29303,"lon":5.37472,"is_reserved":false,"is_disabled":true,"rental_uris":{"android":"levelo://app?vid=70333d08-b89a-4e2b-ae7b-375ce248ec2b","ios":"levelo://app?vid=70333d08-b89a-4e2b-ae7b-375ce248ec2b"},"vehicle_type_id":"4","last_reported":1744276246,"current_range_meters":19200,"station_id":"","pricing_plan_id":"cebpf4jnsgd1na2vs0mg"},{"bike_id":"e1b171d5-4690-4c56-88ea-3bc958a7511f","system_id":"levelo_inurba_marseille","lat":43.241796,"lon":5.397239,"is_reserved":false,"is_disabled":false,"rental_uris":{"android":"levelo://app?vid=e1b171d5-4690-4c56-88ea-3bc958a7511f","ios":"levelo://app?vid=e1b171d5-4690-4c56-88ea-3bc958a7511f"},"vehicle_type_id":"4","last_reported":1744276246,"current_range_meters":19200,"station_id":"ce4bhn12rcd13ifvqgpg","pricing_plan_id":"cebpf4jnsgd1na2vs0mg"},{"bike_id":"8e0980e7-f650-4478-82b2-cdec5bb55d65","system_id":"levelo_inurba_marseille","lat":43.286103,"lon":5.370627,"is_reserved":false,"is_disabled":false,"rental_uris":{"android":"levelo://app?vid=8e0980e7-f650-4478-82b2-cdec5bb55d65","ios":"levelo://app?vid=8e0980e7-f650-4478-82b2-cdec5bb55d65"},"vehicle_type_id":"4","last_reported":1744276246,"current_range_meters":19200,"station_id":"ce4bht12rcd13ifvqi60","pricing_plan_id":"cebpf4jnsgd1na2vs0mg"},{"bike_id":"a84134a9-407a-4074-ade7-7f98f245d2b5","system_id":"levelo_inurba_marseille","lat":43.24977,"lon":5.38915,"is_reserved":false,"is_disabled":false,"rental_uris":{"android":"levelo://app?vid=a84134a9-407a-4074-ade7-7f98f245d2b5","ios":"levelo://app?vid=a84134a9-407a-4074-ade7-7f98f245d2b5"},"vehicle_type_id":"4","last_reported":1744276246,"current_range_meters":19200,"station_id":"ce4bhgp2rcd13ifvqfd0","pricing_plan_id":"cebpf4jnsgd1na2vs0mg"},{"bike_id":"7e162cce-45fb-4756-a5d4-0d88fe0d397f","system_id":"levelo_inurba_marseille","lat":43.30144,"lon":5.37409,"is_reserved":false,"is_disabled":false,"rental_uris":{"android":"levelo://app?vid=7e162cce-45fb-4756-a5d4-0d88fe0d397f","ios":"levelo://app?vid=7e162cce-45fb-4756-a5d4-0d88fe0d397f"},"vehicle_type_id":"4","last_reported":1744276246,"current_range_meters":19200,"station_id":"ce4bgs92rcd13ifvqcc0","pricing_plan_id":"cebpf4jnsgd1na2vs0mg"},{"bike_id":"2ee106dd-7d55-45ba-b797-a6053946699a","system_id":"levelo_inurba_marseille","lat":43.27095,"lon":5.42272,"is_reserved":false,"is_disabled":false,"rental_uris":{"android":"levelo://app?vid=2ee106dd-7d55-45ba-b797-a6053946699a","ios":"levelo://app?vid=2ee106dd-7d55-45ba-b797-a6053946699a"},"vehicle_type_id":"4","last_reported":1744276246,"current_range_meters":19600,"station_id":"ce4bhk92rcd13ifvqgb0","pricing_plan_id":"cebpf4jnsgd1na2vs0mg"},{"bike_id":"94c7794a-6d48-406f-b5c8-69da2480bb40","system_id":"levelo_inurba_marseille","lat":43.31347,"lon":5.36698,"is_reserved":false,"is_disabled":false,"rental_uris":{"android":"levelo://app?vid=94c7794a-6d48-406f-b5c8-69da2480bb40","ios":"levelo://app?vid=94c7794a-6d48-406f-b5c8-69da2480bb40"},"vehicle_type_id":"4","last_reported":1744276246,"current_range_meters":19600,"station_id":"ce4bgr92rcd13ifvqc6g","pricing_plan_id":"cebpf4jnsgd1na2vs0mg"},{"bike_id":"05c59fc8-277e-4fa9-b4f2-127f7d40a15a","system_id":"levelo_inurba_marseille","lat":43.24168,"lon":5.36395,"is_reserved":false,"is_disabled":false,"rental_uris":{"android":"levelo://app?vid=05c59fc8-277e-4fa9-b4f2-127f7d40a15a","ios":"levelo://app?vid=05c59fc8-277e-4fa9-b4f2-127f7d40a15a"},"vehicle_type_id":"4","last_reported":1744276246,"current_range_meters":19600,"station_id":"cpo36qri1sfpv3e86is0","pricing_plan_id":"cebpf4jnsgd1na2vs0mg"},{"bike_id":"89e18915-d30e-41cb-bb03-ba8ebbb23625","system_id":"levelo_inurba_marseille","lat":43.26716,"lon":5.38276,"is_reserved":false,"is_disabled":false,"rental_uris":{"android":"levelo://app?vid=89e18915-d30e-41cb-bb03-ba8ebbb23625","ios":"levelo://app?vid=89e18915-d30e-41cb-bb03-ba8ebbb23625"},"vehicle_type_id":"4","last_reported":1744276246,"current_range_meters":19600,"station_id":"ce4bhg92rcd13ifvqf90","pricing_plan_id":"cebpf4jnsgd1na2vs0mg"},{"bike_id":"6d1f80b1-80e0-4012-99d1-3f8172cadb63","system_id":"levelo_inurba_marseille","lat":43.24187,"lon":5.36418,"is_reserved":false,"is_disabled":false,"rental_uris":{"android":"levelo://app?vid=6d1f80b1-80e0-4012-99d1-3f8172cadb63","ios":"levelo://app?vid=6d1f80b1-80e0-4012-99d1-3f8172cadb63"},"vehicle_type_id":"4","last_reported":1744276246,"current_range_meters":19600,"station_id":"cpo36qri1sfpv3e86is0","pricing_plan_id":"cebpf4jnsgd1na2vs0mg"},{"bike_id":"d6de9787-de9c-4c79-9afc-ce882b2ba200","system_id":"levelo_inurba_marseille","lat":43.297852,"lon":5.371116,"is_reserved":false,"is_disabled":false,"rental_uris":{"android":"levelo://app?vid=d6de9787-de9c-4c79-9afc-ce882b2ba200","ios":"levelo://app?vid=d6de9787-de9c-4c79-9afc-ce882b2ba200"},"vehicle_type_id":"4","last_reported":1744276246,"current_range_meters":19600,"station_id":"","pricing_plan_id":"cebpf4jnsgd1na2vs0mg"},{"bike_id":"34616fe2-474b-4998-95c1-a06976c9c13c","system_id":"levelo_inurba_marseille","lat":43.23139,"lon":5.43727,"is_reserved":false,"is_disabled":false,"rental_uris":{"android":"levelo://app?vid=34616fe2-474b-4998-95c1-a06976c9c13c","ios":"levelo://app?vid=34616fe2-474b-4998-95c1-a06976c9c13c"},"vehicle_type_id":"4","last_reported":1744276246,"current_range_meters":19600,"station_id":"ce4bhmp2rcd13ifvqgog","pricing_plan_id":"cebpf4jnsgd1na2vs0mg"},{"bike_id":"13bd409b-2208-4241-b6c3-3db7227cda15","system_id":"levelo_inurba_marseille","lat":43.25824,"lon":5.39425,"is_reserved":false,"is_disabled":false,"rental_uris":{"android":"levelo://app?vid=13bd409b-2208-4241-b6c3-3db7227cda15","ios":"levelo://app?vid=13bd409b-2208-4241-b6c3-3db7227cda15"},"vehicle_type_id":"4","last_reported":1744276246,"current_range_meters":19600,"station_id":"ce4bhip2rcd13ifvqft0","pricing_plan_id":"cebpf4jnsgd1na2vs0mg"},{"bike_id":"7c5e5016-e21a-4905-aa33-9df45efc7500","system_id":"levelo_inurba_marseille","lat":43.3359,"lon":5.40981,"is_reserved":false,"is_disabled":false,"rental_uris":{"android":"levelo://app?vid=7c5e5016-e21a-4905-aa33-9df45efc7500","ios":"levelo://app?vid=7c5e5016-e21a-4905-aa33-9df45efc7500"},"vehicle_type_id":"4","last_reported":1744276246,"current_range_meters":19600,"station_id":"ce4bhqh2rcd13ifvqhmg","pricing_plan_id":"cebpf4jnsgd1na2vs0mg"},{"bike_id":"415f4ace-3cb1-443b-9ed2-0e1f034e9012","system_id":"levelo_inurba_marseille","lat":43.23175,"lon":5.43713,"is_reserved":false,"is_disabled":false,"rental_uris":{"android":"levelo://app?vid=415f4ace-3cb1-443b-9ed2-0e1f034e9012","ios":"levelo://app?vid=415f4ace-3cb1-443b-9ed2-0e1f034e9012"},"vehicle_type_id":"4","last_reported":1744276246,"current_range_meters":20000,"station_id":"ce4bhmp2rcd13ifvqgog","pricing_plan_id":"cebpf4jnsgd1na2vs0mg"},{"bike_id":"56655ffb-4e43-4411-b9af-60510703f2b9","system_id":"levelo_inurba_marseille","lat":43.3016,"lon":5.37403,"is_reserved":false,"is_disabled":false,"rental_uris":{"android":"levelo://app?vid=56655ffb-4e43-4411-b9af-60510703f2b9","ios":"levelo://app?vid=56655ffb-4e43-4411-b9af-60510703f2b9"},"vehicle_type_id":"4","last_reported":1744276246,"current_range_meters":20000,"station_id":"ce4bgs92rcd13ifvqcc0","pricing_plan_id":"cebpf4jnsgd1na2vs0mg"},{"bike_id":"b1ee2f60-4328-4282-bd37-761fb5f2d37b","system_id":"levelo_inurba_marseille","lat":43.31364,"lon":5.36684,"is_reserved":false,"is_disabled":false,"rental_uris":{"android":"levelo://app?vid=b1ee2f60-4328-4282-bd37-761fb5f2d37b","ios":"levelo://app?vid=b1ee2f60-4328-4282-bd37-761fb5f2d37b"},"vehicle_type_id":"4","last_reported":1744276246,"current_range_meters":20000,"station_id":"ce4bgr92rcd13ifvqc6g","pricing_plan_id":"cebpf4jnsgd1na2vs0mg"},{"bike_id":"844d189b-8656-41f5-bb91-607fc9f2754c","system_id":"levelo_inurba_marseille","lat":43.25859,"lon":5.3989,"is_reserved":false,"is_disabled":false,"rental_uris":{"android":"levelo://app?vid=844d189b-8656-41f5-bb91-607fc9f2754c","ios":"levelo://app?vid=844d189b-8656-41f5-bb91-607fc9f2754c"},"vehicle_type_id":"4","last_reported":1744276246,"current_range_meters":20000,"station_id":"ce4bhl92rcd13ifvqghg","pricing_plan_id":"cebpf4jnsgd1na2vs0mg"},{"bike_id":"ad8253a1-48f9-4a09-891a-2d7866351f65","system_id":"levelo_inurba_marseille","lat":43.29271,"lon":5.37603,"is_reserved":false,"is_disabled":false,"rental_uris":{"android":"levelo://app?vid=ad8253a1-48f9-4a09-891a-2d7866351f65","ios":"levelo://app?vid=ad8253a1-48f9-4a09-891a-2d7866351f65"},"vehicle_type_id":"4","last_reported":1744276246,"current_range_meters":20000,"station_id":"ce4bgi12rcd13ifvqb80","pricing_plan_id":"cebpf4jnsgd1na2vs0mg"},{"bike_id":"bf8ac1a8-fd20-4984-b459-cc47b9bf01d3","system_id":"levelo_inurba_marseille","lat":43.30451,"lon":5.37908,"is_reserved":false,"is_disabled":false,"rental_uris":{"android":"levelo://app?vid=bf8ac1a8-fd20-4984-b459-cc47b9bf01d3","ios":"levelo://app?vid=bf8ac1a8-fd20-4984-b459-cc47b9bf01d3"},"vehicle_type_id":"4","last_reported":1744276246,"current_range_meters":20000,"station_id":"ce4bgup2rcd13ifvqcn0","pricing_plan_id":"cebpf4jnsgd1na2vs0mg"},{"bike_id":"74b26f4a-6d3d-4ac2-b681-1e6162ab2ff1","system_id":"levelo_inurba_marseille","lat":43.31269,"lon":5.36891,"is_reserved":false,"is_disabled":false,"rental_uris":{"android":"levelo://app?vid=74b26f4a-6d3d-4ac2-b681-1e6162ab2ff1","ios":"levelo://app?vid=74b26f4a-6d3d-4ac2-b681-1e6162ab2ff1"},"vehicle_type_id":"4","last_reported":1744276246,"current_range_meters":20000,"station_id":"","pricing_plan_id":"cebpf4jnsgd1na2vs0mg"},{"bike_id":"d41ae61a-63da-4c5b-9ca3-0fc5a06df94c","system_id":"levelo_inurba_marseille","lat":43.312261,"lon":5.368681,"is_reserved":false,"is_disabled":false,"rental_uris":{"android":"levelo://app?vid=d41ae61a-63da-4c5b-9ca3-0fc5a06df94c","ios":"levelo://app?vid=d41ae61a-63da-4c5b-9ca3-0fc5a06df94c"},"vehicle_type_id":"4","last_reported":1744276246,"current_range_meters":20400,"station_id":"ce4bgl92rcd13ifvqbq0","pricing_plan_id":"cebpf4jnsgd1na2vs0mg"},{"bike_id":"f1e866a5-7c3e-45b7-ba42-0d6523e7a78c","system_id":"levelo_inurba_marseille","lat":43.27503,"lon":5.42455,"is_reserved":false,"is_disabled":true,"rental_uris":{"android":"levelo://app?vid=f1e866a5-7c3e-45b7-ba42-0d6523e7a78c","ios":"levelo://app?vid=f1e866a5-7c3e-45b7-ba42-0d6523e7a78c"},"vehicle_type_id":"4","last_reported":1744276246,"current_range_meters":20400,"station_id":"ce4bhn92rcd13ifvqgrg","pricing_plan_id":"cebpf4jnsgd1na2vs0mg"},{"bike_id":"f1a86d8e-1af0-4e62-8a31-48f4fcb9a144","system_id":"levelo_inurba_marseille","lat":43.303254,"lon":5.404355,"is_reserved":false,"is_disabled":false,"rental_uris":{"android":"levelo://app?vid=f1a86d8e-1af0-4e62-8a31-48f4fcb9a144","ios":"levelo://app?vid=f1a86d8e-1af0-4e62-8a31-48f4fcb9a144"},"vehicle_type_id":"4","last_reported":1744276246,"current_range_meters":20000,"station_id":"ce4bh012rcd13ifvqd10","pricing_plan_id":"cebpf4jnsgd1na2vs0mg"},{"bike_id":"419a5c7b-44df-4170-b31f-9e41be8ea52a","system_id":"levelo_inurba_marseille","lat":43.30604,"lon":5.39348,"is_reserved":false,"is_disabled":false,"rental_uris":{"android":"levelo://app?vid=419a5c7b-44df-4170-b31f-9e41be8ea52a","ios":"levelo://app?vid=419a5c7b-44df-4170-b31f-9e41be8ea52a"},"vehicle_type_id":"4","last_reported":1744276246,"current_range_meters":20400,"station_id":"ce4bh0p2rcd13ifvqd80","pricing_plan_id":"cebpf4jnsgd1na2vs0mg"},{"bike_id":"25fb06f4-18a8-47b2-8f0c-a4e815a75645","system_id":"levelo_inurba_marseille","lat":43.33721,"lon":5.39182,"is_reserved":false,"is_disabled":false,"rental_uris":{"android":"levelo://app?vid=25fb06f4-18a8-47b2-8f0c-a4e815a75645","ios":"levelo://app?vid=25fb06f4-18a8-47b2-8f0c-a4e815a75645"},"vehicle_type_id":"4","last_reported":1744276246,"current_range_meters":20400,"station_id":"ce4bhr92rcd13ifvqhsg","pricing_plan_id":"cebpf4jnsgd1na2vs0mg"},{"bike_id":"ad4fc704-9b42-4ffc-93e0-dd62c6f07cca","system_id":"levelo_inurba_marseille","lat":43.23169,"lon":5.43702,"is_reserved":false,"is_disabled":false,"rental_uris":{"android":"levelo://app?vid=ad4fc704-9b42-4ffc-93e0-dd62c6f07cca","ios":"levelo://app?vid=ad4fc704-9b42-4ffc-93e0-dd62c6f07cca"},"vehicle_type_id":"4","last_reported":1744276246,"current_range_meters":20400,"station_id":"ce4bhmp2rcd13ifvqgog","pricing_plan_id":"cebpf4jnsgd1na2vs0mg"},{"bike_id":"ef291804-1477-432e-b153-82ea15725418","system_id":"levelo_inurba_marseille","lat":43.33731,"lon":5.37454,"is_reserved":false,"is_disabled":false,"rental_uris":{"android":"levelo://app?vid=ef291804-1477-432e-b153-82ea15725418","ios":"levelo://app?vid=ef291804-1477-432e-b153-82ea15725418"},"vehicle_type_id":"4","last_reported":1744276246,"current_range_meters":20400,"station_id":"","pricing_plan_id":"cebpf4jnsgd1na2vs0mg"},{"bike_id":"e61839bf-f681-4d70-a315-33f71f01e45f","system_id":"levelo_inurba_marseille","lat":43.30551,"lon":5.3669,"is_reserved":false,"is_disabled":false,"rental_uris":{"android":"levelo://app?vid=e61839bf-f681-4d70-a315-33f71f01e45f","ios":"levelo://app?vid=e61839bf-f681-4d70-a315-33f71f01e45f"},"vehicle_type_id":"4","last_reported":1744276246,"current_range_meters":20400,"station_id":"ce4bgrp2rcd13ifvqc9g","pricing_plan_id":"cebpf4jnsgd1na2vs0mg"},{"bike_id":"d43b77db-9bd3-4428-badc-36b3eeadc6b1","system_id":"levelo_inurba_marseille","lat":43.313531,"lon":5.367187,"is_reserved":false,"is_disabled":false,"rental_uris":{"android":"levelo://app?vid=d43b77db-9bd3-4428-badc-36b3eeadc6b1","ios":"levelo://app?vid=d43b77db-9bd3-4428-badc-36b3eeadc6b1"},"vehicle_type_id":"4","last_reported":1744276246,"current_range_meters":20800,"station_id":"ce4bgr92rcd13ifvqc6g","pricing_plan_id":"cebpf4jnsgd1na2vs0mg"},{"bike_id":"b723d85e-014b-4f9d-bf6a-46cf586468d1","system_id":"levelo_inurba_marseille","lat":43.2315,"lon":5.43716,"is_reserved":false,"is_disabled":false,"rental_uris":{"android":"levelo://app?vid=b723d85e-014b-4f9d-bf6a-46cf586468d1","ios":"levelo://app?vid=b723d85e-014b-4f9d-bf6a-46cf586468d1"},"vehicle_type_id":"4","last_reported":1744276246,"current_range_meters":20800,"station_id":"ce4bhmp2rcd13ifvqgog","pricing_plan_id":"cebpf4jnsgd1na2vs0mg"},{"bike_id":"c6977c9b-c59b-4bdc-9057-f4f47caa5780","system_id":"levelo_inurba_marseille","lat":43.29721,"lon":5.37689,"is_reserved":false,"is_disabled":false,"rental_uris":{"android":"levelo://app?vid=c6977c9b-c59b-4bdc-9057-f4f47caa5780","ios":"levelo://app?vid=c6977c9b-c59b-4bdc-9057-f4f47caa5780"},"vehicle_type_id":"4","last_reported":1744276246,"current_range_meters":20800,"station_id":"ce4bgkh2rcd13ifvqbl0","pricing_plan_id":"cebpf4jnsgd1na2vs0mg"},{"bike_id":"5695cb2e-dbd5-40eb-9413-b06715d5ee98","system_id":"levelo_inurba_marseille","lat":43.22949,"lon":5.35363,"is_reserved":false,"is_disabled":false,"rental_uris":{"android":"levelo://app?vid=5695cb2e-dbd5-40eb-9413-b06715d5ee98","ios":"levelo://app?vid=5695cb2e-dbd5-40eb-9413-b06715d5ee98"},"vehicle_type_id":"4","last_reported":1744276246,"current_range_meters":20800,"station_id":"cpo3532slgdg3j2ikp40","pricing_plan_id":"cebpf4jnsgd1na2vs0mg"},{"bike_id":"ffee1761-49fd-43fb-bf0b-f85d7b3c103f","system_id":"levelo_inurba_marseille","lat":43.25489,"lon":5.37655,"is_reserved":false,"is_disabled":false,"rental_uris":{"android":"levelo://app?vid=ffee1761-49fd-43fb-bf0b-f85d7b3c103f","ios":"levelo://app?vid=ffee1761-49fd-43fb-bf0b-f85d7b3c103f"},"vehicle_type_id":"4","last_reported":1744276246,"current_range_meters":20400,"station_id":"ce4bhh12rcd13ifvqff0","pricing_plan_id":"cebpf4jnsgd1na2vs0mg"},{"bike_id":"8c58f2fa-99e1-41f8-bf90-9c1648b679b1","system_id":"levelo_inurba_marseille","lat":43.27292,"lon":5.41427,"is_reserved":false,"is_disabled":false,"rental_uris":{"android":"levelo://app?vid=8c58f2fa-99e1-41f8-bf90-9c1648b679b1","ios":"levelo://app?vid=8c58f2fa-99e1-41f8-bf90-9c1648b679b1"},"vehicle_type_id":"4","last_reported":1744276246,"current_range_meters":20800,"station_id":"","pricing_plan_id":"cebpf4jnsgd1na2vs0mg"},{"bike_id":"55821214-5182-4f7e-8c0e-85b60bd17dff","system_id":"levelo_inurba_marseille","lat":43.28282,"lon":5.35067,"is_reserved":false,"is_disabled":false,"rental_uris":{"android":"levelo://app?vid=55821214-5182-4f7e-8c0e-85b60bd17dff","ios":"levelo://app?vid=55821214-5182-4f7e-8c0e-85b60bd17dff"},"vehicle_type_id":"4","last_reported":1744276246,"current_range_meters":21600,"station_id":"ce4bhbp2rcd13ifvqerg","pricing_plan_id":"cebpf4jnsgd1na2vs0mg"},{"bike_id":"2d605846-4ec4-4fbf-bd99-e682335b1dee","system_id":"levelo_inurba_marseille","lat":43.30139,"lon":5.38785,"is_reserved":false,"is_disabled":true,"rental_uris":{"android":"levelo://app?vid=2d605846-4ec4-4fbf-bd99-e682335b1dee","ios":"levelo://app?vid=2d605846-4ec4-4fbf-bd99-e682335b1dee"},"vehicle_type_id":"4","last_reported":1744276246,"current_range_meters":21600,"station_id":"ce4bghh2rcd13ifvqb60","pricing_plan_id":"cebpf4jnsgd1na2vs0mg"},{"bike_id":"ad25361c-5222-4718-a80e-15ff4a16543a","system_id":"levelo_inurba_marseille","lat":43.292579,"lon":5.384347,"is_reserved":false,"is_disabled":false,"rental_uris":{"android":"levelo://app?vid=ad25361c-5222-4718-a80e-15ff4a16543a","ios":"levelo://app?vid=ad25361c-5222-4718-a80e-15ff4a16543a"},"vehicle_type_id":"4","last_reported":1744276246,"current_range_meters":20800,"station_id":"ce4bh692rcd13ifvqe90","pricing_plan_id":"cebpf4jnsgd1na2vs0mg"},{"bike_id":"a7c5287a-f028-432e-9f97-44f76c5e4541","system_id":"levelo_inurba_marseille","lat":43.24997,"lon":5.38937,"is_reserved":false,"is_disabled":false,"rental_uris":{"android":"levelo://app?vid=a7c5287a-f028-432e-9f97-44f76c5e4541","ios":"levelo://app?vid=a7c5287a-f028-432e-9f97-44f76c5e4541"},"vehicle_type_id":"4","last_reported":1744276246,"current_range_meters":21600,"station_id":"ce4bhgp2rcd13ifvqfd0","pricing_plan_id":"cebpf4jnsgd1na2vs0mg"},