{"last_updated":1770895907,"ttl":60,"version":"2.2","data":{"bikes":[{"bike_id":"c6176d61-506f-4755-a0d6-6ccb9566f89a","system_id":"levelo_inurba_marseille","lat":43.25661,"lon":5.41128,"is_reserved":false,"is_disabled":false,"rental_uris":{"android":"levelo://app?vid=c6176d61-506f-4755-a0d6-6ccb9566f89a","ios":"levelo://app?vid=c6176d61-506f-4755-a0d6-6ccb9566f89a"},"vehicle_type_id":"4","last_reported":1770895908,"current_range_meters":2800,"station_id":"","pricing_plan_id":"cebpf4jnsgd1na2vs0mg"},{"bike_id":"1fed4add-aae6-45dc-a8f1-a0c848be9f5d","system_id":"levelo_inurba_marseille","lat":43.26199,"lon":5.37932,"is_reserved":false,"is_disabled":false,"rental_uris":{"android":"levelo://app?vid=1fed4add-aae6-45dc-a8f1-a0c848be9f5d","ios":"levelo://app?vid=1fed4add-aae6-45dc-a8f1-a0c848be9f5d"},"vehicle_type_id":"4","last_reported":1770895908,"current_range_meters":2800,"station_id":"ce4bhjp2rcd13ifvqg90","pricing_plan_id":"cebpf4jnsgd1na2vs0mg"},{"bike_id":"a6876fbc-5972-47a8-9998-521812b66cc6","system_id":"levelo_inurba_marseille","lat":43.27211,"lon":5.39182,"is_reserved":false,"is_disabled":true,"rental_uris":{"android":"levelo://app?vid=a6876fbc-5972-47a8-9998-521812b66cc6","ios":"levelo://app?vid=a6876fbc-5972-47a8-9998-521812b66cc6"},"vehicle_type_id":"4","last_reported":1770895908,"current_range_meters":2800,"station_id":"ce4bhhp2rcd13ifvqfm0","pricing_plan_id":"cebpf4jnsgd1na2vs0mg"},{"bike_id":"1c120683-67bc-428a-aa0f-bec572dfb863","system_id":"levelo_inurba_marseille","lat":43.256,"lon":5.38237,"is_reserved":false,"is_disabled":false,"rental_uris":{"android":"levelo://app?vid=1c120683-67bc-428a-aa0f-bec572dfb863","ios":"levelo://app?vid=1c120683-67bc-428a-aa0f-bec572dfb863"},"vehicle_type_id":"4","last_reported":1770895908,"current_range_meters":2800,"station_id":"ce4bhih2rcd13ifvqfs0","pricing_plan_id":"cebpf4jnsgd1na2vs0mg"},{"bike_id":"94a4e1f3-a8e3-4e58-9a7c-83701131f7da","system_id":"levelo_inurba_marseille","lat":43.25821,"lon":5.3945,"is_reserved":false,"is_disabled":false,"rental_uris":{"android":"levelo://app?vid=94a4e1f3-a8e3-4e58-9a7c-83701131f7da","ios":"levelo://app?vid=94a4e1f3-a8e3-4e58-9a7c-83701131f7da"},"vehicle_type_id":"4","last_reported":1770895908,"current_range_meters":2800,"station_id":"","pricing_plan_id":"cebpf4jnsgd1na2vs0mg"},{"bike_id":"44c6aa93-1f46-4cbd-a298-6cd74e811e92","system_id":"levelo_inurba_marseille","lat":43.217604,"lon":5.346226,"is_reserved":false,"is_disabled":false,"rental_uris":{"android":"levelo://app?vid=44c6aa93-1f46-4cbd-a298-6cd74e811e92","ios":"levelo://app?vid=44c6aa93-1f46-4cbd-a298-6cd74e811e92"},"vehicle_type_id":"4","last_reported":1770895908,"current_range_meters":2800,"station_id":"st_cvj6r9ubvosntc0bgbag","pricing_plan_id":"cebpf4jnsgd1na2vs0mg"},{"bike_id":"2d4aa5d2-3372-425b-afc3-1131a013b68f","system_id":"levelo_inurba_marseille","lat":43.31696,"lon":5.40468,"is_reserved":false,"is_disabled":false,"rental_uris":{"android":"levelo://app?vid=2d4aa5d2-3372-425b-afc3-1131a013b68f","ios":"levelo://app?vid=2d4aa5d2-3372-425b-afc3-1131a013b68f"},"vehicle_type_id":"4","last_reported":1770895908,"current_range_meters":2800,"station_id":"ce4bh012rcd13ifvqd00","pricing_plan_id":"cebpf4jnsgd1na2vs0mg"},{"bike_id":"033a2fed-e178-4141-a47d-3d8340ae2bef","system_id":"levelo_inurba_marseille","lat":43.29978,"lon":5.38491,"is_reserved":false,"is_disabled":false,"rental_uris":{"android":"levelo://app?vid=033a2fed-e178-4141-a47d-3d8340ae2bef","ios":"levelo://app?vid=033a2fed-e178-4141-a47d-3d8340ae2bef"},"vehicle_type_id":"4","last_reported":1770895908,"current_range_meters":2800,"station_id":"ce4bgj92rcd13ifvqbd0","pricing_plan_id":"cebpf4jnsgd1na2vs0mg"},{"bike_id":"31ec33af-4b5b-47df-a935-7478bd3c999f","system_id":"levelo_inurba_marseille","lat":43.25341,"lon":5.42176,"is_reserved":false,"is_disabled":false,"rental_uris":{"android":"levelo://app?vid=31ec33af-4b5b-47df-a935-7478bd3c999f","ios":"levelo://app?vid=31ec33af-4b5b-47df-a935-7478bd3c999f"},"vehicle_type_id":"4","last_reported":1770895908,"current_range_meters":2800,"station_id":"st_d2m65c5bi1j21697t3ng","pricing_plan_id":"cebpf4jnsgd1na2vs0mg"},{"bike_id":"8b4263f7-2795-486a-b290-22850f34f9ba","system_id":"levelo_inurba_marseille","lat":43.25003,"lon":5.38928,"is_reserved":false,"is_disabled":false,"rental_uris":{"android":"levelo://app?vid=8b4263f7-2795-486a-b290-22850f34f9ba","ios":"levelo://app?vid=8b4263f7-2795-486a-b290-22850f34f9ba"},"vehicle_type_id":"4","last_reported":1770895908,"current_range_meters":2800,"station_id":"ce4bhgp2rcd13ifvqfd0","pricing_plan_id":"cebpf4jnsgd1na2vs0mg"},{"bike_id":"fed2a54f-3070-42b8-8ba6-068ff5bd345c","system_id":"levelo_inurba_marseille","lat":43.2935,"lon":5.37867,"is_reserved":false,"is_disabled":false,"rental_uris":{"android":"levelo://app?vid=fed2a54f-3070-42b8-8ba6-068ff5bd345c","ios":"levelo://app?vid=fed2a54f-3070-42b8-8ba6-068ff5bd345c"},"vehicle_type_id":"4","last_reported":1770895908,"current_range_meters":2800,"station_id":"ce4bgjh2rcd13ifvqbf0","pricing_plan_id":"cebpf4jnsgd1na2vs0mg"},{"bike_id":"7be659ba-2c50-4472-b756-4fa4eb2c65f0","system_id":"levelo_inurba_marseille","lat":43.31049,"lon":5.37179,"is_reserved":false,"is_disabled":false,"rental_uris":{"android":"levelo://app?vid=7be659ba-2c50-4472-b756-4fa4eb2c65f0","ios":"levelo://app?vid=7be659ba-2c50-4472-b756-4fa4eb2c65f0"},"vehicle_type_id":"4","last_reported":1770895908,"current_range_meters":3200,"station_id":"st_d4kl2rp97mjs73e7tdfg","pricing_plan_id":"cebpf4jnsgd1na2vs0mg"},{"bike_id":"4659f5f2-43a6-4213-b84f-184d5dec64b3","system_id":"levelo_inurba_marseille","lat":43.33545,"lon":5.37458,"is_reserved":false,"is_disabled":false,"rental_uris":{"android":"levelo://app?vid=4659f5f2-43a6-4213-b84f-184d5dec64b3","ios":"levelo://app?vid=4659f5f2-43a6-4213-b84f-184d5dec64b3"},"vehicle_type_id":"4","last_reported":1770895908,"current_range_meters":3200,"station_id":"st_d46tts09ee8s73dlu43g","pricing_plan_id":"cebpf4jnsgd1na2vs0mg"},{"bike_id":"d5d656ce-6d10-446b-83e4-01e50cae5e79","system_id":"levelo_inurba_marseille","lat":43.310356,"lon":5.371776,"is_reserved":false,"is_disabled":false,"rental_uris":{"android":"levelo://app?vid=d5d656ce-6d10-446b-83e4-01e50cae5e79","ios":"levelo://app?vid=d5d656ce-6d10-446b-83e4-01e50cae5e79"},"vehicle_type_id":"4","last_reported":1770895908,"current_range_meters":3200,"station_id":"st_d4kl2rp97mjs73e7tdfg","pricing_plan_id":"cebpf4jnsgd1na2vs0mg"},{"bike_id":"bdde70ef-70ce-4d41-a03b-1cac73853d63","system_id":"levelo_inurba_marseille","lat":43.24164,"lon":5.36387,"is_reserved":false,"is_disabled":false,"rental_uris":{"android":"levelo://app?vid=bdde70ef-70ce-4d41-a03b-1cac73853d63","ios":"levelo://app?vid=bdde70ef-70ce-4d41-a03b-1cac73853d63"},"vehicle_type_id":"4","last_reported":1770895908,"current_range_meters":3200,"station_id":"cpo36qri1sfpv3e86is0","pricing_plan_id":"cebpf4jnsgd1na2vs0mg"},{"bike_id":"edbbdbd2-0e42-4247-84d4-741428b7bbc5","system_id":"levelo_inurba_marseille","lat":43.30989,"lon":5.38023,"is_reserved":false,"is_disabled":false,"rental_uris":{"android":"levelo://app?vid=edbbdbd2-0e42-4247-84d4-741428b7bbc5","ios":"levelo://app?vid=edbbdbd2-0e42-4247-84d4-741428b7bbc5"},"vehicle_type_id":"4","last_reported":1770895908,"current_range_meters":3200,"station_id":"","pricing_plan_id":"cebpf4jnsgd1na2vs0mg"},{"bike_id":"b377eebb-38c9-4328-81d8-b28f5ba4bb3f","system_id":"levelo_inurba_marseille","lat":43.30952,"lon":5.39034,"is_reserved":false,"is_disabled":false,"rental_uris":{"android":"levelo://app?vid=b377eebb-38c9-4328-81d8-b28f5ba4bb3f","ios":"levelo://app?vid=b377eebb-38c9-4328-81d8-b28f5ba4bb3f"},"vehicle_type_id":"4","last_reported":1770895908,"current_range_meters":3200,"station_id":"ce4bgup2rcd13ifvqco0","pricing_plan_id":"cebpf4jnsgd1na2vs0mg"},{"bike_id":"a05b422a-95a3-4880-a8be-5840943a5bab","system_id":"levelo_inurba_marseille","lat":43.22563,"lon":5.41629,"is_reserved":false,"is_disabled":false,"rental_uris":{"android":"levelo://app?vid=a05b422a-95a3-4880-a8be-5840943a5bab","ios":"levelo://app?vid=a05b422a-95a3-4880-a8be-5840943a5bab"},"vehicle_type_id":"4","last_reported":1770895908,"current_range_meters":3200,"station_id":"st_d2o4gvlbi1j2169b742g","pricing_plan_id":"cebpf4jnsgd1na2vs0mg"},{"bike_id":"238249fa-46de-416c-b2d1-b229a6220ad5","system_id":"levelo_inurba_marseille","lat":43.26571,"lon":5.39009,"is_reserved":false,"is_disabled":false,"rental_uris":{"android":"levelo://app?vid=238249fa-46de-416c-b2d1-b229a6220ad5","ios":"levelo://app?vid=238249fa-46de-416c-b2d1-b229a6220ad5"},"vehicle_type_id":"4","last_reported":1770895908,"current_range_meters":3200,"station_id":"ce4bhe12rcd13ifvqf30","pricing_plan_id":"cebpf4jnsgd1na2vs0mg"},{"bike_id":"01f8a447-306e-44f2-b6a9-3a620c84af4c","system_id":"levelo_inurba_marseille","lat":43.29717,"lon":5.36597,"is_reserved":false,"is_disabled":false,"rental_uris":{"android":"levelo://app?vid=01f8a447-306e-44f2-b6a9-3a620c84af4c","ios":"levelo://app?vid=01f8a447-306e-44f2-b6a9-3a620c84af4c"},"vehicle_type_id":"4","last_reported":1770895908,"current_range_meters":3200,"station_id":"ce4bgn12rcd13ifvqbt0","pricing_plan_id":"cebpf4jnsgd1na2vs0mg"},{"bike_id":"fe86c9ba-789d-48cb-b139-57215407552e","system_id":"levelo_inurba_marseille","lat":43.33746,"lon":5.37446,"is_reserved":false,"is_disabled":false,"rental_uris":{"android":"levelo://app?vid=fe86c9ba-789d-48cb-b139-57215407552e","ios":"levelo://app?vid=fe86c9ba-789d-48cb-b139-57215407552e"},"vehicle_type_id":"4","last_reported":1770895908,"current_range_meters":3600,"station_id":"","pricing_plan_id":"cebpf4jnsgd1na2vs0mg"},{"bike_id":"85d79221-d016-40e0-860a-88c9d3be6c46","system_id":"levelo_inurba_marseille","lat":43.25931,"lon":5.40883,"is_reserved":false,"is_disabled":false,"rental_uris":{"android":"levelo://app?vid=85d79221-d016-40e0-860a-88c9d3be6c46","ios":"levelo://app?vid=85d79221-d016-40e0-860a-88c9d3be6c46"},"vehicle_type_id":"4","last_reported":1770895908,"current_range_meters":3600,"station_id":"ce4bhm92rcd13ifvqglg","pricing_plan_id":"cebpf4jnsgd1na2vs0mg"},{"bike_id":"1fba58dc-5912-4286-bae6-c4c5f884ca12","system_id":"levelo_inurba_marseille","lat":43.28478,"lon":5.38558,"is_reserved":false,"is_disabled":false,"rental_uris":{"android":"levelo://app?vid=1fba58dc-5912-4286-bae6-c4c5f884ca12","ios":"levelo://app?vid=1fba58dc-5912-4286-bae6-c4c5f884ca12"},"vehicle_type_id":"4","last_reported":1770895908,"current_range_meters":3600,"station_id":"ce4bh8p2rcd13ifvqeb0","pricing_plan_id":"cebpf4jnsgd1na2vs0mg"},{"bike_id":"4e74cdcc-dbfc-40eb-9bdb-3e229efe07c9","system_id":"levelo_inurba_marseille","lat":43.301471,"lon":5.380775,"is_reserved":false,"is_disabled":false,"rental_uris":{"android":"levelo://app?vid=4e74cdcc-dbfc-40eb-9bdb-3e229efe07c9","ios":"levelo://app?vid=4e74cdcc-dbfc-40eb-9bdb-3e229efe07c9"},"vehicle_type_id":"4","last_reported":1770895908,"current_range_meters":4000,"station_id":"ce4bgjp2rcd13ifvqbh0","pricing_plan_id":"cebpf4jnsgd1na2vs0mg"},{"bike_id":"ab7260d3-0b60-4920-bd6e-553838fbba97","system_id":"levelo_inurba_marseille","lat":43.30471,"lon":5.40219,"is_reserved":false,"is_disabled":false,"rental_uris":{"android":"levelo://app?vid=ab7260d3-0b60-4920-bd6e-553838fbba97","ios":"levelo://app?vid=ab7260d3-0b60-4920-bd6e-553838fbba97"},"vehicle_type_id":"4","last_reported":1770895908,"current_range_meters":4000,"station_id":"","pricing_plan_id":"cebpf4jnsgd1na2vs0mg"},{"bike_id":"ae861497-9a22-4231-afa9-8238d5c5713c","system_id":"levelo_inurba_marseille","lat":43.24178,"lon":5.36401,"is_reserved":false,"is_disabled":false,"rental_uris":{"android":"levelo://app?vid=ae861497-9a22-4231-afa9-8238d5c5713c","ios":"levelo://app?vid=ae861497-9a22-4231-afa9-8238d5c5713c"},"vehicle_type_id":"4","last_reported":1770895908,"current_range_meters":4000,"station_id":"cpo36qri1sfpv3e86is0","pricing_plan_id":"cebpf4jnsgd1na2vs0mg"},{"bike_id":"9b586055-3525-4e43-ae53-8d6c2fff45ed","system_id":"levelo_inurba_marseille","lat":43.24183,"lon":5.36358,"is_reserved":false,"is_disabled":false,"rental_uris":{"android":"levelo://app?vid=9b586055-3525-4e43-ae53-8d6c2fff45ed","ios":"levelo://app?vid=9b586055-3525-4e43-ae53-8d6c2fff45ed"},"vehicle_type_id":"4","last_reported":1770895908,"current_range_meters":4000,"station_id":"cpo36qri1sfpv3e86is0","pricing_plan_id":"cebpf4jnsgd1na2vs0mg"},{"bike_id":"39f9b61e-9e27-467c-b081-5b6c22a6c92f","system_id":"levelo_inurba_marseille","lat":43.26547,"lon":5.37299,"is_reserved":false,"is_disabled":true,"rental_uris":{"android":"levelo://app?vid=39f9b61e-9e27-467c-b081-5b6c22a6c92f","ios":"levelo://app?vid=39f9b61e-9e27-467c-b081-5b6c22a6c92f"},"vehicle_type_id":"4","last_reported":1770895908,"current_range_meters":4000,"station_id":"ce4bhg12rcd13ifvqf70","pricing_plan_id":"cebpf4jnsgd1na2vs0mg"},{"bike_id":"6efe5f0a-6c4f-403e-907f-5428484845d2","system_id":"levelo_inurba_marseille","lat":43.31711,"lon":5.40383,"is_reserved":false,"is_disabled":false,"rental_uris":{"android":"levelo://app?vid=6efe5f0a-6c4f-403e-907f-5428484845d2","ios":"levelo://app?vid=6efe5f0a-6c4f-403e-907f-5428484845d2"},"vehicle_type_id":"4","last_reported":1770895908,"current_range_meters":4000,"station_id":"","pricing_plan_id":"cebpf4jnsgd1na2vs0mg"},{"bike_id":"b3d06119-f0a6-4191-b374-93d7a840140e","system_id":"levelo_inurba_marseille","lat":43.28138,"lon":5.42642,"is_reserved":false,"is_disabled":true,"rental_uris":{"android":"levelo://app?vid=b3d06119-f0a6-4191-b374-93d7a840140e","ios":"levelo://app?vid=b3d06119-f0a6-4191-b374-93d7a840140e"},"vehicle_type_id":"4","last_reported":1770895908,"current_range_meters":4000,"station_id":"ce4bhnh2rcd13ifvqgug","pricing_plan_id":"cebpf4jnsgd1na2vs0mg"},{"bike_id":"cdb5c25c-a15a-4142-a44d-9f93b3d885b7","system_id":"levelo_inurba_marseille","lat":43.28899,"lon":5.4315,"is_reserved":false,"is_disabled":true,"rental_uris":{"android":"levelo://app?vid=cdb5c25c-a15a-4142-a44d-9f93b3d885b7","ios":"levelo://app?vid=cdb5c25c-a15a-4142-a44d-9f93b3d885b7"},"vehicle_type_id":"4","last_reported":1770895908,"current_range_meters":4000,"station_id":"","pricing_plan_id":"cebpf4jnsgd1na2vs0mg"},{"bike_id":"1118ee99-99a0-49dd-af67-dfd13b454eb8","system_id":"levelo_inurba_marseille","lat":43.31526,"lon":5.380367,"is_reserved":false,"is_disabled":false,"rental_uris":{"android":"levelo://app?vid=1118ee99-99a0-49dd-af67-dfd13b454eb8","ios":"levelo://app?vid=1118ee99-99a0-49dd-af67-dfd13b454eb8"},"vehicle_type_id":"4","last_reported":1770895908,"current_range_meters":4000,"station_id":"ce4bhsp2rcd13ifvqi50","pricing_plan_id":"cebpf4jnsgd1na2vs0mg"},{"bike_id":"e4f5d6b4-5214-4f51-adc4-9a51cc1f0b62","system_id":"levelo_inurba_marseille","lat":43.29257,"lon":5.40944,"is_reserved":false,"is_disabled":true,"rental_uris":{"android":"levelo://app?vid=e4f5d6b4-5214-4f51-adc4-9a51cc1f0b62","ios":"levelo://app?vid=e4f5d6b4-5214-4f51-adc4-9a51cc1f0b62"},"vehicle_type_id":"4","last_reported":1770895908,"current_range_meters":4000,"station_id":"ce4bh192rcd13ifvqdc0","pricing_plan_id":"cebpf4jnsgd1na2vs0mg"},{"bike_id":"77ce726e-b6e1-4f01-ba01-773d885bd9a8","system_id":"levelo_inurba_marseille","lat":43.26193,"lon":5.37455,"is_reserved":false,"is_disabled":false,"rental_uris":{"android":"levelo://app?vid=77ce726e-b6e1-4f01-ba01-773d885bd9a8","ios":"levelo://app?vid=77ce726e-b6e1-4f01-ba01-773d885bd9a8"},"vehicle_type_id":"4","last_reported":1770895908,"current_range_meters":4000,"station_id":"ce4bhgp2rcd13ifvqfc0","pricing_plan_id":"cebpf4jnsgd1na2vs0mg"},{"bike_id":"1a0d99f0-ee74-4956-bad4-992b0789ccc7","system_id":"levelo_inurba_marseille","lat":43.21236,"lon":5.35056,"is_reserved":false,"is_disabled":false,"rental_uris":{"android":"levelo://app?vid=1a0d99f0-ee74-4956-bad4-992b0789ccc7","ios":"levelo://app?vid=1a0d99f0-ee74-4956-bad4-992b0789ccc7"},"vehicle_type_id":"4","last_reported":1770895908,"current_range_meters":4400,"station_id":"","pricing_plan_id":"cebpf4jnsgd1na2vs0mg"},{"bike_id":"ed5f093d-1aa3-4ff9-ab82-20bb031f1bc6","system_id":"levelo_inurba_marseille","lat":43.28537,"lon":5.44095,"is_reserved":false,"is_disabled":false,"rental_uris":{"android":"levelo://app?vid=ed5f093d-1aa3-4ff9-ab82-20bb031f1bc6","ios":"levelo://app?vid=ed5f093d-1aa3-4ff9-ab82-20bb031f1bc6"},"vehicle_type_id":"4","last_reported":1770895908,"current_range_meters":4400,"station_id":"","pricing_plan_id":"cebpf4jnsgd1na2vs0mg"},{"bike_id":"debd5f4a-7048-4489-a510-0113b6b96435","system_id":"levelo_inurba_marseille","lat":43.28367,"lon":5.3863,"is_reserved":false,"is_disabled":false,"rental_uris":{"android":"levelo://app?vid=debd5f4a-7048-4489-a510-0113b6b96435","ios":"levelo://app?vid=debd5f4a-7048-4489-a510-0113b6b96435"},"vehicle_type_id":"4","last_reported":1770895908,"current_range_meters":4400,"station_id":"ce4bh492rcd13ifvqdvg","pricing_plan_id":"cebpf4jnsgd1na2vs0mg"},{"bike_id":"df15c576-fb6d-4d04-ae5c-9f90a70bc826","system_id":"levelo_inurba_marseille","lat":43.30158,"lon":5.38086,"is_reserved":false,"is_disabled":false,"rental_uris":{"android":"levelo://app?vid=df15c576-fb6d-4d04-ae5c-9f90a70bc826","ios":"levelo://app?vid=df15c576-fb6d-4d04-ae5c-9f90a70bc826"},"vehicle_type_id":"4","last_reported":1770895908,"current_range_meters":4400,"station_id":"ce4bgjp2rcd13ifvqbh0","pricing_plan_id":"cebpf4jnsgd1na2vs0mg"},{"bike_id":"a3543831-c3e4-4635-9427-5716742829d8","system_id":"levelo_inurba_marseille","lat":43.27303,"lon":5.39071,"is_reserved":false,"is_disabled":false,"rental_uris":{"android":"levelo://app?vid=a3543831-c3e4-4635-9427-5716742829d8","ios":"levelo://app?vid=a3543831-c3e4-4635-9427-5716742829d8"},"vehicle_type_id":"4","last_reported":1770895908,"current_range_meters":4400,"station_id":"ce4bhgp2rcd13ifvqfe0","pricing_plan_id":"cebpf4jnsgd1na2vs0mg"},{"bike_id":"4b9871c7-5c39-4b17-a1ab-7466a2e49c3f","system_id":"levelo_inurba_marseille","lat":43.25917,"lon":5.40887,"is_reserved":false,"is_disabled":false,"rental_uris":{"android":"levelo://app?vid=4b9871c7-5c39-4b17-a1ab-7466a2e49c3f","ios":"levelo://app?vid=4b9871c7-5c39-4b17-a1ab-7466a2e49c3f"},"vehicle_type_id":"4","last_reported":1770895908,"current_range_meters":4800,"station_id":"ce4bhm92rcd13ifvqglg","pricing_plan_id":"cebpf4jnsgd1na2vs0mg"},{"bike_id":"0d60f49b-2168-485f-9c8c-8bf326d0ba55","system_id":"levelo_inurba_marseille","lat":43.24507,"lon":5.42463,"is_reserved":false,"is_disabled":false,"rental_uris":{"android":"levelo://app?vid=0d60f49b-2168-485f-9c8c-8bf326d0ba55","ios":"levelo://app?vid=0d60f49b-2168-485f-9c8c-8bf326d0ba55"},"vehicle_type_id":"4","last_reported":1770895908,"current_range_meters":4800,"station_id":"","pricing_plan_id":"cebpf4jnsgd1na2vs0mg"},{"bike_id":"d16e8676-bb91-42bf-b68a-481193eb39f4","system_id":"levelo_inurba_marseille","lat":43.24685,"lon":5.38084,"is_reserved":false,"is_disabled":false,"rental_uris":{"android":"levelo://app?vid=d16e8676-bb91-42bf-b68a-481193eb39f4","ios":"levelo://app?vid=d16e8676-bb91-42bf-b68a-481193eb39f4"},"vehicle_type_id":"4","last_reported":1770895908,"current_range_meters":4800,"station_id":"","pricing_plan_id":"cebpf4jnsgd1na2vs0mg"},{"bike_id":"dbb822cd-9cbd-4525-b13a-a83dd16c1a88","system_id":"levelo_inurba_marseille","lat":43.24134,"lon":5.37681,"is_reserved":false,"is_disabled":false,"rental_uris":{"android":"levelo://app?vid=dbb822cd-9cbd-4525-b13a-a83dd16c1a88","ios":"levelo://app?vid=dbb822cd-9cbd-4525-b13a-a83dd16c1a88"},"vehicle_type_id":"4","last_reported":1770895908,"current_range_meters":4800,"station_id":"","pricing_plan_id":"cebpf4jnsgd1na2vs0mg"},{"bike_id":"663638d3-9f5d-4e70-9e63-17ec7aafe450","system_id":"levelo_inurba_marseille","lat":43.28697,"lon":5.37365,"is_reserved":false,"is_disabled":false,"rental_uris":{"android":"levelo://app?vid=663638d3-9f5d-4e70-9e63-17ec7aafe450","ios":"levelo://app?vid=663638d3-9f5d-4e70-9e63-17ec7aafe450"},"vehicle_type_id":"4","last_reported":1770895908,"current_range_meters":4800,"station_id":"ce4bh3p2rcd13ifvqdq0","pricing_plan_id":"cebpf4jnsgd1na2vs0mg"},{"bike_id":"9e3bc487-b0e5-43b2-98b8-caa6f87f206e","system_id":"levelo_inurba_marseille","lat":43.31722,"lon":5.37767,"is_reserved":false,"is_disabled":false,"rental_uris":{"android":"levelo://app?vid=9e3bc487-b0e5-43b2-98b8-caa6f87f206e","ios":"levelo://app?vid=9e3bc487-b0e5-43b2-98b8-caa6f87f206e"},"vehicle_type_id":"4","last_reported":1770895908,"current_range_meters":4800,"station_id":"ce4bgth2rcd13ifvqch0","pricing_plan_id":"cebpf4jnsgd1na2vs0mg"},{"bike_id":"ac9a885a-fe7d-4871-905c-95e91acf3aa8","system_id":"levelo_inurba_marseille","lat":43.22569,"lon":5.41628,"is_reserved":false,"is_disabled":false,"rental_uris":{"android":"levelo://app?vid=ac9a885a-fe7d-4871-905c-95e91acf3aa8","ios":"levelo://app?vid=ac9a885a-fe7d-4871-905c-95e91acf3aa8"},"vehicle_type_id":"4","last_reported":1770895908,"current_range_meters":4800,"station_id":"st_d2o4gvlbi1j2169b742g","pricing_plan_id":"cebpf4jnsgd1na2vs0mg"},{"bike_id":"babdcd4a-655b-4e95-88f5-77a8529739da","system_id":"levelo_inurba_marseille","lat":43.22563,"lon":5.41644,"is_reserved":false,"is_disabled":false,"rental_uris":{"android":"levelo://app?vid=babdcd4a-655b-4e95-88f5-77a8529739da","ios":"levelo://app?vid=babdcd4a-655b-4e95-88f5-77a8529739da"},"vehicle_type_id":"4","last_reported":1770895908,"current_range_meters":4800,"station_id":"st_d2o4gvlbi1j2169b742g","pricing_plan_id":"cebpf4jnsgd1na2vs0mg"},{"bike_id":"f8770055-4706-42e1-82ea-33bb2eb70def","system_id":"levelo_inurba_marseille","lat":43.29885,"lon":5.38148,"is_reserved":false,"is_disabled":false,"rental_uris":{"android":"levelo://app?vid=f8770055-4706-42e1-82ea-33bb2eb70def","ios":"levelo://app?vid=f8770055-4706-42e1-82ea-33bb2eb70def"},"vehicle_type_id":"4","last_reported":1770895908,"current_range_meters":4800,"station_id":"ce4bgj12rcd13ifvqbc0","pricing_plan_id":"cebpf4jnsgd1na2vs0mg"},{"bike_id":"cc43a2a6-4df1-46ee-89a5-e5908a5338ed","system_id":"levelo_inurba_marseille","lat":43.28482,"lon":5.48387,"is_reserved":false,"is_disabled":false,"rental_uris":{"android":"levelo://app?vid=cc43a2a6-4df1-46ee-89a5-e5908a5338ed","ios":"levelo://app?vid=cc43a2a6-4df1-46ee-89a5-e5908a5338ed"},"vehicle_type_id":"4","last_reported":1770895908,"current_range_meters":4800,"station_id":"st_d3svhcjqgbts73a3dn0g","pricing_plan_id":"cebpf4jnsgd1na2vs0mg"},{"bike_id":"03c22168-23b9-4a4c-a686-068379a03132","system_id":"levelo_inurba_marseille","lat":43.3136,"lon":5.36699,"is_reserved":false,"is_disabled":false,"rental_uris":{"android":"levelo://app?vid=03c22168-23b9-4a4c-a686-068379a03132","ios":"levelo://app?vid=03c22168-23b9-4a4c-a686-068379a03132"},"vehicle_type_id":"4","last_reported":1770895908,"current_range_meters":4800,"station_id":"ce4bgr92rcd13ifvqc6g","pricing_plan_id":"cebpf4jnsgd1na2vs0mg"},{"bike_id":"9df34885-ac04-43a6-b4c2-df2cea230626","system_id":"levelo_inurba_marseille","lat":43.31273,"lon":5.36818,"is_reserved":false,"is_disabled":false,"rental_uris":{"android":"levelo://app?vid=9df34885-ac04-43a6-b4c2-df2cea230626","ios":"levelo://app?vid=9df34885-ac04-43a6-b4c2-df2cea230626"},"vehicle_type_id":"4","last_reported":1770895908,"current_range_meters":5600,"station_id":"","pricing_plan_id":"cebpf4jnsgd1na2vs0mg"},{"bike_id":"e0fbe2f8-ab68-4aab-bf94-e8456ef6a8aa","system_id":"levelo_inurba_marseille","lat":43.29287,"lon":5.40147,"is_reserved":false,"is_disabled":false,"rental_uris":{"android":"levelo://app?vid=e0fbe2f8-ab68-4aab-bf94-e8456ef6a8aa","ios":"levelo://app?vid=e0fbe2f8-ab68-4aab-bf94-e8456ef6a8aa"},"vehicle_type_id":"4","last_reported":1770895908,"current_range_meters":5600,"station_id":"ce4bh312rcd13ifvqdk0","pricing_plan_id":"cebpf4jnsgd1na2vs0mg"},{"bike_id":"774d4e87-87f1-493b-9eb3-2a3924560fcb","system_id":"levelo_inurba_marseille","lat":43.31354,"lon":5.36734,"is_reserved":false,"is_disabled":false,"rental_uris":{"android":"levelo://app?vid=774d4e87-87f1-493b-9eb3-2a3924560fcb","ios":"levelo://app?vid=774d4e87-87f1-493b-9eb3-2a3924560fcb"},"vehicle_type_id":"4","last_reported":1770895908,"current_range_meters":5600,"station_id":"ce4bgr92rcd13ifvqc6g","pricing_plan_id":"cebpf4jnsgd1na2vs0mg"},{"bike_id":"b5d497a0-d7f8-4919-937c-9cc2531f3df5","system_id":"levelo_inurba_marseille","lat":43.31317,"lon":5.39698,"is_reserved":false,"is_disabled":false,"rental_uris":{"android":"levelo://app?vid=b5d497a0-d7f8-4919-937c-9cc2531f3df5","ios":"levelo://app?vid=b5d497a0-d7f8-4919-937c-9cc2531f3df5"},"vehicle_type_id":"4","last_reported":1770895908,"current_range_meters":5600,"station_id":"ce4bgvp2rcd13ifvqcu0","pricing_plan_id":"cebpf4jnsgd1na2vs0mg"},{"bike_id":"5aa33bc9-8004-4ad2-a1fc-1498231f0707","system_id":"levelo_inurba_marseille","lat":43.27056,"lon":5.40258,"is_reserved":false,"is_disabled":false,"rental_uris":{"android":"levelo://app?vid=5aa33bc9-8004-4ad2-a1fc-1498231f0707","ios":"levelo://app?vid=5aa33bc9-8004-4ad2-a1fc-1498231f0707"},"vehicle_type_id":"4","last_reported":1770895908,"current_range_meters":5600,"station_id":"ce4bhk92rcd13ifvqgc0","pricing_plan_id":"cebpf4jnsgd1na2vs0mg"},{"bike_id":"8b4b38ac-f6cb-48ed-90a4-30149ea67fd7","system_id":"levelo_inurba_marseille","lat":43.29195,"lon":5.39649,"is_reserved":false,"is_disabled":false,"rental_uris":{"android":"levelo://app?vid=8b4b38ac-f6cb-48ed-90a4-30149ea67fd7","ios":"levelo://app?vid=8b4b38ac-f6cb-48ed-90a4-30149ea67fd7"},"vehicle_type_id":"4","last_reported":1770895908,"current_range_meters":5600,"station_id":"","pricing_plan_id":"cebpf4jnsgd1na2vs0mg"},{"bike_id":"1e80b447-0658-4f03-bca6-f085a327c327","system_id":"levelo_inurba_marseille","lat":43.299,"lon":5.38139,"is_reserved":false,"is_disabled":false,"rental_uris":{"android":"levelo://app?vid=1e80b447-0658-4f03-bca6-f085a327c327","ios":"levelo://app?vid=1e80b447-0658-4f03-bca6-f085a327c327"},"vehicle_type_id":"4","last_reported":1770895908,"current_range_meters":5600,"station_id":"ce4bgj12rcd13ifvqbc0","pricing_plan_id":"cebpf4jnsgd1na2vs0mg"},{"bike_id":"de4bd3f4-357e-41cc-bee3-cedde9502c89","system_id":"levelo_inurba_marseille","lat":43.31412,"lon":5.36718,"is_reserved":false,"is_disabled":false,"rental_uris":{"android":"levelo://app?vid=de4bd3f4-357e-41cc-bee3-cedde9502c89","ios":"levelo://app?vid=de4bd3f4-357e-41cc-bee3-cedde9502c89"},"vehicle_type_id":"4","last_reported":1770895908,"current_range_meters":5600,"station_id":"","pricing_plan_id":"cebpf4jnsgd1na2vs0mg"},{"bike_id":"9c4fa197-e784-47a1-9a3e-1e64aa186f14","system_id":"levelo_inurba_marseille","lat":43.25941,"lon":5.40922,"is_reserved":false,"is_disabled":false,"rental_uris":{"android":"levelo://app?vid=9c4fa197-e784-47a1-9a3e-1e64aa186f14","ios":"levelo://app?vid=9c4fa197-e784-47a1-9a3e-1e64aa186f14"},"vehicle_type_id":"4","last_reported":1770895908,"current_range_meters":6000,"station_id":"ce4bhm92rcd13ifvqglg","pricing_plan_id":"cebpf4jnsgd1na2vs0mg"},{"bike_id":"fdcca747-1f0c-4265-9d25-6a349973ec5d","system_id":"levelo_inurba_marseille","lat":43.33357,"lon":5.38285,"is_reserved":false,"is_disabled":false,"rental_uris":{"android":"levelo://app?vid=fdcca747-1f0c-4265-9d25-6a349973ec5d","ios":"levelo://app?vid=fdcca747-1f0c-4265-9d25-6a349973ec5d"},"vehicle_type_id":"4","last_reported":1770895908,"current_range_meters":6000,"station_id":"st_d46cu089ee8s73dldbu0","pricing_plan_id":"cebpf4jnsgd1na2vs0mg"},{"bike_id":"8eacced8-272b-41d9-9397-61b329ca6fac","system_id":"levelo_inurba_marseille","lat":43.25951,"lon":5.40893,"is_reserved":false,"is_disabled":false,"rental_uris":{"android":"levelo://app?vid=8eacced8-272b-41d9-9397-61b329ca6fac","ios":"levelo://app?vid=8eacced8-272b-41d9-9397-61b329ca6fac"},"vehicle_type_id":"4","last_reported":1770895908,"current_range_meters":6000,"station_id":"ce4bhm92rcd13ifvqglg","pricing_plan_id":"cebpf4jnsgd1na2vs0mg"},{"bike_id":"9db9fb01-2177-4a81-b437-0dcae5fda6d4","system_id":"levelo_inurba_marseille","lat":43.23189,"lon":5.3999,"is_reserved":false,"is_disabled":false,"rental_uris":{"android":"levelo://app?vid=9db9fb01-2177-4a81-b437-0dcae5fda6d4","ios":"levelo://app?vid=9db9fb01-2177-4a81-b437-0dcae5fda6d4"},"vehicle_type_id":"4","last_reported":1770895908,"current_range_meters":6000,"station_id":"ce4bhn12rcd13ifvqgqg","pricing_plan_id":"cebpf4jnsgd1na2vs0mg"},{"bike_id":"1df4945b-395d-45e4-8508-764423953f10","system_id":"levelo_inurba_marseille","lat":43.29227,"lon":5.36077,"is_reserved":false,"is_disabled":false,"rental_uris":{"android":"levelo://app?vid=1df4945b-395d-45e4-8508-764423953f10","ios":"levelo://app?vid=1df4945b-395d-45e4-8508-764423953f10"},"vehicle_type_id":"4","last_reported":1770895908,"current_range_meters":6000,"station_id":"ce4bhbh2rcd13ifvqeqg","pricing_plan_id":"cebpf4jnsgd1na2vs0mg"},{"bike_id":"a64f1051-a316-44ad-9fb5-5f1868af907b","system_id":"levelo_inurba_marseille","lat":43.25895,"lon":5.40915,"is_reserved":false,"is_disabled":false,"rental_uris":{"android":"levelo://app?vid=a64f1051-a316-44ad-9fb5-5f1868af907b","ios":"levelo://app?vid=a64f1051-a316-44ad-9fb5-5f1868af907b"},"vehicle_type_id":"4","last_reported":1770895908,"current_range_meters":6000,"station_id":"ce4bhm92rcd13ifvqglg","pricing_plan_id":"cebpf4jnsgd1na2vs0mg"},{"bike_id":"d997c6b7-acb1-4efa-ae35-2d8c161e2e69","system_id":"levelo_inurba_marseille","lat":43.23193,"lon":5.35551,"is_reserved":false,"is_disabled":false,"rental_uris":{"android":"levelo://app?vid=d997c6b7-acb1-4efa-ae35-2d8c161e2e69","ios":"levelo://app?vid=d997c6b7-acb1-4efa-ae35-2d8c161e2e69"},"vehicle_type_id":"4","last_reported":1770895908,"current_range_meters":6400,"station_id":"ce4bhu92rcd13ifvqi70","pricing_plan_id":"cebpf4jnsgd1na2vs0mg"},{"bike_id":"0898fae2-5599-42e1-b573-0ececcf16ad2","system_id":"levelo_inurba_marseille","lat":43.29802,"lon":5.37101,"is_reserved":false,"is_disabled":false,"rental_uris":{"android":"levelo://app?vid=0898fae2-5599-42e1-b573-0ececcf16ad2","ios":"levelo://app?vid=0898fae2-5599-42e1-b573-0ececcf16ad2"},"vehicle_type_id":"4","last_reported":1770895908,"current_range_meters":6400,"station_id":"ce4bgop2rcd13ifvqc1g","pricing_plan_id":"cebpf4jnsgd1na2vs0mg"},{"bike_id":"5fda65b6-7f98-4bf6-b2de-a2c95ed917cc","system_id":"levelo_inurba_marseille","lat":43.25463,"lon":5.38444,"is_reserved":false,"is_disabled":false,"rental_uris":{"android":"levelo://app?vid=5fda65b6-7f98-4bf6-b2de-a2c95ed917cc","ios":"levelo://app?vid=5fda65b6-7f98-4bf6-b2de-a2c95ed917cc"},"vehicle_type_id":"4","last_reported":1770895908,"current_range_meters":6400,"station_id":"","pricing_plan_id":"cebpf4jnsgd1na2vs0mg"},{"bike_id":"1eab5fb7-9337-43ee-91d2-e864b1a6d134","system_id":"levelo_inurba_marseille","lat":43.23162,"lon":5.43727,"is_reserved":false,"is_disabled":false,"rental_uris":{"android":"levelo://app?vid=1eab5fb7-9337-43ee-91d2-e864b1a6d134","ios":"levelo://app?vid=1eab5fb7-9337-43ee-91d2-e864b1a6d134"},"vehicle_type_id":"4","last_reported":1770895908,"current_range_meters":6400,"station_id":"ce4bhmp2rcd13ifvqgog","pricing_plan_id":"cebpf4jnsgd1na2vs0mg"},{"bike_id":"eb9d66ff-a612-4121-8b67-1d84deda7e3a","system_id":"levelo_inurba_marseille","lat":43.3313,"lon":5.377304,"is_reserved":false,"is_disabled":false,"rental_uris":{"android":"levelo://app?vid=eb9d66ff-a612-4121-8b67-1d84deda7e3a","ios":"levelo://app?vid=eb9d66ff-a612-4121-8b67-1d84deda7e3a"},"vehicle_type_id":"4","last_reported":1770895908,"current_range_meters":6400,"station_id":"st_d46cu089ee8s73dldbu0","pricing_plan_id":"cebpf4jnsgd1na2vs0mg"},{"bike_id":"4b2437f5-c451-4694-a9f7-695c92d34cd2","system_id":"levelo_inurba_marseille","lat":43.29527,"lon":5.39398,"is_reserved":false,"is_disabled":false,"rental_uris":{"android":"levelo://app?vid=4b2437f5-c451-4694-a9f7-695c92d34cd2","ios":"levelo://app?vid=4b2437f5-c451-4694-a9f7-695c92d34cd2"},"vehicle_type_id":"4","last_reported":1770895908,"current_range_meters":6400,"station_id":"ce4bh292rcd13ifvqdf0","pricing_plan_id":"cebpf4jnsgd1na2vs0mg"},{"bike_id":"1d262795-ca7c-4031-9a1c-1befe1b2e85b","system_id":"levelo_inurba_marseille","lat":43.26975,"lon":5.3863,"is_reserved":false,"is_disabled":false,"rental_uris":{"android":"levelo://app?vid=1d262795-ca7c-4031-9a1c-1befe1b2e85b","ios":"levelo://app?vid=1d262795-ca7c-4031-9a1c-1befe1b2e85b"},"vehicle_type_id":"4","last_reported":1770895908,"current_range_meters":6800,"station_id":"ce4bhh92rcd13ifvqfh0","pricing_plan_id":"cebpf4jnsgd1na2vs0mg"},{"bike_id":"6673ac44-296d-4959-9b90-4bd46007de83","system_id":"levelo_inurba_marseille","lat":43.24374,"lon":5.37046,"is_reserved":false,"is_disabled":false,"rental_uris":{"android":"levelo://app?vid=6673ac44-296d-4959-9b90-4bd46007de83","ios":"levelo://app?vid=6673ac44-296d-4959-9b90-4bd46007de83"},"vehicle_type_id":"4","last_reported":1770895908,"current_range_meters":6800,"station_id":"ce4bhhh2rcd13ifvqfk0","pricing_plan_id":"cebpf4jnsgd1na2vs0mg"},{"bike_id":"73022bc6-390d-4043-a19d-d1ca32a8b2f8","system_id":"levelo_inurba_marseille","lat":43.25338,"lon":5.42172,"is_reserved":false,"is_disabled":false,"rental_uris":{"android":"levelo://app?vid=73022bc6-390d-4043-a19d-d1ca32a8b2f8","ios":"levelo://app?vid=73022bc6-390d-4043-a19d-d1ca32a8b2f8"},"vehicle_type_id":"4","last_reported":1770895908,"current_range_meters":6800,"station_id":"st_d2m65c5bi1j21697t3ng","pricing_plan_id":"cebpf4jnsgd1na2vs0mg"},{"bike_id":"406b8143-680c-411e-8da6-8818c609b259","system_id":"levelo_inurba_marseille","lat":43.22932,"lon":5.35379,"is_reserved":false,"is_disabled":false,"rental_uris":{"android":"levelo://app?vid=406b8143-680c-411e-8da6-8818c609b259","ios":"levelo://app?vid=406b8143-680c-411e-8da6-8818c609b259"},"vehicle_type_id":"4","last_reported":1770895908,"current_range_meters":6800,"station_id":"cpo3532slgdg3j2ikp40","pricing_plan_id":"cebpf4jnsgd1na2vs0mg"},{"bike_id":"669b2c5b-7a70-4d42-8495-b95d1ef13a55","system_id":"levelo_inurba_marseille","lat":43.30473,"lon":5.37898,"is_reserved":false,"is_disabled":false,"rental_uris":{"android":"levelo://app?vid=669b2c5b-7a70-4d42-8495-b95d1ef13a55","ios":"levelo://app?vid=669b2c5b-7a70-4d42-8495-b95d1ef13a55"},"vehicle_type_id":"4","last_reported":1770895908,"current_range_meters":6800,"station_id":"ce4bgup2rcd13ifvqcn0","pricing_plan_id":"cebpf4jnsgd1na2vs0mg"},{"bike_id":"90237c2e-706a-4da7-9fce-cbc541d555c0","system_id":"levelo_inurba_marseille","lat":43.30804,"lon":5.36892,"is_reserved":false,"is_disabled":false,"rental_uris":{"android":"levelo://app?vid=90237c2e-706a-4da7-9fce-cbc541d555c0","ios":"levelo://app?vid=90237c2e-706a-4da7-9fce-cbc541d555c0"},"vehicle_type_id":"4","last_reported":1770895908,"current_range_meters":6800,"station_id":"","pricing_plan_id":"cebpf4jnsgd1na2vs0mg"},{"bike_id":"d1574af6-3c40-45ed-a468-ede3d52f1a53","system_id":"levelo_inurba_marseille","lat":43.30486,"lon":5.37914,"is_reserved":false,"is_disabled":false,"rental_uris":{"android":"levelo://app?vid=d1574af6-3c40-45ed-a468-ede3d52f1a53","ios":"levelo://app?vid=d1574af6-3c40-45ed-a468-ede3d52f1a53"},"vehicle_type_id":"4","last_reported":1770895908,"current_range_meters":6800,"station_id":"","pricing_plan_id":"cebpf4jnsgd1na2vs0mg"},{"bike_id":"36c518eb-1a27-476b-bf5a-c42d77a8b635","system_id":"levelo_inurba_marseille","lat":43.31895,"lon":5.40725,"is_reserved":false,"is_disabled":false,"rental_uris":{"android":"levelo://app?vid=36c518eb-1a27-476b-bf5a-c42d77a8b635","ios":"levelo://app?vid=36c518eb-1a27-476b-bf5a-c42d77a8b635"},"vehicle_type_id":"4","last_reported":1770895908,"current_range_meters":7200,"station_id":"ce4bhq12rcd13ifvqhig","pricing_plan_id":"cebpf4jnsgd1na2vs0mg"},{"bike_id":"eb153995-5d33-4b1d-a5c0-ee8cc4302ea8","system_id":"levelo_inurba_marseille","lat":43.26607,"lon":5.39042,"is_reserved":false,"is_disabled":false,"rental_uris":{"android":"levelo://app?vid=eb153995-5d33-4b1d-a5c0-ee8cc4302ea8","ios":"levelo://app?vid=eb153995-5d33-4b1d-a5c0-ee8cc4302ea8"},"vehicle_type_id":"4","last_reported":1770895908,"current_range_meters":7200,"station_id":"","pricing_plan_id":"cebpf4jnsgd1na2vs0mg"},{"bike_id":"adedccca-d77d-4967-91ed-2661b5b510ba","system_id":"levelo_inurba_marseille","lat":43.22558,"lon":5.4164,"is_reserved":false,"is_disabled":false,"rental_uris":{"android":"levelo://app?vid=adedccca-d77d-4967-91ed-2661b5b510ba","ios":"levelo://app?vid=adedccca-d77d-4967-91ed-2661b5b510ba"},"vehicle_type_id":"4","last_reported":1770895908,"current_range_meters":7200,"station_id":"st_d2o4gvlbi1j2169b742g","pricing_plan_id":"cebpf4jnsgd1na2vs0mg"},{"bike_id":"3d5573f0-d9c2-4043-8713-9d88a4ec49dd","system_id":"levelo_inurba_marseille","lat":43.26205,"lon":5.3793,"is_reserved":false,"is_disabled":false,"rental_uris":{"android":"levelo://app?vid=3d5573f0-d9c2-4043-8713-9d88a4ec49dd","ios":"levelo://app?vid=3d5573f0-d9c2-4043-8713-9d88a4ec49dd"},"vehicle_type_id":"4","last_reported":1770895908,"current_range_meters":7200,"station_id":"ce4bhjp2rcd13ifvqg90","pricing_plan_id":"cebpf4jnsgd1na2vs0mg"},{"bike_id":"0ef78b6e-8559-43ba-8d8d-862e2747f540","system_id":"levelo_inurba_marseille","lat":43.30486,"lon":5.37902,"is_reserved":false,"is_disabled":false,"rental_uris":{"android":"levelo://app?vid=0ef78b6e-8559-43ba-8d8d-862e2747f540","ios":"levelo://app?vid=0ef78b6e-8559-43ba-8d8d-862e2747f540"},"vehicle_type_id":"4","last_reported":1770895908,"current_range_meters":7200,"station_id":"ce4bgup2rcd13ifvqcn0","pricing_plan_id":"cebpf4jnsgd1na2vs0mg"},{"bike_id":"fae6f9ad-1ce9-4c67-ad0b-a143fc20e682","system_id":"levelo_inurba_marseille","lat":43.24996,"lon":5.3893,"is_reserved":false,"is_disabled":false,"rental_uris":{"android":"levelo://app?vid=fae6f9ad-1ce9-4c67-ad0b-a143fc20e682","ios":"levelo://app?vid=fae6f9ad-1ce9-4c67-ad0b-a143fc20e682"},"vehicle_type_id":"4","last_reported":1770895908,"current_range_meters":7200,"station_id":"ce4bhgp2rcd13ifvqfd0","pricing_plan_id":"cebpf4jnsgd1na2vs0mg"},{"bike_id":"b44fea8e-0627-4627-b40f-e0f59c5c4323","system_id":"levelo_inurba_marseille","lat":43.2799,"lon":5.4166,"is_reserved":false,"is_disabled":false,"rental_uris":{"android":"levelo://app?vid=b44fea8e-0627-4627-b40f-e0f59c5c4323","ios":"levelo://app?vid=b44fea8e-0627-4627-b40f-e0f59c5c4323"},"vehicle_type_id":"4","last_reported":1770895908,"current_range_meters":7200,"station_id":"ce4bho12rcd13ifvqh1g","pricing_plan_id":"cebpf4jnsgd1na2vs0mg"},{"bike_id":"1666b265-643d-41e7-bcc3-6167a6d49f91","system_id":"levelo_inurba_marseille","lat":43.22533,"lon":5.34847,"is_reserved":false,"is_disabled":false,"rental_uris":{"android":"levelo://app?vid=1666b265-643d-41e7-bcc3-6167a6d49f91","ios":"levelo://app?vid=1666b265-643d-41e7-bcc3-6167a6d49f91"},"vehicle_type_id":"4","last_reported":1770895908,"current_range_meters":8000,"station_id":"","pricing_plan_id":"cebpf4jnsgd1na2vs0mg"},{"bike_id":"f3640d2f-d396-4ee0-9652-453ad22676a3","system_id":"levelo_inurba_marseille","lat":43.3111,"lon":5.37754,"is_reserved":false,"is_disabled":false,"rental_uris":{"android":"levelo://app?vid=f3640d2f-d396-4ee0-9652-453ad22676a3","ios":"levelo://app?vid=f3640d2f-d396-4ee0-9652-453ad22676a3"},"vehicle_type_id":"4","last_reported":1770895908,"current_range_meters":8000,"station_id":"ce4bgt92rcd13ifvqcg0","pricing_plan_id":"cebpf4jnsgd1na2vs0mg"},{"bike_id":"5f6ae4c8-a7cd-4f3b-9adf-671bbd618c70","system_id":"levelo_inurba_marseille","lat":43.25576,"lon":5.38243,"is_reserved":false,"is_disabled":false,"rental_uris":{"android":"levelo://app?vid=5f6ae4c8-a7cd-4f3b-9adf-671bbd618c70","ios":"levelo://app?vid=5f6ae4c8-a7cd-4f3b-9adf-671bbd618c70"},"vehicle_type_id":"4","last_reported":1770895908,"current_range_meters":8000,"station_id":"ce4bhih2rcd13ifvqfs0","pricing_plan_id":"cebpf4jnsgd1na2vs0mg"},{"bike_id":"a95bcbb6-9652-453d-a5aa-66a13cd5401c","system_id":"levelo_inurba_marseille","lat":43.25939,"lon":5.409,"is_reserved":false,"is_disabled":false,"rental_uris":{"android":"levelo://app?vid=a95bcbb6-9652-453d-a5aa-66a13cd5401c","ios":"levelo://app?vid=a95bcbb6-9652-453d-a5aa-66a13cd5401c"},"vehicle_type_id":"4","last_reported":1770895908,"current_range_meters":8000,"station_id":"ce4bhm92rcd13ifvqglg","pricing_plan_id":"cebpf4jnsgd1na2vs0mg"},{"bike_id":"661c1ad9-8e78-490b-aa77-0dd317a910f6","system_id":"levelo_inurba_marseille","lat":43.2719,"lon":5.39192,"is_reserved":false,"is_disabled":true,"rental_uris":{"android":"levelo://app?vid=661c1ad9-8e78-490b-aa77-0dd317a910f6","ios":"levelo://app?vid=661c1ad9-8e78-490b-aa77-0dd317a910f6"},"vehicle_type_id":"4","last_reported":1770895908,"current_range_meters":8000,"station_id":"ce4bhhp2rcd13ifvqfm0","pricing_plan_id":"cebpf4jnsgd1na2vs0mg"},{"bike_id":"ce71dd22-bdbd-4c26-b532-621af75318ca","system_id":"levelo_inurba_marseille","lat":43.29237,"lon":5.40863,"is_reserved":false,"is_disabled":false,"rental_uris":{"android":"levelo://app?vid=ce71dd22-bdbd-4c26-b532-621af75318ca","ios":"levelo://app?vid=ce71dd22-bdbd-4c26-b532-621af75318ca"},"vehicle_type_id":"4","last_reported":1770895908,"current_range_meters":8000,"station_id":"ce4bh192rcd13ifvqdc0","pricing_plan_id":"cebpf4jnsgd1na2vs0mg"},{"bike_id":"46bd018f-3ddc-47ce-9b3f-33f22f379846","system_id":"levelo_inurba_marseille","lat":43.3055,"lon":5.38447,"is_reserved":false,"is_disabled":false,"rental_uris":{"android":"levelo://app?vid=46bd018f-3ddc-47ce-9b3f-33f22f379846","ios":"levelo://app?vid=46bd018f-3ddc-47ce-9b3f-33f22f379846"},"vehicle_type_id":"4","last_reported":1770895908,"current_range_meters":8000,"station_id":"ce4bgg92rcd13ifvqb30","pricing_plan_id":"cebpf4jnsgd1na2vs0mg"},{"bike_id":"c63de082-b362-476e-89a1-bbd83d2baeac","system_id":"levelo_inurba_marseille","lat":43.26533,"lon":5.37318,"is_reserved":false,"is_disabled":true,"rental_uris":{"android":"levelo://app?vid=c63de082-b362-476e-89a1-bbd83d2baeac","ios":"levelo://app?vid=c63de082-b362-476e-89a1-bbd83d2baeac"},"vehicle_type_id":"4","last_reported":1770895908,"current_range_meters":8000,"station_id":"ce4bhg12rcd13ifvqf70","pricing_plan_id":"cebpf4jnsgd1na2vs0mg"},{"bike_id":"46939c8e-825e-45ec-ac05-85d9fb0a4528","system_id":"levelo_inurba_marseille","lat":43.31129,"lon":5.3685,"is_reserved":false,"is_disabled":false,"rental_uris":{"android":"levelo://app?vid=46939c8e-825e-45ec-ac05-85d9fb0a4528","ios":"levelo://app?vid=46939c8e-825e-45ec-ac05-85d9fb0a4528"},"vehicle_type_id":"4","last_reported":1770895908,"current_range_meters":8000,"station_id":"","pricing_plan_id":"cebpf4jnsgd1na2vs0mg"},{"bike_id":"989b5b08-d948-4be9-bc29-7318c8ff2142","system_id":"levelo_inurba_marseille","lat":43.24628,"lon":5.43144,"is_reserved":false,"is_disabled":false,"rental_uris":{"android":"levelo://app?vid=989b5b08-d948-4be9-bc29-7318c8ff2142","ios":"levelo://app?vid=989b5b08-d948-4be9-bc29-7318c8ff2142"},"vehicle_type_id":"4","last_reported":1770895908,"current_range_meters":8000,"station_id":"st_d2m6c4gdas8pm72e190g","pricing_plan_id":"cebpf4jnsgd1na2vs0mg"},{"bike_id":"2ef83d60-3093-41f6-8db9-e64cad44aa7b","system_id":"levelo_inurba_marseille","lat":43.27327,"lon":5.39102,"is_reserved":false,"is_disabled":false,"rental_uris":{"android":"levelo://app?vid=2ef83d60-3093-41f6-8db9-e64cad44aa7b","ios":"levelo://app?vid=2ef83d60-3093-41f6-8db9-e64cad44aa7b"},"vehicle_type_id":"4","last_reported":1770895908,"current_range_meters":8000,"station_id":"ce4bhgp2rcd13ifvqfe0","pricing_plan_id":"cebpf4jnsgd1na2vs0mg"},{"bike_id":"52c5007b-88c9-4d1c-9fe2-488c4cdcfbef","system_id":"levelo_inurba_marseille","lat":43.25868,"lon":5.39888,"is_reserved":false,"is_disabled":false,"rental_uris":{"android":"levelo://app?vid=52c5007b-88c9-4d1c-9fe2-488c4cdcfbef","ios":"levelo://app?vid=52c5007b-88c9-4d1c-9fe2-488c4cdcfbef"},"vehicle_type_id":"4","last_reported":1770895908,"current_range_meters":8400,"station_id":"ce4bhl92rcd13ifvqghg","pricing_plan_id":"cebpf4jnsgd1na2vs0mg"},{"bike_id":"d5cb988e-8285-42af-a2f5-2f2e76b7d7bd","system_id":"levelo_inurba_marseille","lat":43.29821,"lon":5.38093,"is_reserved":false,"is_disabled":false,"rental_uris":{"android":"levelo://app?vid=d5cb988e-8285-42af-a2f5-2f2e76b7d7bd","ios":"levelo://app?vid=d5cb988e-8285-42af-a2f5-2f2e76b7d7bd"},"vehicle_type_id":"4","last_reported":1770895908,"current_range_meters":8400,"station_id":"ce4bgip2rcd13ifvqbb0","pricing_plan_id":"cebpf4jnsgd1na2vs0mg"},{"bike_id":"2e5550f9-f008-4237-8bd6-122cbd7ea3cb","system_id":"levelo_inurba_marseille","lat":43.2637,"lon":5.41062,"is_reserved":false,"is_disabled":false,"rental_uris":{"android":"levelo://app?vid=2e5550f9-f008-4237-8bd6-122cbd7ea3cb","ios":"levelo://app?vid=2e5550f9-f008-4237-8bd6-122cbd7ea3cb"},"vehicle_type_id":"4","last_reported":1770895908,"current_range_meters":8400,"station_id":"st_d4e5ca6na9uc73bfl5fg","pricing_plan_id":"cebpf4jnsgd1na2vs0mg"},{"bike_id":"8ed87586-dad5-4852-a9e4-08b525111006","system_id":"levelo_inurba_marseille","lat":43.29859,"lon":5.3629,"is_reserved":false,"is_disabled":false,"rental_uris":{"android":"levelo://app?vid=8ed87586-dad5-4852-a9e4-08b525111006","ios":"levelo://app?vid=8ed87586-dad5-4852-a9e4-08b525111006"},"vehicle_type_id":"4","last_reported":1770895908,"current_range_meters":8400,"station_id":"ce4bgpp2rcd13ifvqc3g","pricing_plan_id":"cebpf4jnsgd1na2vs0mg"},{"bike_id":"9faee6f2-457c-410c-b197-c5102d1e22ad","system_id":"levelo_inurba_marseille","lat":43.23179,"lon":5.3999,"is_reserved":false,"is_disabled":false,"rental_uris":{"android":"levelo://app?vid=9faee6f2-457c-410c-b197-c5102d1e22ad","ios":"levelo://app?vid=9faee6f2-457c-410c-b197-c5102d1e22ad"},"vehicle_type_id":"4","last_reported":1770895908,"current_range_meters":8400,"station_id":"ce4bhn12rcd13ifvqgqg","pricing_plan_id":"cebpf4jnsgd1na2vs0mg"},{"bike_id":"e44df137-3a9f-4865-a2d3-769a6f5bfc14","system_id":"levelo_inurba_marseille","lat":43.309062,"lon":5.368693,"is_reserved":false,"is_disabled":false,"rental_uris":{"android":"levelo://app?vid=e44df137-3a9f-4865-a2d3-769a6f5bfc14","ios":"levelo://app?vid=e44df137-3a9f-4865-a2d3-769a6f5bfc14"},"vehicle_type_id":"4","last_reported":1770895908,"current_range_meters":8400,"station_id":"ce4bgn92rcd13ifvqbvg","pricing_plan_id":"cebpf4jnsgd1na2vs0mg"},{"bike_id":"44b82be7-a2b9-42f1-8560-17e8ec787592","system_id":"levelo_inurba_marseille","lat":43.30954,"lon":5.36833,"is_reserved":false,"is_disabled":false,"rental_uris":{"android":"levelo://app?vid=44b82be7-a2b9-42f1-8560-17e8ec787592","ios":"levelo://app?vid=44b82be7-a2b9-42f1-8560-17e8ec787592"},"vehicle_type_id":"4","last_reported":1770895908,"current_range_meters":8400,"station_id":"","pricing_plan_id":"cebpf4jnsgd1na2vs0mg"},{"bike_id":"8d854fd1-6a60-43f6-8c14-2ffb01bea025","system_id":"levelo_inurba_marseille","lat":43.29028,"lon":5.35616,"is_reserved":false,"is_disabled":false,"rental_uris":{"android":"levelo://app?vid=8d854fd1-6a60-43f6-8c14-2ffb01bea025","ios":"levelo://app?vid=8d854fd1-6a60-43f6-8c14-2ffb01bea025"},"vehicle_type_id":"4","last_reported":1770895908,"current_range_meters":8400,"station_id":"ce4bhb92rcd13ifvqen0","pricing_plan_id":"cebpf4jnsgd1na2vs0mg"},{"bike_id":"db87a890-ba5b-4dac-b39a-e8d147a1e92d","system_id":"levelo_inurba_marseille","lat":43.294376,"lon":5.397495,"is_reserved":false,"is_disabled":true,"rental_uris":{"android":"levelo://app?vid=db87a890-ba5b-4dac-b39a-e8d147a1e92d","ios":"levelo://app?vid=db87a890-ba5b-4dac-b39a-e8d147a1e92d"},"vehicle_type_id":"4","last_reported":1770895908,"current_range_meters":8400,"station_id":"ce4bhc92rcd13ifvqetg","pricing_plan_id":"cebpf4jnsgd1na2vs0mg"},{"bike_id":"8f3a9ea3-3d5f-4beb-8e6c-40222b0c90d4","system_id":"levelo_inurba_marseille","lat":43.28384,"lon":5.35355,"is_reserved":false,"is_disabled":false,"rental_uris":{"android":"levelo://app?vid=8f3a9ea3-3d5f-4beb-8e6c-40222b0c90d4","ios":"levelo://app?vid=8f3a9ea3-3d5f-4beb-8e6c-40222b0c90d4"},"vehicle_type_id":"4","last_reported":1770895908,"current_range_meters":8400,"station_id":"","pricing_plan_id":"cebpf4jnsgd1na2vs0mg"},{"bike_id":"52d294a6-dfc4-49e2-9128-2096407aa892","system_id":"levelo_inurba_marseille","lat":43.30137,"lon":5.3742,"is_reserved":false,"is_disabled":false,"rental_uris":{"android":"levelo://app?vid=52d294a6-dfc4-49e2-9128-2096407aa892","ios":"levelo://app?vid=52d294a6-dfc4-49e2-9128-2096407aa892"},"vehicle_type_id":"4","last_reported":1770895908,"current_range_meters":8400,"station_id":"ce4bgs92rcd13ifvqcc0","pricing_plan_id":"cebpf4jnsgd1na2vs0mg"},{"bike_id":"d98f09ff-8b59-4519-baee-c61bc86adc1e","system_id":"levelo_inurba_marseille","lat":43.29462,"lon":5.43321,"is_reserved":false,"is_disabled":false,"rental_uris":{"android":"levelo://app?vid=d98f09ff-8b59-4519-baee-c61bc86adc1e","ios":"levelo://app?vid=d98f09ff-8b59-4519-baee-c61bc86adc1e"},"vehicle_type_id":"4","last_reported":1770895908,"current_range_meters":8400,"station_id":"st_d3j5ugp08ojc73fj9d10","pricing_plan_id":"cebpf4jnsgd1na2vs0mg"},{"bike_id":"e445083d-45a8-4d25-90af-ae9e33eb6abe","system_id":"levelo_inurba_marseille","lat":43.30541,"lon":5.38431,"is_reserved":false,"is_disabled":false,"rental_uris":{"android":"levelo://app?vid=e445083d-45a8-4d25-90af-ae9e33eb6abe","ios":"levelo://app?vid=e445083d-45a8-4d25-90af-ae9e33eb6abe"},"vehicle_type_id":"4","last_reported":1770895908,"current_range_meters":8400,"station_id":"ce4bgg92rcd13ifvqb30","pricing_plan_id":"cebpf4jnsgd1na2vs0mg"},{"bike_id":"c8d9299e-1f02-414d-a701-2a89449ca9df","system_id":"levelo_inurba_marseille","lat":43.29075,"lon":5.40014,"is_reserved":false,"is_disabled":false,"rental_uris":{"android":"levelo://app?vid=c8d9299e-1f02-414d-a701-2a89449ca9df","ios":"levelo://app?vid=c8d9299e-1f02-414d-a701-2a89449ca9df"},"vehicle_type_id":"4","last_reported":1770895908,"current_range_meters":8400,"station_id":"","pricing_plan_id":"cebpf4jnsgd1na2vs0mg"},{"bike_id":"8e0dbcf9-f4b2-4f78-99e7-4cb17dac891a","system_id":"levelo_inurba_marseille","lat":43.23155,"lon":5.43717,"is_reserved":false,"is_disabled":false,"rental_uris":{"android":"levelo://app?vid=8e0dbcf9-f4b2-4f78-99e7-4cb17dac891a","ios":"levelo://app?vid=8e0dbcf9-f4b2-4f78-99e7-4cb17dac891a"},"vehicle_type_id":"4","last_reported":1770895908,"current_range_meters":8400,"station_id":"ce4bhmp2rcd13ifvqgog","pricing_plan_id":"cebpf4jnsgd1na2vs0mg"},{"bike_id":"cb9be5fc-0f8f-4012-b222-62b158765b42","system_id":"levelo_inurba_marseille","lat":43.22943,"lon":5.35377,"is_reserved":false,"is_disabled":false,"rental_uris":{"android":"levelo://app?vid=cb9be5fc-0f8f-4012-b222-62b158765b42","ios":"levelo://app?vid=cb9be5fc-0f8f-4012-b222-62b158765b42"},"vehicle_type_id":"4","last_reported":1770895908,"current_range_meters":8400,"station_id":"cpo3532slgdg3j2ikp40","pricing_plan_id":"cebpf4jnsgd1na2vs0mg"},{"bike_id":"46795c32-d155-4823-a0f3-872b06d1e11d","system_id":"levelo_inurba_marseille","lat":43.21751,"lon":5.34604,"is_reserved":false,"is_disabled":false,"rental_uris":{"android":"levelo://app?vid=46795c32-d155-4823-a0f3-872b06d1e11d","ios":"levelo://app?vid=46795c32-d155-4823-a0f3-872b06d1e11d"},"vehicle_type_id":"4","last_reported":1770895908,"current_range_meters":8400,"station_id":"","pricing_plan_id":"cebpf4jnsgd1na2vs0mg"},{"bike_id":"1a1e0128-5ebc-46e0-94a9-6fdb089a0735","system_id":"levelo_inurba_marseille","lat":43.26371,"lon":5.41062,"is_reserved":false,"is_disabled":false,"rental_uris":{"android":"levelo://app?vid=1a1e0128-5ebc-46e0-94a9-6fdb089a0735","ios":"levelo://app?vid=1a1e0128-5ebc-46e0-94a9-6fdb089a0735"},"vehicle_type_id":"4","last_reported":1770895908,"current_range_meters":8400,"station_id":"st_d4e5ca6na9uc73bfl5fg","pricing_plan_id":"cebpf4jnsgd1na2vs0mg"},{"bike_id":"f00baa5f-cba2-411f-a887-5a0ac953db29","system_id":"levelo_inurba_marseille","lat":43.24068,"lon":5.37751,"is_reserved":false,"is_disabled":false,"rental_uris":{"android":"levelo://app?vid=f00baa5f-cba2-411f-a887-5a0ac953db29","ios":"levelo://app?vid=f00baa5f-cba2-411f-a887-5a0ac953db29"},"vehicle_type_id":"4","last_reported":1770895908,"current_range_meters":8400,"station_id":"ce4bhnp2rcd13ifvqgvg","pricing_plan_id":"cebpf4jnsgd1na2vs0mg"},{"bike_id":"4e0f9367-7bac-4416-a504-19f0c84a5aa3","system_id":"levelo_inurba_marseille","lat":43.28171,"lon":5.42627,"is_reserved":false,"is_disabled":false,"rental_uris":{"android":"levelo://app?vid=4e0f9367-7bac-4416-a504-19f0c84a5aa3","ios":"levelo://app?vid=4e0f9367-7bac-4416-a504-19f0c84a5aa3"},"vehicle_type_id":"4","last_reported":1770895908,"current_range_meters":8800,"station_id":"ce4bhnh2rcd13ifvqgug","pricing_plan_id":"cebpf4jnsgd1na2vs0mg"},{"bike_id":"3ad331d6-b4d1-49c7-b940-96959fff84a3","system_id":"levelo_inurba_marseille","lat":43.28624,"lon":5.35115,"is_reserved":false,"is_disabled":false,"rental_uris":{"android":"levelo://app?vid=3ad331d6-b4d1-49c7-b940-96959fff84a3","ios":"levelo://app?vid=3ad331d6-b4d1-49c7-b940-96959fff84a3"},"vehicle_type_id":"4","last_reported":1770895908,"current_range_meters":8800,"station_id":"ce4bhch2rcd13ifvqeug","pricing_plan_id":"cebpf4jnsgd1na2vs0mg"},{"bike_id":"6d146b90-da11-4bbb-b527-7da7e2561db2","system_id":"levelo_inurba_marseille","lat":43.28505,"lon":5.48387,"is_reserved":false,"is_disabled":false,"rental_uris":{"android":"levelo://app?vid=6d146b90-da11-4bbb-b527-7da7e2561db2","ios":"levelo://app?vid=6d146b90-da11-4bbb-b527-7da7e2561db2"},"vehicle_type_id":"4","last_reported":1770895908,"current_range_meters":8800,"station_id":"st_d3svhcjqgbts73a3dn0g","pricing_plan_id":"cebpf4jnsgd1na2vs0mg"},{"bike_id":"020a02e4-b882-43a5-b13b-098b3f1416a7","system_id":"levelo_inurba_marseille","lat":43.30541,"lon":5.38429,"is_reserved":false,"is_disabled":false,"rental_uris":{"android":"levelo://app?vid=020a02e4-b882-43a5-b13b-098b3f1416a7","ios":"levelo://app?vid=020a02e4-b882-43a5-b13b-098b3f1416a7"},"vehicle_type_id":"4","last_reported":1770895908,"current_range_meters":8800,"station_id":"ce4bgg92rcd13ifvqb30","pricing_plan_id":"cebpf4jnsgd1na2vs0mg"},{"bike_id":"bb6faa0c-4182-45af-b174-e42f3eae8837","system_id":"levelo_inurba_marseille","lat":43.24682,"lon":5.38869,"is_reserved":false,"is_disabled":false,"rental_uris":{"android":"levelo://app?vid=bb6faa0c-4182-45af-b174-e42f3eae8837","ios":"levelo://app?vid=bb6faa0c-4182-45af-b174-e42f3eae8837"},"vehicle_type_id":"4","last_reported":1770895908,"current_range_meters":8800,"station_id":"ce4bhg12rcd13ifvqf60","pricing_plan_id":"cebpf4jnsgd1na2vs0mg"},{"bike_id":"e61f8348-ac76-4cea-92f8-334c0273949b","system_id":"levelo_inurba_marseille","lat":43.2466,"lon":5.43144,"is_reserved":false,"is_disabled":false,"rental_uris":{"android":"levelo://app?vid=e61f8348-ac76-4cea-92f8-334c0273949b","ios":"levelo://app?vid=e61f8348-ac76-4cea-92f8-334c0273949b"},"vehicle_type_id":"4","last_reported":1770895908,"current_range_meters":8800,"station_id":"st_d2m6c4gdas8pm72e190g","pricing_plan_id":"cebpf4jnsgd1na2vs0mg"},{"bike_id":"19202c5c-dcee-4fd8-b2b5-1b1f4f4a5eb8","system_id":"levelo_inurba_marseille","lat":43.24083,"lon":5.37754,"is_reserved":false,"is_disabled":false,"rental_uris":{"android":"levelo://app?vid=19202c5c-dcee-4fd8-b2b5-1b1f4f4a5eb8","ios":"levelo://app?vid=19202c5c-dcee-4fd8-b2b5-1b1f4f4a5eb8"},"vehicle_type_id":"4","last_reported":1770895908,"current_range_meters":8800,"station_id":"ce4bhnp2rcd13ifvqgvg","pricing_plan_id":"cebpf4jnsgd1na2vs0mg"},{"bike_id":"bec261b3-c55d-44a9-a6dc-0a07031417ad","system_id":"levelo_inurba_marseille","lat":43.295407,"lon":5.390498,"is_reserved":false,"is_disabled":false,"rental_uris":{"android":"levelo://app?vid=bec261b3-c55d-44a9-a6dc-0a07031417ad","ios":"levelo://app?vid=bec261b3-c55d-44a9-a6dc-0a07031417ad"},"vehicle_type_id":"4","last_reported":1770895908,"current_range_meters":8800,"station_id":"ce4bh3p2rcd13ifvqdp0","pricing_plan_id":"cebpf4jnsgd1na2vs0mg"},{"bike_id":"7b37adcb-6ffe-4fa3-9609-a6a4a944a1cf","system_id":"levelo_inurba_marseille","lat":43.30473,"lon":5.36781,"is_reserved":false,"is_disabled":false,"rental_uris":{"android":"levelo://app?vid=7b37adcb-6ffe-4fa3-9609-a6a4a944a1cf","ios":"levelo://app?vid=7b37adcb-6ffe-4fa3-9609-a6a4a944a1cf"},"vehicle_type_id":"4","last_reported":1770895908,"current_range_meters":8800,"station_id":"","pricing_plan_id":"cebpf4jnsgd1na2vs0mg"},{"bike_id":"8b9dda30-a538-4c56-8057-4354e193017c","system_id":"levelo_inurba_marseille","lat":43.29213,"lon":5.36063,"is_reserved":false,"is_disabled":false,"rental_uris":{"android":"levelo://app?vid=8b9dda30-a538-4c56-8057-4354e193017c","ios":"levelo://app?vid=8b9dda30-a538-4c56-8057-4354e193017c"},"vehicle_type_id":"4","last_reported":1770895908,"current_range_meters":8800,"station_id":"ce4bhbh2rcd13ifvqeqg","pricing_plan_id":"cebpf4jnsgd1na2vs0mg"},{"bike_id":"f5dfc69a-605e-4870-9f15-288a758bb79e","system_id":"levelo_inurba_marseille","lat":43.29757,"lon":5.42787,"is_reserved":false,"is_disabled":false,"rental_uris":{"android":"levelo://app?vid=f5dfc69a-605e-4870-9f15-288a758bb79e","ios":"levelo://app?vid=f5dfc69a-605e-4870-9f15-288a758bb79e"},"vehicle_type_id":"4","last_reported":1770895908,"current_range_meters":8800,"station_id":"st_d3md5207bmas73dh9klg","pricing_plan_id":"cebpf4jnsgd1na2vs0mg"},{"bike_id":"a8cd9642-47c6-4401-90a5-20d1b59e685c","system_id":"levelo_inurba_marseille","lat":43.28844,"lon":5.42521,"is_reserved":false,"is_disabled":false,"rental_uris":{"android":"levelo://app?vid=a8cd9642-47c6-4401-90a5-20d1b59e685c","ios":"levelo://app?vid=a8cd9642-47c6-4401-90a5-20d1b59e685c"},"vehicle_type_id":"4","last_reported":1770895908,"current_range_meters":8800,"station_id":"st_d3b462108ojc7389ooeg","pricing_plan_id":"cebpf4jnsgd1na2vs0mg"},{"bike_id":"e6803627-acaa-4970-9ece-cd2f35ecf017","system_id":"levelo_inurba_marseille","lat":43.26673,"lon":5.38271,"is_reserved":false,"is_disabled":false,"rental_uris":{"android":"levelo://app?vid=e6803627-acaa-4970-9ece-cd2f35ecf017","ios":"levelo://app?vid=e6803627-acaa-4970-9ece-cd2f35ecf017"},"vehicle_type_id":"4","last_reported":1770895908,"current_range_meters":8800,"station_id":"ce4bhg92rcd13ifvqf90","pricing_plan_id":"cebpf4jnsgd1na2vs0mg"},{"bike_id":"f5e82031-62e2-40e2-8c7c-5edec33c9e91","system_id":"levelo_inurba_marseille","lat":43.26227,"lon":5.40449,"is_reserved":false,"is_disabled":false,"rental_uris":{"android":"levelo://app?vid=f5e82031-62e2-40e2-8c7c-5edec33c9e91","ios":"levelo://app?vid=f5e82031-62e2-40e2-8c7c-5edec33c9e91"},"vehicle_type_id":"4","last_reported":1770895908,"current_range_meters":8800,"station_id":"ce4bhmh2rcd13ifvqgmg","pricing_plan_id":"cebpf4jnsgd1na2vs0mg"},{"bike_id":"a0f00b77-3668-4cb1-9cb3-dbbe136dba2b","system_id":"levelo_inurba_marseille","lat":43.25595,"lon":5.38237,"is_reserved":false,"is_disabled":false,"rental_uris":{"android":"levelo://app?vid=a0f00b77-3668-4cb1-9cb3-dbbe136dba2b","ios":"levelo://app?vid=a0f00b77-3668-4cb1-9cb3-dbbe136dba2b"},"vehicle_type_id":"4","last_reported":1770895908,"current_range_meters":8800,"station_id":"ce4bhih2rcd13ifvqfs0","pricing_plan_id":"cebpf4jnsgd1na2vs0mg"},{"bike_id":"4c31aa02-7dd0-43a3-b23e-f1e426edbdd4","system_id":"levelo_inurba_marseille","lat":43.30459,"lon":5.37904,"is_reserved":false,"is_disabled":false,"rental_uris":{"android":"levelo://app?vid=4c31aa02-7dd0-43a3-b23e-f1e426edbdd4","ios":"levelo://app?vid=4c31aa02-7dd0-43a3-b23e-f1e426edbdd4"},"vehicle_type_id":"4","last_reported":1770895908,"current_range_meters":8800,"station_id":"ce4bgup2rcd13ifvqcn0","pricing_plan_id":"cebpf4jnsgd1na2vs0mg"},{"bike_id":"cf4cb214-add7-4259-9037-63a9e2c59cab","system_id":"levelo_inurba_marseille","lat":43.30283,"lon":5.36896,"is_reserved":false,"is_disabled":false,"rental_uris":{"android":"levelo://app?vid=cf4cb214-add7-4259-9037-63a9e2c59cab","ios":"levelo://app?vid=cf4cb214-add7-4259-9037-63a9e2c59cab"},"vehicle_type_id":"4","last_reported":1770895908,"current_range_meters":8800,"station_id":"ce4bgqh2rcd13ifvqc5g","pricing_plan_id":"cebpf4jnsgd1na2vs0mg"},{"bike_id":"cd2ea776-4312-4cb7-8563-066b16a10c75","system_id":"levelo_inurba_marseille","lat":43.2319,"lon":5.3999,"is_reserved":false,"is_disabled":false,"rental_uris":{"android":"levelo://app?vid=cd2ea776-4312-4cb7-8563-066b16a10c75","ios":"levelo://app?vid=cd2ea776-4312-4cb7-8563-066b16a10c75"},"vehicle_type_id":"4","last_reported":1770895908,"current_range_meters":8800,"station_id":"ce4bhn12rcd13ifvqgqg","pricing_plan_id":"cebpf4jnsgd1na2vs0mg"},{"bike_id":"2da32715-91d7-4dc2-bd96-0baee08ab0c9","system_id":"levelo_inurba_marseille","lat":43.242,"lon":5.39715,"is_reserved":false,"is_disabled":false,"rental_uris":{"android":"levelo://app?vid=2da32715-91d7-4dc2-bd96-0baee08ab0c9","ios":"levelo://app?vid=2da32715-91d7-4dc2-bd96-0baee08ab0c9"},"vehicle_type_id":"4","last_reported":1770895908,"current_range_meters":8800,"station_id":"ce4bhn12rcd13ifvqgpg","pricing_plan_id":"cebpf4jnsgd1na2vs0mg"},{"bike_id":"ab2b49aa-7574-41ea-aafd-20e44f598b0a","system_id":"levelo_inurba_marseille","lat":43.33141,"lon":5.37726,"is_reserved":false,"is_disabled":false,"rental_uris":{"android":"levelo://app?vid=ab2b49aa-7574-41ea-aafd-20e44f598b0a","ios":"levelo://app?vid=ab2b49aa-7574-41ea-aafd-20e44f598b0a"},"vehicle_type_id":"4","last_reported":1770895908,"current_range_meters":8800,"station_id":"st_d46cu089ee8s73dldbu0","pricing_plan_id":"cebpf4jnsgd1na2vs0mg"},{"bike_id":"2966434a-921f-4f6a-8543-92544bd2c40c","system_id":"levelo_inurba_marseille","lat":43.29887,"lon":5.36297,"is_reserved":false,"is_disabled":false,"rental_uris":{"android":"levelo://app?vid=2966434a-921f-4f6a-8543-92544bd2c40c","ios":"levelo://app?vid=2966434a-921f-4f6a-8543-92544bd2c40c"},"vehicle_type_id":"4","last_reported":1770895908,"current_range_meters":8800,"station_id":"","pricing_plan_id":"cebpf4jnsgd1na2vs0mg"},{"bike_id":"e2f83666-5f5a-4dbf-bfbc-12eeb16a3eca","system_id":"levelo_inurba_marseille","lat":43.24996,"lon":5.38933,"is_reserved":false,"is_disabled":false,"rental_uris":{"android":"levelo://app?vid=e2f83666-5f5a-4dbf-bfbc-12eeb16a3eca","ios":"levelo://app?vid=e2f83666-5f5a-4dbf-bfbc-12eeb16a3eca"},"vehicle_type_id":"4","last_reported":1770895908,"current_range_meters":9200,"station_id":"ce4bhgp2rcd13ifvqfd0","pricing_plan_id":"cebpf4jnsgd1na2vs0mg"},{"bike_id":"85ca329a-9c55-4be1-b2da-c3d917ed6363","system_id":"levelo_inurba_marseille","lat":43.2455,"lon":5.39526,"is_reserved":false,"is_disabled":false,"rental_uris":{"android":"levelo://app?vid=85ca329a-9c55-4be1-b2da-c3d917ed6363","ios":"levelo://app?vid=85ca329a-9c55-4be1-b2da-c3d917ed6363"},"vehicle_type_id":"4","last_reported":1770895908,"current_range_meters":9200,"station_id":"ce4bhlp2rcd13ifvqgjg","pricing_plan_id":"cebpf4jnsgd1na2vs0mg"},{"bike_id":"1ce107f6-c827-4fd0-952b-5454d05e9916","system_id":"levelo_inurba_marseille","lat":43.29607,"lon":5.37724,"is_reserved":false,"is_disabled":false,"rental_uris":{"android":"levelo://app?vid=1ce107f6-c827-4fd0-952b-5454d05e9916","ios":"levelo://app?vid=1ce107f6-c827-4fd0-952b-5454d05e9916"},"vehicle_type_id":"4","last_reported":1770895908,"current_range_meters":9200,"station_id":"ce4bgi92rcd13ifvqb90","pricing_plan_id":"cebpf4jnsgd1na2vs0mg"},{"bike_id":"445e5523-5671-4a77-8e86-2c0d5c0e6c88","system_id":"levelo_inurba_marseille","lat":43.30115,"lon":5.39848,"is_reserved":false,"is_disabled":false,"rental_uris":{"android":"levelo://app?vid=445e5523-5671-4a77-8e86-2c0d5c0e6c88","ios":"levelo://app?vid=445e5523-5671-4a77-8e86-2c0d5c0e6c88"},"vehicle_type_id":"4","last_reported":1770895908,"current_range_meters":9200,"station_id":"ce4bh0h2rcd13ifvqd40","pricing_plan_id":"cebpf4jnsgd1na2vs0mg"},{"bike_id":"558b0286-85fc-49cb-b13d-aa40847d1ce9","system_id":"levelo_inurba_marseille","lat":43.25002,"lon":5.3893,"is_reserved":false,"is_disabled":false,"rental_uris":{"android":"levelo://app?vid=558b0286-85fc-49cb-b13d-aa40847d1ce9","ios":"levelo://app?vid=558b0286-85fc-49cb-b13d-aa40847d1ce9"},"vehicle_type_id":"4","last_reported":1770895908,"current_range_meters":9200,"station_id":"ce4bhgp2rcd13ifvqfd0","pricing_plan_id":"cebpf4jnsgd1na2vs0mg"},{"bike_id":"9e49c384-30c1-4f45-a8df-9663175b8696","system_id":"levelo_inurba_marseille","lat":43.24459,"lon":5.42544,"is_reserved":false,"is_disabled":false,"rental_uris":{"android":"levelo://app?vid=9e49c384-30c1-4f45-a8df-9663175b8696","ios":"levelo://app?vid=9e49c384-30c1-4f45-a8df-9663175b8696"},"vehicle_type_id":"4","last_reported":1770895908,"current_range_meters":9200,"station_id":"st_d4a3vfp97mjs738cd8kg","pricing_plan_id":"cebpf4jnsgd1na2vs0mg"},{"bike_id":"5ff157dc-e3aa-4305-ad39-dfa58cf64b9c","system_id":"levelo_inurba_marseille","lat":43.24071,"lon":5.37705,"is_reserved":false,"is_disabled":false,"rental_uris":{"android":"levelo://app?vid=5ff157dc-e3aa-4305-ad39-dfa58cf64b9c","ios":"levelo://app?vid=5ff157dc-e3aa-4305-ad39-dfa58cf64b9c"},"vehicle_type_id":"4","last_reported":1770895908,"current_range_meters":9200,"station_id":"ce4bhnp2rcd13ifvqgvg","pricing_plan_id":"cebpf4jnsgd1na2vs0mg"},{"bike_id":"63d100d1-fe02-4ad2-8b66-1e2541576cad","system_id":"levelo_inurba_marseille","lat":43.25721,"lon":5.41112,"is_reserved":false,"is_disabled":false,"rental_uris":{"android":"levelo://app?vid=63d100d1-fe02-4ad2-8b66-1e2541576cad","ios":"levelo://app?vid=63d100d1-fe02-4ad2-8b66-1e2541576cad"},"vehicle_type_id":"4","last_reported":1770895908,"current_range_meters":9200,"station_id":"ce4bhkp2rcd13ifvqgd0","pricing_plan_id":"cebpf4jnsgd1na2vs0mg"},{"bike_id":"4c984fe9-1849-4de8-b436-006adff2dd9f","system_id":"levelo_inurba_marseille","lat":43.29787,"lon":5.3808,"is_reserved":false,"is_disabled":false,"rental_uris":{"android":"levelo://app?vid=4c984fe9-1849-4de8-b436-006adff2dd9f","ios":"levelo://app?vid=4c984fe9-1849-4de8-b436-006adff2dd9f"},"vehicle_type_id":"4","last_reported":1770895908,"current_range_meters":9200,"station_id":"ce4bgip2rcd13ifvqbb0","pricing_plan_id":"cebpf4jnsgd1na2vs0mg"},{"bike_id":"e0a99c59-b2ab-407c-8f36-dd4b7764ede6","system_id":"levelo_inurba_marseille","lat":43.2903,"lon":5.39963,"is_reserved":false,"is_disabled":false,"rental_uris":{"android":"levelo://app?vid=e0a99c59-b2ab-407c-8f36-dd4b7764ede6","ios":"levelo://app?vid=e0a99c59-b2ab-407c-8f36-dd4b7764ede6"},"vehicle_type_id":"4","last_reported":1770895908,"current_range_meters":9200,"station_id":"ce4bh392rcd13ifvqdm0","pricing_plan_id":"cebpf4jnsgd1na2vs0mg"},{"bike_id":"48ef2e5e-395e-487a-9e41-360aad012a1f","system_id":"levelo_inurba_marseille","lat":43.26209,"lon":5.37435,"is_reserved":false,"is_disabled":false,"rental_uris":{"android":"levelo://app?vid=48ef2e5e-395e-487a-9e41-360aad012a1f","ios":"levelo://app?vid=48ef2e5e-395e-487a-9e41-360aad012a1f"},"vehicle_type_id":"4","last_reported":1770895908,"current_range_meters":9200,"station_id":"ce4bhgp2rcd13ifvqfc0","pricing_plan_id":"cebpf4jnsgd1na2vs0mg"},{"bike_id":"40452636-8d5c-4483-9aa3-a6ea0d66c3ee","system_id":"levelo_inurba_marseille","lat":43.31059,"lon":5.39332,"is_reserved":false,"is_disabled":false,"rental_uris":{"android":"levelo://app?vid=40452636-8d5c-4483-9aa3-a6ea0d66c3ee","ios":"levelo://app?vid=40452636-8d5c-4483-9aa3-a6ea0d66c3ee"},"vehicle_type_id":"4","last_reported":1770895908,"current_range_meters":9200,"station_id":"","pricing_plan_id":"cebpf4jnsgd1na2vs0mg"},{"bike_id":"b5cfe035-0ac5-4157-91b6-fb5d92305462","system_id":"levelo_inurba_marseille","lat":43.2818,"lon":5.42631,"is_reserved":false,"is_disabled":false,"rental_uris":{"android":"levelo://app?vid=b5cfe035-0ac5-4157-91b6-fb5d92305462","ios":"levelo://app?vid=b5cfe035-0ac5-4157-91b6-fb5d92305462"},"vehicle_type_id":"4","last_reported":1770895908,"current_range_meters":9200,"station_id":"ce4bhnh2rcd13ifvqgug","pricing_plan_id":"cebpf4jnsgd1na2vs0mg"},{"bike_id":"d133da66-969f-43a3-811d-2c8fd3e12789","system_id":"levelo_inurba_marseille","lat":43.288591,"lon":5.425192,"is_reserved":false,"is_disabled":false,"rental_uris":{"android":"levelo://app?vid=d133da66-969f-43a3-811d-2c8fd3e12789","ios":"levelo://app?vid=d133da66-969f-43a3-811d-2c8fd3e12789"},"vehicle_type_id":"4","last_reported":1770895908,"current_range_meters":9200,"station_id":"st_d3b462108ojc7389ooeg","pricing_plan_id":"cebpf4jnsgd1na2vs0mg"},{"bike_id":"f80d80b1-fd6c-49d0-a946-3b95b1b8c004","system_id":"levelo_inurba_marseille","lat":43.29167,"lon":5.39947,"is_reserved":false,"is_disabled":false,"rental_uris":{"android":"levelo://app?vid=f80d80b1-fd6c-49d0-a946-3b95b1b8c004","ios":"levelo://app?vid=f80d80b1-fd6c-49d0-a946-3b95b1b8c004"},"vehicle_type_id":"4","last_reported":1770895908,"current_range_meters":9200,"station_id":"","pricing_plan_id":"cebpf4jnsgd1na2vs0mg"},{"bike_id":"05797971-b1fa-4e10-9a08-cd7f223bbe55","system_id":"levelo_inurba_marseille","lat":43.21786,"lon":5.3459,"is_reserved":false,"is_disabled":false,"rental_uris":{"android":"levelo://app?vid=05797971-b1fa-4e10-9a08-cd7f223bbe55","ios":"levelo://app?vid=05797971-b1fa-4e10-9a08-cd7f223bbe55"},"vehicle_type_id":"4","last_reported":1770895908,"current_range_meters":9200,"station_id":"","pricing_plan_id":"cebpf4jnsgd1na2vs0mg"},{"bike_id":"b52d20c4-aec1-47ab-b0a8-a26d6b63f7dc","system_id":"levelo_inurba_marseille","lat":43.25726,"lon":5.41107,"is_reserved":false,"is_disabled":false,"rental_uris":{"android":"levelo://app?vid=b52d20c4-aec1-47ab-b0a8-a26d6b63f7dc","ios":"levelo://app?vid=b52d20c4-aec1-47ab-b0a8-a26d6b63f7dc"},"vehicle_type_id":"4","last_reported":1770895908,"current_range_meters":9200,"station_id":"ce4bhkp2rcd13ifvqgd0","pricing_plan_id":"cebpf4jnsgd1na2vs0mg"},{"bike_id":"ead542ac-8f66-4feb-80cb-faabb485a5bf","system_id":"levelo_inurba_marseille","lat":43.26182,"lon":5.37462,"is_reserved":false,"is_disabled":false,"rental_uris":{"android":"levelo://app?vid=ead542ac-8f66-4feb-80cb-faabb485a5bf","ios":"levelo://app?vid=ead542ac-8f66-4feb-80cb-faabb485a5bf"},"vehicle_type_id":"4","last_reported":1770895908,"current_range_meters":9200,"station_id":"ce4bhgp2rcd13ifvqfc0","pricing_plan_id":"cebpf4jnsgd1na2vs0mg"},{"bike_id":"2cdaaecc-f3f1-45ea-a338-8e3592ee7872","system_id":"levelo_inurba_marseille","lat":43.319941,"lon":5.381658,"is_reserved":false,"is_disabled":false,"rental_uris":{"android":"levelo://app?vid=2cdaaecc-f3f1-45ea-a338-8e3592ee7872","ios":"levelo://app?vid=2cdaaecc-f3f1-45ea-a338-8e3592ee7872"},"vehicle_type_id":"4","last_reported":1770895908,"current_range_meters":9200,"station_id":"ce4bhbh2rcd13ifvqeqg","pricing_plan_id":"cebpf4jnsgd1na2vs0mg"},{"bike_id":"791cfe6e-b600-4713-b2d6-5c9796bd9648","system_id":"levelo_inurba_marseille","lat":43.33181,"lon":5.37657,"is_reserved":false,"is_disabled":false,"rental_uris":{"android":"levelo://app?vid=791cfe6e-b600-4713-b2d6-5c9796bd9648","ios":"levelo://app?vid=791cfe6e-b600-4713-b2d6-5c9796bd9648"},"vehicle_type_id":"4","last_reported":1770895908,"current_range_meters":9200,"station_id":"st_d46cu089ee8s73dldbu0","pricing_plan_id":"cebpf4jnsgd1na2vs0mg"},{"bike_id":"bc757259-3231-42fc-84f1-e4b3f0804f84","system_id":"levelo_inurba_marseille","lat":43.25944,"lon":5.40887,"is_reserved":false,"is_disabled":false,"rental_uris":{"android":"levelo://app?vid=bc757259-3231-42fc-84f1-e4b3f0804f84","ios":"levelo://app?vid=bc757259-3231-42fc-84f1-e4b3f0804f84"},"vehicle_type_id":"4","last_reported":1770895908,"current_range_meters":9600,"station_id":"ce4bhm92rcd13ifvqglg","pricing_plan_id":"cebpf4jnsgd1na2vs0mg"},{"bike_id":"b32b0732-e4d0-4f51-ba0c-c2f5e5ffe7be","system_id":"levelo_inurba_marseille","lat":43.28319,"lon":5.38174,"is_reserved":false,"is_disabled":false,"rental_uris":{"android":"levelo://app?vid=b32b0732-e4d0-4f51-ba0c-c2f5e5ffe7be","ios":"levelo://app?vid=b32b0732-e4d0-4f51-ba0c-c2f5e5ffe7be"},"vehicle_type_id":"4","last_reported":1770895908,"current_range_meters":9600,"station_id":"","pricing_plan_id":"cebpf4jnsgd1na2vs0mg"},{"bike_id":"51ad0198-092e-4860-b994-3420575955f1","system_id":"levelo_inurba_marseille","lat":43.22527,"lon":5.34833,"is_reserved":false,"is_disabled":false,"rental_uris":{"android":"levelo://app?vid=51ad0198-092e-4860-b994-3420575955f1","ios":"levelo://app?vid=51ad0198-092e-4860-b994-3420575955f1"},"vehicle_type_id":"4","last_reported":1770895908,"current_range_meters":9600,"station_id":"st_cvj5dfep6f1abm77gieg","pricing_plan_id":"cebpf4jnsgd1na2vs0mg"},{"bike_id":"09ad556f-b6d8-43a2-9c08-0649a70ab239","system_id":"levelo_inurba_marseille","lat":43.296067,"lon":5.377186,"is_reserved":false,"is_disabled":false,"rental_uris":{"android":"levelo://app?vid=09ad556f-b6d8-43a2-9c08-0649a70ab239","ios":"levelo://app?vid=09ad556f-b6d8-43a2-9c08-0649a70ab239"},"vehicle_type_id":"4","last_reported":1770895908,"current_range_meters":9600,"station_id":"ce4bgi92rcd13ifvqb90","pricing_plan_id":"cebpf4jnsgd1na2vs0mg"},{"bike_id":"dc0bbbef-469e-4852-b275-445893c3bbfc","system_id":"levelo_inurba_marseille","lat":43.31205,"lon":5.36872,"is_reserved":false,"is_disabled":false,"rental_uris":{"android":"levelo://app?vid=dc0bbbef-469e-4852-b275-445893c3bbfc","ios":"levelo://app?vid=dc0bbbef-469e-4852-b275-445893c3bbfc"},"vehicle_type_id":"4","last_reported":1770895908,"current_range_meters":9600,"station_id":"ce4bgl92rcd13ifvqbq0","pricing_plan_id":"cebpf4jnsgd1na2vs0mg"},{"bike_id":"1c5a2ea6-8ba2-476e-a079-3fef41d25b48","system_id":"levelo_inurba_marseille","lat":43.30456,"lon":5.37926,"is_reserved":false,"is_disabled":false,"rental_uris":{"android":"levelo://app?vid=1c5a2ea6-8ba2-476e-a079-3fef41d25b48","ios":"levelo://app?vid=1c5a2ea6-8ba2-476e-a079-3fef41d25b48"},"vehicle_type_id":"4","last_reported":1770895908,"current_range_meters":9600,"station_id":"ce4bgup2rcd13ifvqcn0","pricing_plan_id":"cebpf4jnsgd1na2vs0mg"},{"bike_id":"dddd8dae-2150-40e8-9b96-7bf9dacad978","system_id":"levelo_inurba_marseille","lat":43.29925,"lon":5.43648,"is_reserved":false,"is_disabled":false,"rental_uris":{"android":"levelo://app?vid=dddd8dae-2150-40e8-9b96-7bf9dacad978","ios":"levelo://app?vid=dddd8dae-2150-40e8-9b96-7bf9dacad978"},"vehicle_type_id":"4","last_reported":1770895908,"current_range_meters":9600,"station_id":"ce4bhpp2rcd13ifvqhfg","pricing_plan_id":"cebpf4jnsgd1na2vs0mg"},{"bike_id":"c0d21250-70f7-405b-91f7-061919265b15","system_id":"levelo_inurba_marseille","lat":43.337444,"lon":5.374475,"is_reserved":false,"is_disabled":false,"rental_uris":{"android":"levelo://app?vid=c0d21250-70f7-405b-91f7-061919265b15","ios":"levelo://app?vid=c0d21250-70f7-405b-91f7-061919265b15"},"vehicle_type_id":"4","last_reported":1770895908,"current_range_meters":9600,"station_id":"","pricing_plan_id":"cebpf4jnsgd1na2vs0mg"},{"bike_id":"f28ee724-6771-4020-9ab3-7deb12288357","system_id":"levelo_inurba_marseille","lat":43.31052,"lon":5.37174,"is_reserved":false,"is_disabled":false,"rental_uris":{"android":"levelo://app?vid=f28ee724-6771-4020-9ab3-7deb12288357","ios":"levelo://app?vid=f28ee724-6771-4020-9ab3-7deb12288357"},"vehicle_type_id":"4","last_reported":1770895908,"current_range_meters":9600,"station_id":"st_d4kl2rp97mjs73e7tdfg","pricing_plan_id":"cebpf4jnsgd1na2vs0mg"},{"bike_id":"3b411d06-3797-4c41-b820-5c0051884bfe","system_id":"levelo_inurba_marseille","lat":43.255086,"lon":5.376578,"is_reserved":false,"is_disabled":false,"rental_uris":{"android":"levelo://app?vid=3b411d06-3797-4c41-b820-5c0051884bfe","ios":"levelo://app?vid=3b411d06-3797-4c41-b820-5c0051884bfe"},"vehicle_type_id":"4","last_reported":1770895908,"current_range_meters":9600,"station_id":"ce4bhh12rcd13ifvqff0","pricing_plan_id":"cebpf4jnsgd1na2vs0mg"},{"bike_id":"1d2595e7-24ec-4837-ac2e-333261d8dae0","system_id":"levelo_inurba_marseille","lat":43.22557,"lon":5.41634,"is_reserved":false,"is_disabled":false,"rental_uris":{"android":"levelo://app?vid=1d2595e7-24ec-4837-ac2e-333261d8dae0","ios":"levelo://app?vid=1d2595e7-24ec-4837-ac2e-333261d8dae0"},"vehicle_type_id":"4","last_reported":1770895908,"current_range_meters":9600,"station_id":"st_d2o4gvlbi1j2169b742g","pricing_plan_id":"cebpf4jnsgd1na2vs0mg"},{"bike_id":"820102d8-4bf3-43d0-bf33-9724fbbf610e","system_id":"levelo_inurba_marseille","lat":43.28118,"lon":5.4264,"is_reserved":false,"is_disabled":false,"rental_uris":{"android":"levelo://app?vid=820102d8-4bf3-43d0-bf33-9724fbbf610e","ios":"levelo://app?vid=820102d8-4bf3-43d0-bf33-9724fbbf610e"},"vehicle_type_id":"4","last_reported":1770895908,"current_range_meters":9600,"station_id":"ce4bhnh2rcd13ifvqgug","pricing_plan_id":"cebpf4jnsgd1na2vs0mg"},{"bike_id":"edad02ed-646d-4af8-a31c-7f87e495f80a","system_id":"levelo_inurba_marseille","lat":43.29191,"lon":5.35806,"is_reserved":false,"is_disabled":false,"rental_uris":{"android":"levelo://app?vid=edad02ed-646d-4af8-a31c-7f87e495f80a","ios":"levelo://app?vid=edad02ed-646d-4af8-a31c-7f87e495f80a"},"vehicle_type_id":"4","last_reported":1770895908,"current_range_meters":9600,"station_id":"ce4bhb12rcd13ifvqel0","pricing_plan_id":"cebpf4jnsgd1na2vs0mg"},{"bike_id":"6e15df17-a3f1-451b-896f-f3cadc1d77a0","system_id":"levelo_inurba_marseille","lat":43.272148,"lon":5.391825,"is_reserved":false,"is_disabled":false,"rental_uris":{"android":"levelo://app?vid=6e15df17-a3f1-451b-896f-f3cadc1d77a0","ios":"levelo://app?vid=6e15df17-a3f1-451b-896f-f3cadc1d77a0"},"vehicle_type_id":"4","last_reported":1770895908,"current_range_meters":9600,"station_id":"ce4bhhp2rcd13ifvqfm0","pricing_plan_id":"cebpf4jnsgd1na2vs0mg"},{"bike_id":"76ea5260-ff82-43e8-a377-4f3ddffee2c7","system_id":"levelo_inurba_marseille","lat":43.29714,"lon":5.42776,"is_reserved":false,"is_disabled":false,"rental_uris":{"android":"levelo://app?vid=76ea5260-ff82-43e8-a377-4f3ddffee2c7","ios":"levelo://app?vid=76ea5260-ff82-43e8-a377-4f3ddffee2c7"},"vehicle_type_id":"4","last_reported":1770895908,"current_range_meters":9600,"station_id":"","pricing_plan_id":"cebpf4jnsgd1na2vs0mg"},{"bike_id":"3f68aa4f-093d-45ac-a271-6f254675e3a3","system_id":"levelo_inurba_marseille","lat":43.27966,"lon":5.38735,"is_reserved":false,"is_disabled":false,"rental_uris":{"android":"levelo://app?vid=3f68aa4f-093d-45ac-a271-6f254675e3a3","ios":"levelo://app?vid=3f68aa4f-093d-45ac-a271-6f254675e3a3"},"vehicle_type_id":"4","last_reported":1770895908,"current_range_meters":9600,"station_id":"ce4bhg12rcd13ifvqf80","pricing_plan_id":"cebpf4jnsgd1na2vs0mg"},{"bike_id":"ab8593ea-f540-40fd-9e6d-83544ea74ff3","system_id":"levelo_inurba_marseille","lat":43.33604,"lon":5.41032,"is_reserved":false,"is_disabled":false,"rental_uris":{"android":"levelo://app?vid=ab8593ea-f540-40fd-9e6d-83544ea74ff3","ios":"levelo://app?vid=ab8593ea-f540-40fd-9e6d-83544ea74ff3"},"vehicle_type_id":"4","last_reported":1770895908,"current_range_meters":9600,"station_id":"ce4bhqh2rcd13ifvqhmg","pricing_plan_id":"cebpf4jnsgd1na2vs0mg"},{"bike_id":"4a83b9ea-01fd-4ac0-aa80-3535fcc68565","system_id":"levelo_inurba_marseille","lat":43.29308,"lon":5.37608,"is_reserved":false,"is_disabled":false,"rental_uris":{"android":"levelo://app?vid=4a83b9ea-01fd-4ac0-aa80-3535fcc68565","ios":"levelo://app?vid=4a83b9ea-01fd-4ac0-aa80-3535fcc68565"},"vehicle_type_id":"4","last_reported":1770895908,"current_range_meters":9600,"station_id":"","pricing_plan_id":"cebpf4jnsgd1na2vs0mg"},{"bike_id":"014613de-69aa-4aca-9291-67750cce2e69","system_id":"levelo_inurba_marseille","lat":43.28497,"lon":5.48375,"is_reserved":false,"is_disabled":false,"rental_uris":{"android":"levelo://app?vid=014613de-69aa-4aca-9291-67750cce2e69","ios":"levelo://app?vid=014613de-69aa-4aca-9291-67750cce2e69"},"vehicle_type_id":"4","last_reported":1770895908,"current_range_meters":10000,"station_id":"","pricing_plan_id":"cebpf4jnsgd1na2vs0mg"},{"bike_id":"806dba28-6b5b-471d-afa9-5e9335f17ebb","system_id":"levelo_inurba_marseille","lat":43.29284,"lon":5.40927,"is_reserved":false,"is_disabled":true,"rental_uris":{"android":"levelo://app?vid=806dba28-6b5b-471d-afa9-5e9335f17ebb","ios":"levelo://app?vid=806dba28-6b5b-471d-afa9-5e9335f17ebb"},"vehicle_type_id":"4","last_reported":1770895908,"current_range_meters":10000,"station_id":"ce4bh192rcd13ifvqdc0","pricing_plan_id":"cebpf4jnsgd1na2vs0mg"},{"bike_id":"cb2bcb24-1c3f-4f48-a6ce-4caf16fce4cb","system_id":"levelo_inurba_marseille","lat":43.31735,"lon":5.4041,"is_reserved":false,"is_disabled":false,"rental_uris":{"android":"levelo://app?vid=cb2bcb24-1c3f-4f48-a6ce-4caf16fce4cb","ios":"levelo://app?vid=cb2bcb24-1c3f-4f48-a6ce-4caf16fce4cb"},"vehicle_type_id":"4","last_reported":1770895908,"current_range_meters":10000,"station_id":"ce4bh012rcd13ifvqd00","pricing_plan_id":"cebpf4jnsgd1na2vs0mg"},{"bike_id":"d8c153e5-14a7-48cd-ba75-ef3b0368173f","system_id":"levelo_inurba_marseille","lat":43.23189,"lon":5.39996,"is_reserved":false,"is_disabled":false,"rental_uris":{"android":"levelo://app?vid=d8c153e5-14a7-48cd-ba75-ef3b0368173f","ios":"levelo://app?vid=d8c153e5-14a7-48cd-ba75-ef3b0368173f"},"vehicle_type_id":"4","last_reported":1770895908,"current_range_meters":10000,"station_id":"ce4bhn12rcd13ifvqgqg","pricing_plan_id":"cebpf4jnsgd1na2vs0mg"},{"bike_id":"1666a0e7-ccfb-4a46-816c-bd1b996f577e","system_id":"levelo_inurba_marseille","lat":43.28665,"lon":5.38393,"is_reserved":false,"is_disabled":false,"rental_uris":{"android":"levelo://app?vid=1666a0e7-ccfb-4a46-816c-bd1b996f577e","ios":"levelo://app?vid=1666a0e7-ccfb-4a46-816c-bd1b996f577e"},"vehicle_type_id":"4","last_reported":1770895908,"current_range_meters":10000,"station_id":"","pricing_plan_id":"cebpf4jnsgd1na2vs0mg"},{"bike_id":"51572d82-5e22-4291-b0fa-25a56dd1cc59","system_id":"levelo_inurba_marseille","lat":43.26224,"lon":5.3744,"is_reserved":false,"is_disabled":false,"rental_uris":{"android":"levelo://app?vid=51572d82-5e22-4291-b0fa-25a56dd1cc59","ios":"levelo://app?vid=51572d82-5e22-4291-b0fa-25a56dd1cc59"},"vehicle_type_id":"4","last_reported":1770895908,"current_range_meters":10000,"station_id":"ce4bhgp2rcd13ifvqfc0","pricing_plan_id":"cebpf4jnsgd1na2vs0mg"},{"bike_id":"bf53f9c6-a050-4c68-9978-904bd2b8d0d5","system_id":"levelo_inurba_marseille","lat":43.29253,"lon":5.3844,"is_reserved":false,"is_disabled":false,"rental_uris":{"android":"levelo://app?vid=bf53f9c6-a050-4c68-9978-904bd2b8d0d5","ios":"levelo://app?vid=bf53f9c6-a050-4c68-9978-904bd2b8d0d5"},"vehicle_type_id":"4","last_reported":1770895908,"current_range_meters":10000,"station_id":"ce4bh692rcd13ifvqea0","pricing_plan_id":"cebpf4jnsgd1na2vs0mg"},{"bike_id":"5e6b363c-3285-4065-aa55-8f6ad4524674","system_id":"levelo_inurba_marseille","lat":43.21147,"lon":5.34847,"is_reserved":false,"is_disabled":false,"rental_uris":{"android":"levelo://app?vid=5e6b363c-3285-4065-aa55-8f6ad4524674","ios":"levelo://app?vid=5e6b363c-3285-4065-aa55-8f6ad4524674"},"vehicle_type_id":"4","last_reported":1770895908,"current_range_meters":10000,"station_id":"st_cvj6sg6p6f1abm77japg","pricing_plan_id":"cebpf4jnsgd1na2vs0mg"},{"bike_id":"7578ca6a-41b9-4d16-80d9-987a7c1630a9","system_id":"levelo_inurba_marseille","lat":43.24655,"lon":5.3889,"is_reserved":false,"is_disabled":false,"rental_uris":{"android":"levelo://app?vid=7578ca6a-41b9-4d16-80d9-987a7c1630a9","ios":"levelo://app?vid=7578ca6a-41b9-4d16-80d9-987a7c1630a9"},"vehicle_type_id":"4","last_reported":1770895908,"current_range_meters":10000,"station_id":"ce4bhg12rcd13ifvqf60","pricing_plan_id":"cebpf4jnsgd1na2vs0mg"},{"bike_id":"ba7d5086-526f-401d-b86d-eb9414a58cb1","system_id":"levelo_inurba_marseille","lat":43.25947,"lon":5.40913,"is_reserved":false,"is_disabled":false,"rental_uris":{"android":"levelo://app?vid=ba7d5086-526f-401d-b86d-eb9414a58cb1","ios":"levelo://app?vid=ba7d5086-526f-401d-b86d-eb9414a58cb1"},"vehicle_type_id":"4","last_reported":1770895908,"current_range_meters":10000,"station_id":"ce4bhm92rcd13ifvqglg","pricing_plan_id":"cebpf4jnsgd1na2vs0mg"},{"bike_id":"512e1de9-5f81-4738-92b9-944dc771ad6b","system_id":"levelo_inurba_marseille","lat":43.33546,"lon":5.37488,"is_reserved":false,"is_disabled":false,"rental_uris":{"android":"levelo://app?vid=512e1de9-5f81-4738-92b9-944dc771ad6b","ios":"levelo://app?vid=512e1de9-5f81-4738-92b9-944dc771ad6b"},"vehicle_type_id":"4","last_reported":1770895908,"current_range_meters":10800,"station_id":"st_d46tts09ee8s73dlu43g","pricing_plan_id":"cebpf4jnsgd1na2vs0mg"},{"bike_id":"cae3340b-dabf-42ee-b29f-fab64d3e6b2c","system_id":"levelo_inurba_marseille","lat":43.24094,"lon":5.37719,"is_reserved":false,"is_disabled":false,"rental_uris":{"android":"levelo://app?vid=cae3340b-dabf-42ee-b29f-fab64d3e6b2c","ios":"levelo://app?vid=cae3340b-dabf-42ee-b29f-fab64d3e6b2c"},"vehicle_type_id":"4","last_reported":1770895908,"current_range_meters":10800,"station_id":"ce4bhnp2rcd13ifvqgvg","pricing_plan_id":"cebpf4jnsgd1na2vs0mg"},{"bike_id":"089f988d-8ddf-43ed-85ac-d7b3775a509c","system_id":"levelo_inurba_marseille","lat":43.24187,"lon":5.39734,"is_reserved":false,"is_disabled":false,"rental_uris":{"android":"levelo://app?vid=089f988d-8ddf-43ed-85ac-d7b3775a509c","ios":"levelo://app?vid=089f988d-8ddf-43ed-85ac-d7b3775a509c"},"vehicle_type_id":"4","last_reported":1770895908,"current_range_meters":10800,"station_id":"ce4bhn12rcd13ifvqgpg","pricing_plan_id":"cebpf4jnsgd1na2vs0mg"},{"bike_id":"e29024b3-288c-4d8b-ba32-8553041a7294","system_id":"levelo_inurba_marseille","lat":43.25887,"lon":5.40934,"is_reserved":false,"is_disabled":false,"rental_uris":{"android":"levelo://app?vid=e29024b3-288c-4d8b-ba32-8553041a7294","ios":"levelo://app?vid=e29024b3-288c-4d8b-ba32-8553041a7294"},"vehicle_type_id":"4","last_reported":1770895908,"current_range_meters":10800,"station_id":"ce4bhm92rcd13ifvqglg","pricing_plan_id":"cebpf4jnsgd1na2vs0mg"},{"bike_id":"c17a21f9-cca5-4f41-8121-c291aa00ad89","system_id":"levelo_inurba_marseille","lat":43.30466,"lon":5.37912,"is_reserved":false,"is_disabled":false,"rental_uris":{"android":"levelo://app?vid=c17a21f9-cca5-4f41-8121-c291aa00ad89","ios":"levelo://app?vid=c17a21f9-cca5-4f41-8121-c291aa00ad89"},"vehicle_type_id":"4","last_reported":1770895908,"current_range_meters":10800,"station_id":"ce4bgup2rcd13ifvqcn0","pricing_plan_id":"cebpf4jnsgd1na2vs0mg"},{"bike_id":"ae4f3972-00d4-46d0-8d16-261890d41d8b","system_id":"levelo_inurba_marseille","lat":43.25862,"lon":5.39906,"is_reserved":false,"is_disabled":true,"rental_uris":{"android":"levelo://app?vid=ae4f3972-00d4-46d0-8d16-261890d41d8b","ios":"levelo://app?vid=ae4f3972-00d4-46d0-8d16-261890d41d8b"},"vehicle_type_id":"4","last_reported":1770895908,"current_range_meters":10800,"station_id":"ce4bhl92rcd13ifvqghg","pricing_plan_id":"cebpf4jnsgd1na2vs0mg"},{"bike_id":"65aac124-f4af-40a9-969f-9b86b76af09b","system_id":"levelo_inurba_marseille","lat":43.29448,"lon":5.395761,"is_reserved":false,"is_disabled":false,"rental_uris":{"android":"levelo://app?vid=65aac124-f4af-40a9-969f-9b86b76af09b","ios":"levelo://app?vid=65aac124-f4af-40a9-969f-9b86b76af09b"},"vehicle_type_id":"4","last_reported":1770895908,"current_range_meters":10800,"station_id":"","pricing_plan_id":"cebpf4jnsgd1na2vs0mg"},{"bike_id":"4624a6c3-ac69-4c16-9e3d-8aa04c589548","system_id":"levelo_inurba_marseille","lat":43.27963,"lon":5.41041,"is_reserved":false,"is_disabled":true,"rental_uris":{"android":"levelo://app?vid=4624a6c3-ac69-4c16-9e3d-8aa04c589548","ios":"levelo://app?vid=4624a6c3-ac69-4c16-9e3d-8aa04c589548"},"vehicle_type_id":"4","last_reported":1770895908,"current_range_meters":10800,"station_id":"ce4bhnp2rcd13ifvqh0g","pricing_plan_id":"cebpf4jnsgd1na2vs0mg"},{"bike_id":"a48f35fb-00c9-4d62-a56d-cc9d86bcfa41","system_id":"levelo_inurba_marseille","lat":43.31887,"lon":5.40722,"is_reserved":false,"is_disabled":false,"rental_uris":{"android":"levelo://app?vid=a48f35fb-00c9-4d62-a56d-cc9d86bcfa41","ios":"levelo://app?vid=a48f35fb-00c9-4d62-a56d-cc9d86bcfa41"},"vehicle_type_id":"4","last_reported":1770895908,"current_range_meters":10800,"station_id":"ce4bhq12rcd13ifvqhig","pricing_plan_id":"cebpf4jnsgd1na2vs0mg"},{"bike_id":"bbf76c20-722d-4091-93ed-579710f24304","system_id":"levelo_inurba_marseille","lat":43.24372,"lon":5.37072,"is_reserved":false,"is_disabled":false,"rental_uris":{"android":"levelo://app?vid=bbf76c20-722d-4091-93ed-579710f24304","ios":"levelo://app?vid=bbf76c20-722d-4091-93ed-579710f24304"},"vehicle_type_id":"4","last_reported":1770895908,"current_range_meters":10800,"station_id":"ce4bhhh2rcd13ifvqfk0","pricing_plan_id":"cebpf4jnsgd1na2vs0mg"},{"bike_id":"acc4afec-e80f-436d-a4cf-d6122baf0d20","system_id":"levelo_inurba_marseille","lat":43.27198,"lon":5.40948,"is_reserved":false,"is_disabled":false,"rental_uris":{"android":"levelo://app?vid=acc4afec-e80f-436d-a4cf-d6122baf0d20","ios":"levelo://app?vid=acc4afec-e80f-436d-a4cf-d6122baf0d20"},"vehicle_type_id":"4","last_reported":1770895908,"current_range_meters":10800,"station_id":"ce4bhl12rcd13ifvqgf0","pricing_plan_id":"cebpf4jnsgd1na2vs0mg"},{"bike_id":"171b62e2-ba7e-4159-8190-27c62681b21e","system_id":"levelo_inurba_marseille","lat":43.27076,"lon":5.42266,"is_reserved":false,"is_disabled":false,"rental_uris":{"android":"levelo://app?vid=171b62e2-ba7e-4159-8190-27c62681b21e","ios":"levelo://app?vid=171b62e2-ba7e-4159-8190-27c62681b21e"},"vehicle_type_id":"4","last_reported":1770895908,"current_range_meters":10800,"station_id":"ce4bhk92rcd13ifvqgb0","pricing_plan_id":"cebpf4jnsgd1na2vs0mg"},{"bike_id":"998f7130-c295-4159-974f-c8a3e9bdef38","system_id":"levelo_inurba_marseille","lat":43.231501,"lon":5.437076,"is_reserved":false,"is_disabled":false,"rental_uris":{"android":"levelo://app?vid=998f7130-c295-4159-974f-c8a3e9bdef38","ios":"levelo://app?vid=998f7130-c295-4159-974f-c8a3e9bdef38"},"vehicle_type_id":"4","last_reported":1770895908,"current_range_meters":10800,"station_id":"ce4bhmp2rcd13ifvqgog","pricing_plan_id":"cebpf4jnsgd1na2vs0mg"},{"bike_id":"0179eedf-861e-45a3-9ca8-ecf9650042c3","system_id":"levelo_inurba_marseille","lat":43.3171,"lon":5.37745,"is_reserved":false,"is_disabled":false,"rental_uris":{"android":"levelo://app?vid=0179eedf-861e-45a3-9ca8-ecf9650042c3","ios":"levelo://app?vid=0179eedf-861e-45a3-9ca8-ecf9650042c3"},"vehicle_type_id":"4","last_reported":1770895908,"current_range_meters":10800,"station_id":"ce4bgth2rcd13ifvqch0","pricing_plan_id":"cebpf4jnsgd1na2vs0mg"},{"bike_id":"23edf86f-0d3b-4592-835d-eabf2ed9286d","system_id":"levelo_inurba_marseille","lat":43.3015,"lon":5.3739,"is_reserved":false,"is_disabled":false,"rental_uris":{"android":"levelo://app?vid=23edf86f-0d3b-4592-835d-eabf2ed9286d","ios":"levelo://app?vid=23edf86f-0d3b-4592-835d-eabf2ed9286d"},"vehicle_type_id":"4","last_reported":1770895908,"current_range_meters":10800,"station_id":"ce4bgs92rcd13ifvqcc0","pricing_plan_id":"cebpf4jnsgd1na2vs0mg"},{"bike_id":"8b6c6055-11c8-47ef-a755-295c17d6052d","system_id":"levelo_inurba_marseille","lat":43.28154,"lon":5.42641,"is_reserved":false,"is_disabled":false,"rental_uris":{"android":"levelo://app?vid=8b6c6055-11c8-47ef-a755-295c17d6052d","ios":"levelo://app?vid=8b6c6055-11c8-47ef-a755-295c17d6052d"},"vehicle_type_id":"4","last_reported":1770895908,"current_range_meters":10800,"station_id":"","pricing_plan_id":"cebpf4jnsgd1na2vs0mg"},{"bike_id":"98470ad8-61ff-4503-ba30-a88c2a2dc541","system_id":"levelo_inurba_marseille","lat":43.27509,"lon":5.42458,"is_reserved":false,"is_disabled":true,"rental_uris":{"android":"levelo://app?vid=98470ad8-61ff-4503-ba30-a88c2a2dc541","ios":"levelo://app?vid=98470ad8-61ff-4503-ba30-a88c2a2dc541"},"vehicle_type_id":"4","last_reported":1770895908,"current_range_meters":10800,"station_id":"ce4bhn92rcd13ifvqgrg","pricing_plan_id":"cebpf4jnsgd1na2vs0mg"},{"bike_id":"c6539a14-02de-4e7f-80df-ef6ad4a8a9d8","system_id":"levelo_inurba_marseille","lat":43.2892,"lon":5.3962,"is_reserved":false,"is_disabled":false,"rental_uris":{"android":"levelo://app?vid=c6539a14-02de-4e7f-80df-ef6ad4a8a9d8","ios":"levelo://app?vid=c6539a14-02de-4e7f-80df-ef6ad4a8a9d8"},"vehicle_type_id":"4","last_reported":1770895908,"current_range_meters":10800,"station_id":"ce4bh3h2rcd13ifvqdn0","pricing_plan_id":"cebpf4jnsgd1na2vs0mg"},{"bike_id":"00ca5d46-bf82-4ee1-883e-28a9ccc8f800","system_id":"levelo_inurba_marseille","lat":43.29715,"lon":5.37699,"is_reserved":false,"is_disabled":false,"rental_uris":{"android":"levelo://app?vid=00ca5d46-bf82-4ee1-883e-28a9ccc8f800","ios":"levelo://app?vid=00ca5d46-bf82-4ee1-883e-28a9ccc8f800"},"vehicle_type_id":"4","last_reported":1770895908,"current_range_meters":10800,"station_id":"ce4bgkh2rcd13ifvqbl0","pricing_plan_id":"cebpf4jnsgd1na2vs0mg"},{"bike_id":"0270cee7-d38d-40e7-8096-229f09bfe278","system_id":"levelo_inurba_marseille","lat":43.24997,"lon":5.38928,"is_reserved":false,"is_disabled":false,"rental_uris":{"android":"levelo://app?vid=0270cee7-d38d-40e7-8096-229f09bfe278","ios":"levelo://app?vid=0270cee7-d38d-40e7-8096-229f09bfe278"},"vehicle_type_id":"4","last_reported":1770895908,"current_range_meters":10800,"station_id":"ce4bhgp2rcd13ifvqfd0","pricing_plan_id":"cebpf4jnsgd1na2vs0mg"},{"bike_id":"df373b99-2df4-45ca-b1f3-0caae337f4bd","system_id":"levelo_inurba_marseille","lat":43.24473,"lon":5.4254,"is_reserved":false,"is_disabled":false,"rental_uris":{"android":"levelo://app?vid=df373b99-2df4-45ca-b1f3-0caae337f4bd","ios":"levelo://app?vid=df373b99-2df4-45ca-b1f3-0caae337f4bd"},"vehicle_type_id":"4","last_reported":1770895908,"current_range_meters":10800,"station_id":"st_d4a3vfp97mjs738cd8kg","pricing_plan_id":"cebpf4jnsgd1na2vs0mg"},{"bike_id":"7b0d4d51-03c0-4095-b779-7a9f189c6808","system_id":"levelo_inurba_marseille","lat":43.28342,"lon":5.38104,"is_reserved":false,"is_disabled":false,"rental_uris":{"android":"levelo://app?vid=7b0d4d51-03c0-4095-b779-7a9f189c6808","ios":"levelo://app?vid=7b0d4d51-03c0-4095-b779-7a9f189c6808"},"vehicle_type_id":"4","last_reported":1770895908,"current_range_meters":10800,"station_id":"ce4bh412rcd13ifvqdr0","pricing_plan_id":"cebpf4jnsgd1na2vs0mg"},{"bike_id":"c8146efe-1259-49ad-8200-aa0acd849ec8","system_id":"levelo_inurba_marseille","lat":43.29497,"lon":5.4331,"is_reserved":false,"is_disabled":true,"rental_uris":{"android":"levelo://app?vid=c8146efe-1259-49ad-8200-aa0acd849ec8","ios":"levelo://app?vid=c8146efe-1259-49ad-8200-aa0acd849ec8"},"vehicle_type_id":"4","last_reported":1770895908,"current_range_meters":10800,"station_id":"st_d3j5ugp08ojc73fj9d10","pricing_plan_id":"cebpf4jnsgd1na2vs0mg"},{"bike_id":"28891715-79eb-4d1a-be8f-0ed5372c5d55","system_id":"levelo_inurba_marseille","lat":43.30158,"lon":5.38081,"is_reserved":false,"is_disabled":false,"rental_uris":{"android":"levelo://app?vid=28891715-79eb-4d1a-be8f-0ed5372c5d55","ios":"levelo://app?vid=28891715-79eb-4d1a-be8f-0ed5372c5d55"},"vehicle_type_id":"4","last_reported":1770895908,"current_range_meters":10800,"station_id":"ce4bgjp2rcd13ifvqbh0","pricing_plan_id":"cebpf4jnsgd1na2vs0mg"},{"bike_id":"7ebaa038-f7e8-4cf9-aac2-b18fb424d74a","system_id":"levelo_inurba_marseille","lat":43.2764,"lon":5.39562,"is_reserved":false,"is_disabled":false,"rental_uris":{"android":"levelo://app?vid=7ebaa038-f7e8-4cf9-aac2-b18fb424d74a","ios":"levelo://app?vid=7ebaa038-f7e8-4cf9-aac2-b18fb424d74a"},"vehicle_type_id":"4","last_reported":1770895908,"current_range_meters":10800,"station_id":"","pricing_plan_id":"cebpf4jnsgd1na2vs0mg"},{"bike_id":"5effb89f-1d70-4615-a4b6-1dc3bfffaecb","system_id":"levelo_inurba_marseille","lat":43.29232,"lon":5.3606,"is_reserved":false,"is_disabled":false,"rental_uris":{"android":"levelo://app?vid=5effb89f-1d70-4615-a4b6-1dc3bfffaecb","ios":"levelo://app?vid=5effb89f-1d70-4615-a4b6-1dc3bfffaecb"},"vehicle_type_id":"4","last_reported":1770895908,"current_range_meters":10800,"station_id":"ce4bhbh2rcd13ifvqeqg","pricing_plan_id":"cebpf4jnsgd1na2vs0mg"},{"bike_id":"083585e0-2ab2-45fd-b076-9ccee29ca430","system_id":"levelo_inurba_marseille","lat":43.23152,"lon":5.43716,"is_reserved":false,"is_disabled":false,"rental_uris":{"android":"levelo://app?vid=083585e0-2ab2-45fd-b076-9ccee29ca430","ios":"levelo://app?vid=083585e0-2ab2-45fd-b076-9ccee29ca430"},"vehicle_type_id":"4","last_reported":1770895908,"current_range_meters":10800,"station_id":"ce4bhmp2rcd13ifvqgog","pricing_plan_id":"cebpf4jnsgd1na2vs0mg"},{"bike_id":"13028dd4-e894-442e-bf4d-7d6a0f35c6cc","system_id":"levelo_inurba_marseille","lat":43.24073,"lon":5.37731,"is_reserved":false,"is_disabled":false,"rental_uris":{"android":"levelo://app?vid=13028dd4-e894-442e-bf4d-7d6a0f35c6cc","ios":"levelo://app?vid=13028dd4-e894-442e-bf4d-7d6a0f35c6cc"},"vehicle_type_id":"4","last_reported":1770895908,"current_range_meters":10800,"station_id":"ce4bhnp2rcd13ifvqgvg","pricing_plan_id":"cebpf4jnsgd1na2vs0mg"},{"bike_id":"9c4c1e7a-1b62-44f2-90e2-1ab3714cbf42","system_id":"levelo_inurba_marseille","lat":43.310443,"lon":5.371797,"is_reserved":false,"is_disabled":false,"rental_uris":{"android":"levelo://app?vid=9c4c1e7a-1b62-44f2-90e2-1ab3714cbf42","ios":"levelo://app?vid=9c4c1e7a-1b62-44f2-90e2-1ab3714cbf42"},"vehicle_type_id":"4","last_reported":1770895908,"current_range_meters":11200,"station_id":"st_d4kl2rp97mjs73e7tdfg","pricing_plan_id":"cebpf4jnsgd1na2vs0mg"},{"bike_id":"1553a87a-c070-44ad-8771-3bf3220a47ca","system_id":"levelo_inurba_marseille","lat":43.2707,"lon":5.38292,"is_reserved":false,"is_disabled":false,"rental_uris":{"android":"levelo://app?vid=1553a87a-c070-44ad-8771-3bf3220a47ca","ios":"levelo://app?vid=1553a87a-c070-44ad-8771-3bf3220a47ca"},"vehicle_type_id":"4","last_reported":1770895908,"current_range_meters":11200,"station_id":"st_d3n2fo6cfp8s73cte1j0","pricing_plan_id":"cebpf4jnsgd1na2vs0mg"},{"bike_id":"b39ba1aa-7b31-4368-898e-d2ae177a7edd","system_id":"levelo_inurba_marseille","lat":43.26518,"lon":5.37285,"is_reserved":false,"is_disabled":false,"rental_uris":{"android":"levelo://app?vid=b39ba1aa-7b31-4368-898e-d2ae177a7edd","ios":"levelo://app?vid=b39ba1aa-7b31-4368-898e-d2ae177a7edd"},"vehicle_type_id":"4","last_reported":1770895908,"current_range_meters":11200,"station_id":"","pricing_plan_id":"cebpf4jnsgd1na2vs0mg"},{"bike_id":"24beb69c-3a8c-4d35-9631-070c88397c48","system_id":"levelo_inurba_marseille","lat":43.31368,"lon":5.36768,"is_reserved":false,"is_disabled":false,"rental_uris":{"android":"levelo://app?vid=24beb69c-3a8c-4d35-9631-070c88397c48","ios":"levelo://app?vid=24beb69c-3a8c-4d35-9631-070c88397c48"},"vehicle_type_id":"4","last_reported":1770895908,"current_range_meters":11200,"station_id":"","pricing_plan_id":"cebpf4jnsgd1na2vs0mg"},{"bike_id":"8c60d5ae-062c-413c-b8b5-655786fb316a","system_id":"levelo_inurba_marseille","lat":43.26211,"lon":5.37931,"is_reserved":false,"is_disabled":false,"rental_uris":{"android":"levelo://app?vid=8c60d5ae-062c-413c-b8b5-655786fb316a","ios":"levelo://app?vid=8c60d5ae-062c-413c-b8b5-655786fb316a"},"vehicle_type_id":"4","last_reported":1770895908,"current_range_meters":11200,"station_id":"ce4bhjp2rcd13ifvqg90","pricing_plan_id":"cebpf4jnsgd1na2vs0mg"},{"bike_id":"69da07ac-31c5-4d95-a3dd-27442b17141c","system_id":"levelo_inurba_marseille","lat":43.23149,"lon":5.43721,"is_reserved":false,"is_disabled":false,"rental_uris":{"android":"levelo://app?vid=69da07ac-31c5-4d95-a3dd-27442b17141c","ios":"levelo://app?vid=69da07ac-31c5-4d95-a3dd-27442b17141c"},"vehicle_type_id":"4","last_reported":1770895908,"current_range_meters":11200,"station_id":"ce4bhmp2rcd13ifvqgog","pricing_plan_id":"cebpf4jnsgd1na2vs0mg"},{"bike_id":"8892eb4f-ec4d-4b84-b692-29750052e828","system_id":"levelo_inurba_marseille","lat":43.31706,"lon":5.43702,"is_reserved":false,"is_disabled":false,"rental_uris":{"android":"levelo://app?vid=8892eb4f-ec4d-4b84-b692-29750052e828","ios":"levelo://app?vid=8892eb4f-ec4d-4b84-b692-29750052e828"},"vehicle_type_id":"4","last_reported":1770895908,"current_range_meters":11200,"station_id":"ce4bhp92rcd13ifvqhcg","pricing_plan_id":"cebpf4jnsgd1na2vs0mg"},{"bike_id":"481af2c1-cc29-4b4a-8874-d8a4ab66d08d","system_id":"levelo_inurba_marseille","lat":43.31851,"lon":5.38444,"is_reserved":false,"is_disabled":false,"rental_uris":{"android":"levelo://app?vid=481af2c1-cc29-4b4a-8874-d8a4ab66d08d","ios":"levelo://app?vid=481af2c1-cc29-4b4a-8874-d8a4ab66d08d"},"vehicle_type_id":"4","last_reported":1770895908,"current_range_meters":11200,"station_id":"","pricing_plan_id":"cebpf4jnsgd1na2vs0mg"},{"bike_id":"2ddb74e5-6790-45b0-ae81-55d53893d2bd","system_id":"levelo_inurba_marseille","lat":43.2641,"lon":5.41052,"is_reserved":false,"is_disabled":false,"rental_uris":{"android":"levelo://app?vid=2ddb74e5-6790-45b0-ae81-55d53893d2bd","ios":"levelo://app?vid=2ddb74e5-6790-45b0-ae81-55d53893d2bd"},"vehicle_type_id":"4","last_reported":1770895908,"current_range_meters":11200,"station_id":"","pricing_plan_id":"cebpf4jnsgd1na2vs0mg"},{"bike_id":"cda7d6c8-90ff-4c0c-aa9e-d7b16914d690","system_id":"levelo_inurba_marseille","lat":43.273727,"lon":5.362521,"is_reserved":false,"is_disabled":false,"rental_uris":{"android":"levelo://app?vid=cda7d6c8-90ff-4c0c-aa9e-d7b16914d690","ios":"levelo://app?vid=cda7d6c8-90ff-4c0c-aa9e-d7b16914d690"},