{"last_updated":1729721322,"ttl":60,"version":"2.2","data":{"bikes":[{"bike_id":"93fd7287-b7ec-4c38-ac80-5c37f66999b7","system_id":"levelo_inurba_marseille","lat":43.24389,"lon":5.37054,"is_reserved":false,"is_disabled":false,"rental_uris":{"android":"levelo://app?vid=93fd7287-b7ec-4c38-ac80-5c37f66999b7","ios":"levelo://app?vid=93fd7287-b7ec-4c38-ac80-5c37f66999b7"},"vehicle_type_id":"4","last_reported":1729721322,"current_range_meters":4400,"station_id":"ce4bhhh2rcd13ifvqfk0","pricing_plan_id":"cebpf4jnsgd1na2vs0mg"},{"bike_id":"5f4c504f-64d7-447b-9c63-fa627168ec7b","system_id":"levelo_inurba_marseille","lat":43.28463,"lon":5.35883,"is_reserved":false,"is_disabled":false,"rental_uris":{"android":"levelo://app?vid=5f4c504f-64d7-447b-9c63-fa627168ec7b","ios":"levelo://app?vid=5f4c504f-64d7-447b-9c63-fa627168ec7b"},"vehicle_type_id":"4","last_reported":1729721322,"current_range_meters":39200,"station_id":"ce4bhah2rcd13ifvqei0","pricing_plan_id":"cebpf4jnsgd1na2vs0mg"},{"bike_id":"6e7189c8-6d34-4945-8fbf-b2a1a37960a8","system_id":"levelo_inurba_marseille","lat":43.31693,"lon":5.37767,"is_reserved":false,"is_disabled":false,"rental_uris":{"android":"levelo://app?vid=6e7189c8-6d34-4945-8fbf-b2a1a37960a8","ios":"levelo://app?vid=6e7189c8-6d34-4945-8fbf-b2a1a37960a8"},"vehicle_type_id":"4","last_reported":1729721322,"current_range_meters":25200,"station_id":"ce4bgth2rcd13ifvqch0","pricing_plan_id":"cebpf4jnsgd1na2vs0mg"},{"bike_id":"4e718520-217c-4986-8e4a-4dbcae9b7210","system_id":"levelo_inurba_marseille","lat":43.27996,"lon":5.4166,"is_reserved":false,"is_disabled":false,"rental_uris":{"android":"levelo://app?vid=4e718520-217c-4986-8e4a-4dbcae9b7210","ios":"levelo://app?vid=4e718520-217c-4986-8e4a-4dbcae9b7210"},"vehicle_type_id":"4","last_reported":1729721322,"current_range_meters":12000,"station_id":"ce4bho12rcd13ifvqh1g","pricing_plan_id":"cebpf4jnsgd1na2vs0mg"},{"bike_id":"ad149999-cdab-442e-abeb-f4ceecd45694","system_id":"levelo_inurba_marseille","lat":43.30927,"lon":5.40139,"is_reserved":false,"is_disabled":false,"rental_uris":{"android":"levelo://app?vid=ad149999-cdab-442e-abeb-f4ceecd45694","ios":"levelo://app?vid=ad149999-cdab-442e-abeb-f4ceecd45694"},"vehicle_type_id":"4","last_reported":1729721322,"current_range_meters":23200,"station_id":"ce4bgvp2rcd13ifvqct0","pricing_plan_id":"cebpf4jnsgd1na2vs0mg"},{"bike_id":"d0edebc8-58bc-4161-a781-f1a7ae0f5bb1","system_id":"levelo_inurba_marseille","lat":43.29021,"lon":5.38121,"is_reserved":false,"is_disabled":false,"rental_uris":{"android":"levelo://app?vid=d0edebc8-58bc-4161-a781-f1a7ae0f5bb1","ios":"levelo://app?vid=d0edebc8-58bc-4161-a781-f1a7ae0f5bb1"},"vehicle_type_id":"4","last_reported":1729721322,"current_range_meters":30000,"station_id":"ce4bh4p2rcd13ifvqe1g","pricing_plan_id":"cebpf4jnsgd1na2vs0mg"},{"bike_id":"438e2e5b-05a2-48cc-9635-59f37e741a33","system_id":"levelo_inurba_marseille","lat":43.30326,"lon":5.40433,"is_reserved":false,"is_disabled":false,"rental_uris":{"android":"levelo://app?vid=438e2e5b-05a2-48cc-9635-59f37e741a33","ios":"levelo://app?vid=438e2e5b-05a2-48cc-9635-59f37e741a33"},"vehicle_type_id":"4","last_reported":1729721322,"current_range_meters":38800,"station_id":"ce4bh012rcd13ifvqd10","pricing_plan_id":"cebpf4jnsgd1na2vs0mg"},{"bike_id":"94c12172-b856-41ca-8443-edbd9913356a","system_id":"levelo_inurba_marseille","lat":43.3094,"lon":5.40149,"is_reserved":false,"is_disabled":false,"rental_uris":{"android":"levelo://app?vid=94c12172-b856-41ca-8443-edbd9913356a","ios":"levelo://app?vid=94c12172-b856-41ca-8443-edbd9913356a"},"vehicle_type_id":"4","last_reported":1729721322,"current_range_meters":7200,"station_id":"ce4bgvp2rcd13ifvqct0","pricing_plan_id":"cebpf4jnsgd1na2vs0mg"},{"bike_id":"19360784-a299-4a2b-b785-3eeca7d663bd","system_id":"levelo_inurba_marseille","lat":43.3032,"lon":5.40435,"is_reserved":false,"is_disabled":false,"rental_uris":{"android":"levelo://app?vid=19360784-a299-4a2b-b785-3eeca7d663bd","ios":"levelo://app?vid=19360784-a299-4a2b-b785-3eeca7d663bd"},"vehicle_type_id":"4","last_reported":1729721322,"current_range_meters":36000,"station_id":"ce4bh012rcd13ifvqd10","pricing_plan_id":"cebpf4jnsgd1na2vs0mg"},{"bike_id":"4eb2585b-e0a0-4fa6-b510-c5248c4af062","system_id":"levelo_inurba_marseille","lat":43.29862,"lon":5.39736,"is_reserved":false,"is_disabled":false,"rental_uris":{"android":"levelo://app?vid=4eb2585b-e0a0-4fa6-b510-c5248c4af062","ios":"levelo://app?vid=4eb2585b-e0a0-4fa6-b510-c5248c4af062"},"vehicle_type_id":"4","last_reported":1729721322,"current_range_meters":38800,"station_id":"ce4bh0h2rcd13ifvqd50","pricing_plan_id":"cebpf4jnsgd1na2vs0mg"},{"bike_id":"9f074ccd-7b5d-4615-a0de-1df1963b28b4","system_id":"levelo_inurba_marseille","lat":43.31484,"lon":5.37299,"is_reserved":false,"is_disabled":false,"rental_uris":{"android":"levelo://app?vid=9f074ccd-7b5d-4615-a0de-1df1963b28b4","ios":"levelo://app?vid=9f074ccd-7b5d-4615-a0de-1df1963b28b4"},"vehicle_type_id":"4","last_reported":1729721322,"current_range_meters":38800,"station_id":"ce4bgt12rcd13ifvqcd0","pricing_plan_id":"cebpf4jnsgd1na2vs0mg"},{"bike_id":"a93517ff-5a1d-4565-bd61-fa3438f9dc6e","system_id":"levelo_inurba_marseille","lat":43.30881,"lon":5.3963,"is_reserved":false,"is_disabled":false,"rental_uris":{"android":"levelo://app?vid=a93517ff-5a1d-4565-bd61-fa3438f9dc6e","ios":"levelo://app?vid=a93517ff-5a1d-4565-bd61-fa3438f9dc6e"},"vehicle_type_id":"4","last_reported":1729721322,"current_range_meters":7200,"station_id":"ce4bh012rcd13ifvqcv0","pricing_plan_id":"cebpf4jnsgd1na2vs0mg"},{"bike_id":"f7674553-c2f7-442c-84e6-6b1b6677d5de","system_id":"levelo_inurba_marseille","lat":43.28715,"lon":5.39999,"is_reserved":false,"is_disabled":false,"rental_uris":{"android":"levelo://app?vid=f7674553-c2f7-442c-84e6-6b1b6677d5de","ios":"levelo://app?vid=f7674553-c2f7-442c-84e6-6b1b6677d5de"},"vehicle_type_id":"4","last_reported":1729721322,"current_range_meters":34000,"station_id":"ce4bho92rcd13ifvqh3g","pricing_plan_id":"cebpf4jnsgd1na2vs0mg"},{"bike_id":"694679e3-89bc-474b-88d4-72f2607e9aa9","system_id":"levelo_inurba_marseille","lat":43.2781,"lon":5.40711,"is_reserved":false,"is_disabled":false,"rental_uris":{"android":"levelo://app?vid=694679e3-89bc-474b-88d4-72f2607e9aa9","ios":"levelo://app?vid=694679e3-89bc-474b-88d4-72f2607e9aa9"},"vehicle_type_id":"4","last_reported":1729721322,"current_range_meters":8000,"station_id":"ce4bhnh2rcd13ifvqgtg","pricing_plan_id":"cebpf4jnsgd1na2vs0mg"},{"bike_id":"cc99ca6d-33d2-4a11-b5ce-f76b4cb06056","system_id":"levelo_inurba_marseille","lat":43.24388,"lon":5.37055,"is_reserved":false,"is_disabled":false,"rental_uris":{"android":"levelo://app?vid=cc99ca6d-33d2-4a11-b5ce-f76b4cb06056","ios":"levelo://app?vid=cc99ca6d-33d2-4a11-b5ce-f76b4cb06056"},"vehicle_type_id":"4","last_reported":1729721322,"current_range_meters":20000,"station_id":"ce4bhhh2rcd13ifvqfk0","pricing_plan_id":"cebpf4jnsgd1na2vs0mg"},{"bike_id":"99648e5a-7e88-4733-946b-7dfeebf78051","system_id":"levelo_inurba_marseille","lat":43.24068,"lon":5.37762,"is_reserved":false,"is_disabled":false,"rental_uris":{"android":"levelo://app?vid=99648e5a-7e88-4733-946b-7dfeebf78051","ios":"levelo://app?vid=99648e5a-7e88-4733-946b-7dfeebf78051"},"vehicle_type_id":"4","last_reported":1729721322,"current_range_meters":2000,"station_id":"ce4bhnp2rcd13ifvqgvg","pricing_plan_id":"cebpf4jnsgd1na2vs0mg"},{"bike_id":"c6179019-ae0a-4fdb-a7ae-c068176266d2","system_id":"levelo_inurba_marseille","lat":43.2837,"lon":5.38634,"is_reserved":false,"is_disabled":false,"rental_uris":{"android":"levelo://app?vid=c6179019-ae0a-4fdb-a7ae-c068176266d2","ios":"levelo://app?vid=c6179019-ae0a-4fdb-a7ae-c068176266d2"},"vehicle_type_id":"4","last_reported":1729721322,"current_range_meters":24800,"station_id":"ce4bh492rcd13ifvqdvg","pricing_plan_id":"cebpf4jnsgd1na2vs0mg"},{"bike_id":"c80861ab-e94d-4e79-91dd-39988fbd0a6a","system_id":"levelo_inurba_marseille","lat":43.30955,"lon":5.39055,"is_reserved":false,"is_disabled":false,"rental_uris":{"android":"levelo://app?vid=c80861ab-e94d-4e79-91dd-39988fbd0a6a","ios":"levelo://app?vid=c80861ab-e94d-4e79-91dd-39988fbd0a6a"},"vehicle_type_id":"4","last_reported":1729721322,"current_range_meters":38400,"station_id":"ce4bgup2rcd13ifvqco0","pricing_plan_id":"cebpf4jnsgd1na2vs0mg"},{"bike_id":"6abf3a03-af67-4859-8e11-a67b93278e15","system_id":"levelo_inurba_marseille","lat":43.31992,"lon":5.38147,"is_reserved":false,"is_disabled":false,"rental_uris":{"android":"levelo://app?vid=6abf3a03-af67-4859-8e11-a67b93278e15","ios":"levelo://app?vid=6abf3a03-af67-4859-8e11-a67b93278e15"},"vehicle_type_id":"4","last_reported":1729721322,"current_range_meters":8800,"station_id":"ce4bhr12rcd13ifvqhpg","pricing_plan_id":"cebpf4jnsgd1na2vs0mg"},{"bike_id":"03dd22fb-5c79-41d9-9a45-aa97b9b6fd1f","system_id":"levelo_inurba_marseille","lat":43.28462,"lon":5.35879,"is_reserved":false,"is_disabled":false,"rental_uris":{"android":"levelo://app?vid=03dd22fb-5c79-41d9-9a45-aa97b9b6fd1f","ios":"levelo://app?vid=03dd22fb-5c79-41d9-9a45-aa97b9b6fd1f"},"vehicle_type_id":"4","last_reported":1729721322,"current_range_meters":38800,"station_id":"ce4bhah2rcd13ifvqei0","pricing_plan_id":"cebpf4jnsgd1na2vs0mg"},{"bike_id":"18773a67-aaf4-4d0c-9bc3-2a029c8809da","system_id":"levelo_inurba_marseille","lat":43.33606,"lon":5.41036,"is_reserved":false,"is_disabled":false,"rental_uris":{"android":"levelo://app?vid=18773a67-aaf4-4d0c-9bc3-2a029c8809da","ios":"levelo://app?vid=18773a67-aaf4-4d0c-9bc3-2a029c8809da"},"vehicle_type_id":"4","last_reported":1729721322,"current_range_meters":11200,"station_id":"ce4bhqh2rcd13ifvqhmg","pricing_plan_id":"cebpf4jnsgd1na2vs0mg"},{"bike_id":"cea9d1db-f57d-46d9-b5ea-3e72aa1fb49e","system_id":"levelo_inurba_marseille","lat":43.28462,"lon":5.35884,"is_reserved":false,"is_disabled":false,"rental_uris":{"android":"levelo://app?vid=cea9d1db-f57d-46d9-b5ea-3e72aa1fb49e","ios":"levelo://app?vid=cea9d1db-f57d-46d9-b5ea-3e72aa1fb49e"},"vehicle_type_id":"4","last_reported":1729721322,"current_range_meters":15200,"station_id":"ce4bhah2rcd13ifvqei0","pricing_plan_id":"cebpf4jnsgd1na2vs0mg"},{"bike_id":"c32c8fa1-ca72-4391-80ca-255b828a665b","system_id":"levelo_inurba_marseille","lat":43.31485,"lon":5.37306,"is_reserved":false,"is_disabled":false,"rental_uris":{"android":"levelo://app?vid=c32c8fa1-ca72-4391-80ca-255b828a665b","ios":"levelo://app?vid=c32c8fa1-ca72-4391-80ca-255b828a665b"},"vehicle_type_id":"4","last_reported":1729721322,"current_range_meters":33200,"station_id":"ce4bgt12rcd13ifvqcd0","pricing_plan_id":"cebpf4jnsgd1na2vs0mg"},{"bike_id":"36ec8878-8122-4313-9a7f-14a8878dc458","system_id":"levelo_inurba_marseille","lat":43.33737,"lon":5.37458,"is_reserved":false,"is_disabled":false,"rental_uris":{"android":"levelo://app?vid=36ec8878-8122-4313-9a7f-14a8878dc458","ios":"levelo://app?vid=36ec8878-8122-4313-9a7f-14a8878dc458"},"vehicle_type_id":"4","last_reported":1729721322,"current_range_meters":27600,"station_id":"","pricing_plan_id":"cebpf4jnsgd1na2vs0mg"},{"bike_id":"8d4da9a7-c48a-4d72-97d0-0e1272ca765b","system_id":"levelo_inurba_marseille","lat":43.290253,"lon":5.381352,"is_reserved":false,"is_disabled":false,"rental_uris":{"android":"levelo://app?vid=8d4da9a7-c48a-4d72-97d0-0e1272ca765b","ios":"levelo://app?vid=8d4da9a7-c48a-4d72-97d0-0e1272ca765b"},"vehicle_type_id":"4","last_reported":1729721322,"current_range_meters":27200,"station_id":"ce4bh4p2rcd13ifvqe1g","pricing_plan_id":"cebpf4jnsgd1na2vs0mg"},{"bike_id":"342b8e9e-8728-45a0-9fb0-e3e7103c1a48","system_id":"levelo_inurba_marseille","lat":43.27497,"lon":5.42451,"is_reserved":false,"is_disabled":false,"rental_uris":{"android":"levelo://app?vid=342b8e9e-8728-45a0-9fb0-e3e7103c1a48","ios":"levelo://app?vid=342b8e9e-8728-45a0-9fb0-e3e7103c1a48"},"vehicle_type_id":"4","last_reported":1729721322,"current_range_meters":9200,"station_id":"ce4bhn92rcd13ifvqgrg","pricing_plan_id":"cebpf4jnsgd1na2vs0mg"},{"bike_id":"0579dd22-0eb8-44db-9f4f-c442859c98c5","system_id":"levelo_inurba_marseille","lat":43.30419,"lon":5.39746,"is_reserved":false,"is_disabled":false,"rental_uris":{"android":"levelo://app?vid=0579dd22-0eb8-44db-9f4f-c442859c98c5","ios":"levelo://app?vid=0579dd22-0eb8-44db-9f4f-c442859c98c5"},"vehicle_type_id":"4","last_reported":1729721322,"current_range_meters":39200,"station_id":"ce4bh092rcd13ifvqd20","pricing_plan_id":"cebpf4jnsgd1na2vs0mg"},{"bike_id":"3e6dacef-7721-4fd6-908f-05fbf9bc0354","system_id":"levelo_inurba_marseille","lat":43.23192,"lon":5.35551,"is_reserved":false,"is_disabled":false,"rental_uris":{"android":"levelo://app?vid=3e6dacef-7721-4fd6-908f-05fbf9bc0354","ios":"levelo://app?vid=3e6dacef-7721-4fd6-908f-05fbf9bc0354"},"vehicle_type_id":"4","last_reported":1729721322,"current_range_meters":34800,"station_id":"ce4bhu92rcd13ifvqi70","pricing_plan_id":"cebpf4jnsgd1na2vs0mg"},{"bike_id":"9e533d1b-d25e-439a-bcca-ccd89fb3b0cb","system_id":"levelo_inurba_marseille","lat":43.29194,"lon":5.39313,"is_reserved":false,"is_disabled":false,"rental_uris":{"android":"levelo://app?vid=9e533d1b-d25e-439a-bcca-ccd89fb3b0cb","ios":"levelo://app?vid=9e533d1b-d25e-439a-bcca-ccd89fb3b0cb"},"vehicle_type_id":"4","last_reported":1729721322,"current_range_meters":38800,"station_id":"ce4bh192rcd13ifvqdd0","pricing_plan_id":"cebpf4jnsgd1na2vs0mg"},{"bike_id":"0f78dea4-15d6-4bdb-84d2-f9a7915f61fa","system_id":"levelo_inurba_marseille","lat":43.28468,"lon":5.35877,"is_reserved":false,"is_disabled":false,"rental_uris":{"android":"levelo://app?vid=0f78dea4-15d6-4bdb-84d2-f9a7915f61fa","ios":"levelo://app?vid=0f78dea4-15d6-4bdb-84d2-f9a7915f61fa"},"vehicle_type_id":"4","last_reported":1729721322,"current_range_meters":7200,"station_id":"ce4bhah2rcd13ifvqei0","pricing_plan_id":"cebpf4jnsgd1na2vs0mg"},{"bike_id":"b8c9a954-8a45-4a7c-9122-e43683fb8fcc","system_id":"levelo_inurba_marseille","lat":43.24655,"lon":5.38887,"is_reserved":false,"is_disabled":false,"rental_uris":{"android":"levelo://app?vid=b8c9a954-8a45-4a7c-9122-e43683fb8fcc","ios":"levelo://app?vid=b8c9a954-8a45-4a7c-9122-e43683fb8fcc"},"vehicle_type_id":"4","last_reported":1729721322,"current_range_meters":38800,"station_id":"ce4bhg12rcd13ifvqf60","pricing_plan_id":"cebpf4jnsgd1na2vs0mg"},{"bike_id":"97ce6431-cdfe-4c86-8575-534875aed7f5","system_id":"levelo_inurba_marseille","lat":43.3053,"lon":5.36659,"is_reserved":false,"is_disabled":false,"rental_uris":{"android":"levelo://app?vid=97ce6431-cdfe-4c86-8575-534875aed7f5","ios":"levelo://app?vid=97ce6431-cdfe-4c86-8575-534875aed7f5"},"vehicle_type_id":"4","last_reported":1729721322,"current_range_meters":10000,"station_id":"","pricing_plan_id":"cebpf4jnsgd1na2vs0mg"},{"bike_id":"bc8c5f05-14d5-4aff-bd18-3ffa8d394552","system_id":"levelo_inurba_marseille","lat":43.30602,"lon":5.37231,"is_reserved":false,"is_disabled":false,"rental_uris":{"android":"levelo://app?vid=bc8c5f05-14d5-4aff-bd18-3ffa8d394552","ios":"levelo://app?vid=bc8c5f05-14d5-4aff-bd18-3ffa8d394552"},"vehicle_type_id":"4","last_reported":1729721322,"current_range_meters":28000,"station_id":"ce4bgqh2rcd13ifvqc4g","pricing_plan_id":"cebpf4jnsgd1na2vs0mg"},{"bike_id":"bc4efb73-4734-4293-a1eb-82c722d0ec12","system_id":"levelo_inurba_marseille","lat":43.255006,"lon":5.375988,"is_reserved":false,"is_disabled":false,"rental_uris":{"android":"levelo://app?vid=bc4efb73-4734-4293-a1eb-82c722d0ec12","ios":"levelo://app?vid=bc4efb73-4734-4293-a1eb-82c722d0ec12"},"vehicle_type_id":"4","last_reported":1729721322,"current_range_meters":38800,"station_id":"ce4bhh12rcd13ifvqff0","pricing_plan_id":"cebpf4jnsgd1na2vs0mg"},{"bike_id":"4e6761e9-7a62-4e39-b016-0258a469d9f7","system_id":"levelo_inurba_marseille","lat":43.25825,"lon":5.39409,"is_reserved":false,"is_disabled":false,"rental_uris":{"android":"levelo://app?vid=4e6761e9-7a62-4e39-b016-0258a469d9f7","ios":"levelo://app?vid=4e6761e9-7a62-4e39-b016-0258a469d9f7"},"vehicle_type_id":"4","last_reported":1729721322,"current_range_meters":33600,"station_id":"ce4bhip2rcd13ifvqft0","pricing_plan_id":"cebpf4jnsgd1na2vs0mg"},{"bike_id":"66b05623-5668-42d4-96b3-2489f31ac472","system_id":"levelo_inurba_marseille","lat":43.26942,"lon":5.40251,"is_reserved":false,"is_disabled":false,"rental_uris":{"android":"levelo://app?vid=66b05623-5668-42d4-96b3-2489f31ac472","ios":"levelo://app?vid=66b05623-5668-42d4-96b3-2489f31ac472"},"vehicle_type_id":"4","last_reported":1729721322,"current_range_meters":39200,"station_id":"cjm6bp8fraef2m0cb0m0","pricing_plan_id":"cebpf4jnsgd1na2vs0mg"},{"bike_id":"ec3ef296-33b2-4830-86e8-b120045b01d6","system_id":"levelo_inurba_marseille","lat":43.30804,"lon":5.38145,"is_reserved":false,"is_disabled":false,"rental_uris":{"android":"levelo://app?vid=ec3ef296-33b2-4830-86e8-b120045b01d6","ios":"levelo://app?vid=ec3ef296-33b2-4830-86e8-b120045b01d6"},"vehicle_type_id":"4","last_reported":1729721322,"current_range_meters":28000,"station_id":"ce4bgt12rcd13ifvqce0","pricing_plan_id":"cebpf4jnsgd1na2vs0mg"},{"bike_id":"5c87b9ea-7784-490e-9ffc-03b6b814c910","system_id":"levelo_inurba_marseille","lat":43.2928,"lon":5.40113,"is_reserved":false,"is_disabled":false,"rental_uris":{"android":"levelo://app?vid=5c87b9ea-7784-490e-9ffc-03b6b814c910","ios":"levelo://app?vid=5c87b9ea-7784-490e-9ffc-03b6b814c910"},"vehicle_type_id":"4","last_reported":1729721322,"current_range_meters":16800,"station_id":"ce4bh312rcd13ifvqdk0","pricing_plan_id":"cebpf4jnsgd1na2vs0mg"},{"bike_id":"9119640f-be31-4c54-a6c3-c9532b895405","system_id":"levelo_inurba_marseille","lat":43.2846,"lon":5.35889,"is_reserved":false,"is_disabled":false,"rental_uris":{"android":"levelo://app?vid=9119640f-be31-4c54-a6c3-c9532b895405","ios":"levelo://app?vid=9119640f-be31-4c54-a6c3-c9532b895405"},"vehicle_type_id":"4","last_reported":1729721322,"current_range_meters":38800,"station_id":"ce4bhah2rcd13ifvqei0","pricing_plan_id":"cebpf4jnsgd1na2vs0mg"},{"bike_id":"855b5ba5-b603-4e6d-859d-b27444f40076","system_id":"levelo_inurba_marseille","lat":43.2885,"lon":5.39312,"is_reserved":false,"is_disabled":false,"rental_uris":{"android":"levelo://app?vid=855b5ba5-b603-4e6d-859d-b27444f40076","ios":"levelo://app?vid=855b5ba5-b603-4e6d-859d-b27444f40076"},"vehicle_type_id":"4","last_reported":1729721322,"current_range_meters":24400,"station_id":"ce4bh2p2rcd13ifvqdi0","pricing_plan_id":"cebpf4jnsgd1na2vs0mg"},{"bike_id":"41d3ea68-368c-46bb-90b9-b09d5818628e","system_id":"levelo_inurba_marseille","lat":43.30098,"lon":5.39073,"is_reserved":false,"is_disabled":false,"rental_uris":{"android":"levelo://app?vid=41d3ea68-368c-46bb-90b9-b09d5818628e","ios":"levelo://app?vid=41d3ea68-368c-46bb-90b9-b09d5818628e"},"vehicle_type_id":"4","last_reported":1729721322,"current_range_meters":3600,"station_id":"ce4bh192rcd13ifvqdb0","pricing_plan_id":"cebpf4jnsgd1na2vs0mg"},{"bike_id":"ac595247-c71d-4442-af8d-ee955e3a2370","system_id":"levelo_inurba_marseille","lat":43.2893,"lon":5.38391,"is_reserved":false,"is_disabled":false,"rental_uris":{"android":"levelo://app?vid=ac595247-c71d-4442-af8d-ee955e3a2370","ios":"levelo://app?vid=ac595247-c71d-4442-af8d-ee955e3a2370"},"vehicle_type_id":"4","last_reported":1729721322,"current_range_meters":16000,"station_id":"ce4bh612rcd13ifvqe6g","pricing_plan_id":"cebpf4jnsgd1na2vs0mg"},{"bike_id":"0cb9137a-f146-43e9-bc68-7c8144c4580c","system_id":"levelo_inurba_marseille","lat":43.29281,"lon":5.40118,"is_reserved":false,"is_disabled":false,"rental_uris":{"android":"levelo://app?vid=0cb9137a-f146-43e9-bc68-7c8144c4580c","ios":"levelo://app?vid=0cb9137a-f146-43e9-bc68-7c8144c4580c"},"vehicle_type_id":"4","last_reported":1729721322,"current_range_meters":13600,"station_id":"ce4bh312rcd13ifvqdk0","pricing_plan_id":"cebpf4jnsgd1na2vs0mg"},{"bike_id":"1d731c4f-aeec-4764-a0cb-ee5c6f2253ec","system_id":"levelo_inurba_marseille","lat":43.30933,"lon":5.40137,"is_reserved":false,"is_disabled":false,"rental_uris":{"android":"levelo://app?vid=1d731c4f-aeec-4764-a0cb-ee5c6f2253ec","ios":"levelo://app?vid=1d731c4f-aeec-4764-a0cb-ee5c6f2253ec"},"vehicle_type_id":"4","last_reported":1729721322,"current_range_meters":35600,"station_id":"ce4bgvp2rcd13ifvqct0","pricing_plan_id":"cebpf4jnsgd1na2vs0mg"},{"bike_id":"b3e7a7d1-421f-4dbc-bb54-1b11448fc6bc","system_id":"levelo_inurba_marseille","lat":43.30945,"lon":5.40141,"is_reserved":false,"is_disabled":false,"rental_uris":{"android":"levelo://app?vid=b3e7a7d1-421f-4dbc-bb54-1b11448fc6bc","ios":"levelo://app?vid=b3e7a7d1-421f-4dbc-bb54-1b11448fc6bc"},"vehicle_type_id":"4","last_reported":1729721322,"current_range_meters":40000,"station_id":"ce4bgvp2rcd13ifvqct0","pricing_plan_id":"cebpf4jnsgd1na2vs0mg"},{"bike_id":"89d7dad2-f110-49a2-b81e-0ff960506c0a","system_id":"levelo_inurba_marseille","lat":43.28724,"lon":5.40056,"is_reserved":false,"is_disabled":false,"rental_uris":{"android":"levelo://app?vid=89d7dad2-f110-49a2-b81e-0ff960506c0a","ios":"levelo://app?vid=89d7dad2-f110-49a2-b81e-0ff960506c0a"},"vehicle_type_id":"4","last_reported":1729721322,"current_range_meters":38800,"station_id":"ce4bho92rcd13ifvqh3g","pricing_plan_id":"cebpf4jnsgd1na2vs0mg"},{"bike_id":"f0e16166-8265-4503-882c-ceb2119c9b3c","system_id":"levelo_inurba_marseille","lat":43.24546,"lon":5.3952,"is_reserved":false,"is_disabled":false,"rental_uris":{"android":"levelo://app?vid=f0e16166-8265-4503-882c-ceb2119c9b3c","ios":"levelo://app?vid=f0e16166-8265-4503-882c-ceb2119c9b3c"},"vehicle_type_id":"4","last_reported":1729721322,"current_range_meters":24800,"station_id":"ce4bhlp2rcd13ifvqgjg","pricing_plan_id":"cebpf4jnsgd1na2vs0mg"},{"bike_id":"24c20e40-d0c4-4e46-9a0f-866947a231d3","system_id":"levelo_inurba_marseille","lat":43.28704,"lon":5.373883,"is_reserved":false,"is_disabled":false,"rental_uris":{"android":"levelo://app?vid=24c20e40-d0c4-4e46-9a0f-866947a231d3","ios":"levelo://app?vid=24c20e40-d0c4-4e46-9a0f-866947a231d3"},"vehicle_type_id":"4","last_reported":1729721322,"current_range_meters":10000,"station_id":"ce4bh3p2rcd13ifvqdq0","pricing_plan_id":"cebpf4jnsgd1na2vs0mg"},{"bike_id":"67614826-965b-46dd-a77e-57f3194790c7","system_id":"levelo_inurba_marseille","lat":43.30792,"lon":5.37649,"is_reserved":false,"is_disabled":false,"rental_uris":{"android":"levelo://app?vid=67614826-965b-46dd-a77e-57f3194790c7","ios":"levelo://app?vid=67614826-965b-46dd-a77e-57f3194790c7"},"vehicle_type_id":"4","last_reported":1729721322,"current_range_meters":16400,"station_id":"ce4bgv92rcd13ifvqcq0","pricing_plan_id":"cebpf4jnsgd1na2vs0mg"},{"bike_id":"aa99f811-363e-46a8-aef9-b5e22fccd73b","system_id":"levelo_inurba_marseille","lat":43.27898,"lon":5.38001,"is_reserved":false,"is_disabled":false,"rental_uris":{"android":"levelo://app?vid=aa99f811-363e-46a8-aef9-b5e22fccd73b","ios":"levelo://app?vid=aa99f811-363e-46a8-aef9-b5e22fccd73b"},"vehicle_type_id":"4","last_reported":1729721322,"current_range_meters":40000,"station_id":"ce4bhf92rcd13ifvqf50","pricing_plan_id":"cebpf4jnsgd1na2vs0mg"},{"bike_id":"e2296e9b-eed6-4fd1-ac02-4223589e07f6","system_id":"levelo_inurba_marseille","lat":43.30606,"lon":5.37233,"is_reserved":false,"is_disabled":false,"rental_uris":{"android":"levelo://app?vid=e2296e9b-eed6-4fd1-ac02-4223589e07f6","ios":"levelo://app?vid=e2296e9b-eed6-4fd1-ac02-4223589e07f6"},"vehicle_type_id":"4","last_reported":1729721322,"current_range_meters":21600,"station_id":"ce4bgqh2rcd13ifvqc4g","pricing_plan_id":"cebpf4jnsgd1na2vs0mg"},{"bike_id":"5cf7d639-86e3-4a45-ad54-e489e85e5ed2","system_id":"levelo_inurba_marseille","lat":43.26954,"lon":5.38636,"is_reserved":false,"is_disabled":false,"rental_uris":{"android":"levelo://app?vid=5cf7d639-86e3-4a45-ad54-e489e85e5ed2","ios":"levelo://app?vid=5cf7d639-86e3-4a45-ad54-e489e85e5ed2"},"vehicle_type_id":"4","last_reported":1729721322,"current_range_meters":36800,"station_id":"ce4bhh92rcd13ifvqfh0","pricing_plan_id":"cebpf4jnsgd1na2vs0mg"},{"bike_id":"119b64b1-f32a-4c33-8e17-0e469ccf420a","system_id":"levelo_inurba_marseille","lat":43.27834,"lon":5.39209,"is_reserved":false,"is_disabled":false,"rental_uris":{"android":"levelo://app?vid=119b64b1-f32a-4c33-8e17-0e469ccf420a","ios":"levelo://app?vid=119b64b1-f32a-4c33-8e17-0e469ccf420a"},"vehicle_type_id":"4","last_reported":1729721322,"current_range_meters":8800,"station_id":"ce4bhjp2rcd13ifvqga0","pricing_plan_id":"cebpf4jnsgd1na2vs0mg"},{"bike_id":"25561e73-a463-4577-9880-087c0d4ebb96","system_id":"levelo_inurba_marseille","lat":43.2957,"lon":5.39972,"is_reserved":false,"is_disabled":false,"rental_uris":{"android":"levelo://app?vid=25561e73-a463-4577-9880-087c0d4ebb96","ios":"levelo://app?vid=25561e73-a463-4577-9880-087c0d4ebb96"},"vehicle_type_id":"4","last_reported":1729721322,"current_range_meters":25200,"station_id":"ce4bh312rcd13ifvqdj0","pricing_plan_id":"cebpf4jnsgd1na2vs0mg"},{"bike_id":"2763fb51-5aeb-45c6-9c3a-23eb0832edec","system_id":"levelo_inurba_marseille","lat":43.29251,"lon":5.40911,"is_reserved":false,"is_disabled":false,"rental_uris":{"android":"levelo://app?vid=2763fb51-5aeb-45c6-9c3a-23eb0832edec","ios":"levelo://app?vid=2763fb51-5aeb-45c6-9c3a-23eb0832edec"},"vehicle_type_id":"4","last_reported":1729721322,"current_range_meters":38800,"station_id":"ce4bh192rcd13ifvqdc0","pricing_plan_id":"cebpf4jnsgd1na2vs0mg"},{"bike_id":"96d40975-7092-47a9-98a5-5115382e751f","system_id":"levelo_inurba_marseille","lat":43.29254,"lon":5.40909,"is_reserved":false,"is_disabled":false,"rental_uris":{"android":"levelo://app?vid=96d40975-7092-47a9-98a5-5115382e751f","ios":"levelo://app?vid=96d40975-7092-47a9-98a5-5115382e751f"},"vehicle_type_id":"4","last_reported":1729721322,"current_range_meters":30800,"station_id":"ce4bh192rcd13ifvqdc0","pricing_plan_id":"cebpf4jnsgd1na2vs0mg"},{"bike_id":"380cebd2-629c-405c-b64b-401aabe3bd03","system_id":"levelo_inurba_marseille","lat":43.28848,"lon":5.35844,"is_reserved":false,"is_disabled":false,"rental_uris":{"android":"levelo://app?vid=380cebd2-629c-405c-b64b-401aabe3bd03","ios":"levelo://app?vid=380cebd2-629c-405c-b64b-401aabe3bd03"},"vehicle_type_id":"4","last_reported":1729721322,"current_range_meters":38000,"station_id":"ce4bhb12rcd13ifvqem0","pricing_plan_id":"cebpf4jnsgd1na2vs0mg"},{"bike_id":"af58d6df-8951-4b36-8fce-79031b3494ed","system_id":"levelo_inurba_marseille","lat":43.27829,"lon":5.392149,"is_reserved":false,"is_disabled":false,"rental_uris":{"android":"levelo://app?vid=af58d6df-8951-4b36-8fce-79031b3494ed","ios":"levelo://app?vid=af58d6df-8951-4b36-8fce-79031b3494ed"},"vehicle_type_id":"4","last_reported":1729721322,"current_range_meters":10000,"station_id":"ce4bhjp2rcd13ifvqga0","pricing_plan_id":"cebpf4jnsgd1na2vs0mg"},{"bike_id":"2e8e7736-5b0b-4bf8-ba25-255b089e4b92","system_id":"levelo_inurba_marseille","lat":43.28683,"lon":5.39987,"is_reserved":false,"is_disabled":false,"rental_uris":{"android":"levelo://app?vid=2e8e7736-5b0b-4bf8-ba25-255b089e4b92","ios":"levelo://app?vid=2e8e7736-5b0b-4bf8-ba25-255b089e4b92"},"vehicle_type_id":"4","last_reported":1729721322,"current_range_meters":38800,"station_id":"ce4bho92rcd13ifvqh3g","pricing_plan_id":"cebpf4jnsgd1na2vs0mg"},{"bike_id":"fc98b86f-6f66-4864-96d0-5dffffb9adc6","system_id":"levelo_inurba_marseille","lat":43.33767,"lon":5.37436,"is_reserved":false,"is_disabled":false,"rental_uris":{"android":"levelo://app?vid=fc98b86f-6f66-4864-96d0-5dffffb9adc6","ios":"levelo://app?vid=fc98b86f-6f66-4864-96d0-5dffffb9adc6"},"vehicle_type_id":"4","last_reported":1729721322,"current_range_meters":32000,"station_id":"","pricing_plan_id":"cebpf4jnsgd1na2vs0mg"},{"bike_id":"9dfaa351-ad75-4aff-9e9a-7e244dbeff4d","system_id":"levelo_inurba_marseille","lat":43.28342,"lon":5.38099,"is_reserved":false,"is_disabled":false,"rental_uris":{"android":"levelo://app?vid=9dfaa351-ad75-4aff-9e9a-7e244dbeff4d","ios":"levelo://app?vid=9dfaa351-ad75-4aff-9e9a-7e244dbeff4d"},"vehicle_type_id":"4","last_reported":1729721322,"current_range_meters":38800,"station_id":"ce4bh412rcd13ifvqdr0","pricing_plan_id":"cebpf4jnsgd1na2vs0mg"},{"bike_id":"a0867b31-14ba-4b04-b603-d6d8cc117eb0","system_id":"levelo_inurba_marseille","lat":43.32651,"lon":5.40987,"is_reserved":false,"is_disabled":false,"rental_uris":{"android":"levelo://app?vid=a0867b31-14ba-4b04-b603-d6d8cc117eb0","ios":"levelo://app?vid=a0867b31-14ba-4b04-b603-d6d8cc117eb0"},"vehicle_type_id":"4","last_reported":1729721322,"current_range_meters":38000,"station_id":"ce4bhpp2rcd13ifvqhgg","pricing_plan_id":"cebpf4jnsgd1na2vs0mg"},{"bike_id":"b0a71160-4dba-4146-bb1d-3741c34398e9","system_id":"levelo_inurba_marseille","lat":43.30932,"lon":5.40145,"is_reserved":false,"is_disabled":false,"rental_uris":{"android":"levelo://app?vid=b0a71160-4dba-4146-bb1d-3741c34398e9","ios":"levelo://app?vid=b0a71160-4dba-4146-bb1d-3741c34398e9"},"vehicle_type_id":"4","last_reported":1729721322,"current_range_meters":38800,"station_id":"ce4bgvp2rcd13ifvqct0","pricing_plan_id":"cebpf4jnsgd1na2vs0mg"},{"bike_id":"190ab3f4-0dd0-4288-849a-ab444ee4de87","system_id":"levelo_inurba_marseille","lat":43.28574,"lon":5.39492,"is_reserved":false,"is_disabled":false,"rental_uris":{"android":"levelo://app?vid=190ab3f4-0dd0-4288-849a-ab444ee4de87","ios":"levelo://app?vid=190ab3f4-0dd0-4288-849a-ab444ee4de87"},"vehicle_type_id":"4","last_reported":1729721322,"current_range_meters":40000,"station_id":"ce4bh292rcd13ifvqdg0","pricing_plan_id":"cebpf4jnsgd1na2vs0mg"},{"bike_id":"12a11a00-cd1e-442a-8e8b-2c2a06ae2fb4","system_id":"levelo_inurba_marseille","lat":43.3128,"lon":5.40166,"is_reserved":false,"is_disabled":false,"rental_uris":{"android":"levelo://app?vid=12a11a00-cd1e-442a-8e8b-2c2a06ae2fb4","ios":"levelo://app?vid=12a11a00-cd1e-442a-8e8b-2c2a06ae2fb4"},"vehicle_type_id":"4","last_reported":1729721322,"current_range_meters":24000,"station_id":"ce4bh092rcd13ifvqd30","pricing_plan_id":"cebpf4jnsgd1na2vs0mg"},{"bike_id":"7aa910a1-32e6-41bf-bc9d-1ee459afbc77","system_id":"levelo_inurba_marseille","lat":43.28421,"lon":5.37519,"is_reserved":false,"is_disabled":false,"rental_uris":{"android":"levelo://app?vid=7aa910a1-32e6-41bf-bc9d-1ee459afbc77","ios":"levelo://app?vid=7aa910a1-32e6-41bf-bc9d-1ee459afbc77"},"vehicle_type_id":"4","last_reported":1729721322,"current_range_meters":19600,"station_id":"ce4bh412rcd13ifvqds0","pricing_plan_id":"cebpf4jnsgd1na2vs0mg"},{"bike_id":"d4e73e0f-35c1-478b-8630-1c59c3f1caea","system_id":"levelo_inurba_marseille","lat":43.31075,"lon":5.38355,"is_reserved":false,"is_disabled":false,"rental_uris":{"android":"levelo://app?vid=d4e73e0f-35c1-478b-8630-1c59c3f1caea","ios":"levelo://app?vid=d4e73e0f-35c1-478b-8630-1c59c3f1caea"},"vehicle_type_id":"4","last_reported":1729721322,"current_range_meters":15200,"station_id":"ce4bgv92rcd13ifvqcr0","pricing_plan_id":"cebpf4jnsgd1na2vs0mg"},{"bike_id":"5933de8d-7245-4fc6-9cfe-72a4f51f3340","system_id":"levelo_inurba_marseille","lat":43.313294,"lon":5.396922,"is_reserved":false,"is_disabled":false,"rental_uris":{"android":"levelo://app?vid=5933de8d-7245-4fc6-9cfe-72a4f51f3340","ios":"levelo://app?vid=5933de8d-7245-4fc6-9cfe-72a4f51f3340"},"vehicle_type_id":"4","last_reported":1729721322,"current_range_meters":31200,"station_id":"ce4bgvp2rcd13ifvqcu0","pricing_plan_id":"cebpf4jnsgd1na2vs0mg"},{"bike_id":"08a41d86-bf74-42d1-b350-4800246eef64","system_id":"levelo_inurba_marseille","lat":43.24183,"lon":5.38807,"is_reserved":false,"is_disabled":false,"rental_uris":{"android":"levelo://app?vid=08a41d86-bf74-42d1-b350-4800246eef64","ios":"levelo://app?vid=08a41d86-bf74-42d1-b350-4800246eef64"},"vehicle_type_id":"4","last_reported":1729721322,"current_range_meters":34000,"station_id":"","pricing_plan_id":"cebpf4jnsgd1na2vs0mg"},{"bike_id":"db69ea4c-1c7d-43a0-b7f1-e0da5b76f2ea","system_id":"levelo_inurba_marseille","lat":43.28424,"lon":5.45956,"is_reserved":false,"is_disabled":false,"rental_uris":{"android":"levelo://app?vid=db69ea4c-1c7d-43a0-b7f1-e0da5b76f2ea","ios":"levelo://app?vid=db69ea4c-1c7d-43a0-b7f1-e0da5b76f2ea"},"vehicle_type_id":"4","last_reported":1729721322,"current_range_meters":12000,"station_id":"","pricing_plan_id":"cebpf4jnsgd1na2vs0mg"},{"bike_id":"d3438caa-62a2-49c4-ac73-4c5ed5b399cd","system_id":"levelo_inurba_marseille","lat":43.30635,"lon":5.40083,"is_reserved":false,"is_disabled":false,"rental_uris":{"android":"levelo://app?vid=d3438caa-62a2-49c4-ac73-4c5ed5b399cd","ios":"levelo://app?vid=d3438caa-62a2-49c4-ac73-4c5ed5b399cd"},"vehicle_type_id":"4","last_reported":1729721322,"current_range_meters":36800,"station_id":"ce4bh112rcd13ifvqda0","pricing_plan_id":"cebpf4jnsgd1na2vs0mg"},{"bike_id":"1cd8084c-ce68-4d27-914c-ee4521a0ba66","system_id":"levelo_inurba_marseille","lat":43.28409,"lon":5.37527,"is_reserved":false,"is_disabled":false,"rental_uris":{"android":"levelo://app?vid=1cd8084c-ce68-4d27-914c-ee4521a0ba66","ios":"levelo://app?vid=1cd8084c-ce68-4d27-914c-ee4521a0ba66"},"vehicle_type_id":"4","last_reported":1729721322,"current_range_meters":6000,"station_id":"ce4bh412rcd13ifvqds0","pricing_plan_id":"cebpf4jnsgd1na2vs0mg"},{"bike_id":"0ae1663c-5bb3-40eb-aebe-2e4d249f3588","system_id":"levelo_inurba_marseille","lat":43.31318,"lon":5.3971,"is_reserved":false,"is_disabled":false,"rental_uris":{"android":"levelo://app?vid=0ae1663c-5bb3-40eb-aebe-2e4d249f3588","ios":"levelo://app?vid=0ae1663c-5bb3-40eb-aebe-2e4d249f3588"},"vehicle_type_id":"4","last_reported":1729721322,"current_range_meters":34800,"station_id":"ce4bgvp2rcd13ifvqcu0","pricing_plan_id":"cebpf4jnsgd1na2vs0mg"},{"bike_id":"86869bbe-711e-4293-b1ec-b076c7845480","system_id":"levelo_inurba_marseille","lat":43.2318,"lon":5.39991,"is_reserved":false,"is_disabled":false,"rental_uris":{"android":"levelo://app?vid=86869bbe-711e-4293-b1ec-b076c7845480","ios":"levelo://app?vid=86869bbe-711e-4293-b1ec-b076c7845480"},"vehicle_type_id":"4","last_reported":1729721322,"current_range_meters":40000,"station_id":"ce4bhn12rcd13ifvqgqg","pricing_plan_id":"cebpf4jnsgd1na2vs0mg"},{"bike_id":"09a8a35a-3707-4554-a620-97c1b455b439","system_id":"levelo_inurba_marseille","lat":43.28705,"lon":5.37396,"is_reserved":false,"is_disabled":false,"rental_uris":{"android":"levelo://app?vid=09a8a35a-3707-4554-a620-97c1b455b439","ios":"levelo://app?vid=09a8a35a-3707-4554-a620-97c1b455b439"},"vehicle_type_id":"4","last_reported":1729721322,"current_range_meters":23200,"station_id":"ce4bh3p2rcd13ifvqdq0","pricing_plan_id":"cebpf4jnsgd1na2vs0mg"},{"bike_id":"836a0c9e-0e3f-4bf9-b947-1a2704522280","system_id":"levelo_inurba_marseille","lat":43.287207,"lon":5.379364,"is_reserved":false,"is_disabled":false,"rental_uris":{"android":"levelo://app?vid=836a0c9e-0e3f-4bf9-b947-1a2704522280","ios":"levelo://app?vid=836a0c9e-0e3f-4bf9-b947-1a2704522280"},"vehicle_type_id":"4","last_reported":1729721322,"current_range_meters":38800,"station_id":"ce4bh9p2rcd13ifvqec0","pricing_plan_id":"cebpf4jnsgd1na2vs0mg"},{"bike_id":"e20330d7-de73-4dd9-93da-c6a470481942","system_id":"levelo_inurba_marseille","lat":43.31074,"lon":5.38348,"is_reserved":false,"is_disabled":false,"rental_uris":{"android":"levelo://app?vid=e20330d7-de73-4dd9-93da-c6a470481942","ios":"levelo://app?vid=e20330d7-de73-4dd9-93da-c6a470481942"},"vehicle_type_id":"4","last_reported":1729721322,"current_range_meters":31200,"station_id":"ce4bgv92rcd13ifvqcr0","pricing_plan_id":"cebpf4jnsgd1na2vs0mg"},{"bike_id":"0525aa25-f88e-48e5-be8a-69e26059c15f","system_id":"levelo_inurba_marseille","lat":43.27945,"lon":5.41039,"is_reserved":false,"is_disabled":false,"rental_uris":{"android":"levelo://app?vid=0525aa25-f88e-48e5-be8a-69e26059c15f","ios":"levelo://app?vid=0525aa25-f88e-48e5-be8a-69e26059c15f"},"vehicle_type_id":"4","last_reported":1729721322,"current_range_meters":15200,"station_id":"ce4bhnp2rcd13ifvqh0g","pricing_plan_id":"cebpf4jnsgd1na2vs0mg"},{"bike_id":"71e623a9-6987-43d4-929e-8d1572fd78e1","system_id":"levelo_inurba_marseille","lat":43.30787,"lon":5.37644,"is_reserved":false,"is_disabled":false,"rental_uris":{"android":"levelo://app?vid=71e623a9-6987-43d4-929e-8d1572fd78e1","ios":"levelo://app?vid=71e623a9-6987-43d4-929e-8d1572fd78e1"},"vehicle_type_id":"4","last_reported":1729721322,"current_range_meters":20800,"station_id":"ce4bgv92rcd13ifvqcq0","pricing_plan_id":"cebpf4jnsgd1na2vs0mg"},{"bike_id":"66a4f883-7fbf-4cd6-a3f9-0c4cdf338648","system_id":"levelo_inurba_marseille","lat":43.30879,"lon":5.39625,"is_reserved":false,"is_disabled":false,"rental_uris":{"android":"levelo://app?vid=66a4f883-7fbf-4cd6-a3f9-0c4cdf338648","ios":"levelo://app?vid=66a4f883-7fbf-4cd6-a3f9-0c4cdf338648"},"vehicle_type_id":"4","last_reported":1729721322,"current_range_meters":28000,"station_id":"ce4bh012rcd13ifvqcv0","pricing_plan_id":"cebpf4jnsgd1na2vs0mg"},{"bike_id":"ed276a18-a5c7-4620-a1f8-0091082a7c07","system_id":"levelo_inurba_marseille","lat":43.28931,"lon":5.36387,"is_reserved":false,"is_disabled":false,"rental_uris":{"android":"levelo://app?vid=ed276a18-a5c7-4620-a1f8-0091082a7c07","ios":"levelo://app?vid=ed276a18-a5c7-4620-a1f8-0091082a7c07"},"vehicle_type_id":"4","last_reported":1729721322,"current_range_meters":6400,"station_id":"ce4bhc92rcd13ifvqetg","pricing_plan_id":"cebpf4jnsgd1na2vs0mg"},{"bike_id":"158bcdbf-dd61-4bdb-af54-9e4b45931736","system_id":"levelo_inurba_marseille","lat":43.28045,"lon":5.36934,"is_reserved":false,"is_disabled":false,"rental_uris":{"android":"levelo://app?vid=158bcdbf-dd61-4bdb-af54-9e4b45931736","ios":"levelo://app?vid=158bcdbf-dd61-4bdb-af54-9e4b45931736"},"vehicle_type_id":"4","last_reported":1729721322,"current_range_meters":38800,"station_id":"ce4bha12rcd13ifvqef0","pricing_plan_id":"cebpf4jnsgd1na2vs0mg"},{"bike_id":"e376b6bf-e895-4ab9-84f1-a265d5ef0e01","system_id":"levelo_inurba_marseille","lat":43.2886,"lon":5.35841,"is_reserved":false,"is_disabled":false,"rental_uris":{"android":"levelo://app?vid=e376b6bf-e895-4ab9-84f1-a265d5ef0e01","ios":"levelo://app?vid=e376b6bf-e895-4ab9-84f1-a265d5ef0e01"},"vehicle_type_id":"4","last_reported":1729721322,"current_range_meters":9600,"station_id":"ce4bhb12rcd13ifvqem0","pricing_plan_id":"cebpf4jnsgd1na2vs0mg"},{"bike_id":"32090a56-d013-4d5c-8379-d81e2e46055b","system_id":"levelo_inurba_marseille","lat":43.27323,"lon":5.39093,"is_reserved":false,"is_disabled":false,"rental_uris":{"android":"levelo://app?vid=32090a56-d013-4d5c-8379-d81e2e46055b","ios":"levelo://app?vid=32090a56-d013-4d5c-8379-d81e2e46055b"},"vehicle_type_id":"4","last_reported":1729721322,"current_range_meters":8400,"station_id":"ce4bhgp2rcd13ifvqfe0","pricing_plan_id":"cebpf4jnsgd1na2vs0mg"},{"bike_id":"ee56864d-0289-4ab0-b1d9-4e118a6c50f5","system_id":"levelo_inurba_marseille","lat":43.34139,"lon":5.40899,"is_reserved":false,"is_disabled":false,"rental_uris":{"android":"levelo://app?vid=ee56864d-0289-4ab0-b1d9-4e118a6c50f5","ios":"levelo://app?vid=ee56864d-0289-4ab0-b1d9-4e118a6c50f5"},"vehicle_type_id":"4","last_reported":1729721322,"current_range_meters":39200,"station_id":"ce4bhqh2rcd13ifvqhlg","pricing_plan_id":"cebpf4jnsgd1na2vs0mg"},{"bike_id":"03817e17-e2e3-401b-ace0-554729b932d7","system_id":"levelo_inurba_marseille","lat":43.308,"lon":5.38152,"is_reserved":false,"is_disabled":false,"rental_uris":{"android":"levelo://app?vid=03817e17-e2e3-401b-ace0-554729b932d7","ios":"levelo://app?vid=03817e17-e2e3-401b-ace0-554729b932d7"},"vehicle_type_id":"4","last_reported":1729721322,"current_range_meters":11600,"station_id":"ce4bgt12rcd13ifvqce0","pricing_plan_id":"cebpf4jnsgd1na2vs0mg"},{"bike_id":"ad76eed3-34ae-4b06-b5fd-f650ddab848b","system_id":"levelo_inurba_marseille","lat":43.30887,"lon":5.39657,"is_reserved":false,"is_disabled":false,"rental_uris":{"android":"levelo://app?vid=ad76eed3-34ae-4b06-b5fd-f650ddab848b","ios":"levelo://app?vid=ad76eed3-34ae-4b06-b5fd-f650ddab848b"},"vehicle_type_id":"4","last_reported":1729721322,"current_range_meters":31200,"station_id":"ce4bh012rcd13ifvqcv0","pricing_plan_id":"cebpf4jnsgd1na2vs0mg"},{"bike_id":"7485068c-a88f-4a63-93f1-c517b3ac24fe","system_id":"levelo_inurba_marseille","lat":43.28567,"lon":5.3949,"is_reserved":false,"is_disabled":false,"rental_uris":{"android":"levelo://app?vid=7485068c-a88f-4a63-93f1-c517b3ac24fe","ios":"levelo://app?vid=7485068c-a88f-4a63-93f1-c517b3ac24fe"},"vehicle_type_id":"4","last_reported":1729721322,"current_range_meters":10800,"station_id":"ce4bh292rcd13ifvqdg0","pricing_plan_id":"cebpf4jnsgd1na2vs0mg"},{"bike_id":"b21f0da6-475f-4ddc-a2c2-379706b157d4","system_id":"levelo_inurba_marseille","lat":43.25576,"lon":5.38226,"is_reserved":false,"is_disabled":false,"rental_uris":{"android":"levelo://app?vid=b21f0da6-475f-4ddc-a2c2-379706b157d4","ios":"levelo://app?vid=b21f0da6-475f-4ddc-a2c2-379706b157d4"},"vehicle_type_id":"4","last_reported":1729721322,"current_range_meters":4800,"station_id":"ce4bhih2rcd13ifvqfs0","pricing_plan_id":"cebpf4jnsgd1na2vs0mg"},{"bike_id":"8851e641-2a34-4df4-9c62-4bc8ce7ebb4a","system_id":"levelo_inurba_marseille","lat":43.2871,"lon":5.3739,"is_reserved":false,"is_disabled":false,"rental_uris":{"android":"levelo://app?vid=8851e641-2a34-4df4-9c62-4bc8ce7ebb4a","ios":"levelo://app?vid=8851e641-2a34-4df4-9c62-4bc8ce7ebb4a"},"vehicle_type_id":"4","last_reported":1729721322,"current_range_meters":38800,"station_id":"ce4bh3p2rcd13ifvqdq0","pricing_plan_id":"cebpf4jnsgd1na2vs0mg"},{"bike_id":"b7f05716-b07b-4954-bea2-11ea5fe3e334","system_id":"levelo_inurba_marseille","lat":43.28372,"lon":5.38631,"is_reserved":false,"is_disabled":false,"rental_uris":{"android":"levelo://app?vid=b7f05716-b07b-4954-bea2-11ea5fe3e334","ios":"levelo://app?vid=b7f05716-b07b-4954-bea2-11ea5fe3e334"},"vehicle_type_id":"4","last_reported":1729721322,"current_range_meters":39200,"station_id":"ce4bh492rcd13ifvqdvg","pricing_plan_id":"cebpf4jnsgd1na2vs0mg"},{"bike_id":"606ae9a4-e252-4838-9386-7e52ddadecec","system_id":"levelo_inurba_marseille","lat":43.28566,"lon":5.3949,"is_reserved":false,"is_disabled":false,"rental_uris":{"android":"levelo://app?vid=606ae9a4-e252-4838-9386-7e52ddadecec","ios":"levelo://app?vid=606ae9a4-e252-4838-9386-7e52ddadecec"},"vehicle_type_id":"4","last_reported":1729721322,"current_range_meters":23200,"station_id":"ce4bh292rcd13ifvqdg0","pricing_plan_id":"cebpf4jnsgd1na2vs0mg"},{"bike_id":"b47745ff-c299-4ff0-9352-3b64a4259c57","system_id":"levelo_inurba_marseille","lat":43.28471,"lon":5.38416,"is_reserved":false,"is_disabled":false,"rental_uris":{"android":"levelo://app?vid=b47745ff-c299-4ff0-9352-3b64a4259c57","ios":"levelo://app?vid=b47745ff-c299-4ff0-9352-3b64a4259c57"},"vehicle_type_id":"4","last_reported":1729721322,"current_range_meters":38800,"station_id":"ce4bh512rcd13ifvqe3g","pricing_plan_id":"cebpf4jnsgd1na2vs0mg"},{"bike_id":"53100c54-a4e3-45a7-9427-b292d95b6c16","system_id":"levelo_inurba_marseille","lat":43.30885,"lon":5.37182,"is_reserved":false,"is_disabled":false,"rental_uris":{"android":"levelo://app?vid=53100c54-a4e3-45a7-9427-b292d95b6c16","ios":"levelo://app?vid=53100c54-a4e3-45a7-9427-b292d95b6c16"},"vehicle_type_id":"4","last_reported":1729721322,"current_range_meters":38800,"station_id":"ce4bguh2rcd13ifvqckg","pricing_plan_id":"cebpf4jnsgd1na2vs0mg"},{"bike_id":"ee8aca3a-e9b8-4db2-b237-7fbf12308fde","system_id":"levelo_inurba_marseille","lat":43.30881,"lon":5.39649,"is_reserved":false,"is_disabled":false,"rental_uris":{"android":"levelo://app?vid=ee8aca3a-e9b8-4db2-b237-7fbf12308fde","ios":"levelo://app?vid=ee8aca3a-e9b8-4db2-b237-7fbf12308fde"},"vehicle_type_id":"4","last_reported":1729721322,"current_range_meters":38800,"station_id":"ce4bh012rcd13ifvqcv0","pricing_plan_id":"cebpf4jnsgd1na2vs0mg"},{"bike_id":"60b5ad38-328b-49d2-ab74-b91edfe19bd7","system_id":"levelo_inurba_marseille","lat":43.30878,"lon":5.39629,"is_reserved":false,"is_disabled":false,"rental_uris":{"android":"levelo://app?vid=60b5ad38-328b-49d2-ab74-b91edfe19bd7","ios":"levelo://app?vid=60b5ad38-328b-49d2-ab74-b91edfe19bd7"},"vehicle_type_id":"4","last_reported":1729721322,"current_range_meters":26800,"station_id":"ce4bh012rcd13ifvqcv0","pricing_plan_id":"cebpf4jnsgd1na2vs0mg"},{"bike_id":"0983bc58-22e1-4ca6-b4f3-de68f85708d6","system_id":"levelo_inurba_marseille","lat":43.2979,"lon":5.39355,"is_reserved":false,"is_disabled":false,"rental_uris":{"android":"levelo://app?vid=0983bc58-22e1-4ca6-b4f3-de68f85708d6","ios":"levelo://app?vid=0983bc58-22e1-4ca6-b4f3-de68f85708d6"},"vehicle_type_id":"4","last_reported":1729721322,"current_range_meters":10000,"station_id":"chh1huq6cuj3fo74tm60","pricing_plan_id":"cebpf4jnsgd1na2vs0mg"},{"bike_id":"399a9b33-7aba-4d13-9ed9-b18fa087368d","system_id":"levelo_inurba_marseille","lat":43.28727,"lon":5.36084,"is_reserved":false,"is_disabled":false,"rental_uris":{"android":"levelo://app?vid=399a9b33-7aba-4d13-9ed9-b18fa087368d","ios":"levelo://app?vid=399a9b33-7aba-4d13-9ed9-b18fa087368d"},"vehicle_type_id":"4","last_reported":1729721322,"current_range_meters":26000,"station_id":"cki0cbj6b192h4jlfktg","pricing_plan_id":"cebpf4jnsgd1na2vs0mg"},{"bike_id":"145880b5-c8e8-4073-a4e0-6cce681fac73","system_id":"levelo_inurba_marseille","lat":43.29038,"lon":5.39949,"is_reserved":false,"is_disabled":false,"rental_uris":{"android":"levelo://app?vid=145880b5-c8e8-4073-a4e0-6cce681fac73","ios":"levelo://app?vid=145880b5-c8e8-4073-a4e0-6cce681fac73"},"vehicle_type_id":"4","last_reported":1729721322,"current_range_meters":38000,"station_id":"ce4bh392rcd13ifvqdm0","pricing_plan_id":"cebpf4jnsgd1na2vs0mg"},{"bike_id":"bdfe3f09-f107-424c-91cd-795259fdc3bf","system_id":"levelo_inurba_marseille","lat":43.28939,"lon":5.36621,"is_reserved":false,"is_disabled":false,"rental_uris":{"android":"levelo://app?vid=bdfe3f09-f107-424c-91cd-795259fdc3bf","ios":"levelo://app?vid=bdfe3f09-f107-424c-91cd-795259fdc3bf"},"vehicle_type_id":"4","last_reported":1729721322,"current_range_meters":38800,"station_id":"ce4bhap2rcd13ifvqek0","pricing_plan_id":"cebpf4jnsgd1na2vs0mg"},{"bike_id":"f7ab3229-80dc-46d8-a1fd-220034cb7183","system_id":"levelo_inurba_marseille","lat":43.24189,"lon":5.39733,"is_reserved":false,"is_disabled":false,"rental_uris":{"android":"levelo://app?vid=f7ab3229-80dc-46d8-a1fd-220034cb7183","ios":"levelo://app?vid=f7ab3229-80dc-46d8-a1fd-220034cb7183"},"vehicle_type_id":"4","last_reported":1729721322,"current_range_meters":8800,"station_id":"ce4bhn12rcd13ifvqgpg","pricing_plan_id":"cebpf4jnsgd1na2vs0mg"},{"bike_id":"cbd67fc7-6897-4929-bddc-6bb781249d6c","system_id":"levelo_inurba_marseille","lat":43.284554,"lon":5.358827,"is_reserved":false,"is_disabled":false,"rental_uris":{"android":"levelo://app?vid=cbd67fc7-6897-4929-bddc-6bb781249d6c","ios":"levelo://app?vid=cbd67fc7-6897-4929-bddc-6bb781249d6c"},"vehicle_type_id":"4","last_reported":1729721322,"current_range_meters":20000,"station_id":"ce4bhah2rcd13ifvqei0","pricing_plan_id":"cebpf4jnsgd1na2vs0mg"},{"bike_id":"e07b49ee-c33f-4249-918b-2bc035935271","system_id":"levelo_inurba_marseille","lat":43.31134,"lon":5.38848,"is_reserved":false,"is_disabled":false,"rental_uris":{"android":"levelo://app?vid=e07b49ee-c33f-4249-918b-2bc035935271","ios":"levelo://app?vid=e07b49ee-c33f-4249-918b-2bc035935271"},"vehicle_type_id":"4","last_reported":1729721322,"current_range_meters":32000,"station_id":"ce4bgv12rcd13ifvqcp0","pricing_plan_id":"cebpf4jnsgd1na2vs0mg"},{"bike_id":"0d806aa1-02ee-47c4-90e6-1b9b70964900","system_id":"levelo_inurba_marseille","lat":43.27945,"lon":5.41037,"is_reserved":false,"is_disabled":false,"rental_uris":{"android":"levelo://app?vid=0d806aa1-02ee-47c4-90e6-1b9b70964900","ios":"levelo://app?vid=0d806aa1-02ee-47c4-90e6-1b9b70964900"},"vehicle_type_id":"4","last_reported":1729721322,"current_range_meters":4000,"station_id":"ce4bhnp2rcd13ifvqh0g","pricing_plan_id":"cebpf4jnsgd1na2vs0mg"},{"bike_id":"22516433-e256-400e-ba52-60772187b394","system_id":"levelo_inurba_marseille","lat":43.30943,"lon":5.40132,"is_reserved":false,"is_disabled":false,"rental_uris":{"android":"levelo://app?vid=22516433-e256-400e-ba52-60772187b394","ios":"levelo://app?vid=22516433-e256-400e-ba52-60772187b394"},"vehicle_type_id":"4","last_reported":1729721322,"current_range_meters":38800,"station_id":"ce4bgvp2rcd13ifvqct0","pricing_plan_id":"cebpf4jnsgd1na2vs0mg"},{"bike_id":"8b368eb4-d88f-4e27-9a59-f48c296d2a4c","system_id":"levelo_inurba_marseille","lat":43.27996,"lon":5.41661,"is_reserved":false,"is_disabled":false,"rental_uris":{"android":"levelo://app?vid=8b368eb4-d88f-4e27-9a59-f48c296d2a4c","ios":"levelo://app?vid=8b368eb4-d88f-4e27-9a59-f48c296d2a4c"},"vehicle_type_id":"4","last_reported":1729721322,"current_range_meters":24800,"station_id":"ce4bho12rcd13ifvqh1g","pricing_plan_id":"cebpf4jnsgd1na2vs0mg"},{"bike_id":"84a1642f-a00b-4ae1-9856-163f872d7fa4","system_id":"levelo_inurba_marseille","lat":43.28072,"lon":5.39666,"is_reserved":false,"is_disabled":false,"rental_uris":{"android":"levelo://app?vid=84a1642f-a00b-4ae1-9856-163f872d7fa4","ios":"levelo://app?vid=84a1642f-a00b-4ae1-9856-163f872d7fa4"},"vehicle_type_id":"4","last_reported":1729721322,"current_range_meters":37600,"station_id":"ce4bho12rcd13ifvqh2g","pricing_plan_id":"cebpf4jnsgd1na2vs0mg"},{"bike_id":"2427591b-8c3a-40f8-af56-33c7377ac792","system_id":"levelo_inurba_marseille","lat":43.24546,"lon":5.3952,"is_reserved":false,"is_disabled":false,"rental_uris":{"android":"levelo://app?vid=2427591b-8c3a-40f8-af56-33c7377ac792","ios":"levelo://app?vid=2427591b-8c3a-40f8-af56-33c7377ac792"},"vehicle_type_id":"4","last_reported":1729721322,"current_range_meters":3200,"station_id":"ce4bhlp2rcd13ifvqgjg","pricing_plan_id":"cebpf4jnsgd1na2vs0mg"},{"bike_id":"c246f050-1ca2-4896-9426-46adcde35e73","system_id":"levelo_inurba_marseille","lat":43.31325,"lon":5.39693,"is_reserved":false,"is_disabled":false,"rental_uris":{"android":"levelo://app?vid=c246f050-1ca2-4896-9426-46adcde35e73","ios":"levelo://app?vid=c246f050-1ca2-4896-9426-46adcde35e73"},"vehicle_type_id":"4","last_reported":1729721322,"current_range_meters":28400,"station_id":"ce4bgvp2rcd13ifvqcu0","pricing_plan_id":"cebpf4jnsgd1na2vs0mg"},{"bike_id":"1449f1ff-96a6-407c-9ef1-6a4b23dfa07c","system_id":"levelo_inurba_marseille","lat":43.28569,"lon":5.39483,"is_reserved":false,"is_disabled":false,"rental_uris":{"android":"levelo://app?vid=1449f1ff-96a6-407c-9ef1-6a4b23dfa07c","ios":"levelo://app?vid=1449f1ff-96a6-407c-9ef1-6a4b23dfa07c"},"vehicle_type_id":"4","last_reported":1729721322,"current_range_meters":36400,"station_id":"ce4bh292rcd13ifvqdg0","pricing_plan_id":"cebpf4jnsgd1na2vs0mg"},{"bike_id":"513e9df3-7590-42dd-a419-2e9e62f66b47","system_id":"levelo_inurba_marseille","lat":43.31332,"lon":5.3969,"is_reserved":false,"is_disabled":false,"rental_uris":{"android":"levelo://app?vid=513e9df3-7590-42dd-a419-2e9e62f66b47","ios":"levelo://app?vid=513e9df3-7590-42dd-a419-2e9e62f66b47"},"vehicle_type_id":"4","last_reported":1729721322,"current_range_meters":9600,"station_id":"ce4bgvp2rcd13ifvqcu0","pricing_plan_id":"cebpf4jnsgd1na2vs0mg"},{"bike_id":"9c980766-3696-42be-8e1a-d22fb6edb5c5","system_id":"levelo_inurba_marseille","lat":43.30635,"lon":5.38201,"is_reserved":false,"is_disabled":false,"rental_uris":{"android":"levelo://app?vid=9c980766-3696-42be-8e1a-d22fb6edb5c5","ios":"levelo://app?vid=9c980766-3696-42be-8e1a-d22fb6edb5c5"},"vehicle_type_id":"4","last_reported":1729721322,"current_range_meters":31200,"station_id":"","pricing_plan_id":"cebpf4jnsgd1na2vs0mg"},{"bike_id":"3d879563-7515-4e7c-8fcb-591818df3455","system_id":"levelo_inurba_marseille","lat":43.2835,"lon":5.38101,"is_reserved":false,"is_disabled":false,"rental_uris":{"android":"levelo://app?vid=3d879563-7515-4e7c-8fcb-591818df3455","ios":"levelo://app?vid=3d879563-7515-4e7c-8fcb-591818df3455"},"vehicle_type_id":"4","last_reported":1729721322,"current_range_meters":37600,"station_id":"ce4bh412rcd13ifvqdr0","pricing_plan_id":"cebpf4jnsgd1na2vs0mg"},{"bike_id":"8d5b743c-ab08-408d-9aa9-a0f9f3f7ae93","system_id":"levelo_inurba_marseille","lat":43.30796,"lon":5.38155,"is_reserved":false,"is_disabled":false,"rental_uris":{"android":"levelo://app?vid=8d5b743c-ab08-408d-9aa9-a0f9f3f7ae93","ios":"levelo://app?vid=8d5b743c-ab08-408d-9aa9-a0f9f3f7ae93"},"vehicle_type_id":"4","last_reported":1729721322,"current_range_meters":24400,"station_id":"ce4bgt12rcd13ifvqce0","pricing_plan_id":"cebpf4jnsgd1na2vs0mg"},{"bike_id":"2ac4ea33-3cf3-4d4d-b0e0-6342959c8f82","system_id":"levelo_inurba_marseille","lat":43.2992,"lon":5.37467,"is_reserved":false,"is_disabled":false,"rental_uris":{"android":"levelo://app?vid=2ac4ea33-3cf3-4d4d-b0e0-6342959c8f82","ios":"levelo://app?vid=2ac4ea33-3cf3-4d4d-b0e0-6342959c8f82"},"vehicle_type_id":"4","last_reported":1729721322,"current_range_meters":38000,"station_id":"ce4bgjh2rcd13ifvqbg0","pricing_plan_id":"cebpf4jnsgd1na2vs0mg"},{"bike_id":"c795749b-6514-4187-b84f-9dd949a143e0","system_id":"levelo_inurba_marseille","lat":43.32653,"lon":5.40982,"is_reserved":false,"is_disabled":false,"rental_uris":{"android":"levelo://app?vid=c795749b-6514-4187-b84f-9dd949a143e0","ios":"levelo://app?vid=c795749b-6514-4187-b84f-9dd949a143e0"},"vehicle_type_id":"4","last_reported":1729721322,"current_range_meters":38800,"station_id":"ce4bhpp2rcd13ifvqhgg","pricing_plan_id":"cebpf4jnsgd1na2vs0mg"},{"bike_id":"580656df-3830-4c81-bc34-c502f76a985d","system_id":"levelo_inurba_marseille","lat":43.31715,"lon":5.37753,"is_reserved":false,"is_disabled":false,"rental_uris":{"android":"levelo://app?vid=580656df-3830-4c81-bc34-c502f76a985d","ios":"levelo://app?vid=580656df-3830-4c81-bc34-c502f76a985d"},"vehicle_type_id":"4","last_reported":1729721322,"current_range_meters":34000,"station_id":"ce4bgth2rcd13ifvqch0","pricing_plan_id":"cebpf4jnsgd1na2vs0mg"},{"bike_id":"be93a463-4421-487b-b2a7-c5cee071a343","system_id":"levelo_inurba_marseille","lat":43.28702,"lon":5.39967,"is_reserved":false,"is_disabled":false,"rental_uris":{"android":"levelo://app?vid=be93a463-4421-487b-b2a7-c5cee071a343","ios":"levelo://app?vid=be93a463-4421-487b-b2a7-c5cee071a343"},"vehicle_type_id":"4","last_reported":1729721322,"current_range_meters":30000,"station_id":"ce4bho92rcd13ifvqh3g","pricing_plan_id":"cebpf4jnsgd1na2vs0mg"},{"bike_id":"1cc96fa8-d98d-455c-8d2b-94b443812498","system_id":"levelo_inurba_marseille","lat":43.29248,"lon":5.40903,"is_reserved":false,"is_disabled":false,"rental_uris":{"android":"levelo://app?vid=1cc96fa8-d98d-455c-8d2b-94b443812498","ios":"levelo://app?vid=1cc96fa8-d98d-455c-8d2b-94b443812498"},"vehicle_type_id":"4","last_reported":1729721322,"current_range_meters":38800,"station_id":"ce4bh192rcd13ifvqdc0","pricing_plan_id":"cebpf4jnsgd1na2vs0mg"},{"bike_id":"63a9618b-c2bd-4737-bc14-6aa3c4fa63b1","system_id":"levelo_inurba_marseille","lat":43.26494,"lon":5.39542,"is_reserved":false,"is_disabled":false,"rental_uris":{"android":"levelo://app?vid=63a9618b-c2bd-4737-bc14-6aa3c4fa63b1","ios":"levelo://app?vid=63a9618b-c2bd-4737-bc14-6aa3c4fa63b1"},"vehicle_type_id":"4","last_reported":1729721322,"current_range_meters":30000,"station_id":"ce4bhi12rcd13ifvqfq0","pricing_plan_id":"cebpf4jnsgd1na2vs0mg"},{"bike_id":"a94eba6d-f4bd-4abd-85df-dff0a7d34198","system_id":"levelo_inurba_marseille","lat":43.30432,"lon":5.3888,"is_reserved":false,"is_disabled":false,"rental_uris":{"android":"levelo://app?vid=a94eba6d-f4bd-4abd-85df-dff0a7d34198","ios":"levelo://app?vid=a94eba6d-f4bd-4abd-85df-dff0a7d34198"},"vehicle_type_id":"4","last_reported":1729721322,"current_range_meters":34000,"station_id":"ce4bgk12rcd13ifvqbi0","pricing_plan_id":"cebpf4jnsgd1na2vs0mg"},{"bike_id":"557283f1-a9de-4bfb-8a50-374ced1e8f57","system_id":"levelo_inurba_marseille","lat":43.30788,"lon":5.37647,"is_reserved":false,"is_disabled":false,"rental_uris":{"android":"levelo://app?vid=557283f1-a9de-4bfb-8a50-374ced1e8f57","ios":"levelo://app?vid=557283f1-a9de-4bfb-8a50-374ced1e8f57"},"vehicle_type_id":"4","last_reported":1729721322,"current_range_meters":37600,"station_id":"ce4bgv92rcd13ifvqcq0","pricing_plan_id":"cebpf4jnsgd1na2vs0mg"},{"bike_id":"5c14f07e-b3c1-46c8-b2b2-e91518b19028","system_id":"levelo_inurba_marseille","lat":43.309333,"lon":5.368273,"is_reserved":false,"is_disabled":false,"rental_uris":{"android":"levelo://app?vid=5c14f07e-b3c1-46c8-b2b2-e91518b19028","ios":"levelo://app?vid=5c14f07e-b3c1-46c8-b2b2-e91518b19028"},"vehicle_type_id":"4","last_reported":1729721322,"current_range_meters":6000,"station_id":"ce4bgn92rcd13ifvqbvg","pricing_plan_id":"cebpf4jnsgd1na2vs0mg"},{"bike_id":"af500fd8-cd03-4d32-ae0f-7af64811c2fd","system_id":"levelo_inurba_marseille","lat":43.29785,"lon":5.3935,"is_reserved":false,"is_disabled":false,"rental_uris":{"android":"levelo://app?vid=af500fd8-cd03-4d32-ae0f-7af64811c2fd","ios":"levelo://app?vid=af500fd8-cd03-4d32-ae0f-7af64811c2fd"},"vehicle_type_id":"4","last_reported":1729721322,"current_range_meters":38000,"station_id":"chh1huq6cuj3fo74tm60","pricing_plan_id":"cebpf4jnsgd1na2vs0mg"},{"bike_id":"90c3a3ae-e1f9-49f9-8230-c82dc265a457","system_id":"levelo_inurba_marseille","lat":43.31991,"lon":5.38145,"is_reserved":false,"is_disabled":false,"rental_uris":{"android":"levelo://app?vid=90c3a3ae-e1f9-49f9-8230-c82dc265a457","ios":"levelo://app?vid=90c3a3ae-e1f9-49f9-8230-c82dc265a457"},"vehicle_type_id":"4","last_reported":1729721322,"current_range_meters":8800,"station_id":"ce4bhr12rcd13ifvqhpg","pricing_plan_id":"cebpf4jnsgd1na2vs0mg"},{"bike_id":"d43610d4-6ab3-4063-97de-1a3507b8b43a","system_id":"levelo_inurba_marseille","lat":43.26802,"lon":5.40263,"is_reserved":false,"is_disabled":false,"rental_uris":{"android":"levelo://app?vid=d43610d4-6ab3-4063-97de-1a3507b8b43a","ios":"levelo://app?vid=d43610d4-6ab3-4063-97de-1a3507b8b43a"},"vehicle_type_id":"4","last_reported":1729721322,"current_range_meters":30400,"station_id":"ce501612rcd8frsf0b60","pricing_plan_id":"cebpf4jnsgd1na2vs0mg"},{"bike_id":"e6b310af-d763-4708-a97e-f6f2e27c7b8b","system_id":"levelo_inurba_marseille","lat":43.27175,"lon":5.40983,"is_reserved":false,"is_disabled":false,"rental_uris":{"android":"levelo://app?vid=e6b310af-d763-4708-a97e-f6f2e27c7b8b","ios":"levelo://app?vid=e6b310af-d763-4708-a97e-f6f2e27c7b8b"},"vehicle_type_id":"4","last_reported":1729721322,"current_range_meters":9600,"station_id":"ce4bhl12rcd13ifvqgf0","pricing_plan_id":"cebpf4jnsgd1na2vs0mg"},{"bike_id":"29307b0a-20bd-4b38-88dd-bf6801123e99","system_id":"levelo_inurba_marseille","lat":43.24175,"lon":5.3971,"is_reserved":false,"is_disabled":false,"rental_uris":{"android":"levelo://app?vid=29307b0a-20bd-4b38-88dd-bf6801123e99","ios":"levelo://app?vid=29307b0a-20bd-4b38-88dd-bf6801123e99"},"vehicle_type_id":"4","last_reported":1729721322,"current_range_meters":38800,"station_id":"ce4bhn12rcd13ifvqgpg","pricing_plan_id":"cebpf4jnsgd1na2vs0mg"},{"bike_id":"8326934f-a7f4-48b3-a231-d6c67cc4ec03","system_id":"levelo_inurba_marseille","lat":43.2987,"lon":5.39736,"is_reserved":false,"is_disabled":false,"rental_uris":{"android":"levelo://app?vid=8326934f-a7f4-48b3-a231-d6c67cc4ec03","ios":"levelo://app?vid=8326934f-a7f4-48b3-a231-d6c67cc4ec03"},"vehicle_type_id":"4","last_reported":1729721322,"current_range_meters":38800,"station_id":"ce4bh0h2rcd13ifvqd50","pricing_plan_id":"cebpf4jnsgd1na2vs0mg"},{"bike_id":"1a8d05e0-35be-4ee1-8f4c-7f74f09ba245","system_id":"levelo_inurba_marseille","lat":43.28857,"lon":5.39303,"is_reserved":false,"is_disabled":false,"rental_uris":{"android":"levelo://app?vid=1a8d05e0-35be-4ee1-8f4c-7f74f09ba245","ios":"levelo://app?vid=1a8d05e0-35be-4ee1-8f4c-7f74f09ba245"},"vehicle_type_id":"4","last_reported":1729721322,"current_range_meters":16800,"station_id":"ce4bh2p2rcd13ifvqdi0","pricing_plan_id":"cebpf4jnsgd1na2vs0mg"},{"bike_id":"e299669b-eb9b-4e79-82fa-ccd093919bfa","system_id":"levelo_inurba_marseille","lat":43.24648,"lon":5.38889,"is_reserved":false,"is_disabled":false,"rental_uris":{"android":"levelo://app?vid=e299669b-eb9b-4e79-82fa-ccd093919bfa","ios":"levelo://app?vid=e299669b-eb9b-4e79-82fa-ccd093919bfa"},"vehicle_type_id":"4","last_reported":1729721322,"current_range_meters":25200,"station_id":"ce4bhg12rcd13ifvqf60","pricing_plan_id":"cebpf4jnsgd1na2vs0mg"},{"bike_id":"2c698a5d-6625-4000-a36c-48e5dbfee679","system_id":"levelo_inurba_marseille","lat":43.29058,"lon":5.35912,"is_reserved":false,"is_disabled":false,"rental_uris":{"android":"levelo://app?vid=2c698a5d-6625-4000-a36c-48e5dbfee679","ios":"levelo://app?vid=2c698a5d-6625-4000-a36c-48e5dbfee679"},"vehicle_type_id":"4","last_reported":1729721322,"current_range_meters":30000,"station_id":"ce4bha92rcd13ifvqeg0","pricing_plan_id":"cebpf4jnsgd1na2vs0mg"},{"bike_id":"53643c73-ebff-4438-9bbc-d1455671aa2b","system_id":"levelo_inurba_marseille","lat":43.31992,"lon":5.38136,"is_reserved":false,"is_disabled":false,"rental_uris":{"android":"levelo://app?vid=53643c73-ebff-4438-9bbc-d1455671aa2b","ios":"levelo://app?vid=53643c73-ebff-4438-9bbc-d1455671aa2b"},"vehicle_type_id":"4","last_reported":1729721322,"current_range_meters":32400,"station_id":"ce4bhr12rcd13ifvqhpg","pricing_plan_id":"cebpf4jnsgd1na2vs0mg"},{"bike_id":"a47dab65-0b37-4a65-b586-55e1e3712313","system_id":"levelo_inurba_marseille","lat":43.283448,"lon":5.381078,"is_reserved":false,"is_disabled":false,"rental_uris":{"android":"levelo://app?vid=a47dab65-0b37-4a65-b586-55e1e3712313","ios":"levelo://app?vid=a47dab65-0b37-4a65-b586-55e1e3712313"},"vehicle_type_id":"4","last_reported":1729721322,"current_range_meters":33200,"station_id":"ce4bhm12rcd13ifvqgkg","pricing_plan_id":"cebpf4jnsgd1na2vs0mg"},{"bike_id":"83c1c1bf-7f3e-40f7-8901-caa547648f75","system_id":"levelo_inurba_marseille","lat":43.29261,"lon":5.40918,"is_reserved":false,"is_disabled":false,"rental_uris":{"android":"levelo://app?vid=83c1c1bf-7f3e-40f7-8901-caa547648f75","ios":"levelo://app?vid=83c1c1bf-7f3e-40f7-8901-caa547648f75"},"vehicle_type_id":"4","last_reported":1729721322,"current_range_meters":12800,"station_id":"ce4bh192rcd13ifvqdc0","pricing_plan_id":"cebpf4jnsgd1na2vs0mg"},{"bike_id":"407d5ace-b68e-45e5-8307-2fb1d021f6b6","system_id":"levelo_inurba_marseille","lat":43.30892,"lon":5.37173,"is_reserved":false,"is_disabled":false,"rental_uris":{"android":"levelo://app?vid=407d5ace-b68e-45e5-8307-2fb1d021f6b6","ios":"levelo://app?vid=407d5ace-b68e-45e5-8307-2fb1d021f6b6"},"vehicle_type_id":"4","last_reported":1729721322,"current_range_meters":27600,"station_id":"ce4bguh2rcd13ifvqckg","pricing_plan_id":"cebpf4jnsgd1na2vs0mg"},{"bike_id":"16c623cf-ab3f-4890-b15b-3153fd350014","system_id":"levelo_inurba_marseille","lat":43.24653,"lon":5.38893,"is_reserved":false,"is_disabled":false,"rental_uris":{"android":"levelo://app?vid=16c623cf-ab3f-4890-b15b-3153fd350014","ios":"levelo://app?vid=16c623cf-ab3f-4890-b15b-3153fd350014"},"vehicle_type_id":"4","last_reported":1729721322,"current_range_meters":30000,"station_id":"ce4bhg12rcd13ifvqf60","pricing_plan_id":"cebpf4jnsgd1na2vs0mg"},{"bike_id":"84bdd819-4ab1-4f82-9b18-7a085349e454","system_id":"levelo_inurba_marseille","lat":43.25586,"lon":5.38236,"is_reserved":false,"is_disabled":false,"rental_uris":{"android":"levelo://app?vid=84bdd819-4ab1-4f82-9b18-7a085349e454","ios":"levelo://app?vid=84bdd819-4ab1-4f82-9b18-7a085349e454"},"vehicle_type_id":"4","last_reported":1729721322,"current_range_meters":38800,"station_id":"ce4bhih2rcd13ifvqfs0","pricing_plan_id":"cebpf4jnsgd1na2vs0mg"},{"bike_id":"f57afd03-c92f-4ffa-9b51-edefd10dccaf","system_id":"levelo_inurba_marseille","lat":43.28707,"lon":5.39965,"is_reserved":false,"is_disabled":false,"rental_uris":{"android":"levelo://app?vid=f57afd03-c92f-4ffa-9b51-edefd10dccaf","ios":"levelo://app?vid=f57afd03-c92f-4ffa-9b51-edefd10dccaf"},"vehicle_type_id":"4","last_reported":1729721322,"current_range_meters":4800,"station_id":"ce4bho92rcd13ifvqh3g","pricing_plan_id":"cebpf4jnsgd1na2vs0mg"},{"bike_id":"b9e25745-609f-490f-b10e-40e4cbe6e867","system_id":"levelo_inurba_marseille","lat":43.29895,"lon":5.43666,"is_reserved":false,"is_disabled":false,"rental_uris":{"android":"levelo://app?vid=b9e25745-609f-490f-b10e-40e4cbe6e867","ios":"levelo://app?vid=b9e25745-609f-490f-b10e-40e4cbe6e867"},"vehicle_type_id":"4","last_reported":1729721322,"current_range_meters":38800,"station_id":"ce4bhpp2rcd13ifvqhfg","pricing_plan_id":"cebpf4jnsgd1na2vs0mg"},{"bike_id":"2253ef0b-04db-4d01-88cd-9eea682746cc","system_id":"levelo_inurba_marseille","lat":43.28001,"lon":5.40014,"is_reserved":false,"is_disabled":false,"rental_uris":{"android":"levelo://app?vid=2253ef0b-04db-4d01-88cd-9eea682746cc","ios":"levelo://app?vid=2253ef0b-04db-4d01-88cd-9eea682746cc"},"vehicle_type_id":"4","last_reported":1729721322,"current_range_meters":38000,"station_id":"ce4bho92rcd13ifvqh4g","pricing_plan_id":"cebpf4jnsgd1na2vs0mg"},{"bike_id":"b048e3b9-ef54-4400-a75d-4efbd1ad7384","system_id":"levelo_inurba_marseille","lat":43.28028,"lon":5.36944,"is_reserved":false,"is_disabled":false,"rental_uris":{"android":"levelo://app?vid=b048e3b9-ef54-4400-a75d-4efbd1ad7384","ios":"levelo://app?vid=b048e3b9-ef54-4400-a75d-4efbd1ad7384"},"vehicle_type_id":"4","last_reported":1729721322,"current_range_meters":38000,"station_id":"ce4bha12rcd13ifvqef0","pricing_plan_id":"cebpf4jnsgd1na2vs0mg"},{"bike_id":"4fd2f565-ace7-4302-8010-18516f6fa357","system_id":"levelo_inurba_marseille","lat":43.32662,"lon":5.4098,"is_reserved":false,"is_disabled":false,"rental_uris":{"android":"levelo://app?vid=4fd2f565-ace7-4302-8010-18516f6fa357","ios":"levelo://app?vid=4fd2f565-ace7-4302-8010-18516f6fa357"},"vehicle_type_id":"4","last_reported":1729721322,"current_range_meters":37600,"station_id":"ce4bhpp2rcd13ifvqhgg","pricing_plan_id":"cebpf4jnsgd1na2vs0mg"},{"bike_id":"9a5500e7-910d-435f-a360-a01008478b62","system_id":"levelo_inurba_marseille","lat":43.27906,"lon":5.38014,"is_reserved":false,"is_disabled":false,"rental_uris":{"android":"levelo://app?vid=9a5500e7-910d-435f-a360-a01008478b62","ios":"levelo://app?vid=9a5500e7-910d-435f-a360-a01008478b62"},"vehicle_type_id":"4","last_reported":1729721322,"current_range_meters":9200,"station_id":"ce4bhf92rcd13ifvqf50","pricing_plan_id":"cebpf4jnsgd1na2vs0mg"},{"bike_id":"7ea0b9f7-4a6d-47fb-92a8-978540e4b15a","system_id":"levelo_inurba_marseille","lat":43.26938,"lon":5.40252,"is_reserved":false,"is_disabled":false,"rental_uris":{"android":"levelo://app?vid=7ea0b9f7-4a6d-47fb-92a8-978540e4b15a","ios":"levelo://app?vid=7ea0b9f7-4a6d-47fb-92a8-978540e4b15a"},"vehicle_type_id":"4","last_reported":1729721322,"current_range_meters":40000,"station_id":"cjm6bp8fraef2m0cb0m0","pricing_plan_id":"cebpf4jnsgd1na2vs0mg"},{"bike_id":"2919d300-beda-44f3-9aa5-7455b2108365","system_id":"levelo_inurba_marseille","lat":43.29274,"lon":5.36853,"is_reserved":false,"is_disabled":false,"rental_uris":{"android":"levelo://app?vid=2919d300-beda-44f3-9aa5-7455b2108365","ios":"levelo://app?vid=2919d300-beda-44f3-9aa5-7455b2108365"},"vehicle_type_id":"4","last_reported":1729721322,"current_range_meters":37600,"station_id":"ce4bhbp2rcd13ifvqesg","pricing_plan_id":"cebpf4jnsgd1na2vs0mg"},{"bike_id":"2d25ff97-3389-4717-b49b-940736aaa0f0","system_id":"levelo_inurba_marseille","lat":43.30935,"lon":5.40148,"is_reserved":false,"is_disabled":false,"rental_uris":{"android":"levelo://app?vid=2d25ff97-3389-4717-b49b-940736aaa0f0","ios":"levelo://app?vid=2d25ff97-3389-4717-b49b-940736aaa0f0"},"vehicle_type_id":"4","last_reported":1729721322,"current_range_meters":27200,"station_id":"ce4bgvp2rcd13ifvqct0","pricing_plan_id":"cebpf4jnsgd1na2vs0mg"},{"bike_id":"f94a562f-59f2-4ba1-a457-b8508034886e","system_id":"levelo_inurba_marseille","lat":43.27377,"lon":5.36257,"is_reserved":false,"is_disabled":false,"rental_uris":{"android":"levelo://app?vid=f94a562f-59f2-4ba1-a457-b8508034886e","ios":"levelo://app?vid=f94a562f-59f2-4ba1-a457-b8508034886e"},"vehicle_type_id":"4","last_reported":1729721322,"current_range_meters":25600,"station_id":"ce4bhbh2rcd13ifvqeo0","pricing_plan_id":"cebpf4jnsgd1na2vs0mg"},{"bike_id":"49dad390-1199-470c-bd6a-70e2aa5f13a9","system_id":"levelo_inurba_marseille","lat":43.29286,"lon":5.39452,"is_reserved":false,"is_disabled":false,"rental_uris":{"android":"levelo://app?vid=49dad390-1199-470c-bd6a-70e2aa5f13a9","ios":"levelo://app?vid=49dad390-1199-470c-bd6a-70e2aa5f13a9"},"vehicle_type_id":"4","last_reported":1729721322,"current_range_meters":14800,"station_id":"ce4bh612rcd13ifvqe6g","pricing_plan_id":"cebpf4jnsgd1na2vs0mg"},{"bike_id":"4ec25af9-2c50-4187-b3b7-1dc66bf6c68a","system_id":"levelo_inurba_marseille","lat":43.28291,"lon":5.4083,"is_reserved":false,"is_disabled":false,"rental_uris":{"android":"levelo://app?vid=4ec25af9-2c50-4187-b3b7-1dc66bf6c68a","ios":"levelo://app?vid=4ec25af9-2c50-4187-b3b7-1dc66bf6c68a"},"vehicle_type_id":"4","last_reported":1729721322,"current_range_meters":10000,"station_id":"","pricing_plan_id":"cebpf4jnsgd1na2vs0mg"},{"bike_id":"341c243a-3494-45a3-8ebc-0886c92fbe61","system_id":"levelo_inurba_marseille","lat":43.29876,"lon":5.38903,"is_reserved":false,"is_disabled":false,"rental_uris":{"android":"levelo://app?vid=341c243a-3494-45a3-8ebc-0886c92fbe61","ios":"levelo://app?vid=341c243a-3494-45a3-8ebc-0886c92fbe61"},"vehicle_type_id":"4","last_reported":1729721322,"current_range_meters":24800,"station_id":"ce4bh392rcd13ifvqdl0","pricing_plan_id":"cebpf4jnsgd1na2vs0mg"},{"bike_id":"6fda224f-0324-46cf-b747-376ed3219044","system_id":"levelo_inurba_marseille","lat":43.31071,"lon":5.38348,"is_reserved":false,"is_disabled":false,"rental_uris":{"android":"levelo://app?vid=6fda224f-0324-46cf-b747-376ed3219044","ios":"levelo://app?vid=6fda224f-0324-46cf-b747-376ed3219044"},"vehicle_type_id":"4","last_reported":1729721322,"current_range_meters":16000,"station_id":"ce4bgv92rcd13ifvqcr0","pricing_plan_id":"cebpf4jnsgd1na2vs0mg"},{"bike_id":"103ed008-6f4b-4142-8ae0-e6b210d9a427","system_id":"levelo_inurba_marseille","lat":43.22932,"lon":5.35376,"is_reserved":false,"is_disabled":false,"rental_uris":{"android":"levelo://app?vid=103ed008-6f4b-4142-8ae0-e6b210d9a427","ios":"levelo://app?vid=103ed008-6f4b-4142-8ae0-e6b210d9a427"},"vehicle_type_id":"4","last_reported":1729721322,"current_range_meters":14800,"station_id":"cpo3532slgdg3j2ikp40","pricing_plan_id":"cebpf4jnsgd1na2vs0mg"},{"bike_id":"503f7d31-6546-4f3c-93f9-187ede06bd9f","system_id":"levelo_inurba_marseille","lat":43.28404,"lon":5.37529,"is_reserved":false,"is_disabled":false,"rental_uris":{"android":"levelo://app?vid=503f7d31-6546-4f3c-93f9-187ede06bd9f","ios":"levelo://app?vid=503f7d31-6546-4f3c-93f9-187ede06bd9f"},"vehicle_type_id":"4","last_reported":1729721322,"current_range_meters":32800,"station_id":"ce4bh412rcd13ifvqds0","pricing_plan_id":"cebpf4jnsgd1na2vs0mg"},{"bike_id":"fa8da294-671e-4e9a-ad17-e5263743ae7c","system_id":"levelo_inurba_marseille","lat":43.24543,"lon":5.39527,"is_reserved":false,"is_disabled":false,"rental_uris":{"android":"levelo://app?vid=fa8da294-671e-4e9a-ad17-e5263743ae7c","ios":"levelo://app?vid=fa8da294-671e-4e9a-ad17-e5263743ae7c"},"vehicle_type_id":"4","last_reported":1729721322,"current_range_meters":24800,"station_id":"ce4bhlp2rcd13ifvqgjg","pricing_plan_id":"cebpf4jnsgd1na2vs0mg"},{"bike_id":"534d1db3-5c04-4d3e-aefb-da803638f9f8","system_id":"levelo_inurba_marseille","lat":43.28662,"lon":5.36345,"is_reserved":false,"is_disabled":false,"rental_uris":{"android":"levelo://app?vid=534d1db3-5c04-4d3e-aefb-da803638f9f8","ios":"levelo://app?vid=534d1db3-5c04-4d3e-aefb-da803638f9f8"},"vehicle_type_id":"4","last_reported":1729721322,"current_range_meters":17200,"station_id":"ce4bhah2rcd13ifvqej0","pricing_plan_id":"cebpf4jnsgd1na2vs0mg"},{"bike_id":"61bc9fdc-13cc-4f71-a31f-ffb08ccd51d2","system_id":"levelo_inurba_marseille","lat":43.30644,"lon":5.40073,"is_reserved":false,"is_disabled":false,"rental_uris":{"android":"levelo://app?vid=61bc9fdc-13cc-4f71-a31f-ffb08ccd51d2","ios":"levelo://app?vid=61bc9fdc-13cc-4f71-a31f-ffb08ccd51d2"},"vehicle_type_id":"4","last_reported":1729721322,"current_range_meters":36800,"station_id":"ce4bh112rcd13ifvqda0","pricing_plan_id":"cebpf4jnsgd1na2vs0mg"},{"bike_id":"efabcb8c-ee14-4cdc-be9a-ea85da1c61a6","system_id":"levelo_inurba_marseille","lat":43.32367,"lon":5.38881,"is_reserved":false,"is_disabled":false,"rental_uris":{"android":"levelo://app?vid=efabcb8c-ee14-4cdc-be9a-ea85da1c61a6","ios":"levelo://app?vid=efabcb8c-ee14-4cdc-be9a-ea85da1c61a6"},"vehicle_type_id":"4","last_reported":1729721322,"current_range_meters":36800,"station_id":"ce4bhqp2rcd13ifvqhog","pricing_plan_id":"cebpf4jnsgd1na2vs0mg"},{"bike_id":"fa6f6ac8-634a-4a36-91e8-75c143cb5939","system_id":"levelo_inurba_marseille","lat":43.31327,"lon":5.39687,"is_reserved":false,"is_disabled":false,"rental_uris":{"android":"levelo://app?vid=fa6f6ac8-634a-4a36-91e8-75c143cb5939","ios":"levelo://app?vid=fa6f6ac8-634a-4a36-91e8-75c143cb5939"},"vehicle_type_id":"4","last_reported":1729721322,"current_range_meters":28000,"station_id":"ce4bgvp2rcd13ifvqcu0","pricing_plan_id":"cebpf4jnsgd1na2vs0mg"},{"bike_id":"ea86be19-4354-4299-8ffb-9b0930336d68","system_id":"levelo_inurba_marseille","lat":43.28417,"lon":5.37514,"is_reserved":false,"is_disabled":false,"rental_uris":{"android":"levelo://app?vid=ea86be19-4354-4299-8ffb-9b0930336d68","ios":"levelo://app?vid=ea86be19-4354-4299-8ffb-9b0930336d68"},"vehicle_type_id":"4","last_reported":1729721322,"current_range_meters":4000,"station_id":"ce4bh412rcd13ifvqds0","pricing_plan_id":"cebpf4jnsgd1na2vs0mg"},{"bike_id":"e93d0849-6889-4c3b-b756-5d2c77aee686","system_id":"levelo_inurba_marseille","lat":43.27988,"lon":5.41653,"is_reserved":false,"is_disabled":false,"rental_uris":{"android":"levelo://app?vid=e93d0849-6889-4c3b-b756-5d2c77aee686","ios":"levelo://app?vid=e93d0849-6889-4c3b-b756-5d2c77aee686"},"vehicle_type_id":"4","last_reported":1729721322,"current_range_meters":38800,"station_id":"ce4bho12rcd13ifvqh1g","pricing_plan_id":"cebpf4jnsgd1na2vs0mg"},{"bike_id":"3a23f1af-30a4-4557-accf-46d9aacc6d5a","system_id":"levelo_inurba_marseille","lat":43.28463,"lon":5.35887,"is_reserved":false,"is_disabled":false,"rental_uris":{"android":"levelo://app?vid=3a23f1af-30a4-4557-accf-46d9aacc6d5a","ios":"levelo://app?vid=3a23f1af-30a4-4557-accf-46d9aacc6d5a"},"vehicle_type_id":"4","last_reported":1729721322,"current_range_meters":31200,"station_id":"ce4bhah2rcd13ifvqei0","pricing_plan_id":"cebpf4jnsgd1na2vs0mg"},{"bike_id":"cc49fd90-071d-4044-a671-dd32cdc56f6d","system_id":"levelo_inurba_marseille","lat":43.28925,"lon":5.38398,"is_reserved":false,"is_disabled":false,"rental_uris":{"android":"levelo://app?vid=cc49fd90-071d-4044-a671-dd32cdc56f6d","ios":"levelo://app?vid=cc49fd90-071d-4044-a671-dd32cdc56f6d"},"vehicle_type_id":"4","last_reported":1729721322,"current_range_meters":38800,"station_id":"ce4bh612rcd13ifvqe6g","pricing_plan_id":"cebpf4jnsgd1na2vs0mg"},{"bike_id":"78b3255c-91c8-4ff8-8e93-5ecd48719f38","system_id":"levelo_inurba_marseille","lat":43.31267,"lon":5.40178,"is_reserved":false,"is_disabled":false,"rental_uris":{"android":"levelo://app?vid=78b3255c-91c8-4ff8-8e93-5ecd48719f38","ios":"levelo://app?vid=78b3255c-91c8-4ff8-8e93-5ecd48719f38"},"vehicle_type_id":"4","last_reported":1729721322,"current_range_meters":36400,"station_id":"ce4bh092rcd13ifvqd30","pricing_plan_id":"cebpf4jnsgd1na2vs0mg"},{"bike_id":"9a0af0d7-bb17-4d5c-aa62-31f0b495007a","system_id":"levelo_inurba_marseille","lat":43.24388,"lon":5.37055,"is_reserved":false,"is_disabled":false,"rental_uris":{"android":"levelo://app?vid=9a0af0d7-bb17-4d5c-aa62-31f0b495007a","ios":"levelo://app?vid=9a0af0d7-bb17-4d5c-aa62-31f0b495007a"},"vehicle_type_id":"4","last_reported":1729721322,"current_range_meters":28000,"station_id":"ce4bhhh2rcd13ifvqfk0","pricing_plan_id":"cebpf4jnsgd1na2vs0mg"},{"bike_id":"10ef942d-e564-4c77-a954-c43e0e015bbc","system_id":"levelo_inurba_marseille","lat":43.23177,"lon":5.3999,"is_reserved":false,"is_disabled":false,"rental_uris":{"android":"levelo://app?vid=10ef942d-e564-4c77-a954-c43e0e015bbc","ios":"levelo://app?vid=10ef942d-e564-4c77-a954-c43e0e015bbc"},"vehicle_type_id":"4","last_reported":1729721322,"current_range_meters":16000,"station_id":"ce4bhn12rcd13ifvqgqg","pricing_plan_id":"cebpf4jnsgd1na2vs0mg"},{"bike_id":"4439b8bb-2263-4fec-b135-4b051f3ea948","system_id":"levelo_inurba_marseille","lat":43.306,"lon":5.37239,"is_reserved":false,"is_disabled":false,"rental_uris":{"android":"levelo://app?vid=4439b8bb-2263-4fec-b135-4b051f3ea948","ios":"levelo://app?vid=4439b8bb-2263-4fec-b135-4b051f3ea948"},"vehicle_type_id":"4","last_reported":1729721322,"current_range_meters":21600,"station_id":"ce4bgqh2rcd13ifvqc4g","pricing_plan_id":"cebpf4jnsgd1na2vs0mg"},{"bike_id":"dbc70d8b-a234-4921-9028-e2139c64d155","system_id":"levelo_inurba_marseille","lat":43.306505,"lon":5.400887,"is_reserved":false,"is_disabled":false,"rental_uris":{"android":"levelo://app?vid=dbc70d8b-a234-4921-9028-e2139c64d155","ios":"levelo://app?vid=dbc70d8b-a234-4921-9028-e2139c64d155"},"vehicle_type_id":"4","last_reported":1729721322,"current_range_meters":38800,"station_id":"ce4bh112rcd13ifvqda0","pricing_plan_id":"cebpf4jnsgd1na2vs0mg"},{"bike_id":"0bc90dc2-cf8c-457e-a6aa-9b91de95f992","system_id":"levelo_inurba_marseille","lat":43.22785,"lon":5.41573,"is_reserved":false,"is_disabled":false,"rental_uris":{"android":"levelo://app?vid=0bc90dc2-cf8c-457e-a6aa-9b91de95f992","ios":"levelo://app?vid=0bc90dc2-cf8c-457e-a6aa-9b91de95f992"},"vehicle_type_id":"4","last_reported":1729721322,"current_range_meters":35600,"station_id":"","pricing_plan_id":"cebpf4jnsgd1na2vs0mg"},{"bike_id":"f3631442-88e4-4b99-802a-caff4044a5fa","system_id":"levelo_inurba_marseille","lat":43.25584,"lon":5.38238,"is_reserved":false,"is_disabled":false,"rental_uris":{"android":"levelo://app?vid=f3631442-88e4-4b99-802a-caff4044a5fa","ios":"levelo://app?vid=f3631442-88e4-4b99-802a-caff4044a5fa"},"vehicle_type_id":"4","last_reported":1729721322,"current_range_meters":12400,"station_id":"ce4bhih2rcd13ifvqfs0","pricing_plan_id":"cebpf4jnsgd1na2vs0mg"},{"bike_id":"67bf2a4e-b0b8-45b5-8898-2db548cfe92d","system_id":"levelo_inurba_marseille","lat":43.31328,"lon":5.3969,"is_reserved":false,"is_disabled":false,"rental_uris":{"android":"levelo://app?vid=67bf2a4e-b0b8-45b5-8898-2db548cfe92d","ios":"levelo://app?vid=67bf2a4e-b0b8-45b5-8898-2db548cfe92d"},"vehicle_type_id":"4","last_reported":1729721322,"current_range_meters":36000,"station_id":"ce4bgvp2rcd13ifvqcu0","pricing_plan_id":"cebpf4jnsgd1na2vs0mg"},{"bike_id":"9da1729a-9279-43a4-8c8a-e333b6f1c171","system_id":"levelo_inurba_marseille","lat":43.3153,"lon":5.38039,"is_reserved":false,"is_disabled":false,"rental_uris":{"android":"levelo://app?vid=9da1729a-9279-43a4-8c8a-e333b6f1c171","ios":"levelo://app?vid=9da1729a-9279-43a4-8c8a-e333b6f1c171"},"vehicle_type_id":"4","last_reported":1729721322,"current_range_meters":19600,"station_id":"ce4bhsp2rcd13ifvqi50","pricing_plan_id":"cebpf4jnsgd1na2vs0mg"},{"bike_id":"77f4b066-aec9-4c35-96ec-732b3f9a5964","system_id":"levelo_inurba_marseille","lat":43.279006,"lon":5.380036,"is_reserved":false,"is_disabled":false,"rental_uris":{"android":"levelo://app?vid=77f4b066-aec9-4c35-96ec-732b3f9a5964","ios":"levelo://app?vid=77f4b066-aec9-4c35-96ec-732b3f9a5964"},"vehicle_type_id":"4","last_reported":1729721322,"current_range_meters":36400,"station_id":"ce4bhf92rcd13ifvqf50","pricing_plan_id":"cebpf4jnsgd1na2vs0mg"},{"bike_id":"4246efd7-6801-4b7b-b007-6178b971f023","system_id":"levelo_inurba_marseille","lat":43.28437,"lon":5.39179,"is_reserved":false,"is_disabled":false,"rental_uris":{"android":"levelo://app?vid=4246efd7-6801-4b7b-b007-6178b971f023","ios":"levelo://app?vid=4246efd7-6801-4b7b-b007-6178b971f023"},"vehicle_type_id":"4","last_reported":1729721322,"current_range_meters":26800,"station_id":"ce4bhoh2rcd13ifvqh5g","pricing_plan_id":"cebpf4jnsgd1na2vs0mg"},{"bike_id":"4adda8f0-b5a9-4630-a6da-74177b535ba0","system_id":"levelo_inurba_marseille","lat":43.29801,"lon":5.38091,"is_reserved":false,"is_disabled":false,"rental_uris":{"android":"levelo://app?vid=4adda8f0-b5a9-4630-a6da-74177b535ba0","ios":"levelo://app?vid=4adda8f0-b5a9-4630-a6da-74177b535ba0"},"vehicle_type_id":"4","last_reported":1729721322,"current_range_meters":35200,"station_id":"ce4bgip2rcd13ifvqbb0","pricing_plan_id":"cebpf4jnsgd1na2vs0mg"},{"bike_id":"e41e09fb-c3cd-4ea0-b6f3-e7e0f9c1776e","system_id":"levelo_inurba_marseille","lat":43.32682,"lon":5.38841,"is_reserved":false,"is_disabled":false,"rental_uris":{"android":"levelo://app?vid=e41e09fb-c3cd-4ea0-b6f3-e7e0f9c1776e","ios":"levelo://app?vid=e41e09fb-c3cd-4ea0-b6f3-e7e0f9c1776e"},"vehicle_type_id":"4","last_reported":1729721322,"current_range_meters":30400,"station_id":"","pricing_plan_id":"cebpf4jnsgd1na2vs0mg"},{"bike_id":"a0bfcec4-1019-4422-bc30-2e46cb48cb4e","system_id":"levelo_inurba_marseille","lat":43.33759,"lon":5.37455,"is_reserved":false,"is_disabled":false,"rental_uris":{"android":"levelo://app?vid=a0bfcec4-1019-4422-bc30-2e46cb48cb4e","ios":"levelo://app?vid=a0bfcec4-1019-4422-bc30-2e46cb48cb4e"},"vehicle_type_id":"4","last_reported":1729721322,"current_range_meters":25600,"station_id":"","pricing_plan_id":"cebpf4jnsgd1na2vs0mg"},{"bike_id":"106754a9-7f28-4856-ad68-7916862f566f","system_id":"levelo_inurba_marseille","lat":43.26804,"lon":5.40266,"is_reserved":false,"is_disabled":false,"rental_uris":{"android":"levelo://app?vid=106754a9-7f28-4856-ad68-7916862f566f","ios":"levelo://app?vid=106754a9-7f28-4856-ad68-7916862f566f"},"vehicle_type_id":"4","last_reported":1729721322,"current_range_meters":27200,"station_id":"ce501612rcd8frsf0b60","pricing_plan_id":"cebpf4jnsgd1na2vs0mg"},{"bike_id":"a8d6c914-eb01-4b6d-887b-aafdfbfd4dec","system_id":"levelo_inurba_marseille","lat":43.28417,"lon":5.37515,"is_reserved":false,"is_disabled":false,"rental_uris":{"android":"levelo://app?vid=a8d6c914-eb01-4b6d-887b-aafdfbfd4dec","ios":"levelo://app?vid=a8d6c914-eb01-4b6d-887b-aafdfbfd4dec"},"vehicle_type_id":"4","last_reported":1729721322,"current_range_meters":2800,"station_id":"ce4bh412rcd13ifvqds0","pricing_plan_id":"cebpf4jnsgd1na2vs0mg"},{"bike_id":"3aebc35e-8258-4164-9d25-fcc8571f80dc","system_id":"levelo_inurba_marseille","lat":43.25721,"lon":5.41108,"is_reserved":false,"is_disabled":false,"rental_uris":{"android":"levelo://app?vid=3aebc35e-8258-4164-9d25-fcc8571f80dc","ios":"levelo://app?vid=3aebc35e-8258-4164-9d25-fcc8571f80dc"},"vehicle_type_id":"4","last_reported":1729721322,"current_range_meters":28800,"station_id":"ce4bhkp2rcd13ifvqgd0","pricing_plan_id":"cebpf4jnsgd1na2vs0mg"},{"bike_id":"9cc86360-5eab-45ae-a458-952e8a91e43e","system_id":"levelo_inurba_marseille","lat":43.22936,"lon":5.3538,"is_reserved":false,"is_disabled":false,"rental_uris":{"android":"levelo://app?vid=9cc86360-5eab-45ae-a458-952e8a91e43e","ios":"levelo://app?vid=9cc86360-5eab-45ae-a458-952e8a91e43e"},"vehicle_type_id":"4","last_reported":1729721322,"current_range_meters":19600,"station_id":"cpo3532slgdg3j2ikp40","pricing_plan_id":"cebpf4jnsgd1na2vs0mg"},{"bike_id":"7ba70ce4-2902-4f6b-9aa0-964c036b3232","system_id":"levelo_inurba_marseille","lat":43.28475,"lon":5.38417,"is_reserved":false,"is_disabled":false,"rental_uris":{"android":"levelo://app?vid=7ba70ce4-2902-4f6b-9aa0-964c036b3232","ios":"levelo://app?vid=7ba70ce4-2902-4f6b-9aa0-964c036b3232"},"vehicle_type_id":"4","last_reported":1729721322,"current_range_meters":38000,"station_id":"ce4bh512rcd13ifvqe3g","pricing_plan_id":"cebpf4jnsgd1na2vs0mg"},{"bike_id":"8d963c98-7b40-4d2d-baca-f7997ab149f2","system_id":"levelo_inurba_marseille","lat":43.28855,"lon":5.39308,"is_reserved":false,"is_disabled":false,"rental_uris":{"android":"levelo://app?vid=8d963c98-7b40-4d2d-baca-f7997ab149f2","ios":"levelo://app?vid=8d963c98-7b40-4d2d-baca-f7997ab149f2"},"vehicle_type_id":"4","last_reported":1729721322,"current_range_meters":38400,"station_id":"ce4bh2p2rcd13ifvqdi0","pricing_plan_id":"cebpf4jnsgd1na2vs0mg"},{"bike_id":"334339a2-7b68-46ab-84f8-5314e58f57b5","system_id":"levelo_inurba_marseille","lat":43.3081,"lon":5.38153,"is_reserved":false,"is_disabled":false,"rental_uris":{"android":"levelo://app?vid=334339a2-7b68-46ab-84f8-5314e58f57b5","ios":"levelo://app?vid=334339a2-7b68-46ab-84f8-5314e58f57b5"},"vehicle_type_id":"4","last_reported":1729721322,"current_range_meters":38800,"station_id":"ce4bgt12rcd13ifvqce0","pricing_plan_id":"cebpf4jnsgd1na2vs0mg"},{"bike_id":"d4178fde-d9f1-489b-bf7f-8a98157127e4","system_id":"levelo_inurba_marseille","lat":43.29436,"lon":5.39739,"is_reserved":false,"is_disabled":false,"rental_uris":{"android":"levelo://app?vid=d4178fde-d9f1-489b-bf7f-8a98157127e4","ios":"levelo://app?vid=d4178fde-d9f1-489b-bf7f-8a98157127e4"},"vehicle_type_id":"4","last_reported":1729721322,"current_range_meters":38800,"station_id":"ce4bh3h2rcd13ifvqdo0","pricing_plan_id":"cebpf4jnsgd1na2vs0mg"},{"bike_id":"2791bec2-772a-458f-a57f-284af3c571b9","system_id":"levelo_inurba_marseille","lat":43.27618,"lon":5.36103,"is_reserved":false,"is_disabled":false,"rental_uris":{"android":"levelo://app?vid=2791bec2-772a-458f-a57f-284af3c571b9","ios":"levelo://app?vid=2791bec2-772a-458f-a57f-284af3c571b9"},"vehicle_type_id":"4","last_reported":1729721322,"current_range_meters":38800,"station_id":"ce4bgj92rcd13ifvqbe0","pricing_plan_id":"cebpf4jnsgd1na2vs0mg"},{"bike_id":"4a0e8360-a05c-4109-81a9-fc615adb8a72","system_id":"levelo_inurba_marseille","lat":43.3088,"lon":5.39648,"is_reserved":false,"is_disabled":false,"rental_uris":{"android":"levelo://app?vid=4a0e8360-a05c-4109-81a9-fc615adb8a72","ios":"levelo://app?vid=4a0e8360-a05c-4109-81a9-fc615adb8a72"},"vehicle_type_id":"4","last_reported":1729721322,"current_range_meters":19600,"station_id":"ce4bh012rcd13ifvqcv0","pricing_plan_id":"cebpf4jnsgd1na2vs0mg"},{"bike_id":"be230514-183a-4179-859d-7351e13f49e9","system_id":"levelo_inurba_marseille","lat":43.280365,"lon":5.369521,"is_reserved":false,"is_disabled":false,"rental_uris":{"android":"levelo://app?vid=be230514-183a-4179-859d-7351e13f49e9","ios":"levelo://app?vid=be230514-183a-4179-859d-7351e13f49e9"},"vehicle_type_id":"4","last_reported":1729721322,"current_range_meters":36400,"station_id":"ce4bha12rcd13ifvqef0","pricing_plan_id":"cebpf4jnsgd1na2vs0mg"},{"bike_id":"bbb4600c-9366-419c-8bcb-c3c1c4bc5806","system_id":"levelo_inurba_marseille","lat":43.2749,"lon":5.42449,"is_reserved":false,"is_disabled":false,"rental_uris":{"android":"levelo://app?vid=bbb4600c-9366-419c-8bcb-c3c1c4bc5806","ios":"levelo://app?vid=bbb4600c-9366-419c-8bcb-c3c1c4bc5806"},"vehicle_type_id":"4","last_reported":1729721322,"current_range_meters":40000,"station_id":"ce4bhn92rcd13ifvqgrg","pricing_plan_id":"cebpf4jnsgd1na2vs0mg"},{"bike_id":"0766dd21-e564-4d50-b88f-8c0ef02ba141","system_id":"levelo_inurba_marseille","lat":43.24079,"lon":5.37752,"is_reserved":false,"is_disabled":false,"rental_uris":{"android":"levelo://app?vid=0766dd21-e564-4d50-b88f-8c0ef02ba141","ios":"levelo://app?vid=0766dd21-e564-4d50-b88f-8c0ef02ba141"},"vehicle_type_id":"4","last_reported":1729721322,"current_range_meters":30400,"station_id":"ce4bhnp2rcd13ifvqgvg","pricing_plan_id":"cebpf4jnsgd1na2vs0mg"},{"bike_id":"8d0955dd-8bd4-4746-baaa-693d700c8601","system_id":"levelo_inurba_marseille","lat":43.318861,"lon":5.407225,"is_reserved":false,"is_disabled":false,"rental_uris":{"android":"levelo://app?vid=8d0955dd-8bd4-4746-baaa-693d700c8601","ios":"levelo://app?vid=8d0955dd-8bd4-4746-baaa-693d700c8601"},"vehicle_type_id":"4","last_reported":1729721322,"current_range_meters":35600,"station_id":"ce4bhq12rcd13ifvqhig","pricing_plan_id":"cebpf4jnsgd1na2vs0mg"},{"bike_id":"cfcebfa7-3f59-4d32-a8f1-45e59f6e2f26","system_id":"levelo_inurba_marseille","lat":43.22936,"lon":5.35381,"is_reserved":false,"is_disabled":false,"rental_uris":{"android":"levelo://app?vid=cfcebfa7-3f59-4d32-a8f1-45e59f6e2f26","ios":"levelo://app?vid=cfcebfa7-3f59-4d32-a8f1-45e59f6e2f26"},"vehicle_type_id":"4","last_reported":1729721322,"current_range_meters":34800,"station_id":"cpo3532slgdg3j2ikp40","pricing_plan_id":"cebpf4jnsgd1na2vs0mg"},{"bike_id":"3e381e9b-65a4-436a-a571-b4ba1ee13663","system_id":"levelo_inurba_marseille","lat":43.324823,"lon":5.365607,"is_reserved":false,"is_disabled":false,"rental_uris":{"android":"levelo://app?vid=3e381e9b-65a4-436a-a571-b4ba1ee13663","ios":"levelo://app?vid=3e381e9b-65a4-436a-a571-b4ba1ee13663"},"vehicle_type_id":"4","last_reported":1729721322,"current_range_meters":18800,"station_id":"ce4bhs12rcd13ifvqhvg","pricing_plan_id":"cebpf4jnsgd1na2vs0mg"},{"bike_id":"a3dcf7ee-59f1-4f53-936b-77f32b59962d","system_id":"levelo_inurba_marseille","lat":43.27498,"lon":5.4245,"is_reserved":false,"is_disabled":false,"rental_uris":{"android":"levelo://app?vid=a3dcf7ee-59f1-4f53-936b-77f32b59962d","ios":"levelo://app?vid=a3dcf7ee-59f1-4f53-936b-77f32b59962d"},"vehicle_type_id":"4","last_reported":1729721322,"current_range_meters":17600,"station_id":"ce4bhn92rcd13ifvqgrg","pricing_plan_id":"cebpf4jnsgd1na2vs0mg"},{"bike_id":"3a526fc6-5f14-429c-8829-287dc38ef285","system_id":"levelo_inurba_marseille","lat":43.22932,"lon":5.35373,"is_reserved":false,"is_disabled":false,"rental_uris":{"android":"levelo://app?vid=3a526fc6-5f14-429c-8829-287dc38ef285","ios":"levelo://app?vid=3a526fc6-5f14-429c-8829-287dc38ef285"},"vehicle_type_id":"4","last_reported":1729721322,"current_range_meters":35200,"station_id":"cpo3532slgdg3j2ikp40","pricing_plan_id":"cebpf4jnsgd1na2vs0mg"},{"bike_id":"e8ca6d47-6df2-47de-8243-f99a42d70c57","system_id":"levelo_inurba_marseille","lat":43.23963,"lon":5.36618,"is_reserved":false,"is_disabled":false,"rental_uris":{"android":"levelo://app?vid=e8ca6d47-6df2-47de-8243-f99a42d70c57","ios":"levelo://app?vid=e8ca6d47-6df2-47de-8243-f99a42d70c57"},"vehicle_type_id":"4","last_reported":1729721322,"current_range_meters":17600,"station_id":"ce4bhi12rcd13ifvqfp0","pricing_plan_id":"cebpf4jnsgd1na2vs0mg"},{"bike_id":"d1819318-001d-455a-8dc3-4ab23982bd00","system_id":"levelo_inurba_marseille","lat":43.29868,"lon":5.39742,"is_reserved":false,"is_disabled":false,"rental_uris":{"android":"levelo://app?vid=d1819318-001d-455a-8dc3-4ab23982bd00","ios":"levelo://app?vid=d1819318-001d-455a-8dc3-4ab23982bd00"},"vehicle_type_id":"4","last_reported":1729721322,"current_range_meters":38800,"station_id":"ce4bh0h2rcd13ifvqd50","pricing_plan_id":"cebpf4jnsgd1na2vs0mg"},{"bike_id":"7262f382-d7e7-464d-933d-3222561c9d4f","system_id":"levelo_inurba_marseille","lat":43.28459,"lon":5.35883,"is_reserved":false,"is_disabled":false,"rental_uris":{"android":"levelo://app?vid=7262f382-d7e7-464d-933d-3222561c9d4f","ios":"levelo://app?vid=7262f382-d7e7-464d-933d-3222561c9d4f"},"vehicle_type_id":"4","last_reported":1729721322,"current_range_meters":28000,"station_id":"ce4bhah2rcd13ifvqei0","pricing_plan_id":"cebpf4jnsgd1na2vs0mg"},{"bike_id":"07a0475d-cb4c-43b4-bfde-5371b2e6c2f2","system_id":"levelo_inurba_marseille","lat":43.23148,"lon":5.43693,"is_reserved":false,"is_disabled":false,"rental_uris":{"android":"levelo://app?vid=07a0475d-cb4c-43b4-bfde-5371b2e6c2f2","ios":"levelo://app?vid=07a0475d-cb4c-43b4-bfde-5371b2e6c2f2"},"vehicle_type_id":"4","last_reported":1729721322,"current_range_meters":10000,"station_id":"ce4bhmp2rcd13ifvqgog","pricing_plan_id":"cebpf4jnsgd1na2vs0mg"},{"bike_id":"27cd006e-aeab-405b-a10b-9b345408717e","system_id":"levelo_inurba_marseille","lat":43.30793,"lon":5.38145,"is_reserved":false,"is_disabled":false,"rental_uris":{"android":"levelo://app?vid=27cd006e-aeab-405b-a10b-9b345408717e","ios":"levelo://app?vid=27cd006e-aeab-405b-a10b-9b345408717e"},"vehicle_type_id":"4","last_reported":1729721322,"current_range_meters":36400,"station_id":"ce4bgt12rcd13ifvqce0","pricing_plan_id":"cebpf4jnsgd1na2vs0mg"},{"bike_id":"365a5e76-e012-4983-b8a9-1a07480bde83","system_id":"levelo_inurba_marseille","lat":43.23196,"lon":5.35544,"is_reserved":false,"is_disabled":false,"rental_uris":{"android":"levelo://app?vid=365a5e76-e012-4983-b8a9-1a07480bde83","ios":"levelo://app?vid=365a5e76-e012-4983-b8a9-1a07480bde83"},"vehicle_type_id":"4","last_reported":1729721322,"current_range_meters":40000,"station_id":"ce4bhu92rcd13ifvqi70","pricing_plan_id":"cebpf4jnsgd1na2vs0mg"},{"bike_id":"351f0561-a3cc-4b60-8dce-97a68727c703","system_id":"levelo_inurba_marseille","lat":43.29044,"lon":5.35913,"is_reserved":false,"is_disabled":false,"rental_uris":{"android":"levelo://app?vid=351f0561-a3cc-4b60-8dce-97a68727c703","ios":"levelo://app?vid=351f0561-a3cc-4b60-8dce-97a68727c703"},"vehicle_type_id":"4","last_reported":1729721322,"current_range_meters":8800,"station_id":"ce4bha92rcd13ifvqeg0","pricing_plan_id":"cebpf4jnsgd1na2vs0mg"},{"bike_id":"5a7f4f3c-e25b-4b1b-990b-6321e3db6a88","system_id":"levelo_inurba_marseille","lat":43.30885,"lon":5.39641,"is_reserved":false,"is_disabled":false,"rental_uris":{"android":"levelo://app?vid=5a7f4f3c-e25b-4b1b-990b-6321e3db6a88","ios":"levelo://app?vid=5a7f4f3c-e25b-4b1b-990b-6321e3db6a88"},"vehicle_type_id":"4","last_reported":1729721322,"current_range_meters":36800,"station_id":"ce4bh012rcd13ifvqcv0","pricing_plan_id":"cebpf4jnsgd1na2vs0mg"},{"bike_id":"4d224e59-2c94-4f96-8bb6-62bf9b83a809","system_id":"levelo_inurba_marseille","lat":43.26753,"lon":5.39285,"is_reserved":false,"is_disabled":false,"rental_uris":{"android":"levelo://app?vid=4d224e59-2c94-4f96-8bb6-62bf9b83a809","ios":"levelo://app?vid=4d224e59-2c94-4f96-8bb6-62bf9b83a809"},"vehicle_type_id":"4","last_reported":1729721322,"current_range_meters":4400,"station_id":"","pricing_plan_id":"cebpf4jnsgd1na2vs0mg"},{"bike_id":"35ac2a40-91b5-4d88-8ecc-86db02402171","system_id":"levelo_inurba_marseille","lat":43.31064,"lon":5.38341,"is_reserved":false,"is_disabled":false,"rental_uris":{"android":"levelo://app?vid=35ac2a40-91b5-4d88-8ecc-86db02402171","ios":"levelo://app?vid=35ac2a40-91b5-4d88-8ecc-86db02402171"},"vehicle_type_id":"4","last_reported":1729721322,"current_range_meters":38800,"station_id":"ce4bgv92rcd13ifvqcr0","pricing_plan_id":"cebpf4jnsgd1na2vs0mg"},{"bike_id":"973b6b42-8669-4187-9a1d-56c7297d35f9","system_id":"levelo_inurba_marseille","lat":43.29777,"lon":5.37114,"is_reserved":false,"is_disabled":false,"rental_uris":{"android":"levelo://app?vid=973b6b42-8669-4187-9a1d-56c7297d35f9","ios":"levelo://app?vid=973b6b42-8669-4187-9a1d-56c7297d35f9"},"vehicle_type_id":"4","last_reported":1729721322,"current_range_meters":36800,"station_id":"ce4bgop2rcd13ifvqc1g","pricing_plan_id":"cebpf4jnsgd1na2vs0mg"},{"bike_id":"8fe62bce-b87b-4c8f-9b20-51e157e8aae4","system_id":"levelo_inurba_marseille","lat":43.30794,"lon":5.38153,"is_reserved":false,"is_disabled":false,"rental_uris":{"android":"levelo://app?vid=8fe62bce-b87b-4c8f-9b20-51e157e8aae4","ios":"levelo://app?vid=8fe62bce-b87b-4c8f-9b20-51e157e8aae4"},"vehicle_type_id":"4","last_reported":1729721322,"current_range_meters":32400,"station_id":"ce4bgt12rcd13ifvqce0","pricing_plan_id":"cebpf4jnsgd1na2vs0mg"},{"bike_id":"ee44d175-69d2-4d16-8c11-f16b7eb9ac46","system_id":"levelo_inurba_marseille","lat":43.299551,"lon":5.391902,"is_reserved":false,"is_disabled":false,"rental_uris":{"android":"levelo://app?vid=ee44d175-69d2-4d16-8c11-f16b7eb9ac46","ios":"levelo://app?vid=ee44d175-69d2-4d16-8c11-f16b7eb9ac46"},"vehicle_type_id":"4","last_reported":1729721322,"current_range_meters":9600,"station_id":"ce4bghh2rcd13ifvqb60","pricing_plan_id":"cebpf4jnsgd1na2vs0mg"},{"bike_id":"e6c78128-59ad-4f84-baf2-7ef4c7e683ec","system_id":"levelo_inurba_marseille","lat":43.27901,"lon":5.37998,"is_reserved":false,"is_disabled":false,"rental_uris":{"android":"levelo://app?vid=e6c78128-59ad-4f84-baf2-7ef4c7e683ec","ios":"levelo://app?vid=e6c78128-59ad-4f84-baf2-7ef4c7e683ec"},"vehicle_type_id":"4","last_reported":1729721322,"current_range_meters":19600,"station_id":"ce4bhf92rcd13ifvqf50","pricing_plan_id":"cebpf4jnsgd1na2vs0mg"},{"bike_id":"4a638cf6-defc-408e-b127-366c1f15f3fd","system_id":"levelo_inurba_marseille","lat":43.3107,"lon":5.38341,"is_reserved":false,"is_disabled":false,"rental_uris":{"android":"levelo://app?vid=4a638cf6-defc-408e-b127-366c1f15f3fd","ios":"levelo://app?vid=4a638cf6-defc-408e-b127-366c1f15f3fd"},"vehicle_type_id":"4","last_reported":1729721322,"current_range_meters":28800,"station_id":"ce4bgv92rcd13ifvqcr0","pricing_plan_id":"cebpf4jnsgd1na2vs0mg"},{"bike_id":"b6582cc0-ce1b-4fa6-92f3-62cb8dd6c88a","system_id":"levelo_inurba_marseille","lat":43.313596,"lon":5.384981,"is_reserved":false,"is_disabled":false,"rental_uris":{"android":"levelo://app?vid=b6582cc0-ce1b-4fa6-92f3-62cb8dd6c88a","ios":"levelo://app?vid=b6582cc0-ce1b-4fa6-92f3-62cb8dd6c88a"},"vehicle_type_id":"4","last_reported":1729721322,"current_range_meters":33600,"station_id":"ce4bgt92rcd13ifvqcf0","pricing_plan_id":"cebpf4jnsgd1na2vs0mg"},{"bike_id":"b43de801-769c-41cf-9a46-58b74fa34c01","system_id":"levelo_inurba_marseille","lat":43.275269,"lon":5.389859,"is_reserved":false,"is_disabled":false,"rental_uris":{"android":"levelo://app?vid=b43de801-769c-41cf-9a46-58b74fa34c01","ios":"levelo://app?vid=b43de801-769c-41cf-9a46-58b74fa34c01"},"vehicle_type_id":"4","last_reported":1729721322,"current_range_meters":35600,"station_id":"","pricing_plan_id":"cebpf4jnsgd1na2vs0mg"},{"bike_id":"43ec4c82-9232-4402-b0d4-b281c69d707f","system_id":"levelo_inurba_marseille","lat":43.2887,"lon":5.38212,"is_reserved":false,"is_disabled":false,"rental_uris":{"android":"levelo://app?vid=43ec4c82-9232-4402-b0d4-b281c69d707f","ios":"levelo://app?vid=43ec4c82-9232-4402-b0d4-b281c69d707f"},"vehicle_type_id":"4","last_reported":1729721322,"current_range_meters":35600,"station_id":"","pricing_plan_id":"cebpf4jnsgd1na2vs0mg"},{"bike_id":"1bf7fd95-721c-42bc-b449-c8c9be5dfdc8","system_id":"levelo_inurba_marseille","lat":43.29626,"lon":5.40595,"is_reserved":false,"is_disabled":false,"rental_uris":{"android":"levelo://app?vid=1bf7fd95-721c-42bc-b449-c8c9be5dfdc8","ios":"levelo://app?vid=1bf7fd95-721c-42bc-b449-c8c9be5dfdc8"},"vehicle_type_id":"4","last_reported":1729721322,"current_range_meters":30000,"station_id":"ce4bh0h2rcd13ifvqd60","pricing_plan_id":"cebpf4jnsgd1na2vs0mg"},{"bike_id":"56cbca0e-ec84-496e-b02d-7c7aa75428c9","system_id":"levelo_inurba_marseille","lat":43.30533,"lon":5.36707,"is_reserved":false,"is_disabled":false,"rental_uris":{"android":"levelo://app?vid=56cbca0e-ec84-496e-b02d-7c7aa75428c9","ios":"levelo://app?vid=56cbca0e-ec84-496e-b02d-7c7aa75428c9"},"vehicle_type_id":"4","last_reported":1729721322,"current_range_meters":38800,"station_id":"ce4bgrp2rcd13ifvqc9g","pricing_plan_id":"cebpf4jnsgd1na2vs0mg"},{"bike_id":"d2b2da75-3fcb-4cbd-a600-381e167d61a5","system_id":"levelo_inurba_marseille","lat":43.32286,"lon":5.38266,"is_reserved":false,"is_disabled":false,"rental_uris":{"android":"levelo://app?vid=d2b2da75-3fcb-4cbd-a600-381e167d61a5","ios":"levelo://app?vid=d2b2da75-3fcb-4cbd-a600-381e167d61a5"},"vehicle_type_id":"4","last_reported":1729721322,"current_range_meters":28400,"station_id":"ce4bhr12rcd13ifvqhqg","pricing_plan_id":"cebpf4jnsgd1na2vs0mg"},{"bike_id":"1938f8d0-bf23-441c-800e-8cacbc8363c4","system_id":"levelo_inurba_marseille","lat":43.29277,"lon":5.40109,"is_reserved":false,"is_disabled":false,"rental_uris":{"android":"levelo://app?vid=1938f8d0-bf23-441c-800e-8cacbc8363c4","ios":"levelo://app?vid=1938f8d0-bf23-441c-800e-8cacbc8363c4"},"vehicle_type_id":"4","last_reported":1729721322,"current_range_meters":18800,"station_id":"ce4bh312rcd13ifvqdk0","pricing_plan_id":"cebpf4jnsgd1na2vs0mg"},{"bike_id":"9e75b1a8-a957-4cf4-9a4a-1c0eb38882c6","system_id":"levelo_inurba_marseille","lat":43.29934,"lon":5.36531,"is_reserved":false,"is_disabled":false,"rental_uris":{"android":"levelo://app?vid=9e75b1a8-a957-4cf4-9a4a-1c0eb38882c6","ios":"levelo://app?vid=9e75b1a8-a957-4cf4-9a4a-1c0eb38882c6"},"vehicle_type_id":"4","last_reported":1729721322,"current_range_meters":38800,"station_id":"ce4bgm92rcd13ifvqbr0","pricing_plan_id":"cebpf4jnsgd1na2vs0mg"},{"bike_id":"96e23a93-7d3b-4fb0-a7b9-df9457cc571e","system_id":"levelo_inurba_marseille","lat":43.28435,"lon":5.39187,"is_reserved":false,"is_disabled":false,"rental_uris":{"android":"levelo://app?vid=96e23a93-7d3b-4fb0-a7b9-df9457cc571e","ios":"levelo://app?vid=96e23a93-7d3b-4fb0-a7b9-df9457cc571e"},"vehicle_type_id":"4","last_reported":1729721322,"current_range_meters":6800,"station_id":"ce4bhoh2rcd13ifvqh5g","pricing_plan_id":"cebpf4jnsgd1na2vs0mg"},