{"last_updated":1735844819,"ttl":60,"version":"2.2","data":{"bikes":[{"bike_id":"5fc33033-4827-4528-9193-70aaad8ca07b","system_id":"levelo_inurba_marseille","lat":43.26928,"lon":5.38914,"is_reserved":false,"is_disabled":false,"rental_uris":{"android":"levelo://app?vid=5fc33033-4827-4528-9193-70aaad8ca07b","ios":"levelo://app?vid=5fc33033-4827-4528-9193-70aaad8ca07b"},"vehicle_type_id":"4","last_reported":1735844819,"current_range_meters":8400,"station_id":"ce4bhhh2rcd13ifvqfl0","pricing_plan_id":"cebpf4jnsgd1na2vs0mg"},{"bike_id":"5ee06d1f-f474-4883-9d52-622f82f42531","system_id":"levelo_inurba_marseille","lat":43.32552,"lon":5.41436,"is_reserved":false,"is_disabled":false,"rental_uris":{"android":"levelo://app?vid=5ee06d1f-f474-4883-9d52-622f82f42531","ios":"levelo://app?vid=5ee06d1f-f474-4883-9d52-622f82f42531"},"vehicle_type_id":"4","last_reported":1735844819,"current_range_meters":38800,"station_id":"ce4bhq12rcd13ifvqhhg","pricing_plan_id":"cebpf4jnsgd1na2vs0mg"},{"bike_id":"172ccd61-d49f-41ee-9d70-c90aa70835fe","system_id":"levelo_inurba_marseille","lat":43.27423,"lon":5.39407,"is_reserved":false,"is_disabled":false,"rental_uris":{"android":"levelo://app?vid=172ccd61-d49f-41ee-9d70-c90aa70835fe","ios":"levelo://app?vid=172ccd61-d49f-41ee-9d70-c90aa70835fe"},"vehicle_type_id":"4","last_reported":1735844819,"current_range_meters":33600,"station_id":"ce4bhdp2rcd13ifvqf20","pricing_plan_id":"cebpf4jnsgd1na2vs0mg"},{"bike_id":"28e8aa91-0b5c-4928-aafc-7115b5b1168e","system_id":"levelo_inurba_marseille","lat":43.27183,"lon":5.40981,"is_reserved":false,"is_disabled":false,"rental_uris":{"android":"levelo://app?vid=28e8aa91-0b5c-4928-aafc-7115b5b1168e","ios":"levelo://app?vid=28e8aa91-0b5c-4928-aafc-7115b5b1168e"},"vehicle_type_id":"4","last_reported":1735844819,"current_range_meters":22000,"station_id":"ce4bhl12rcd13ifvqgf0","pricing_plan_id":"cebpf4jnsgd1na2vs0mg"},{"bike_id":"bc774450-9e82-4b77-bec0-9757df77a13c","system_id":"levelo_inurba_marseille","lat":43.26511,"lon":5.39559,"is_reserved":false,"is_disabled":false,"rental_uris":{"android":"levelo://app?vid=bc774450-9e82-4b77-bec0-9757df77a13c","ios":"levelo://app?vid=bc774450-9e82-4b77-bec0-9757df77a13c"},"vehicle_type_id":"4","last_reported":1735844819,"current_range_meters":38400,"station_id":"ce4bhi12rcd13ifvqfq0","pricing_plan_id":"cebpf4jnsgd1na2vs0mg"},{"bike_id":"a95f7a4f-b106-47fb-b884-a0e3c27f8867","system_id":"levelo_inurba_marseille","lat":43.28865,"lon":5.39321,"is_reserved":false,"is_disabled":true,"rental_uris":{"android":"levelo://app?vid=a95f7a4f-b106-47fb-b884-a0e3c27f8867","ios":"levelo://app?vid=a95f7a4f-b106-47fb-b884-a0e3c27f8867"},"vehicle_type_id":"4","last_reported":1735844819,"current_range_meters":3600,"station_id":"ce4bh2p2rcd13ifvqdi0","pricing_plan_id":"cebpf4jnsgd1na2vs0mg"},{"bike_id":"f4c352f6-c70d-41e9-a6eb-b5671dd5a673","system_id":"levelo_inurba_marseille","lat":43.25577,"lon":5.38234,"is_reserved":false,"is_disabled":false,"rental_uris":{"android":"levelo://app?vid=f4c352f6-c70d-41e9-a6eb-b5671dd5a673","ios":"levelo://app?vid=f4c352f6-c70d-41e9-a6eb-b5671dd5a673"},"vehicle_type_id":"4","last_reported":1735844819,"current_range_meters":25600,"station_id":"ce4bhih2rcd13ifvqfs0","pricing_plan_id":"cebpf4jnsgd1na2vs0mg"},{"bike_id":"3e92df57-e4ba-4a2b-a540-d8085cdee01f","system_id":"levelo_inurba_marseille","lat":43.26933,"lon":5.38912,"is_reserved":false,"is_disabled":false,"rental_uris":{"android":"levelo://app?vid=3e92df57-e4ba-4a2b-a540-d8085cdee01f","ios":"levelo://app?vid=3e92df57-e4ba-4a2b-a540-d8085cdee01f"},"vehicle_type_id":"4","last_reported":1735844819,"current_range_meters":38800,"station_id":"ce4bhhh2rcd13ifvqfl0","pricing_plan_id":"cebpf4jnsgd1na2vs0mg"},{"bike_id":"36d66971-2eca-4ce7-b6c4-b5d94a3b8a1d","system_id":"levelo_inurba_marseille","lat":43.29284,"lon":5.36834,"is_reserved":false,"is_disabled":false,"rental_uris":{"android":"levelo://app?vid=36d66971-2eca-4ce7-b6c4-b5d94a3b8a1d","ios":"levelo://app?vid=36d66971-2eca-4ce7-b6c4-b5d94a3b8a1d"},"vehicle_type_id":"4","last_reported":1735844819,"current_range_meters":34800,"station_id":"ce4bhbp2rcd13ifvqesg","pricing_plan_id":"cebpf4jnsgd1na2vs0mg"},{"bike_id":"6bd5f962-fbf1-4f4a-9fce-1b11db41e7ba","system_id":"levelo_inurba_marseille","lat":43.29021,"lon":5.38157,"is_reserved":false,"is_disabled":false,"rental_uris":{"android":"levelo://app?vid=6bd5f962-fbf1-4f4a-9fce-1b11db41e7ba","ios":"levelo://app?vid=6bd5f962-fbf1-4f4a-9fce-1b11db41e7ba"},"vehicle_type_id":"4","last_reported":1735844819,"current_range_meters":27200,"station_id":"ce4bh4p2rcd13ifvqe1g","pricing_plan_id":"cebpf4jnsgd1na2vs0mg"},{"bike_id":"0cc226b6-5f36-4e90-9e5b-497bf45d78e0","system_id":"levelo_inurba_marseille","lat":43.27991,"lon":5.40029,"is_reserved":false,"is_disabled":false,"rental_uris":{"android":"levelo://app?vid=0cc226b6-5f36-4e90-9e5b-497bf45d78e0","ios":"levelo://app?vid=0cc226b6-5f36-4e90-9e5b-497bf45d78e0"},"vehicle_type_id":"4","last_reported":1735844819,"current_range_meters":6800,"station_id":"ce4bho92rcd13ifvqh4g","pricing_plan_id":"cebpf4jnsgd1na2vs0mg"},{"bike_id":"e42aed87-b9c2-4f04-8982-50394cba4bfe","system_id":"levelo_inurba_marseille","lat":43.29536,"lon":5.38539,"is_reserved":false,"is_disabled":false,"rental_uris":{"android":"levelo://app?vid=e42aed87-b9c2-4f04-8982-50394cba4bfe","ios":"levelo://app?vid=e42aed87-b9c2-4f04-8982-50394cba4bfe"},"vehicle_type_id":"4","last_reported":1735844819,"current_range_meters":12800,"station_id":"ce4bgih2rcd13ifvqba0","pricing_plan_id":"cebpf4jnsgd1na2vs0mg"},{"bike_id":"116f92ae-65b4-4f7c-a23b-1117c0a69b33","system_id":"levelo_inurba_marseille","lat":43.286258,"lon":5.351055,"is_reserved":false,"is_disabled":false,"rental_uris":{"android":"levelo://app?vid=116f92ae-65b4-4f7c-a23b-1117c0a69b33","ios":"levelo://app?vid=116f92ae-65b4-4f7c-a23b-1117c0a69b33"},"vehicle_type_id":"4","last_reported":1735844819,"current_range_meters":30000,"station_id":"ce4bhch2rcd13ifvqeug","pricing_plan_id":"cebpf4jnsgd1na2vs0mg"},{"bike_id":"cf9371cf-b4a6-4f3a-92f4-f898ea85e696","system_id":"levelo_inurba_marseille","lat":43.25584,"lon":5.38228,"is_reserved":false,"is_disabled":false,"rental_uris":{"android":"levelo://app?vid=cf9371cf-b4a6-4f3a-92f4-f898ea85e696","ios":"levelo://app?vid=cf9371cf-b4a6-4f3a-92f4-f898ea85e696"},"vehicle_type_id":"4","last_reported":1735844819,"current_range_meters":10800,"station_id":"ce4bhih2rcd13ifvqfs0","pricing_plan_id":"cebpf4jnsgd1na2vs0mg"},{"bike_id":"3b2785e0-e35b-43fd-97ca-e1d9b32490f4","system_id":"levelo_inurba_marseille","lat":43.29196,"lon":5.35799,"is_reserved":false,"is_disabled":false,"rental_uris":{"android":"levelo://app?vid=3b2785e0-e35b-43fd-97ca-e1d9b32490f4","ios":"levelo://app?vid=3b2785e0-e35b-43fd-97ca-e1d9b32490f4"},"vehicle_type_id":"4","last_reported":1735844819,"current_range_meters":16400,"station_id":"ce4bhb12rcd13ifvqel0","pricing_plan_id":"cebpf4jnsgd1na2vs0mg"},{"bike_id":"aeeed8ed-dc28-4cf0-a615-f0e4eef78677","system_id":"levelo_inurba_marseille","lat":43.30122,"lon":5.39894,"is_reserved":false,"is_disabled":false,"rental_uris":{"android":"levelo://app?vid=aeeed8ed-dc28-4cf0-a615-f0e4eef78677","ios":"levelo://app?vid=aeeed8ed-dc28-4cf0-a615-f0e4eef78677"},"vehicle_type_id":"4","last_reported":1735844819,"current_range_meters":22400,"station_id":"ce4bh0h2rcd13ifvqd40","pricing_plan_id":"cebpf4jnsgd1na2vs0mg"},{"bike_id":"76d392c8-6dd4-4fbf-b626-27c2990c047b","system_id":"levelo_inurba_marseille","lat":43.28164,"lon":5.42821,"is_reserved":false,"is_disabled":false,"rental_uris":{"android":"levelo://app?vid=76d392c8-6dd4-4fbf-b626-27c2990c047b","ios":"levelo://app?vid=76d392c8-6dd4-4fbf-b626-27c2990c047b"},"vehicle_type_id":"4","last_reported":1735844819,"current_range_meters":24000,"station_id":"","pricing_plan_id":"cebpf4jnsgd1na2vs0mg"},{"bike_id":"ebb56956-e2e2-4f51-8f7a-80ccc26c078c","system_id":"levelo_inurba_marseille","lat":43.28154,"lon":5.42646,"is_reserved":false,"is_disabled":false,"rental_uris":{"android":"levelo://app?vid=ebb56956-e2e2-4f51-8f7a-80ccc26c078c","ios":"levelo://app?vid=ebb56956-e2e2-4f51-8f7a-80ccc26c078c"},"vehicle_type_id":"4","last_reported":1735844819,"current_range_meters":34800,"station_id":"ce4bhnh2rcd13ifvqgug","pricing_plan_id":"cebpf4jnsgd1na2vs0mg"},{"bike_id":"627d709c-099a-4a46-9aa4-b04d18f91469","system_id":"levelo_inurba_marseille","lat":43.29984,"lon":5.38486,"is_reserved":false,"is_disabled":false,"rental_uris":{"android":"levelo://app?vid=627d709c-099a-4a46-9aa4-b04d18f91469","ios":"levelo://app?vid=627d709c-099a-4a46-9aa4-b04d18f91469"},"vehicle_type_id":"4","last_reported":1735844819,"current_range_meters":26000,"station_id":"ce4bgj92rcd13ifvqbd0","pricing_plan_id":"cebpf4jnsgd1na2vs0mg"},{"bike_id":"3c499f67-bb48-4b93-adda-55d26d93413a","system_id":"levelo_inurba_marseille","lat":43.30159,"lon":5.39876,"is_reserved":false,"is_disabled":false,"rental_uris":{"android":"levelo://app?vid=3c499f67-bb48-4b93-adda-55d26d93413a","ios":"levelo://app?vid=3c499f67-bb48-4b93-adda-55d26d93413a"},"vehicle_type_id":"4","last_reported":1735844819,"current_range_meters":8800,"station_id":"ce4bh0h2rcd13ifvqd40","pricing_plan_id":"cebpf4jnsgd1na2vs0mg"},{"bike_id":"a7c88c83-5f69-49b4-a3e0-d87a661f0803","system_id":"levelo_inurba_marseille","lat":43.27669,"lon":5.38922,"is_reserved":false,"is_disabled":false,"rental_uris":{"android":"levelo://app?vid=a7c88c83-5f69-49b4-a3e0-d87a661f0803","ios":"levelo://app?vid=a7c88c83-5f69-49b4-a3e0-d87a661f0803"},"vehicle_type_id":"4","last_reported":1735844819,"current_range_meters":38800,"station_id":"ce4bhi12rcd13ifvqfo0","pricing_plan_id":"cebpf4jnsgd1na2vs0mg"},{"bike_id":"97717a3a-5240-48fe-b29e-9e7f0d2b5fba","system_id":"levelo_inurba_marseille","lat":43.31695,"lon":5.43684,"is_reserved":false,"is_disabled":false,"rental_uris":{"android":"levelo://app?vid=97717a3a-5240-48fe-b29e-9e7f0d2b5fba","ios":"levelo://app?vid=97717a3a-5240-48fe-b29e-9e7f0d2b5fba"},"vehicle_type_id":"4","last_reported":1735844819,"current_range_meters":39200,"station_id":"ce4bhp92rcd13ifvqhcg","pricing_plan_id":"cebpf4jnsgd1na2vs0mg"},{"bike_id":"84eb5d38-88df-4670-810e-6edcb5c9f5e3","system_id":"levelo_inurba_marseille","lat":43.25508,"lon":5.37656,"is_reserved":false,"is_disabled":false,"rental_uris":{"android":"levelo://app?vid=84eb5d38-88df-4670-810e-6edcb5c9f5e3","ios":"levelo://app?vid=84eb5d38-88df-4670-810e-6edcb5c9f5e3"},"vehicle_type_id":"4","last_reported":1735844819,"current_range_meters":24400,"station_id":"ce4bhh12rcd13ifvqff0","pricing_plan_id":"cebpf4jnsgd1na2vs0mg"},{"bike_id":"d66c261c-4c92-4d58-90a6-fd0ca5318371","system_id":"levelo_inurba_marseille","lat":43.27813,"lon":5.40724,"is_reserved":false,"is_disabled":false,"rental_uris":{"android":"levelo://app?vid=d66c261c-4c92-4d58-90a6-fd0ca5318371","ios":"levelo://app?vid=d66c261c-4c92-4d58-90a6-fd0ca5318371"},"vehicle_type_id":"4","last_reported":1735844819,"current_range_meters":8400,"station_id":"ce4bhnh2rcd13ifvqgtg","pricing_plan_id":"cebpf4jnsgd1na2vs0mg"},{"bike_id":"05a944e5-5628-44b6-8e66-0c233343aeb8","system_id":"levelo_inurba_marseille","lat":43.29034,"lon":5.3864,"is_reserved":false,"is_disabled":false,"rental_uris":{"android":"levelo://app?vid=05a944e5-5628-44b6-8e66-0c233343aeb8","ios":"levelo://app?vid=05a944e5-5628-44b6-8e66-0c233343aeb8"},"vehicle_type_id":"4","last_reported":1735844819,"current_range_meters":38800,"station_id":"ce4bh4p2rcd13ifvqe0g","pricing_plan_id":"cebpf4jnsgd1na2vs0mg"},{"bike_id":"dcd711c6-0b92-490f-97df-470d44c16843","system_id":"levelo_inurba_marseille","lat":43.27916,"lon":5.39583,"is_reserved":false,"is_disabled":false,"rental_uris":{"android":"levelo://app?vid=dcd711c6-0b92-490f-97df-470d44c16843","ios":"levelo://app?vid=dcd711c6-0b92-490f-97df-470d44c16843"},"vehicle_type_id":"4","last_reported":1735844819,"current_range_meters":38000,"station_id":"ce4bhf92rcd13ifvqf40","pricing_plan_id":"cebpf4jnsgd1na2vs0mg"},{"bike_id":"2b1f1a73-b2aa-4c36-82fc-2e60f4aa7e99","system_id":"levelo_inurba_marseille","lat":43.28918,"lon":5.38414,"is_reserved":false,"is_disabled":false,"rental_uris":{"android":"levelo://app?vid=2b1f1a73-b2aa-4c36-82fc-2e60f4aa7e99","ios":"levelo://app?vid=2b1f1a73-b2aa-4c36-82fc-2e60f4aa7e99"},"vehicle_type_id":"4","last_reported":1735844819,"current_range_meters":38800,"station_id":"ce4bh612rcd13ifvqe6g","pricing_plan_id":"cebpf4jnsgd1na2vs0mg"},{"bike_id":"1efb6e70-f243-4ee4-8c73-08ef2a2c6772","system_id":"levelo_inurba_marseille","lat":43.25816,"lon":5.39425,"is_reserved":false,"is_disabled":false,"rental_uris":{"android":"levelo://app?vid=1efb6e70-f243-4ee4-8c73-08ef2a2c6772","ios":"levelo://app?vid=1efb6e70-f243-4ee4-8c73-08ef2a2c6772"},"vehicle_type_id":"4","last_reported":1735844819,"current_range_meters":39200,"station_id":"ce4bhip2rcd13ifvqft0","pricing_plan_id":"cebpf4jnsgd1na2vs0mg"},{"bike_id":"681d262b-bedb-4bd6-bef0-fb090a07de85","system_id":"levelo_inurba_marseille","lat":43.29265,"lon":5.38445,"is_reserved":false,"is_disabled":false,"rental_uris":{"android":"levelo://app?vid=681d262b-bedb-4bd6-bef0-fb090a07de85","ios":"levelo://app?vid=681d262b-bedb-4bd6-bef0-fb090a07de85"},"vehicle_type_id":"4","last_reported":1735844819,"current_range_meters":26000,"station_id":"ce4bh692rcd13ifvqea0","pricing_plan_id":"cebpf4jnsgd1na2vs0mg"},{"bike_id":"269eda74-bc19-459b-a632-ad324cf7cf92","system_id":"levelo_inurba_marseille","lat":43.26472,"lon":5.39536,"is_reserved":false,"is_disabled":false,"rental_uris":{"android":"levelo://app?vid=269eda74-bc19-459b-a632-ad324cf7cf92","ios":"levelo://app?vid=269eda74-bc19-459b-a632-ad324cf7cf92"},"vehicle_type_id":"4","last_reported":1735844819,"current_range_meters":18000,"station_id":"ce4bhi12rcd13ifvqfq0","pricing_plan_id":"cebpf4jnsgd1na2vs0mg"},{"bike_id":"90be4ecf-e9e3-49e6-8acd-ca50a85b4085","system_id":"levelo_inurba_marseille","lat":43.31239,"lon":5.36857,"is_reserved":false,"is_disabled":true,"rental_uris":{"android":"levelo://app?vid=90be4ecf-e9e3-49e6-8acd-ca50a85b4085","ios":"levelo://app?vid=90be4ecf-e9e3-49e6-8acd-ca50a85b4085"},"vehicle_type_id":"4","last_reported":1735844819,"current_range_meters":25600,"station_id":"ce4bgl92rcd13ifvqbq0","pricing_plan_id":"cebpf4jnsgd1na2vs0mg"},{"bike_id":"bcc47b98-405a-4d86-8e5f-bbe262abbd0d","system_id":"levelo_inurba_marseille","lat":43.32101,"lon":5.36778,"is_reserved":false,"is_disabled":false,"rental_uris":{"android":"levelo://app?vid=bcc47b98-405a-4d86-8e5f-bbe262abbd0d","ios":"levelo://app?vid=bcc47b98-405a-4d86-8e5f-bbe262abbd0d"},"vehicle_type_id":"4","last_reported":1735844819,"current_range_meters":28800,"station_id":"ce4bhrh2rcd13ifvqhug","pricing_plan_id":"cebpf4jnsgd1na2vs0mg"},{"bike_id":"4ff02992-46d1-4939-b33e-7e9de4ef7281","system_id":"levelo_inurba_marseille","lat":43.25821,"lon":5.39441,"is_reserved":false,"is_disabled":false,"rental_uris":{"android":"levelo://app?vid=4ff02992-46d1-4939-b33e-7e9de4ef7281","ios":"levelo://app?vid=4ff02992-46d1-4939-b33e-7e9de4ef7281"},"vehicle_type_id":"4","last_reported":1735844819,"current_range_meters":30000,"station_id":"ce4bhip2rcd13ifvqft0","pricing_plan_id":"cebpf4jnsgd1na2vs0mg"},{"bike_id":"7c25dc5f-232d-4844-8e56-3982a2863abe","system_id":"levelo_inurba_marseille","lat":43.26937,"lon":5.38927,"is_reserved":false,"is_disabled":false,"rental_uris":{"android":"levelo://app?vid=7c25dc5f-232d-4844-8e56-3982a2863abe","ios":"levelo://app?vid=7c25dc5f-232d-4844-8e56-3982a2863abe"},"vehicle_type_id":"4","last_reported":1735844819,"current_range_meters":7200,"station_id":"ce4bhhh2rcd13ifvqfl0","pricing_plan_id":"cebpf4jnsgd1na2vs0mg"},{"bike_id":"027085de-3c06-4c90-8099-b9537f78e863","system_id":"levelo_inurba_marseille","lat":43.23165,"lon":5.43682,"is_reserved":false,"is_disabled":false,"rental_uris":{"android":"levelo://app?vid=027085de-3c06-4c90-8099-b9537f78e863","ios":"levelo://app?vid=027085de-3c06-4c90-8099-b9537f78e863"},"vehicle_type_id":"4","last_reported":1735844819,"current_range_meters":29600,"station_id":"ce4bhmp2rcd13ifvqgog","pricing_plan_id":"cebpf4jnsgd1na2vs0mg"},{"bike_id":"45ee5cd5-80d3-4239-971c-3f011151111b","system_id":"levelo_inurba_marseille","lat":43.28006,"lon":5.40011,"is_reserved":false,"is_disabled":false,"rental_uris":{"android":"levelo://app?vid=45ee5cd5-80d3-4239-971c-3f011151111b","ios":"levelo://app?vid=45ee5cd5-80d3-4239-971c-3f011151111b"},"vehicle_type_id":"4","last_reported":1735844819,"current_range_meters":37600,"station_id":"ce4bho92rcd13ifvqh4g","pricing_plan_id":"cebpf4jnsgd1na2vs0mg"},{"bike_id":"f89c66b2-32c7-4804-a68b-7b68895a8b80","system_id":"levelo_inurba_marseille","lat":43.29513,"lon":5.39402,"is_reserved":false,"is_disabled":false,"rental_uris":{"android":"levelo://app?vid=f89c66b2-32c7-4804-a68b-7b68895a8b80","ios":"levelo://app?vid=f89c66b2-32c7-4804-a68b-7b68895a8b80"},"vehicle_type_id":"4","last_reported":1735844819,"current_range_meters":21600,"station_id":"ce4bh292rcd13ifvqdf0","pricing_plan_id":"cebpf4jnsgd1na2vs0mg"},{"bike_id":"ee9995f0-c104-4c7d-8c6a-3bf64585da32","system_id":"levelo_inurba_marseille","lat":43.28932,"lon":5.384,"is_reserved":false,"is_disabled":false,"rental_uris":{"android":"levelo://app?vid=ee9995f0-c104-4c7d-8c6a-3bf64585da32","ios":"levelo://app?vid=ee9995f0-c104-4c7d-8c6a-3bf64585da32"},"vehicle_type_id":"4","last_reported":1735844819,"current_range_meters":34000,"station_id":"ce4bh612rcd13ifvqe6g","pricing_plan_id":"cebpf4jnsgd1na2vs0mg"},{"bike_id":"7a63d77d-b3e4-4713-9060-b918ad8247d2","system_id":"levelo_inurba_marseille","lat":43.22935,"lon":5.35384,"is_reserved":false,"is_disabled":false,"rental_uris":{"android":"levelo://app?vid=7a63d77d-b3e4-4713-9060-b918ad8247d2","ios":"levelo://app?vid=7a63d77d-b3e4-4713-9060-b918ad8247d2"},"vehicle_type_id":"4","last_reported":1735844819,"current_range_meters":38400,"station_id":"cpo3532slgdg3j2ikp40","pricing_plan_id":"cebpf4jnsgd1na2vs0mg"},{"bike_id":"55e21000-1bfe-4926-9e9b-bbab942d7159","system_id":"levelo_inurba_marseille","lat":43.27921,"lon":5.39566,"is_reserved":false,"is_disabled":false,"rental_uris":{"android":"levelo://app?vid=55e21000-1bfe-4926-9e9b-bbab942d7159","ios":"levelo://app?vid=55e21000-1bfe-4926-9e9b-bbab942d7159"},"vehicle_type_id":"4","last_reported":1735844819,"current_range_meters":11200,"station_id":"ce4bhf92rcd13ifvqf40","pricing_plan_id":"cebpf4jnsgd1na2vs0mg"},{"bike_id":"277d9579-fc29-4ce6-94cb-f3e169453ace","system_id":"levelo_inurba_marseille","lat":43.31758,"lon":5.39025,"is_reserved":false,"is_disabled":false,"rental_uris":{"android":"levelo://app?vid=277d9579-fc29-4ce6-94cb-f3e169453ace","ios":"levelo://app?vid=277d9579-fc29-4ce6-94cb-f3e169453ace"},"vehicle_type_id":"4","last_reported":1735844819,"current_range_meters":39200,"station_id":"ce4bhqp2rcd13ifvqhng","pricing_plan_id":"cebpf4jnsgd1na2vs0mg"},{"bike_id":"3c7472a4-a45c-4f46-a692-aa44ebf92f21","system_id":"levelo_inurba_marseille","lat":43.27424,"lon":5.39415,"is_reserved":false,"is_disabled":false,"rental_uris":{"android":"levelo://app?vid=3c7472a4-a45c-4f46-a692-aa44ebf92f21","ios":"levelo://app?vid=3c7472a4-a45c-4f46-a692-aa44ebf92f21"},"vehicle_type_id":"4","last_reported":1735844819,"current_range_meters":35200,"station_id":"ce4bhdp2rcd13ifvqf20","pricing_plan_id":"cebpf4jnsgd1na2vs0mg"},{"bike_id":"15f428d5-04a0-4b6a-a23c-757c18fbf743","system_id":"levelo_inurba_marseille","lat":43.30896,"lon":5.39632,"is_reserved":false,"is_disabled":false,"rental_uris":{"android":"levelo://app?vid=15f428d5-04a0-4b6a-a23c-757c18fbf743","ios":"levelo://app?vid=15f428d5-04a0-4b6a-a23c-757c18fbf743"},"vehicle_type_id":"4","last_reported":1735844819,"current_range_meters":39200,"station_id":"ce4bh012rcd13ifvqcv0","pricing_plan_id":"cebpf4jnsgd1na2vs0mg"},{"bike_id":"91f22d61-a9e0-4c89-b636-39a16917d513","system_id":"levelo_inurba_marseille","lat":43.26942,"lon":5.38919,"is_reserved":false,"is_disabled":true,"rental_uris":{"android":"levelo://app?vid=91f22d61-a9e0-4c89-b636-39a16917d513","ios":"levelo://app?vid=91f22d61-a9e0-4c89-b636-39a16917d513"},"vehicle_type_id":"4","last_reported":1735844819,"current_range_meters":28800,"station_id":"ce4bhhh2rcd13ifvqfl0","pricing_plan_id":"cebpf4jnsgd1na2vs0mg"},{"bike_id":"60aa8768-465e-4e59-8359-ab05b91a90a1","system_id":"levelo_inurba_marseille","lat":43.28947,"lon":5.36406,"is_reserved":false,"is_disabled":false,"rental_uris":{"android":"levelo://app?vid=60aa8768-465e-4e59-8359-ab05b91a90a1","ios":"levelo://app?vid=60aa8768-465e-4e59-8359-ab05b91a90a1"},"vehicle_type_id":"4","last_reported":1735844819,"current_range_meters":38800,"station_id":"ce4bhc92rcd13ifvqetg","pricing_plan_id":"cebpf4jnsgd1na2vs0mg"},{"bike_id":"4b9b3c02-7773-410b-a74d-2537aad0fdc1","system_id":"levelo_inurba_marseille","lat":43.2842,"lon":5.37493,"is_reserved":false,"is_disabled":false,"rental_uris":{"android":"levelo://app?vid=4b9b3c02-7773-410b-a74d-2537aad0fdc1","ios":"levelo://app?vid=4b9b3c02-7773-410b-a74d-2537aad0fdc1"},"vehicle_type_id":"4","last_reported":1735844819,"current_range_meters":25600,"station_id":"ce4bh412rcd13ifvqds0","pricing_plan_id":"cebpf4jnsgd1na2vs0mg"},{"bike_id":"e3736c07-1f20-46a9-8fea-1baae69a6a9b","system_id":"levelo_inurba_marseille","lat":43.29536,"lon":5.3855,"is_reserved":false,"is_disabled":false,"rental_uris":{"android":"levelo://app?vid=e3736c07-1f20-46a9-8fea-1baae69a6a9b","ios":"levelo://app?vid=e3736c07-1f20-46a9-8fea-1baae69a6a9b"},"vehicle_type_id":"4","last_reported":1735844819,"current_range_meters":16400,"station_id":"ce4bgih2rcd13ifvqba0","pricing_plan_id":"cebpf4jnsgd1na2vs0mg"},{"bike_id":"99d073c4-215c-4731-b21d-38160f789195","system_id":"levelo_inurba_marseille","lat":43.299765,"lon":5.38508,"is_reserved":false,"is_disabled":false,"rental_uris":{"android":"levelo://app?vid=99d073c4-215c-4731-b21d-38160f789195","ios":"levelo://app?vid=99d073c4-215c-4731-b21d-38160f789195"},"vehicle_type_id":"4","last_reported":1735844819,"current_range_meters":8000,"station_id":"ce4bgj92rcd13ifvqbd0","pricing_plan_id":"cebpf4jnsgd1na2vs0mg"},{"bike_id":"a704d00f-fa02-4fe3-91e2-2416c16951bb","system_id":"levelo_inurba_marseille","lat":43.24078,"lon":5.3775,"is_reserved":false,"is_disabled":false,"rental_uris":{"android":"levelo://app?vid=a704d00f-fa02-4fe3-91e2-2416c16951bb","ios":"levelo://app?vid=a704d00f-fa02-4fe3-91e2-2416c16951bb"},"vehicle_type_id":"4","last_reported":1735844819,"current_range_meters":39200,"station_id":"ce4bhnp2rcd13ifvqgvg","pricing_plan_id":"cebpf4jnsgd1na2vs0mg"},{"bike_id":"1163c860-55ec-4726-884e-a6b3baba9ee7","system_id":"levelo_inurba_marseille","lat":43.24081,"lon":5.37755,"is_reserved":false,"is_disabled":false,"rental_uris":{"android":"levelo://app?vid=1163c860-55ec-4726-884e-a6b3baba9ee7","ios":"levelo://app?vid=1163c860-55ec-4726-884e-a6b3baba9ee7"},"vehicle_type_id":"4","last_reported":1735844819,"current_range_meters":18800,"station_id":"ce4bhnp2rcd13ifvqgvg","pricing_plan_id":"cebpf4jnsgd1na2vs0mg"},{"bike_id":"1b0b8897-032a-46c6-aaf7-d764fab8e97a","system_id":"levelo_inurba_marseille","lat":43.25867,"lon":5.39912,"is_reserved":false,"is_disabled":false,"rental_uris":{"android":"levelo://app?vid=1b0b8897-032a-46c6-aaf7-d764fab8e97a","ios":"levelo://app?vid=1b0b8897-032a-46c6-aaf7-d764fab8e97a"},"vehicle_type_id":"4","last_reported":1735844819,"current_range_meters":38400,"station_id":"ce4bhl92rcd13ifvqghg","pricing_plan_id":"cebpf4jnsgd1na2vs0mg"},{"bike_id":"e6fa8bd9-5f74-401a-b12e-57e85af877cf","system_id":"levelo_inurba_marseille","lat":43.303529,"lon":5.369102,"is_reserved":false,"is_disabled":false,"rental_uris":{"android":"levelo://app?vid=e6fa8bd9-5f74-401a-b12e-57e85af877cf","ios":"levelo://app?vid=e6fa8bd9-5f74-401a-b12e-57e85af877cf"},"vehicle_type_id":"4","last_reported":1735844819,"current_range_meters":28000,"station_id":"","pricing_plan_id":"cebpf4jnsgd1na2vs0mg"},{"bike_id":"4483098c-d27d-4534-ad16-c209ae457c9a","system_id":"levelo_inurba_marseille","lat":43.31531,"lon":5.38009,"is_reserved":false,"is_disabled":false,"rental_uris":{"android":"levelo://app?vid=4483098c-d27d-4534-ad16-c209ae457c9a","ios":"levelo://app?vid=4483098c-d27d-4534-ad16-c209ae457c9a"},"vehicle_type_id":"4","last_reported":1735844819,"current_range_meters":39200,"station_id":"ce4bhsp2rcd13ifvqi50","pricing_plan_id":"cebpf4jnsgd1na2vs0mg"},{"bike_id":"9045eb15-00ee-4fe5-9494-c550d7c367d5","system_id":"levelo_inurba_marseille","lat":43.25726,"lon":5.41112,"is_reserved":false,"is_disabled":false,"rental_uris":{"android":"levelo://app?vid=9045eb15-00ee-4fe5-9494-c550d7c367d5","ios":"levelo://app?vid=9045eb15-00ee-4fe5-9494-c550d7c367d5"},"vehicle_type_id":"4","last_reported":1735844819,"current_range_meters":13600,"station_id":"ce4bhkp2rcd13ifvqgd0","pricing_plan_id":"cebpf4jnsgd1na2vs0mg"},{"bike_id":"4b152695-35b3-4309-a20c-3a53a353a098","system_id":"levelo_inurba_marseille","lat":43.30648,"lon":5.40082,"is_reserved":false,"is_disabled":false,"rental_uris":{"android":"levelo://app?vid=4b152695-35b3-4309-a20c-3a53a353a098","ios":"levelo://app?vid=4b152695-35b3-4309-a20c-3a53a353a098"},"vehicle_type_id":"4","last_reported":1735844819,"current_range_meters":27200,"station_id":"ce4bh112rcd13ifvqda0","pricing_plan_id":"cebpf4jnsgd1na2vs0mg"},{"bike_id":"2cad5e9d-f183-4c3f-a642-7c176e4884d1","system_id":"levelo_inurba_marseille","lat":43.25829,"lon":5.39427,"is_reserved":false,"is_disabled":false,"rental_uris":{"android":"levelo://app?vid=2cad5e9d-f183-4c3f-a642-7c176e4884d1","ios":"levelo://app?vid=2cad5e9d-f183-4c3f-a642-7c176e4884d1"},"vehicle_type_id":"4","last_reported":1735844819,"current_range_meters":34800,"station_id":"ce4bhip2rcd13ifvqft0","pricing_plan_id":"cebpf4jnsgd1na2vs0mg"},{"bike_id":"2bc85ea5-00ae-44c0-a255-cc0d04be90b9","system_id":"levelo_inurba_marseille","lat":43.28414,"lon":5.34971,"is_reserved":false,"is_disabled":false,"rental_uris":{"android":"levelo://app?vid=2bc85ea5-00ae-44c0-a255-cc0d04be90b9","ios":"levelo://app?vid=2bc85ea5-00ae-44c0-a255-cc0d04be90b9"},"vehicle_type_id":"4","last_reported":1735844819,"current_range_meters":12000,"station_id":"ce4bhbh2rcd13ifvqepg","pricing_plan_id":"cebpf4jnsgd1na2vs0mg"},{"bike_id":"9ec22bb6-ddde-4544-bfca-bd222a10c5d4","system_id":"levelo_inurba_marseille","lat":43.28622,"lon":5.35095,"is_reserved":false,"is_disabled":false,"rental_uris":{"android":"levelo://app?vid=9ec22bb6-ddde-4544-bfca-bd222a10c5d4","ios":"levelo://app?vid=9ec22bb6-ddde-4544-bfca-bd222a10c5d4"},"vehicle_type_id":"4","last_reported":1735844819,"current_range_meters":11600,"station_id":"ce4bhch2rcd13ifvqeug","pricing_plan_id":"cebpf4jnsgd1na2vs0mg"},{"bike_id":"97906f7b-eda2-4c80-8b4b-122bc957a1cd","system_id":"levelo_inurba_marseille","lat":43.28602,"lon":5.35086,"is_reserved":false,"is_disabled":false,"rental_uris":{"android":"levelo://app?vid=97906f7b-eda2-4c80-8b4b-122bc957a1cd","ios":"levelo://app?vid=97906f7b-eda2-4c80-8b4b-122bc957a1cd"},"vehicle_type_id":"4","last_reported":1735844819,"current_range_meters":24400,"station_id":"ce4bhch2rcd13ifvqeug","pricing_plan_id":"cebpf4jnsgd1na2vs0mg"},{"bike_id":"1c062351-f698-4ee4-87ae-fce7281bfbb0","system_id":"levelo_inurba_marseille","lat":43.2954,"lon":5.38551,"is_reserved":false,"is_disabled":false,"rental_uris":{"android":"levelo://app?vid=1c062351-f698-4ee4-87ae-fce7281bfbb0","ios":"levelo://app?vid=1c062351-f698-4ee4-87ae-fce7281bfbb0"},"vehicle_type_id":"4","last_reported":1735844819,"current_range_meters":38800,"station_id":"ce4bgih2rcd13ifvqba0","pricing_plan_id":"cebpf4jnsgd1na2vs0mg"},{"bike_id":"a767814d-32c1-4888-928e-16b2e9383b03","system_id":"levelo_inurba_marseille","lat":43.28683,"lon":5.38675,"is_reserved":false,"is_disabled":false,"rental_uris":{"android":"levelo://app?vid=a767814d-32c1-4888-928e-16b2e9383b03","ios":"levelo://app?vid=a767814d-32c1-4888-928e-16b2e9383b03"},"vehicle_type_id":"4","last_reported":1735844819,"current_range_meters":7200,"station_id":"ce4bh492rcd13ifvqdug","pricing_plan_id":"cebpf4jnsgd1na2vs0mg"},{"bike_id":"a6722a38-7e36-4e68-ba55-b9a28204ee62","system_id":"levelo_inurba_marseille","lat":43.31317,"lon":5.39701,"is_reserved":false,"is_disabled":false,"rental_uris":{"android":"levelo://app?vid=a6722a38-7e36-4e68-ba55-b9a28204ee62","ios":"levelo://app?vid=a6722a38-7e36-4e68-ba55-b9a28204ee62"},"vehicle_type_id":"4","last_reported":1735844819,"current_range_meters":11200,"station_id":"ce4bgvp2rcd13ifvqcu0","pricing_plan_id":"cebpf4jnsgd1na2vs0mg"},{"bike_id":"d99750b8-6ade-4149-99fa-c28c2d4fba43","system_id":"levelo_inurba_marseille","lat":43.29712,"lon":5.36602,"is_reserved":false,"is_disabled":false,"rental_uris":{"android":"levelo://app?vid=d99750b8-6ade-4149-99fa-c28c2d4fba43","ios":"levelo://app?vid=d99750b8-6ade-4149-99fa-c28c2d4fba43"},"vehicle_type_id":"4","last_reported":1735844819,"current_range_meters":38800,"station_id":"ce4bgn12rcd13ifvqbt0","pricing_plan_id":"cebpf4jnsgd1na2vs0mg"},{"bike_id":"a1c87532-6196-402b-916e-8ad945b95f72","system_id":"levelo_inurba_marseille","lat":43.25121,"lon":5.40303,"is_reserved":false,"is_disabled":false,"rental_uris":{"android":"levelo://app?vid=a1c87532-6196-402b-916e-8ad945b95f72","ios":"levelo://app?vid=a1c87532-6196-402b-916e-8ad945b95f72"},"vehicle_type_id":"4","last_reported":1735844819,"current_range_meters":11200,"station_id":"ce4bhlh2rcd13ifvqgig","pricing_plan_id":"cebpf4jnsgd1na2vs0mg"},{"bike_id":"4ce38f45-b3ef-4ce1-84b1-8cf7c7ee4592","system_id":"levelo_inurba_marseille","lat":43.27919,"lon":5.41035,"is_reserved":false,"is_disabled":false,"rental_uris":{"android":"levelo://app?vid=4ce38f45-b3ef-4ce1-84b1-8cf7c7ee4592","ios":"levelo://app?vid=4ce38f45-b3ef-4ce1-84b1-8cf7c7ee4592"},"vehicle_type_id":"4","last_reported":1735844819,"current_range_meters":32400,"station_id":"ce4bhnp2rcd13ifvqh0g","pricing_plan_id":"cebpf4jnsgd1na2vs0mg"},{"bike_id":"77a46b5a-7f75-488d-8889-551eaccec189","system_id":"levelo_inurba_marseille","lat":43.293,"lon":5.3745,"is_reserved":false,"is_disabled":false,"rental_uris":{"android":"levelo://app?vid=77a46b5a-7f75-488d-8889-551eaccec189","ios":"levelo://app?vid=77a46b5a-7f75-488d-8889-551eaccec189"},"vehicle_type_id":"4","last_reported":1735844819,"current_range_meters":38800,"station_id":"ce4bgi12rcd13ifvqb70","pricing_plan_id":"cebpf4jnsgd1na2vs0mg"},{"bike_id":"3cd20a9a-d73e-4af3-b37f-ceeb8ad73b58","system_id":"levelo_inurba_marseille","lat":43.31079,"lon":5.38355,"is_reserved":false,"is_disabled":false,"rental_uris":{"android":"levelo://app?vid=3cd20a9a-d73e-4af3-b37f-ceeb8ad73b58","ios":"levelo://app?vid=3cd20a9a-d73e-4af3-b37f-ceeb8ad73b58"},"vehicle_type_id":"4","last_reported":1735844819,"current_range_meters":19600,"station_id":"ce4bgv92rcd13ifvqcr0","pricing_plan_id":"cebpf4jnsgd1na2vs0mg"},{"bike_id":"4fac24f8-e903-4fc5-8b98-0947685b5962","system_id":"levelo_inurba_marseille","lat":43.29263,"lon":5.38436,"is_reserved":false,"is_disabled":false,"rental_uris":{"android":"levelo://app?vid=4fac24f8-e903-4fc5-8b98-0947685b5962","ios":"levelo://app?vid=4fac24f8-e903-4fc5-8b98-0947685b5962"},"vehicle_type_id":"4","last_reported":1735844819,"current_range_meters":17600,"station_id":"ce4bh692rcd13ifvqea0","pricing_plan_id":"cebpf4jnsgd1na2vs0mg"},{"bike_id":"911d6d05-ac54-4235-8106-6f0f3e8eadf3","system_id":"levelo_inurba_marseille","lat":43.24642,"lon":5.38917,"is_reserved":false,"is_disabled":false,"rental_uris":{"android":"levelo://app?vid=911d6d05-ac54-4235-8106-6f0f3e8eadf3","ios":"levelo://app?vid=911d6d05-ac54-4235-8106-6f0f3e8eadf3"},"vehicle_type_id":"4","last_reported":1735844819,"current_range_meters":8000,"station_id":"ce4bhg12rcd13ifvqf60","pricing_plan_id":"cebpf4jnsgd1na2vs0mg"},{"bike_id":"5f1486d7-4fae-4801-9d26-fff2da0e4875","system_id":"levelo_inurba_marseille","lat":43.3199,"lon":5.38158,"is_reserved":false,"is_disabled":false,"rental_uris":{"android":"levelo://app?vid=5f1486d7-4fae-4801-9d26-fff2da0e4875","ios":"levelo://app?vid=5f1486d7-4fae-4801-9d26-fff2da0e4875"},"vehicle_type_id":"4","last_reported":1735844819,"current_range_meters":36400,"station_id":"ce4bhr12rcd13ifvqhpg","pricing_plan_id":"cebpf4jnsgd1na2vs0mg"},{"bike_id":"a6b8c5d1-0194-4497-b505-a51fde692143","system_id":"levelo_inurba_marseille","lat":43.29019,"lon":5.35623,"is_reserved":false,"is_disabled":false,"rental_uris":{"android":"levelo://app?vid=a6b8c5d1-0194-4497-b505-a51fde692143","ios":"levelo://app?vid=a6b8c5d1-0194-4497-b505-a51fde692143"},"vehicle_type_id":"4","last_reported":1735844819,"current_range_meters":17600,"station_id":"ce4bhb92rcd13ifvqen0","pricing_plan_id":"cebpf4jnsgd1na2vs0mg"},{"bike_id":"f6abbec6-b480-4edc-9f34-6d13e86ae51e","system_id":"levelo_inurba_marseille","lat":43.2784,"lon":5.39226,"is_reserved":false,"is_disabled":false,"rental_uris":{"android":"levelo://app?vid=f6abbec6-b480-4edc-9f34-6d13e86ae51e","ios":"levelo://app?vid=f6abbec6-b480-4edc-9f34-6d13e86ae51e"},"vehicle_type_id":"4","last_reported":1735844819,"current_range_meters":6800,"station_id":"ce4bhjp2rcd13ifvqga0","pricing_plan_id":"cebpf4jnsgd1na2vs0mg"},{"bike_id":"25990fff-4e8a-4c9a-9f77-d0b15d680caa","system_id":"levelo_inurba_marseille","lat":43.26948,"lon":5.38627,"is_reserved":false,"is_disabled":true,"rental_uris":{"android":"levelo://app?vid=25990fff-4e8a-4c9a-9f77-d0b15d680caa","ios":"levelo://app?vid=25990fff-4e8a-4c9a-9f77-d0b15d680caa"},"vehicle_type_id":"4","last_reported":1735844819,"current_range_meters":20000,"station_id":"ce4bhh92rcd13ifvqfh0","pricing_plan_id":"cebpf4jnsgd1na2vs0mg"},{"bike_id":"62d408d0-e0fd-421c-8a1a-168ab701b6d1","system_id":"levelo_inurba_marseille","lat":43.28616,"lon":5.35107,"is_reserved":false,"is_disabled":false,"rental_uris":{"android":"levelo://app?vid=62d408d0-e0fd-421c-8a1a-168ab701b6d1","ios":"levelo://app?vid=62d408d0-e0fd-421c-8a1a-168ab701b6d1"},"vehicle_type_id":"4","last_reported":1735844819,"current_range_meters":24400,"station_id":"ce4bhch2rcd13ifvqeug","pricing_plan_id":"cebpf4jnsgd1na2vs0mg"},{"bike_id":"a953f6ba-d779-401c-85a9-1469d6c329eb","system_id":"levelo_inurba_marseille","lat":43.28681,"lon":5.38685,"is_reserved":false,"is_disabled":false,"rental_uris":{"android":"levelo://app?vid=a953f6ba-d779-401c-85a9-1469d6c329eb","ios":"levelo://app?vid=a953f6ba-d779-401c-85a9-1469d6c329eb"},"vehicle_type_id":"4","last_reported":1735844819,"current_range_meters":28400,"station_id":"ce4bh492rcd13ifvqdug","pricing_plan_id":"cebpf4jnsgd1na2vs0mg"},{"bike_id":"51855b67-dd6c-4e75-b660-5384b749b10b","system_id":"levelo_inurba_marseille","lat":43.31688,"lon":5.37745,"is_reserved":false,"is_disabled":false,"rental_uris":{"android":"levelo://app?vid=51855b67-dd6c-4e75-b660-5384b749b10b","ios":"levelo://app?vid=51855b67-dd6c-4e75-b660-5384b749b10b"},"vehicle_type_id":"4","last_reported":1735844819,"current_range_meters":12400,"station_id":"ce4bgth2rcd13ifvqch0","pricing_plan_id":"cebpf4jnsgd1na2vs0mg"},{"bike_id":"61145c38-69e6-40aa-98ce-2e37c606abcc","system_id":"levelo_inurba_marseille","lat":43.29531,"lon":5.38538,"is_reserved":false,"is_disabled":false,"rental_uris":{"android":"levelo://app?vid=61145c38-69e6-40aa-98ce-2e37c606abcc","ios":"levelo://app?vid=61145c38-69e6-40aa-98ce-2e37c606abcc"},"vehicle_type_id":"4","last_reported":1735844819,"current_range_meters":38000,"station_id":"ce4bgih2rcd13ifvqba0","pricing_plan_id":"cebpf4jnsgd1na2vs0mg"},{"bike_id":"56f472aa-6acc-47d3-ada3-27f6fe447e34","system_id":"levelo_inurba_marseille","lat":43.28103,"lon":5.37871,"is_reserved":false,"is_disabled":false,"rental_uris":{"android":"levelo://app?vid=56f472aa-6acc-47d3-ada3-27f6fe447e34","ios":"levelo://app?vid=56f472aa-6acc-47d3-ada3-27f6fe447e34"},"vehicle_type_id":"4","last_reported":1735844819,"current_range_meters":19600,"station_id":"ce4bha12rcd13ifvqee0","pricing_plan_id":"cebpf4jnsgd1na2vs0mg"},{"bike_id":"4cba9618-f181-4ec6-ad8c-a4f2706cbb37","system_id":"levelo_inurba_marseille","lat":43.29616,"lon":5.37733,"is_reserved":false,"is_disabled":false,"rental_uris":{"android":"levelo://app?vid=4cba9618-f181-4ec6-ad8c-a4f2706cbb37","ios":"levelo://app?vid=4cba9618-f181-4ec6-ad8c-a4f2706cbb37"},"vehicle_type_id":"4","last_reported":1735844819,"current_range_meters":36800,"station_id":"ce4bgi92rcd13ifvqb90","pricing_plan_id":"cebpf4jnsgd1na2vs0mg"},{"bike_id":"07914263-3d03-4738-b553-ee795a62a79e","system_id":"levelo_inurba_marseille","lat":43.25855,"lon":5.39902,"is_reserved":false,"is_disabled":false,"rental_uris":{"android":"levelo://app?vid=07914263-3d03-4738-b553-ee795a62a79e","ios":"levelo://app?vid=07914263-3d03-4738-b553-ee795a62a79e"},"vehicle_type_id":"4","last_reported":1735844819,"current_range_meters":28800,"station_id":"ce4bhl92rcd13ifvqghg","pricing_plan_id":"cebpf4jnsgd1na2vs0mg"},{"bike_id":"36b44304-4e81-43c8-b291-bd90ab2e4e78","system_id":"levelo_inurba_marseille","lat":43.2681,"lon":5.39466,"is_reserved":false,"is_disabled":false,"rental_uris":{"android":"levelo://app?vid=36b44304-4e81-43c8-b291-bd90ab2e4e78","ios":"levelo://app?vid=36b44304-4e81-43c8-b291-bd90ab2e4e78"},"vehicle_type_id":"4","last_reported":1735844819,"current_range_meters":28800,"station_id":"ce4bhh12rcd13ifvqfg0","pricing_plan_id":"cebpf4jnsgd1na2vs0mg"},{"bike_id":"b1650b6b-8edc-4f81-a3ba-94700ac4cc56","system_id":"levelo_inurba_marseille","lat":43.31722,"lon":5.40454,"is_reserved":false,"is_disabled":false,"rental_uris":{"android":"levelo://app?vid=b1650b6b-8edc-4f81-a3ba-94700ac4cc56","ios":"levelo://app?vid=b1650b6b-8edc-4f81-a3ba-94700ac4cc56"},"vehicle_type_id":"4","last_reported":1735844819,"current_range_meters":38800,"station_id":"ce4bh012rcd13ifvqd00","pricing_plan_id":"cebpf4jnsgd1na2vs0mg"},{"bike_id":"6ed3fdbb-b150-4868-b3fe-dcf7dbba80db","system_id":"levelo_inurba_marseille","lat":43.27319,"lon":5.39101,"is_reserved":false,"is_disabled":false,"rental_uris":{"android":"levelo://app?vid=6ed3fdbb-b150-4868-b3fe-dcf7dbba80db","ios":"levelo://app?vid=6ed3fdbb-b150-4868-b3fe-dcf7dbba80db"},"vehicle_type_id":"4","last_reported":1735844819,"current_range_meters":27600,"station_id":"ce4bhgp2rcd13ifvqfe0","pricing_plan_id":"cebpf4jnsgd1na2vs0mg"},{"bike_id":"a055e05f-75a1-4065-b682-a1b4bf3a31bd","system_id":"levelo_inurba_marseille","lat":43.29804,"lon":5.38084,"is_reserved":false,"is_disabled":false,"rental_uris":{"android":"levelo://app?vid=a055e05f-75a1-4065-b682-a1b4bf3a31bd","ios":"levelo://app?vid=a055e05f-75a1-4065-b682-a1b4bf3a31bd"},"vehicle_type_id":"4","last_reported":1735844819,"current_range_meters":26800,"station_id":"ce4bgip2rcd13ifvqbb0","pricing_plan_id":"cebpf4jnsgd1na2vs0mg"},{"bike_id":"25c73ff4-b516-4ca7-9e8d-cb16f8cf8ef6","system_id":"levelo_inurba_marseille","lat":43.24067,"lon":5.37756,"is_reserved":false,"is_disabled":false,"rental_uris":{"android":"levelo://app?vid=25c73ff4-b516-4ca7-9e8d-cb16f8cf8ef6","ios":"levelo://app?vid=25c73ff4-b516-4ca7-9e8d-cb16f8cf8ef6"},"vehicle_type_id":"4","last_reported":1735844819,"current_range_meters":38800,"station_id":"ce4bhnp2rcd13ifvqgvg","pricing_plan_id":"cebpf4jnsgd1na2vs0mg"},{"bike_id":"f102d633-29e9-4295-ad76-a1e2a9694a93","system_id":"levelo_inurba_marseille","lat":43.29031,"lon":5.38637,"is_reserved":false,"is_disabled":false,"rental_uris":{"android":"levelo://app?vid=f102d633-29e9-4295-ad76-a1e2a9694a93","ios":"levelo://app?vid=f102d633-29e9-4295-ad76-a1e2a9694a93"},"vehicle_type_id":"4","last_reported":1735844819,"current_range_meters":38800,"station_id":"ce4bh4p2rcd13ifvqe0g","pricing_plan_id":"cebpf4jnsgd1na2vs0mg"},{"bike_id":"7ae518aa-f0ce-47ad-bd22-43661bc4e52f","system_id":"levelo_inurba_marseille","lat":43.29794,"lon":5.38097,"is_reserved":false,"is_disabled":false,"rental_uris":{"android":"levelo://app?vid=7ae518aa-f0ce-47ad-bd22-43661bc4e52f","ios":"levelo://app?vid=7ae518aa-f0ce-47ad-bd22-43661bc4e52f"},"vehicle_type_id":"4","last_reported":1735844819,"current_range_meters":33600,"station_id":"ce4bgip2rcd13ifvqbb0","pricing_plan_id":"cebpf4jnsgd1na2vs0mg"},{"bike_id":"68e8ba49-ace1-4911-8592-6dd4b6589007","system_id":"levelo_inurba_marseille","lat":43.31071,"lon":5.3835,"is_reserved":false,"is_disabled":false,"rental_uris":{"android":"levelo://app?vid=68e8ba49-ace1-4911-8592-6dd4b6589007","ios":"levelo://app?vid=68e8ba49-ace1-4911-8592-6dd4b6589007"},"vehicle_type_id":"4","last_reported":1735844819,"current_range_meters":34800,"station_id":"ce4bgv92rcd13ifvqcr0","pricing_plan_id":"cebpf4jnsgd1na2vs0mg"},{"bike_id":"e618fc4c-10a4-4d27-a564-7804cf94ac8c","system_id":"levelo_inurba_marseille","lat":43.29251,"lon":5.38436,"is_reserved":false,"is_disabled":false,"rental_uris":{"android":"levelo://app?vid=e618fc4c-10a4-4d27-a564-7804cf94ac8c","ios":"levelo://app?vid=e618fc4c-10a4-4d27-a564-7804cf94ac8c"},"vehicle_type_id":"4","last_reported":1735844819,"current_range_meters":20400,"station_id":"ce4bh692rcd13ifvqea0","pricing_plan_id":"cebpf4jnsgd1na2vs0mg"},{"bike_id":"a6f828f1-5f97-4da7-bf33-7d48a155db3e","system_id":"levelo_inurba_marseille","lat":43.27825,"lon":5.39189,"is_reserved":false,"is_disabled":false,"rental_uris":{"android":"levelo://app?vid=a6f828f1-5f97-4da7-bf33-7d48a155db3e","ios":"levelo://app?vid=a6f828f1-5f97-4da7-bf33-7d48a155db3e"},"vehicle_type_id":"4","last_reported":1735844819,"current_range_meters":34800,"station_id":"ce4bhjp2rcd13ifvqga0","pricing_plan_id":"cebpf4jnsgd1na2vs0mg"},{"bike_id":"bbefe573-2e5c-4fbf-a5d6-e0f28031c10d","system_id":"levelo_inurba_marseille","lat":43.31356,"lon":5.38494,"is_reserved":false,"is_disabled":false,"rental_uris":{"android":"levelo://app?vid=bbefe573-2e5c-4fbf-a5d6-e0f28031c10d","ios":"levelo://app?vid=bbefe573-2e5c-4fbf-a5d6-e0f28031c10d"},"vehicle_type_id":"4","last_reported":1735844819,"current_range_meters":32800,"station_id":"ce4bgt92rcd13ifvqcf0","pricing_plan_id":"cebpf4jnsgd1na2vs0mg"},{"bike_id":"b21039f9-c9bd-46df-9f77-f3a3de8f9b57","system_id":"levelo_inurba_marseille","lat":43.26031,"lon":5.37546,"is_reserved":false,"is_disabled":true,"rental_uris":{"android":"levelo://app?vid=b21039f9-c9bd-46df-9f77-f3a3de8f9b57","ios":"levelo://app?vid=b21039f9-c9bd-46df-9f77-f3a3de8f9b57"},"vehicle_type_id":"4","last_reported":1735844819,"current_range_meters":8000,"station_id":"ce4bhgh2rcd13ifvqfa0","pricing_plan_id":"cebpf4jnsgd1na2vs0mg"},{"bike_id":"bf9445a2-922e-4fb3-ae85-42b7dcb8df87","system_id":"levelo_inurba_marseille","lat":43.30143,"lon":5.37407,"is_reserved":false,"is_disabled":false,"rental_uris":{"android":"levelo://app?vid=bf9445a2-922e-4fb3-ae85-42b7dcb8df87","ios":"levelo://app?vid=bf9445a2-922e-4fb3-ae85-42b7dcb8df87"},"vehicle_type_id":"4","last_reported":1735844819,"current_range_meters":38400,"station_id":"ce4bgs92rcd13ifvqcc0","pricing_plan_id":"cebpf4jnsgd1na2vs0mg"},{"bike_id":"f20c015a-0ed9-41c9-b102-c68f5f84fd52","system_id":"levelo_inurba_marseille","lat":43.29539,"lon":5.38536,"is_reserved":false,"is_disabled":false,"rental_uris":{"android":"levelo://app?vid=f20c015a-0ed9-41c9-b102-c68f5f84fd52","ios":"levelo://app?vid=f20c015a-0ed9-41c9-b102-c68f5f84fd52"},"vehicle_type_id":"4","last_reported":1735844819,"current_range_meters":38800,"station_id":"ce4bgih2rcd13ifvqba0","pricing_plan_id":"cebpf4jnsgd1na2vs0mg"},{"bike_id":"0d22c007-f5b2-4481-9b21-08f35f061702","system_id":"levelo_inurba_marseille","lat":43.29628,"lon":5.37166,"is_reserved":false,"is_disabled":true,"rental_uris":{"android":"levelo://app?vid=0d22c007-f5b2-4481-9b21-08f35f061702","ios":"levelo://app?vid=0d22c007-f5b2-4481-9b21-08f35f061702"},"vehicle_type_id":"4","last_reported":1735844819,"current_range_meters":0,"station_id":"ce4bgnh2rcd13ifvqc0g","pricing_plan_id":"cebpf4jnsgd1na2vs0mg"},{"bike_id":"bf5d1ce1-7688-4e17-971a-7b8dfa4e1370","system_id":"levelo_inurba_marseille","lat":43.29008,"lon":5.35618,"is_reserved":false,"is_disabled":false,"rental_uris":{"android":"levelo://app?vid=bf5d1ce1-7688-4e17-971a-7b8dfa4e1370","ios":"levelo://app?vid=bf5d1ce1-7688-4e17-971a-7b8dfa4e1370"},"vehicle_type_id":"4","last_reported":1735844819,"current_range_meters":38000,"station_id":"ce4bhb92rcd13ifvqen0","pricing_plan_id":"cebpf4jnsgd1na2vs0mg"},{"bike_id":"924beefc-7f17-496a-b7df-d11950357e09","system_id":"levelo_inurba_marseille","lat":43.29016,"lon":5.38638,"is_reserved":false,"is_disabled":false,"rental_uris":{"android":"levelo://app?vid=924beefc-7f17-496a-b7df-d11950357e09","ios":"levelo://app?vid=924beefc-7f17-496a-b7df-d11950357e09"},"vehicle_type_id":"4","last_reported":1735844819,"current_range_meters":18000,"station_id":"ce4bh4p2rcd13ifvqe0g","pricing_plan_id":"cebpf4jnsgd1na2vs0mg"},{"bike_id":"b36d0aa9-35b5-4ab6-b66b-656e8883a3a5","system_id":"levelo_inurba_marseille","lat":43.29525,"lon":5.39044,"is_reserved":false,"is_disabled":false,"rental_uris":{"android":"levelo://app?vid=b36d0aa9-35b5-4ab6-b66b-656e8883a3a5","ios":"levelo://app?vid=b36d0aa9-35b5-4ab6-b66b-656e8883a3a5"},"vehicle_type_id":"4","last_reported":1735844819,"current_range_meters":18000,"station_id":"ce4bh3p2rcd13ifvqdp0","pricing_plan_id":"cebpf4jnsgd1na2vs0mg"},{"bike_id":"216ae330-dfd1-48ab-b413-8516d8b96dbe","system_id":"levelo_inurba_marseille","lat":43.23563,"lon":5.37859,"is_reserved":false,"is_disabled":false,"rental_uris":{"android":"levelo://app?vid=216ae330-dfd1-48ab-b413-8516d8b96dbe","ios":"levelo://app?vid=216ae330-dfd1-48ab-b413-8516d8b96dbe"},"vehicle_type_id":"4","last_reported":1735844819,"current_range_meters":9600,"station_id":"","pricing_plan_id":"cebpf4jnsgd1na2vs0mg"},{"bike_id":"f811a98b-9aa7-419d-8e74-1c4088ab1bbc","system_id":"levelo_inurba_marseille","lat":43.27073,"lon":5.42283,"is_reserved":false,"is_disabled":false,"rental_uris":{"android":"levelo://app?vid=f811a98b-9aa7-419d-8e74-1c4088ab1bbc","ios":"levelo://app?vid=f811a98b-9aa7-419d-8e74-1c4088ab1bbc"},"vehicle_type_id":"4","last_reported":1735844819,"current_range_meters":34000,"station_id":"ce4bhk92rcd13ifvqgb0","pricing_plan_id":"cebpf4jnsgd1na2vs0mg"},{"bike_id":"8f236aa0-69d9-4777-af98-8397a0b1ff94","system_id":"levelo_inurba_marseille","lat":43.28144,"lon":5.42658,"is_reserved":false,"is_disabled":true,"rental_uris":{"android":"levelo://app?vid=8f236aa0-69d9-4777-af98-8397a0b1ff94","ios":"levelo://app?vid=8f236aa0-69d9-4777-af98-8397a0b1ff94"},"vehicle_type_id":"4","last_reported":1735844819,"current_range_meters":8400,"station_id":"ce4bhnh2rcd13ifvqgug","pricing_plan_id":"cebpf4jnsgd1na2vs0mg"},{"bike_id":"77219e2c-6b35-4634-aad9-c10b435669fd","system_id":"levelo_inurba_marseille","lat":43.32375,"lon":5.38871,"is_reserved":false,"is_disabled":false,"rental_uris":{"android":"levelo://app?vid=77219e2c-6b35-4634-aad9-c10b435669fd","ios":"levelo://app?vid=77219e2c-6b35-4634-aad9-c10b435669fd"},"vehicle_type_id":"4","last_reported":1735844819,"current_range_meters":24400,"station_id":"ce4bhqp2rcd13ifvqhog","pricing_plan_id":"cebpf4jnsgd1na2vs0mg"},{"bike_id":"8e936699-fb94-4c05-a18e-6a31521ab968","system_id":"levelo_inurba_marseille","lat":43.28481,"lon":5.35874,"is_reserved":false,"is_disabled":false,"rental_uris":{"android":"levelo://app?vid=8e936699-fb94-4c05-a18e-6a31521ab968","ios":"levelo://app?vid=8e936699-fb94-4c05-a18e-6a31521ab968"},"vehicle_type_id":"4","last_reported":1735844819,"current_range_meters":38000,"station_id":"ce4bhah2rcd13ifvqei0","pricing_plan_id":"cebpf4jnsgd1na2vs0mg"},{"bike_id":"8fd41660-9f08-4b00-98ad-83838f12a0e9","system_id":"levelo_inurba_marseille","lat":43.29598,"lon":5.38113,"is_reserved":false,"is_disabled":false,"rental_uris":{"android":"levelo://app?vid=8fd41660-9f08-4b00-98ad-83838f12a0e9","ios":"levelo://app?vid=8fd41660-9f08-4b00-98ad-83838f12a0e9"},"vehicle_type_id":"4","last_reported":1735844819,"current_range_meters":28400,"station_id":"ce4bgl12rcd13ifvqbo0","pricing_plan_id":"cebpf4jnsgd1na2vs0mg"},{"bike_id":"d9039fb6-1526-43a5-ab47-bf6c74051347","system_id":"levelo_inurba_marseille","lat":43.28161,"lon":5.42642,"is_reserved":false,"is_disabled":true,"rental_uris":{"android":"levelo://app?vid=d9039fb6-1526-43a5-ab47-bf6c74051347","ios":"levelo://app?vid=d9039fb6-1526-43a5-ab47-bf6c74051347"},"vehicle_type_id":"4","last_reported":1735844819,"current_range_meters":400,"station_id":"ce4bhnh2rcd13ifvqgug","pricing_plan_id":"cebpf4jnsgd1na2vs0mg"},{"bike_id":"b75425bf-1cd6-4844-ab47-bc3c836e9525","system_id":"levelo_inurba_marseille","lat":43.28035,"lon":5.36944,"is_reserved":false,"is_disabled":false,"rental_uris":{"android":"levelo://app?vid=b75425bf-1cd6-4844-ab47-bc3c836e9525","ios":"levelo://app?vid=b75425bf-1cd6-4844-ab47-bc3c836e9525"},"vehicle_type_id":"4","last_reported":1735844819,"current_range_meters":38800,"station_id":"ce4bha12rcd13ifvqef0","pricing_plan_id":"cebpf4jnsgd1na2vs0mg"},{"bike_id":"f4967ab7-f61a-4740-bb71-ceeb64227357","system_id":"levelo_inurba_marseille","lat":43.28844,"lon":5.39307,"is_reserved":false,"is_disabled":false,"rental_uris":{"android":"levelo://app?vid=f4967ab7-f61a-4740-bb71-ceeb64227357","ios":"levelo://app?vid=f4967ab7-f61a-4740-bb71-ceeb64227357"},"vehicle_type_id":"4","last_reported":1735844819,"current_range_meters":38800,"station_id":"ce4bh2p2rcd13ifvqdi0","pricing_plan_id":"cebpf4jnsgd1na2vs0mg"},{"bike_id":"65c7064d-258e-4f50-8bbc-b2187209a0c7","system_id":"levelo_inurba_marseille","lat":43.29271,"lon":5.38437,"is_reserved":false,"is_disabled":false,"rental_uris":{"android":"levelo://app?vid=65c7064d-258e-4f50-8bbc-b2187209a0c7","ios":"levelo://app?vid=65c7064d-258e-4f50-8bbc-b2187209a0c7"},"vehicle_type_id":"4","last_reported":1735844819,"current_range_meters":10000,"station_id":"ce4bh692rcd13ifvqea0","pricing_plan_id":"cebpf4jnsgd1na2vs0mg"},{"bike_id":"022d826a-d31d-48ef-b07e-f8dd0ceaa746","system_id":"levelo_inurba_marseille","lat":43.24996,"lon":5.38935,"is_reserved":false,"is_disabled":false,"rental_uris":{"android":"levelo://app?vid=022d826a-d31d-48ef-b07e-f8dd0ceaa746","ios":"levelo://app?vid=022d826a-d31d-48ef-b07e-f8dd0ceaa746"},"vehicle_type_id":"4","last_reported":1735844819,"current_range_meters":26800,"station_id":"ce4bhgp2rcd13ifvqfd0","pricing_plan_id":"cebpf4jnsgd1na2vs0mg"},{"bike_id":"5f97eee1-4bb9-43f4-8e6e-a0b21a58fdc8","system_id":"levelo_inurba_marseille","lat":43.31883,"lon":5.40725,"is_reserved":false,"is_disabled":false,"rental_uris":{"android":"levelo://app?vid=5f97eee1-4bb9-43f4-8e6e-a0b21a58fdc8","ios":"levelo://app?vid=5f97eee1-4bb9-43f4-8e6e-a0b21a58fdc8"},"vehicle_type_id":"4","last_reported":1735844819,"current_range_meters":38800,"station_id":"ce4bhq12rcd13ifvqhig","pricing_plan_id":"cebpf4jnsgd1na2vs0mg"},{"bike_id":"9d9df054-e626-4fc9-b46d-0b8594bbb01d","system_id":"levelo_inurba_marseille","lat":43.29528,"lon":5.39057,"is_reserved":false,"is_disabled":false,"rental_uris":{"android":"levelo://app?vid=9d9df054-e626-4fc9-b46d-0b8594bbb01d","ios":"levelo://app?vid=9d9df054-e626-4fc9-b46d-0b8594bbb01d"},"vehicle_type_id":"4","last_reported":1735844819,"current_range_meters":37600,"station_id":"ce4bh3p2rcd13ifvqdp0","pricing_plan_id":"cebpf4jnsgd1na2vs0mg"},{"bike_id":"9c975c47-5371-4921-b2e9-5b31b3588bc1","system_id":"levelo_inurba_marseille","lat":43.29274,"lon":5.38463,"is_reserved":false,"is_disabled":false,"rental_uris":{"android":"levelo://app?vid=9c975c47-5371-4921-b2e9-5b31b3588bc1","ios":"levelo://app?vid=9c975c47-5371-4921-b2e9-5b31b3588bc1"},"vehicle_type_id":"4","last_reported":1735844819,"current_range_meters":39200,"station_id":"ce4bh692rcd13ifvqea0","pricing_plan_id":"cebpf4jnsgd1na2vs0mg"},{"bike_id":"2ff07e1e-bc5a-4742-97da-c3ff1c19ed9c","system_id":"levelo_inurba_marseille","lat":43.29301,"lon":5.37432,"is_reserved":false,"is_disabled":false,"rental_uris":{"android":"levelo://app?vid=2ff07e1e-bc5a-4742-97da-c3ff1c19ed9c","ios":"levelo://app?vid=2ff07e1e-bc5a-4742-97da-c3ff1c19ed9c"},"vehicle_type_id":"4","last_reported":1735844819,"current_range_meters":11200,"station_id":"ce4bgi12rcd13ifvqb70","pricing_plan_id":"cebpf4jnsgd1na2vs0mg"},{"bike_id":"cb463b1c-2e27-475d-af4b-2a476e81130e","system_id":"levelo_inurba_marseille","lat":43.28274,"lon":5.3507,"is_reserved":false,"is_disabled":false,"rental_uris":{"android":"levelo://app?vid=cb463b1c-2e27-475d-af4b-2a476e81130e","ios":"levelo://app?vid=cb463b1c-2e27-475d-af4b-2a476e81130e"},"vehicle_type_id":"4","last_reported":1735844819,"current_range_meters":32800,"station_id":"ce4bhbp2rcd13ifvqerg","pricing_plan_id":"cebpf4jnsgd1na2vs0mg"},{"bike_id":"658f3f86-23aa-48e9-af5f-b9cb4bbf3b8e","system_id":"levelo_inurba_marseille","lat":43.29552,"lon":5.4229,"is_reserved":false,"is_disabled":false,"rental_uris":{"android":"levelo://app?vid=658f3f86-23aa-48e9-af5f-b9cb4bbf3b8e","ios":"levelo://app?vid=658f3f86-23aa-48e9-af5f-b9cb4bbf3b8e"},"vehicle_type_id":"4","last_reported":1735844819,"current_range_meters":11200,"station_id":"ce4bhph2rcd13ifvqhdg","pricing_plan_id":"cebpf4jnsgd1na2vs0mg"},{"bike_id":"626a1655-4700-4fd6-a8a4-87f6c0e94a90","system_id":"levelo_inurba_marseille","lat":43.28857,"lon":5.35844,"is_reserved":false,"is_disabled":false,"rental_uris":{"android":"levelo://app?vid=626a1655-4700-4fd6-a8a4-87f6c0e94a90","ios":"levelo://app?vid=626a1655-4700-4fd6-a8a4-87f6c0e94a90"},"vehicle_type_id":"4","last_reported":1735844819,"current_range_meters":28000,"station_id":"ce4bhb12rcd13ifvqem0","pricing_plan_id":"cebpf4jnsgd1na2vs0mg"},{"bike_id":"33dc37c8-ad31-4bbb-a502-8ad8309bfdd3","system_id":"levelo_inurba_marseille","lat":43.29888,"lon":5.43658,"is_reserved":false,"is_disabled":false,"rental_uris":{"android":"levelo://app?vid=33dc37c8-ad31-4bbb-a502-8ad8309bfdd3","ios":"levelo://app?vid=33dc37c8-ad31-4bbb-a502-8ad8309bfdd3"},"vehicle_type_id":"4","last_reported":1735844819,"current_range_meters":38800,"station_id":"ce4bhpp2rcd13ifvqhfg","pricing_plan_id":"cebpf4jnsgd1na2vs0mg"},{"bike_id":"375263f7-8be8-4e9c-8273-54301f8efcdc","system_id":"levelo_inurba_marseille","lat":43.28153,"lon":5.42656,"is_reserved":false,"is_disabled":false,"rental_uris":{"android":"levelo://app?vid=375263f7-8be8-4e9c-8273-54301f8efcdc","ios":"levelo://app?vid=375263f7-8be8-4e9c-8273-54301f8efcdc"},"vehicle_type_id":"4","last_reported":1735844819,"current_range_meters":8400,"station_id":"ce4bhnh2rcd13ifvqgug","pricing_plan_id":"cebpf4jnsgd1na2vs0mg"},{"bike_id":"d0030ff6-f8b3-4b75-bb9b-f2175ff4ca9d","system_id":"levelo_inurba_marseille","lat":43.24067,"lon":5.37754,"is_reserved":false,"is_disabled":false,"rental_uris":{"android":"levelo://app?vid=d0030ff6-f8b3-4b75-bb9b-f2175ff4ca9d","ios":"levelo://app?vid=d0030ff6-f8b3-4b75-bb9b-f2175ff4ca9d"},"vehicle_type_id":"4","last_reported":1735844819,"current_range_meters":38800,"station_id":"ce4bhnp2rcd13ifvqgvg","pricing_plan_id":"cebpf4jnsgd1na2vs0mg"},{"bike_id":"9d3fc8c9-2a30-46f6-a17d-7e1c0cdaa39c","system_id":"levelo_inurba_marseille","lat":43.2979,"lon":5.38109,"is_reserved":false,"is_disabled":false,"rental_uris":{"android":"levelo://app?vid=9d3fc8c9-2a30-46f6-a17d-7e1c0cdaa39c","ios":"levelo://app?vid=9d3fc8c9-2a30-46f6-a17d-7e1c0cdaa39c"},"vehicle_type_id":"4","last_reported":1735844819,"current_range_meters":36000,"station_id":"ce4bgip2rcd13ifvqbb0","pricing_plan_id":"cebpf4jnsgd1na2vs0mg"},{"bike_id":"288df3f3-407a-4ba2-b112-c5ead5bfabe0","system_id":"levelo_inurba_marseille","lat":43.28998,"lon":5.35614,"is_reserved":false,"is_disabled":true,"rental_uris":{"android":"levelo://app?vid=288df3f3-407a-4ba2-b112-c5ead5bfabe0","ios":"levelo://app?vid=288df3f3-407a-4ba2-b112-c5ead5bfabe0"},"vehicle_type_id":"4","last_reported":1735844819,"current_range_meters":38000,"station_id":"ce4bhb92rcd13ifvqen0","pricing_plan_id":"cebpf4jnsgd1na2vs0mg"},{"bike_id":"349a4ab8-6f13-4948-be71-abaadb9466ee","system_id":"levelo_inurba_marseille","lat":43.24042,"lon":5.37705,"is_reserved":false,"is_disabled":false,"rental_uris":{"android":"levelo://app?vid=349a4ab8-6f13-4948-be71-abaadb9466ee","ios":"levelo://app?vid=349a4ab8-6f13-4948-be71-abaadb9466ee"},"vehicle_type_id":"4","last_reported":1735844819,"current_range_meters":37600,"station_id":"ce4bhnp2rcd13ifvqgvg","pricing_plan_id":"cebpf4jnsgd1na2vs0mg"},{"bike_id":"e147a7b3-9e94-4f33-a9e2-8b559e074ee3","system_id":"levelo_inurba_marseille","lat":43.27938,"lon":5.41035,"is_reserved":false,"is_disabled":false,"rental_uris":{"android":"levelo://app?vid=e147a7b3-9e94-4f33-a9e2-8b559e074ee3","ios":"levelo://app?vid=e147a7b3-9e94-4f33-a9e2-8b559e074ee3"},"vehicle_type_id":"4","last_reported":1735844819,"current_range_meters":27200,"station_id":"ce4bhnp2rcd13ifvqh0g","pricing_plan_id":"cebpf4jnsgd1na2vs0mg"},{"bike_id":"df4442c2-98ea-45f1-acd1-a238ca2aaec0","system_id":"levelo_inurba_marseille","lat":43.266793,"lon":5.382657,"is_reserved":false,"is_disabled":false,"rental_uris":{"android":"levelo://app?vid=df4442c2-98ea-45f1-acd1-a238ca2aaec0","ios":"levelo://app?vid=df4442c2-98ea-45f1-acd1-a238ca2aaec0"},"vehicle_type_id":"4","last_reported":1735844819,"current_range_meters":38800,"station_id":"ce4bhg92rcd13ifvqf90","pricing_plan_id":"cebpf4jnsgd1na2vs0mg"},{"bike_id":"e7f232e6-9751-45f4-a24f-005b95d10947","system_id":"levelo_inurba_marseille","lat":43.29633,"lon":5.37731,"is_reserved":false,"is_disabled":true,"rental_uris":{"android":"levelo://app?vid=e7f232e6-9751-45f4-a24f-005b95d10947","ios":"levelo://app?vid=e7f232e6-9751-45f4-a24f-005b95d10947"},"vehicle_type_id":"4","last_reported":1735844819,"current_range_meters":1200,"station_id":"ce4bgi92rcd13ifvqb90","pricing_plan_id":"cebpf4jnsgd1na2vs0mg"},{"bike_id":"4cf49d06-d12a-4f67-a04c-da55d1b6d7b0","system_id":"levelo_inurba_marseille","lat":43.28108,"lon":5.37839,"is_reserved":false,"is_disabled":false,"rental_uris":{"android":"levelo://app?vid=4cf49d06-d12a-4f67-a04c-da55d1b6d7b0","ios":"levelo://app?vid=4cf49d06-d12a-4f67-a04c-da55d1b6d7b0"},"vehicle_type_id":"4","last_reported":1735844819,"current_range_meters":20800,"station_id":"ce4bha12rcd13ifvqee0","pricing_plan_id":"cebpf4jnsgd1na2vs0mg"},{"bike_id":"f3998a04-3b93-4948-8eb7-aa16047370fd","system_id":"levelo_inurba_marseille","lat":43.279529,"lon":5.410473,"is_reserved":false,"is_disabled":false,"rental_uris":{"android":"levelo://app?vid=f3998a04-3b93-4948-8eb7-aa16047370fd","ios":"levelo://app?vid=f3998a04-3b93-4948-8eb7-aa16047370fd"},"vehicle_type_id":"4","last_reported":1735844819,"current_range_meters":22800,"station_id":"ce4bhnp2rcd13ifvqh0g","pricing_plan_id":"cebpf4jnsgd1na2vs0mg"},{"bike_id":"1c5434c6-81cf-4ea8-9bf2-abfb41c12665","system_id":"levelo_inurba_marseille","lat":43.30882,"lon":5.37186,"is_reserved":false,"is_disabled":true,"rental_uris":{"android":"levelo://app?vid=1c5434c6-81cf-4ea8-9bf2-abfb41c12665","ios":"levelo://app?vid=1c5434c6-81cf-4ea8-9bf2-abfb41c12665"},"vehicle_type_id":"4","last_reported":1735844819,"current_range_meters":37600,"station_id":"ce4bguh2rcd13ifvqckg","pricing_plan_id":"cebpf4jnsgd1na2vs0mg"},{"bike_id":"bbb173c2-5fa6-4439-999a-e24a3ecc81ee","system_id":"levelo_inurba_marseille","lat":43.29546,"lon":5.42281,"is_reserved":false,"is_disabled":false,"rental_uris":{"android":"levelo://app?vid=bbb173c2-5fa6-4439-999a-e24a3ecc81ee","ios":"levelo://app?vid=bbb173c2-5fa6-4439-999a-e24a3ecc81ee"},"vehicle_type_id":"4","last_reported":1735844819,"current_range_meters":31200,"station_id":"ce4bhph2rcd13ifvqhdg","pricing_plan_id":"cebpf4jnsgd1na2vs0mg"},{"bike_id":"1a179dc3-f8e0-460a-82bb-c6968a20da94","system_id":"levelo_inurba_marseille","lat":43.301,"lon":5.39079,"is_reserved":false,"is_disabled":false,"rental_uris":{"android":"levelo://app?vid=1a179dc3-f8e0-460a-82bb-c6968a20da94","ios":"levelo://app?vid=1a179dc3-f8e0-460a-82bb-c6968a20da94"},"vehicle_type_id":"4","last_reported":1735844819,"current_range_meters":37600,"station_id":"ce4bh192rcd13ifvqdb0","pricing_plan_id":"cebpf4jnsgd1na2vs0mg"},{"bike_id":"bf0134ca-54e1-43be-8b29-8c6ccab6ae0d","system_id":"levelo_inurba_marseille","lat":43.24817,"lon":5.37431,"is_reserved":false,"is_disabled":false,"rental_uris":{"android":"levelo://app?vid=bf0134ca-54e1-43be-8b29-8c6ccab6ae0d","ios":"levelo://app?vid=bf0134ca-54e1-43be-8b29-8c6ccab6ae0d"},"vehicle_type_id":"4","last_reported":1735844819,"current_range_meters":38800,"station_id":"ce4bhgh2rcd13ifvqfb0","pricing_plan_id":"cebpf4jnsgd1na2vs0mg"},{"bike_id":"a6358ab9-817c-4de5-b1ce-efb6a7f8c62a","system_id":"levelo_inurba_marseille","lat":43.28576,"lon":5.39502,"is_reserved":false,"is_disabled":false,"rental_uris":{"android":"levelo://app?vid=a6358ab9-817c-4de5-b1ce-efb6a7f8c62a","ios":"levelo://app?vid=a6358ab9-817c-4de5-b1ce-efb6a7f8c62a"},"vehicle_type_id":"4","last_reported":1735844819,"current_range_meters":31200,"station_id":"ce4bh292rcd13ifvqdg0","pricing_plan_id":"cebpf4jnsgd1na2vs0mg"},{"bike_id":"e157af35-862f-4ff3-a971-0cec14143385","system_id":"levelo_inurba_marseille","lat":43.27945,"lon":5.41029,"is_reserved":false,"is_disabled":false,"rental_uris":{"android":"levelo://app?vid=e157af35-862f-4ff3-a971-0cec14143385","ios":"levelo://app?vid=e157af35-862f-4ff3-a971-0cec14143385"},"vehicle_type_id":"4","last_reported":1735844819,"current_range_meters":27200,"station_id":"ce4bhnp2rcd13ifvqh0g","pricing_plan_id":"cebpf4jnsgd1na2vs0mg"},{"bike_id":"a5afea11-e1e9-4560-8303-6dab77974894","system_id":"levelo_inurba_marseille","lat":43.2869,"lon":5.38668,"is_reserved":false,"is_disabled":false,"rental_uris":{"android":"levelo://app?vid=a5afea11-e1e9-4560-8303-6dab77974894","ios":"levelo://app?vid=a5afea11-e1e9-4560-8303-6dab77974894"},"vehicle_type_id":"4","last_reported":1735844819,"current_range_meters":27200,"station_id":"ce4bh492rcd13ifvqdug","pricing_plan_id":"cebpf4jnsgd1na2vs0mg"},{"bike_id":"a4828b82-6158-43c7-aedb-77476d918880","system_id":"levelo_inurba_marseille","lat":43.28613,"lon":5.351,"is_reserved":false,"is_disabled":true,"rental_uris":{"android":"levelo://app?vid=a4828b82-6158-43c7-aedb-77476d918880","ios":"levelo://app?vid=a4828b82-6158-43c7-aedb-77476d918880"},"vehicle_type_id":"4","last_reported":1735844819,"current_range_meters":25600,"station_id":"ce4bhch2rcd13ifvqeug","pricing_plan_id":"cebpf4jnsgd1na2vs0mg"},{"bike_id":"43c64af5-9471-4260-89db-8ab112e03a32","system_id":"levelo_inurba_marseille","lat":43.27495,"lon":5.42442,"is_reserved":false,"is_disabled":false,"rental_uris":{"android":"levelo://app?vid=43c64af5-9471-4260-89db-8ab112e03a32","ios":"levelo://app?vid=43c64af5-9471-4260-89db-8ab112e03a32"},"vehicle_type_id":"4","last_reported":1735844819,"current_range_meters":11200,"station_id":"ce4bhn92rcd13ifvqgrg","pricing_plan_id":"cebpf4jnsgd1na2vs0mg"},{"bike_id":"aab95f4a-8936-4128-a3c4-5f9f8cdc46fb","system_id":"levelo_inurba_marseille","lat":43.29984,"lon":5.38508,"is_reserved":false,"is_disabled":false,"rental_uris":{"android":"levelo://app?vid=aab95f4a-8936-4128-a3c4-5f9f8cdc46fb","ios":"levelo://app?vid=aab95f4a-8936-4128-a3c4-5f9f8cdc46fb"},"vehicle_type_id":"4","last_reported":1735844819,"current_range_meters":24000,"station_id":"ce4bgj92rcd13ifvqbd0","pricing_plan_id":"cebpf4jnsgd1na2vs0mg"},{"bike_id":"bb7e0253-4de1-45a9-937a-dde49e321461","system_id":"levelo_inurba_marseille","lat":43.29856,"lon":5.39751,"is_reserved":false,"is_disabled":false,"rental_uris":{"android":"levelo://app?vid=bb7e0253-4de1-45a9-937a-dde49e321461","ios":"levelo://app?vid=bb7e0253-4de1-45a9-937a-dde49e321461"},"vehicle_type_id":"4","last_reported":1735844819,"current_range_meters":17600,"station_id":"ce4bh0h2rcd13ifvqd50","pricing_plan_id":"cebpf4jnsgd1na2vs0mg"},{"bike_id":"1ad449fd-a0f5-4eaf-a7f9-8f01ede6b725","system_id":"levelo_inurba_marseille","lat":43.28456,"lon":5.39181,"is_reserved":false,"is_disabled":false,"rental_uris":{"android":"levelo://app?vid=1ad449fd-a0f5-4eaf-a7f9-8f01ede6b725","ios":"levelo://app?vid=1ad449fd-a0f5-4eaf-a7f9-8f01ede6b725"},"vehicle_type_id":"4","last_reported":1735844819,"current_range_meters":29600,"station_id":"ce4bhoh2rcd13ifvqh5g","pricing_plan_id":"cebpf4jnsgd1na2vs0mg"},{"bike_id":"21c3fd71-6792-4d05-b2eb-440eaddccc32","system_id":"levelo_inurba_marseille","lat":43.28409,"lon":5.37509,"is_reserved":false,"is_disabled":false,"rental_uris":{"android":"levelo://app?vid=21c3fd71-6792-4d05-b2eb-440eaddccc32","ios":"levelo://app?vid=21c3fd71-6792-4d05-b2eb-440eaddccc32"},"vehicle_type_id":"4","last_reported":1735844819,"current_range_meters":38800,"station_id":"ce4bh412rcd13ifvqds0","pricing_plan_id":"cebpf4jnsgd1na2vs0mg"},{"bike_id":"0e4da931-c1cd-432c-831a-40cedf064cc3","system_id":"levelo_inurba_marseille","lat":43.26778,"lon":5.39426,"is_reserved":false,"is_disabled":false,"rental_uris":{"android":"levelo://app?vid=0e4da931-c1cd-432c-831a-40cedf064cc3","ios":"levelo://app?vid=0e4da931-c1cd-432c-831a-40cedf064cc3"},"vehicle_type_id":"4","last_reported":1735844819,"current_range_meters":36800,"station_id":"ce4bhh12rcd13ifvqfg0","pricing_plan_id":"cebpf4jnsgd1na2vs0mg"},{"bike_id":"1d64e5d9-6db1-4098-b8df-bf1bbd653564","system_id":"levelo_inurba_marseille","lat":43.273654,"lon":5.362516,"is_reserved":false,"is_disabled":true,"rental_uris":{"android":"levelo://app?vid=1d64e5d9-6db1-4098-b8df-bf1bbd653564","ios":"levelo://app?vid=1d64e5d9-6db1-4098-b8df-bf1bbd653564"},"vehicle_type_id":"4","last_reported":1735844819,"current_range_meters":0,"station_id":"ce4bhbh2rcd13ifvqeo0","pricing_plan_id":"cebpf4jnsgd1na2vs0mg"},{"bike_id":"313a9a0d-cbde-465d-8a65-140655419224","system_id":"levelo_inurba_marseille","lat":43.2551,"lon":5.37644,"is_reserved":false,"is_disabled":false,"rental_uris":{"android":"levelo://app?vid=313a9a0d-cbde-465d-8a65-140655419224","ios":"levelo://app?vid=313a9a0d-cbde-465d-8a65-140655419224"},"vehicle_type_id":"4","last_reported":1735844819,"current_range_meters":38800,"station_id":"ce4bhh12rcd13ifvqff0","pricing_plan_id":"cebpf4jnsgd1na2vs0mg"},{"bike_id":"660aed1d-cdeb-4a3c-a6d4-d19ef9a2563b","system_id":"levelo_inurba_marseille","lat":43.29898,"lon":5.43675,"is_reserved":false,"is_disabled":false,"rental_uris":{"android":"levelo://app?vid=660aed1d-cdeb-4a3c-a6d4-d19ef9a2563b","ios":"levelo://app?vid=660aed1d-cdeb-4a3c-a6d4-d19ef9a2563b"},"vehicle_type_id":"4","last_reported":1735844819,"current_range_meters":38800,"station_id":"ce4bhpp2rcd13ifvqhfg","pricing_plan_id":"cebpf4jnsgd1na2vs0mg"},{"bike_id":"725999bb-8b32-4e5b-95fc-d63880a1b626","system_id":"levelo_inurba_marseille","lat":43.32662,"lon":5.40992,"is_reserved":false,"is_disabled":false,"rental_uris":{"android":"levelo://app?vid=725999bb-8b32-4e5b-95fc-d63880a1b626","ios":"levelo://app?vid=725999bb-8b32-4e5b-95fc-d63880a1b626"},"vehicle_type_id":"4","last_reported":1735844819,"current_range_meters":38800,"station_id":"ce4bhpp2rcd13ifvqhgg","pricing_plan_id":"cebpf4jnsgd1na2vs0mg"},{"bike_id":"2af79f06-2f41-443a-8c98-b554c72b55db","system_id":"levelo_inurba_marseille","lat":43.248056,"lon":5.374547,"is_reserved":false,"is_disabled":false,"rental_uris":{"android":"levelo://app?vid=2af79f06-2f41-443a-8c98-b554c72b55db","ios":"levelo://app?vid=2af79f06-2f41-443a-8c98-b554c72b55db"},"vehicle_type_id":"4","last_reported":1735844819,"current_range_meters":38800,"station_id":"ce4bhgh2rcd13ifvqfb0","pricing_plan_id":"cebpf4jnsgd1na2vs0mg"},{"bike_id":"52a03fe5-70da-4ffb-9e84-1d2cd36fbd3f","system_id":"levelo_inurba_marseille","lat":43.28438,"lon":5.39193,"is_reserved":false,"is_disabled":false,"rental_uris":{"android":"levelo://app?vid=52a03fe5-70da-4ffb-9e84-1d2cd36fbd3f","ios":"levelo://app?vid=52a03fe5-70da-4ffb-9e84-1d2cd36fbd3f"},"vehicle_type_id":"4","last_reported":1735844819,"current_range_meters":32400,"station_id":"ce4bhoh2rcd13ifvqh5g","pricing_plan_id":"cebpf4jnsgd1na2vs0mg"},{"bike_id":"a8b7a510-a7e7-4a7b-ad97-33f87bc14df9","system_id":"levelo_inurba_marseille","lat":43.31768,"lon":5.39013,"is_reserved":false,"is_disabled":false,"rental_uris":{"android":"levelo://app?vid=a8b7a510-a7e7-4a7b-ad97-33f87bc14df9","ios":"levelo://app?vid=a8b7a510-a7e7-4a7b-ad97-33f87bc14df9"},"vehicle_type_id":"4","last_reported":1735844819,"current_range_meters":38000,"station_id":"ce4bhqp2rcd13ifvqhng","pricing_plan_id":"cebpf4jnsgd1na2vs0mg"},{"bike_id":"a04ab52a-8bac-468d-99bd-613e6943d4f3","system_id":"levelo_inurba_marseille","lat":43.3266,"lon":5.40988,"is_reserved":false,"is_disabled":false,"rental_uris":{"android":"levelo://app?vid=a04ab52a-8bac-468d-99bd-613e6943d4f3","ios":"levelo://app?vid=a04ab52a-8bac-468d-99bd-613e6943d4f3"},"vehicle_type_id":"4","last_reported":1735844819,"current_range_meters":18800,"station_id":"ce4bhpp2rcd13ifvqhgg","pricing_plan_id":"cebpf4jnsgd1na2vs0mg"},{"bike_id":"96cb6bae-f2f5-4454-84e9-1e631669b024","system_id":"levelo_inurba_marseille","lat":43.26099,"lon":5.40343,"is_reserved":false,"is_disabled":true,"rental_uris":{"android":"levelo://app?vid=96cb6bae-f2f5-4454-84e9-1e631669b024","ios":"levelo://app?vid=96cb6bae-f2f5-4454-84e9-1e631669b024"},"vehicle_type_id":"4","last_reported":1735844819,"current_range_meters":1600,"station_id":"ce4bhlh2rcd13ifvqgig","pricing_plan_id":"cebpf4jnsgd1na2vs0mg"},{"bike_id":"601c233c-4f4f-4237-a34f-152a39e61bd4","system_id":"levelo_inurba_marseille","lat":43.29322,"lon":5.37466,"is_reserved":false,"is_disabled":false,"rental_uris":{"android":"levelo://app?vid=601c233c-4f4f-4237-a34f-152a39e61bd4","ios":"levelo://app?vid=601c233c-4f4f-4237-a34f-152a39e61bd4"},"vehicle_type_id":"4","last_reported":1735844819,"current_range_meters":34000,"station_id":"ce4bgi12rcd13ifvqb70","pricing_plan_id":"cebpf4jnsgd1na2vs0mg"},{"bike_id":"85f66c35-cf00-496f-866f-ed1cc2019cfb","system_id":"levelo_inurba_marseille","lat":43.28103,"lon":5.37853,"is_reserved":false,"is_disabled":false,"rental_uris":{"android":"levelo://app?vid=85f66c35-cf00-496f-866f-ed1cc2019cfb","ios":"levelo://app?vid=85f66c35-cf00-496f-866f-ed1cc2019cfb"},"vehicle_type_id":"4","last_reported":1735844819,"current_range_meters":38400,"station_id":"ce4bha12rcd13ifvqee0","pricing_plan_id":"cebpf4jnsgd1na2vs0mg"},{"bike_id":"71d7fd86-ae0c-4b15-9ac5-1afdce815ed0","system_id":"levelo_inurba_marseille","lat":43.29862,"lon":5.39769,"is_reserved":false,"is_disabled":false,"rental_uris":{"android":"levelo://app?vid=71d7fd86-ae0c-4b15-9ac5-1afdce815ed0","ios":"levelo://app?vid=71d7fd86-ae0c-4b15-9ac5-1afdce815ed0"},"vehicle_type_id":"4","last_reported":1735844819,"current_range_meters":32800,"station_id":"ce4bh0h2rcd13ifvqd50","pricing_plan_id":"cebpf4jnsgd1na2vs0mg"},{"bike_id":"61de727c-8365-416e-b775-eda21ab0d7e5","system_id":"levelo_inurba_marseille","lat":43.28717,"lon":5.37935,"is_reserved":false,"is_disabled":false,"rental_uris":{"android":"levelo://app?vid=61de727c-8365-416e-b775-eda21ab0d7e5","ios":"levelo://app?vid=61de727c-8365-416e-b775-eda21ab0d7e5"},"vehicle_type_id":"4","last_reported":1735844819,"current_range_meters":35600,"station_id":"ce4bh9p2rcd13ifvqec0","pricing_plan_id":"cebpf4jnsgd1na2vs0mg"},{"bike_id":"d9e7591d-4e69-4829-a945-5299a0d4f5d3","system_id":"levelo_inurba_marseille","lat":43.31882,"lon":5.40731,"is_reserved":false,"is_disabled":false,"rental_uris":{"android":"levelo://app?vid=d9e7591d-4e69-4829-a945-5299a0d4f5d3","ios":"levelo://app?vid=d9e7591d-4e69-4829-a945-5299a0d4f5d3"},"vehicle_type_id":"4","last_reported":1735844819,"current_range_meters":18000,"station_id":"ce4bhq12rcd13ifvqhig","pricing_plan_id":"cebpf4jnsgd1na2vs0mg"},{"bike_id":"ec111443-7348-404c-b72e-17a3fbfb142f","system_id":"levelo_inurba_marseille","lat":43.26501,"lon":5.39555,"is_reserved":false,"is_disabled":false,"rental_uris":{"android":"levelo://app?vid=ec111443-7348-404c-b72e-17a3fbfb142f","ios":"levelo://app?vid=ec111443-7348-404c-b72e-17a3fbfb142f"},"vehicle_type_id":"4","last_reported":1735844819,"current_range_meters":38800,"station_id":"ce4bhi12rcd13ifvqfq0","pricing_plan_id":"cebpf4jnsgd1na2vs0mg"},{"bike_id":"4e2e926a-cc62-4529-8b24-3abbcf0f0be2","system_id":"levelo_inurba_marseille","lat":43.23205,"lon":5.35551,"is_reserved":false,"is_disabled":false,"rental_uris":{"android":"levelo://app?vid=4e2e926a-cc62-4529-8b24-3abbcf0f0be2","ios":"levelo://app?vid=4e2e926a-cc62-4529-8b24-3abbcf0f0be2"},"vehicle_type_id":"4","last_reported":1735844819,"current_range_meters":35600,"station_id":"ce4bhu92rcd13ifvqi70","pricing_plan_id":"cebpf4jnsgd1na2vs0mg"},{"bike_id":"4fb4f7d3-d096-4297-bfc4-15347bc71338","system_id":"levelo_inurba_marseille","lat":43.29447,"lon":5.43346,"is_reserved":false,"is_disabled":false,"rental_uris":{"android":"levelo://app?vid=4fb4f7d3-d096-4297-bfc4-15347bc71338","ios":"levelo://app?vid=4fb4f7d3-d096-4297-bfc4-15347bc71338"},"vehicle_type_id":"4","last_reported":1735844819,"current_range_meters":38000,"station_id":"","pricing_plan_id":"cebpf4jnsgd1na2vs0mg"},{"bike_id":"ee7da7e1-0487-4a7b-838f-676e9c820e80","system_id":"levelo_inurba_marseille","lat":43.30434,"lon":5.39738,"is_reserved":false,"is_disabled":true,"rental_uris":{"android":"levelo://app?vid=ee7da7e1-0487-4a7b-838f-676e9c820e80","ios":"levelo://app?vid=ee7da7e1-0487-4a7b-838f-676e9c820e80"},"vehicle_type_id":"4","last_reported":1735844819,"current_range_meters":36800,"station_id":"ce4bh092rcd13ifvqd20","pricing_plan_id":"cebpf4jnsgd1na2vs0mg"},{"bike_id":"9e3743e2-fc99-49bd-8dbe-7e0b636ebef2","system_id":"levelo_inurba_marseille","lat":43.29972,"lon":5.38497,"is_reserved":false,"is_disabled":false,"rental_uris":{"android":"levelo://app?vid=9e3743e2-fc99-49bd-8dbe-7e0b636ebef2","ios":"levelo://app?vid=9e3743e2-fc99-49bd-8dbe-7e0b636ebef2"},"vehicle_type_id":"4","last_reported":1735844819,"current_range_meters":14800,"station_id":"ce4bgj92rcd13ifvqbd0","pricing_plan_id":"cebpf4jnsgd1na2vs0mg"},{"bike_id":"6143990e-f7e7-4500-846e-085b8e8441f3","system_id":"levelo_inurba_marseille","lat":43.25581,"lon":5.38237,"is_reserved":false,"is_disabled":false,"rental_uris":{"android":"levelo://app?vid=6143990e-f7e7-4500-846e-085b8e8441f3","ios":"levelo://app?vid=6143990e-f7e7-4500-846e-085b8e8441f3"},"vehicle_type_id":"4","last_reported":1735844819,"current_range_meters":38800,"station_id":"ce4bhih2rcd13ifvqfs0","pricing_plan_id":"cebpf4jnsgd1na2vs0mg"},{"bike_id":"3c348272-b440-4426-b2c7-621e1bcaa53c","system_id":"levelo_inurba_marseille","lat":43.27056,"lon":5.42252,"is_reserved":false,"is_disabled":false,"rental_uris":{"android":"levelo://app?vid=3c348272-b440-4426-b2c7-621e1bcaa53c","ios":"levelo://app?vid=3c348272-b440-4426-b2c7-621e1bcaa53c"},"vehicle_type_id":"4","last_reported":1735844819,"current_range_meters":36000,"station_id":"ce4bhk92rcd13ifvqgb0","pricing_plan_id":"cebpf4jnsgd1na2vs0mg"},{"bike_id":"e39779cb-dd0b-481e-95ed-043cce584dc4","system_id":"levelo_inurba_marseille","lat":43.24385,"lon":5.37056,"is_reserved":false,"is_disabled":false,"rental_uris":{"android":"levelo://app?vid=e39779cb-dd0b-481e-95ed-043cce584dc4","ios":"levelo://app?vid=e39779cb-dd0b-481e-95ed-043cce584dc4"},"vehicle_type_id":"4","last_reported":1735844819,"current_range_meters":19200,"station_id":"ce4bhhh2rcd13ifvqfk0","pricing_plan_id":"cebpf4jnsgd1na2vs0mg"},{"bike_id":"a8a13160-f812-40c0-acb2-e3dd2832ffb4","system_id":"levelo_inurba_marseille","lat":43.29521,"lon":5.39398,"is_reserved":false,"is_disabled":false,"rental_uris":{"android":"levelo://app?vid=a8a13160-f812-40c0-acb2-e3dd2832ffb4","ios":"levelo://app?vid=a8a13160-f812-40c0-acb2-e3dd2832ffb4"},"vehicle_type_id":"4","last_reported":1735844819,"current_range_meters":36400,"station_id":"ce4bh292rcd13ifvqdf0","pricing_plan_id":"cebpf4jnsgd1na2vs0mg"},{"bike_id":"a7c7c05f-d67b-4b61-bea5-04c88b75b2f9","system_id":"levelo_inurba_marseille","lat":43.29522,"lon":5.39395,"is_reserved":false,"is_disabled":false,"rental_uris":{"android":"levelo://app?vid=a7c7c05f-d67b-4b61-bea5-04c88b75b2f9","ios":"levelo://app?vid=a7c7c05f-d67b-4b61-bea5-04c88b75b2f9"},"vehicle_type_id":"4","last_reported":1735844819,"current_range_meters":38800,"station_id":"ce4bh292rcd13ifvqdf0","pricing_plan_id":"cebpf4jnsgd1na2vs0mg"},{"bike_id":"3815e6bf-fae6-4941-ab15-7c70eefa9203","system_id":"levelo_inurba_marseille","lat":43.29967,"lon":5.38504,"is_reserved":false,"is_disabled":false,"rental_uris":{"android":"levelo://app?vid=3815e6bf-fae6-4941-ab15-7c70eefa9203","ios":"levelo://app?vid=3815e6bf-fae6-4941-ab15-7c70eefa9203"},"vehicle_type_id":"4","last_reported":1735844819,"current_range_meters":16400,"station_id":"ce4bgj92rcd13ifvqbd0","pricing_plan_id":"cebpf4jnsgd1na2vs0mg"},{"bike_id":"a10cb38b-c0a9-46c5-81e3-8b36eafcdd96","system_id":"levelo_inurba_marseille","lat":43.28973,"lon":5.37833,"is_reserved":false,"is_disabled":true,"rental_uris":{"android":"levelo://app?vid=a10cb38b-c0a9-46c5-81e3-8b36eafcdd96","ios":"levelo://app?vid=a10cb38b-c0a9-46c5-81e3-8b36eafcdd96"},"vehicle_type_id":"4","last_reported":1735844819,"current_range_meters":36000,"station_id":"ce4bh9p2rcd13ifvqed0","pricing_plan_id":"cebpf4jnsgd1na2vs0mg"},{"bike_id":"a51ef497-d798-4f54-8e47-3f63c51137a0","system_id":"levelo_inurba_marseille","lat":43.30143,"lon":5.39886,"is_reserved":false,"is_disabled":false,"rental_uris":{"android":"levelo://app?vid=a51ef497-d798-4f54-8e47-3f63c51137a0","ios":"levelo://app?vid=a51ef497-d798-4f54-8e47-3f63c51137a0"},"vehicle_type_id":"4","last_reported":1735844819,"current_range_meters":38800,"station_id":"ce4bh0h2rcd13ifvqd40","pricing_plan_id":"cebpf4jnsgd1na2vs0mg"},{"bike_id":"e86e8a6b-2981-4147-9bb2-a5ab92db9450","system_id":"levelo_inurba_marseille","lat":43.28157,"lon":5.42632,"is_reserved":false,"is_disabled":true,"rental_uris":{"android":"levelo://app?vid=e86e8a6b-2981-4147-9bb2-a5ab92db9450","ios":"levelo://app?vid=e86e8a6b-2981-4147-9bb2-a5ab92db9450"},"vehicle_type_id":"4","last_reported":1735844819,"current_range_meters":1200,"station_id":"ce4bhnh2rcd13ifvqgug","pricing_plan_id":"cebpf4jnsgd1na2vs0mg"},{"bike_id":"9f290741-0dc7-46f2-a535-a24d19770539","system_id":"levelo_inurba_marseille","lat":43.28689,"lon":5.38669,"is_reserved":false,"is_disabled":false,"rental_uris":{"android":"levelo://app?vid=9f290741-0dc7-46f2-a535-a24d19770539","ios":"levelo://app?vid=9f290741-0dc7-46f2-a535-a24d19770539"},"vehicle_type_id":"4","last_reported":1735844819,"current_range_meters":16000,"station_id":"ce4bh492rcd13ifvqdug","pricing_plan_id":"cebpf4jnsgd1na2vs0mg"},{"bike_id":"ec42df47-457f-458b-9cf2-f978b9870034","system_id":"levelo_inurba_marseille","lat":43.30146,"lon":5.39872,"is_reserved":false,"is_disabled":false,"rental_uris":{"android":"levelo://app?vid=ec42df47-457f-458b-9cf2-f978b9870034","ios":"levelo://app?vid=ec42df47-457f-458b-9cf2-f978b9870034"},"vehicle_type_id":"4","last_reported":1735844819,"current_range_meters":30800,"station_id":"ce4bh0h2rcd13ifvqd40","pricing_plan_id":"cebpf4jnsgd1na2vs0mg"},{"bike_id":"2cd38d47-946c-4499-b46a-b62a28b064e1","system_id":"levelo_inurba_marseille","lat":43.28431,"lon":5.39176,"is_reserved":false,"is_disabled":false,"rental_uris":{"android":"levelo://app?vid=2cd38d47-946c-4499-b46a-b62a28b064e1","ios":"levelo://app?vid=2cd38d47-946c-4499-b46a-b62a28b064e1"},"vehicle_type_id":"4","last_reported":1735844819,"current_range_meters":11600,"station_id":"ce4bhoh2rcd13ifvqh5g","pricing_plan_id":"cebpf4jnsgd1na2vs0mg"},{"bike_id":"5367a292-5564-4681-91cd-97babb89fc00","system_id":"levelo_inurba_marseille","lat":43.22937,"lon":5.35374,"is_reserved":false,"is_disabled":false,"rental_uris":{"android":"levelo://app?vid=5367a292-5564-4681-91cd-97babb89fc00","ios":"levelo://app?vid=5367a292-5564-4681-91cd-97babb89fc00"},"vehicle_type_id":"4","last_reported":1735844819,"current_range_meters":17200,"station_id":"cpo3532slgdg3j2ikp40","pricing_plan_id":"cebpf4jnsgd1na2vs0mg"},{"bike_id":"e40b8873-a7cf-4e56-b106-d515344f64c4","system_id":"levelo_inurba_marseille","lat":43.23199,"lon":5.35552,"is_reserved":false,"is_disabled":false,"rental_uris":{"android":"levelo://app?vid=e40b8873-a7cf-4e56-b106-d515344f64c4","ios":"levelo://app?vid=e40b8873-a7cf-4e56-b106-d515344f64c4"},"vehicle_type_id":"4","last_reported":1735844819,"current_range_meters":38800,"station_id":"ce4bhu92rcd13ifvqi70","pricing_plan_id":"cebpf4jnsgd1na2vs0mg"},{"bike_id":"c1131aaf-0803-4024-b67d-aadf37b262b8","system_id":"levelo_inurba_marseille","lat":43.28855,"lon":5.3585,"is_reserved":false,"is_disabled":false,"rental_uris":{"android":"levelo://app?vid=c1131aaf-0803-4024-b67d-aadf37b262b8","ios":"levelo://app?vid=c1131aaf-0803-4024-b67d-aadf37b262b8"},"vehicle_type_id":"4","last_reported":1735844819,"current_range_meters":35200,"station_id":"ce4bhb12rcd13ifvqem0","pricing_plan_id":"cebpf4jnsgd1na2vs0mg"},{"bike_id":"14360ff4-527b-4a38-97fd-e73b70c574f3","system_id":"levelo_inurba_marseille","lat":43.30139,"lon":5.38788,"is_reserved":false,"is_disabled":false,"rental_uris":{"android":"levelo://app?vid=14360ff4-527b-4a38-97fd-e73b70c574f3","ios":"levelo://app?vid=14360ff4-527b-4a38-97fd-e73b70c574f3"},"vehicle_type_id":"4","last_reported":1735844819,"current_range_meters":39200,"station_id":"ce4bhoh2rcd13ifvqh6g","pricing_plan_id":"cebpf4jnsgd1na2vs0mg"},{"bike_id":"658e0746-3add-4324-8209-a97a499cd81d","system_id":"levelo_inurba_marseille","lat":43.30525,"lon":5.38424,"is_reserved":false,"is_disabled":false,"rental_uris":{"android":"levelo://app?vid=658e0746-3add-4324-8209-a97a499cd81d","ios":"levelo://app?vid=658e0746-3add-4324-8209-a97a499cd81d"},"vehicle_type_id":"4","last_reported":1735844819,"current_range_meters":33200,"station_id":"ce4bgg92rcd13ifvqb30","pricing_plan_id":"cebpf4jnsgd1na2vs0mg"},{"bike_id":"53a885e1-1033-47c5-b897-02cf79dd54f7","system_id":"levelo_inurba_marseille","lat":43.25867,"lon":5.39897,"is_reserved":false,"is_disabled":false,"rental_uris":{"android":"levelo://app?vid=53a885e1-1033-47c5-b897-02cf79dd54f7","ios":"levelo://app?vid=53a885e1-1033-47c5-b897-02cf79dd54f7"},"vehicle_type_id":"4","last_reported":1735844819,"current_range_meters":34000,"station_id":"ce4bhl92rcd13ifvqghg","pricing_plan_id":"cebpf4jnsgd1na2vs0mg"},{"bike_id":"536b70a3-fc64-47f8-88ea-2d090653c6fc","system_id":"levelo_inurba_marseille","lat":43.28361,"lon":5.38124,"is_reserved":false,"is_disabled":false,"rental_uris":{"android":"levelo://app?vid=536b70a3-fc64-47f8-88ea-2d090653c6fc","ios":"levelo://app?vid=536b70a3-fc64-47f8-88ea-2d090653c6fc"},"vehicle_type_id":"4","last_reported":1735844819,"current_range_meters":38800,"station_id":"ce4bh412rcd13ifvqdr0","pricing_plan_id":"cebpf4jnsgd1na2vs0mg"},{"bike_id":"d3bbc23a-977b-4b81-88be-f7e0b1a7ab38","system_id":"levelo_inurba_marseille","lat":43.2945,"lon":5.39763,"is_reserved":false,"is_disabled":true,"rental_uris":{"android":"levelo://app?vid=d3bbc23a-977b-4b81-88be-f7e0b1a7ab38","ios":"levelo://app?vid=d3bbc23a-977b-4b81-88be-f7e0b1a7ab38"},"vehicle_type_id":"4","last_reported":1735844819,"current_range_meters":38400,"station_id":"ce4bh3h2rcd13ifvqdo0","pricing_plan_id":"cebpf4jnsgd1na2vs0mg"},{"bike_id":"312ff9af-4f70-4b60-9812-0b0b87c7cbb3","system_id":"levelo_inurba_marseille","lat":43.27324,"lon":5.39077,"is_reserved":false,"is_disabled":false,"rental_uris":{"android":"levelo://app?vid=312ff9af-4f70-4b60-9812-0b0b87c7cbb3","ios":"levelo://app?vid=312ff9af-4f70-4b60-9812-0b0b87c7cbb3"},"vehicle_type_id":"4","last_reported":1735844819,"current_range_meters":24000,"station_id":"ce4bhgp2rcd13ifvqfe0","pricing_plan_id":"cebpf4jnsgd1na2vs0mg"},{"bike_id":"43f4378f-102b-48eb-b120-fee2c4ee70dd","system_id":"levelo_inurba_marseille","lat":43.29899,"lon":5.37521,"is_reserved":false,"is_disabled":false,"rental_uris":{"android":"levelo://app?vid=43f4378f-102b-48eb-b120-fee2c4ee70dd","ios":"levelo://app?vid=43f4378f-102b-48eb-b120-fee2c4ee70dd"},"vehicle_type_id":"4","last_reported":1735844819,"current_range_meters":20000,"station_id":"ce4bgjh2rcd13ifvqbg0","pricing_plan_id":"cebpf4jnsgd1na2vs0mg"},{"bike_id":"ef328f24-0f6f-4784-b56d-af328130325d","system_id":"levelo_inurba_marseille","lat":43.29613,"lon":5.38108,"is_reserved":false,"is_disabled":false,"rental_uris":{"android":"levelo://app?vid=ef328f24-0f6f-4784-b56d-af328130325d","ios":"levelo://app?vid=ef328f24-0f6f-4784-b56d-af328130325d"},"vehicle_type_id":"4","last_reported":1735844819,"current_range_meters":38800,"station_id":"ce4bgl12rcd13ifvqbo0","pricing_plan_id":"cebpf4jnsgd1na2vs0mg"},{"bike_id":"4b18fc74-124a-4026-8735-302c08bbdf7e","system_id":"levelo_inurba_marseille","lat":43.28693,"lon":5.38649,"is_reserved":false,"is_disabled":false,"rental_uris":{"android":"levelo://app?vid=4b18fc74-124a-4026-8735-302c08bbdf7e","ios":"levelo://app?vid=4b18fc74-124a-4026-8735-302c08bbdf7e"},"vehicle_type_id":"4","last_reported":1735844819,"current_range_meters":35200,"station_id":"ce4bh492rcd13ifvqdug","pricing_plan_id":"cebpf4jnsgd1na2vs0mg"},{"bike_id":"47bacd12-de07-48af-87bd-cc1ddc5d9c6a","system_id":"levelo_inurba_marseille","lat":43.29888,"lon":5.39729,"is_reserved":false,"is_disabled":false,"rental_uris":{"android":"levelo://app?vid=47bacd12-de07-48af-87bd-cc1ddc5d9c6a","ios":"levelo://app?vid=47bacd12-de07-48af-87bd-cc1ddc5d9c6a"},"vehicle_type_id":"4","last_reported":1735844819,"current_range_meters":10000,"station_id":"ce4bh0h2rcd13ifvqd50","pricing_plan_id":"cebpf4jnsgd1na2vs0mg"},{"bike_id":"1c02ae40-e43c-4632-b75b-2df9308dc3fe","system_id":"levelo_inurba_marseille","lat":43.337613,"lon":5.374348,"is_reserved":false,"is_disabled":false,"rental_uris":{"android":"levelo://app?vid=1c02ae40-e43c-4632-b75b-2df9308dc3fe","ios":"levelo://app?vid=1c02ae40-e43c-4632-b75b-2df9308dc3fe"},"vehicle_type_id":"4","last_reported":1735844819,"current_range_meters":38000,"station_id":"","pricing_plan_id":"cebpf4jnsgd1na2vs0mg"},{"bike_id":"9a3bf7ca-99de-4c30-a504-434eb2eabc67","system_id":"levelo_inurba_marseille","lat":43.29261,"lon":5.40919,"is_reserved":false,"is_disabled":false,"rental_uris":{"android":"levelo://app?vid=9a3bf7ca-99de-4c30-a504-434eb2eabc67","ios":"levelo://app?vid=9a3bf7ca-99de-4c30-a504-434eb2eabc67"},"vehicle_type_id":"4","last_reported":1735844819,"current_range_meters":24000,"station_id":"ce4bh192rcd13ifvqdc0","pricing_plan_id":"cebpf4jnsgd1na2vs0mg"},{"bike_id":"6ffb4cb4-e3f4-4288-aac7-0645beedaa5f","system_id":"levelo_inurba_marseille","lat":43.29537,"lon":5.38547,"is_reserved":false,"is_disabled":false,"rental_uris":{"android":"levelo://app?vid=6ffb4cb4-e3f4-4288-aac7-0645beedaa5f","ios":"levelo://app?vid=6ffb4cb4-e3f4-4288-aac7-0645beedaa5f"},"vehicle_type_id":"4","last_reported":1735844819,"current_range_meters":15200,"station_id":"ce4bgih2rcd13ifvqba0","pricing_plan_id":"cebpf4jnsgd1na2vs0mg"},{"bike_id":"24049831-997c-4f9e-95e3-931d66cdb6df","system_id":"levelo_inurba_marseille","lat":43.28616,"lon":5.35092,"is_reserved":false,"is_disabled":false,"rental_uris":{"android":"levelo://app?vid=24049831-997c-4f9e-95e3-931d66cdb6df","ios":"levelo://app?vid=24049831-997c-4f9e-95e3-931d66cdb6df"},"vehicle_type_id":"4","last_reported":1735844819,"current_range_meters":29600,"station_id":"ce4bhch2rcd13ifvqeug","pricing_plan_id":"cebpf4jnsgd1na2vs0mg"},{"bike_id":"8e2c1dcb-83d4-4084-a041-34c20679bb22","system_id":"levelo_inurba_marseille","lat":43.25572,"lon":5.38231,"is_reserved":false,"is_disabled":false,"rental_uris":{"android":"levelo://app?vid=8e2c1dcb-83d4-4084-a041-34c20679bb22","ios":"levelo://app?vid=8e2c1dcb-83d4-4084-a041-34c20679bb22"},"vehicle_type_id":"4","last_reported":1735844819,"current_range_meters":12800,"station_id":"ce4bhih2rcd13ifvqfs0","pricing_plan_id":"cebpf4jnsgd1na2vs0mg"},{"bike_id":"8da4c67d-2ed0-418e-b038-2836a9c86265","system_id":"levelo_inurba_marseille","lat":43.31711,"lon":5.43706,"is_reserved":false,"is_disabled":false,"rental_uris":{"android":"levelo://app?vid=8da4c67d-2ed0-418e-b038-2836a9c86265","ios":"levelo://app?vid=8da4c67d-2ed0-418e-b038-2836a9c86265"},"vehicle_type_id":"4","last_reported":1735844819,"current_range_meters":39200,"station_id":"ce4bhp92rcd13ifvqhcg","pricing_plan_id":"cebpf4jnsgd1na2vs0mg"},{"bike_id":"c752e9d3-c28d-4b8c-a84d-0714e0bcfc9a","system_id":"levelo_inurba_marseille","lat":43.30638,"lon":5.40091,"is_reserved":false,"is_disabled":false,"rental_uris":{"android":"levelo://app?vid=c752e9d3-c28d-4b8c-a84d-0714e0bcfc9a","ios":"levelo://app?vid=c752e9d3-c28d-4b8c-a84d-0714e0bcfc9a"},"vehicle_type_id":"4","last_reported":1735844819,"current_range_meters":30400,"station_id":"ce4bh112rcd13ifvqda0","pricing_plan_id":"cebpf4jnsgd1na2vs0mg"},{"bike_id":"5da924b7-1d86-48f2-a906-f2fea708abbd","system_id":"levelo_inurba_marseille","lat":43.27665,"lon":5.38897,"is_reserved":false,"is_disabled":true,"rental_uris":{"android":"levelo://app?vid=5da924b7-1d86-48f2-a906-f2fea708abbd","ios":"levelo://app?vid=5da924b7-1d86-48f2-a906-f2fea708abbd"},"vehicle_type_id":"4","last_reported":1735844819,"current_range_meters":38400,"station_id":"ce4bhi12rcd13ifvqfo0","pricing_plan_id":"cebpf4jnsgd1na2vs0mg"},{"bike_id":"bf11542d-57ab-488b-8688-d04e54ddc38b","system_id":"levelo_inurba_marseille","lat":43.29862,"lon":5.39773,"is_reserved":false,"is_disabled":false,"rental_uris":{"android":"levelo://app?vid=bf11542d-57ab-488b-8688-d04e54ddc38b","ios":"levelo://app?vid=bf11542d-57ab-488b-8688-d04e54ddc38b"},"vehicle_type_id":"4","last_reported":1735844819,"current_range_meters":34800,"station_id":"ce4bh0h2rcd13ifvqd50","pricing_plan_id":"cebpf4jnsgd1na2vs0mg"},{"bike_id":"0de59c75-d5a6-499f-820e-82b7500ec1c3","system_id":"levelo_inurba_marseille","lat":43.29209,"lon":5.39338,"is_reserved":false,"is_disabled":false,"rental_uris":{"android":"levelo://app?vid=0de59c75-d5a6-499f-820e-82b7500ec1c3","ios":"levelo://app?vid=0de59c75-d5a6-499f-820e-82b7500ec1c3"},"vehicle_type_id":"4","last_reported":1735844819,"current_range_meters":38800,"station_id":"ce4bh192rcd13ifvqdd0","pricing_plan_id":"cebpf4jnsgd1na2vs0mg"},{"bike_id":"9d2c81ea-506b-45e9-87c6-ca4bd38b0584","system_id":"levelo_inurba_marseille","lat":43.2558,"lon":5.38236,"is_reserved":false,"is_disabled":false,"rental_uris":{"android":"levelo://app?vid=9d2c81ea-506b-45e9-87c6-ca4bd38b0584","ios":"levelo://app?vid=9d2c81ea-506b-45e9-87c6-ca4bd38b0584"},"vehicle_type_id":"4","last_reported":1735844819,"current_range_meters":36400,"station_id":"ce4bhih2rcd13ifvqfs0","pricing_plan_id":"cebpf4jnsgd1na2vs0mg"},{"bike_id":"389a9b91-2a62-49d1-8eac-87915d4cb970","system_id":"levelo_inurba_marseille","lat":43.26932,"lon":5.38925,"is_reserved":false,"is_disabled":false,"rental_uris":{"android":"levelo://app?vid=389a9b91-2a62-49d1-8eac-87915d4cb970","ios":"levelo://app?vid=389a9b91-2a62-49d1-8eac-87915d4cb970"},"vehicle_type_id":"4","last_reported":1735844819,"current_range_meters":38400,"station_id":"ce4bhhh2rcd13ifvqfl0","pricing_plan_id":"cebpf4jnsgd1na2vs0mg"},{"bike_id":"283dd65f-1e69-479b-aa6a-9faa4044ac77","system_id":"levelo_inurba_marseille","lat":43.25585,"lon":5.38227,"is_reserved":false,"is_disabled":false,"rental_uris":{"android":"levelo://app?vid=283dd65f-1e69-479b-aa6a-9faa4044ac77","ios":"levelo://app?vid=283dd65f-1e69-479b-aa6a-9faa4044ac77"},"vehicle_type_id":"4","last_reported":1735844819,"current_range_meters":30000,"station_id":"ce4bhih2rcd13ifvqfs0","pricing_plan_id":"cebpf4jnsgd1na2vs0mg"},{"bike_id":"236eb851-54f4-4550-b34a-7e2e24746a1f","system_id":"levelo_inurba_marseille","lat":43.29546,"lon":5.38555,"is_reserved":false,"is_disabled":false,"rental_uris":{"android":"levelo://app?vid=236eb851-54f4-4550-b34a-7e2e24746a1f","ios":"levelo://app?vid=236eb851-54f4-4550-b34a-7e2e24746a1f"},"vehicle_type_id":"4","last_reported":1735844819,"current_range_meters":38800,"station_id":"ce4bgih2rcd13ifvqba0","pricing_plan_id":"cebpf4jnsgd1na2vs0mg"},{"bike_id":"8a0259b2-4ac3-411a-87ae-2802134ed81d","system_id":"levelo_inurba_marseille","lat":43.28922,"lon":5.38389,"is_reserved":false,"is_disabled":false,"rental_uris":{"android":"levelo://app?vid=8a0259b2-4ac3-411a-87ae-2802134ed81d","ios":"levelo://app?vid=8a0259b2-4ac3-411a-87ae-2802134ed81d"},"vehicle_type_id":"4","last_reported":1735844819,"current_range_meters":38800,"station_id":"ce4bh612rcd13ifvqe6g","pricing_plan_id":"cebpf4jnsgd1na2vs0mg"},{"bike_id":"a676ef63-e767-4d39-8a20-d3ec5d025d88","system_id":"levelo_inurba_marseille","lat":43.258206,"lon":5.394343,"is_reserved":false,"is_disabled":false,"rental_uris":{"android":"levelo://app?vid=a676ef63-e767-4d39-8a20-d3ec5d025d88","ios":"levelo://app?vid=a676ef63-e767-4d39-8a20-d3ec5d025d88"},"vehicle_type_id":"4","last_reported":1735844819,"current_range_meters":12800,"station_id":"ce4bhip2rcd13ifvqft0","pricing_plan_id":"cebpf4jnsgd1na2vs0mg"},{"bike_id":"ff3724d3-70be-4346-8180-67541c2e6bb4","system_id":"levelo_inurba_marseille","lat":43.28927,"lon":5.38379,"is_reserved":false,"is_disabled":false,"rental_uris":{"android":"levelo://app?vid=ff3724d3-70be-4346-8180-67541c2e6bb4","ios":"levelo://app?vid=ff3724d3-70be-4346-8180-67541c2e6bb4"},"vehicle_type_id":"4","last_reported":1735844819,"current_range_meters":38800,"station_id":"ce4bh612rcd13ifvqe6g","pricing_plan_id":"cebpf4jnsgd1na2vs0mg"},{"bike_id":"de962f6e-17d7-4c5f-8b91-409b202d3ed7","system_id":"levelo_inurba_marseille","lat":43.29304,"lon":5.37467,"is_reserved":false,"is_disabled":false,"rental_uris":{"android":"levelo://app?vid=de962f6e-17d7-4c5f-8b91-409b202d3ed7","ios":"levelo://app?vid=de962f6e-17d7-4c5f-8b91-409b202d3ed7"},"vehicle_type_id":"4","last_reported":1735844819,"current_range_meters":4800,"station_id":"ce4bgi12rcd13ifvqb70","pricing_plan_id":"cebpf4jnsgd1na2vs0mg"},{"bike_id":"a9e62202-e3d5-494c-9cca-7476998a7982","system_id":"levelo_inurba_marseille","lat":43.28705,"lon":5.37893,"is_reserved":false,"is_disabled":false,"rental_uris":{"android":"levelo://app?vid=a9e62202-e3d5-494c-9cca-7476998a7982","ios":"levelo://app?vid=a9e62202-e3d5-494c-9cca-7476998a7982"},"vehicle_type_id":"4","last_reported":1735844819,"current_range_meters":39200,"station_id":"ce4bh9p2rcd13ifvqec0","pricing_plan_id":"cebpf4jnsgd1na2vs0mg"},{"bike_id":"392683b3-d3c1-4072-8663-5cc3a61985e8","system_id":"levelo_inurba_marseille","lat":43.31072,"lon":5.38361,"is_reserved":false,"is_disabled":false,"rental_uris":{"android":"levelo://app?vid=392683b3-d3c1-4072-8663-5cc3a61985e8","ios":"levelo://app?vid=392683b3-d3c1-4072-8663-5cc3a61985e8"},"vehicle_type_id":"4","last_reported":1735844819,"current_range_meters":20800,"station_id":"ce4bgv92rcd13ifvqcr0","pricing_plan_id":"cebpf4jnsgd1na2vs0mg"},{"bike_id":"898ebcfa-1a27-4789-af7e-27b090bbcc03","system_id":"levelo_inurba_marseille","lat":43.28861,"lon":5.39332,"is_reserved":false,"is_disabled":false,"rental_uris":{"android":"levelo://app?vid=898ebcfa-1a27-4789-af7e-27b090bbcc03","ios":"levelo://app?vid=898ebcfa-1a27-4789-af7e-27b090bbcc03"},"vehicle_type_id":"4","last_reported":1735844819,"current_range_meters":17600,"station_id":"ce4bh2p2rcd13ifvqdi0","pricing_plan_id":"cebpf4jnsgd1na2vs0mg"},{"bike_id":"c14d1989-a72f-4241-a582-39661d0bcfcf","system_id":"levelo_inurba_marseille","lat":43.23191,"lon":5.35532,"is_reserved":false,"is_disabled":false,"rental_uris":{"android":"levelo://app?vid=c14d1989-a72f-4241-a582-39661d0bcfcf","ios":"levelo://app?vid=c14d1989-a72f-4241-a582-39661d0bcfcf"},"vehicle_type_id":"4","last_reported":1735844819,"current_range_meters":38800,"station_id":"ce4bhu92rcd13ifvqi70","pricing_plan_id":"cebpf4jnsgd1na2vs0mg"},{"bike_id":"ef72cdb4-465d-4178-b952-49906f159c48","system_id":"levelo_inurba_marseille","lat":43.28149,"lon":5.42608,"is_reserved":false,"is_disabled":false,"rental_uris":{"android":"levelo://app?vid=ef72cdb4-465d-4178-b952-49906f159c48","ios":"levelo://app?vid=ef72cdb4-465d-4178-b952-49906f159c48"},"vehicle_type_id":"4","last_reported":1735844819,"current_range_meters":25600,"station_id":"ce4bhnh2rcd13ifvqgug","pricing_plan_id":"cebpf4jnsgd1na2vs0mg"},{"bike_id":"596bd53c-1d53-429c-b682-83ebfabc7a2e","system_id":"levelo_inurba_marseille","lat":43.26207,"lon":5.37934,"is_reserved":false,"is_disabled":false,"rental_uris":{"android":"levelo://app?vid=596bd53c-1d53-429c-b682-83ebfabc7a2e","ios":"levelo://app?vid=596bd53c-1d53-429c-b682-83ebfabc7a2e"},"vehicle_type_id":"4","last_reported":1735844819,"current_range_meters":22000,"station_id":"ce4bhjp2rcd13ifvqg90","pricing_plan_id":"cebpf4jnsgd1na2vs0mg"},{"bike_id":"cd799ed6-4897-449a-b65c-1cec7ac6afaf","system_id":"levelo_inurba_marseille","lat":43.30808,"lon":5.38165,"is_reserved":false,"is_disabled":true,"rental_uris":{"android":"levelo://app?vid=cd799ed6-4897-449a-b65c-1cec7ac6afaf","ios":"levelo://app?vid=cd799ed6-4897-449a-b65c-1cec7ac6afaf"},"vehicle_type_id":"4","last_reported":1735844819,"current_range_meters":28800,"station_id":"ce4bgt12rcd13ifvqce0","pricing_plan_id":"cebpf4jnsgd1na2vs0mg"},{"bike_id":"db8f07f7-aa9b-48c7-abf8-2ff7b7c7eb58","system_id":"levelo_inurba_marseille","lat":43.31481,"lon":5.3731,"is_reserved":false,"is_disabled":false,"rental_uris":{"android":"levelo://app?vid=db8f07f7-aa9b-48c7-abf8-2ff7b7c7eb58","ios":"levelo://app?vid=db8f07f7-aa9b-48c7-abf8-2ff7b7c7eb58"},"vehicle_type_id":"4","last_reported":1735844819,"current_range_meters":7200,"station_id":"ce4bgt12rcd13ifvqcd0","pricing_plan_id":"cebpf4jnsgd1na2vs0mg"},{"bike_id":"0b1c27a8-912f-47de-83f1-1d9fe5bc3168","system_id":"levelo_inurba_marseille","lat":43.24826,"lon":5.37454,"is_reserved":false,"is_disabled":true,"rental_uris":{"android":"levelo://app?vid=0b1c27a8-912f-47de-83f1-1d9fe5bc3168","ios":"levelo://app?vid=0b1c27a8-912f-47de-83f1-1d9fe5bc3168"},"vehicle_type_id":"4","last_reported":1735844819,"current_range_meters":4000,"station_id":"ce4bhgh2rcd13ifvqfb0","pricing_plan_id":"cebpf4jnsgd1na2vs0mg"},{"bike_id":"e2db395a-8d24-440e-9e8a-fceb63f61ec2","system_id":"levelo_inurba_marseille","lat":43.322948,"lon":5.382633,"is_reserved":false,"is_disabled":false,"rental_uris":{"android":"levelo://app?vid=e2db395a-8d24-440e-9e8a-fceb63f61ec2","ios":"levelo://app?vid=e2db395a-8d24-440e-9e8a-fceb63f61ec2"},"vehicle_type_id":"4","last_reported":1735844819,"current_range_meters":36800,"station_id":"ce4bhr12rcd13ifvqhqg","pricing_plan_id":"cebpf4jnsgd1na2vs0mg"},{"bike_id":"20b2e632-0341-4a15-81f5-2e933b1eae18","system_id":"levelo_inurba_marseille","lat":43.29878,"lon":5.38915,"is_reserved":false,"is_disabled":false,"rental_uris":{"android":"levelo://app?vid=20b2e632-0341-4a15-81f5-2e933b1eae18","ios":"levelo://app?vid=20b2e632-0341-4a15-81f5-2e933b1eae18"},"vehicle_type_id":"4","last_reported":1735844819,"current_range_meters":38000,"station_id":"ce4bh392rcd13ifvqdl0","pricing_plan_id":"cebpf4jnsgd1na2vs0mg"},{"bike_id":"7decfe87-cf22-4b0b-b1d5-9ab8fd2c42e0","system_id":"levelo_inurba_marseille","lat":43.26782,"lon":5.39418,"is_reserved":false,"is_disabled":false,"rental_uris":{"android":"levelo://app?vid=7decfe87-cf22-4b0b-b1d5-9ab8fd2c42e0","ios":"levelo://app?vid=7decfe87-cf22-4b0b-b1d5-9ab8fd2c42e0"},"vehicle_type_id":"4","last_reported":1735844819,"current_range_meters":38800,"station_id":"ce4bhh12rcd13ifvqfg0","pricing_plan_id":"cebpf4jnsgd1na2vs0mg"},{"bike_id":"44377e14-c431-47f9-879d-d27236127509","system_id":"levelo_inurba_marseille","lat":43.25824,"lon":5.39398,"is_reserved":false,"is_disabled":false,"rental_uris":{"android":"levelo://app?vid=44377e14-c431-47f9-879d-d27236127509","ios":"levelo://app?vid=44377e14-c431-47f9-879d-d27236127509"},"vehicle_type_id":"4","last_reported":1735844819,"current_range_meters":17200,"station_id":"ce4bhip2rcd13ifvqft0","pricing_plan_id":"cebpf4jnsgd1na2vs0mg"},{"bike_id":"b3da09ff-65c8-493d-8df3-946b63f84047","system_id":"levelo_inurba_marseille","lat":43.24805,"lon":5.37452,"is_reserved":false,"is_disabled":false,"rental_uris":{"android":"levelo://app?vid=b3da09ff-65c8-493d-8df3-946b63f84047","ios":"levelo://app?vid=b3da09ff-65c8-493d-8df3-946b63f84047"},"vehicle_type_id":"4","last_reported":1735844819,"current_range_meters":24000,"station_id":"ce4bhgh2rcd13ifvqfb0","pricing_plan_id":"cebpf4jnsgd1na2vs0mg"},{"bike_id":"34535594-ceb9-4842-97f7-a9b9fbaa6b25","system_id":"levelo_inurba_marseille","lat":43.29573,"lon":5.37504,"is_reserved":false,"is_disabled":true,"rental_uris":{"android":"levelo://app?vid=34535594-ceb9-4842-97f7-a9b9fbaa6b25","ios":"levelo://app?vid=34535594-ceb9-4842-97f7-a9b9fbaa6b25"},"vehicle_type_id":"4","last_reported":1735844819,"current_range_meters":0,"station_id":"ce4bgh92rcd13ifvqb50","pricing_plan_id":"cebpf4jnsgd1na2vs0mg"},{"bike_id":"82569e76-c3f1-4daf-8f32-2279993e8474","system_id":"levelo_inurba_marseille","lat":43.281,"lon":5.3783,"is_reserved":false,"is_disabled":false,"rental_uris":{"android":"levelo://app?vid=82569e76-c3f1-4daf-8f32-2279993e8474","ios":"levelo://app?vid=82569e76-c3f1-4daf-8f32-2279993e8474"},"vehicle_type_id":"4","last_reported":1735844819,"current_range_meters":33200,"station_id":"ce4bha12rcd13ifvqee0","pricing_plan_id":"cebpf4jnsgd1na2vs0mg"},