{"last_updated":1728418054,"ttl":60,"version":"2.2","data":{"bikes":[{"bike_id":"5e298f33-cbb1-41c7-9d1f-6b6ff9bda3e9","system_id":"levelo_inurba_marseille","lat":43.25862,"lon":5.399,"is_reserved":false,"is_disabled":false,"rental_uris":{"android":"levelo://app?vid=5e298f33-cbb1-41c7-9d1f-6b6ff9bda3e9","ios":"levelo://app?vid=5e298f33-cbb1-41c7-9d1f-6b6ff9bda3e9"},"vehicle_type_id":"4","last_reported":1728418054,"current_range_meters":37600,"station_id":"ce4bhl92rcd13ifvqghg","pricing_plan_id":"cebpf4jnsgd1na2vs0mg"},{"bike_id":"a35661b2-b710-4aed-96d4-0351ce96658b","system_id":"levelo_inurba_marseille","lat":43.27616,"lon":5.36115,"is_reserved":false,"is_disabled":false,"rental_uris":{"android":"levelo://app?vid=a35661b2-b710-4aed-96d4-0351ce96658b","ios":"levelo://app?vid=a35661b2-b710-4aed-96d4-0351ce96658b"},"vehicle_type_id":"4","last_reported":1728418054,"current_range_meters":31200,"station_id":"ce4bgj92rcd13ifvqbe0","pricing_plan_id":"cebpf4jnsgd1na2vs0mg"},{"bike_id":"d122ac7c-0d91-41d3-8a95-2bbce4d03cfb","system_id":"levelo_inurba_marseille","lat":43.29001,"lon":5.35616,"is_reserved":false,"is_disabled":false,"rental_uris":{"android":"levelo://app?vid=d122ac7c-0d91-41d3-8a95-2bbce4d03cfb","ios":"levelo://app?vid=d122ac7c-0d91-41d3-8a95-2bbce4d03cfb"},"vehicle_type_id":"4","last_reported":1728418054,"current_range_meters":34800,"station_id":"ce4bhb92rcd13ifvqen0","pricing_plan_id":"cebpf4jnsgd1na2vs0mg"},{"bike_id":"75f11660-7622-4c47-b2e5-57a2baeae5dd","system_id":"levelo_inurba_marseille","lat":43.27371,"lon":5.36269,"is_reserved":false,"is_disabled":false,"rental_uris":{"android":"levelo://app?vid=75f11660-7622-4c47-b2e5-57a2baeae5dd","ios":"levelo://app?vid=75f11660-7622-4c47-b2e5-57a2baeae5dd"},"vehicle_type_id":"4","last_reported":1728418054,"current_range_meters":36800,"station_id":"ce4bhbh2rcd13ifvqeo0","pricing_plan_id":"cebpf4jnsgd1na2vs0mg"},{"bike_id":"cd8f648d-3604-4910-8e4a-b926818f72e2","system_id":"levelo_inurba_marseille","lat":43.23065,"lon":5.35491,"is_reserved":false,"is_disabled":false,"rental_uris":{"android":"levelo://app?vid=cd8f648d-3604-4910-8e4a-b926818f72e2","ios":"levelo://app?vid=cd8f648d-3604-4910-8e4a-b926818f72e2"},"vehicle_type_id":"4","last_reported":1728418054,"current_range_meters":11600,"station_id":"cpo3342slgdg3j2ifvpg","pricing_plan_id":"cebpf4jnsgd1na2vs0mg"},{"bike_id":"66bdefe7-c4b7-480a-b5b9-2537a650d9d0","system_id":"levelo_inurba_marseille","lat":43.3122,"lon":5.36859,"is_reserved":false,"is_disabled":false,"rental_uris":{"android":"levelo://app?vid=66bdefe7-c4b7-480a-b5b9-2537a650d9d0","ios":"levelo://app?vid=66bdefe7-c4b7-480a-b5b9-2537a650d9d0"},"vehicle_type_id":"4","last_reported":1728418054,"current_range_meters":10800,"station_id":"ce4bgl92rcd13ifvqbq0","pricing_plan_id":"cebpf4jnsgd1na2vs0mg"},{"bike_id":"adf7750d-2d96-49bd-88db-eeb16e7ff5b1","system_id":"levelo_inurba_marseille","lat":43.3234,"lon":5.40623,"is_reserved":false,"is_disabled":false,"rental_uris":{"android":"levelo://app?vid=adf7750d-2d96-49bd-88db-eeb16e7ff5b1","ios":"levelo://app?vid=adf7750d-2d96-49bd-88db-eeb16e7ff5b1"},"vehicle_type_id":"4","last_reported":1728418054,"current_range_meters":2800,"station_id":"","pricing_plan_id":"cebpf4jnsgd1na2vs0mg"},{"bike_id":"f9f1e29f-3d94-461a-95a6-95dabe1d8148","system_id":"levelo_inurba_marseille","lat":43.28842,"lon":5.39322,"is_reserved":false,"is_disabled":false,"rental_uris":{"android":"levelo://app?vid=f9f1e29f-3d94-461a-95a6-95dabe1d8148","ios":"levelo://app?vid=f9f1e29f-3d94-461a-95a6-95dabe1d8148"},"vehicle_type_id":"4","last_reported":1728418054,"current_range_meters":3600,"station_id":"ce4bh2p2rcd13ifvqdi0","pricing_plan_id":"cebpf4jnsgd1na2vs0mg"},{"bike_id":"3ffdc902-ad3c-42a6-a003-615b3665f693","system_id":"levelo_inurba_marseille","lat":43.2861,"lon":5.370645,"is_reserved":false,"is_disabled":false,"rental_uris":{"android":"levelo://app?vid=3ffdc902-ad3c-42a6-a003-615b3665f693","ios":"levelo://app?vid=3ffdc902-ad3c-42a6-a003-615b3665f693"},"vehicle_type_id":"4","last_reported":1728418054,"current_range_meters":8800,"station_id":"ce4bgv92rcd13ifvqcq0","pricing_plan_id":"cebpf4jnsgd1na2vs0mg"},{"bike_id":"3ce9e0b4-5708-4409-a3c5-9769bd47e8e3","system_id":"levelo_inurba_marseille","lat":43.32033,"lon":5.41555,"is_reserved":false,"is_disabled":false,"rental_uris":{"android":"levelo://app?vid=3ce9e0b4-5708-4409-a3c5-9769bd47e8e3","ios":"levelo://app?vid=3ce9e0b4-5708-4409-a3c5-9769bd47e8e3"},"vehicle_type_id":"4","last_reported":1728418054,"current_range_meters":27600,"station_id":"ce4bhq92rcd13ifvqhkg","pricing_plan_id":"cebpf4jnsgd1na2vs0mg"},{"bike_id":"38078541-ab86-48d6-abbd-7d13aebfd48d","system_id":"levelo_inurba_marseille","lat":43.29505,"lon":5.42265,"is_reserved":false,"is_disabled":false,"rental_uris":{"android":"levelo://app?vid=38078541-ab86-48d6-abbd-7d13aebfd48d","ios":"levelo://app?vid=38078541-ab86-48d6-abbd-7d13aebfd48d"},"vehicle_type_id":"4","last_reported":1728418054,"current_range_meters":6400,"station_id":"ce4bh0p2rcd13ifvqd70","pricing_plan_id":"cebpf4jnsgd1na2vs0mg"},{"bike_id":"cf8f16fb-4580-41c1-9847-689c326f31cc","system_id":"levelo_inurba_marseille","lat":43.31168,"lon":5.38717,"is_reserved":false,"is_disabled":false,"rental_uris":{"android":"levelo://app?vid=cf8f16fb-4580-41c1-9847-689c326f31cc","ios":"levelo://app?vid=cf8f16fb-4580-41c1-9847-689c326f31cc"},"vehicle_type_id":"4","last_reported":1728418054,"current_range_meters":31200,"station_id":"ce4bgv12rcd13ifvqcp0","pricing_plan_id":"cebpf4jnsgd1na2vs0mg"},{"bike_id":"dd70a138-7deb-47a6-9ed6-18706aefb9b3","system_id":"levelo_inurba_marseille","lat":43.30233,"lon":5.39474,"is_reserved":false,"is_disabled":false,"rental_uris":{"android":"levelo://app?vid=dd70a138-7deb-47a6-9ed6-18706aefb9b3","ios":"levelo://app?vid=dd70a138-7deb-47a6-9ed6-18706aefb9b3"},"vehicle_type_id":"4","last_reported":1728418054,"current_range_meters":9200,"station_id":"ce4bh0p2rcd13ifvqd70","pricing_plan_id":"cebpf4jnsgd1na2vs0mg"},{"bike_id":"85164a91-4a02-4619-94ab-ed31f7725bff","system_id":"levelo_inurba_marseille","lat":43.26213,"lon":5.37441,"is_reserved":false,"is_disabled":false,"rental_uris":{"android":"levelo://app?vid=85164a91-4a02-4619-94ab-ed31f7725bff","ios":"levelo://app?vid=85164a91-4a02-4619-94ab-ed31f7725bff"},"vehicle_type_id":"4","last_reported":1728418054,"current_range_meters":10000,"station_id":"ce4bhgp2rcd13ifvqfc0","pricing_plan_id":"cebpf4jnsgd1na2vs0mg"},{"bike_id":"c383ee7b-21fb-4f73-a28d-385288d4939d","system_id":"levelo_inurba_marseille","lat":43.25089,"lon":5.39527,"is_reserved":false,"is_disabled":false,"rental_uris":{"android":"levelo://app?vid=c383ee7b-21fb-4f73-a28d-385288d4939d","ios":"levelo://app?vid=c383ee7b-21fb-4f73-a28d-385288d4939d"},"vehicle_type_id":"4","last_reported":1728418054,"current_range_meters":16000,"station_id":"ce4bhm12rcd13ifvqgkg","pricing_plan_id":"cebpf4jnsgd1na2vs0mg"},{"bike_id":"3835c92e-3bf9-4211-9e27-8bf627d200a6","system_id":"levelo_inurba_marseille","lat":43.30929,"lon":5.40147,"is_reserved":false,"is_disabled":false,"rental_uris":{"android":"levelo://app?vid=3835c92e-3bf9-4211-9e27-8bf627d200a6","ios":"levelo://app?vid=3835c92e-3bf9-4211-9e27-8bf627d200a6"},"vehicle_type_id":"4","last_reported":1728418054,"current_range_meters":29600,"station_id":"ce4bgvp2rcd13ifvqct0","pricing_plan_id":"cebpf4jnsgd1na2vs0mg"},{"bike_id":"2144f07d-f6df-4254-911c-b629e74209f9","system_id":"levelo_inurba_marseille","lat":43.23064,"lon":5.3549,"is_reserved":false,"is_disabled":false,"rental_uris":{"android":"levelo://app?vid=2144f07d-f6df-4254-911c-b629e74209f9","ios":"levelo://app?vid=2144f07d-f6df-4254-911c-b629e74209f9"},"vehicle_type_id":"4","last_reported":1728418054,"current_range_meters":5600,"station_id":"cpo3342slgdg3j2ifvpg","pricing_plan_id":"cebpf4jnsgd1na2vs0mg"},{"bike_id":"49de744f-30ae-4050-959d-189712ef8913","system_id":"levelo_inurba_marseille","lat":43.29288,"lon":5.40121,"is_reserved":false,"is_disabled":false,"rental_uris":{"android":"levelo://app?vid=49de744f-30ae-4050-959d-189712ef8913","ios":"levelo://app?vid=49de744f-30ae-4050-959d-189712ef8913"},"vehicle_type_id":"4","last_reported":1728418054,"current_range_meters":3600,"station_id":"ce4bh312rcd13ifvqdk0","pricing_plan_id":"cebpf4jnsgd1na2vs0mg"},{"bike_id":"dc044d99-2298-479c-8d77-f3c125080a79","system_id":"levelo_inurba_marseille","lat":43.32336,"lon":5.40624,"is_reserved":false,"is_disabled":false,"rental_uris":{"android":"levelo://app?vid=dc044d99-2298-479c-8d77-f3c125080a79","ios":"levelo://app?vid=dc044d99-2298-479c-8d77-f3c125080a79"},"vehicle_type_id":"4","last_reported":1728418054,"current_range_meters":6800,"station_id":"ce4bhq92rcd13ifvqhjg","pricing_plan_id":"cebpf4jnsgd1na2vs0mg"},{"bike_id":"1c5e9102-64cc-4162-ac44-ab9c67ef7cf6","system_id":"levelo_inurba_marseille","lat":43.3153,"lon":5.3803,"is_reserved":false,"is_disabled":false,"rental_uris":{"android":"levelo://app?vid=1c5e9102-64cc-4162-ac44-ab9c67ef7cf6","ios":"levelo://app?vid=1c5e9102-64cc-4162-ac44-ab9c67ef7cf6"},"vehicle_type_id":"4","last_reported":1728418054,"current_range_meters":38800,"station_id":"ce4bhsp2rcd13ifvqi50","pricing_plan_id":"cebpf4jnsgd1na2vs0mg"},{"bike_id":"468b1a9a-dc8b-4792-9c95-1832a914924f","system_id":"levelo_inurba_marseille","lat":43.29559,"lon":5.42287,"is_reserved":false,"is_disabled":false,"rental_uris":{"android":"levelo://app?vid=468b1a9a-dc8b-4792-9c95-1832a914924f","ios":"levelo://app?vid=468b1a9a-dc8b-4792-9c95-1832a914924f"},"vehicle_type_id":"4","last_reported":1728418054,"current_range_meters":3200,"station_id":"ce4bhph2rcd13ifvqhdg","pricing_plan_id":"cebpf4jnsgd1na2vs0mg"},{"bike_id":"e79e47f6-ca17-4ebb-8876-4879aae4f7fd","system_id":"levelo_inurba_marseille","lat":43.28453,"lon":5.35889,"is_reserved":false,"is_disabled":false,"rental_uris":{"android":"levelo://app?vid=e79e47f6-ca17-4ebb-8876-4879aae4f7fd","ios":"levelo://app?vid=e79e47f6-ca17-4ebb-8876-4879aae4f7fd"},"vehicle_type_id":"4","last_reported":1728418054,"current_range_meters":28800,"station_id":"ce4bhah2rcd13ifvqei0","pricing_plan_id":"cebpf4jnsgd1na2vs0mg"},{"bike_id":"728d6580-0a0d-4c50-a117-a8f67b546d67","system_id":"levelo_inurba_marseille","lat":43.2846,"lon":5.35887,"is_reserved":false,"is_disabled":false,"rental_uris":{"android":"levelo://app?vid=728d6580-0a0d-4c50-a117-a8f67b546d67","ios":"levelo://app?vid=728d6580-0a0d-4c50-a117-a8f67b546d67"},"vehicle_type_id":"4","last_reported":1728418054,"current_range_meters":36800,"station_id":"ce4bhah2rcd13ifvqei0","pricing_plan_id":"cebpf4jnsgd1na2vs0mg"},{"bike_id":"87197431-ee07-4ed3-815b-84c70514bc23","system_id":"levelo_inurba_marseille","lat":43.28455,"lon":5.35883,"is_reserved":false,"is_disabled":false,"rental_uris":{"android":"levelo://app?vid=87197431-ee07-4ed3-815b-84c70514bc23","ios":"levelo://app?vid=87197431-ee07-4ed3-815b-84c70514bc23"},"vehicle_type_id":"4","last_reported":1728418054,"current_range_meters":38800,"station_id":"ce4bhah2rcd13ifvqei0","pricing_plan_id":"cebpf4jnsgd1na2vs0mg"},{"bike_id":"90b7b815-be07-4d3f-a351-671d7e515226","system_id":"levelo_inurba_marseille","lat":43.24645,"lon":5.38889,"is_reserved":false,"is_disabled":false,"rental_uris":{"android":"levelo://app?vid=90b7b815-be07-4d3f-a351-671d7e515226","ios":"levelo://app?vid=90b7b815-be07-4d3f-a351-671d7e515226"},"vehicle_type_id":"4","last_reported":1728418054,"current_range_meters":16400,"station_id":"ce4bhg12rcd13ifvqf60","pricing_plan_id":"cebpf4jnsgd1na2vs0mg"},{"bike_id":"ef2b7807-dfbb-4e5d-8786-f2a4614caca6","system_id":"levelo_inurba_marseille","lat":43.29043,"lon":5.39968,"is_reserved":false,"is_disabled":false,"rental_uris":{"android":"levelo://app?vid=ef2b7807-dfbb-4e5d-8786-f2a4614caca6","ios":"levelo://app?vid=ef2b7807-dfbb-4e5d-8786-f2a4614caca6"},"vehicle_type_id":"4","last_reported":1728418054,"current_range_meters":36800,"station_id":"ce4bh392rcd13ifvqdm0","pricing_plan_id":"cebpf4jnsgd1na2vs0mg"},{"bike_id":"338b8d3a-d558-4aea-a23b-2c9fa34f22f5","system_id":"levelo_inurba_marseille","lat":43.27568,"lon":5.38433,"is_reserved":false,"is_disabled":false,"rental_uris":{"android":"levelo://app?vid=338b8d3a-d558-4aea-a23b-2c9fa34f22f5","ios":"levelo://app?vid=338b8d3a-d558-4aea-a23b-2c9fa34f22f5"},"vehicle_type_id":"4","last_reported":1728418054,"current_range_meters":2800,"station_id":"ce4bhh92rcd13ifvqfi0","pricing_plan_id":"cebpf4jnsgd1na2vs0mg"},{"bike_id":"3c4f366f-3eca-49af-b557-31db1e71e323","system_id":"levelo_inurba_marseille","lat":43.29621,"lon":5.405768,"is_reserved":false,"is_disabled":false,"rental_uris":{"android":"levelo://app?vid=3c4f366f-3eca-49af-b557-31db1e71e323","ios":"levelo://app?vid=3c4f366f-3eca-49af-b557-31db1e71e323"},"vehicle_type_id":"4","last_reported":1728418054,"current_range_meters":27200,"station_id":"ce4bh0h2rcd13ifvqd60","pricing_plan_id":"cebpf4jnsgd1na2vs0mg"},{"bike_id":"066ccb90-6b9a-4302-bde4-9c97dfce747d","system_id":"levelo_inurba_marseille","lat":43.33722,"lon":5.3919,"is_reserved":false,"is_disabled":false,"rental_uris":{"android":"levelo://app?vid=066ccb90-6b9a-4302-bde4-9c97dfce747d","ios":"levelo://app?vid=066ccb90-6b9a-4302-bde4-9c97dfce747d"},"vehicle_type_id":"4","last_reported":1728418054,"current_range_meters":36000,"station_id":"ce4bhr92rcd13ifvqhsg","pricing_plan_id":"cebpf4jnsgd1na2vs0mg"},{"bike_id":"2ae18a74-fe0c-4f23-b70a-757ea919f02a","system_id":"levelo_inurba_marseille","lat":43.30425,"lon":5.38886,"is_reserved":false,"is_disabled":false,"rental_uris":{"android":"levelo://app?vid=2ae18a74-fe0c-4f23-b70a-757ea919f02a","ios":"levelo://app?vid=2ae18a74-fe0c-4f23-b70a-757ea919f02a"},"vehicle_type_id":"4","last_reported":1728418054,"current_range_meters":27200,"station_id":"ce4bgk12rcd13ifvqbi0","pricing_plan_id":"cebpf4jnsgd1na2vs0mg"},{"bike_id":"78162ca2-a873-4095-b3f0-b96c3db339b0","system_id":"levelo_inurba_marseille","lat":43.28457,"lon":5.35899,"is_reserved":false,"is_disabled":false,"rental_uris":{"android":"levelo://app?vid=78162ca2-a873-4095-b3f0-b96c3db339b0","ios":"levelo://app?vid=78162ca2-a873-4095-b3f0-b96c3db339b0"},"vehicle_type_id":"4","last_reported":1728418054,"current_range_meters":16400,"station_id":"ce4bhah2rcd13ifvqei0","pricing_plan_id":"cebpf4jnsgd1na2vs0mg"},{"bike_id":"26deb83c-7d31-49fc-aca5-bc881f64f0bf","system_id":"levelo_inurba_marseille","lat":43.31167,"lon":5.38711,"is_reserved":false,"is_disabled":false,"rental_uris":{"android":"levelo://app?vid=26deb83c-7d31-49fc-aca5-bc881f64f0bf","ios":"levelo://app?vid=26deb83c-7d31-49fc-aca5-bc881f64f0bf"},"vehicle_type_id":"4","last_reported":1728418054,"current_range_meters":38800,"station_id":"ce4bgv12rcd13ifvqcp0","pricing_plan_id":"cebpf4jnsgd1na2vs0mg"},{"bike_id":"8c81a4b1-7025-4920-b034-cfb8aa6a4141","system_id":"levelo_inurba_marseille","lat":43.33608,"lon":5.41035,"is_reserved":false,"is_disabled":false,"rental_uris":{"android":"levelo://app?vid=8c81a4b1-7025-4920-b034-cfb8aa6a4141","ios":"levelo://app?vid=8c81a4b1-7025-4920-b034-cfb8aa6a4141"},"vehicle_type_id":"4","last_reported":1728418054,"current_range_meters":8400,"station_id":"ce4bhqh2rcd13ifvqhmg","pricing_plan_id":"cebpf4jnsgd1na2vs0mg"},{"bike_id":"35db5aab-a536-4286-87d7-90ec43783f24","system_id":"levelo_inurba_marseille","lat":43.23193,"lon":5.35554,"is_reserved":false,"is_disabled":false,"rental_uris":{"android":"levelo://app?vid=35db5aab-a536-4286-87d7-90ec43783f24","ios":"levelo://app?vid=35db5aab-a536-4286-87d7-90ec43783f24"},"vehicle_type_id":"4","last_reported":1728418054,"current_range_meters":28400,"station_id":"ce4bhu92rcd13ifvqi70","pricing_plan_id":"cebpf4jnsgd1na2vs0mg"},{"bike_id":"38ddae5c-ea52-44f4-bf89-1782607dbc3e","system_id":"levelo_inurba_marseille","lat":43.2952,"lon":5.38546,"is_reserved":false,"is_disabled":false,"rental_uris":{"android":"levelo://app?vid=38ddae5c-ea52-44f4-bf89-1782607dbc3e","ios":"levelo://app?vid=38ddae5c-ea52-44f4-bf89-1782607dbc3e"},"vehicle_type_id":"4","last_reported":1728418054,"current_range_meters":4800,"station_id":"ce4bgih2rcd13ifvqba0","pricing_plan_id":"cebpf4jnsgd1na2vs0mg"},{"bike_id":"f8651fb9-6db1-42c3-b707-a0153b1d457b","system_id":"levelo_inurba_marseille","lat":43.23184,"lon":5.39984,"is_reserved":false,"is_disabled":false,"rental_uris":{"android":"levelo://app?vid=f8651fb9-6db1-42c3-b707-a0153b1d457b","ios":"levelo://app?vid=f8651fb9-6db1-42c3-b707-a0153b1d457b"},"vehicle_type_id":"4","last_reported":1728418054,"current_range_meters":7200,"station_id":"ce4bhn12rcd13ifvqgqg","pricing_plan_id":"cebpf4jnsgd1na2vs0mg"},{"bike_id":"2d8d693b-6641-4fe1-97f9-6fe8c2ff6b28","system_id":"levelo_inurba_marseille","lat":43.29032,"lon":5.37565,"is_reserved":false,"is_disabled":false,"rental_uris":{"android":"levelo://app?vid=2d8d693b-6641-4fe1-97f9-6fe8c2ff6b28","ios":"levelo://app?vid=2d8d693b-6641-4fe1-97f9-6fe8c2ff6b28"},"vehicle_type_id":"4","last_reported":1728418054,"current_range_meters":6400,"station_id":"ce4bh692rcd13ifvqe90","pricing_plan_id":"cebpf4jnsgd1na2vs0mg"},{"bike_id":"d74661f0-830d-4988-b75c-49337b55f926","system_id":"levelo_inurba_marseille","lat":43.32153,"lon":5.38641,"is_reserved":false,"is_disabled":false,"rental_uris":{"android":"levelo://app?vid=d74661f0-830d-4988-b75c-49337b55f926","ios":"levelo://app?vid=d74661f0-830d-4988-b75c-49337b55f926"},"vehicle_type_id":"4","last_reported":1728418054,"current_range_meters":30800,"station_id":"","pricing_plan_id":"cebpf4jnsgd1na2vs0mg"},{"bike_id":"f2ca1e44-e304-48eb-ae87-fe965c250b6f","system_id":"levelo_inurba_marseille","lat":43.24663,"lon":5.38165,"is_reserved":false,"is_disabled":false,"rental_uris":{"android":"levelo://app?vid=f2ca1e44-e304-48eb-ae87-fe965c250b6f","ios":"levelo://app?vid=f2ca1e44-e304-48eb-ae87-fe965c250b6f"},"vehicle_type_id":"4","last_reported":1728418054,"current_range_meters":19200,"station_id":"ce4bhih2rcd13ifvqfr0","pricing_plan_id":"cebpf4jnsgd1na2vs0mg"},{"bike_id":"2795bedb-4905-4643-86e1-987aafd52090","system_id":"levelo_inurba_marseille","lat":43.24315,"lon":5.37976,"is_reserved":false,"is_disabled":false,"rental_uris":{"android":"levelo://app?vid=2795bedb-4905-4643-86e1-987aafd52090","ios":"levelo://app?vid=2795bedb-4905-4643-86e1-987aafd52090"},"vehicle_type_id":"4","last_reported":1728418054,"current_range_meters":18000,"station_id":"ce4bhnp2rcd13ifvqgvg","pricing_plan_id":"cebpf4jnsgd1na2vs0mg"},{"bike_id":"995578f9-3c6b-4d29-b275-7428d21add9a","system_id":"levelo_inurba_marseille","lat":43.27992,"lon":5.40012,"is_reserved":false,"is_disabled":false,"rental_uris":{"android":"levelo://app?vid=995578f9-3c6b-4d29-b275-7428d21add9a","ios":"levelo://app?vid=995578f9-3c6b-4d29-b275-7428d21add9a"},"vehicle_type_id":"4","last_reported":1728418054,"current_range_meters":29600,"station_id":"ce4bho92rcd13ifvqh4g","pricing_plan_id":"cebpf4jnsgd1na2vs0mg"},{"bike_id":"9dcfb907-c7dd-4c2d-a961-3d4ea695a7fe","system_id":"levelo_inurba_marseille","lat":43.28614,"lon":5.35105,"is_reserved":false,"is_disabled":false,"rental_uris":{"android":"levelo://app?vid=9dcfb907-c7dd-4c2d-a961-3d4ea695a7fe","ios":"levelo://app?vid=9dcfb907-c7dd-4c2d-a961-3d4ea695a7fe"},"vehicle_type_id":"4","last_reported":1728418054,"current_range_meters":11600,"station_id":"ce4bhch2rcd13ifvqeug","pricing_plan_id":"cebpf4jnsgd1na2vs0mg"},{"bike_id":"14578538-07ea-4061-88ab-838f1fb2830e","system_id":"levelo_inurba_marseille","lat":43.28702,"lon":5.39975,"is_reserved":false,"is_disabled":false,"rental_uris":{"android":"levelo://app?vid=14578538-07ea-4061-88ab-838f1fb2830e","ios":"levelo://app?vid=14578538-07ea-4061-88ab-838f1fb2830e"},"vehicle_type_id":"4","last_reported":1728418054,"current_range_meters":5600,"station_id":"ce4bho92rcd13ifvqh3g","pricing_plan_id":"cebpf4jnsgd1na2vs0mg"},{"bike_id":"cd7210ea-db1b-4d17-850e-bb3cfd66e237","system_id":"levelo_inurba_marseille","lat":43.28077,"lon":5.39651,"is_reserved":false,"is_disabled":false,"rental_uris":{"android":"levelo://app?vid=cd7210ea-db1b-4d17-850e-bb3cfd66e237","ios":"levelo://app?vid=cd7210ea-db1b-4d17-850e-bb3cfd66e237"},"vehicle_type_id":"4","last_reported":1728418054,"current_range_meters":8800,"station_id":"ce4bho12rcd13ifvqh2g","pricing_plan_id":"cebpf4jnsgd1na2vs0mg"},{"bike_id":"72f390d6-8036-4225-a9fd-bbdc6e34eeea","system_id":"levelo_inurba_marseille","lat":43.23186,"lon":5.39997,"is_reserved":false,"is_disabled":false,"rental_uris":{"android":"levelo://app?vid=72f390d6-8036-4225-a9fd-bbdc6e34eeea","ios":"levelo://app?vid=72f390d6-8036-4225-a9fd-bbdc6e34eeea"},"vehicle_type_id":"4","last_reported":1728418054,"current_range_meters":36400,"station_id":"ce4bhn12rcd13ifvqgqg","pricing_plan_id":"cebpf4jnsgd1na2vs0mg"},{"bike_id":"714107bd-ae76-4985-a869-3353cdfa3255","system_id":"levelo_inurba_marseille","lat":43.322784,"lon":5.383048,"is_reserved":false,"is_disabled":false,"rental_uris":{"android":"levelo://app?vid=714107bd-ae76-4985-a869-3353cdfa3255","ios":"levelo://app?vid=714107bd-ae76-4985-a869-3353cdfa3255"},"vehicle_type_id":"4","last_reported":1728418054,"current_range_meters":5600,"station_id":"ce4bhr12rcd13ifvqhqg","pricing_plan_id":"cebpf4jnsgd1na2vs0mg"},{"bike_id":"11cd30c8-d447-4a8a-ad0f-609e16e92e48","system_id":"levelo_inurba_marseille","lat":43.24802,"lon":5.37456,"is_reserved":false,"is_disabled":false,"rental_uris":{"android":"levelo://app?vid=11cd30c8-d447-4a8a-ad0f-609e16e92e48","ios":"levelo://app?vid=11cd30c8-d447-4a8a-ad0f-609e16e92e48"},"vehicle_type_id":"4","last_reported":1728418054,"current_range_meters":39200,"station_id":"ce4bhgh2rcd13ifvqfb0","pricing_plan_id":"cebpf4jnsgd1na2vs0mg"},{"bike_id":"2bb8ae6c-7b17-45f6-ae2f-a94631598955","system_id":"levelo_inurba_marseille","lat":43.22928,"lon":5.35377,"is_reserved":false,"is_disabled":false,"rental_uris":{"android":"levelo://app?vid=2bb8ae6c-7b17-45f6-ae2f-a94631598955","ios":"levelo://app?vid=2bb8ae6c-7b17-45f6-ae2f-a94631598955"},"vehicle_type_id":"4","last_reported":1728418054,"current_range_meters":19600,"station_id":"cpo3532slgdg3j2ikp40","pricing_plan_id":"cebpf4jnsgd1na2vs0mg"},{"bike_id":"1108f945-2562-4a37-b07f-6ae5d87c264e","system_id":"levelo_inurba_marseille","lat":43.337444,"lon":5.374475,"is_reserved":false,"is_disabled":false,"rental_uris":{"android":"levelo://app?vid=1108f945-2562-4a37-b07f-6ae5d87c264e","ios":"levelo://app?vid=1108f945-2562-4a37-b07f-6ae5d87c264e"},"vehicle_type_id":"4","last_reported":1728418054,"current_range_meters":36400,"station_id":"","pricing_plan_id":"cebpf4jnsgd1na2vs0mg"},{"bike_id":"b4c76401-0432-4f05-908b-d6e6c8549326","system_id":"levelo_inurba_marseille","lat":43.3133,"lon":5.39695,"is_reserved":false,"is_disabled":false,"rental_uris":{"android":"levelo://app?vid=b4c76401-0432-4f05-908b-d6e6c8549326","ios":"levelo://app?vid=b4c76401-0432-4f05-908b-d6e6c8549326"},"vehicle_type_id":"4","last_reported":1728418054,"current_range_meters":38800,"station_id":"ce4bgvp2rcd13ifvqcu0","pricing_plan_id":"cebpf4jnsgd1na2vs0mg"},{"bike_id":"d97ef086-b101-46be-b171-9933c814020e","system_id":"levelo_inurba_marseille","lat":43.32541,"lon":5.41434,"is_reserved":false,"is_disabled":false,"rental_uris":{"android":"levelo://app?vid=d97ef086-b101-46be-b171-9933c814020e","ios":"levelo://app?vid=d97ef086-b101-46be-b171-9933c814020e"},"vehicle_type_id":"4","last_reported":1728418054,"current_range_meters":24800,"station_id":"ce4bhq12rcd13ifvqhhg","pricing_plan_id":"cebpf4jnsgd1na2vs0mg"},{"bike_id":"fbf66dcf-08d2-4e2a-9878-16b1e21d2b5a","system_id":"levelo_inurba_marseille","lat":43.29523,"lon":5.39407,"is_reserved":false,"is_disabled":false,"rental_uris":{"android":"levelo://app?vid=fbf66dcf-08d2-4e2a-9878-16b1e21d2b5a","ios":"levelo://app?vid=fbf66dcf-08d2-4e2a-9878-16b1e21d2b5a"},"vehicle_type_id":"4","last_reported":1728418054,"current_range_meters":36000,"station_id":"ce4bh292rcd13ifvqdf0","pricing_plan_id":"cebpf4jnsgd1na2vs0mg"},{"bike_id":"c887f412-ea8d-487c-ab0e-69fd90f37ecb","system_id":"levelo_inurba_marseille","lat":43.33602,"lon":5.41037,"is_reserved":false,"is_disabled":false,"rental_uris":{"android":"levelo://app?vid=c887f412-ea8d-487c-ab0e-69fd90f37ecb","ios":"levelo://app?vid=c887f412-ea8d-487c-ab0e-69fd90f37ecb"},"vehicle_type_id":"4","last_reported":1728418054,"current_range_meters":37600,"station_id":"ce4bhqh2rcd13ifvqhmg","pricing_plan_id":"cebpf4jnsgd1na2vs0mg"},{"bike_id":"bf57d99d-cd9d-412c-8b9f-06e5163d7f35","system_id":"levelo_inurba_marseille","lat":43.28421,"lon":5.38457,"is_reserved":false,"is_disabled":false,"rental_uris":{"android":"levelo://app?vid=bf57d99d-cd9d-412c-8b9f-06e5163d7f35","ios":"levelo://app?vid=bf57d99d-cd9d-412c-8b9f-06e5163d7f35"},"vehicle_type_id":"4","last_reported":1728418054,"current_range_meters":7200,"station_id":"","pricing_plan_id":"cebpf4jnsgd1na2vs0mg"},{"bike_id":"c12c46a4-bd86-493d-803e-5d507cd7924b","system_id":"levelo_inurba_marseille","lat":43.23201,"lon":5.35546,"is_reserved":false,"is_disabled":false,"rental_uris":{"android":"levelo://app?vid=c12c46a4-bd86-493d-803e-5d507cd7924b","ios":"levelo://app?vid=c12c46a4-bd86-493d-803e-5d507cd7924b"},"vehicle_type_id":"4","last_reported":1728418054,"current_range_meters":16800,"station_id":"ce4bhu92rcd13ifvqi70","pricing_plan_id":"cebpf4jnsgd1na2vs0mg"},{"bike_id":"1e22ea5d-d406-4b63-92d6-06a783dc0af8","system_id":"levelo_inurba_marseille","lat":43.23173,"lon":5.39985,"is_reserved":false,"is_disabled":false,"rental_uris":{"android":"levelo://app?vid=1e22ea5d-d406-4b63-92d6-06a783dc0af8","ios":"levelo://app?vid=1e22ea5d-d406-4b63-92d6-06a783dc0af8"},"vehicle_type_id":"4","last_reported":1728418054,"current_range_meters":16400,"station_id":"ce4bhn12rcd13ifvqgqg","pricing_plan_id":"cebpf4jnsgd1na2vs0mg"},{"bike_id":"8342a0a5-17b2-4524-a2d2-e2cbce1247d1","system_id":"levelo_inurba_marseille","lat":43.25088,"lon":5.39516,"is_reserved":false,"is_disabled":false,"rental_uris":{"android":"levelo://app?vid=8342a0a5-17b2-4524-a2d2-e2cbce1247d1","ios":"levelo://app?vid=8342a0a5-17b2-4524-a2d2-e2cbce1247d1"},"vehicle_type_id":"4","last_reported":1728418054,"current_range_meters":16000,"station_id":"ce4bhm12rcd13ifvqgkg","pricing_plan_id":"cebpf4jnsgd1na2vs0mg"},{"bike_id":"662f4970-f45a-4eb7-8b5b-5f2d14dbdf57","system_id":"levelo_inurba_marseille","lat":43.26684,"lon":5.38284,"is_reserved":false,"is_disabled":false,"rental_uris":{"android":"levelo://app?vid=662f4970-f45a-4eb7-8b5b-5f2d14dbdf57","ios":"levelo://app?vid=662f4970-f45a-4eb7-8b5b-5f2d14dbdf57"},"vehicle_type_id":"4","last_reported":1728418054,"current_range_meters":36000,"station_id":"ce4bhg92rcd13ifvqf90","pricing_plan_id":"cebpf4jnsgd1na2vs0mg"},{"bike_id":"0574c1a0-3cc8-4f7d-b926-8637ca5584a1","system_id":"levelo_inurba_marseille","lat":43.28271,"lon":5.35074,"is_reserved":false,"is_disabled":false,"rental_uris":{"android":"levelo://app?vid=0574c1a0-3cc8-4f7d-b926-8637ca5584a1","ios":"levelo://app?vid=0574c1a0-3cc8-4f7d-b926-8637ca5584a1"},"vehicle_type_id":"4","last_reported":1728418054,"current_range_meters":38400,"station_id":"ce4bhbp2rcd13ifvqerg","pricing_plan_id":"cebpf4jnsgd1na2vs0mg"},{"bike_id":"a5a5feab-d32c-4554-8673-7086f7471371","system_id":"levelo_inurba_marseille","lat":43.2957,"lon":5.39969,"is_reserved":false,"is_disabled":false,"rental_uris":{"android":"levelo://app?vid=a5a5feab-d32c-4554-8673-7086f7471371","ios":"levelo://app?vid=a5a5feab-d32c-4554-8673-7086f7471371"},"vehicle_type_id":"4","last_reported":1728418054,"current_range_meters":16800,"station_id":"ce4bh312rcd13ifvqdj0","pricing_plan_id":"cebpf4jnsgd1na2vs0mg"},{"bike_id":"b72ac35d-165c-4122-9ae2-07ef327bbbb0","system_id":"levelo_inurba_marseille","lat":43.31168,"lon":5.38716,"is_reserved":false,"is_disabled":false,"rental_uris":{"android":"levelo://app?vid=b72ac35d-165c-4122-9ae2-07ef327bbbb0","ios":"levelo://app?vid=b72ac35d-165c-4122-9ae2-07ef327bbbb0"},"vehicle_type_id":"4","last_reported":1728418054,"current_range_meters":38800,"station_id":"ce4bgv12rcd13ifvqcp0","pricing_plan_id":"cebpf4jnsgd1na2vs0mg"},{"bike_id":"04ee6695-44e4-460f-b299-a9be5883ad54","system_id":"levelo_inurba_marseille","lat":43.29533,"lon":5.37497,"is_reserved":false,"is_disabled":false,"rental_uris":{"android":"levelo://app?vid=04ee6695-44e4-460f-b299-a9be5883ad54","ios":"levelo://app?vid=04ee6695-44e4-460f-b299-a9be5883ad54"},"vehicle_type_id":"4","last_reported":1728418054,"current_range_meters":38800,"station_id":"ce4bgkp2rcd13ifvqbmg","pricing_plan_id":"cebpf4jnsgd1na2vs0mg"},{"bike_id":"0f4a81d1-178a-4423-a9c5-4f762876e359","system_id":"levelo_inurba_marseille","lat":43.27996,"lon":5.40011,"is_reserved":false,"is_disabled":false,"rental_uris":{"android":"levelo://app?vid=0f4a81d1-178a-4423-a9c5-4f762876e359","ios":"levelo://app?vid=0f4a81d1-178a-4423-a9c5-4f762876e359"},"vehicle_type_id":"4","last_reported":1728418054,"current_range_meters":6400,"station_id":"ce4bho92rcd13ifvqh4g","pricing_plan_id":"cebpf4jnsgd1na2vs0mg"},{"bike_id":"ce0b03a7-4b03-4bd7-928b-a4a84159b584","system_id":"levelo_inurba_marseille","lat":43.23959,"lon":5.3663,"is_reserved":false,"is_disabled":false,"rental_uris":{"android":"levelo://app?vid=ce0b03a7-4b03-4bd7-928b-a4a84159b584","ios":"levelo://app?vid=ce0b03a7-4b03-4bd7-928b-a4a84159b584"},"vehicle_type_id":"4","last_reported":1728418054,"current_range_meters":37600,"station_id":"ce4bhi12rcd13ifvqfp0","pricing_plan_id":"cebpf4jnsgd1na2vs0mg"},{"bike_id":"f2fb36e6-c40d-4117-91af-ee9819d24f58","system_id":"levelo_inurba_marseille","lat":43.29278,"lon":5.40116,"is_reserved":false,"is_disabled":false,"rental_uris":{"android":"levelo://app?vid=f2fb36e6-c40d-4117-91af-ee9819d24f58","ios":"levelo://app?vid=f2fb36e6-c40d-4117-91af-ee9819d24f58"},"vehicle_type_id":"4","last_reported":1728418054,"current_range_meters":36400,"station_id":"ce4bh312rcd13ifvqdk0","pricing_plan_id":"cebpf4jnsgd1na2vs0mg"},{"bike_id":"ec064514-133e-4489-9db9-c55c86f65b9b","system_id":"levelo_inurba_marseille","lat":43.28092,"lon":5.39663,"is_reserved":false,"is_disabled":false,"rental_uris":{"android":"levelo://app?vid=ec064514-133e-4489-9db9-c55c86f65b9b","ios":"levelo://app?vid=ec064514-133e-4489-9db9-c55c86f65b9b"},"vehicle_type_id":"4","last_reported":1728418054,"current_range_meters":0,"station_id":"ce4bho12rcd13ifvqh2g","pricing_plan_id":"cebpf4jnsgd1na2vs0mg"},{"bike_id":"d00a3477-782a-4de0-b711-15ed9dd434f4","system_id":"levelo_inurba_marseille","lat":43.23054,"lon":5.35488,"is_reserved":false,"is_disabled":false,"rental_uris":{"android":"levelo://app?vid=d00a3477-782a-4de0-b711-15ed9dd434f4","ios":"levelo://app?vid=d00a3477-782a-4de0-b711-15ed9dd434f4"},"vehicle_type_id":"4","last_reported":1728418054,"current_range_meters":2800,"station_id":"cpo3342slgdg3j2ifvpg","pricing_plan_id":"cebpf4jnsgd1na2vs0mg"},{"bike_id":"a96960fb-1ae0-4688-92ce-8bc122ef6c6a","system_id":"levelo_inurba_marseille","lat":43.31329,"lon":5.39691,"is_reserved":false,"is_disabled":false,"rental_uris":{"android":"levelo://app?vid=a96960fb-1ae0-4688-92ce-8bc122ef6c6a","ios":"levelo://app?vid=a96960fb-1ae0-4688-92ce-8bc122ef6c6a"},"vehicle_type_id":"4","last_reported":1728418054,"current_range_meters":38800,"station_id":"ce4bgvp2rcd13ifvqcu0","pricing_plan_id":"cebpf4jnsgd1na2vs0mg"},{"bike_id":"1a16b4b2-3882-45ac-8e9c-156fab61c883","system_id":"levelo_inurba_marseille","lat":43.2707,"lon":5.42281,"is_reserved":false,"is_disabled":false,"rental_uris":{"android":"levelo://app?vid=1a16b4b2-3882-45ac-8e9c-156fab61c883","ios":"levelo://app?vid=1a16b4b2-3882-45ac-8e9c-156fab61c883"},"vehicle_type_id":"4","last_reported":1728418054,"current_range_meters":5600,"station_id":"ce4bhk92rcd13ifvqgb0","pricing_plan_id":"cebpf4jnsgd1na2vs0mg"},{"bike_id":"61bb2e34-c24f-4f6a-a7ed-093f2a1bc2f5","system_id":"levelo_inurba_marseille","lat":43.28937,"lon":5.36636,"is_reserved":false,"is_disabled":false,"rental_uris":{"android":"levelo://app?vid=61bb2e34-c24f-4f6a-a7ed-093f2a1bc2f5","ios":"levelo://app?vid=61bb2e34-c24f-4f6a-a7ed-093f2a1bc2f5"},"vehicle_type_id":"4","last_reported":1728418054,"current_range_meters":38800,"station_id":"ce4bhap2rcd13ifvqek0","pricing_plan_id":"cebpf4jnsgd1na2vs0mg"},{"bike_id":"e8f38f77-6572-42be-9296-0cbe6e7cb972","system_id":"levelo_inurba_marseille","lat":43.23054,"lon":5.35492,"is_reserved":false,"is_disabled":false,"rental_uris":{"android":"levelo://app?vid=e8f38f77-6572-42be-9296-0cbe6e7cb972","ios":"levelo://app?vid=e8f38f77-6572-42be-9296-0cbe6e7cb972"},"vehicle_type_id":"4","last_reported":1728418054,"current_range_meters":30000,"station_id":"cpo3342slgdg3j2ifvpg","pricing_plan_id":"cebpf4jnsgd1na2vs0mg"},{"bike_id":"166e18fe-66a6-4f65-8b87-4b97a68421e8","system_id":"levelo_inurba_marseille","lat":43.30459,"lon":5.40187,"is_reserved":false,"is_disabled":false,"rental_uris":{"android":"levelo://app?vid=166e18fe-66a6-4f65-8b87-4b97a68421e8","ios":"levelo://app?vid=166e18fe-66a6-4f65-8b87-4b97a68421e8"},"vehicle_type_id":"4","last_reported":1728418054,"current_range_meters":10800,"station_id":"","pricing_plan_id":"cebpf4jnsgd1na2vs0mg"},{"bike_id":"a868d552-056c-4e9e-a23b-fc96a00d3d4f","system_id":"levelo_inurba_marseille","lat":43.30791,"lon":5.37656,"is_reserved":false,"is_disabled":false,"rental_uris":{"android":"levelo://app?vid=a868d552-056c-4e9e-a23b-fc96a00d3d4f","ios":"levelo://app?vid=a868d552-056c-4e9e-a23b-fc96a00d3d4f"},"vehicle_type_id":"4","last_reported":1728418054,"current_range_meters":20000,"station_id":"ce4bgv92rcd13ifvqcq0","pricing_plan_id":"cebpf4jnsgd1na2vs0mg"},{"bike_id":"34ea787f-029f-46ac-894d-b896fed8d53b","system_id":"levelo_inurba_marseille","lat":43.311143,"lon":5.377722,"is_reserved":false,"is_disabled":false,"rental_uris":{"android":"levelo://app?vid=34ea787f-029f-46ac-894d-b896fed8d53b","ios":"levelo://app?vid=34ea787f-029f-46ac-894d-b896fed8d53b"},"vehicle_type_id":"4","last_reported":1728418054,"current_range_meters":1600,"station_id":"ce4bgt92rcd13ifvqcg0","pricing_plan_id":"cebpf4jnsgd1na2vs0mg"},{"bike_id":"912c6b05-4dec-4976-aafe-fb5561a101c0","system_id":"levelo_inurba_marseille","lat":43.24801,"lon":5.37455,"is_reserved":false,"is_disabled":false,"rental_uris":{"android":"levelo://app?vid=912c6b05-4dec-4976-aafe-fb5561a101c0","ios":"levelo://app?vid=912c6b05-4dec-4976-aafe-fb5561a101c0"},"vehicle_type_id":"4","last_reported":1728418054,"current_range_meters":29600,"station_id":"ce4bhgh2rcd13ifvqfb0","pricing_plan_id":"cebpf4jnsgd1na2vs0mg"},{"bike_id":"a29c54b5-4303-4a3a-94d7-ad398b347ba6","system_id":"levelo_inurba_marseille","lat":43.27916,"lon":5.39591,"is_reserved":false,"is_disabled":false,"rental_uris":{"android":"levelo://app?vid=a29c54b5-4303-4a3a-94d7-ad398b347ba6","ios":"levelo://app?vid=a29c54b5-4303-4a3a-94d7-ad398b347ba6"},"vehicle_type_id":"4","last_reported":1728418054,"current_range_meters":28000,"station_id":"ce4bhf92rcd13ifvqf40","pricing_plan_id":"cebpf4jnsgd1na2vs0mg"},{"bike_id":"1302f1d5-5433-4f37-bda5-bf64fc3e260b","system_id":"levelo_inurba_marseille","lat":43.29846,"lon":5.39734,"is_reserved":false,"is_disabled":false,"rental_uris":{"android":"levelo://app?vid=1302f1d5-5433-4f37-bda5-bf64fc3e260b","ios":"levelo://app?vid=1302f1d5-5433-4f37-bda5-bf64fc3e260b"},"vehicle_type_id":"4","last_reported":1728418054,"current_range_meters":5600,"station_id":"ce4bh0h2rcd13ifvqd50","pricing_plan_id":"cebpf4jnsgd1na2vs0mg"},{"bike_id":"27990b65-6928-4044-8b6b-0fd7c4f76242","system_id":"levelo_inurba_marseille","lat":43.29874,"lon":5.39735,"is_reserved":false,"is_disabled":false,"rental_uris":{"android":"levelo://app?vid=27990b65-6928-4044-8b6b-0fd7c4f76242","ios":"levelo://app?vid=27990b65-6928-4044-8b6b-0fd7c4f76242"},"vehicle_type_id":"4","last_reported":1728418054,"current_range_meters":8400,"station_id":"ce4bh0h2rcd13ifvqd50","pricing_plan_id":"cebpf4jnsgd1na2vs0mg"},{"bike_id":"edaf4b36-393a-4ca6-8e5f-35fb0a688fdc","system_id":"levelo_inurba_marseille","lat":43.279969,"lon":5.400139,"is_reserved":false,"is_disabled":false,"rental_uris":{"android":"levelo://app?vid=edaf4b36-393a-4ca6-8e5f-35fb0a688fdc","ios":"levelo://app?vid=edaf4b36-393a-4ca6-8e5f-35fb0a688fdc"},"vehicle_type_id":"4","last_reported":1728418054,"current_range_meters":10800,"station_id":"ce4bho92rcd13ifvqh4g","pricing_plan_id":"cebpf4jnsgd1na2vs0mg"},{"bike_id":"8ad55eee-602b-4949-a535-c4965d8587b5","system_id":"levelo_inurba_marseille","lat":43.313263,"lon":5.396968,"is_reserved":false,"is_disabled":false,"rental_uris":{"android":"levelo://app?vid=8ad55eee-602b-4949-a535-c4965d8587b5","ios":"levelo://app?vid=8ad55eee-602b-4949-a535-c4965d8587b5"},"vehicle_type_id":"4","last_reported":1728418054,"current_range_meters":38800,"station_id":"ce4bgvp2rcd13ifvqcu0","pricing_plan_id":"cebpf4jnsgd1na2vs0mg"},{"bike_id":"9562df49-109f-4a43-a615-2328fe796843","system_id":"levelo_inurba_marseille","lat":43.28153,"lon":5.42647,"is_reserved":false,"is_disabled":false,"rental_uris":{"android":"levelo://app?vid=9562df49-109f-4a43-a615-2328fe796843","ios":"levelo://app?vid=9562df49-109f-4a43-a615-2328fe796843"},"vehicle_type_id":"4","last_reported":1728418054,"current_range_meters":16400,"station_id":"ce4bhnh2rcd13ifvqgug","pricing_plan_id":"cebpf4jnsgd1na2vs0mg"},{"bike_id":"9fb6b02e-c2c6-4402-8212-3bfd7e3efc83","system_id":"levelo_inurba_marseille","lat":43.30416,"lon":5.41285,"is_reserved":false,"is_disabled":false,"rental_uris":{"android":"levelo://app?vid=9fb6b02e-c2c6-4402-8212-3bfd7e3efc83","ios":"levelo://app?vid=9fb6b02e-c2c6-4402-8212-3bfd7e3efc83"},"vehicle_type_id":"4","last_reported":1728418054,"current_range_meters":10000,"station_id":"ce4bhop2rcd13ifvqh8g","pricing_plan_id":"cebpf4jnsgd1na2vs0mg"},{"bike_id":"b5142c12-3f3f-452c-853c-bcb33ce12fbf","system_id":"levelo_inurba_marseille","lat":43.23187,"lon":5.35544,"is_reserved":false,"is_disabled":false,"rental_uris":{"android":"levelo://app?vid=b5142c12-3f3f-452c-853c-bcb33ce12fbf","ios":"levelo://app?vid=b5142c12-3f3f-452c-853c-bcb33ce12fbf"},"vehicle_type_id":"4","last_reported":1728418054,"current_range_meters":36400,"station_id":"ce4bhu92rcd13ifvqi70","pricing_plan_id":"cebpf4jnsgd1na2vs0mg"},{"bike_id":"41cbd591-be75-4a59-afc5-fbe9986717e5","system_id":"levelo_inurba_marseille","lat":43.30881,"lon":5.39627,"is_reserved":false,"is_disabled":false,"rental_uris":{"android":"levelo://app?vid=41cbd591-be75-4a59-afc5-fbe9986717e5","ios":"levelo://app?vid=41cbd591-be75-4a59-afc5-fbe9986717e5"},"vehicle_type_id":"4","last_reported":1728418054,"current_range_meters":9200,"station_id":"ce4bh012rcd13ifvqcv0","pricing_plan_id":"cebpf4jnsgd1na2vs0mg"},{"bike_id":"21de6ba0-bc03-48e1-8d9f-f875bba9c5b9","system_id":"levelo_inurba_marseille","lat":43.30799,"lon":5.43523,"is_reserved":false,"is_disabled":false,"rental_uris":{"android":"levelo://app?vid=21de6ba0-bc03-48e1-8d9f-f875bba9c5b9","ios":"levelo://app?vid=21de6ba0-bc03-48e1-8d9f-f875bba9c5b9"},"vehicle_type_id":"4","last_reported":1728418054,"current_range_meters":10800,"station_id":"ce4bhph2rcd13ifvqheg","pricing_plan_id":"cebpf4jnsgd1na2vs0mg"},{"bike_id":"68fe04c0-5d75-45e6-beba-6d59590df5a2","system_id":"levelo_inurba_marseille","lat":43.30798,"lon":5.43522,"is_reserved":false,"is_disabled":false,"rental_uris":{"android":"levelo://app?vid=68fe04c0-5d75-45e6-beba-6d59590df5a2","ios":"levelo://app?vid=68fe04c0-5d75-45e6-beba-6d59590df5a2"},"vehicle_type_id":"4","last_reported":1728418054,"current_range_meters":8800,"station_id":"ce4bhph2rcd13ifvqheg","pricing_plan_id":"cebpf4jnsgd1na2vs0mg"},{"bike_id":"8e3669e3-0cc0-4473-bf2c-3229597f49cf","system_id":"levelo_inurba_marseille","lat":43.31175,"lon":5.38719,"is_reserved":false,"is_disabled":false,"rental_uris":{"android":"levelo://app?vid=8e3669e3-0cc0-4473-bf2c-3229597f49cf","ios":"levelo://app?vid=8e3669e3-0cc0-4473-bf2c-3229597f49cf"},"vehicle_type_id":"4","last_reported":1728418054,"current_range_meters":38800,"station_id":"ce4bgv12rcd13ifvqcp0","pricing_plan_id":"cebpf4jnsgd1na2vs0mg"},{"bike_id":"0de0d42b-a5f9-4a47-8a3c-7a17a3a62af0","system_id":"levelo_inurba_marseille","lat":43.29187,"lon":5.39323,"is_reserved":false,"is_disabled":false,"rental_uris":{"android":"levelo://app?vid=0de0d42b-a5f9-4a47-8a3c-7a17a3a62af0","ios":"levelo://app?vid=0de0d42b-a5f9-4a47-8a3c-7a17a3a62af0"},"vehicle_type_id":"4","last_reported":1728418054,"current_range_meters":9600,"station_id":"ce4bh192rcd13ifvqdd0","pricing_plan_id":"cebpf4jnsgd1na2vs0mg"},{"bike_id":"774e6f17-b939-4570-ac09-435652952c86","system_id":"levelo_inurba_marseille","lat":43.30799,"lon":5.43524,"is_reserved":false,"is_disabled":false,"rental_uris":{"android":"levelo://app?vid=774e6f17-b939-4570-ac09-435652952c86","ios":"levelo://app?vid=774e6f17-b939-4570-ac09-435652952c86"},"vehicle_type_id":"4","last_reported":1728418054,"current_range_meters":26000,"station_id":"ce4bhph2rcd13ifvqheg","pricing_plan_id":"cebpf4jnsgd1na2vs0mg"},{"bike_id":"57ef6de0-9539-4d46-a678-83c1acb5fcaf","system_id":"levelo_inurba_marseille","lat":43.26804,"lon":5.40272,"is_reserved":false,"is_disabled":false,"rental_uris":{"android":"levelo://app?vid=57ef6de0-9539-4d46-a678-83c1acb5fcaf","ios":"levelo://app?vid=57ef6de0-9539-4d46-a678-83c1acb5fcaf"},"vehicle_type_id":"4","last_reported":1728418054,"current_range_meters":31200,"station_id":"ce501612rcd8frsf0b60","pricing_plan_id":"cebpf4jnsgd1na2vs0mg"},{"bike_id":"33f912b9-3676-4ffb-8b46-71bfb4550811","system_id":"levelo_inurba_marseille","lat":43.29268,"lon":5.38443,"is_reserved":false,"is_disabled":false,"rental_uris":{"android":"levelo://app?vid=33f912b9-3676-4ffb-8b46-71bfb4550811","ios":"levelo://app?vid=33f912b9-3676-4ffb-8b46-71bfb4550811"},"vehicle_type_id":"4","last_reported":1728418054,"current_range_meters":8800,"station_id":"ce4bh692rcd13ifvqea0","pricing_plan_id":"cebpf4jnsgd1na2vs0mg"},{"bike_id":"fc71f8e4-abef-4846-ab19-2255ec41fd7a","system_id":"levelo_inurba_marseille","lat":43.32342,"lon":5.3892,"is_reserved":false,"is_disabled":false,"rental_uris":{"android":"levelo://app?vid=fc71f8e4-abef-4846-ab19-2255ec41fd7a","ios":"levelo://app?vid=fc71f8e4-abef-4846-ab19-2255ec41fd7a"},"vehicle_type_id":"4","last_reported":1728418054,"current_range_meters":2800,"station_id":"ce4bgt92rcd13ifvqcf0","pricing_plan_id":"cebpf4jnsgd1na2vs0mg"},{"bike_id":"017308ad-f481-4218-b7f9-5a36c9fab05f","system_id":"levelo_inurba_marseille","lat":43.23195,"lon":5.35554,"is_reserved":false,"is_disabled":false,"rental_uris":{"android":"levelo://app?vid=017308ad-f481-4218-b7f9-5a36c9fab05f","ios":"levelo://app?vid=017308ad-f481-4218-b7f9-5a36c9fab05f"},"vehicle_type_id":"4","last_reported":1728418054,"current_range_meters":22400,"station_id":"ce4bhu92rcd13ifvqi70","pricing_plan_id":"cebpf4jnsgd1na2vs0mg"},{"bike_id":"a01dd2bc-1d89-4dec-bc82-4b2eb5ef70bf","system_id":"levelo_inurba_marseille","lat":43.29022,"lon":5.38649,"is_reserved":false,"is_disabled":false,"rental_uris":{"android":"levelo://app?vid=a01dd2bc-1d89-4dec-bc82-4b2eb5ef70bf","ios":"levelo://app?vid=a01dd2bc-1d89-4dec-bc82-4b2eb5ef70bf"},"vehicle_type_id":"4","last_reported":1728418054,"current_range_meters":37600,"station_id":"ce4bh4p2rcd13ifvqe0g","pricing_plan_id":"cebpf4jnsgd1na2vs0mg"},{"bike_id":"d8f4a4ca-5380-4feb-b5be-6c3315b9b821","system_id":"levelo_inurba_marseille","lat":43.29508,"lon":5.40689,"is_reserved":false,"is_disabled":false,"rental_uris":{"android":"levelo://app?vid=d8f4a4ca-5380-4feb-b5be-6c3315b9b821","ios":"levelo://app?vid=d8f4a4ca-5380-4feb-b5be-6c3315b9b821"},"vehicle_type_id":"4","last_reported":1728418054,"current_range_meters":9200,"station_id":"","pricing_plan_id":"cebpf4jnsgd1na2vs0mg"},{"bike_id":"18dc9840-28f2-47db-a6c2-550f1ddbc175","system_id":"levelo_inurba_marseille","lat":43.31171,"lon":5.38706,"is_reserved":false,"is_disabled":false,"rental_uris":{"android":"levelo://app?vid=18dc9840-28f2-47db-a6c2-550f1ddbc175","ios":"levelo://app?vid=18dc9840-28f2-47db-a6c2-550f1ddbc175"},"vehicle_type_id":"4","last_reported":1728418054,"current_range_meters":38800,"station_id":"ce4bgv12rcd13ifvqcp0","pricing_plan_id":"cebpf4jnsgd1na2vs0mg"},{"bike_id":"5f5b34ea-c761-44ef-965d-2cd145c53c6a","system_id":"levelo_inurba_marseille","lat":43.23192,"lon":5.35547,"is_reserved":false,"is_disabled":false,"rental_uris":{"android":"levelo://app?vid=5f5b34ea-c761-44ef-965d-2cd145c53c6a","ios":"levelo://app?vid=5f5b34ea-c761-44ef-965d-2cd145c53c6a"},"vehicle_type_id":"4","last_reported":1728418054,"current_range_meters":9200,"station_id":"ce4bhu92rcd13ifvqi70","pricing_plan_id":"cebpf4jnsgd1na2vs0mg"},{"bike_id":"d63d4662-bdcf-4d50-81c8-85d24c1acda1","system_id":"levelo_inurba_marseille","lat":43.30252,"lon":5.37441,"is_reserved":false,"is_disabled":false,"rental_uris":{"android":"levelo://app?vid=d63d4662-bdcf-4d50-81c8-85d24c1acda1","ios":"levelo://app?vid=d63d4662-bdcf-4d50-81c8-85d24c1acda1"},"vehicle_type_id":"4","last_reported":1728418054,"current_range_meters":26800,"station_id":"ce4bgqh2rcd13ifvqc4g","pricing_plan_id":"cebpf4jnsgd1na2vs0mg"},{"bike_id":"5d05732f-06d8-439b-9b1d-9907f607e46b","system_id":"levelo_inurba_marseille","lat":43.30323,"lon":5.40446,"is_reserved":false,"is_disabled":false,"rental_uris":{"android":"levelo://app?vid=5d05732f-06d8-439b-9b1d-9907f607e46b","ios":"levelo://app?vid=5d05732f-06d8-439b-9b1d-9907f607e46b"},"vehicle_type_id":"4","last_reported":1728418054,"current_range_meters":36800,"station_id":"ce4bh012rcd13ifvqd10","pricing_plan_id":"cebpf4jnsgd1na2vs0mg"},{"bike_id":"a92f6206-1720-4e29-9ed4-ca1db6a5dc4b","system_id":"levelo_inurba_marseille","lat":43.29772,"lon":5.37401,"is_reserved":false,"is_disabled":false,"rental_uris":{"android":"levelo://app?vid=a92f6206-1720-4e29-9ed4-ca1db6a5dc4b","ios":"levelo://app?vid=a92f6206-1720-4e29-9ed4-ca1db6a5dc4b"},"vehicle_type_id":"4","last_reported":1728418054,"current_range_meters":24400,"station_id":"","pricing_plan_id":"cebpf4jnsgd1na2vs0mg"},{"bike_id":"4ab9f254-ccb8-4e88-87f7-c1bcee3c3514","system_id":"levelo_inurba_marseille","lat":43.23959,"lon":5.36646,"is_reserved":false,"is_disabled":false,"rental_uris":{"android":"levelo://app?vid=4ab9f254-ccb8-4e88-87f7-c1bcee3c3514","ios":"levelo://app?vid=4ab9f254-ccb8-4e88-87f7-c1bcee3c3514"},"vehicle_type_id":"4","last_reported":1728418054,"current_range_meters":34000,"station_id":"ce4bhi12rcd13ifvqfp0","pricing_plan_id":"cebpf4jnsgd1na2vs0mg"},{"bike_id":"78bd0264-bc12-48d3-96d1-ec6fa3195a78","system_id":"levelo_inurba_marseille","lat":43.31365,"lon":5.38489,"is_reserved":false,"is_disabled":false,"rental_uris":{"android":"levelo://app?vid=78bd0264-bc12-48d3-96d1-ec6fa3195a78","ios":"levelo://app?vid=78bd0264-bc12-48d3-96d1-ec6fa3195a78"},"vehicle_type_id":"4","last_reported":1728418054,"current_range_meters":19600,"station_id":"ce4bgt92rcd13ifvqcf0","pricing_plan_id":"cebpf4jnsgd1na2vs0mg"},{"bike_id":"498bbd01-c00d-4041-9182-db2128dad944","system_id":"levelo_inurba_marseille","lat":43.30734,"lon":5.42471,"is_reserved":false,"is_disabled":false,"rental_uris":{"android":"levelo://app?vid=498bbd01-c00d-4041-9182-db2128dad944","ios":"levelo://app?vid=498bbd01-c00d-4041-9182-db2128dad944"},"vehicle_type_id":"4","last_reported":1728418054,"current_range_meters":8000,"station_id":"","pricing_plan_id":"cebpf4jnsgd1na2vs0mg"},{"bike_id":"e0dfc8c2-14a5-4f79-8413-54a139919509","system_id":"levelo_inurba_marseille","lat":43.29847,"lon":5.36285,"is_reserved":false,"is_disabled":false,"rental_uris":{"android":"levelo://app?vid=e0dfc8c2-14a5-4f79-8413-54a139919509","ios":"levelo://app?vid=e0dfc8c2-14a5-4f79-8413-54a139919509"},"vehicle_type_id":"4","last_reported":1728418054,"current_range_meters":20800,"station_id":"ce4bgpp2rcd13ifvqc3g","pricing_plan_id":"cebpf4jnsgd1na2vs0mg"},{"bike_id":"62b6d635-7bcb-41a7-b9d5-21dbc57fd938","system_id":"levelo_inurba_marseille","lat":43.28891,"lon":5.3742,"is_reserved":false,"is_disabled":false,"rental_uris":{"android":"levelo://app?vid=62b6d635-7bcb-41a7-b9d5-21dbc57fd938","ios":"levelo://app?vid=62b6d635-7bcb-41a7-b9d5-21dbc57fd938"},"vehicle_type_id":"4","last_reported":1728418054,"current_range_meters":34000,"station_id":"","pricing_plan_id":"cebpf4jnsgd1na2vs0mg"},{"bike_id":"082c24d2-80ac-4290-8c99-acbde59a9ccd","system_id":"levelo_inurba_marseille","lat":43.289642,"lon":5.397701,"is_reserved":false,"is_disabled":false,"rental_uris":{"android":"levelo://app?vid=082c24d2-80ac-4290-8c99-acbde59a9ccd","ios":"levelo://app?vid=082c24d2-80ac-4290-8c99-acbde59a9ccd"},"vehicle_type_id":"4","last_reported":1728418054,"current_range_meters":30400,"station_id":"ce4bh392rcd13ifvqdm0","pricing_plan_id":"cebpf4jnsgd1na2vs0mg"},{"bike_id":"420b2816-87d0-4210-972c-76597452bb87","system_id":"levelo_inurba_marseille","lat":43.26062,"lon":5.39397,"is_reserved":false,"is_disabled":false,"rental_uris":{"android":"levelo://app?vid=420b2816-87d0-4210-972c-76597452bb87","ios":"levelo://app?vid=420b2816-87d0-4210-972c-76597452bb87"},"vehicle_type_id":"4","last_reported":1728418054,"current_range_meters":9200,"station_id":"ce4bhh92rcd13ifvqfj0","pricing_plan_id":"cebpf4jnsgd1na2vs0mg"},{"bike_id":"e412a2b9-63cf-4753-a792-ea448917b530","system_id":"levelo_inurba_marseille","lat":43.29528,"lon":5.38544,"is_reserved":false,"is_disabled":false,"rental_uris":{"android":"levelo://app?vid=e412a2b9-63cf-4753-a792-ea448917b530","ios":"levelo://app?vid=e412a2b9-63cf-4753-a792-ea448917b530"},"vehicle_type_id":"4","last_reported":1728418054,"current_range_meters":27200,"station_id":"ce4bgih2rcd13ifvqba0","pricing_plan_id":"cebpf4jnsgd1na2vs0mg"},{"bike_id":"23a23253-4a33-4800-be9f-9e81e9112eeb","system_id":"levelo_inurba_marseille","lat":43.30924,"lon":5.40144,"is_reserved":false,"is_disabled":false,"rental_uris":{"android":"levelo://app?vid=23a23253-4a33-4800-be9f-9e81e9112eeb","ios":"levelo://app?vid=23a23253-4a33-4800-be9f-9e81e9112eeb"},"vehicle_type_id":"4","last_reported":1728418054,"current_range_meters":30000,"station_id":"ce4bgvp2rcd13ifvqct0","pricing_plan_id":"cebpf4jnsgd1na2vs0mg"},{"bike_id":"172b6004-71d4-410e-80e8-ffa36892cac3","system_id":"levelo_inurba_marseille","lat":43.30036,"lon":5.40187,"is_reserved":false,"is_disabled":false,"rental_uris":{"android":"levelo://app?vid=172b6004-71d4-410e-80e8-ffa36892cac3","ios":"levelo://app?vid=172b6004-71d4-410e-80e8-ffa36892cac3"},"vehicle_type_id":"4","last_reported":1728418054,"current_range_meters":30800,"station_id":"","pricing_plan_id":"cebpf4jnsgd1na2vs0mg"},{"bike_id":"cf927195-cafe-4fe6-8a9b-b503bf9be2b0","system_id":"levelo_inurba_marseille","lat":43.23183,"lon":5.3999,"is_reserved":false,"is_disabled":false,"rental_uris":{"android":"levelo://app?vid=cf927195-cafe-4fe6-8a9b-b503bf9be2b0","ios":"levelo://app?vid=cf927195-cafe-4fe6-8a9b-b503bf9be2b0"},"vehicle_type_id":"4","last_reported":1728418054,"current_range_meters":35600,"station_id":"ce4bhn12rcd13ifvqgqg","pricing_plan_id":"cebpf4jnsgd1na2vs0mg"},{"bike_id":"875f4a64-216b-4be8-b9d8-fbdcea85c3e4","system_id":"levelo_inurba_marseille","lat":43.311753,"lon":5.387175,"is_reserved":false,"is_disabled":false,"rental_uris":{"android":"levelo://app?vid=875f4a64-216b-4be8-b9d8-fbdcea85c3e4","ios":"levelo://app?vid=875f4a64-216b-4be8-b9d8-fbdcea85c3e4"},"vehicle_type_id":"4","last_reported":1728418054,"current_range_meters":39200,"station_id":"ce4bgv12rcd13ifvqcp0","pricing_plan_id":"cebpf4jnsgd1na2vs0mg"},{"bike_id":"f25c3320-3c59-4058-a283-2b0b09b21a7a","system_id":"levelo_inurba_marseille","lat":43.27183,"lon":5.40999,"is_reserved":false,"is_disabled":false,"rental_uris":{"android":"levelo://app?vid=f25c3320-3c59-4058-a283-2b0b09b21a7a","ios":"levelo://app?vid=f25c3320-3c59-4058-a283-2b0b09b21a7a"},"vehicle_type_id":"4","last_reported":1728418054,"current_range_meters":6000,"station_id":"ce4bhl12rcd13ifvqgf0","pricing_plan_id":"cebpf4jnsgd1na2vs0mg"},{"bike_id":"9a9df624-1549-41fb-b7f5-bd4059f46f71","system_id":"levelo_inurba_marseille","lat":43.31755,"lon":5.39004,"is_reserved":false,"is_disabled":false,"rental_uris":{"android":"levelo://app?vid=9a9df624-1549-41fb-b7f5-bd4059f46f71","ios":"levelo://app?vid=9a9df624-1549-41fb-b7f5-bd4059f46f71"},"vehicle_type_id":"4","last_reported":1728418054,"current_range_meters":27200,"station_id":"ce4bhqp2rcd13ifvqhng","pricing_plan_id":"cebpf4jnsgd1na2vs0mg"},{"bike_id":"94af21cb-3b77-4a57-b3de-dcd8ddf38fad","system_id":"levelo_inurba_marseille","lat":43.311698,"lon":5.387289,"is_reserved":false,"is_disabled":false,"rental_uris":{"android":"levelo://app?vid=94af21cb-3b77-4a57-b3de-dcd8ddf38fad","ios":"levelo://app?vid=94af21cb-3b77-4a57-b3de-dcd8ddf38fad"},"vehicle_type_id":"4","last_reported":1728418054,"current_range_meters":38800,"station_id":"ce4bgv12rcd13ifvqcp0","pricing_plan_id":"cebpf4jnsgd1na2vs0mg"},{"bike_id":"da6edb29-cf10-4846-be16-2bb5f715fcf2","system_id":"levelo_inurba_marseille","lat":43.29515,"lon":5.39035,"is_reserved":false,"is_disabled":false,"rental_uris":{"android":"levelo://app?vid=da6edb29-cf10-4846-be16-2bb5f715fcf2","ios":"levelo://app?vid=da6edb29-cf10-4846-be16-2bb5f715fcf2"},"vehicle_type_id":"4","last_reported":1728418054,"current_range_meters":4000,"station_id":"ce4bh3p2rcd13ifvqdp0","pricing_plan_id":"cebpf4jnsgd1na2vs0mg"},{"bike_id":"f276946a-c301-4fd8-9ee9-b3ea2a208df0","system_id":"levelo_inurba_marseille","lat":43.23065,"lon":5.3549,"is_reserved":false,"is_disabled":false,"rental_uris":{"android":"levelo://app?vid=f276946a-c301-4fd8-9ee9-b3ea2a208df0","ios":"levelo://app?vid=f276946a-c301-4fd8-9ee9-b3ea2a208df0"},"vehicle_type_id":"4","last_reported":1728418054,"current_range_meters":23200,"station_id":"cpo3342slgdg3j2ifvpg","pricing_plan_id":"cebpf4jnsgd1na2vs0mg"},{"bike_id":"785dd6e2-063e-4f34-bde4-815072a28081","system_id":"levelo_inurba_marseille","lat":43.313583,"lon":5.38494,"is_reserved":false,"is_disabled":false,"rental_uris":{"android":"levelo://app?vid=785dd6e2-063e-4f34-bde4-815072a28081","ios":"levelo://app?vid=785dd6e2-063e-4f34-bde4-815072a28081"},"vehicle_type_id":"4","last_reported":1728418054,"current_range_meters":6000,"station_id":"ce4bgt92rcd13ifvqcf0","pricing_plan_id":"cebpf4jnsgd1na2vs0mg"},{"bike_id":"5eb1d50f-ca91-4fb8-860f-c0199bb2576b","system_id":"levelo_inurba_marseille","lat":43.25576,"lon":5.38231,"is_reserved":false,"is_disabled":false,"rental_uris":{"android":"levelo://app?vid=5eb1d50f-ca91-4fb8-860f-c0199bb2576b","ios":"levelo://app?vid=5eb1d50f-ca91-4fb8-860f-c0199bb2576b"},"vehicle_type_id":"4","last_reported":1728418054,"current_range_meters":36400,"station_id":"ce4bhih2rcd13ifvqfs0","pricing_plan_id":"cebpf4jnsgd1na2vs0mg"},{"bike_id":"41b22edd-268c-4222-88bf-f8ef11dd1399","system_id":"levelo_inurba_marseille","lat":43.27999,"lon":5.40021,"is_reserved":false,"is_disabled":false,"rental_uris":{"android":"levelo://app?vid=41b22edd-268c-4222-88bf-f8ef11dd1399","ios":"levelo://app?vid=41b22edd-268c-4222-88bf-f8ef11dd1399"},"vehicle_type_id":"4","last_reported":1728418054,"current_range_meters":26000,"station_id":"ce4bho92rcd13ifvqh4g","pricing_plan_id":"cebpf4jnsgd1na2vs0mg"},{"bike_id":"5102b9e4-fde6-452f-9071-58db3beb671c","system_id":"levelo_inurba_marseille","lat":43.27989,"lon":5.40019,"is_reserved":false,"is_disabled":false,"rental_uris":{"android":"levelo://app?vid=5102b9e4-fde6-452f-9071-58db3beb671c","ios":"levelo://app?vid=5102b9e4-fde6-452f-9071-58db3beb671c"},"vehicle_type_id":"4","last_reported":1728418054,"current_range_meters":2800,"station_id":"ce4bho92rcd13ifvqh4g","pricing_plan_id":"cebpf4jnsgd1na2vs0mg"},{"bike_id":"652ea6b0-0568-4c2d-ae7b-676bb46190fb","system_id":"levelo_inurba_marseille","lat":43.29553,"lon":5.42287,"is_reserved":false,"is_disabled":false,"rental_uris":{"android":"levelo://app?vid=652ea6b0-0568-4c2d-ae7b-676bb46190fb","ios":"levelo://app?vid=652ea6b0-0568-4c2d-ae7b-676bb46190fb"},"vehicle_type_id":"4","last_reported":1728418054,"current_range_meters":12400,"station_id":"ce4bhph2rcd13ifvqhdg","pricing_plan_id":"cebpf4jnsgd1na2vs0mg"},{"bike_id":"0a9a25c9-eda9-4fb5-bdaa-cdf6a855e2a0","system_id":"levelo_inurba_marseille","lat":43.28073,"lon":5.39659,"is_reserved":false,"is_disabled":false,"rental_uris":{"android":"levelo://app?vid=0a9a25c9-eda9-4fb5-bdaa-cdf6a855e2a0","ios":"levelo://app?vid=0a9a25c9-eda9-4fb5-bdaa-cdf6a855e2a0"},"vehicle_type_id":"4","last_reported":1728418054,"current_range_meters":4800,"station_id":"ce4bho12rcd13ifvqh2g","pricing_plan_id":"cebpf4jnsgd1na2vs0mg"},{"bike_id":"3b80fc05-b2f9-416d-b897-bf4de0c4afc1","system_id":"levelo_inurba_marseille","lat":43.27995,"lon":5.40007,"is_reserved":false,"is_disabled":false,"rental_uris":{"android":"levelo://app?vid=3b80fc05-b2f9-416d-b897-bf4de0c4afc1","ios":"levelo://app?vid=3b80fc05-b2f9-416d-b897-bf4de0c4afc1"},"vehicle_type_id":"4","last_reported":1728418054,"current_range_meters":9200,"station_id":"ce4bho92rcd13ifvqh4g","pricing_plan_id":"cebpf4jnsgd1na2vs0mg"},{"bike_id":"9f249347-75e4-47cc-bbf5-03b5e106bc17","system_id":"levelo_inurba_marseille","lat":43.2846,"lon":5.3589,"is_reserved":false,"is_disabled":false,"rental_uris":{"android":"levelo://app?vid=9f249347-75e4-47cc-bbf5-03b5e106bc17","ios":"levelo://app?vid=9f249347-75e4-47cc-bbf5-03b5e106bc17"},"vehicle_type_id":"4","last_reported":1728418054,"current_range_meters":33600,"station_id":"ce4bhah2rcd13ifvqei0","pricing_plan_id":"cebpf4jnsgd1na2vs0mg"},{"bike_id":"4a489799-c7fc-4b6a-befb-18b51c7cac5c","system_id":"levelo_inurba_marseille","lat":43.31332,"lon":5.39693,"is_reserved":false,"is_disabled":false,"rental_uris":{"android":"levelo://app?vid=4a489799-c7fc-4b6a-befb-18b51c7cac5c","ios":"levelo://app?vid=4a489799-c7fc-4b6a-befb-18b51c7cac5c"},"vehicle_type_id":"4","last_reported":1728418054,"current_range_meters":30000,"station_id":"ce4bgvp2rcd13ifvqcu0","pricing_plan_id":"cebpf4jnsgd1na2vs0mg"},{"bike_id":"14aa3b67-793f-4fe5-8f3b-eb595e5d1c4d","system_id":"levelo_inurba_marseille","lat":43.32203,"lon":5.38741,"is_reserved":false,"is_disabled":false,"rental_uris":{"android":"levelo://app?vid=14aa3b67-793f-4fe5-8f3b-eb595e5d1c4d","ios":"levelo://app?vid=14aa3b67-793f-4fe5-8f3b-eb595e5d1c4d"},"vehicle_type_id":"4","last_reported":1728418054,"current_range_meters":17600,"station_id":"","pricing_plan_id":"cebpf4jnsgd1na2vs0mg"},{"bike_id":"e6d86d2f-929e-412d-b639-89761e6c74e0","system_id":"levelo_inurba_marseille","lat":43.337444,"lon":5.374475,"is_reserved":false,"is_disabled":false,"rental_uris":{"android":"levelo://app?vid=e6d86d2f-929e-412d-b639-89761e6c74e0","ios":"levelo://app?vid=e6d86d2f-929e-412d-b639-89761e6c74e0"},"vehicle_type_id":"4","last_reported":1728418054,"current_range_meters":28800,"station_id":"","pricing_plan_id":"cebpf4jnsgd1na2vs0mg"},{"bike_id":"d238b024-ab62-4ce1-871d-0c21a1a307a2","system_id":"levelo_inurba_marseille","lat":43.27994,"lon":5.40009,"is_reserved":false,"is_disabled":false,"rental_uris":{"android":"levelo://app?vid=d238b024-ab62-4ce1-871d-0c21a1a307a2","ios":"levelo://app?vid=d238b024-ab62-4ce1-871d-0c21a1a307a2"},"vehicle_type_id":"4","last_reported":1728418054,"current_range_meters":6800,"station_id":"ce4bho92rcd13ifvqh4g","pricing_plan_id":"cebpf4jnsgd1na2vs0mg"},{"bike_id":"faa76c66-9da5-41c1-afec-f0c38264aa94","system_id":"levelo_inurba_marseille","lat":43.22932,"lon":5.3538,"is_reserved":false,"is_disabled":false,"rental_uris":{"android":"levelo://app?vid=faa76c66-9da5-41c1-afec-f0c38264aa94","ios":"levelo://app?vid=faa76c66-9da5-41c1-afec-f0c38264aa94"},"vehicle_type_id":"4","last_reported":1728418054,"current_range_meters":26000,"station_id":"cpo3532slgdg3j2ikp40","pricing_plan_id":"cebpf4jnsgd1na2vs0mg"},{"bike_id":"b85afcc4-f999-42dc-aafa-e27c14f1afa0","system_id":"levelo_inurba_marseille","lat":43.28937,"lon":5.3663,"is_reserved":false,"is_disabled":false,"rental_uris":{"android":"levelo://app?vid=b85afcc4-f999-42dc-aafa-e27c14f1afa0","ios":"levelo://app?vid=b85afcc4-f999-42dc-aafa-e27c14f1afa0"},"vehicle_type_id":"4","last_reported":1728418054,"current_range_meters":38800,"station_id":"ce4bhap2rcd13ifvqek0","pricing_plan_id":"cebpf4jnsgd1na2vs0mg"},{"bike_id":"ee3fb93f-6ce1-4017-a20b-a68b1249cf58","system_id":"levelo_inurba_marseille","lat":43.31753,"lon":5.39017,"is_reserved":false,"is_disabled":false,"rental_uris":{"android":"levelo://app?vid=ee3fb93f-6ce1-4017-a20b-a68b1249cf58","ios":"levelo://app?vid=ee3fb93f-6ce1-4017-a20b-a68b1249cf58"},"vehicle_type_id":"4","last_reported":1728418054,"current_range_meters":38400,"station_id":"ce4bhqp2rcd13ifvqhng","pricing_plan_id":"cebpf4jnsgd1na2vs0mg"},{"bike_id":"aaaa9c8e-18c3-4178-bed9-eb45aaeb3ccd","system_id":"levelo_inurba_marseille","lat":43.33026,"lon":5.39036,"is_reserved":false,"is_disabled":false,"rental_uris":{"android":"levelo://app?vid=aaaa9c8e-18c3-4178-bed9-eb45aaeb3ccd","ios":"levelo://app?vid=aaaa9c8e-18c3-4178-bed9-eb45aaeb3ccd"},"vehicle_type_id":"4","last_reported":1728418054,"current_range_meters":22400,"station_id":"ce4bhr92rcd13ifvqhrg","pricing_plan_id":"cebpf4jnsgd1na2vs0mg"},{"bike_id":"c190b4a1-ea1d-47e2-b2e8-eefa3099f9cc","system_id":"levelo_inurba_marseille","lat":43.23193,"lon":5.35551,"is_reserved":false,"is_disabled":false,"rental_uris":{"android":"levelo://app?vid=c190b4a1-ea1d-47e2-b2e8-eefa3099f9cc","ios":"levelo://app?vid=c190b4a1-ea1d-47e2-b2e8-eefa3099f9cc"},"vehicle_type_id":"4","last_reported":1728418054,"current_range_meters":33600,"station_id":"ce4bhu92rcd13ifvqi70","pricing_plan_id":"cebpf4jnsgd1na2vs0mg"},{"bike_id":"aa6dc805-a92b-40b3-968a-d27b42d9f2fd","system_id":"levelo_inurba_marseille","lat":43.24803,"lon":5.37455,"is_reserved":false,"is_disabled":false,"rental_uris":{"android":"levelo://app?vid=aa6dc805-a92b-40b3-968a-d27b42d9f2fd","ios":"levelo://app?vid=aa6dc805-a92b-40b3-968a-d27b42d9f2fd"},"vehicle_type_id":"4","last_reported":1728418054,"current_range_meters":30400,"station_id":"ce4bhgh2rcd13ifvqfb0","pricing_plan_id":"cebpf4jnsgd1na2vs0mg"},{"bike_id":"3d392596-4a53-44a5-9183-728b4e20362c","system_id":"levelo_inurba_marseille","lat":43.2867,"lon":5.38975,"is_reserved":false,"is_disabled":false,"rental_uris":{"android":"levelo://app?vid=3d392596-4a53-44a5-9183-728b4e20362c","ios":"levelo://app?vid=3d392596-4a53-44a5-9183-728b4e20362c"},"vehicle_type_id":"4","last_reported":1728418054,"current_range_meters":19200,"station_id":"","pricing_plan_id":"cebpf4jnsgd1na2vs0mg"},{"bike_id":"e1ec806d-189e-4123-8fc6-0f2d7ba2834f","system_id":"levelo_inurba_marseille","lat":43.28692,"lon":5.37399,"is_reserved":false,"is_disabled":false,"rental_uris":{"android":"levelo://app?vid=e1ec806d-189e-4123-8fc6-0f2d7ba2834f","ios":"levelo://app?vid=e1ec806d-189e-4123-8fc6-0f2d7ba2834f"},"vehicle_type_id":"4","last_reported":1728418054,"current_range_meters":2000,"station_id":"ce4bh3p2rcd13ifvqdq0","pricing_plan_id":"cebpf4jnsgd1na2vs0mg"},{"bike_id":"739ce80c-9280-4de5-bdf8-82fb4a73f324","system_id":"levelo_inurba_marseille","lat":43.311788,"lon":5.387573,"is_reserved":false,"is_disabled":false,"rental_uris":{"android":"levelo://app?vid=739ce80c-9280-4de5-bdf8-82fb4a73f324","ios":"levelo://app?vid=739ce80c-9280-4de5-bdf8-82fb4a73f324"},"vehicle_type_id":"4","last_reported":1728418054,"current_range_meters":38800,"station_id":"ce4bgv12rcd13ifvqcp0","pricing_plan_id":"cebpf4jnsgd1na2vs0mg"},{"bike_id":"2a75358c-c53d-4d85-b84f-ba43cbf3d3c3","system_id":"levelo_inurba_marseille","lat":43.337444,"lon":5.374475,"is_reserved":false,"is_disabled":false,"rental_uris":{"android":"levelo://app?vid=2a75358c-c53d-4d85-b84f-ba43cbf3d3c3","ios":"levelo://app?vid=2a75358c-c53d-4d85-b84f-ba43cbf3d3c3"},"vehicle_type_id":"4","last_reported":1728418054,"current_range_meters":36000,"station_id":"","pricing_plan_id":"cebpf4jnsgd1na2vs0mg"},{"bike_id":"ac58df12-f2ce-4383-9148-da362a7c68ed","system_id":"levelo_inurba_marseille","lat":43.26949,"lon":5.38629,"is_reserved":false,"is_disabled":false,"rental_uris":{"android":"levelo://app?vid=ac58df12-f2ce-4383-9148-da362a7c68ed","ios":"levelo://app?vid=ac58df12-f2ce-4383-9148-da362a7c68ed"},"vehicle_type_id":"4","last_reported":1728418054,"current_range_meters":27200,"station_id":"ce4bhh92rcd13ifvqfh0","pricing_plan_id":"cebpf4jnsgd1na2vs0mg"},{"bike_id":"a54cf9af-3bdb-47e0-b38c-b250d8431be6","system_id":"levelo_inurba_marseille","lat":43.23965,"lon":5.36627,"is_reserved":false,"is_disabled":false,"rental_uris":{"android":"levelo://app?vid=a54cf9af-3bdb-47e0-b38c-b250d8431be6","ios":"levelo://app?vid=a54cf9af-3bdb-47e0-b38c-b250d8431be6"},"vehicle_type_id":"4","last_reported":1728418054,"current_range_meters":12800,"station_id":"ce4bhi12rcd13ifvqfp0","pricing_plan_id":"cebpf4jnsgd1na2vs0mg"},{"bike_id":"c4063bb4-e98b-48fe-8a9a-6decedc0ec30","system_id":"levelo_inurba_marseille","lat":43.33019,"lon":5.39046,"is_reserved":false,"is_disabled":false,"rental_uris":{"android":"levelo://app?vid=c4063bb4-e98b-48fe-8a9a-6decedc0ec30","ios":"levelo://app?vid=c4063bb4-e98b-48fe-8a9a-6decedc0ec30"},"vehicle_type_id":"4","last_reported":1728418054,"current_range_meters":38800,"station_id":"ce4bhr92rcd13ifvqhrg","pricing_plan_id":"cebpf4jnsgd1na2vs0mg"},{"bike_id":"98385a60-92a4-4bc6-8c24-a880baa867a8","system_id":"levelo_inurba_marseille","lat":43.313103,"lon":5.375311,"is_reserved":false,"is_disabled":false,"rental_uris":{"android":"levelo://app?vid=98385a60-92a4-4bc6-8c24-a880baa867a8","ios":"levelo://app?vid=98385a60-92a4-4bc6-8c24-a880baa867a8"},"vehicle_type_id":"4","last_reported":1728418054,"current_range_meters":32400,"station_id":"ce4bgt92rcd13ifvqcg0","pricing_plan_id":"cebpf4jnsgd1na2vs0mg"},{"bike_id":"f6a8c21d-b1f0-4240-bb8d-db34231d6f88","system_id":"levelo_inurba_marseille","lat":43.27993,"lon":5.40015,"is_reserved":false,"is_disabled":false,"rental_uris":{"android":"levelo://app?vid=f6a8c21d-b1f0-4240-bb8d-db34231d6f88","ios":"levelo://app?vid=f6a8c21d-b1f0-4240-bb8d-db34231d6f88"},"vehicle_type_id":"4","last_reported":1728418054,"current_range_meters":8000,"station_id":"ce4bho92rcd13ifvqh4g","pricing_plan_id":"cebpf4jnsgd1na2vs0mg"},{"bike_id":"3c21b630-dca9-4c79-8437-35bb4786ea23","system_id":"levelo_inurba_marseille","lat":43.30203,"lon":5.39459,"is_reserved":false,"is_disabled":false,"rental_uris":{"android":"levelo://app?vid=3c21b630-dca9-4c79-8437-35bb4786ea23","ios":"levelo://app?vid=3c21b630-dca9-4c79-8437-35bb4786ea23"},"vehicle_type_id":"4","last_reported":1728418054,"current_range_meters":34000,"station_id":"ce4bh0p2rcd13ifvqd70","pricing_plan_id":"cebpf4jnsgd1na2vs0mg"},{"bike_id":"16753485-5b55-4ec5-8a43-a852220e48cc","system_id":"levelo_inurba_marseille","lat":43.29784,"lon":5.39348,"is_reserved":false,"is_disabled":false,"rental_uris":{"android":"levelo://app?vid=16753485-5b55-4ec5-8a43-a852220e48cc","ios":"levelo://app?vid=16753485-5b55-4ec5-8a43-a852220e48cc"},"vehicle_type_id":"4","last_reported":1728418054,"current_range_meters":38400,"station_id":"chh1huq6cuj3fo74tm60","pricing_plan_id":"cebpf4jnsgd1na2vs0mg"},{"bike_id":"3dd0e4d7-f4e6-4841-bfd7-b24937775bb1","system_id":"levelo_inurba_marseille","lat":43.2807,"lon":5.39652,"is_reserved":false,"is_disabled":false,"rental_uris":{"android":"levelo://app?vid=3dd0e4d7-f4e6-4841-bfd7-b24937775bb1","ios":"levelo://app?vid=3dd0e4d7-f4e6-4841-bfd7-b24937775bb1"},"vehicle_type_id":"4","last_reported":1728418054,"current_range_meters":13600,"station_id":"ce4bho12rcd13ifvqh2g","pricing_plan_id":"cebpf4jnsgd1na2vs0mg"},{"bike_id":"5fc71993-ad27-4c5d-8b15-b15688dfb23a","system_id":"levelo_inurba_marseille","lat":43.30878,"lon":5.39638,"is_reserved":false,"is_disabled":false,"rental_uris":{"android":"levelo://app?vid=5fc71993-ad27-4c5d-8b15-b15688dfb23a","ios":"levelo://app?vid=5fc71993-ad27-4c5d-8b15-b15688dfb23a"},"vehicle_type_id":"4","last_reported":1728418054,"current_range_meters":14800,"station_id":"ce4bh012rcd13ifvqcv0","pricing_plan_id":"cebpf4jnsgd1na2vs0mg"},{"bike_id":"12d9157a-0426-4d97-95a6-f9e86bc15b89","system_id":"levelo_inurba_marseille","lat":43.22932,"lon":5.3538,"is_reserved":false,"is_disabled":false,"rental_uris":{"android":"levelo://app?vid=12d9157a-0426-4d97-95a6-f9e86bc15b89","ios":"levelo://app?vid=12d9157a-0426-4d97-95a6-f9e86bc15b89"},"vehicle_type_id":"4","last_reported":1728418054,"current_range_meters":24400,"station_id":"cpo3532slgdg3j2ikp40","pricing_plan_id":"cebpf4jnsgd1na2vs0mg"},{"bike_id":"9fe733a9-877b-4cdc-ae6f-b8acc662c3f3","system_id":"levelo_inurba_marseille","lat":43.29868,"lon":5.38905,"is_reserved":false,"is_disabled":false,"rental_uris":{"android":"levelo://app?vid=9fe733a9-877b-4cdc-ae6f-b8acc662c3f3","ios":"levelo://app?vid=9fe733a9-877b-4cdc-ae6f-b8acc662c3f3"},"vehicle_type_id":"4","last_reported":1728418054,"current_range_meters":38800,"station_id":"ce4bh392rcd13ifvqdl0","pricing_plan_id":"cebpf4jnsgd1na2vs0mg"},{"bike_id":"000e46b4-74c7-4956-8887-4004c2527d6b","system_id":"levelo_inurba_marseille","lat":43.27992,"lon":5.40018,"is_reserved":false,"is_disabled":false,"rental_uris":{"android":"levelo://app?vid=000e46b4-74c7-4956-8887-4004c2527d6b","ios":"levelo://app?vid=000e46b4-74c7-4956-8887-4004c2527d6b"},"vehicle_type_id":"4","last_reported":1728418054,"current_range_meters":38800,"station_id":"ce4bho92rcd13ifvqh4g","pricing_plan_id":"cebpf4jnsgd1na2vs0mg"},{"bike_id":"d6db9f2e-3599-4eed-bdb6-3c403a108075","system_id":"levelo_inurba_marseille","lat":43.3229,"lon":5.3827,"is_reserved":false,"is_disabled":false,"rental_uris":{"android":"levelo://app?vid=d6db9f2e-3599-4eed-bdb6-3c403a108075","ios":"levelo://app?vid=d6db9f2e-3599-4eed-bdb6-3c403a108075"},"vehicle_type_id":"4","last_reported":1728418054,"current_range_meters":10800,"station_id":"ce4bhr12rcd13ifvqhqg","pricing_plan_id":"cebpf4jnsgd1na2vs0mg"},{"bike_id":"8b502b40-aea8-4c64-a0f8-2570ee310149","system_id":"levelo_inurba_marseille","lat":43.27173,"lon":5.40994,"is_reserved":false,"is_disabled":false,"rental_uris":{"android":"levelo://app?vid=8b502b40-aea8-4c64-a0f8-2570ee310149","ios":"levelo://app?vid=8b502b40-aea8-4c64-a0f8-2570ee310149"},"vehicle_type_id":"4","last_reported":1728418054,"current_range_meters":8000,"station_id":"ce4bhl12rcd13ifvqgf0","pricing_plan_id":"cebpf4jnsgd1na2vs0mg"},{"bike_id":"77e5c97f-b1cb-4e39-a823-e3abb7db39f5","system_id":"levelo_inurba_marseille","lat":43.28463,"lon":5.35894,"is_reserved":false,"is_disabled":false,"rental_uris":{"android":"levelo://app?vid=77e5c97f-b1cb-4e39-a823-e3abb7db39f5","ios":"levelo://app?vid=77e5c97f-b1cb-4e39-a823-e3abb7db39f5"},"vehicle_type_id":"4","last_reported":1728418054,"current_range_meters":32000,"station_id":"ce4bhah2rcd13ifvqei0","pricing_plan_id":"cebpf4jnsgd1na2vs0mg"},{"bike_id":"01ea658c-e1d6-441b-8513-6701dd955a55","system_id":"levelo_inurba_marseille","lat":43.30354,"lon":5.41875,"is_reserved":false,"is_disabled":false,"rental_uris":{"android":"levelo://app?vid=01ea658c-e1d6-441b-8513-6701dd955a55","ios":"levelo://app?vid=01ea658c-e1d6-441b-8513-6701dd955a55"},"vehicle_type_id":"4","last_reported":1728418054,"current_range_meters":36000,"station_id":"ce4bhop2rcd13ifvqh7g","pricing_plan_id":"cebpf4jnsgd1na2vs0mg"},{"bike_id":"870c0672-a714-434c-9dd0-239fa399cf34","system_id":"levelo_inurba_marseille","lat":43.33026,"lon":5.39043,"is_reserved":false,"is_disabled":false,"rental_uris":{"android":"levelo://app?vid=870c0672-a714-434c-9dd0-239fa399cf34","ios":"levelo://app?vid=870c0672-a714-434c-9dd0-239fa399cf34"},"vehicle_type_id":"4","last_reported":1728418054,"current_range_meters":24400,"station_id":"ce4bhr92rcd13ifvqhrg","pricing_plan_id":"cebpf4jnsgd1na2vs0mg"},{"bike_id":"a195b9a0-6c51-4858-a719-77b417937247","system_id":"levelo_inurba_marseille","lat":43.27994,"lon":5.39997,"is_reserved":false,"is_disabled":false,"rental_uris":{"android":"levelo://app?vid=a195b9a0-6c51-4858-a719-77b417937247","ios":"levelo://app?vid=a195b9a0-6c51-4858-a719-77b417937247"},"vehicle_type_id":"4","last_reported":1728418054,"current_range_meters":34800,"station_id":"ce4bho92rcd13ifvqh4g","pricing_plan_id":"cebpf4jnsgd1na2vs0mg"},{"bike_id":"1f17a76b-c304-46b0-9821-e8e34de300ca","system_id":"levelo_inurba_marseille","lat":43.28454,"lon":5.35886,"is_reserved":false,"is_disabled":false,"rental_uris":{"android":"levelo://app?vid=1f17a76b-c304-46b0-9821-e8e34de300ca","ios":"levelo://app?vid=1f17a76b-c304-46b0-9821-e8e34de300ca"},"vehicle_type_id":"4","last_reported":1728418054,"current_range_meters":8400,"station_id":"ce4bhah2rcd13ifvqei0","pricing_plan_id":"cebpf4jnsgd1na2vs0mg"},{"bike_id":"0177f78c-3759-4f00-a965-2f72bc4eae14","system_id":"levelo_inurba_marseille","lat":43.29794,"lon":5.40405,"is_reserved":false,"is_disabled":false,"rental_uris":{"android":"levelo://app?vid=0177f78c-3759-4f00-a965-2f72bc4eae14","ios":"levelo://app?vid=0177f78c-3759-4f00-a965-2f72bc4eae14"},"vehicle_type_id":"4","last_reported":1728418054,"current_range_meters":6400,"station_id":"ce4bh112rcd13ifvqd90","pricing_plan_id":"cebpf4jnsgd1na2vs0mg"},{"bike_id":"c15d2707-7eb1-4a13-b85d-c7de94141554","system_id":"levelo_inurba_marseille","lat":43.31172,"lon":5.38721,"is_reserved":false,"is_disabled":false,"rental_uris":{"android":"levelo://app?vid=c15d2707-7eb1-4a13-b85d-c7de94141554","ios":"levelo://app?vid=c15d2707-7eb1-4a13-b85d-c7de94141554"},"vehicle_type_id":"4","last_reported":1728418054,"current_range_meters":8400,"station_id":"ce4bgv12rcd13ifvqcp0","pricing_plan_id":"cebpf4jnsgd1na2vs0mg"},{"bike_id":"45c1c7ca-e051-478b-b686-f04fff285ff5","system_id":"levelo_inurba_marseille","lat":43.29858,"lon":5.39732,"is_reserved":false,"is_disabled":false,"rental_uris":{"android":"levelo://app?vid=45c1c7ca-e051-478b-b686-f04fff285ff5","ios":"levelo://app?vid=45c1c7ca-e051-478b-b686-f04fff285ff5"},"vehicle_type_id":"4","last_reported":1728418054,"current_range_meters":18000,"station_id":"ce4bh0h2rcd13ifvqd50","pricing_plan_id":"cebpf4jnsgd1na2vs0mg"},{"bike_id":"2ab6354b-4e96-43be-aedc-8cc67130aacd","system_id":"levelo_inurba_marseille","lat":43.30312,"lon":5.40435,"is_reserved":false,"is_disabled":false,"rental_uris":{"android":"levelo://app?vid=2ab6354b-4e96-43be-aedc-8cc67130aacd","ios":"levelo://app?vid=2ab6354b-4e96-43be-aedc-8cc67130aacd"},"vehicle_type_id":"4","last_reported":1728418054,"current_range_meters":36400,"station_id":"ce4bh012rcd13ifvqd10","pricing_plan_id":"cebpf4jnsgd1na2vs0mg"},{"bike_id":"b4065395-fcaf-470d-b6d6-ad54faf8de1d","system_id":"levelo_inurba_marseille","lat":43.27364,"lon":5.36254,"is_reserved":false,"is_disabled":false,"rental_uris":{"android":"levelo://app?vid=b4065395-fcaf-470d-b6d6-ad54faf8de1d","ios":"levelo://app?vid=b4065395-fcaf-470d-b6d6-ad54faf8de1d"},"vehicle_type_id":"4","last_reported":1728418054,"current_range_meters":22400,"station_id":"ce4bhbh2rcd13ifvqeo0","pricing_plan_id":"cebpf4jnsgd1na2vs0mg"},{"bike_id":"e7848373-3bac-419c-ba92-ae439a13fb70","system_id":"levelo_inurba_marseille","lat":43.28517,"lon":5.37725,"is_reserved":false,"is_disabled":false,"rental_uris":{"android":"levelo://app?vid=e7848373-3bac-419c-ba92-ae439a13fb70","ios":"levelo://app?vid=e7848373-3bac-419c-ba92-ae439a13fb70"},"vehicle_type_id":"4","last_reported":1728418054,"current_range_meters":22000,"station_id":"","pricing_plan_id":"cebpf4jnsgd1na2vs0mg"},{"bike_id":"0d57585b-7c8f-433e-9a31-bdc83d0d9acf","system_id":"levelo_inurba_marseille","lat":43.32657,"lon":5.40997,"is_reserved":false,"is_disabled":false,"rental_uris":{"android":"levelo://app?vid=0d57585b-7c8f-433e-9a31-bdc83d0d9acf","ios":"levelo://app?vid=0d57585b-7c8f-433e-9a31-bdc83d0d9acf"},"vehicle_type_id":"4","last_reported":1728418054,"current_range_meters":6400,"station_id":"ce4bhpp2rcd13ifvqhgg","pricing_plan_id":"cebpf4jnsgd1na2vs0mg"},{"bike_id":"b45ee620-b8e2-4f94-b905-59460303e737","system_id":"levelo_inurba_marseille","lat":43.28729,"lon":5.37934,"is_reserved":false,"is_disabled":false,"rental_uris":{"android":"levelo://app?vid=b45ee620-b8e2-4f94-b905-59460303e737","ios":"levelo://app?vid=b45ee620-b8e2-4f94-b905-59460303e737"},"vehicle_type_id":"4","last_reported":1728418054,"current_range_meters":30800,"station_id":"ce4bh9p2rcd13ifvqec0","pricing_plan_id":"cebpf4jnsgd1na2vs0mg"},{"bike_id":"bc865ca1-2a5b-44fe-b3dd-04aadccb155c","system_id":"levelo_inurba_marseille","lat":43.26799,"lon":5.4027,"is_reserved":false,"is_disabled":false,"rental_uris":{"android":"levelo://app?vid=bc865ca1-2a5b-44fe-b3dd-04aadccb155c","ios":"levelo://app?vid=bc865ca1-2a5b-44fe-b3dd-04aadccb155c"},"vehicle_type_id":"4","last_reported":1728418054,"current_range_meters":38800,"station_id":"ce501612rcd8frsf0b60","pricing_plan_id":"cebpf4jnsgd1na2vs0mg"},{"bike_id":"7650707f-a69d-408e-a881-f3a092cf70ab","system_id":"levelo_inurba_marseille","lat":43.28343,"lon":5.39749,"is_reserved":false,"is_disabled":false,"rental_uris":{"android":"levelo://app?vid=7650707f-a69d-408e-a881-f3a092cf70ab","ios":"levelo://app?vid=7650707f-a69d-408e-a881-f3a092cf70ab"},"vehicle_type_id":"4","last_reported":1728418054,"current_range_meters":9200,"station_id":"ce4bgjh2rcd13ifvqbf0","pricing_plan_id":"cebpf4jnsgd1na2vs0mg"},{"bike_id":"f2b75fa6-514c-427b-a3e0-4b73644e7188","system_id":"levelo_inurba_marseille","lat":43.28455,"lon":5.3589,"is_reserved":false,"is_disabled":false,"rental_uris":{"android":"levelo://app?vid=f2b75fa6-514c-427b-a3e0-4b73644e7188","ios":"levelo://app?vid=f2b75fa6-514c-427b-a3e0-4b73644e7188"},"vehicle_type_id":"4","last_reported":1728418054,"current_range_meters":25200,"station_id":"ce4bhah2rcd13ifvqei0","pricing_plan_id":"cebpf4jnsgd1na2vs0mg"},{"bike_id":"2920fcf8-cd0d-44c4-9deb-cbec5543bae7","system_id":"levelo_inurba_marseille","lat":43.25106,"lon":5.40324,"is_reserved":false,"is_disabled":false,"rental_uris":{"android":"levelo://app?vid=2920fcf8-cd0d-44c4-9deb-cbec5543bae7","ios":"levelo://app?vid=2920fcf8-cd0d-44c4-9deb-cbec5543bae7"},"vehicle_type_id":"4","last_reported":1728418054,"current_range_meters":32000,"station_id":"ce4bhlh2rcd13ifvqgig","pricing_plan_id":"cebpf4jnsgd1na2vs0mg"},{"bike_id":"179b7377-8d0b-42bb-be2b-69a7e561c5c6","system_id":"levelo_inurba_marseille","lat":43.28703,"lon":5.39989,"is_reserved":false,"is_disabled":false,"rental_uris":{"android":"levelo://app?vid=179b7377-8d0b-42bb-be2b-69a7e561c5c6","ios":"levelo://app?vid=179b7377-8d0b-42bb-be2b-69a7e561c5c6"},"vehicle_type_id":"4","last_reported":1728418054,"current_range_meters":4800,"station_id":"ce4bho92rcd13ifvqh3g","pricing_plan_id":"cebpf4jnsgd1na2vs0mg"},{"bike_id":"c99a54ff-16d7-4a70-85c9-f18e78cfc26c","system_id":"levelo_inurba_marseille","lat":43.25106,"lon":5.40325,"is_reserved":false,"is_disabled":false,"rental_uris":{"android":"levelo://app?vid=c99a54ff-16d7-4a70-85c9-f18e78cfc26c","ios":"levelo://app?vid=c99a54ff-16d7-4a70-85c9-f18e78cfc26c"},"vehicle_type_id":"4","last_reported":1728418054,"current_range_meters":14000,"station_id":"ce4bhlh2rcd13ifvqgig","pricing_plan_id":"cebpf4jnsgd1na2vs0mg"},{"bike_id":"f141ad01-9c56-4f7c-a96f-b6632fb2c90e","system_id":"levelo_inurba_marseille","lat":43.28713,"lon":5.37386,"is_reserved":false,"is_disabled":false,"rental_uris":{"android":"levelo://app?vid=f141ad01-9c56-4f7c-a96f-b6632fb2c90e","ios":"levelo://app?vid=f141ad01-9c56-4f7c-a96f-b6632fb2c90e"},"vehicle_type_id":"4","last_reported":1728418054,"current_range_meters":38800,"station_id":"ce4bh3p2rcd13ifvqdq0","pricing_plan_id":"cebpf4jnsgd1na2vs0mg"},{"bike_id":"90919660-0147-402b-b974-4d0ac90e9208","system_id":"levelo_inurba_marseille","lat":43.30884,"lon":5.39639,"is_reserved":false,"is_disabled":false,"rental_uris":{"android":"levelo://app?vid=90919660-0147-402b-b974-4d0ac90e9208","ios":"levelo://app?vid=90919660-0147-402b-b974-4d0ac90e9208"},"vehicle_type_id":"4","last_reported":1728418054,"current_range_meters":16800,"station_id":"ce4bh012rcd13ifvqcv0","pricing_plan_id":"cebpf4jnsgd1na2vs0mg"},{"bike_id":"650ab51e-7370-4612-a6a3-3dcbba4ae599","system_id":"levelo_inurba_marseille","lat":43.28618,"lon":5.35104,"is_reserved":false,"is_disabled":false,"rental_uris":{"android":"levelo://app?vid=650ab51e-7370-4612-a6a3-3dcbba4ae599","ios":"levelo://app?vid=650ab51e-7370-4612-a6a3-3dcbba4ae599"},"vehicle_type_id":"4","last_reported":1728418054,"current_range_meters":38800,"station_id":"ce4bhch2rcd13ifvqeug","pricing_plan_id":"cebpf4jnsgd1na2vs0mg"},{"bike_id":"fbab334e-6568-46ac-88f7-b856d9d2d598","system_id":"levelo_inurba_marseille","lat":43.23191,"lon":5.35562,"is_reserved":false,"is_disabled":false,"rental_uris":{"android":"levelo://app?vid=fbab334e-6568-46ac-88f7-b856d9d2d598","ios":"levelo://app?vid=fbab334e-6568-46ac-88f7-b856d9d2d598"},"vehicle_type_id":"4","last_reported":1728418054,"current_range_meters":38800,"station_id":"ce4bhu92rcd13ifvqi70","pricing_plan_id":"cebpf4jnsgd1na2vs0mg"},{"bike_id":"6eec8a1d-b7af-4d2d-9059-6a23e0c56540","system_id":"levelo_inurba_marseille","lat":43.30244,"lon":5.40049,"is_reserved":false,"is_disabled":false,"rental_uris":{"android":"levelo://app?vid=6eec8a1d-b7af-4d2d-9059-6a23e0c56540","ios":"levelo://app?vid=6eec8a1d-b7af-4d2d-9059-6a23e0c56540"},"vehicle_type_id":"4","last_reported":1728418054,"current_range_meters":32000,"station_id":"ce4bgvh2rcd13ifvqcs0","pricing_plan_id":"cebpf4jnsgd1na2vs0mg"},{"bike_id":"990bace9-65d7-4dd9-8c58-e7ec3ddbb2b7","system_id":"levelo_inurba_marseille","lat":43.28229,"lon":5.37062,"is_reserved":false,"is_disabled":false,"rental_uris":{"android":"levelo://app?vid=990bace9-65d7-4dd9-8c58-e7ec3ddbb2b7","ios":"levelo://app?vid=990bace9-65d7-4dd9-8c58-e7ec3ddbb2b7"},"vehicle_type_id":"4","last_reported":1728418054,"current_range_meters":34000,"station_id":"ce4bha12rcd13ifvqef0","pricing_plan_id":"cebpf4jnsgd1na2vs0mg"},{"bike_id":"e818475b-ada9-452b-843e-5c96d9efd1fe","system_id":"levelo_inurba_marseille","lat":43.31227,"lon":5.36867,"is_reserved":false,"is_disabled":false,"rental_uris":{"android":"levelo://app?vid=e818475b-ada9-452b-843e-5c96d9efd1fe","ios":"levelo://app?vid=e818475b-ada9-452b-843e-5c96d9efd1fe"},"vehicle_type_id":"4","last_reported":1728418054,"current_range_meters":24800,"station_id":"ce4bgl92rcd13ifvqbq0","pricing_plan_id":"cebpf4jnsgd1na2vs0mg"},{"bike_id":"10618fac-7e9b-48ad-a67d-2c44ef578753","system_id":"levelo_inurba_marseille","lat":43.309242,"lon":5.401435,"is_reserved":false,"is_disabled":false,"rental_uris":{"android":"levelo://app?vid=10618fac-7e9b-48ad-a67d-2c44ef578753","ios":"levelo://app?vid=10618fac-7e9b-48ad-a67d-2c44ef578753"},"vehicle_type_id":"4","last_reported":1728418054,"current_range_meters":3200,"station_id":"ce4bgvp2rcd13ifvqct0","pricing_plan_id":"cebpf4jnsgd1na2vs0mg"},{"bike_id":"4ac167e8-9680-4075-a60b-124e1bdede2e","system_id":"levelo_inurba_marseille","lat":43.31716,"lon":5.43707,"is_reserved":false,"is_disabled":false,"rental_uris":{"android":"levelo://app?vid=4ac167e8-9680-4075-a60b-124e1bdede2e","ios":"levelo://app?vid=4ac167e8-9680-4075-a60b-124e1bdede2e"},"vehicle_type_id":"4","last_reported":1728418054,"current_range_meters":27600,"station_id":"ce4bhp92rcd13ifvqhcg","pricing_plan_id":"cebpf4jnsgd1na2vs0mg"},{"bike_id":"ac63b881-53ef-4e4b-b5e6-9f4914bcf168","system_id":"levelo_inurba_marseille","lat":43.23057,"lon":5.35491,"is_reserved":false,"is_disabled":false,"rental_uris":{"android":"levelo://app?vid=ac63b881-53ef-4e4b-b5e6-9f4914bcf168","ios":"levelo://app?vid=ac63b881-53ef-4e4b-b5e6-9f4914bcf168"},"vehicle_type_id":"4","last_reported":1728418054,"current_range_meters":28800,"station_id":"cpo3342slgdg3j2ifvpg","pricing_plan_id":"cebpf4jnsgd1na2vs0mg"},{"bike_id":"dd953f34-b2a0-4bdd-96c1-94fe0639a11c","system_id":"levelo_inurba_marseille","lat":43.28558,"lon":5.39504,"is_reserved":false,"is_disabled":false,"rental_uris":{"android":"levelo://app?vid=dd953f34-b2a0-4bdd-96c1-94fe0639a11c","ios":"levelo://app?vid=dd953f34-b2a0-4bdd-96c1-94fe0639a11c"},"vehicle_type_id":"4","last_reported":1728418054,"current_range_meters":38400,"station_id":"ce4bh292rcd13ifvqdg0","pricing_plan_id":"cebpf4jnsgd1na2vs0mg"},{"bike_id":"a185443f-1207-408b-8c72-393a999c91bf","system_id":"levelo_inurba_marseille","lat":43.23962,"lon":5.36638,"is_reserved":false,"is_disabled":false,"rental_uris":{"android":"levelo://app?vid=a185443f-1207-408b-8c72-393a999c91bf","ios":"levelo://app?vid=a185443f-1207-408b-8c72-393a999c91bf"},"vehicle_type_id":"4","last_reported":1728418054,"current_range_meters":22000,"station_id":"ce4bhi12rcd13ifvqfp0","pricing_plan_id":"cebpf4jnsgd1na2vs0mg"},{"bike_id":"69098d09-55d2-40b9-9e6a-a34d7649ae3d","system_id":"levelo_inurba_marseille","lat":43.27496,"lon":5.42449,"is_reserved":false,"is_disabled":false,"rental_uris":{"android":"levelo://app?vid=69098d09-55d2-40b9-9e6a-a34d7649ae3d","ios":"levelo://app?vid=69098d09-55d2-40b9-9e6a-a34d7649ae3d"},"vehicle_type_id":"4","last_reported":1728418054,"current_range_meters":30400,"station_id":"ce4bhn92rcd13ifvqgrg","pricing_plan_id":"cebpf4jnsgd1na2vs0mg"},{"bike_id":"587fe35f-2dc8-4faf-89f1-71be7107b8ea","system_id":"levelo_inurba_marseille","lat":43.28453,"lon":5.35887,"is_reserved":false,"is_disabled":false,"rental_uris":{"android":"levelo://app?vid=587fe35f-2dc8-4faf-89f1-71be7107b8ea","ios":"levelo://app?vid=587fe35f-2dc8-4faf-89f1-71be7107b8ea"},"vehicle_type_id":"4","last_reported":1728418054,"current_range_meters":22000,"station_id":"ce4bhah2rcd13ifvqei0","pricing_plan_id":"cebpf4jnsgd1na2vs0mg"},{"bike_id":"923f6136-540e-45bb-926f-0ee0d11e3eea","system_id":"levelo_inurba_marseille","lat":43.31681,"lon":5.40473,"is_reserved":false,"is_disabled":false,"rental_uris":{"android":"levelo://app?vid=923f6136-540e-45bb-926f-0ee0d11e3eea","ios":"levelo://app?vid=923f6136-540e-45bb-926f-0ee0d11e3eea"},"vehicle_type_id":"4","last_reported":1728418054,"current_range_meters":28000,"station_id":"ce4bh012rcd13ifvqd00","pricing_plan_id":"cebpf4jnsgd1na2vs0mg"},{"bike_id":"ee3f614b-373b-449c-a58d-35e47f5eafd2","system_id":"levelo_inurba_marseille","lat":43.23194,"lon":5.35549,"is_reserved":false,"is_disabled":false,"rental_uris":{"android":"levelo://app?vid=ee3f614b-373b-449c-a58d-35e47f5eafd2","ios":"levelo://app?vid=ee3f614b-373b-449c-a58d-35e47f5eafd2"},"vehicle_type_id":"4","last_reported":1728418054,"current_range_meters":6400,"station_id":"ce4bhu92rcd13ifvqi70","pricing_plan_id":"cebpf4jnsgd1na2vs0mg"},{"bike_id":"9e3fe2e1-eca8-4201-b615-2eaf2b4dc3f2","system_id":"levelo_inurba_marseille","lat":43.23196,"lon":5.35552,"is_reserved":false,"is_disabled":false,"rental_uris":{"android":"levelo://app?vid=9e3fe2e1-eca8-4201-b615-2eaf2b4dc3f2","ios":"levelo://app?vid=9e3fe2e1-eca8-4201-b615-2eaf2b4dc3f2"},"vehicle_type_id":"4","last_reported":1728418054,"current_range_meters":36800,"station_id":"ce4bhu92rcd13ifvqi70","pricing_plan_id":"cebpf4jnsgd1na2vs0mg"},{"bike_id":"8fc0113f-2c1e-4744-be21-07ecfed4f8d0","system_id":"levelo_inurba_marseille","lat":43.25498,"lon":5.37651,"is_reserved":false,"is_disabled":false,"rental_uris":{"android":"levelo://app?vid=8fc0113f-2c1e-4744-be21-07ecfed4f8d0","ios":"levelo://app?vid=8fc0113f-2c1e-4744-be21-07ecfed4f8d0"},"vehicle_type_id":"4","last_reported":1728418054,"current_range_meters":36000,"station_id":"ce4bhh12rcd13ifvqff0","pricing_plan_id":"cebpf4jnsgd1na2vs0mg"},{"bike_id":"a62e60d5-76e9-4d97-8bc0-b9f335121f55","system_id":"levelo_inurba_marseille","lat":43.3172,"lon":5.42401,"is_reserved":false,"is_disabled":false,"rental_uris":{"android":"levelo://app?vid=a62e60d5-76e9-4d97-8bc0-b9f335121f55","ios":"levelo://app?vid=a62e60d5-76e9-4d97-8bc0-b9f335121f55"},"vehicle_type_id":"4","last_reported":1728418054,"current_range_meters":11200,"station_id":"ce4bhp92rcd13ifvqhbg","pricing_plan_id":"cebpf4jnsgd1na2vs0mg"},{"bike_id":"7da3e4b2-7f14-4de1-84fe-a8d5a4f793da","system_id":"levelo_inurba_marseille","lat":43.30793,"lon":5.43518,"is_reserved":false,"is_disabled":false,"rental_uris":{"android":"levelo://app?vid=7da3e4b2-7f14-4de1-84fe-a8d5a4f793da","ios":"levelo://app?vid=7da3e4b2-7f14-4de1-84fe-a8d5a4f793da"},"vehicle_type_id":"4","last_reported":1728418054,"current_range_meters":26000,"station_id":"ce4bhph2rcd13ifvqheg","pricing_plan_id":"cebpf4jnsgd1na2vs0mg"},{"bike_id":"4724fa8c-5154-4305-8724-cc43a44ebaae","system_id":"levelo_inurba_marseille","lat":43.32367,"lon":5.38883,"is_reserved":false,"is_disabled":false,"rental_uris":{"android":"levelo://app?vid=4724fa8c-5154-4305-8724-cc43a44ebaae","ios":"levelo://app?vid=4724fa8c-5154-4305-8724-cc43a44ebaae"},"vehicle_type_id":"4","last_reported":1728418054,"current_range_meters":13600,"station_id":"ce4bhqp2rcd13ifvqhog","pricing_plan_id":"cebpf4jnsgd1na2vs0mg"},{"bike_id":"6182faa3-3220-4735-a7bc-46a74fcfe8ce","system_id":"levelo_inurba_marseille","lat":43.301971,"lon":5.400443,"is_reserved":false,"is_disabled":false,"rental_uris":{"android":"levelo://app?vid=6182faa3-3220-4735-a7bc-46a74fcfe8ce","ios":"levelo://app?vid=6182faa3-3220-4735-a7bc-46a74fcfe8ce"},"vehicle_type_id":"4","last_reported":1728418054,"current_range_meters":37600,"station_id":"ce4bgvh2rcd13ifvqcs0","pricing_plan_id":"cebpf4jnsgd1na2vs0mg"},{"bike_id":"ebc11449-7a49-4aae-85db-78e24f6bb410","system_id":"levelo_inurba_marseille","lat":43.28154,"lon":5.42651,"is_reserved":false,"is_disabled":false,"rental_uris":{"android":"levelo://app?vid=ebc11449-7a49-4aae-85db-78e24f6bb410","ios":"levelo://app?vid=ebc11449-7a49-4aae-85db-78e24f6bb410"},"vehicle_type_id":"4","last_reported":1728418054,"current_range_meters":10800,"station_id":"ce4bhnh2rcd13ifvqgug","pricing_plan_id":"cebpf4jnsgd1na2vs0mg"},{"bike_id":"dfc21774-e7c6-4759-ad88-2058278088ac","system_id":"levelo_inurba_marseille","lat":43.3153,"lon":5.38031,"is_reserved":false,"is_disabled":false,"rental_uris":{"android":"levelo://app?vid=dfc21774-e7c6-4759-ad88-2058278088ac","ios":"levelo://app?vid=dfc21774-e7c6-4759-ad88-2058278088ac"},"vehicle_type_id":"4","last_reported":1728418054,"current_range_meters":39200,"station_id":"ce4bhsp2rcd13ifvqi50","pricing_plan_id":"cebpf4jnsgd1na2vs0mg"},{"bike_id":"54465798-80ff-4aab-be20-d03bb456b3bc","system_id":"levelo_inurba_marseille","lat":43.31689,"lon":5.40464,"is_reserved":false,"is_disabled":false,"rental_uris":{"android":"levelo://app?vid=54465798-80ff-4aab-be20-d03bb456b3bc","ios":"levelo://app?vid=54465798-80ff-4aab-be20-d03bb456b3bc"},"vehicle_type_id":"4","last_reported":1728418054,"current_range_meters":20800,"station_id":"ce4bh012rcd13ifvqd00","pricing_plan_id":"cebpf4jnsgd1na2vs0mg"},{"bike_id":"aa633575-e98c-4b00-80a5-6db29a8438f8","system_id":"levelo_inurba_marseille","lat":43.29549,"lon":5.42284,"is_reserved":false,"is_disabled":false,"rental_uris":{"android":"levelo://app?vid=aa633575-e98c-4b00-80a5-6db29a8438f8","ios":"levelo://app?vid=aa633575-e98c-4b00-80a5-6db29a8438f8"},"vehicle_type_id":"4","last_reported":1728418054,"current_range_meters":38800,"station_id":"ce4bhph2rcd13ifvqhdg","pricing_plan_id":"cebpf4jnsgd1na2vs0mg"},{"bike_id":"8b10cb9f-15d9-4eb9-a18e-896430cdcbda","system_id":"levelo_inurba_marseille","lat":43.32033,"lon":5.40822,"is_reserved":false,"is_disabled":false,"rental_uris":{"android":"levelo://app?vid=8b10cb9f-15d9-4eb9-a18e-896430cdcbda","ios":"levelo://app?vid=8b10cb9f-15d9-4eb9-a18e-896430cdcbda"},"vehicle_type_id":"4","last_reported":1728418054,"current_range_meters":27600,"station_id":"ce4bhq92rcd13ifvqhjg","pricing_plan_id":"cebpf4jnsgd1na2vs0mg"},{"bike_id":"aad5254d-04f2-4e14-a416-47a53c9ac0c6","system_id":"levelo_inurba_marseille","lat":43.28457,"lon":5.35895,"is_reserved":false,"is_disabled":false,"rental_uris":{"android":"levelo://app?vid=aad5254d-04f2-4e14-a416-47a53c9ac0c6","ios":"levelo://app?vid=aad5254d-04f2-4e14-a416-47a53c9ac0c6"},"vehicle_type_id":"4","last_reported":1728418054,"current_range_meters":38800,"station_id":"ce4bhah2rcd13ifvqei0","pricing_plan_id":"cebpf4jnsgd1na2vs0mg"},{"bike_id":"1ed5e428-910d-45ef-8800-bd57d7ef8ae5","system_id":"levelo_inurba_marseille","lat":43.31324,"lon":5.39693,"is_reserved":false,"is_disabled":false,"rental_uris":{"android":"levelo://app?vid=1ed5e428-910d-45ef-8800-bd57d7ef8ae5","ios":"levelo://app?vid=1ed5e428-910d-45ef-8800-bd57d7ef8ae5"},"vehicle_type_id":"4","last_reported":1728418054,"current_range_meters":39200,"station_id":"ce4bgvp2rcd13ifvqcu0","pricing_plan_id":"cebpf4jnsgd1na2vs0mg"},{"bike_id":"6fb0f3df-00f7-4cd7-83ce-4768723133bf","system_id":"levelo_inurba_marseille","lat":43.29923,"lon":5.38503,"is_reserved":false,"is_disabled":false,"rental_uris":{"android":"levelo://app?vid=6fb0f3df-00f7-4cd7-83ce-4768723133bf","ios":"levelo://app?vid=6fb0f3df-00f7-4cd7-83ce-4768723133bf"},"vehicle_type_id":"4","last_reported":1728418054,"current_range_meters":9200,"station_id":"","pricing_plan_id":"cebpf4jnsgd1na2vs0mg"},{"bike_id":"ff3d256e-b83f-4b50-bcdf-8cbbb0159b40","system_id":"levelo_inurba_marseille","lat":43.25816,"lon":5.38872,"is_reserved":false,"is_disabled":false,"rental_uris":{"android":"levelo://app?vid=ff3d256e-b83f-4b50-bcdf-8cbbb0159b40","ios":"levelo://app?vid=ff3d256e-b83f-4b50-bcdf-8cbbb0159b40"},"vehicle_type_id":"4","last_reported":1728418054,"current_range_meters":33200,"station_id":"","pricing_plan_id":"cebpf4jnsgd1na2vs0mg"},{"bike_id":"c6f0f0e6-ff23-434a-aa40-c657d08769f8","system_id":"levelo_inurba_marseille","lat":43.31758,"lon":5.39009,"is_reserved":false,"is_disabled":false,"rental_uris":{"android":"levelo://app?vid=c6f0f0e6-ff23-434a-aa40-c657d08769f8","ios":"levelo://app?vid=c6f0f0e6-ff23-434a-aa40-c657d08769f8"},"vehicle_type_id":"4","last_reported":1728418054,"current_range_meters":38000,"station_id":"ce4bhqp2rcd13ifvqhng","pricing_plan_id":"cebpf4jnsgd1na2vs0mg"},{"bike_id":"e692ffff-0cf2-424c-a9d2-5603799e35a7","system_id":"levelo_inurba_marseille","lat":43.3117,"lon":5.38725,"is_reserved":false,"is_disabled":false,"rental_uris":{"android":"levelo://app?vid=e692ffff-0cf2-424c-a9d2-5603799e35a7","ios":"levelo://app?vid=e692ffff-0cf2-424c-a9d2-5603799e35a7"},"vehicle_type_id":"4","last_reported":1728418054,"current_range_meters":20400,"station_id":"ce4bgv12rcd13ifvqcp0","pricing_plan_id":"cebpf4jnsgd1na2vs0mg"},{"bike_id":"3bb6ab06-094b-4596-af02-7025f4ef89e8","system_id":"levelo_inurba_marseille","lat":43.31169,"lon":5.38732,"is_reserved":false,"is_disabled":false,"rental_uris":{"android":"levelo://app?vid=3bb6ab06-094b-4596-af02-7025f4ef89e8","ios":"levelo://app?vid=3bb6ab06-094b-4596-af02-7025f4ef89e8"},"vehicle_type_id":"4","last_reported":1728418054,"current_range_meters":30800,"station_id":"ce4bgv12rcd13ifvqcp0","pricing_plan_id":"cebpf4jnsgd1na2vs0mg"},{"bike_id":"1027f6bf-9b3c-41af-9f81-0c58d1959e85","system_id":"levelo_inurba_marseille","lat":43.2862,"lon":5.35102,"is_reserved":false,"is_disabled":false,"rental_uris":{"android":"levelo://app?vid=1027f6bf-9b3c-41af-9f81-0c58d1959e85","ios":"levelo://app?vid=1027f6bf-9b3c-41af-9f81-0c58d1959e85"},"vehicle_type_id":"4","last_reported":1728418054,"current_range_meters":24800,"station_id":"ce4bhch2rcd13ifvqeug","pricing_plan_id":"cebpf4jnsgd1na2vs0mg"},{"bike_id":"2e8e4567-7336-4973-8476-66cf2e53b157","system_id":"levelo_inurba_marseille","lat":43.24803,"lon":5.37454,"is_reserved":false,"is_disabled":false,"rental_uris":{"android":"levelo://app?vid=2e8e4567-7336-4973-8476-66cf2e53b157","ios":"levelo://app?vid=2e8e4567-7336-4973-8476-66cf2e53b157"},"vehicle_type_id":"4","last_reported":1728418054,"current_range_meters":37600,"station_id":"ce4bhgh2rcd13ifvqfb0","pricing_plan_id":"cebpf4jnsgd1na2vs0mg"},{"bike_id":"0f8e5368-fba9-4d54-a446-5b8f578eedcd","system_id":"levelo_inurba_marseille","lat":43.27995,"lon":5.40022,"is_reserved":false,"is_disabled":false,"rental_uris":{"android":"levelo://app?vid=0f8e5368-fba9-4d54-a446-5b8f578eedcd","ios":"levelo://app?vid=0f8e5368-fba9-4d54-a446-5b8f578eedcd"},"vehicle_type_id":"4","last_reported":1728418054,"current_range_meters":14000,"station_id":"ce4bho92rcd13ifvqh4g","pricing_plan_id":"cebpf4jnsgd1na2vs0mg"},{"bike_id":"6002fc1b-afe3-41df-8ca0-28d552046e61","system_id":"levelo_inurba_marseille","lat":43.3014,"lon":5.39863,"is_reserved":false,"is_disabled":false,"rental_uris":{"android":"levelo://app?vid=6002fc1b-afe3-41df-8ca0-28d552046e61","ios":"levelo://app?vid=6002fc1b-afe3-41df-8ca0-28d552046e61"},"vehicle_type_id":"4","last_reported":1728418054,"current_range_meters":1200,"station_id":"ce4bh0h2rcd13ifvqd40","pricing_plan_id":"cebpf4jnsgd1na2vs0mg"},{"bike_id":"78ede81f-e425-47b9-9d00-597d3748bdca","system_id":"levelo_inurba_marseille","lat":43.27997,"lon":5.40018,"is_reserved":false,"is_disabled":false,"rental_uris":{"android":"levelo://app?vid=78ede81f-e425-47b9-9d00-597d3748bdca","ios":"levelo://app?vid=78ede81f-e425-47b9-9d00-597d3748bdca"},"vehicle_type_id":"4","last_reported":1728418054,"current_range_meters":30000,"station_id":"ce4bho92rcd13ifvqh4g","pricing_plan_id":"cebpf4jnsgd1na2vs0mg"},{"bike_id":"90886a14-1cfd-4faa-9cb4-da24f74c6d8a","system_id":"levelo_inurba_marseille","lat":43.26064,"lon":5.39396,"is_reserved":false,"is_disabled":false,"rental_uris":{"android":"levelo://app?vid=90886a14-1cfd-4faa-9cb4-da24f74c6d8a","ios":"levelo://app?vid=90886a14-1cfd-4faa-9cb4-da24f74c6d8a"},"vehicle_type_id":"4","last_reported":1728418054,"current_range_meters":22000,"station_id":"ce4bhh92rcd13ifvqfj0","pricing_plan_id":"cebpf4jnsgd1na2vs0mg"},{"bike_id":"09a16eb8-943b-4fa3-af4a-bc84f292cf52","system_id":"levelo_inurba_marseille","lat":43.30927,"lon":5.40144,"is_reserved":false,"is_disabled":false,"rental_uris":{"android":"levelo://app?vid=09a16eb8-943b-4fa3-af4a-bc84f292cf52","ios":"levelo://app?vid=09a16eb8-943b-4fa3-af4a-bc84f292cf52"},"vehicle_type_id":"4","last_reported":1728418054,"current_range_meters":5600,"station_id":"ce4bgvp2rcd13ifvqct0","pricing_plan_id":"cebpf4jnsgd1na2vs0mg"},{"bike_id":"ae20c095-25db-41f6-a77d-7ed333fc844c","system_id":"levelo_inurba_marseille","lat":43.29262,"lon":5.38444,"is_reserved":false,"is_disabled":false,"rental_uris":{"android":"levelo://app?vid=ae20c095-25db-41f6-a77d-7ed333fc844c","ios":"levelo://app?vid=ae20c095-25db-41f6-a77d-7ed333fc844c"},"vehicle_type_id":"4","last_reported":1728418054,"current_range_meters":5600,"station_id":"ce4bh692rcd13ifvqea0","pricing_plan_id":"cebpf4jnsgd1na2vs0mg"},{"bike_id":"5d98e0b3-1c48-4bce-8ffe-0e2c2ea088a0","system_id":"levelo_inurba_marseille","lat":43.23054,"lon":5.35491,"is_reserved":false,"is_disabled":false,"rental_uris":{"android":"levelo://app?vid=5d98e0b3-1c48-4bce-8ffe-0e2c2ea088a0","ios":"levelo://app?vid=5d98e0b3-1c48-4bce-8ffe-0e2c2ea088a0"},"vehicle_type_id":"4","last_reported":1728418054,"current_range_meters":29600,"station_id":"cpo3342slgdg3j2ifvpg","pricing_plan_id":"cebpf4jnsgd1na2vs0mg"},{"bike_id":"ef22bd72-2f5b-4535-9fe9-7a734953e69b","system_id":"levelo_inurba_marseille","lat":43.29862,"lon":5.3974,"is_reserved":false,"is_disabled":false,"rental_uris":{"android":"levelo://app?vid=ef22bd72-2f5b-4535-9fe9-7a734953e69b","ios":"levelo://app?vid=ef22bd72-2f5b-4535-9fe9-7a734953e69b"},"vehicle_type_id":"4","last_reported":1728418054,"current_range_meters":14400,"station_id":"ce4bh0h2rcd13ifvqd50","pricing_plan_id":"cebpf4jnsgd1na2vs0mg"},{"bike_id":"2ddb229b-4f5d-447c-866f-e3aa4068631d","system_id":"levelo_inurba_marseille","lat":43.29157,"lon":5.38606,"is_reserved":false,"is_disabled":false,"rental_uris":{"android":"levelo://app?vid=2ddb229b-4f5d-447c-866f-e3aa4068631d","ios":"levelo://app?vid=2ddb229b-4f5d-447c-866f-e3aa4068631d"},"vehicle_type_id":"4","last_reported":1728418054,"current_range_meters":12800,"station_id":"","pricing_plan_id":"cebpf4jnsgd1na2vs0mg"},{"bike_id":"844bbe36-5537-46cb-8c0c-5ea76aec4b09","system_id":"levelo_inurba_marseille","lat":43.31688,"lon":5.40479,"is_reserved":false,"is_disabled":false,"rental_uris":{"android":"levelo://app?vid=844bbe36-5537-46cb-8c0c-5ea76aec4b09","ios":"levelo://app?vid=844bbe36-5537-46cb-8c0c-5ea76aec4b09"},"vehicle_type_id":"4","last_reported":1728418054,"current_range_meters":34000,"station_id":"ce4bh012rcd13ifvqd00","pricing_plan_id":"cebpf4jnsgd1na2vs0mg"},{"bike_id":"2c122952-73d5-47db-b8b2-6037d9a3e171","system_id":"levelo_inurba_marseille","lat":43.28941,"lon":5.36637,"is_reserved":false,"is_disabled":false,"rental_uris":{"android":"levelo://app?vid=2c122952-73d5-47db-b8b2-6037d9a3e171","ios":"levelo://app?vid=2c122952-73d5-47db-b8b2-6037d9a3e171"},"vehicle_type_id":"4","last_reported":1728418054,"current_range_meters":38800,"station_id":"ce4bhap2rcd13ifvqek0","pricing_plan_id":"cebpf4jnsgd1na2vs0mg"},