{"last_updated":1738761349,"ttl":60,"version":"2.2","data":{"bikes":[{"bike_id":"5aa17bed-e19f-41ae-9fc6-0f4d961fb09b","system_id":"levelo_inurba_marseille","lat":43.30592,"lon":5.36723,"is_reserved":false,"is_disabled":false,"rental_uris":{"android":"levelo://app?vid=5aa17bed-e19f-41ae-9fc6-0f4d961fb09b","ios":"levelo://app?vid=5aa17bed-e19f-41ae-9fc6-0f4d961fb09b"},"vehicle_type_id":"4","last_reported":1738761349,"current_range_meters":36400,"station_id":"ce4bgrp2rcd13ifvqc9g","pricing_plan_id":"cebpf4jnsgd1na2vs0mg"},{"bike_id":"a5f7c4f5-34ee-4436-8ad6-ab0e42629126","system_id":"levelo_inurba_marseille","lat":43.31334,"lon":5.39697,"is_reserved":false,"is_disabled":false,"rental_uris":{"android":"levelo://app?vid=a5f7c4f5-34ee-4436-8ad6-ab0e42629126","ios":"levelo://app?vid=a5f7c4f5-34ee-4436-8ad6-ab0e42629126"},"vehicle_type_id":"4","last_reported":1738761349,"current_range_meters":26800,"station_id":"ce4bgvp2rcd13ifvqcu0","pricing_plan_id":"cebpf4jnsgd1na2vs0mg"},{"bike_id":"419c8c22-86a4-4ef5-91f4-a06b4c2e4bba","system_id":"levelo_inurba_marseille","lat":43.22937,"lon":5.35379,"is_reserved":false,"is_disabled":false,"rental_uris":{"android":"levelo://app?vid=419c8c22-86a4-4ef5-91f4-a06b4c2e4bba","ios":"levelo://app?vid=419c8c22-86a4-4ef5-91f4-a06b4c2e4bba"},"vehicle_type_id":"4","last_reported":1738761349,"current_range_meters":26800,"station_id":"cpo3532slgdg3j2ikp40","pricing_plan_id":"cebpf4jnsgd1na2vs0mg"},{"bike_id":"a101b531-de49-4cf0-a412-2872fa10f083","system_id":"levelo_inurba_marseille","lat":43.25934,"lon":5.40909,"is_reserved":false,"is_disabled":false,"rental_uris":{"android":"levelo://app?vid=a101b531-de49-4cf0-a412-2872fa10f083","ios":"levelo://app?vid=a101b531-de49-4cf0-a412-2872fa10f083"},"vehicle_type_id":"4","last_reported":1738761349,"current_range_meters":17200,"station_id":"ce4bhm92rcd13ifvqglg","pricing_plan_id":"cebpf4jnsgd1na2vs0mg"},{"bike_id":"ba05dbef-cf19-40fa-8248-bd31b49bcc49","system_id":"levelo_inurba_marseille","lat":43.25911,"lon":5.4085,"is_reserved":false,"is_disabled":false,"rental_uris":{"android":"levelo://app?vid=ba05dbef-cf19-40fa-8248-bd31b49bcc49","ios":"levelo://app?vid=ba05dbef-cf19-40fa-8248-bd31b49bcc49"},"vehicle_type_id":"4","last_reported":1738761349,"current_range_meters":38400,"station_id":"ce4bhm92rcd13ifvqglg","pricing_plan_id":"cebpf4jnsgd1na2vs0mg"},{"bike_id":"2f0a2b2d-8a8a-4142-bb85-2511658eac70","system_id":"levelo_inurba_marseille","lat":43.28949,"lon":5.3665,"is_reserved":false,"is_disabled":false,"rental_uris":{"android":"levelo://app?vid=2f0a2b2d-8a8a-4142-bb85-2511658eac70","ios":"levelo://app?vid=2f0a2b2d-8a8a-4142-bb85-2511658eac70"},"vehicle_type_id":"4","last_reported":1738761349,"current_range_meters":37600,"station_id":"ce4bhap2rcd13ifvqek0","pricing_plan_id":"cebpf4jnsgd1na2vs0mg"},{"bike_id":"8a02c9a1-15e4-471d-ab6d-e972dacf97b1","system_id":"levelo_inurba_marseille","lat":43.30562,"lon":5.36526,"is_reserved":false,"is_disabled":false,"rental_uris":{"android":"levelo://app?vid=8a02c9a1-15e4-471d-ab6d-e972dacf97b1","ios":"levelo://app?vid=8a02c9a1-15e4-471d-ab6d-e972dacf97b1"},"vehicle_type_id":"4","last_reported":1738761349,"current_range_meters":36000,"station_id":"ce4bgs12rcd13ifvqcag","pricing_plan_id":"cebpf4jnsgd1na2vs0mg"},{"bike_id":"caf558c3-a9ad-4fe3-92b6-038f06ef09fe","system_id":"levelo_inurba_marseille","lat":43.2319,"lon":5.35554,"is_reserved":false,"is_disabled":false,"rental_uris":{"android":"levelo://app?vid=caf558c3-a9ad-4fe3-92b6-038f06ef09fe","ios":"levelo://app?vid=caf558c3-a9ad-4fe3-92b6-038f06ef09fe"},"vehicle_type_id":"4","last_reported":1738761349,"current_range_meters":11600,"station_id":"ce4bhu92rcd13ifvqi70","pricing_plan_id":"cebpf4jnsgd1na2vs0mg"},{"bike_id":"abe7346e-5c02-4359-8a3c-6f263566855d","system_id":"levelo_inurba_marseille","lat":43.28459,"lon":5.38414,"is_reserved":false,"is_disabled":false,"rental_uris":{"android":"levelo://app?vid=abe7346e-5c02-4359-8a3c-6f263566855d","ios":"levelo://app?vid=abe7346e-5c02-4359-8a3c-6f263566855d"},"vehicle_type_id":"4","last_reported":1738761349,"current_range_meters":12400,"station_id":"ce4bh512rcd13ifvqe3g","pricing_plan_id":"cebpf4jnsgd1na2vs0mg"},{"bike_id":"47aff644-5979-478a-a0fd-f3a56ebe8580","system_id":"levelo_inurba_marseille","lat":43.30949,"lon":5.39036,"is_reserved":false,"is_disabled":false,"rental_uris":{"android":"levelo://app?vid=47aff644-5979-478a-a0fd-f3a56ebe8580","ios":"levelo://app?vid=47aff644-5979-478a-a0fd-f3a56ebe8580"},"vehicle_type_id":"4","last_reported":1738761349,"current_range_meters":13600,"station_id":"ce4bgup2rcd13ifvqco0","pricing_plan_id":"cebpf4jnsgd1na2vs0mg"},{"bike_id":"7e19e353-1331-446b-aa47-ecd228ac2406","system_id":"levelo_inurba_marseille","lat":43.30451,"lon":5.37909,"is_reserved":false,"is_disabled":false,"rental_uris":{"android":"levelo://app?vid=7e19e353-1331-446b-aa47-ecd228ac2406","ios":"levelo://app?vid=7e19e353-1331-446b-aa47-ecd228ac2406"},"vehicle_type_id":"4","last_reported":1738761349,"current_range_meters":36800,"station_id":"ce4bgup2rcd13ifvqcn0","pricing_plan_id":"cebpf4jnsgd1na2vs0mg"},{"bike_id":"3b3750dc-9cdb-41a8-a721-f3277ba575c5","system_id":"levelo_inurba_marseille","lat":43.29718,"lon":5.37297,"is_reserved":false,"is_disabled":false,"rental_uris":{"android":"levelo://app?vid=3b3750dc-9cdb-41a8-a721-f3277ba575c5","ios":"levelo://app?vid=3b3750dc-9cdb-41a8-a721-f3277ba575c5"},"vehicle_type_id":"4","last_reported":1738761349,"current_range_meters":18800,"station_id":"ce4bgk12rcd13ifvqbj0","pricing_plan_id":"cebpf4jnsgd1na2vs0mg"},{"bike_id":"2f4f9800-0592-4307-ad73-c2f528c7ea3d","system_id":"levelo_inurba_marseille","lat":43.30461,"lon":5.37901,"is_reserved":false,"is_disabled":false,"rental_uris":{"android":"levelo://app?vid=2f4f9800-0592-4307-ad73-c2f528c7ea3d","ios":"levelo://app?vid=2f4f9800-0592-4307-ad73-c2f528c7ea3d"},"vehicle_type_id":"4","last_reported":1738761349,"current_range_meters":5600,"station_id":"ce4bgup2rcd13ifvqcn0","pricing_plan_id":"cebpf4jnsgd1na2vs0mg"},{"bike_id":"27788668-d35d-4e3b-b85e-35c52733c3a9","system_id":"levelo_inurba_marseille","lat":43.24408,"lon":5.37053,"is_reserved":false,"is_disabled":false,"rental_uris":{"android":"levelo://app?vid=27788668-d35d-4e3b-b85e-35c52733c3a9","ios":"levelo://app?vid=27788668-d35d-4e3b-b85e-35c52733c3a9"},"vehicle_type_id":"4","last_reported":1738761349,"current_range_meters":6800,"station_id":"ce4bhhh2rcd13ifvqfk0","pricing_plan_id":"cebpf4jnsgd1na2vs0mg"},{"bike_id":"5c13e3bc-4172-4b93-87af-28f28a372974","system_id":"levelo_inurba_marseille","lat":43.26229,"lon":5.40451,"is_reserved":false,"is_disabled":false,"rental_uris":{"android":"levelo://app?vid=5c13e3bc-4172-4b93-87af-28f28a372974","ios":"levelo://app?vid=5c13e3bc-4172-4b93-87af-28f28a372974"},"vehicle_type_id":"4","last_reported":1738761349,"current_range_meters":38400,"station_id":"ce4bhmh2rcd13ifvqgmg","pricing_plan_id":"cebpf4jnsgd1na2vs0mg"},{"bike_id":"52ec9d16-8d16-4322-a5d9-68534ef66132","system_id":"levelo_inurba_marseille","lat":43.30546,"lon":5.36547,"is_reserved":false,"is_disabled":false,"rental_uris":{"android":"levelo://app?vid=52ec9d16-8d16-4322-a5d9-68534ef66132","ios":"levelo://app?vid=52ec9d16-8d16-4322-a5d9-68534ef66132"},"vehicle_type_id":"4","last_reported":1738761349,"current_range_meters":20400,"station_id":"ce4bgs12rcd13ifvqcag","pricing_plan_id":"cebpf4jnsgd1na2vs0mg"},{"bike_id":"d72f401d-7e85-4e85-abe3-8fc4222030a1","system_id":"levelo_inurba_marseille","lat":43.30058,"lon":5.37758,"is_reserved":false,"is_disabled":false,"rental_uris":{"android":"levelo://app?vid=d72f401d-7e85-4e85-abe3-8fc4222030a1","ios":"levelo://app?vid=d72f401d-7e85-4e85-abe3-8fc4222030a1"},"vehicle_type_id":"4","last_reported":1738761349,"current_range_meters":25600,"station_id":"","pricing_plan_id":"cebpf4jnsgd1na2vs0mg"},{"bike_id":"ad12068f-9696-43ec-8b60-a6db77fdb6ea","system_id":"levelo_inurba_marseille","lat":43.29076,"lon":5.38141,"is_reserved":false,"is_disabled":false,"rental_uris":{"android":"levelo://app?vid=ad12068f-9696-43ec-8b60-a6db77fdb6ea","ios":"levelo://app?vid=ad12068f-9696-43ec-8b60-a6db77fdb6ea"},"vehicle_type_id":"4","last_reported":1738761349,"current_range_meters":14800,"station_id":"ce4bh512rcd13ifvqe2g","pricing_plan_id":"cebpf4jnsgd1na2vs0mg"},{"bike_id":"acbf73b8-8717-48ff-aeae-fa4aee8fbccd","system_id":"levelo_inurba_marseille","lat":43.28957,"lon":5.36638,"is_reserved":false,"is_disabled":false,"rental_uris":{"android":"levelo://app?vid=acbf73b8-8717-48ff-aeae-fa4aee8fbccd","ios":"levelo://app?vid=acbf73b8-8717-48ff-aeae-fa4aee8fbccd"},"vehicle_type_id":"4","last_reported":1738761349,"current_range_meters":29600,"station_id":"ce4bhap2rcd13ifvqek0","pricing_plan_id":"cebpf4jnsgd1na2vs0mg"},{"bike_id":"3ecfff58-66b5-4deb-a2e9-7a1f1471e9fb","system_id":"levelo_inurba_marseille","lat":43.33027,"lon":5.39042,"is_reserved":false,"is_disabled":false,"rental_uris":{"android":"levelo://app?vid=3ecfff58-66b5-4deb-a2e9-7a1f1471e9fb","ios":"levelo://app?vid=3ecfff58-66b5-4deb-a2e9-7a1f1471e9fb"},"vehicle_type_id":"4","last_reported":1738761349,"current_range_meters":25200,"station_id":"ce4bhr92rcd13ifvqhrg","pricing_plan_id":"cebpf4jnsgd1na2vs0mg"},{"bike_id":"1e292053-6778-4028-aa84-dbb5f34624ce","system_id":"levelo_inurba_marseille","lat":43.27814,"lon":5.4071,"is_reserved":false,"is_disabled":false,"rental_uris":{"android":"levelo://app?vid=1e292053-6778-4028-aa84-dbb5f34624ce","ios":"levelo://app?vid=1e292053-6778-4028-aa84-dbb5f34624ce"},"vehicle_type_id":"4","last_reported":1738761349,"current_range_meters":20000,"station_id":"ce4bhnh2rcd13ifvqgtg","pricing_plan_id":"cebpf4jnsgd1na2vs0mg"},{"bike_id":"7eaacd34-10f9-4246-8aa1-4a22e07a7c06","system_id":"levelo_inurba_marseille","lat":43.31618,"lon":5.37407,"is_reserved":false,"is_disabled":false,"rental_uris":{"android":"levelo://app?vid=7eaacd34-10f9-4246-8aa1-4a22e07a7c06","ios":"levelo://app?vid=7eaacd34-10f9-4246-8aa1-4a22e07a7c06"},"vehicle_type_id":"4","last_reported":1738761349,"current_range_meters":26800,"station_id":"","pricing_plan_id":"cebpf4jnsgd1na2vs0mg"},{"bike_id":"ba363e6f-ae75-4e7f-b9bd-bff2cb4b7b42","system_id":"levelo_inurba_marseille","lat":43.25943,"lon":5.40898,"is_reserved":false,"is_disabled":false,"rental_uris":{"android":"levelo://app?vid=ba363e6f-ae75-4e7f-b9bd-bff2cb4b7b42","ios":"levelo://app?vid=ba363e6f-ae75-4e7f-b9bd-bff2cb4b7b42"},"vehicle_type_id":"4","last_reported":1738761349,"current_range_meters":19200,"station_id":"ce4bhm92rcd13ifvqglg","pricing_plan_id":"cebpf4jnsgd1na2vs0mg"},{"bike_id":"9febad4e-f695-49ed-82b0-71edd70b75df","system_id":"levelo_inurba_marseille","lat":43.32569,"lon":5.41489,"is_reserved":false,"is_disabled":false,"rental_uris":{"android":"levelo://app?vid=9febad4e-f695-49ed-82b0-71edd70b75df","ios":"levelo://app?vid=9febad4e-f695-49ed-82b0-71edd70b75df"},"vehicle_type_id":"4","last_reported":1738761349,"current_range_meters":32800,"station_id":"ce4bhq12rcd13ifvqhhg","pricing_plan_id":"cebpf4jnsgd1na2vs0mg"},{"bike_id":"5f12060b-9ee7-4a7e-afd6-168eb1ba1fa0","system_id":"levelo_inurba_marseille","lat":43.26678,"lon":5.38265,"is_reserved":false,"is_disabled":false,"rental_uris":{"android":"levelo://app?vid=5f12060b-9ee7-4a7e-afd6-168eb1ba1fa0","ios":"levelo://app?vid=5f12060b-9ee7-4a7e-afd6-168eb1ba1fa0"},"vehicle_type_id":"4","last_reported":1738761349,"current_range_meters":28800,"station_id":"ce4bhg92rcd13ifvqf90","pricing_plan_id":"cebpf4jnsgd1na2vs0mg"},{"bike_id":"9d0de974-8143-4260-8c90-8e26cc33d946","system_id":"levelo_inurba_marseille","lat":43.26051,"lon":5.37537,"is_reserved":false,"is_disabled":false,"rental_uris":{"android":"levelo://app?vid=9d0de974-8143-4260-8c90-8e26cc33d946","ios":"levelo://app?vid=9d0de974-8143-4260-8c90-8e26cc33d946"},"vehicle_type_id":"4","last_reported":1738761349,"current_range_meters":39200,"station_id":"ce4bhgh2rcd13ifvqfa0","pricing_plan_id":"cebpf4jnsgd1na2vs0mg"},{"bike_id":"ff949934-82f3-4491-a6cd-b2f6d7c3161a","system_id":"levelo_inurba_marseille","lat":43.28283,"lon":5.35069,"is_reserved":false,"is_disabled":false,"rental_uris":{"android":"levelo://app?vid=ff949934-82f3-4491-a6cd-b2f6d7c3161a","ios":"levelo://app?vid=ff949934-82f3-4491-a6cd-b2f6d7c3161a"},"vehicle_type_id":"4","last_reported":1738761349,"current_range_meters":20400,"station_id":"ce4bhbp2rcd13ifvqerg","pricing_plan_id":"cebpf4jnsgd1na2vs0mg"},{"bike_id":"c0681d93-6529-4602-8f39-077bbbcffd59","system_id":"levelo_inurba_marseille","lat":43.3048,"lon":5.37909,"is_reserved":false,"is_disabled":false,"rental_uris":{"android":"levelo://app?vid=c0681d93-6529-4602-8f39-077bbbcffd59","ios":"levelo://app?vid=c0681d93-6529-4602-8f39-077bbbcffd59"},"vehicle_type_id":"4","last_reported":1738761349,"current_range_meters":32800,"station_id":"ce4bgup2rcd13ifvqcn0","pricing_plan_id":"cebpf4jnsgd1na2vs0mg"},{"bike_id":"f49db839-cde4-4b48-8e5e-2b64dac550bb","system_id":"levelo_inurba_marseille","lat":43.24166,"lon":5.39733,"is_reserved":false,"is_disabled":false,"rental_uris":{"android":"levelo://app?vid=f49db839-cde4-4b48-8e5e-2b64dac550bb","ios":"levelo://app?vid=f49db839-cde4-4b48-8e5e-2b64dac550bb"},"vehicle_type_id":"4","last_reported":1738761349,"current_range_meters":12000,"station_id":"ce4bhn12rcd13ifvqgpg","pricing_plan_id":"cebpf4jnsgd1na2vs0mg"},{"bike_id":"a31da492-d404-42a4-a173-3e8c75aeef5d","system_id":"levelo_inurba_marseille","lat":43.24419,"lon":5.37117,"is_reserved":false,"is_disabled":false,"rental_uris":{"android":"levelo://app?vid=a31da492-d404-42a4-a173-3e8c75aeef5d","ios":"levelo://app?vid=a31da492-d404-42a4-a173-3e8c75aeef5d"},"vehicle_type_id":"4","last_reported":1738761349,"current_range_meters":39200,"station_id":"ce4bhhh2rcd13ifvqfk0","pricing_plan_id":"cebpf4jnsgd1na2vs0mg"},{"bike_id":"cb993cc7-8249-4238-82ff-391a11ace545","system_id":"levelo_inurba_marseille","lat":43.25814,"lon":5.3943,"is_reserved":false,"is_disabled":false,"rental_uris":{"android":"levelo://app?vid=cb993cc7-8249-4238-82ff-391a11ace545","ios":"levelo://app?vid=cb993cc7-8249-4238-82ff-391a11ace545"},"vehicle_type_id":"4","last_reported":1738761349,"current_range_meters":39200,"station_id":"ce4bhip2rcd13ifvqft0","pricing_plan_id":"cebpf4jnsgd1na2vs0mg"},{"bike_id":"a1a7079b-68b5-45ca-9af8-b6bc9f7cd559","system_id":"levelo_inurba_marseille","lat":43.22942,"lon":5.35377,"is_reserved":false,"is_disabled":false,"rental_uris":{"android":"levelo://app?vid=a1a7079b-68b5-45ca-9af8-b6bc9f7cd559","ios":"levelo://app?vid=a1a7079b-68b5-45ca-9af8-b6bc9f7cd559"},"vehicle_type_id":"4","last_reported":1738761349,"current_range_meters":38800,"station_id":"cpo3532slgdg3j2ikp40","pricing_plan_id":"cebpf4jnsgd1na2vs0mg"},{"bike_id":"4cff4c18-6936-40ba-b1b4-9d0ae4647e78","system_id":"levelo_inurba_marseille","lat":43.27544,"lon":5.38407,"is_reserved":false,"is_disabled":false,"rental_uris":{"android":"levelo://app?vid=4cff4c18-6936-40ba-b1b4-9d0ae4647e78","ios":"levelo://app?vid=4cff4c18-6936-40ba-b1b4-9d0ae4647e78"},"vehicle_type_id":"4","last_reported":1738761349,"current_range_meters":28400,"station_id":"ce4bhh92rcd13ifvqfi0","pricing_plan_id":"cebpf4jnsgd1na2vs0mg"},{"bike_id":"74d61a25-1309-477b-8bd8-03970df35fe1","system_id":"levelo_inurba_marseille","lat":43.31331,"lon":5.39701,"is_reserved":false,"is_disabled":false,"rental_uris":{"android":"levelo://app?vid=74d61a25-1309-477b-8bd8-03970df35fe1","ios":"levelo://app?vid=74d61a25-1309-477b-8bd8-03970df35fe1"},"vehicle_type_id":"4","last_reported":1738761349,"current_range_meters":27200,"station_id":"ce4bgvp2rcd13ifvqcu0","pricing_plan_id":"cebpf4jnsgd1na2vs0mg"},{"bike_id":"29805978-3f90-4e1f-a2f8-4f8391d994c3","system_id":"levelo_inurba_marseille","lat":43.24176,"lon":5.39721,"is_reserved":false,"is_disabled":false,"rental_uris":{"android":"levelo://app?vid=29805978-3f90-4e1f-a2f8-4f8391d994c3","ios":"levelo://app?vid=29805978-3f90-4e1f-a2f8-4f8391d994c3"},"vehicle_type_id":"4","last_reported":1738761349,"current_range_meters":17600,"station_id":"ce4bhn12rcd13ifvqgpg","pricing_plan_id":"cebpf4jnsgd1na2vs0mg"},{"bike_id":"e900f4fe-f287-4f7a-a111-e62d22c31fb5","system_id":"levelo_inurba_marseille","lat":43.25576,"lon":5.38245,"is_reserved":false,"is_disabled":false,"rental_uris":{"android":"levelo://app?vid=e900f4fe-f287-4f7a-a111-e62d22c31fb5","ios":"levelo://app?vid=e900f4fe-f287-4f7a-a111-e62d22c31fb5"},"vehicle_type_id":"4","last_reported":1738761349,"current_range_meters":28000,"station_id":"ce4bhih2rcd13ifvqfs0","pricing_plan_id":"cebpf4jnsgd1na2vs0mg"},{"bike_id":"429cf0b8-b89a-4aaa-a81b-b9e637978f08","system_id":"levelo_inurba_marseille","lat":43.26686,"lon":5.38281,"is_reserved":false,"is_disabled":false,"rental_uris":{"android":"levelo://app?vid=429cf0b8-b89a-4aaa-a81b-b9e637978f08","ios":"levelo://app?vid=429cf0b8-b89a-4aaa-a81b-b9e637978f08"},"vehicle_type_id":"4","last_reported":1738761349,"current_range_meters":36800,"station_id":"ce4bhg92rcd13ifvqf90","pricing_plan_id":"cebpf4jnsgd1na2vs0mg"},{"bike_id":"101a3db2-bd4e-4e61-bcd9-4cd3d1af1d3a","system_id":"levelo_inurba_marseille","lat":43.25951,"lon":5.40903,"is_reserved":false,"is_disabled":false,"rental_uris":{"android":"levelo://app?vid=101a3db2-bd4e-4e61-bcd9-4cd3d1af1d3a","ios":"levelo://app?vid=101a3db2-bd4e-4e61-bcd9-4cd3d1af1d3a"},"vehicle_type_id":"4","last_reported":1738761349,"current_range_meters":24800,"station_id":"ce4bhm92rcd13ifvqglg","pricing_plan_id":"cebpf4jnsgd1na2vs0mg"},{"bike_id":"0ce3f862-3d94-4e06-9d96-a363fe08f8e8","system_id":"levelo_inurba_marseille","lat":43.29598,"lon":5.38097,"is_reserved":false,"is_disabled":true,"rental_uris":{"android":"levelo://app?vid=0ce3f862-3d94-4e06-9d96-a363fe08f8e8","ios":"levelo://app?vid=0ce3f862-3d94-4e06-9d96-a363fe08f8e8"},"vehicle_type_id":"4","last_reported":1738761349,"current_range_meters":0,"station_id":"ce4bgl12rcd13ifvqbo0","pricing_plan_id":"cebpf4jnsgd1na2vs0mg"},{"bike_id":"efeedd80-0c81-42fa-8a36-3e98e49e5526","system_id":"levelo_inurba_marseille","lat":43.30308,"lon":5.37689,"is_reserved":false,"is_disabled":false,"rental_uris":{"android":"levelo://app?vid=efeedd80-0c81-42fa-8a36-3e98e49e5526","ios":"levelo://app?vid=efeedd80-0c81-42fa-8a36-3e98e49e5526"},"vehicle_type_id":"4","last_reported":1738761349,"current_range_meters":38000,"station_id":"ce4bguh2rcd13ifvqcj0","pricing_plan_id":"cebpf4jnsgd1na2vs0mg"},{"bike_id":"b6bd5208-d381-4ce8-a60b-132e716208ba","system_id":"levelo_inurba_marseille","lat":43.29606,"lon":5.37726,"is_reserved":false,"is_disabled":false,"rental_uris":{"android":"levelo://app?vid=b6bd5208-d381-4ce8-a60b-132e716208ba","ios":"levelo://app?vid=b6bd5208-d381-4ce8-a60b-132e716208ba"},"vehicle_type_id":"4","last_reported":1738761349,"current_range_meters":12400,"station_id":"ce4bgi92rcd13ifvqb90","pricing_plan_id":"cebpf4jnsgd1na2vs0mg"},{"bike_id":"27120ec1-6d7c-486b-af85-06f836fe1963","system_id":"levelo_inurba_marseille","lat":43.28927,"lon":5.36389,"is_reserved":false,"is_disabled":false,"rental_uris":{"android":"levelo://app?vid=27120ec1-6d7c-486b-af85-06f836fe1963","ios":"levelo://app?vid=27120ec1-6d7c-486b-af85-06f836fe1963"},"vehicle_type_id":"4","last_reported":1738761349,"current_range_meters":29600,"station_id":"ce4bhc92rcd13ifvqetg","pricing_plan_id":"cebpf4jnsgd1na2vs0mg"},{"bike_id":"272335b6-dc24-496f-b8c5-36817206bf50","system_id":"levelo_inurba_marseille","lat":43.29876,"lon":5.43654,"is_reserved":false,"is_disabled":false,"rental_uris":{"android":"levelo://app?vid=272335b6-dc24-496f-b8c5-36817206bf50","ios":"levelo://app?vid=272335b6-dc24-496f-b8c5-36817206bf50"},"vehicle_type_id":"4","last_reported":1738761349,"current_range_meters":38000,"station_id":"ce4bhpp2rcd13ifvqhfg","pricing_plan_id":"cebpf4jnsgd1na2vs0mg"},{"bike_id":"f1de13e4-a71f-46f0-bfd6-9430c442d1ac","system_id":"levelo_inurba_marseille","lat":43.30562,"lon":5.36549,"is_reserved":false,"is_disabled":false,"rental_uris":{"android":"levelo://app?vid=f1de13e4-a71f-46f0-bfd6-9430c442d1ac","ios":"levelo://app?vid=f1de13e4-a71f-46f0-bfd6-9430c442d1ac"},"vehicle_type_id":"4","last_reported":1738761349,"current_range_meters":14000,"station_id":"ce4bgs12rcd13ifvqcag","pricing_plan_id":"cebpf4jnsgd1na2vs0mg"},{"bike_id":"6bba36c7-75a6-4b1b-96cb-c03d219a6faa","system_id":"levelo_inurba_marseille","lat":43.33026,"lon":5.39048,"is_reserved":false,"is_disabled":false,"rental_uris":{"android":"levelo://app?vid=6bba36c7-75a6-4b1b-96cb-c03d219a6faa","ios":"levelo://app?vid=6bba36c7-75a6-4b1b-96cb-c03d219a6faa"},"vehicle_type_id":"4","last_reported":1738761349,"current_range_meters":38400,"station_id":"ce4bhr92rcd13ifvqhrg","pricing_plan_id":"cebpf4jnsgd1na2vs0mg"},{"bike_id":"964516f2-2a58-4ae7-b8f7-b61ab86d02df","system_id":"levelo_inurba_marseille","lat":43.30149,"lon":5.38073,"is_reserved":false,"is_disabled":true,"rental_uris":{"android":"levelo://app?vid=964516f2-2a58-4ae7-b8f7-b61ab86d02df","ios":"levelo://app?vid=964516f2-2a58-4ae7-b8f7-b61ab86d02df"},"vehicle_type_id":"4","last_reported":1738761349,"current_range_meters":1600,"station_id":"ce4bgjp2rcd13ifvqbh0","pricing_plan_id":"cebpf4jnsgd1na2vs0mg"},{"bike_id":"f307f8ea-df8b-425d-97d7-c4f570c0ee32","system_id":"levelo_inurba_marseille","lat":43.23975,"lon":5.36625,"is_reserved":false,"is_disabled":false,"rental_uris":{"android":"levelo://app?vid=f307f8ea-df8b-425d-97d7-c4f570c0ee32","ios":"levelo://app?vid=f307f8ea-df8b-425d-97d7-c4f570c0ee32"},"vehicle_type_id":"4","last_reported":1738761349,"current_range_meters":21600,"station_id":"ce4bhi12rcd13ifvqfp0","pricing_plan_id":"cebpf4jnsgd1na2vs0mg"},{"bike_id":"6857d424-b2fc-4f54-816c-314cc798a7ab","system_id":"levelo_inurba_marseille","lat":43.29772,"lon":5.3712,"is_reserved":false,"is_disabled":false,"rental_uris":{"android":"levelo://app?vid=6857d424-b2fc-4f54-816c-314cc798a7ab","ios":"levelo://app?vid=6857d424-b2fc-4f54-816c-314cc798a7ab"},"vehicle_type_id":"4","last_reported":1738761349,"current_range_meters":37600,"station_id":"ce4bgop2rcd13ifvqc1g","pricing_plan_id":"cebpf4jnsgd1na2vs0mg"},{"bike_id":"3a5aa9c9-bc8f-448e-aeb5-c9e98d56970c","system_id":"levelo_inurba_marseille","lat":43.3362,"lon":5.41015,"is_reserved":false,"is_disabled":false,"rental_uris":{"android":"levelo://app?vid=3a5aa9c9-bc8f-448e-aeb5-c9e98d56970c","ios":"levelo://app?vid=3a5aa9c9-bc8f-448e-aeb5-c9e98d56970c"},"vehicle_type_id":"4","last_reported":1738761349,"current_range_meters":39200,"station_id":"ce4bhqh2rcd13ifvqhmg","pricing_plan_id":"cebpf4jnsgd1na2vs0mg"},{"bike_id":"ca3721f7-080c-44bf-8f62-de54b11f91f0","system_id":"levelo_inurba_marseille","lat":43.34145,"lon":5.40912,"is_reserved":false,"is_disabled":false,"rental_uris":{"android":"levelo://app?vid=ca3721f7-080c-44bf-8f62-de54b11f91f0","ios":"levelo://app?vid=ca3721f7-080c-44bf-8f62-de54b11f91f0"},"vehicle_type_id":"4","last_reported":1738761349,"current_range_meters":38000,"station_id":"ce4bhqh2rcd13ifvqhlg","pricing_plan_id":"cebpf4jnsgd1na2vs0mg"},{"bike_id":"a1816039-17b7-4d08-a04f-409e83b880d6","system_id":"levelo_inurba_marseille","lat":43.26557,"lon":5.39002,"is_reserved":false,"is_disabled":false,"rental_uris":{"android":"levelo://app?vid=a1816039-17b7-4d08-a04f-409e83b880d6","ios":"levelo://app?vid=a1816039-17b7-4d08-a04f-409e83b880d6"},"vehicle_type_id":"4","last_reported":1738761349,"current_range_meters":26800,"station_id":"ce4bhe12rcd13ifvqf30","pricing_plan_id":"cebpf4jnsgd1na2vs0mg"},{"bike_id":"03a8b622-3744-4d61-9918-7e3470bbf5b9","system_id":"levelo_inurba_marseille","lat":43.31962,"lon":5.36745,"is_reserved":false,"is_disabled":false,"rental_uris":{"android":"levelo://app?vid=03a8b622-3744-4d61-9918-7e3470bbf5b9","ios":"levelo://app?vid=03a8b622-3744-4d61-9918-7e3470bbf5b9"},"vehicle_type_id":"4","last_reported":1738761349,"current_range_meters":12000,"station_id":"ce4bhs12rcd13ifvqhvg","pricing_plan_id":"cebpf4jnsgd1na2vs0mg"},{"bike_id":"d7612fe3-c24f-460a-978f-01663b32ea49","system_id":"levelo_inurba_marseille","lat":43.30536,"lon":5.36699,"is_reserved":false,"is_disabled":false,"rental_uris":{"android":"levelo://app?vid=d7612fe3-c24f-460a-978f-01663b32ea49","ios":"levelo://app?vid=d7612fe3-c24f-460a-978f-01663b32ea49"},"vehicle_type_id":"4","last_reported":1738761349,"current_range_meters":38800,"station_id":"ce4bgrp2rcd13ifvqc9g","pricing_plan_id":"cebpf4jnsgd1na2vs0mg"},{"bike_id":"22463fe8-62ef-4a96-961a-457c38496d83","system_id":"levelo_inurba_marseille","lat":43.28466,"lon":5.38535,"is_reserved":false,"is_disabled":false,"rental_uris":{"android":"levelo://app?vid=22463fe8-62ef-4a96-961a-457c38496d83","ios":"levelo://app?vid=22463fe8-62ef-4a96-961a-457c38496d83"},"vehicle_type_id":"4","last_reported":1738761349,"current_range_meters":30000,"station_id":"ce4bh8p2rcd13ifvqeb0","pricing_plan_id":"cebpf4jnsgd1na2vs0mg"},{"bike_id":"2cd60774-c2f8-4e8f-9236-a6b0c03a1062","system_id":"levelo_inurba_marseille","lat":43.28084,"lon":5.39651,"is_reserved":false,"is_disabled":false,"rental_uris":{"android":"levelo://app?vid=2cd60774-c2f8-4e8f-9236-a6b0c03a1062","ios":"levelo://app?vid=2cd60774-c2f8-4e8f-9236-a6b0c03a1062"},"vehicle_type_id":"4","last_reported":1738761349,"current_range_meters":14000,"station_id":"ce4bho12rcd13ifvqh2g","pricing_plan_id":"cebpf4jnsgd1na2vs0mg"},{"bike_id":"d5398a11-b971-4a82-be89-062640bc35cf","system_id":"levelo_inurba_marseille","lat":43.29173,"lon":5.37154,"is_reserved":false,"is_disabled":false,"rental_uris":{"android":"levelo://app?vid=d5398a11-b971-4a82-be89-062640bc35cf","ios":"levelo://app?vid=d5398a11-b971-4a82-be89-062640bc35cf"},"vehicle_type_id":"4","last_reported":1738761349,"current_range_meters":32400,"station_id":"ce4bha92rcd13ifvqeh0","pricing_plan_id":"cebpf4jnsgd1na2vs0mg"},{"bike_id":"c132f3a2-7282-4e51-a347-2a5cf3fc73b5","system_id":"levelo_inurba_marseille","lat":43.28845,"lon":5.3586,"is_reserved":false,"is_disabled":false,"rental_uris":{"android":"levelo://app?vid=c132f3a2-7282-4e51-a347-2a5cf3fc73b5","ios":"levelo://app?vid=c132f3a2-7282-4e51-a347-2a5cf3fc73b5"},"vehicle_type_id":"4","last_reported":1738761349,"current_range_meters":38800,"station_id":"ce4bhb12rcd13ifvqem0","pricing_plan_id":"cebpf4jnsgd1na2vs0mg"},{"bike_id":"e040da88-b421-4173-9ede-61ba1a6ca5b4","system_id":"levelo_inurba_marseille","lat":43.24179,"lon":5.39729,"is_reserved":false,"is_disabled":false,"rental_uris":{"android":"levelo://app?vid=e040da88-b421-4173-9ede-61ba1a6ca5b4","ios":"levelo://app?vid=e040da88-b421-4173-9ede-61ba1a6ca5b4"},"vehicle_type_id":"4","last_reported":1738761349,"current_range_meters":17600,"station_id":"ce4bhn12rcd13ifvqgpg","pricing_plan_id":"cebpf4jnsgd1na2vs0mg"},{"bike_id":"6712f04b-f35d-4e3a-a70d-c89aec85d9b2","system_id":"levelo_inurba_marseille","lat":43.229264,"lon":5.353889,"is_reserved":false,"is_disabled":false,"rental_uris":{"android":"levelo://app?vid=6712f04b-f35d-4e3a-a70d-c89aec85d9b2","ios":"levelo://app?vid=6712f04b-f35d-4e3a-a70d-c89aec85d9b2"},"vehicle_type_id":"4","last_reported":1738761349,"current_range_meters":39200,"station_id":"cpo3532slgdg3j2ikp40","pricing_plan_id":"cebpf4jnsgd1na2vs0mg"},{"bike_id":"3489f8c0-4599-41ea-9022-d30dfc6cc9c3","system_id":"levelo_inurba_marseille","lat":43.306089,"lon":5.372426,"is_reserved":false,"is_disabled":false,"rental_uris":{"android":"levelo://app?vid=3489f8c0-4599-41ea-9022-d30dfc6cc9c3","ios":"levelo://app?vid=3489f8c0-4599-41ea-9022-d30dfc6cc9c3"},"vehicle_type_id":"4","last_reported":1738761349,"current_range_meters":38400,"station_id":"ce4bgqh2rcd13ifvqc4g","pricing_plan_id":"cebpf4jnsgd1na2vs0mg"},{"bike_id":"e253cf15-30f9-4a6a-bfa9-78e3149695a9","system_id":"levelo_inurba_marseille","lat":43.28252,"lon":5.35071,"is_reserved":false,"is_disabled":false,"rental_uris":{"android":"levelo://app?vid=e253cf15-30f9-4a6a-bfa9-78e3149695a9","ios":"levelo://app?vid=e253cf15-30f9-4a6a-bfa9-78e3149695a9"},"vehicle_type_id":"4","last_reported":1738761349,"current_range_meters":31200,"station_id":"ce4bhbp2rcd13ifvqerg","pricing_plan_id":"cebpf4jnsgd1na2vs0mg"},{"bike_id":"359bc61b-2591-4855-b7e5-f98cdfbf7d49","system_id":"levelo_inurba_marseille","lat":43.29421,"lon":5.38632,"is_reserved":false,"is_disabled":false,"rental_uris":{"android":"levelo://app?vid=359bc61b-2591-4855-b7e5-f98cdfbf7d49","ios":"levelo://app?vid=359bc61b-2591-4855-b7e5-f98cdfbf7d49"},"vehicle_type_id":"4","last_reported":1738761349,"current_range_meters":18800,"station_id":"ce4bh2h2rcd13ifvqdh0","pricing_plan_id":"cebpf4jnsgd1na2vs0mg"},{"bike_id":"fa4b5534-0553-40ba-be0a-02556ee91ee9","system_id":"levelo_inurba_marseille","lat":43.30145,"lon":5.37418,"is_reserved":false,"is_disabled":false,"rental_uris":{"android":"levelo://app?vid=fa4b5534-0553-40ba-be0a-02556ee91ee9","ios":"levelo://app?vid=fa4b5534-0553-40ba-be0a-02556ee91ee9"},"vehicle_type_id":"4","last_reported":1738761349,"current_range_meters":25200,"station_id":"ce4bgs92rcd13ifvqcc0","pricing_plan_id":"cebpf4jnsgd1na2vs0mg"},{"bike_id":"bcc8494f-f711-4028-b967-14ccd0896ec6","system_id":"levelo_inurba_marseille","lat":43.29278,"lon":5.36843,"is_reserved":false,"is_disabled":false,"rental_uris":{"android":"levelo://app?vid=bcc8494f-f711-4028-b967-14ccd0896ec6","ios":"levelo://app?vid=bcc8494f-f711-4028-b967-14ccd0896ec6"},"vehicle_type_id":"4","last_reported":1738761349,"current_range_meters":36800,"station_id":"ce4bhbp2rcd13ifvqesg","pricing_plan_id":"cebpf4jnsgd1na2vs0mg"},{"bike_id":"d044d032-8863-41d8-9a88-2dbf40dcd03f","system_id":"levelo_inurba_marseille","lat":43.30144,"lon":5.37406,"is_reserved":false,"is_disabled":false,"rental_uris":{"android":"levelo://app?vid=d044d032-8863-41d8-9a88-2dbf40dcd03f","ios":"levelo://app?vid=d044d032-8863-41d8-9a88-2dbf40dcd03f"},"vehicle_type_id":"4","last_reported":1738761349,"current_range_meters":23200,"station_id":"ce4bgs92rcd13ifvqcc0","pricing_plan_id":"cebpf4jnsgd1na2vs0mg"},{"bike_id":"0a340a50-c9b3-4c87-88da-a62208ff40c7","system_id":"levelo_inurba_marseille","lat":43.30549,"lon":5.36699,"is_reserved":false,"is_disabled":false,"rental_uris":{"android":"levelo://app?vid=0a340a50-c9b3-4c87-88da-a62208ff40c7","ios":"levelo://app?vid=0a340a50-c9b3-4c87-88da-a62208ff40c7"},"vehicle_type_id":"4","last_reported":1738761349,"current_range_meters":38000,"station_id":"ce4bgrp2rcd13ifvqc9g","pricing_plan_id":"cebpf4jnsgd1na2vs0mg"},{"bike_id":"06febb45-36ad-414a-a286-8bbe15eb4bfc","system_id":"levelo_inurba_marseille","lat":43.29012,"lon":5.35616,"is_reserved":false,"is_disabled":false,"rental_uris":{"android":"levelo://app?vid=06febb45-36ad-414a-a286-8bbe15eb4bfc","ios":"levelo://app?vid=06febb45-36ad-414a-a286-8bbe15eb4bfc"},"vehicle_type_id":"4","last_reported":1738761349,"current_range_meters":20400,"station_id":"ce4bhb92rcd13ifvqen0","pricing_plan_id":"cebpf4jnsgd1na2vs0mg"},{"bike_id":"dd96e3b9-e31e-4183-92e0-96742b30ba78","system_id":"levelo_inurba_marseille","lat":43.30286,"lon":5.39194,"is_reserved":false,"is_disabled":false,"rental_uris":{"android":"levelo://app?vid=dd96e3b9-e31e-4183-92e0-96742b30ba78","ios":"levelo://app?vid=dd96e3b9-e31e-4183-92e0-96742b30ba78"},"vehicle_type_id":"4","last_reported":1738761349,"current_range_meters":35600,"station_id":"ce4bgkh2rcd13ifvqbk0","pricing_plan_id":"cebpf4jnsgd1na2vs0mg"},{"bike_id":"37f58142-e4da-4fa5-b6ac-f1f84075e5c0","system_id":"levelo_inurba_marseille","lat":43.29649,"lon":5.37123,"is_reserved":false,"is_disabled":true,"rental_uris":{"android":"levelo://app?vid=37f58142-e4da-4fa5-b6ac-f1f84075e5c0","ios":"levelo://app?vid=37f58142-e4da-4fa5-b6ac-f1f84075e5c0"},"vehicle_type_id":"4","last_reported":1738761349,"current_range_meters":38800,"station_id":"ce4bgnh2rcd13ifvqc0g","pricing_plan_id":"cebpf4jnsgd1na2vs0mg"},{"bike_id":"ea6a0107-0e7d-4623-b11a-745cc879d3a0","system_id":"levelo_inurba_marseille","lat":43.26685,"lon":5.3826,"is_reserved":false,"is_disabled":false,"rental_uris":{"android":"levelo://app?vid=ea6a0107-0e7d-4623-b11a-745cc879d3a0","ios":"levelo://app?vid=ea6a0107-0e7d-4623-b11a-745cc879d3a0"},"vehicle_type_id":"4","last_reported":1738761349,"current_range_meters":20000,"station_id":"ce4bhg92rcd13ifvqf90","pricing_plan_id":"cebpf4jnsgd1na2vs0mg"},{"bike_id":"bdf70224-63a9-4409-8dea-7caf726ef405","system_id":"levelo_inurba_marseille","lat":43.304613,"lon":5.36662,"is_reserved":false,"is_disabled":false,"rental_uris":{"android":"levelo://app?vid=bdf70224-63a9-4409-8dea-7caf726ef405","ios":"levelo://app?vid=bdf70224-63a9-4409-8dea-7caf726ef405"},"vehicle_type_id":"4","last_reported":1738761349,"current_range_meters":27600,"station_id":"","pricing_plan_id":"cebpf4jnsgd1na2vs0mg"},{"bike_id":"4fd31637-8fe5-444b-b107-457bfa1f9930","system_id":"levelo_inurba_marseille","lat":43.29422,"lon":5.38617,"is_reserved":false,"is_disabled":false,"rental_uris":{"android":"levelo://app?vid=4fd31637-8fe5-444b-b107-457bfa1f9930","ios":"levelo://app?vid=4fd31637-8fe5-444b-b107-457bfa1f9930"},"vehicle_type_id":"4","last_reported":1738761349,"current_range_meters":21600,"station_id":"ce4bh2h2rcd13ifvqdh0","pricing_plan_id":"cebpf4jnsgd1na2vs0mg"},{"bike_id":"115122a7-d4ee-4c1d-8389-04b88a1f8be5","system_id":"levelo_inurba_marseille","lat":43.25714,"lon":5.41101,"is_reserved":false,"is_disabled":false,"rental_uris":{"android":"levelo://app?vid=115122a7-d4ee-4c1d-8389-04b88a1f8be5","ios":"levelo://app?vid=115122a7-d4ee-4c1d-8389-04b88a1f8be5"},"vehicle_type_id":"4","last_reported":1738761349,"current_range_meters":38800,"station_id":"ce4bhkp2rcd13ifvqgd0","pricing_plan_id":"cebpf4jnsgd1na2vs0mg"},{"bike_id":"9fa6de76-e609-4c72-8e60-948046040770","system_id":"levelo_inurba_marseille","lat":43.26693,"lon":5.38272,"is_reserved":false,"is_disabled":false,"rental_uris":{"android":"levelo://app?vid=9fa6de76-e609-4c72-8e60-948046040770","ios":"levelo://app?vid=9fa6de76-e609-4c72-8e60-948046040770"},"vehicle_type_id":"4","last_reported":1738761349,"current_range_meters":38800,"station_id":"ce4bhg92rcd13ifvqf90","pricing_plan_id":"cebpf4jnsgd1na2vs0mg"},{"bike_id":"edb32c56-54ee-4ccf-b8e9-d20a41d92435","system_id":"levelo_inurba_marseille","lat":43.25525,"lon":5.37651,"is_reserved":false,"is_disabled":false,"rental_uris":{"android":"levelo://app?vid=edb32c56-54ee-4ccf-b8e9-d20a41d92435","ios":"levelo://app?vid=edb32c56-54ee-4ccf-b8e9-d20a41d92435"},"vehicle_type_id":"4","last_reported":1738761349,"current_range_meters":22800,"station_id":"ce4bhh12rcd13ifvqff0","pricing_plan_id":"cebpf4jnsgd1na2vs0mg"},{"bike_id":"aa85d2fb-6803-4bb0-a550-91bd767affa2","system_id":"levelo_inurba_marseille","lat":43.23153,"lon":5.43719,"is_reserved":false,"is_disabled":false,"rental_uris":{"android":"levelo://app?vid=aa85d2fb-6803-4bb0-a550-91bd767affa2","ios":"levelo://app?vid=aa85d2fb-6803-4bb0-a550-91bd767affa2"},"vehicle_type_id":"4","last_reported":1738761349,"current_range_meters":21600,"station_id":"ce4bhmp2rcd13ifvqgog","pricing_plan_id":"cebpf4jnsgd1na2vs0mg"},{"bike_id":"3ab0ceb6-cd89-477f-8038-1be761eb4bda","system_id":"levelo_inurba_marseille","lat":43.29591,"lon":5.37614,"is_reserved":false,"is_disabled":true,"rental_uris":{"android":"levelo://app?vid=3ab0ceb6-cd89-477f-8038-1be761eb4bda","ios":"levelo://app?vid=3ab0ceb6-cd89-477f-8038-1be761eb4bda"},"vehicle_type_id":"4","last_reported":1738761349,"current_range_meters":38800,"station_id":"","pricing_plan_id":"cebpf4jnsgd1na2vs0mg"},{"bike_id":"496310f9-20d4-472f-8dcd-1fcbf1a417a3","system_id":"levelo_inurba_marseille","lat":43.24407,"lon":5.37064,"is_reserved":false,"is_disabled":false,"rental_uris":{"android":"levelo://app?vid=496310f9-20d4-472f-8dcd-1fcbf1a417a3","ios":"levelo://app?vid=496310f9-20d4-472f-8dcd-1fcbf1a417a3"},"vehicle_type_id":"4","last_reported":1738761349,"current_range_meters":39200,"station_id":"ce4bhhh2rcd13ifvqfk0","pricing_plan_id":"cebpf4jnsgd1na2vs0mg"},{"bike_id":"74428db9-8b35-4d93-bd8a-dfbe302fe6c7","system_id":"levelo_inurba_marseille","lat":43.2693,"lon":5.40269,"is_reserved":false,"is_disabled":false,"rental_uris":{"android":"levelo://app?vid=74428db9-8b35-4d93-bd8a-dfbe302fe6c7","ios":"levelo://app?vid=74428db9-8b35-4d93-bd8a-dfbe302fe6c7"},"vehicle_type_id":"4","last_reported":1738761349,"current_range_meters":27600,"station_id":"cjm6bp8fraef2m0cb0m0","pricing_plan_id":"cebpf4jnsgd1na2vs0mg"},{"bike_id":"c85a26e1-f53e-4ec1-b1ea-8b32d23f1f4d","system_id":"levelo_inurba_marseille","lat":43.23047,"lon":5.35415,"is_reserved":false,"is_disabled":false,"rental_uris":{"android":"levelo://app?vid=c85a26e1-f53e-4ec1-b1ea-8b32d23f1f4d","ios":"levelo://app?vid=c85a26e1-f53e-4ec1-b1ea-8b32d23f1f4d"},"vehicle_type_id":"4","last_reported":1738761349,"current_range_meters":22800,"station_id":"cpo3342slgdg3j2ifvpg","pricing_plan_id":"cebpf4jnsgd1na2vs0mg"},{"bike_id":"9cc9ebf6-7f15-4d4c-b608-9a0e2f586105","system_id":"levelo_inurba_marseille","lat":43.23154,"lon":5.43707,"is_reserved":false,"is_disabled":false,"rental_uris":{"android":"levelo://app?vid=9cc9ebf6-7f15-4d4c-b608-9a0e2f586105","ios":"levelo://app?vid=9cc9ebf6-7f15-4d4c-b608-9a0e2f586105"},"vehicle_type_id":"4","last_reported":1738761349,"current_range_meters":21600,"station_id":"ce4bhmp2rcd13ifvqgog","pricing_plan_id":"cebpf4jnsgd1na2vs0mg"},{"bike_id":"512a3a23-b079-4568-bc04-d9235c65b5d3","system_id":"levelo_inurba_marseille","lat":43.23962,"lon":5.36636,"is_reserved":false,"is_disabled":false,"rental_uris":{"android":"levelo://app?vid=512a3a23-b079-4568-bc04-d9235c65b5d3","ios":"levelo://app?vid=512a3a23-b079-4568-bc04-d9235c65b5d3"},"vehicle_type_id":"4","last_reported":1738761349,"current_range_meters":38800,"station_id":"ce4bhi12rcd13ifvqfp0","pricing_plan_id":"cebpf4jnsgd1na2vs0mg"},{"bike_id":"699a81e6-a85d-4f86-a4f4-2dd356687280","system_id":"levelo_inurba_marseille","lat":43.3054,"lon":5.36564,"is_reserved":false,"is_disabled":false,"rental_uris":{"android":"levelo://app?vid=699a81e6-a85d-4f86-a4f4-2dd356687280","ios":"levelo://app?vid=699a81e6-a85d-4f86-a4f4-2dd356687280"},"vehicle_type_id":"4","last_reported":1738761349,"current_range_meters":17200,"station_id":"ce4bgs12rcd13ifvqcag","pricing_plan_id":"cebpf4jnsgd1na2vs0mg"},{"bike_id":"bd2c8631-5885-47e9-a4c3-f8cf7762eef5","system_id":"levelo_inurba_marseille","lat":43.24184,"lon":5.39734,"is_reserved":false,"is_disabled":false,"rental_uris":{"android":"levelo://app?vid=bd2c8631-5885-47e9-a4c3-f8cf7762eef5","ios":"levelo://app?vid=bd2c8631-5885-47e9-a4c3-f8cf7762eef5"},"vehicle_type_id":"4","last_reported":1738761349,"current_range_meters":38800,"station_id":"ce4bhn12rcd13ifvqgpg","pricing_plan_id":"cebpf4jnsgd1na2vs0mg"},{"bike_id":"9c207c45-ddb2-4217-8d34-079a5658cd14","system_id":"levelo_inurba_marseille","lat":43.32282,"lon":5.38275,"is_reserved":false,"is_disabled":false,"rental_uris":{"android":"levelo://app?vid=9c207c45-ddb2-4217-8d34-079a5658cd14","ios":"levelo://app?vid=9c207c45-ddb2-4217-8d34-079a5658cd14"},"vehicle_type_id":"4","last_reported":1738761349,"current_range_meters":33600,"station_id":"ce4bhr12rcd13ifvqhqg","pricing_plan_id":"cebpf4jnsgd1na2vs0mg"},{"bike_id":"10f65f88-bf3b-4c22-b65b-bc92d9c2c8d3","system_id":"levelo_inurba_marseille","lat":43.29351,"lon":5.37855,"is_reserved":false,"is_disabled":false,"rental_uris":{"android":"levelo://app?vid=10f65f88-bf3b-4c22-b65b-bc92d9c2c8d3","ios":"levelo://app?vid=10f65f88-bf3b-4c22-b65b-bc92d9c2c8d3"},"vehicle_type_id":"4","last_reported":1738761349,"current_range_meters":39200,"station_id":"ce4bgjh2rcd13ifvqbf0","pricing_plan_id":"cebpf4jnsgd1na2vs0mg"},{"bike_id":"936d7174-c0a3-4f90-8811-51c26577425d","system_id":"levelo_inurba_marseille","lat":43.30541,"lon":5.36553,"is_reserved":false,"is_disabled":false,"rental_uris":{"android":"levelo://app?vid=936d7174-c0a3-4f90-8811-51c26577425d","ios":"levelo://app?vid=936d7174-c0a3-4f90-8811-51c26577425d"},"vehicle_type_id":"4","last_reported":1738761349,"current_range_meters":27600,"station_id":"ce4bgs12rcd13ifvqcag","pricing_plan_id":"cebpf4jnsgd1na2vs0mg"},{"bike_id":"63c732f1-6e14-42c0-89fa-de14ad6b19d9","system_id":"levelo_inurba_marseille","lat":43.270539,"lon":5.402636,"is_reserved":false,"is_disabled":false,"rental_uris":{"android":"levelo://app?vid=63c732f1-6e14-42c0-89fa-de14ad6b19d9","ios":"levelo://app?vid=63c732f1-6e14-42c0-89fa-de14ad6b19d9"},"vehicle_type_id":"4","last_reported":1738761349,"current_range_meters":28000,"station_id":"ce4bhk92rcd13ifvqgc0","pricing_plan_id":"cebpf4jnsgd1na2vs0mg"},{"bike_id":"c644fe7c-e90b-45f3-8ac2-8bc5eae3a4cf","system_id":"levelo_inurba_marseille","lat":43.30491,"lon":5.37913,"is_reserved":false,"is_disabled":false,"rental_uris":{"android":"levelo://app?vid=c644fe7c-e90b-45f3-8ac2-8bc5eae3a4cf","ios":"levelo://app?vid=c644fe7c-e90b-45f3-8ac2-8bc5eae3a4cf"},"vehicle_type_id":"4","last_reported":1738761349,"current_range_meters":36800,"station_id":"ce4bgup2rcd13ifvqcn0","pricing_plan_id":"cebpf4jnsgd1na2vs0mg"},{"bike_id":"7bf1dd2a-42c4-4b8e-ad09-ace0d60f7028","system_id":"levelo_inurba_marseille","lat":43.30532,"lon":5.36532,"is_reserved":false,"is_disabled":false,"rental_uris":{"android":"levelo://app?vid=7bf1dd2a-42c4-4b8e-ad09-ace0d60f7028","ios":"levelo://app?vid=7bf1dd2a-42c4-4b8e-ad09-ace0d60f7028"},"vehicle_type_id":"4","last_reported":1738761349,"current_range_meters":38000,"station_id":"ce4bgs12rcd13ifvqcag","pricing_plan_id":"cebpf4jnsgd1na2vs0mg"},{"bike_id":"b96b2934-60ff-45a9-bfd3-04a2871ca1a8","system_id":"levelo_inurba_marseille","lat":43.28931,"lon":5.39624,"is_reserved":false,"is_disabled":false,"rental_uris":{"android":"levelo://app?vid=b96b2934-60ff-45a9-bfd3-04a2871ca1a8","ios":"levelo://app?vid=b96b2934-60ff-45a9-bfd3-04a2871ca1a8"},"vehicle_type_id":"4","last_reported":1738761349,"current_range_meters":32400,"station_id":"ce4bh3h2rcd13ifvqdn0","pricing_plan_id":"cebpf4jnsgd1na2vs0mg"},{"bike_id":"ba64ce5e-acd7-44a9-b1cc-d0945d62634f","system_id":"levelo_inurba_marseille","lat":43.25707,"lon":5.41095,"is_reserved":false,"is_disabled":false,"rental_uris":{"android":"levelo://app?vid=ba64ce5e-acd7-44a9-b1cc-d0945d62634f","ios":"levelo://app?vid=ba64ce5e-acd7-44a9-b1cc-d0945d62634f"},"vehicle_type_id":"4","last_reported":1738761349,"current_range_meters":16400,"station_id":"ce4bhkp2rcd13ifvqgd0","pricing_plan_id":"cebpf4jnsgd1na2vs0mg"},{"bike_id":"ffbb5d75-afc6-4de1-8c3a-587f16ea6169","system_id":"levelo_inurba_marseille","lat":43.2868,"lon":5.38676,"is_reserved":false,"is_disabled":true,"rental_uris":{"android":"levelo://app?vid=ffbb5d75-afc6-4de1-8c3a-587f16ea6169","ios":"levelo://app?vid=ffbb5d75-afc6-4de1-8c3a-587f16ea6169"},"vehicle_type_id":"4","last_reported":1738761349,"current_range_meters":0,"station_id":"ce4bh492rcd13ifvqdug","pricing_plan_id":"cebpf4jnsgd1na2vs0mg"},{"bike_id":"589a0d6a-3f59-4c10-b4aa-574eabb1c9aa","system_id":"levelo_inurba_marseille","lat":43.30501,"lon":5.37904,"is_reserved":false,"is_disabled":false,"rental_uris":{"android":"levelo://app?vid=589a0d6a-3f59-4c10-b4aa-574eabb1c9aa","ios":"levelo://app?vid=589a0d6a-3f59-4c10-b4aa-574eabb1c9aa"},"vehicle_type_id":"4","last_reported":1738761349,"current_range_meters":10000,"station_id":"ce4bgup2rcd13ifvqcn0","pricing_plan_id":"cebpf4jnsgd1na2vs0mg"},{"bike_id":"19dd9c2e-cef0-4d2b-a66c-51d7760c52c3","system_id":"levelo_inurba_marseille","lat":43.3055,"lon":5.36522,"is_reserved":false,"is_disabled":false,"rental_uris":{"android":"levelo://app?vid=19dd9c2e-cef0-4d2b-a66c-51d7760c52c3","ios":"levelo://app?vid=19dd9c2e-cef0-4d2b-a66c-51d7760c52c3"},"vehicle_type_id":"4","last_reported":1738761349,"current_range_meters":34000,"station_id":"ce4bgs12rcd13ifvqcag","pricing_plan_id":"cebpf4jnsgd1na2vs0mg"},{"bike_id":"d2b2e907-7a69-440c-88ca-229f2450e34a","system_id":"levelo_inurba_marseille","lat":43.25879,"lon":5.39897,"is_reserved":false,"is_disabled":false,"rental_uris":{"android":"levelo://app?vid=d2b2e907-7a69-440c-88ca-229f2450e34a","ios":"levelo://app?vid=d2b2e907-7a69-440c-88ca-229f2450e34a"},"vehicle_type_id":"4","last_reported":1738761349,"current_range_meters":39200,"station_id":"ce4bhl92rcd13ifvqghg","pricing_plan_id":"cebpf4jnsgd1na2vs0mg"},{"bike_id":"35b0fbe6-22db-46fb-a54a-76af362a8729","system_id":"levelo_inurba_marseille","lat":43.29977,"lon":5.41329,"is_reserved":false,"is_disabled":false,"rental_uris":{"android":"levelo://app?vid=35b0fbe6-22db-46fb-a54a-76af362a8729","ios":"levelo://app?vid=35b0fbe6-22db-46fb-a54a-76af362a8729"},"vehicle_type_id":"4","last_reported":1738761349,"current_range_meters":37600,"station_id":"ce4bhp12rcd13ifvqh9g","pricing_plan_id":"cebpf4jnsgd1na2vs0mg"},{"bike_id":"e0f7f9ed-22a0-47a7-b08f-334aecb96c7a","system_id":"levelo_inurba_marseille","lat":43.30311,"lon":5.36902,"is_reserved":false,"is_disabled":false,"rental_uris":{"android":"levelo://app?vid=e0f7f9ed-22a0-47a7-b08f-334aecb96c7a","ios":"levelo://app?vid=e0f7f9ed-22a0-47a7-b08f-334aecb96c7a"},"vehicle_type_id":"4","last_reported":1738761349,"current_range_meters":10800,"station_id":"ce4bgqh2rcd13ifvqc5g","pricing_plan_id":"cebpf4jnsgd1na2vs0mg"},{"bike_id":"7adf930a-c191-4fb0-86e6-5fad97d4db33","system_id":"levelo_inurba_marseille","lat":43.30426,"lon":5.38884,"is_reserved":false,"is_disabled":false,"rental_uris":{"android":"levelo://app?vid=7adf930a-c191-4fb0-86e6-5fad97d4db33","ios":"levelo://app?vid=7adf930a-c191-4fb0-86e6-5fad97d4db33"},"vehicle_type_id":"4","last_reported":1738761349,"current_range_meters":8800,"station_id":"ce4bgk12rcd13ifvqbi0","pricing_plan_id":"cebpf4jnsgd1na2vs0mg"},{"bike_id":"e1c5140e-3425-48a7-8eac-e6f4f2614f3b","system_id":"levelo_inurba_marseille","lat":43.28499,"lon":5.3842,"is_reserved":false,"is_disabled":false,"rental_uris":{"android":"levelo://app?vid=e1c5140e-3425-48a7-8eac-e6f4f2614f3b","ios":"levelo://app?vid=e1c5140e-3425-48a7-8eac-e6f4f2614f3b"},"vehicle_type_id":"4","last_reported":1738761349,"current_range_meters":25600,"station_id":"ce4bh512rcd13ifvqe3g","pricing_plan_id":"cebpf4jnsgd1na2vs0mg"},{"bike_id":"2f9a6647-bfb0-4c5f-b2d5-6b23d0794b76","system_id":"levelo_inurba_marseille","lat":43.25568,"lon":5.38233,"is_reserved":false,"is_disabled":true,"rental_uris":{"android":"levelo://app?vid=2f9a6647-bfb0-4c5f-b2d5-6b23d0794b76","ios":"levelo://app?vid=2f9a6647-bfb0-4c5f-b2d5-6b23d0794b76"},"vehicle_type_id":"4","last_reported":1738761349,"current_range_meters":38000,"station_id":"ce4bhih2rcd13ifvqfs0","pricing_plan_id":"cebpf4jnsgd1na2vs0mg"},{"bike_id":"262a9521-09c0-4fc9-ac3a-051a80d28efd","system_id":"levelo_inurba_marseille","lat":43.30536,"lon":5.36536,"is_reserved":false,"is_disabled":false,"rental_uris":{"android":"levelo://app?vid=262a9521-09c0-4fc9-ac3a-051a80d28efd","ios":"levelo://app?vid=262a9521-09c0-4fc9-ac3a-051a80d28efd"},"vehicle_type_id":"4","last_reported":1738761349,"current_range_meters":26800,"station_id":"ce4bgs12rcd13ifvqcag","pricing_plan_id":"cebpf4jnsgd1na2vs0mg"},{"bike_id":"ea6909c8-24f9-4bcf-8882-99e672644073","system_id":"levelo_inurba_marseille","lat":43.24698,"lon":5.38148,"is_reserved":false,"is_disabled":false,"rental_uris":{"android":"levelo://app?vid=ea6909c8-24f9-4bcf-8882-99e672644073","ios":"levelo://app?vid=ea6909c8-24f9-4bcf-8882-99e672644073"},"vehicle_type_id":"4","last_reported":1738761349,"current_range_meters":29600,"station_id":"ce4bhih2rcd13ifvqfr0","pricing_plan_id":"cebpf4jnsgd1na2vs0mg"},{"bike_id":"ee90a424-5c1b-46e2-9c67-be1a83a02de7","system_id":"levelo_inurba_marseille","lat":43.28155,"lon":5.42639,"is_reserved":false,"is_disabled":false,"rental_uris":{"android":"levelo://app?vid=ee90a424-5c1b-46e2-9c67-be1a83a02de7","ios":"levelo://app?vid=ee90a424-5c1b-46e2-9c67-be1a83a02de7"},"vehicle_type_id":"4","last_reported":1738761349,"current_range_meters":32800,"station_id":"ce4bhnh2rcd13ifvqgug","pricing_plan_id":"cebpf4jnsgd1na2vs0mg"},{"bike_id":"bba993f6-46a9-4ccf-bc96-4cf92c340d15","system_id":"levelo_inurba_marseille","lat":43.2846,"lon":5.38412,"is_reserved":false,"is_disabled":false,"rental_uris":{"android":"levelo://app?vid=bba993f6-46a9-4ccf-bc96-4cf92c340d15","ios":"levelo://app?vid=bba993f6-46a9-4ccf-bc96-4cf92c340d15"},"vehicle_type_id":"4","last_reported":1738761349,"current_range_meters":4800,"station_id":"ce4bh512rcd13ifvqe3g","pricing_plan_id":"cebpf4jnsgd1na2vs0mg"},{"bike_id":"918cd003-67b8-472e-a6c6-83ef5c6b9293","system_id":"levelo_inurba_marseille","lat":43.29192,"lon":5.35811,"is_reserved":false,"is_disabled":false,"rental_uris":{"android":"levelo://app?vid=918cd003-67b8-472e-a6c6-83ef5c6b9293","ios":"levelo://app?vid=918cd003-67b8-472e-a6c6-83ef5c6b9293"},"vehicle_type_id":"4","last_reported":1738761349,"current_range_meters":38800,"station_id":"ce4bhb12rcd13ifvqel0","pricing_plan_id":"cebpf4jnsgd1na2vs0mg"},{"bike_id":"ef80d2b7-3fa4-481f-bc33-266adeb28cd1","system_id":"levelo_inurba_marseille","lat":43.25861,"lon":5.39904,"is_reserved":false,"is_disabled":true,"rental_uris":{"android":"levelo://app?vid=ef80d2b7-3fa4-481f-bc33-266adeb28cd1","ios":"levelo://app?vid=ef80d2b7-3fa4-481f-bc33-266adeb28cd1"},"vehicle_type_id":"4","last_reported":1738761349,"current_range_meters":2000,"station_id":"ce4bhl92rcd13ifvqghg","pricing_plan_id":"cebpf4jnsgd1na2vs0mg"},{"bike_id":"ed23ba12-9a7f-4d3e-8d39-fe22944d264f","system_id":"levelo_inurba_marseille","lat":43.2733,"lon":5.39107,"is_reserved":false,"is_disabled":false,"rental_uris":{"android":"levelo://app?vid=ed23ba12-9a7f-4d3e-8d39-fe22944d264f","ios":"levelo://app?vid=ed23ba12-9a7f-4d3e-8d39-fe22944d264f"},"vehicle_type_id":"4","last_reported":1738761349,"current_range_meters":39200,"station_id":"ce4bhgp2rcd13ifvqfe0","pricing_plan_id":"cebpf4jnsgd1na2vs0mg"},{"bike_id":"de19bf66-6b3f-4ab7-b7f2-7343a9dbcfee","system_id":"levelo_inurba_marseille","lat":43.30279,"lon":5.39171,"is_reserved":false,"is_disabled":false,"rental_uris":{"android":"levelo://app?vid=de19bf66-6b3f-4ab7-b7f2-7343a9dbcfee","ios":"levelo://app?vid=de19bf66-6b3f-4ab7-b7f2-7343a9dbcfee"},"vehicle_type_id":"4","last_reported":1738761349,"current_range_meters":23200,"station_id":"ce4bgkh2rcd13ifvqbk0","pricing_plan_id":"cebpf4jnsgd1na2vs0mg"},{"bike_id":"7d5a071b-33d0-4a99-a7a2-905e423e155c","system_id":"levelo_inurba_marseille","lat":43.23983,"lon":5.36625,"is_reserved":false,"is_disabled":false,"rental_uris":{"android":"levelo://app?vid=7d5a071b-33d0-4a99-a7a2-905e423e155c","ios":"levelo://app?vid=7d5a071b-33d0-4a99-a7a2-905e423e155c"},"vehicle_type_id":"4","last_reported":1738761349,"current_range_meters":36400,"station_id":"ce4bhi12rcd13ifvqfp0","pricing_plan_id":"cebpf4jnsgd1na2vs0mg"},{"bike_id":"a2d1999d-97a5-4fa9-aaba-333d12c32488","system_id":"levelo_inurba_marseille","lat":43.31162,"lon":5.38732,"is_reserved":false,"is_disabled":false,"rental_uris":{"android":"levelo://app?vid=a2d1999d-97a5-4fa9-aaba-333d12c32488","ios":"levelo://app?vid=a2d1999d-97a5-4fa9-aaba-333d12c32488"},"vehicle_type_id":"4","last_reported":1738761349,"current_range_meters":38000,"station_id":"ce4bgv12rcd13ifvqcp0","pricing_plan_id":"cebpf4jnsgd1na2vs0mg"},{"bike_id":"9a6a3a25-63d7-4228-b2f6-0ca90df3a91a","system_id":"levelo_inurba_marseille","lat":43.3081,"lon":5.38143,"is_reserved":false,"is_disabled":true,"rental_uris":{"android":"levelo://app?vid=9a6a3a25-63d7-4228-b2f6-0ca90df3a91a","ios":"levelo://app?vid=9a6a3a25-63d7-4228-b2f6-0ca90df3a91a"},"vehicle_type_id":"4","last_reported":1738761349,"current_range_meters":0,"station_id":"ce4bgt12rcd13ifvqce0","pricing_plan_id":"cebpf4jnsgd1na2vs0mg"},{"bike_id":"931c3b97-cce1-4ebe-a291-6c50a6f2810e","system_id":"levelo_inurba_marseille","lat":43.31825,"lon":5.37443,"is_reserved":false,"is_disabled":false,"rental_uris":{"android":"levelo://app?vid=931c3b97-cce1-4ebe-a291-6c50a6f2810e","ios":"levelo://app?vid=931c3b97-cce1-4ebe-a291-6c50a6f2810e"},"vehicle_type_id":"4","last_reported":1738761349,"current_range_meters":6800,"station_id":"","pricing_plan_id":"cebpf4jnsgd1na2vs0mg"},{"bike_id":"46705146-77e5-4cf5-b27b-1e2ae3609ead","system_id":"levelo_inurba_marseille","lat":43.29008,"lon":5.35605,"is_reserved":false,"is_disabled":false,"rental_uris":{"android":"levelo://app?vid=46705146-77e5-4cf5-b27b-1e2ae3609ead","ios":"levelo://app?vid=46705146-77e5-4cf5-b27b-1e2ae3609ead"},"vehicle_type_id":"4","last_reported":1738761349,"current_range_meters":27600,"station_id":"ce4bhb92rcd13ifvqen0","pricing_plan_id":"cebpf4jnsgd1na2vs0mg"},{"bike_id":"d1d51ec2-e1ab-4b92-9a4b-f935b04ef436","system_id":"levelo_inurba_marseille","lat":43.25021,"lon":5.38887,"is_reserved":false,"is_disabled":false,"rental_uris":{"android":"levelo://app?vid=d1d51ec2-e1ab-4b92-9a4b-f935b04ef436","ios":"levelo://app?vid=d1d51ec2-e1ab-4b92-9a4b-f935b04ef436"},"vehicle_type_id":"4","last_reported":1738761349,"current_range_meters":18800,"station_id":"ce4bhgp2rcd13ifvqfd0","pricing_plan_id":"cebpf4jnsgd1na2vs0mg"},{"bike_id":"7a2080c9-d44a-471c-9acd-526428e8e5dc","system_id":"levelo_inurba_marseille","lat":43.22938,"lon":5.353866,"is_reserved":false,"is_disabled":false,"rental_uris":{"android":"levelo://app?vid=7a2080c9-d44a-471c-9acd-526428e8e5dc","ios":"levelo://app?vid=7a2080c9-d44a-471c-9acd-526428e8e5dc"},"vehicle_type_id":"4","last_reported":1738761349,"current_range_meters":39200,"station_id":"cpo3532slgdg3j2ikp40","pricing_plan_id":"cebpf4jnsgd1na2vs0mg"},{"bike_id":"5e7872bf-6d44-4209-9e94-a728a908b09f","system_id":"levelo_inurba_marseille","lat":43.31324,"lon":5.39701,"is_reserved":false,"is_disabled":false,"rental_uris":{"android":"levelo://app?vid=5e7872bf-6d44-4209-9e94-a728a908b09f","ios":"levelo://app?vid=5e7872bf-6d44-4209-9e94-a728a908b09f"},"vehicle_type_id":"4","last_reported":1738761349,"current_range_meters":18000,"station_id":"ce4bgvp2rcd13ifvqcu0","pricing_plan_id":"cebpf4jnsgd1na2vs0mg"},{"bike_id":"3cffe561-5575-4d5f-9a3c-4ee740a5b122","system_id":"levelo_inurba_marseille","lat":43.27965,"lon":5.41041,"is_reserved":false,"is_disabled":false,"rental_uris":{"android":"levelo://app?vid=3cffe561-5575-4d5f-9a3c-4ee740a5b122","ios":"levelo://app?vid=3cffe561-5575-4d5f-9a3c-4ee740a5b122"},"vehicle_type_id":"4","last_reported":1738761349,"current_range_meters":24800,"station_id":"ce4bhnp2rcd13ifvqh0g","pricing_plan_id":"cebpf4jnsgd1na2vs0mg"},{"bike_id":"5377e4cc-c2d5-4147-b001-4df63aaa6791","system_id":"levelo_inurba_marseille","lat":43.28283,"lon":5.35066,"is_reserved":false,"is_disabled":false,"rental_uris":{"android":"levelo://app?vid=5377e4cc-c2d5-4147-b001-4df63aaa6791","ios":"levelo://app?vid=5377e4cc-c2d5-4147-b001-4df63aaa6791"},"vehicle_type_id":"4","last_reported":1738761349,"current_range_meters":38000,"station_id":"ce4bhbp2rcd13ifvqerg","pricing_plan_id":"cebpf4jnsgd1na2vs0mg"},{"bike_id":"f307dfc9-492f-427c-886b-0aebd0c4a217","system_id":"levelo_inurba_marseille","lat":43.24179,"lon":5.36385,"is_reserved":false,"is_disabled":false,"rental_uris":{"android":"levelo://app?vid=f307dfc9-492f-427c-886b-0aebd0c4a217","ios":"levelo://app?vid=f307dfc9-492f-427c-886b-0aebd0c4a217"},"vehicle_type_id":"4","last_reported":1738761349,"current_range_meters":38800,"station_id":"cpo36qri1sfpv3e86is0","pricing_plan_id":"cebpf4jnsgd1na2vs0mg"},{"bike_id":"8b25fc06-bf5c-4888-a3a2-37e69b7c6056","system_id":"levelo_inurba_marseille","lat":43.28705,"lon":5.3998,"is_reserved":false,"is_disabled":false,"rental_uris":{"android":"levelo://app?vid=8b25fc06-bf5c-4888-a3a2-37e69b7c6056","ios":"levelo://app?vid=8b25fc06-bf5c-4888-a3a2-37e69b7c6056"},"vehicle_type_id":"4","last_reported":1738761349,"current_range_meters":38800,"station_id":"ce4bho92rcd13ifvqh3g","pricing_plan_id":"cebpf4jnsgd1na2vs0mg"},{"bike_id":"246926c2-4963-42b8-9129-7edcdb3dd594","system_id":"levelo_inurba_marseille","lat":43.24665,"lon":5.38156,"is_reserved":false,"is_disabled":false,"rental_uris":{"android":"levelo://app?vid=246926c2-4963-42b8-9129-7edcdb3dd594","ios":"levelo://app?vid=246926c2-4963-42b8-9129-7edcdb3dd594"},"vehicle_type_id":"4","last_reported":1738761349,"current_range_meters":28400,"station_id":"ce4bhih2rcd13ifvqfr0","pricing_plan_id":"cebpf4jnsgd1na2vs0mg"},{"bike_id":"4474def6-45ac-40e3-b9b5-6505df2c0234","system_id":"levelo_inurba_marseille","lat":43.30145,"lon":5.374088,"is_reserved":false,"is_disabled":false,"rental_uris":{"android":"levelo://app?vid=4474def6-45ac-40e3-b9b5-6505df2c0234","ios":"levelo://app?vid=4474def6-45ac-40e3-b9b5-6505df2c0234"},"vehicle_type_id":"4","last_reported":1738761349,"current_range_meters":28000,"station_id":"ce4bgs92rcd13ifvqcc0","pricing_plan_id":"cebpf4jnsgd1na2vs0mg"},{"bike_id":"f9c1da7e-ff7a-4c6b-92b6-72e81669a886","system_id":"levelo_inurba_marseille","lat":43.30321,"lon":5.36896,"is_reserved":false,"is_disabled":false,"rental_uris":{"android":"levelo://app?vid=f9c1da7e-ff7a-4c6b-92b6-72e81669a886","ios":"levelo://app?vid=f9c1da7e-ff7a-4c6b-92b6-72e81669a886"},"vehicle_type_id":"4","last_reported":1738761349,"current_range_meters":28400,"station_id":"ce4bgqh2rcd13ifvqc5g","pricing_plan_id":"cebpf4jnsgd1na2vs0mg"},{"bike_id":"448a689e-af6c-4f92-9f89-b02f7ed2ec01","system_id":"levelo_inurba_marseille","lat":43.28097,"lon":5.37837,"is_reserved":false,"is_disabled":true,"rental_uris":{"android":"levelo://app?vid=448a689e-af6c-4f92-9f89-b02f7ed2ec01","ios":"levelo://app?vid=448a689e-af6c-4f92-9f89-b02f7ed2ec01"},"vehicle_type_id":"4","last_reported":1738761349,"current_range_meters":11600,"station_id":"ce4bha12rcd13ifvqee0","pricing_plan_id":"cebpf4jnsgd1na2vs0mg"},{"bike_id":"231e4208-9f17-4c2d-af87-9c14978dda33","system_id":"levelo_inurba_marseille","lat":43.26798,"lon":5.39396,"is_reserved":false,"is_disabled":false,"rental_uris":{"android":"levelo://app?vid=231e4208-9f17-4c2d-af87-9c14978dda33","ios":"levelo://app?vid=231e4208-9f17-4c2d-af87-9c14978dda33"},"vehicle_type_id":"4","last_reported":1738761349,"current_range_meters":38000,"station_id":"ce4bhh12rcd13ifvqfg0","pricing_plan_id":"cebpf4jnsgd1na2vs0mg"},{"bike_id":"abd07a97-530b-4fc0-93db-ff4b041bb8b9","system_id":"levelo_inurba_marseille","lat":43.30198,"lon":5.36639,"is_reserved":false,"is_disabled":false,"rental_uris":{"android":"levelo://app?vid=abd07a97-530b-4fc0-93db-ff4b041bb8b9","ios":"levelo://app?vid=abd07a97-530b-4fc0-93db-ff4b041bb8b9"},"vehicle_type_id":"4","last_reported":1738761349,"current_range_meters":30400,"station_id":"ce4bgrh2rcd13ifvqc8g","pricing_plan_id":"cebpf4jnsgd1na2vs0mg"},{"bike_id":"3ed2f346-3cdc-4051-b18a-2a05168e6e32","system_id":"levelo_inurba_marseille","lat":43.31068,"lon":5.40084,"is_reserved":false,"is_disabled":false,"rental_uris":{"android":"levelo://app?vid=3ed2f346-3cdc-4051-b18a-2a05168e6e32","ios":"levelo://app?vid=3ed2f346-3cdc-4051-b18a-2a05168e6e32"},"vehicle_type_id":"4","last_reported":1738761349,"current_range_meters":32800,"station_id":"","pricing_plan_id":"cebpf4jnsgd1na2vs0mg"},{"bike_id":"dd5e94be-393a-4f1d-80d0-a0e49418a3e4","system_id":"levelo_inurba_marseille","lat":43.28947,"lon":5.36635,"is_reserved":false,"is_disabled":false,"rental_uris":{"android":"levelo://app?vid=dd5e94be-393a-4f1d-80d0-a0e49418a3e4","ios":"levelo://app?vid=dd5e94be-393a-4f1d-80d0-a0e49418a3e4"},"vehicle_type_id":"4","last_reported":1738761349,"current_range_meters":24400,"station_id":"ce4bhap2rcd13ifvqek0","pricing_plan_id":"cebpf4jnsgd1na2vs0mg"},{"bike_id":"bc4186b3-1073-492b-ab95-0326a7b12d0e","system_id":"levelo_inurba_marseille","lat":43.2843,"lon":5.34983,"is_reserved":false,"is_disabled":false,"rental_uris":{"android":"levelo://app?vid=bc4186b3-1073-492b-ab95-0326a7b12d0e","ios":"levelo://app?vid=bc4186b3-1073-492b-ab95-0326a7b12d0e"},"vehicle_type_id":"4","last_reported":1738761349,"current_range_meters":36400,"station_id":"ce4bhbh2rcd13ifvqepg","pricing_plan_id":"cebpf4jnsgd1na2vs0mg"},{"bike_id":"250c053a-2ed4-4f30-a613-a41a8404b3b5","system_id":"levelo_inurba_marseille","lat":43.2706,"lon":5.40261,"is_reserved":false,"is_disabled":false,"rental_uris":{"android":"levelo://app?vid=250c053a-2ed4-4f30-a613-a41a8404b3b5","ios":"levelo://app?vid=250c053a-2ed4-4f30-a613-a41a8404b3b5"},"vehicle_type_id":"4","last_reported":1738761349,"current_range_meters":9600,"station_id":"ce4bhk92rcd13ifvqgc0","pricing_plan_id":"cebpf4jnsgd1na2vs0mg"},{"bike_id":"ca548841-038a-498c-a964-8af9b79f0f47","system_id":"levelo_inurba_marseille","lat":43.28035,"lon":5.36952,"is_reserved":false,"is_disabled":false,"rental_uris":{"android":"levelo://app?vid=ca548841-038a-498c-a964-8af9b79f0f47","ios":"levelo://app?vid=ca548841-038a-498c-a964-8af9b79f0f47"},"vehicle_type_id":"4","last_reported":1738761349,"current_range_meters":38000,"station_id":"ce4bha12rcd13ifvqef0","pricing_plan_id":"cebpf4jnsgd1na2vs0mg"},{"bike_id":"0389b0e3-bb7d-4743-89c2-0175efe92f67","system_id":"levelo_inurba_marseille","lat":43.32424,"lon":5.36578,"is_reserved":false,"is_disabled":false,"rental_uris":{"android":"levelo://app?vid=0389b0e3-bb7d-4743-89c2-0175efe92f67","ios":"levelo://app?vid=0389b0e3-bb7d-4743-89c2-0175efe92f67"},"vehicle_type_id":"4","last_reported":1738761349,"current_range_meters":26800,"station_id":"ce4bhs12rcd13ifvqhvg","pricing_plan_id":"cebpf4jnsgd1na2vs0mg"},{"bike_id":"eeb73b44-db3d-411e-921b-574f13d6b587","system_id":"levelo_inurba_marseille","lat":43.29866,"lon":5.36278,"is_reserved":false,"is_disabled":false,"rental_uris":{"android":"levelo://app?vid=eeb73b44-db3d-411e-921b-574f13d6b587","ios":"levelo://app?vid=eeb73b44-db3d-411e-921b-574f13d6b587"},"vehicle_type_id":"4","last_reported":1738761349,"current_range_meters":35200,"station_id":"ce4bgpp2rcd13ifvqc3g","pricing_plan_id":"cebpf4jnsgd1na2vs0mg"},{"bike_id":"0a287503-4bf2-4506-8970-2887ee5ee9b1","system_id":"levelo_inurba_marseille","lat":43.27919,"lon":5.39588,"is_reserved":false,"is_disabled":true,"rental_uris":{"android":"levelo://app?vid=0a287503-4bf2-4506-8970-2887ee5ee9b1","ios":"levelo://app?vid=0a287503-4bf2-4506-8970-2887ee5ee9b1"},"vehicle_type_id":"4","last_reported":1738761349,"current_range_meters":1200,"station_id":"ce4bhf92rcd13ifvqf40","pricing_plan_id":"cebpf4jnsgd1na2vs0mg"},{"bike_id":"2b52254f-933d-4903-ac07-21eb27a1e798","system_id":"levelo_inurba_marseille","lat":43.27182,"lon":5.41002,"is_reserved":false,"is_disabled":false,"rental_uris":{"android":"levelo://app?vid=2b52254f-933d-4903-ac07-21eb27a1e798","ios":"levelo://app?vid=2b52254f-933d-4903-ac07-21eb27a1e798"},"vehicle_type_id":"4","last_reported":1738761349,"current_range_meters":6400,"station_id":"ce4bhl12rcd13ifvqgf0","pricing_plan_id":"cebpf4jnsgd1na2vs0mg"},{"bike_id":"5446a734-e212-4c3d-97c0-7e16b7a456b9","system_id":"levelo_inurba_marseille","lat":43.23176,"lon":5.43703,"is_reserved":false,"is_disabled":false,"rental_uris":{"android":"levelo://app?vid=5446a734-e212-4c3d-97c0-7e16b7a456b9","ios":"levelo://app?vid=5446a734-e212-4c3d-97c0-7e16b7a456b9"},"vehicle_type_id":"4","last_reported":1738761349,"current_range_meters":23200,"station_id":"ce4bhmp2rcd13ifvqgog","pricing_plan_id":"cebpf4jnsgd1na2vs0mg"},{"bike_id":"f6b85522-242c-4809-89c8-c383bf89aa65","system_id":"levelo_inurba_marseille","lat":43.30151,"lon":5.37422,"is_reserved":false,"is_disabled":false,"rental_uris":{"android":"levelo://app?vid=f6b85522-242c-4809-89c8-c383bf89aa65","ios":"levelo://app?vid=f6b85522-242c-4809-89c8-c383bf89aa65"},"vehicle_type_id":"4","last_reported":1738761349,"current_range_meters":22400,"station_id":"ce4bgs92rcd13ifvqcc0","pricing_plan_id":"cebpf4jnsgd1na2vs0mg"},{"bike_id":"6b0456b4-197e-4b8e-8799-49a6f7895516","system_id":"levelo_inurba_marseille","lat":43.26775,"lon":5.39425,"is_reserved":false,"is_disabled":false,"rental_uris":{"android":"levelo://app?vid=6b0456b4-197e-4b8e-8799-49a6f7895516","ios":"levelo://app?vid=6b0456b4-197e-4b8e-8799-49a6f7895516"},"vehicle_type_id":"4","last_reported":1738761349,"current_range_meters":30800,"station_id":"ce4bhh12rcd13ifvqfg0","pricing_plan_id":"cebpf4jnsgd1na2vs0mg"},{"bike_id":"2551b22b-c2b7-4ff0-a854-ef42bd591a2f","system_id":"levelo_inurba_marseille","lat":43.23153,"lon":5.43705,"is_reserved":false,"is_disabled":true,"rental_uris":{"android":"levelo://app?vid=2551b22b-c2b7-4ff0-a854-ef42bd591a2f","ios":"levelo://app?vid=2551b22b-c2b7-4ff0-a854-ef42bd591a2f"},"vehicle_type_id":"4","last_reported":1738761349,"current_range_meters":800,"station_id":"ce4bhmp2rcd13ifvqgog","pricing_plan_id":"cebpf4jnsgd1na2vs0mg"},{"bike_id":"e56f7173-ecda-4202-ba3f-0634ea7af8a9","system_id":"levelo_inurba_marseille","lat":43.25588,"lon":5.38235,"is_reserved":false,"is_disabled":false,"rental_uris":{"android":"levelo://app?vid=e56f7173-ecda-4202-ba3f-0634ea7af8a9","ios":"levelo://app?vid=e56f7173-ecda-4202-ba3f-0634ea7af8a9"},"vehicle_type_id":"4","last_reported":1738761349,"current_range_meters":24400,"station_id":"ce4bhih2rcd13ifvqfs0","pricing_plan_id":"cebpf4jnsgd1na2vs0mg"},{"bike_id":"cbc65456-707b-4ddd-b341-f003b676778a","system_id":"levelo_inurba_marseille","lat":43.27824,"lon":5.40725,"is_reserved":false,"is_disabled":false,"rental_uris":{"android":"levelo://app?vid=cbc65456-707b-4ddd-b341-f003b676778a","ios":"levelo://app?vid=cbc65456-707b-4ddd-b341-f003b676778a"},"vehicle_type_id":"4","last_reported":1738761349,"current_range_meters":30000,"station_id":"ce4bhnh2rcd13ifvqgtg","pricing_plan_id":"cebpf4jnsgd1na2vs0mg"},{"bike_id":"afb24665-29eb-4b84-b727-dcf974a337f4","system_id":"levelo_inurba_marseille","lat":43.29232,"lon":5.360577,"is_reserved":false,"is_disabled":false,"rental_uris":{"android":"levelo://app?vid=afb24665-29eb-4b84-b727-dcf974a337f4","ios":"levelo://app?vid=afb24665-29eb-4b84-b727-dcf974a337f4"},"vehicle_type_id":"4","last_reported":1738761349,"current_range_meters":38800,"station_id":"ce4bhbh2rcd13ifvqeqg","pricing_plan_id":"cebpf4jnsgd1na2vs0mg"},{"bike_id":"26d397a9-61ee-400d-a6b0-dc8b026ea3e4","system_id":"levelo_inurba_marseille","lat":43.29654,"lon":5.3714,"is_reserved":false,"is_disabled":false,"rental_uris":{"android":"levelo://app?vid=26d397a9-61ee-400d-a6b0-dc8b026ea3e4","ios":"levelo://app?vid=26d397a9-61ee-400d-a6b0-dc8b026ea3e4"},"vehicle_type_id":"4","last_reported":1738761349,"current_range_meters":30800,"station_id":"ce4bgnh2rcd13ifvqc0g","pricing_plan_id":"cebpf4jnsgd1na2vs0mg"},{"bike_id":"ab2bebbc-c591-4173-a2cd-e741bc7570d0","system_id":"levelo_inurba_marseille","lat":43.2896,"lon":5.36412,"is_reserved":false,"is_disabled":false,"rental_uris":{"android":"levelo://app?vid=ab2bebbc-c591-4173-a2cd-e741bc7570d0","ios":"levelo://app?vid=ab2bebbc-c591-4173-a2cd-e741bc7570d0"},"vehicle_type_id":"4","last_reported":1738761349,"current_range_meters":38800,"station_id":"ce4bhc92rcd13ifvqetg","pricing_plan_id":"cebpf4jnsgd1na2vs0mg"},{"bike_id":"8dcb5648-f815-40ee-a1ef-63cb7b60c563","system_id":"levelo_inurba_marseille","lat":43.32015,"lon":5.38153,"is_reserved":false,"is_disabled":false,"rental_uris":{"android":"levelo://app?vid=8dcb5648-f815-40ee-a1ef-63cb7b60c563","ios":"levelo://app?vid=8dcb5648-f815-40ee-a1ef-63cb7b60c563"},"vehicle_type_id":"4","last_reported":1738761349,"current_range_meters":32800,"station_id":"ce4bhr12rcd13ifvqhpg","pricing_plan_id":"cebpf4jnsgd1na2vs0mg"},{"bike_id":"9c7a4285-87fe-4895-bacb-2b09594c498c","system_id":"levelo_inurba_marseille","lat":43.33051,"lon":5.39053,"is_reserved":false,"is_disabled":false,"rental_uris":{"android":"levelo://app?vid=9c7a4285-87fe-4895-bacb-2b09594c498c","ios":"levelo://app?vid=9c7a4285-87fe-4895-bacb-2b09594c498c"},"vehicle_type_id":"4","last_reported":1738761349,"current_range_meters":38800,"station_id":"ce4bhr92rcd13ifvqhrg","pricing_plan_id":"cebpf4jnsgd1na2vs0mg"},{"bike_id":"320dbee0-b936-4454-8395-7c2ed1c8c481","system_id":"levelo_inurba_marseille","lat":43.28851,"lon":5.35844,"is_reserved":false,"is_disabled":false,"rental_uris":{"android":"levelo://app?vid=320dbee0-b936-4454-8395-7c2ed1c8c481","ios":"levelo://app?vid=320dbee0-b936-4454-8395-7c2ed1c8c481"},"vehicle_type_id":"4","last_reported":1738761349,"current_range_meters":36400,"station_id":"ce4bhb12rcd13ifvqem0","pricing_plan_id":"cebpf4jnsgd1na2vs0mg"},{"bike_id":"a9ee38d0-21e8-4d99-8e3f-cc643e32473e","system_id":"levelo_inurba_marseille","lat":43.27805,"lon":5.40735,"is_reserved":false,"is_disabled":false,"rental_uris":{"android":"levelo://app?vid=a9ee38d0-21e8-4d99-8e3f-cc643e32473e","ios":"levelo://app?vid=a9ee38d0-21e8-4d99-8e3f-cc643e32473e"},"vehicle_type_id":"4","last_reported":1738761349,"current_range_meters":38000,"station_id":"ce4bhnh2rcd13ifvqgtg","pricing_plan_id":"cebpf4jnsgd1na2vs0mg"},{"bike_id":"434bfbd5-da5e-4244-9828-ea3ac5f3e3d5","system_id":"levelo_inurba_marseille","lat":43.27813,"lon":5.40718,"is_reserved":false,"is_disabled":false,"rental_uris":{"android":"levelo://app?vid=434bfbd5-da5e-4244-9828-ea3ac5f3e3d5","ios":"levelo://app?vid=434bfbd5-da5e-4244-9828-ea3ac5f3e3d5"},"vehicle_type_id":"4","last_reported":1738761349,"current_range_meters":34000,"station_id":"ce4bhnh2rcd13ifvqgtg","pricing_plan_id":"cebpf4jnsgd1na2vs0mg"},{"bike_id":"630dd466-e4dd-4ada-8a39-01e92abf0818","system_id":"levelo_inurba_marseille","lat":43.26195,"lon":5.37464,"is_reserved":false,"is_disabled":false,"rental_uris":{"android":"levelo://app?vid=630dd466-e4dd-4ada-8a39-01e92abf0818","ios":"levelo://app?vid=630dd466-e4dd-4ada-8a39-01e92abf0818"},"vehicle_type_id":"4","last_reported":1738761349,"current_range_meters":29600,"station_id":"ce4bhgp2rcd13ifvqfc0","pricing_plan_id":"cebpf4jnsgd1na2vs0mg"},{"bike_id":"0cabc628-b922-4428-9804-03c7c9892378","system_id":"levelo_inurba_marseille","lat":43.29977,"lon":5.37169,"is_reserved":false,"is_disabled":false,"rental_uris":{"android":"levelo://app?vid=0cabc628-b922-4428-9804-03c7c9892378","ios":"levelo://app?vid=0cabc628-b922-4428-9804-03c7c9892378"},"vehicle_type_id":"4","last_reported":1738761349,"current_range_meters":38800,"station_id":"ce4bgr92rcd13ifvqc7g","pricing_plan_id":"cebpf4jnsgd1na2vs0mg"},{"bike_id":"0fc03909-a57b-48b7-ad0a-ab560614ca70","system_id":"levelo_inurba_marseille","lat":43.30911,"lon":5.40137,"is_reserved":false,"is_disabled":false,"rental_uris":{"android":"levelo://app?vid=0fc03909-a57b-48b7-ad0a-ab560614ca70","ios":"levelo://app?vid=0fc03909-a57b-48b7-ad0a-ab560614ca70"},"vehicle_type_id":"4","last_reported":1738761349,"current_range_meters":25200,"station_id":"ce4bgvp2rcd13ifvqct0","pricing_plan_id":"cebpf4jnsgd1na2vs0mg"},{"bike_id":"164d0caf-4978-4f80-b0b9-9a8f2b0ab9d7","system_id":"levelo_inurba_marseille","lat":43.29622,"lon":5.40547,"is_reserved":false,"is_disabled":true,"rental_uris":{"android":"levelo://app?vid=164d0caf-4978-4f80-b0b9-9a8f2b0ab9d7","ios":"levelo://app?vid=164d0caf-4978-4f80-b0b9-9a8f2b0ab9d7"},"vehicle_type_id":"4","last_reported":1738761349,"current_range_meters":30000,"station_id":"ce4bh0h2rcd13ifvqd60","pricing_plan_id":"cebpf4jnsgd1na2vs0mg"},{"bike_id":"41ad3d36-51d8-4204-ae3d-d7c8884b6fab","system_id":"levelo_inurba_marseille","lat":43.25584,"lon":5.38233,"is_reserved":false,"is_disabled":false,"rental_uris":{"android":"levelo://app?vid=41ad3d36-51d8-4204-ae3d-d7c8884b6fab","ios":"levelo://app?vid=41ad3d36-51d8-4204-ae3d-d7c8884b6fab"},"vehicle_type_id":"4","last_reported":1738761349,"current_range_meters":36400,"station_id":"ce4bhih2rcd13ifvqfs0","pricing_plan_id":"cebpf4jnsgd1na2vs0mg"},{"bike_id":"1b9214f8-12f2-4278-99cc-87bfa0cd0c04","system_id":"levelo_inurba_marseille","lat":43.29713,"lon":5.3768,"is_reserved":false,"is_disabled":false,"rental_uris":{"android":"levelo://app?vid=1b9214f8-12f2-4278-99cc-87bfa0cd0c04","ios":"levelo://app?vid=1b9214f8-12f2-4278-99cc-87bfa0cd0c04"},"vehicle_type_id":"4","last_reported":1738761349,"current_range_meters":36800,"station_id":"ce4bgkh2rcd13ifvqbl0","pricing_plan_id":"cebpf4jnsgd1na2vs0mg"},{"bike_id":"a2ba7768-e6f8-4ccb-9b3a-ceb62a2b692a","system_id":"levelo_inurba_marseille","lat":43.28633,"lon":5.3508,"is_reserved":false,"is_disabled":false,"rental_uris":{"android":"levelo://app?vid=a2ba7768-e6f8-4ccb-9b3a-ceb62a2b692a","ios":"levelo://app?vid=a2ba7768-e6f8-4ccb-9b3a-ceb62a2b692a"},"vehicle_type_id":"4","last_reported":1738761349,"current_range_meters":38800,"station_id":"ce4bhch2rcd13ifvqeug","pricing_plan_id":"cebpf4jnsgd1na2vs0mg"},{"bike_id":"e1fd63af-2ded-46aa-b95c-acb582af5c06","system_id":"levelo_inurba_marseille","lat":43.28721,"lon":5.39983,"is_reserved":false,"is_disabled":true,"rental_uris":{"android":"levelo://app?vid=e1fd63af-2ded-46aa-b95c-acb582af5c06","ios":"levelo://app?vid=e1fd63af-2ded-46aa-b95c-acb582af5c06"},"vehicle_type_id":"4","last_reported":1738761349,"current_range_meters":0,"station_id":"ce4bho92rcd13ifvqh3g","pricing_plan_id":"cebpf4jnsgd1na2vs0mg"},{"bike_id":"9a8590c5-e934-4c10-a796-7e187c1e4a7c","system_id":"levelo_inurba_marseille","lat":43.32046,"lon":5.41544,"is_reserved":false,"is_disabled":false,"rental_uris":{"android":"levelo://app?vid=9a8590c5-e934-4c10-a796-7e187c1e4a7c","ios":"levelo://app?vid=9a8590c5-e934-4c10-a796-7e187c1e4a7c"},"vehicle_type_id":"4","last_reported":1738761349,"current_range_meters":32000,"station_id":"ce4bhq92rcd13ifvqhkg","pricing_plan_id":"cebpf4jnsgd1na2vs0mg"},{"bike_id":"86e0389b-1131-4421-87bf-e3363b03a621","system_id":"levelo_inurba_marseille","lat":43.28721,"lon":5.3792,"is_reserved":false,"is_disabled":false,"rental_uris":{"android":"levelo://app?vid=86e0389b-1131-4421-87bf-e3363b03a621","ios":"levelo://app?vid=86e0389b-1131-4421-87bf-e3363b03a621"},"vehicle_type_id":"4","last_reported":1738761349,"current_range_meters":8400,"station_id":"ce4bh9p2rcd13ifvqec0","pricing_plan_id":"cebpf4jnsgd1na2vs0mg"},{"bike_id":"d9a60c91-dff2-440d-8b10-c7b78047f228","system_id":"levelo_inurba_marseille","lat":43.27318,"lon":5.39111,"is_reserved":false,"is_disabled":false,"rental_uris":{"android":"levelo://app?vid=d9a60c91-dff2-440d-8b10-c7b78047f228","ios":"levelo://app?vid=d9a60c91-dff2-440d-8b10-c7b78047f228"},"vehicle_type_id":"4","last_reported":1738761349,"current_range_meters":38800,"station_id":"ce4bhgp2rcd13ifvqfe0","pricing_plan_id":"cebpf4jnsgd1na2vs0mg"},{"bike_id":"e7d31327-323a-443c-bb67-39186722e63f","system_id":"levelo_inurba_marseille","lat":43.3363,"lon":5.373,"is_reserved":false,"is_disabled":false,"rental_uris":{"android":"levelo://app?vid=e7d31327-323a-443c-bb67-39186722e63f","ios":"levelo://app?vid=e7d31327-323a-443c-bb67-39186722e63f"},"vehicle_type_id":"4","last_reported":1738761349,"current_range_meters":20000,"station_id":"","pricing_plan_id":"cebpf4jnsgd1na2vs0mg"},{"bike_id":"68e5a829-ff54-4947-8e53-276919934545","system_id":"levelo_inurba_marseille","lat":43.29029,"lon":5.38591,"is_reserved":false,"is_disabled":false,"rental_uris":{"android":"levelo://app?vid=68e5a829-ff54-4947-8e53-276919934545","ios":"levelo://app?vid=68e5a829-ff54-4947-8e53-276919934545"},"vehicle_type_id":"4","last_reported":1738761349,"current_range_meters":20400,"station_id":"ce4bh4p2rcd13ifvqe0g","pricing_plan_id":"cebpf4jnsgd1na2vs0mg"},{"bike_id":"c4b08fde-c2a2-4986-92a0-5fd948cf1d66","system_id":"levelo_inurba_marseille","lat":43.29528,"lon":5.37514,"is_reserved":false,"is_disabled":false,"rental_uris":{"android":"levelo://app?vid=c4b08fde-c2a2-4986-92a0-5fd948cf1d66","ios":"levelo://app?vid=c4b08fde-c2a2-4986-92a0-5fd948cf1d66"},"vehicle_type_id":"4","last_reported":1738761349,"current_range_meters":12400,"station_id":"ce4bgkp2rcd13ifvqbmg","pricing_plan_id":"cebpf4jnsgd1na2vs0mg"},{"bike_id":"d6e917f0-24c9-4380-972e-b234f5051863","system_id":"levelo_inurba_marseille","lat":43.25149,"lon":5.40317,"is_reserved":false,"is_disabled":false,"rental_uris":{"android":"levelo://app?vid=d6e917f0-24c9-4380-972e-b234f5051863","ios":"levelo://app?vid=d6e917f0-24c9-4380-972e-b234f5051863"},"vehicle_type_id":"4","last_reported":1738761349,"current_range_meters":38800,"station_id":"ce4bhlh2rcd13ifvqgig","pricing_plan_id":"cebpf4jnsgd1na2vs0mg"},{"bike_id":"ee69606c-4c97-488d-8e98-0dc265462512","system_id":"levelo_inurba_marseille","lat":43.28699,"lon":5.3867,"is_reserved":false,"is_disabled":false,"rental_uris":{"android":"levelo://app?vid=ee69606c-4c97-488d-8e98-0dc265462512","ios":"levelo://app?vid=ee69606c-4c97-488d-8e98-0dc265462512"},"vehicle_type_id":"4","last_reported":1738761349,"current_range_meters":39200,"station_id":"ce4bh492rcd13ifvqdug","pricing_plan_id":"cebpf4jnsgd1na2vs0mg"},{"bike_id":"05163465-5474-4e21-a4b2-1324ab06b451","system_id":"levelo_inurba_marseille","lat":43.29026,"lon":5.38647,"is_reserved":false,"is_disabled":false,"rental_uris":{"android":"levelo://app?vid=05163465-5474-4e21-a4b2-1324ab06b451","ios":"levelo://app?vid=05163465-5474-4e21-a4b2-1324ab06b451"},"vehicle_type_id":"4","last_reported":1738761349,"current_range_meters":32800,"station_id":"ce4bh4p2rcd13ifvqe0g","pricing_plan_id":"cebpf4jnsgd1na2vs0mg"},{"bike_id":"cd07e062-2af1-406e-bcb9-5f1ec4730937","system_id":"levelo_inurba_marseille","lat":43.23067,"lon":5.35491,"is_reserved":false,"is_disabled":false,"rental_uris":{"android":"levelo://app?vid=cd07e062-2af1-406e-bcb9-5f1ec4730937","ios":"levelo://app?vid=cd07e062-2af1-406e-bcb9-5f1ec4730937"},"vehicle_type_id":"4","last_reported":1738761349,"current_range_meters":38800,"station_id":"cpo3342slgdg3j2ifvpg","pricing_plan_id":"cebpf4jnsgd1na2vs0mg"},{"bike_id":"c3644d12-8427-4602-9945-9ef42c46feca","system_id":"levelo_inurba_marseille","lat":43.241647,"lon":5.364068,"is_reserved":false,"is_disabled":false,"rental_uris":{"android":"levelo://app?vid=c3644d12-8427-4602-9945-9ef42c46feca","ios":"levelo://app?vid=c3644d12-8427-4602-9945-9ef42c46feca"},"vehicle_type_id":"4","last_reported":1738761349,"current_range_meters":38800,"station_id":"cpo36qri1sfpv3e86is0","pricing_plan_id":"cebpf4jnsgd1na2vs0mg"},{"bike_id":"6b38d43d-337c-4149-9167-ccfdd61c33a4","system_id":"levelo_inurba_marseille","lat":43.29212,"lon":5.3607,"is_reserved":false,"is_disabled":false,"rental_uris":{"android":"levelo://app?vid=6b38d43d-337c-4149-9167-ccfdd61c33a4","ios":"levelo://app?vid=6b38d43d-337c-4149-9167-ccfdd61c33a4"},"vehicle_type_id":"4","last_reported":1738761349,"current_range_meters":36400,"station_id":"ce4bhbh2rcd13ifvqeqg","pricing_plan_id":"cebpf4jnsgd1na2vs0mg"},{"bike_id":"904411af-cfae-4f02-b747-7f5d0fd09ff6","system_id":"levelo_inurba_marseille","lat":43.28401,"lon":5.37518,"is_reserved":false,"is_disabled":true,"rental_uris":{"android":"levelo://app?vid=904411af-cfae-4f02-b747-7f5d0fd09ff6","ios":"levelo://app?vid=904411af-cfae-4f02-b747-7f5d0fd09ff6"},"vehicle_type_id":"4","last_reported":1738761349,"current_range_meters":800,"station_id":"ce4bh412rcd13ifvqds0","pricing_plan_id":"cebpf4jnsgd1na2vs0mg"},{"bike_id":"1e7bde43-ab8f-4755-b59a-acd0a53ae759","system_id":"levelo_inurba_marseille","lat":43.31734,"lon":5.4239,"is_reserved":false,"is_disabled":true,"rental_uris":{"android":"levelo://app?vid=1e7bde43-ab8f-4755-b59a-acd0a53ae759","ios":"levelo://app?vid=1e7bde43-ab8f-4755-b59a-acd0a53ae759"},"vehicle_type_id":"4","last_reported":1738761349,"current_range_meters":0,"station_id":"ce4bhp92rcd13ifvqhbg","pricing_plan_id":"cebpf4jnsgd1na2vs0mg"},{"bike_id":"86b83a1c-0276-4b3c-96f7-2f2f04cecaf3","system_id":"levelo_inurba_marseille","lat":43.33031,"lon":5.39036,"is_reserved":false,"is_disabled":false,"rental_uris":{"android":"levelo://app?vid=86b83a1c-0276-4b3c-96f7-2f2f04cecaf3","ios":"levelo://app?vid=86b83a1c-0276-4b3c-96f7-2f2f04cecaf3"},"vehicle_type_id":"4","last_reported":1738761349,"current_range_meters":31200,"station_id":"ce4bhr92rcd13ifvqhrg","pricing_plan_id":"cebpf4jnsgd1na2vs0mg"},{"bike_id":"f4c0a85d-47a3-45b1-988e-e3c4d19c1b5a","system_id":"levelo_inurba_marseille","lat":43.309,"lon":5.3687,"is_reserved":false,"is_disabled":false,"rental_uris":{"android":"levelo://app?vid=f4c0a85d-47a3-45b1-988e-e3c4d19c1b5a","ios":"levelo://app?vid=f4c0a85d-47a3-45b1-988e-e3c4d19c1b5a"},"vehicle_type_id":"4","last_reported":1738761349,"current_range_meters":38800,"station_id":"ce4bgn92rcd13ifvqbvg","pricing_plan_id":"cebpf4jnsgd1na2vs0mg"},{"bike_id":"7f4fffa5-6d52-4079-b98c-45dc4e6df6c0","system_id":"levelo_inurba_marseille","lat":43.297013,"lon":5.366007,"is_reserved":false,"is_disabled":true,"rental_uris":{"android":"levelo://app?vid=7f4fffa5-6d52-4079-b98c-45dc4e6df6c0","ios":"levelo://app?vid=7f4fffa5-6d52-4079-b98c-45dc4e6df6c0"},"vehicle_type_id":"4","last_reported":1738761349,"current_range_meters":1600,"station_id":"ce4bgn12rcd13ifvqbt0","pricing_plan_id":"cebpf4jnsgd1na2vs0mg"},{"bike_id":"9bb6799c-49cb-49e9-8796-96f8a5d985e4","system_id":"levelo_inurba_marseille","lat":43.3089,"lon":5.36864,"is_reserved":false,"is_disabled":false,"rental_uris":{"android":"levelo://app?vid=9bb6799c-49cb-49e9-8796-96f8a5d985e4","ios":"levelo://app?vid=9bb6799c-49cb-49e9-8796-96f8a5d985e4"},"vehicle_type_id":"4","last_reported":1738761349,"current_range_meters":16400,"station_id":"ce4bgn92rcd13ifvqbvg","pricing_plan_id":"cebpf4jnsgd1na2vs0mg"},{"bike_id":"366699a6-df06-42ed-baf0-fee0b43104f1","system_id":"levelo_inurba_marseille","lat":43.248,"lon":5.37459,"is_reserved":false,"is_disabled":false,"rental_uris":{"android":"levelo://app?vid=366699a6-df06-42ed-baf0-fee0b43104f1","ios":"levelo://app?vid=366699a6-df06-42ed-baf0-fee0b43104f1"},"vehicle_type_id":"4","last_reported":1738761349,"current_range_meters":35200,"station_id":"ce4bhgh2rcd13ifvqfb0","pricing_plan_id":"cebpf4jnsgd1na2vs0mg"},{"bike_id":"45a7daa2-2a2e-4454-90c3-1009aaecc5bd","system_id":"levelo_inurba_marseille","lat":43.23196,"lon":5.35538,"is_reserved":false,"is_disabled":false,"rental_uris":{"android":"levelo://app?vid=45a7daa2-2a2e-4454-90c3-1009aaecc5bd","ios":"levelo://app?vid=45a7daa2-2a2e-4454-90c3-1009aaecc5bd"},"vehicle_type_id":"4","last_reported":1738761349,"current_range_meters":2800,"station_id":"ce4bhu92rcd13ifvqi70","pricing_plan_id":"cebpf4jnsgd1na2vs0mg"},{"bike_id":"aece1634-918f-4f68-8bc7-9a7b7abafc1f","system_id":"levelo_inurba_marseille","lat":43.28163,"lon":5.42646,"is_reserved":false,"is_disabled":true,"rental_uris":{"android":"levelo://app?vid=aece1634-918f-4f68-8bc7-9a7b7abafc1f","ios":"levelo://app?vid=aece1634-918f-4f68-8bc7-9a7b7abafc1f"},"vehicle_type_id":"4","last_reported":1738761349,"current_range_meters":30000,"station_id":"ce4bhnh2rcd13ifvqgug","pricing_plan_id":"cebpf4jnsgd1na2vs0mg"},{"bike_id":"c06f99e6-43d4-44a7-8951-7c8d2c47ddf8","system_id":"levelo_inurba_marseille","lat":43.30755,"lon":5.37176,"is_reserved":false,"is_disabled":false,"rental_uris":{"android":"levelo://app?vid=c06f99e6-43d4-44a7-8951-7c8d2c47ddf8","ios":"levelo://app?vid=c06f99e6-43d4-44a7-8951-7c8d2c47ddf8"},"vehicle_type_id":"4","last_reported":1738761349,"current_range_meters":30000,"station_id":"","pricing_plan_id":"cebpf4jnsgd1na2vs0mg"},{"bike_id":"f8a541f0-e4a8-4639-8d63-84a9a76b70b4","system_id":"levelo_inurba_marseille","lat":43.30303,"lon":5.37727,"is_reserved":false,"is_disabled":false,"rental_uris":{"android":"levelo://app?vid=f8a541f0-e4a8-4639-8d63-84a9a76b70b4","ios":"levelo://app?vid=f8a541f0-e4a8-4639-8d63-84a9a76b70b4"},"vehicle_type_id":"4","last_reported":1738761349,"current_range_meters":37600,"station_id":"ce4bguh2rcd13ifvqcj0","pricing_plan_id":"cebpf4jnsgd1na2vs0mg"},{"bike_id":"3b1d5f28-8e2f-4cd2-84ee-32e60c8bc1d4","system_id":"levelo_inurba_marseille","lat":43.27952,"lon":5.38708,"is_reserved":false,"is_disabled":true,"rental_uris":{"android":"levelo://app?vid=3b1d5f28-8e2f-4cd2-84ee-32e60c8bc1d4","ios":"levelo://app?vid=3b1d5f28-8e2f-4cd2-84ee-32e60c8bc1d4"},"vehicle_type_id":"4","last_reported":1738761349,"current_range_meters":0,"station_id":"ce4bhg12rcd13ifvqf80","pricing_plan_id":"cebpf4jnsgd1na2vs0mg"},{"bike_id":"a21453e1-7dd1-439a-9411-5be2637f52a4","system_id":"levelo_inurba_marseille","lat":43.29771,"lon":5.38118,"is_reserved":false,"is_disabled":true,"rental_uris":{"android":"levelo://app?vid=a21453e1-7dd1-439a-9411-5be2637f52a4","ios":"levelo://app?vid=a21453e1-7dd1-439a-9411-5be2637f52a4"},"vehicle_type_id":"4","last_reported":1738761349,"current_range_meters":0,"station_id":"ce4bgip2rcd13ifvqbb0","pricing_plan_id":"cebpf4jnsgd1na2vs0mg"},{"bike_id":"c7b2eebe-1dbd-4620-93fe-a18cd7d8db4c","system_id":"levelo_inurba_marseille","lat":43.31535,"lon":5.38041,"is_reserved":false,"is_disabled":false,"rental_uris":{"android":"levelo://app?vid=c7b2eebe-1dbd-4620-93fe-a18cd7d8db4c","ios":"levelo://app?vid=c7b2eebe-1dbd-4620-93fe-a18cd7d8db4c"},"vehicle_type_id":"4","last_reported":1738761349,"current_range_meters":19600,"station_id":"ce4bhsp2rcd13ifvqi50","pricing_plan_id":"cebpf4jnsgd1na2vs0mg"},{"bike_id":"7941e5b7-52aa-44cc-811c-2c9582906bd0","system_id":"levelo_inurba_marseille","lat":43.3108,"lon":5.42432,"is_reserved":false,"is_disabled":false,"rental_uris":{"android":"levelo://app?vid=7941e5b7-52aa-44cc-811c-2c9582906bd0","ios":"levelo://app?vid=7941e5b7-52aa-44cc-811c-2c9582906bd0"},"vehicle_type_id":"4","last_reported":1738761349,"current_range_meters":14000,"station_id":"ce4bhp92rcd13ifvqhag","pricing_plan_id":"cebpf4jnsgd1na2vs0mg"},{"bike_id":"9d71d304-2002-4ef9-bd23-de48bc17ac77","system_id":"levelo_inurba_marseille","lat":43.24077,"lon":5.37747,"is_reserved":false,"is_disabled":true,"rental_uris":{"android":"levelo://app?vid=9d71d304-2002-4ef9-bd23-de48bc17ac77","ios":"levelo://app?vid=9d71d304-2002-4ef9-bd23-de48bc17ac77"},"vehicle_type_id":"4","last_reported":1738761349,"current_range_meters":800,"station_id":"ce4bhnp2rcd13ifvqgvg","pricing_plan_id":"cebpf4jnsgd1na2vs0mg"},{"bike_id":"06c0d286-2111-46b2-ac47-c3edaece642a","system_id":"levelo_inurba_marseille","lat":43.29634,"lon":5.37747,"is_reserved":false,"is_disabled":false,"rental_uris":{"android":"levelo://app?vid=06c0d286-2111-46b2-ac47-c3edaece642a","ios":"levelo://app?vid=06c0d286-2111-46b2-ac47-c3edaece642a"},"vehicle_type_id":"4","last_reported":1738761349,"current_range_meters":10800,"station_id":"ce4bgi92rcd13ifvqb90","pricing_plan_id":"cebpf4jnsgd1na2vs0mg"},{"bike_id":"85d197af-7492-45d8-a8f0-3b3d28b89974","system_id":"levelo_inurba_marseille","lat":43.29178,"lon":5.35809,"is_reserved":false,"is_disabled":false,"rental_uris":{"android":"levelo://app?vid=85d197af-7492-45d8-a8f0-3b3d28b89974","ios":"levelo://app?vid=85d197af-7492-45d8-a8f0-3b3d28b89974"},"vehicle_type_id":"4","last_reported":1738761349,"current_range_meters":22000,"station_id":"ce4bhb12rcd13ifvqel0","pricing_plan_id":"cebpf4jnsgd1na2vs0mg"},{"bike_id":"8dbe8a6e-72e2-42be-91e2-483b6f8206f0","system_id":"levelo_inurba_marseille","lat":43.25939,"lon":5.40887,"is_reserved":false,"is_disabled":false,"rental_uris":{"android":"levelo://app?vid=8dbe8a6e-72e2-42be-91e2-483b6f8206f0","ios":"levelo://app?vid=8dbe8a6e-72e2-42be-91e2-483b6f8206f0"},"vehicle_type_id":"4","last_reported":1738761349,"current_range_meters":25600,"station_id":"ce4bhm92rcd13ifvqglg","pricing_plan_id":"cebpf4jnsgd1na2vs0mg"},{"bike_id":"ca7c1891-cc71-46eb-a5f1-4c197a024bdc","system_id":"levelo_inurba_marseille","lat":43.31343,"lon":5.39699,"is_reserved":false,"is_disabled":false,"rental_uris":{"android":"levelo://app?vid=ca7c1891-cc71-46eb-a5f1-4c197a024bdc","ios":"levelo://app?vid=ca7c1891-cc71-46eb-a5f1-4c197a024bdc"},"vehicle_type_id":"4","last_reported":1738761349,"current_range_meters":8800,"station_id":"ce4bgvp2rcd13ifvqcu0","pricing_plan_id":"cebpf4jnsgd1na2vs0mg"},{"bike_id":"fb128a81-f202-4efc-b63b-ec8421c89af0","system_id":"levelo_inurba_marseille","lat":43.32056,"lon":5.41538,"is_reserved":false,"is_disabled":false,"rental_uris":{"android":"levelo://app?vid=fb128a81-f202-4efc-b63b-ec8421c89af0","ios":"levelo://app?vid=fb128a81-f202-4efc-b63b-ec8421c89af0"},"vehicle_type_id":"4","last_reported":1738761349,"current_range_meters":17200,"station_id":"ce4bhq92rcd13ifvqhkg","pricing_plan_id":"cebpf4jnsgd1na2vs0mg"},{"bike_id":"0a1d80a5-8567-473e-862c-e2d2e710157a","system_id":"levelo_inurba_marseille","lat":43.28415,"lon":5.34971,"is_reserved":false,"is_disabled":false,"rental_uris":{"android":"levelo://app?vid=0a1d80a5-8567-473e-862c-e2d2e710157a","ios":"levelo://app?vid=0a1d80a5-8567-473e-862c-e2d2e710157a"},"vehicle_type_id":"4","last_reported":1738761349,"current_range_meters":34000,"station_id":"ce4bhbh2rcd13ifvqepg","pricing_plan_id":"cebpf4jnsgd1na2vs0mg"},{"bike_id":"933f848e-93a2-4258-896b-99f91f4f4338","system_id":"levelo_inurba_marseille","lat":43.29293,"lon":5.37445,"is_reserved":false,"is_disabled":false,"rental_uris":{"android":"levelo://app?vid=933f848e-93a2-4258-896b-99f91f4f4338","ios":"levelo://app?vid=933f848e-93a2-4258-896b-99f91f4f4338"},"vehicle_type_id":"4","last_reported":1738761349,"current_range_meters":30800,"station_id":"ce4bgi12rcd13ifvqb70","pricing_plan_id":"cebpf4jnsgd1na2vs0mg"},{"bike_id":"6178dc13-30e4-48bb-b678-6821d5013d91","system_id":"levelo_inurba_marseille","lat":43.29039,"lon":5.35881,"is_reserved":false,"is_disabled":false,"rental_uris":{"android":"levelo://app?vid=6178dc13-30e4-48bb-b678-6821d5013d91","ios":"levelo://app?vid=6178dc13-30e4-48bb-b678-6821d5013d91"},"vehicle_type_id":"4","last_reported":1738761349,"current_range_meters":38800,"station_id":"ce4bha92rcd13ifvqeg0","pricing_plan_id":"cebpf4jnsgd1na2vs0mg"},{"bike_id":"543d3164-3dee-4498-aa39-94d39e5fa300","system_id":"levelo_inurba_marseille","lat":43.29292,"lon":5.40124,"is_reserved":false,"is_disabled":false,"rental_uris":{"android":"levelo://app?vid=543d3164-3dee-4498-aa39-94d39e5fa300","ios":"levelo://app?vid=543d3164-3dee-4498-aa39-94d39e5fa300"},"vehicle_type_id":"4","last_reported":1738761349,"current_range_meters":32800,"station_id":"ce4bh312rcd13ifvqdk0","pricing_plan_id":"cebpf4jnsgd1na2vs0mg"},{"bike_id":"79174287-afac-4e31-8f1f-94a1213f8290","system_id":"levelo_inurba_marseille","lat":43.28284,"lon":5.35076,"is_reserved":false,"is_disabled":false,"rental_uris":{"android":"levelo://app?vid=79174287-afac-4e31-8f1f-94a1213f8290","ios":"levelo://app?vid=79174287-afac-4e31-8f1f-94a1213f8290"},"vehicle_type_id":"4","last_reported":1738761349,"current_range_meters":36400,"station_id":"ce4bhbp2rcd13ifvqerg","pricing_plan_id":"cebpf4jnsgd1na2vs0mg"},{"bike_id":"3a9af9c4-6e59-4600-9826-af0c6dd35373","system_id":"levelo_inurba_marseille","lat":43.2867,"lon":5.38659,"is_reserved":false,"is_disabled":false,"rental_uris":{"android":"levelo://app?vid=3a9af9c4-6e59-4600-9826-af0c6dd35373","ios":"levelo://app?vid=3a9af9c4-6e59-4600-9826-af0c6dd35373"},"vehicle_type_id":"4","last_reported":1738761349,"current_range_meters":9200,"station_id":"ce4bh492rcd13ifvqdug","pricing_plan_id":"cebpf4jnsgd1na2vs0mg"},{"bike_id":"787b7837-f258-4886-bbf5-841ee39c0166","system_id":"levelo_inurba_marseille","lat":43.28257,"lon":5.35065,"is_reserved":false,"is_disabled":false,"rental_uris":{"android":"levelo://app?vid=787b7837-f258-4886-bbf5-841ee39c0166","ios":"levelo://app?vid=787b7837-f258-4886-bbf5-841ee39c0166"},"vehicle_type_id":"4","last_reported":1738761349,"current_range_meters":38800,"station_id":"ce4bhbp2rcd13ifvqerg","pricing_plan_id":"cebpf4jnsgd1na2vs0mg"},{"bike_id":"25d556ce-3f32-408f-bbd6-29b976ef448a","system_id":"levelo_inurba_marseille","lat":43.23183,"lon":5.39979,"is_reserved":false,"is_disabled":false,"rental_uris":{"android":"levelo://app?vid=25d556ce-3f32-408f-bbd6-29b976ef448a","ios":"levelo://app?vid=25d556ce-3f32-408f-bbd6-29b976ef448a"},"vehicle_type_id":"4","last_reported":1738761349,"current_range_meters":12800,"station_id":"ce4bhn12rcd13ifvqgqg","pricing_plan_id":"cebpf4jnsgd1na2vs0mg"},{"bike_id":"e038d85e-0e42-49c2-8403-bd6375a72a08","system_id":"levelo_inurba_marseille","lat":43.29034,"lon":5.39974,"is_reserved":false,"is_disabled":false,"rental_uris":{"android":"levelo://app?vid=e038d85e-0e42-49c2-8403-bd6375a72a08","ios":"levelo://app?vid=e038d85e-0e42-49c2-8403-bd6375a72a08"},"vehicle_type_id":"4","last_reported":1738761349,"current_range_meters":38000,"station_id":"ce4bh392rcd13ifvqdm0","pricing_plan_id":"cebpf4jnsgd1na2vs0mg"},{"bike_id":"56aa29a7-2df1-42d5-ac5a-03b24ac75f7d","system_id":"levelo_inurba_marseille","lat":43.23157,"lon":5.43712,"is_reserved":false,"is_disabled":false,"rental_uris":{"android":"levelo://app?vid=56aa29a7-2df1-42d5-ac5a-03b24ac75f7d","ios":"levelo://app?vid=56aa29a7-2df1-42d5-ac5a-03b24ac75f7d"},"vehicle_type_id":"4","last_reported":1738761349,"current_range_meters":25200,"station_id":"ce4bhmp2rcd13ifvqgog","pricing_plan_id":"cebpf4jnsgd1na2vs0mg"},{"bike_id":"173ff06f-3df5-45ca-a52e-40f63873eead","system_id":"levelo_inurba_marseille","lat":43.27178,"lon":5.40989,"is_reserved":false,"is_disabled":false,"rental_uris":{"android":"levelo://app?vid=173ff06f-3df5-45ca-a52e-40f63873eead","ios":"levelo://app?vid=173ff06f-3df5-45ca-a52e-40f63873eead"},"vehicle_type_id":"4","last_reported":1738761349,"current_range_meters":34000,"station_id":"ce4bhl12rcd13ifvqgf0","pricing_plan_id":"cebpf4jnsgd1na2vs0mg"},{"bike_id":"a2f6c3ee-cde6-4fde-b78f-92cfd29c1bfd","system_id":"levelo_inurba_marseille","lat":43.25501,"lon":5.37647,"is_reserved":false,"is_disabled":false,"rental_uris":{"android":"levelo://app?vid=a2f6c3ee-cde6-4fde-b78f-92cfd29c1bfd","ios":"levelo://app?vid=a2f6c3ee-cde6-4fde-b78f-92cfd29c1bfd"},"vehicle_type_id":"4","last_reported":1738761349,"current_range_meters":38800,"station_id":"ce4bhh12rcd13ifvqff0","pricing_plan_id":"cebpf4jnsgd1na2vs0mg"},{"bike_id":"5efca5f2-64a5-4259-a7b6-3379d60b248a","system_id":"levelo_inurba_marseille","lat":43.261208,"lon":5.416988,"is_reserved":false,"is_disabled":false,"rental_uris":{"android":"levelo://app?vid=5efca5f2-64a5-4259-a7b6-3379d60b248a","ios":"levelo://app?vid=5efca5f2-64a5-4259-a7b6-3379d60b248a"},"vehicle_type_id":"4","last_reported":1738761349,"current_range_meters":28400,"station_id":"","pricing_plan_id":"cebpf4jnsgd1na2vs0mg"},{"bike_id":"1fb8f6bd-b62d-4511-96dd-a147d6b5e2ae","system_id":"levelo_inurba_marseille","lat":43.2808,"lon":5.3966,"is_reserved":false,"is_disabled":false,"rental_uris":{"android":"levelo://app?vid=1fb8f6bd-b62d-4511-96dd-a147d6b5e2ae","ios":"levelo://app?vid=1fb8f6bd-b62d-4511-96dd-a147d6b5e2ae"},"vehicle_type_id":"4","last_reported":1738761349,"current_range_meters":7200,"station_id":"ce4bho12rcd13ifvqh2g","pricing_plan_id":"cebpf4jnsgd1na2vs0mg"},{"bike_id":"eac8e106-76e0-4f1b-81af-4eaefecd2501","system_id":"levelo_inurba_marseille","lat":43.25027,"lon":5.38918,"is_reserved":false,"is_disabled":false,"rental_uris":{"android":"levelo://app?vid=eac8e106-76e0-4f1b-81af-4eaefecd2501","ios":"levelo://app?vid=eac8e106-76e0-4f1b-81af-4eaefecd2501"},"vehicle_type_id":"4","last_reported":1738761349,"current_range_meters":11200,"station_id":"ce4bhgp2rcd13ifvqfd0","pricing_plan_id":"cebpf4jnsgd1na2vs0mg"},{"bike_id":"378d05fa-377b-4eff-99a0-0d2e7f6b9e63","system_id":"levelo_inurba_marseille","lat":43.26951,"lon":5.38633,"is_reserved":false,"is_disabled":false,"rental_uris":{"android":"levelo://app?vid=378d05fa-377b-4eff-99a0-0d2e7f6b9e63","ios":"levelo://app?vid=378d05fa-377b-4eff-99a0-0d2e7f6b9e63"},"vehicle_type_id":"4","last_reported":1738761349,"current_range_meters":34000,"station_id":"ce4bhh92rcd13ifvqfh0","pricing_plan_id":"cebpf4jnsgd1na2vs0mg"},{"bike_id":"0bbb9a2e-65d2-4ce4-afaf-6a55b7cd812d","system_id":"levelo_inurba_marseille","lat":43.31269,"lon":5.36874,"is_reserved":false,"is_disabled":true,"rental_uris":{"android":"levelo://app?vid=0bbb9a2e-65d2-4ce4-afaf-6a55b7cd812d","ios":"levelo://app?vid=0bbb9a2e-65d2-4ce4-afaf-6a55b7cd812d"},"vehicle_type_id":"4","last_reported":1738761349,"current_range_meters":32400,"station_id":"ce4bgl92rcd13ifvqbq0","pricing_plan_id":"cebpf4jnsgd1na2vs0mg"},{"bike_id":"3e06e735-9c4d-48d7-82e1-4b743711b119","system_id":"levelo_inurba_marseille","lat":43.29565,"lon":5.37512,"is_reserved":false,"is_disabled":true,"rental_uris":{"android":"levelo://app?vid=3e06e735-9c4d-48d7-82e1-4b743711b119","ios":"levelo://app?vid=3e06e735-9c4d-48d7-82e1-4b743711b119"},"vehicle_type_id":"4","last_reported":1738761349,"current_range_meters":34800,"station_id":"ce4bgh92rcd13ifvqb50","pricing_plan_id":"cebpf4jnsgd1na2vs0mg"},{"bike_id":"0ea64c1a-935c-4a4f-9117-4efdcafdd9ba","system_id":"levelo_inurba_marseille","lat":43.24191,"lon":5.39719,"is_reserved":false,"is_disabled":false,"rental_uris":{"android":"levelo://app?vid=0ea64c1a-935c-4a4f-9117-4efdcafdd9ba","ios":"levelo://app?vid=0ea64c1a-935c-4a4f-9117-4efdcafdd9ba"},"vehicle_type_id":"4","last_reported":1738761349,"current_range_meters":21600,"station_id":"ce4bhn12rcd13ifvqgpg","pricing_plan_id":"cebpf4jnsgd1na2vs0mg"},{"bike_id":"61ceb31b-03f6-4213-9b34-0374ee45b479","system_id":"levelo_inurba_marseille","lat":43.32079,"lon":5.36793,"is_reserved":false,"is_disabled":false,"rental_uris":{"android":"levelo://app?vid=61ceb31b-03f6-4213-9b34-0374ee45b479","ios":"levelo://app?vid=61ceb31b-03f6-4213-9b34-0374ee45b479"},"vehicle_type_id":"4","last_reported":1738761349,"current_range_meters":20800,"station_id":"ce4bhrh2rcd13ifvqhug","pricing_plan_id":"cebpf4jnsgd1na2vs0mg"},{"bike_id":"1489c8c8-a04b-479f-95b4-a81e60a2c685","system_id":"levelo_inurba_marseille","lat":43.31196,"lon":5.38716,"is_reserved":false,"is_disabled":false,"rental_uris":{"android":"levelo://app?vid=1489c8c8-a04b-479f-95b4-a81e60a2c685","ios":"levelo://app?vid=1489c8c8-a04b-479f-95b4-a81e60a2c685"},"vehicle_type_id":"4","last_reported":1738761349,"current_range_meters":37600,"station_id":"ce4bgv12rcd13ifvqcp0","pricing_plan_id":"cebpf4jnsgd1na2vs0mg"},{"bike_id":"0d4caa0a-81a3-4df3-86e8-ac02dd1f2038","system_id":"levelo_inurba_marseille","lat":43.29592,"lon":5.37496,"is_reserved":false,"is_disabled":false,"rental_uris":{"android":"levelo://app?vid=0d4caa0a-81a3-4df3-86e8-ac02dd1f2038","ios":"levelo://app?vid=0d4caa0a-81a3-4df3-86e8-ac02dd1f2038"},"vehicle_type_id":"4","last_reported":1738761349,"current_range_meters":10000,"station_id":"ce4bhb12rcd13ifvqel0","pricing_plan_id":"cebpf4jnsgd1na2vs0mg"},{"bike_id":"0bca0e5e-0f54-4a8b-9235-8c20b1d6fc50","system_id":"levelo_inurba_marseille","lat":43.27315,"lon":5.39083,"is_reserved":false,"is_disabled":false,"rental_uris":{"android":"levelo://app?vid=0bca0e5e-0f54-4a8b-9235-8c20b1d6fc50","ios":"levelo://app?vid=0bca0e5e-0f54-4a8b-9235-8c20b1d6fc50"},"vehicle_type_id":"4","last_reported":1738761349,"current_range_meters":3200,"station_id":"ce4bhgp2rcd13ifvqfe0","pricing_plan_id":"cebpf4jnsgd1na2vs0mg"},{"bike_id":"b29a2399-be72-4d86-ab28-e5bf112b24d9","system_id":"levelo_inurba_marseille","lat":43.29004,"lon":5.35604,"is_reserved":false,"is_disabled":true,"rental_uris":{"android":"levelo://app?vid=b29a2399-be72-4d86-ab28-e5bf112b24d9","ios":"levelo://app?vid=b29a2399-be72-4d86-ab28-e5bf112b24d9"},"vehicle_type_id":"4","last_reported":1738761349,"current_range_meters":0,"station_id":"ce4bhb92rcd13ifvqen0","pricing_plan_id":"cebpf4jnsgd1na2vs0mg"},{"bike_id":"7e874147-3bc8-43aa-af5a-184e66e0d156","system_id":"levelo_inurba_marseille","lat":43.24663,"lon":5.38169,"is_reserved":false,"is_disabled":false,"rental_uris":{"android":"levelo://app?vid=7e874147-3bc8-43aa-af5a-184e66e0d156","ios":"levelo://app?vid=7e874147-3bc8-43aa-af5a-184e66e0d156"},"vehicle_type_id":"4","last_reported":1738761349,"current_range_meters":33600,"station_id":"ce4bhih2rcd13ifvqfr0","pricing_plan_id":"cebpf4jnsgd1na2vs0mg"},{"bike_id":"c322498b-971c-4774-a775-9df1558e42d2","system_id":"levelo_inurba_marseille","lat":43.29333,"lon":5.37874,"is_reserved":false,"is_disabled":false,"rental_uris":{"android":"levelo://app?vid=c322498b-971c-4774-a775-9df1558e42d2","ios":"levelo://app?vid=c322498b-971c-4774-a775-9df1558e42d2"},"vehicle_type_id":"4","last_reported":1738761349,"current_range_meters":27200,"station_id":"ce4bgjh2rcd13ifvqbf0","pricing_plan_id":"cebpf4jnsgd1na2vs0mg"},{"bike_id":"dd6d0735-a7d8-47bd-a58b-c2ac1cc0a2cb","system_id":"levelo_inurba_marseille","lat":43.30304,"lon":5.36884,"is_reserved":false,"is_disabled":false,"rental_uris":{"android":"levelo://app?vid=dd6d0735-a7d8-47bd-a58b-c2ac1cc0a2cb","ios":"levelo://app?vid=dd6d0735-a7d8-47bd-a58b-c2ac1cc0a2cb"},"vehicle_type_id":"4","last_reported":1738761349,"current_range_meters":27600,"station_id":"ce4bgqh2rcd13ifvqc5g","pricing_plan_id":"cebpf4jnsgd1na2vs0mg"},{"bike_id":"43aa95fb-edd4-4b1a-8849-f9ada8aac417","system_id":"levelo_inurba_marseille","lat":43.27374,"lon":5.36262,"is_reserved":false,"is_disabled":false,"rental_uris":{"android":"levelo://app?vid=43aa95fb-edd4-4b1a-8849-f9ada8aac417","ios":"levelo://app?vid=43aa95fb-edd4-4b1a-8849-f9ada8aac417"},"vehicle_type_id":"4","last_reported":1738761349,"current_range_meters":36400,"station_id":"ce4bhbh2rcd13ifvqeo0","pricing_plan_id":"cebpf4jnsgd1na2vs0mg"},