{"last_updated":1719590963,"ttl":30,"version":"2.2","data":{"bikes":[{"bike_id":"1746d02b-550d-4aa2-8c72-6a13c4b5a0aa","system_id":"levelo_inurba_marseille","lat":43.31304,"lon":5.36866,"is_reserved":false,"is_disabled":false,"rental_uris":{"android":"levelo://app?vid=1746d02b-550d-4aa2-8c72-6a13c4b5a0aa","ios":"levelo://app?vid=1746d02b-550d-4aa2-8c72-6a13c4b5a0aa"},"vehicle_type_id":"4","last_reported":1719590963,"current_range_meters":22000,"station_id":"","pricing_plan_id":"cebpf4jnsgd1na2vs0mg"},{"bike_id":"4a94410f-4cd0-41af-95cb-4edeba7e486c","system_id":"levelo_inurba_marseille","lat":43.31105,"lon":5.370523,"is_reserved":false,"is_disabled":false,"rental_uris":{"android":"levelo://app?vid=4a94410f-4cd0-41af-95cb-4edeba7e486c","ios":"levelo://app?vid=4a94410f-4cd0-41af-95cb-4edeba7e486c"},"vehicle_type_id":"4","last_reported":1719590963,"current_range_meters":30400,"station_id":"","pricing_plan_id":"cebpf4jnsgd1na2vs0mg"},{"bike_id":"ab1cdb10-3397-4f08-b058-e35a2840e751","system_id":"levelo_inurba_marseille","lat":43.30537,"lon":5.367345,"is_reserved":false,"is_disabled":false,"rental_uris":{"android":"levelo://app?vid=ab1cdb10-3397-4f08-b058-e35a2840e751","ios":"levelo://app?vid=ab1cdb10-3397-4f08-b058-e35a2840e751"},"vehicle_type_id":"4","last_reported":1719590963,"current_range_meters":23200,"station_id":"ce4bgrp2rcd13ifvqc9g","pricing_plan_id":"cebpf4jnsgd1na2vs0mg"},{"bike_id":"9f9cef36-cef9-4554-ba2d-979858fd7bc7","system_id":"levelo_inurba_marseille","lat":43.314811,"lon":5.373103,"is_reserved":false,"is_disabled":false,"rental_uris":{"android":"levelo://app?vid=9f9cef36-cef9-4554-ba2d-979858fd7bc7","ios":"levelo://app?vid=9f9cef36-cef9-4554-ba2d-979858fd7bc7"},"vehicle_type_id":"4","last_reported":1719590963,"current_range_meters":8800,"station_id":"ce4bgt12rcd13ifvqcd0","pricing_plan_id":"cebpf4jnsgd1na2vs0mg"},{"bike_id":"eb686c88-14d3-43c8-8911-e1f7e72b230d","system_id":"levelo_inurba_marseille","lat":43.314811,"lon":5.373103,"is_reserved":false,"is_disabled":false,"rental_uris":{"android":"levelo://app?vid=eb686c88-14d3-43c8-8911-e1f7e72b230d","ios":"levelo://app?vid=eb686c88-14d3-43c8-8911-e1f7e72b230d"},"vehicle_type_id":"4","last_reported":1719590963,"current_range_meters":4000,"station_id":"ce4bgt12rcd13ifvqcd0","pricing_plan_id":"cebpf4jnsgd1na2vs0mg"},{"bike_id":"5c37ce2a-8d2f-45f2-b0c6-86c7be9655b5","system_id":"levelo_inurba_marseille","lat":43.314811,"lon":5.373103,"is_reserved":false,"is_disabled":false,"rental_uris":{"android":"levelo://app?vid=5c37ce2a-8d2f-45f2-b0c6-86c7be9655b5","ios":"levelo://app?vid=5c37ce2a-8d2f-45f2-b0c6-86c7be9655b5"},"vehicle_type_id":"4","last_reported":1719590963,"current_range_meters":26800,"station_id":"ce4bgt12rcd13ifvqcd0","pricing_plan_id":"cebpf4jnsgd1na2vs0mg"},{"bike_id":"dad7e337-f476-4f28-8749-4e3345ebcb4b","system_id":"levelo_inurba_marseille","lat":43.31498,"lon":5.37304,"is_reserved":false,"is_disabled":false,"rental_uris":{"android":"levelo://app?vid=dad7e337-f476-4f28-8749-4e3345ebcb4b","ios":"levelo://app?vid=dad7e337-f476-4f28-8749-4e3345ebcb4b"},"vehicle_type_id":"4","last_reported":1719590963,"current_range_meters":26400,"station_id":"ce4bgt12rcd13ifvqcd0","pricing_plan_id":"cebpf4jnsgd1na2vs0mg"},{"bike_id":"7850146e-c467-458f-9c6c-ca015de7088c","system_id":"levelo_inurba_marseille","lat":43.31493,"lon":5.37312,"is_reserved":false,"is_disabled":false,"rental_uris":{"android":"levelo://app?vid=7850146e-c467-458f-9c6c-ca015de7088c","ios":"levelo://app?vid=7850146e-c467-458f-9c6c-ca015de7088c"},"vehicle_type_id":"4","last_reported":1719590963,"current_range_meters":31200,"station_id":"ce4bgt12rcd13ifvqcd0","pricing_plan_id":"cebpf4jnsgd1na2vs0mg"},{"bike_id":"25f62fe8-6628-4f40-b5ed-3b5bcb666580","system_id":"levelo_inurba_marseille","lat":43.31493,"lon":5.37316,"is_reserved":false,"is_disabled":false,"rental_uris":{"android":"levelo://app?vid=25f62fe8-6628-4f40-b5ed-3b5bcb666580","ios":"levelo://app?vid=25f62fe8-6628-4f40-b5ed-3b5bcb666580"},"vehicle_type_id":"4","last_reported":1719590963,"current_range_meters":22800,"station_id":"ce4bgt12rcd13ifvqcd0","pricing_plan_id":"cebpf4jnsgd1na2vs0mg"},{"bike_id":"4224a6ad-7b7c-47e0-9a8f-43c2dc76ecf1","system_id":"levelo_inurba_marseille","lat":43.31503,"lon":5.37314,"is_reserved":false,"is_disabled":false,"rental_uris":{"android":"levelo://app?vid=4224a6ad-7b7c-47e0-9a8f-43c2dc76ecf1","ios":"levelo://app?vid=4224a6ad-7b7c-47e0-9a8f-43c2dc76ecf1"},"vehicle_type_id":"4","last_reported":1719590963,"current_range_meters":0,"station_id":"ce4bgt12rcd13ifvqcd0","pricing_plan_id":"cebpf4jnsgd1na2vs0mg"},{"bike_id":"7281b794-c127-4dd4-93a2-41ffe4722468","system_id":"levelo_inurba_marseille","lat":43.309034,"lon":5.371783,"is_reserved":false,"is_disabled":false,"rental_uris":{"android":"levelo://app?vid=7281b794-c127-4dd4-93a2-41ffe4722468","ios":"levelo://app?vid=7281b794-c127-4dd4-93a2-41ffe4722468"},"vehicle_type_id":"4","last_reported":1719590963,"current_range_meters":11600,"station_id":"ce4bguh2rcd13ifvqckg","pricing_plan_id":"cebpf4jnsgd1na2vs0mg"},{"bike_id":"3943897b-237c-4941-8f36-20e7f7f5fee6","system_id":"levelo_inurba_marseille","lat":43.31328,"lon":5.37675,"is_reserved":false,"is_disabled":false,"rental_uris":{"android":"levelo://app?vid=3943897b-237c-4941-8f36-20e7f7f5fee6","ios":"levelo://app?vid=3943897b-237c-4941-8f36-20e7f7f5fee6"},"vehicle_type_id":"4","last_reported":1719590963,"current_range_meters":26800,"station_id":"","pricing_plan_id":"cebpf4jnsgd1na2vs0mg"},{"bike_id":"6d4b91a7-8c12-430c-885e-9db29307fac7","system_id":"levelo_inurba_marseille","lat":43.30546,"lon":5.36656,"is_reserved":false,"is_disabled":false,"rental_uris":{"android":"levelo://app?vid=6d4b91a7-8c12-430c-885e-9db29307fac7","ios":"levelo://app?vid=6d4b91a7-8c12-430c-885e-9db29307fac7"},"vehicle_type_id":"4","last_reported":1719590963,"current_range_meters":25200,"station_id":"","pricing_plan_id":"cebpf4jnsgd1na2vs0mg"},{"bike_id":"a5b7031c-9973-4055-8964-4c3668159eb0","system_id":"levelo_inurba_marseille","lat":43.30537,"lon":5.367345,"is_reserved":false,"is_disabled":false,"rental_uris":{"android":"levelo://app?vid=a5b7031c-9973-4055-8964-4c3668159eb0","ios":"levelo://app?vid=a5b7031c-9973-4055-8964-4c3668159eb0"},"vehicle_type_id":"4","last_reported":1719590963,"current_range_meters":17200,"station_id":"ce4bgrp2rcd13ifvqc9g","pricing_plan_id":"cebpf4jnsgd1na2vs0mg"},{"bike_id":"2fdb3077-596a-4f6e-af33-80bf7339523d","system_id":"levelo_inurba_marseille","lat":43.305706,"lon":5.365654,"is_reserved":false,"is_disabled":false,"rental_uris":{"android":"levelo://app?vid=2fdb3077-596a-4f6e-af33-80bf7339523d","ios":"levelo://app?vid=2fdb3077-596a-4f6e-af33-80bf7339523d"},"vehicle_type_id":"4","last_reported":1719590963,"current_range_meters":0,"station_id":"ce4bgs12rcd13ifvqcag","pricing_plan_id":"cebpf4jnsgd1na2vs0mg"},{"bike_id":"28ca16b2-b38a-4e02-aaf9-75699cc83106","system_id":"levelo_inurba_marseille","lat":43.305706,"lon":5.365654,"is_reserved":false,"is_disabled":false,"rental_uris":{"android":"levelo://app?vid=28ca16b2-b38a-4e02-aaf9-75699cc83106","ios":"levelo://app?vid=28ca16b2-b38a-4e02-aaf9-75699cc83106"},"vehicle_type_id":"4","last_reported":1719590963,"current_range_meters":0,"station_id":"ce4bgs12rcd13ifvqcag","pricing_plan_id":"cebpf4jnsgd1na2vs0mg"},{"bike_id":"60e0dcc5-e819-4d7f-87aa-1180903bfa05","system_id":"levelo_inurba_marseille","lat":43.305989,"lon":5.37225,"is_reserved":false,"is_disabled":false,"rental_uris":{"android":"levelo://app?vid=60e0dcc5-e819-4d7f-87aa-1180903bfa05","ios":"levelo://app?vid=60e0dcc5-e819-4d7f-87aa-1180903bfa05"},"vehicle_type_id":"4","last_reported":1719590963,"current_range_meters":5600,"station_id":"ce4bgqh2rcd13ifvqc4g","pricing_plan_id":"cebpf4jnsgd1na2vs0mg"},{"bike_id":"e7b7fad2-3303-4ada-93a9-8e4530ce80bd","system_id":"levelo_inurba_marseille","lat":43.305989,"lon":5.37225,"is_reserved":false,"is_disabled":false,"rental_uris":{"android":"levelo://app?vid=e7b7fad2-3303-4ada-93a9-8e4530ce80bd","ios":"levelo://app?vid=e7b7fad2-3303-4ada-93a9-8e4530ce80bd"},"vehicle_type_id":"4","last_reported":1719590963,"current_range_meters":10800,"station_id":"ce4bgqh2rcd13ifvqc4g","pricing_plan_id":"cebpf4jnsgd1na2vs0mg"},{"bike_id":"a94c8425-f39f-42bd-8afe-1f82a5b3a51f","system_id":"levelo_inurba_marseille","lat":43.305989,"lon":5.37225,"is_reserved":false,"is_disabled":false,"rental_uris":{"android":"levelo://app?vid=a94c8425-f39f-42bd-8afe-1f82a5b3a51f","ios":"levelo://app?vid=a94c8425-f39f-42bd-8afe-1f82a5b3a51f"},"vehicle_type_id":"4","last_reported":1719590963,"current_range_meters":10000,"station_id":"ce4bgqh2rcd13ifvqc4g","pricing_plan_id":"cebpf4jnsgd1na2vs0mg"},{"bike_id":"f3c6870a-2fa0-4df3-b11b-9f16bb5a44d3","system_id":"levelo_inurba_marseille","lat":43.305989,"lon":5.37225,"is_reserved":false,"is_disabled":false,"rental_uris":{"android":"levelo://app?vid=f3c6870a-2fa0-4df3-b11b-9f16bb5a44d3","ios":"levelo://app?vid=f3c6870a-2fa0-4df3-b11b-9f16bb5a44d3"},"vehicle_type_id":"4","last_reported":1719590963,"current_range_meters":10400,"station_id":"ce4bgqh2rcd13ifvqc4g","pricing_plan_id":"cebpf4jnsgd1na2vs0mg"},{"bike_id":"fd25a6ce-722b-4c59-bf61-e3d0d749d76c","system_id":"levelo_inurba_marseille","lat":43.305989,"lon":5.37225,"is_reserved":false,"is_disabled":false,"rental_uris":{"android":"levelo://app?vid=fd25a6ce-722b-4c59-bf61-e3d0d749d76c","ios":"levelo://app?vid=fd25a6ce-722b-4c59-bf61-e3d0d749d76c"},"vehicle_type_id":"4","last_reported":1719590963,"current_range_meters":7600,"station_id":"ce4bgqh2rcd13ifvqc4g","pricing_plan_id":"cebpf4jnsgd1na2vs0mg"},{"bike_id":"f626c886-4fc8-42d7-9a70-7b81a9adfab6","system_id":"levelo_inurba_marseille","lat":43.305989,"lon":5.37225,"is_reserved":false,"is_disabled":false,"rental_uris":{"android":"levelo://app?vid=f626c886-4fc8-42d7-9a70-7b81a9adfab6","ios":"levelo://app?vid=f626c886-4fc8-42d7-9a70-7b81a9adfab6"},"vehicle_type_id":"4","last_reported":1719590963,"current_range_meters":3200,"station_id":"ce4bgqh2rcd13ifvqc4g","pricing_plan_id":"cebpf4jnsgd1na2vs0mg"},{"bike_id":"88488aad-5a00-463f-b9c6-66849e3dd02f","system_id":"levelo_inurba_marseille","lat":43.311125,"lon":5.377624,"is_reserved":false,"is_disabled":false,"rental_uris":{"android":"levelo://app?vid=88488aad-5a00-463f-b9c6-66849e3dd02f","ios":"levelo://app?vid=88488aad-5a00-463f-b9c6-66849e3dd02f"},"vehicle_type_id":"4","last_reported":1719590963,"current_range_meters":31200,"station_id":"ce4bgt92rcd13ifvqcg0","pricing_plan_id":"cebpf4jnsgd1na2vs0mg"},{"bike_id":"53a44c20-2a9e-4f4a-afc8-4582e15eef2d","system_id":"levelo_inurba_marseille","lat":43.31121,"lon":5.3777,"is_reserved":false,"is_disabled":false,"rental_uris":{"android":"levelo://app?vid=53a44c20-2a9e-4f4a-afc8-4582e15eef2d","ios":"levelo://app?vid=53a44c20-2a9e-4f4a-afc8-4582e15eef2d"},"vehicle_type_id":"4","last_reported":1719590963,"current_range_meters":0,"station_id":"ce4bgt92rcd13ifvqcg0","pricing_plan_id":"cebpf4jnsgd1na2vs0mg"},{"bike_id":"049dca84-96ea-491a-aa0e-548312d6e1cd","system_id":"levelo_inurba_marseille","lat":43.307945,"lon":5.376487,"is_reserved":false,"is_disabled":false,"rental_uris":{"android":"levelo://app?vid=049dca84-96ea-491a-aa0e-548312d6e1cd","ios":"levelo://app?vid=049dca84-96ea-491a-aa0e-548312d6e1cd"},"vehicle_type_id":"4","last_reported":1719590963,"current_range_meters":400,"station_id":"ce4bgv92rcd13ifvqcq0","pricing_plan_id":"cebpf4jnsgd1na2vs0mg"},{"bike_id":"4f8248b0-acb4-435b-a1e6-3f6e6c31d15f","system_id":"levelo_inurba_marseille","lat":43.30304,"lon":5.368987,"is_reserved":false,"is_disabled":false,"rental_uris":{"android":"levelo://app?vid=4f8248b0-acb4-435b-a1e6-3f6e6c31d15f","ios":"levelo://app?vid=4f8248b0-acb4-435b-a1e6-3f6e6c31d15f"},"vehicle_type_id":"4","last_reported":1719590963,"current_range_meters":27200,"station_id":"ce4bgqh2rcd13ifvqc5g","pricing_plan_id":"cebpf4jnsgd1na2vs0mg"},{"bike_id":"b9af2a39-0452-4cd9-94a1-3cbb31148bff","system_id":"levelo_inurba_marseille","lat":43.301939,"lon":5.366286,"is_reserved":false,"is_disabled":false,"rental_uris":{"android":"levelo://app?vid=b9af2a39-0452-4cd9-94a1-3cbb31148bff","ios":"levelo://app?vid=b9af2a39-0452-4cd9-94a1-3cbb31148bff"},"vehicle_type_id":"4","last_reported":1719590963,"current_range_meters":3600,"station_id":"ce4bgrh2rcd13ifvqc8g","pricing_plan_id":"cebpf4jnsgd1na2vs0mg"},{"bike_id":"58c45930-e2b6-452a-b090-bc55b76ee9ee","system_id":"levelo_inurba_marseille","lat":43.301939,"lon":5.366286,"is_reserved":false,"is_disabled":false,"rental_uris":{"android":"levelo://app?vid=58c45930-e2b6-452a-b090-bc55b76ee9ee","ios":"levelo://app?vid=58c45930-e2b6-452a-b090-bc55b76ee9ee"},"vehicle_type_id":"4","last_reported":1719590963,"current_range_meters":11200,"station_id":"ce4bgrh2rcd13ifvqc8g","pricing_plan_id":"cebpf4jnsgd1na2vs0mg"},{"bike_id":"1fbe1131-c3dc-40af-b8cc-4a021f8439c6","system_id":"levelo_inurba_marseille","lat":43.308012,"lon":5.381511,"is_reserved":false,"is_disabled":false,"rental_uris":{"android":"levelo://app?vid=1fbe1131-c3dc-40af-b8cc-4a021f8439c6","ios":"levelo://app?vid=1fbe1131-c3dc-40af-b8cc-4a021f8439c6"},"vehicle_type_id":"4","last_reported":1719590963,"current_range_meters":26800,"station_id":"ce4bgt12rcd13ifvqce0","pricing_plan_id":"cebpf4jnsgd1na2vs0mg"},{"bike_id":"cc023a0d-4dc0-47c6-afca-598307b41cde","system_id":"levelo_inurba_marseille","lat":43.304606,"lon":5.379026,"is_reserved":false,"is_disabled":false,"rental_uris":{"android":"levelo://app?vid=cc023a0d-4dc0-47c6-afca-598307b41cde","ios":"levelo://app?vid=cc023a0d-4dc0-47c6-afca-598307b41cde"},"vehicle_type_id":"4","last_reported":1719590963,"current_range_meters":4400,"station_id":"ce4bgup2rcd13ifvqcn0","pricing_plan_id":"cebpf4jnsgd1na2vs0mg"},{"bike_id":"6b9ba548-6648-4107-a917-b5abc439395a","system_id":"levelo_inurba_marseille","lat":43.304606,"lon":5.379026,"is_reserved":false,"is_disabled":false,"rental_uris":{"android":"levelo://app?vid=6b9ba548-6648-4107-a917-b5abc439395a","ios":"levelo://app?vid=6b9ba548-6648-4107-a917-b5abc439395a"},"vehicle_type_id":"4","last_reported":1719590963,"current_range_meters":800,"station_id":"ce4bgup2rcd13ifvqcn0","pricing_plan_id":"cebpf4jnsgd1na2vs0mg"},{"bike_id":"a5b49b42-b0dc-4598-ba1c-9956f61f1d58","system_id":"levelo_inurba_marseille","lat":43.3248,"lon":5.36585,"is_reserved":false,"is_disabled":false,"rental_uris":{"android":"levelo://app?vid=a5b49b42-b0dc-4598-ba1c-9956f61f1d58","ios":"levelo://app?vid=a5b49b42-b0dc-4598-ba1c-9956f61f1d58"},"vehicle_type_id":"4","last_reported":1719590963,"current_range_meters":0,"station_id":"ce4bhs12rcd13ifvqhvg","pricing_plan_id":"cebpf4jnsgd1na2vs0mg"},{"bike_id":"de72dc62-5c52-4712-8bf2-4f68e62bed06","system_id":"levelo_inurba_marseille","lat":43.310713,"lon":5.383473,"is_reserved":false,"is_disabled":false,"rental_uris":{"android":"levelo://app?vid=de72dc62-5c52-4712-8bf2-4f68e62bed06","ios":"levelo://app?vid=de72dc62-5c52-4712-8bf2-4f68e62bed06"},"vehicle_type_id":"4","last_reported":1719590963,"current_range_meters":0,"station_id":"ce4bgv92rcd13ifvqcr0","pricing_plan_id":"cebpf4jnsgd1na2vs0mg"},{"bike_id":"147ae512-a8fd-4e60-a441-50c9a74e7772","system_id":"levelo_inurba_marseille","lat":43.310804,"lon":5.38359,"is_reserved":false,"is_disabled":false,"rental_uris":{"android":"levelo://app?vid=147ae512-a8fd-4e60-a441-50c9a74e7772","ios":"levelo://app?vid=147ae512-a8fd-4e60-a441-50c9a74e7772"},"vehicle_type_id":"4","last_reported":1719590963,"current_range_meters":0,"station_id":"ce4bgv92rcd13ifvqcr0","pricing_plan_id":"cebpf4jnsgd1na2vs0mg"},{"bike_id":"bfc7163c-384f-48ad-a182-5a9747dfe9f4","system_id":"levelo_inurba_marseille","lat":43.302784,"lon":5.377158,"is_reserved":false,"is_disabled":false,"rental_uris":{"android":"levelo://app?vid=bfc7163c-384f-48ad-a182-5a9747dfe9f4","ios":"levelo://app?vid=bfc7163c-384f-48ad-a182-5a9747dfe9f4"},"vehicle_type_id":"4","last_reported":1719590963,"current_range_meters":18000,"station_id":"ce4bguh2rcd13ifvqcj0","pricing_plan_id":"cebpf4jnsgd1na2vs0mg"},{"bike_id":"9a7c9381-4f51-4bd6-bc63-bdba71b166cc","system_id":"levelo_inurba_marseille","lat":43.30143,"lon":5.37413,"is_reserved":false,"is_disabled":false,"rental_uris":{"android":"levelo://app?vid=9a7c9381-4f51-4bd6-bc63-bdba71b166cc","ios":"levelo://app?vid=9a7c9381-4f51-4bd6-bc63-bdba71b166cc"},"vehicle_type_id":"4","last_reported":1719590963,"current_range_meters":20400,"station_id":"ce4bgs92rcd13ifvqcc0","pricing_plan_id":"cebpf4jnsgd1na2vs0mg"},{"bike_id":"52160a2f-51ce-47b9-9a0b-fe3ac293499c","system_id":"levelo_inurba_marseille","lat":43.301429,"lon":5.37413,"is_reserved":false,"is_disabled":false,"rental_uris":{"android":"levelo://app?vid=52160a2f-51ce-47b9-9a0b-fe3ac293499c","ios":"levelo://app?vid=52160a2f-51ce-47b9-9a0b-fe3ac293499c"},"vehicle_type_id":"4","last_reported":1719590963,"current_range_meters":30800,"station_id":"ce4bgs92rcd13ifvqcc0","pricing_plan_id":"cebpf4jnsgd1na2vs0mg"},{"bike_id":"7a9758ca-f10f-476e-be0f-3a2dec022123","system_id":"levelo_inurba_marseille","lat":43.29994,"lon":5.36823,"is_reserved":false,"is_disabled":false,"rental_uris":{"android":"levelo://app?vid=7a9758ca-f10f-476e-be0f-3a2dec022123","ios":"levelo://app?vid=7a9758ca-f10f-476e-be0f-3a2dec022123"},"vehicle_type_id":"4","last_reported":1719590963,"current_range_meters":16800,"station_id":"","pricing_plan_id":"cebpf4jnsgd1na2vs0mg"},{"bike_id":"c5d488bf-b89f-4c04-936f-8edc56a3b77d","system_id":"levelo_inurba_marseille","lat":43.319935,"lon":5.381699,"is_reserved":false,"is_disabled":false,"rental_uris":{"android":"levelo://app?vid=c5d488bf-b89f-4c04-936f-8edc56a3b77d","ios":"levelo://app?vid=c5d488bf-b89f-4c04-936f-8edc56a3b77d"},"vehicle_type_id":"4","last_reported":1719590963,"current_range_meters":0,"station_id":"ce4bhr12rcd13ifvqhpg","pricing_plan_id":"cebpf4jnsgd1na2vs0mg"},{"bike_id":"9accf7ba-d90b-4479-96a2-27d19cafb7d2","system_id":"levelo_inurba_marseille","lat":43.299222,"lon":5.365554,"is_reserved":false,"is_disabled":false,"rental_uris":{"android":"levelo://app?vid=9accf7ba-d90b-4479-96a2-27d19cafb7d2","ios":"levelo://app?vid=9accf7ba-d90b-4479-96a2-27d19cafb7d2"},"vehicle_type_id":"4","last_reported":1719590963,"current_range_meters":22000,"station_id":"ce4bgm92rcd13ifvqbr0","pricing_plan_id":"cebpf4jnsgd1na2vs0mg"},{"bike_id":"41b359c2-cb08-41a8-924c-5b83bc898d6d","system_id":"levelo_inurba_marseille","lat":43.29938,"lon":5.36565,"is_reserved":false,"is_disabled":false,"rental_uris":{"android":"levelo://app?vid=41b359c2-cb08-41a8-924c-5b83bc898d6d","ios":"levelo://app?vid=41b359c2-cb08-41a8-924c-5b83bc898d6d"},"vehicle_type_id":"4","last_reported":1719590963,"current_range_meters":23200,"station_id":"ce4bgm92rcd13ifvqbr0","pricing_plan_id":"cebpf4jnsgd1na2vs0mg"},{"bike_id":"c10e9d5e-ecfc-4063-86a9-e2d24871d223","system_id":"levelo_inurba_marseille","lat":43.2993,"lon":5.36556,"is_reserved":false,"is_disabled":false,"rental_uris":{"android":"levelo://app?vid=c10e9d5e-ecfc-4063-86a9-e2d24871d223","ios":"levelo://app?vid=c10e9d5e-ecfc-4063-86a9-e2d24871d223"},"vehicle_type_id":"4","last_reported":1719590963,"current_range_meters":25200,"station_id":"","pricing_plan_id":"cebpf4jnsgd1na2vs0mg"},{"bike_id":"552f1283-c80c-4a2e-9b70-9b3c62bca8ea","system_id":"levelo_inurba_marseille","lat":43.304,"lon":5.38104,"is_reserved":false,"is_disabled":false,"rental_uris":{"android":"levelo://app?vid=552f1283-c80c-4a2e-9b70-9b3c62bca8ea","ios":"levelo://app?vid=552f1283-c80c-4a2e-9b70-9b3c62bca8ea"},"vehicle_type_id":"4","last_reported":1719590963,"current_range_meters":24000,"station_id":"","pricing_plan_id":"cebpf4jnsgd1na2vs0mg"},{"bike_id":"56a9435a-2569-46b6-9d21-5b10534320af","system_id":"levelo_inurba_marseille","lat":43.29968,"lon":5.37168,"is_reserved":false,"is_disabled":false,"rental_uris":{"android":"levelo://app?vid=56a9435a-2569-46b6-9d21-5b10534320af","ios":"levelo://app?vid=56a9435a-2569-46b6-9d21-5b10534320af"},"vehicle_type_id":"4","last_reported":1719590963,"current_range_meters":29200,"station_id":"ce4bhbh2rcd13ifvqepg","pricing_plan_id":"cebpf4jnsgd1na2vs0mg"},{"bike_id":"18858c23-d712-4b64-bec6-23bab7f0effd","system_id":"levelo_inurba_marseille","lat":43.29946,"lon":5.37465,"is_reserved":false,"is_disabled":false,"rental_uris":{"android":"levelo://app?vid=18858c23-d712-4b64-bec6-23bab7f0effd","ios":"levelo://app?vid=18858c23-d712-4b64-bec6-23bab7f0effd"},"vehicle_type_id":"4","last_reported":1719590963,"current_range_meters":28000,"station_id":"","pricing_plan_id":"cebpf4jnsgd1na2vs0mg"},{"bike_id":"55264226-f3bf-4cd0-a3d0-27060a760efe","system_id":"levelo_inurba_marseille","lat":43.298433,"lon":5.362774,"is_reserved":false,"is_disabled":false,"rental_uris":{"android":"levelo://app?vid=55264226-f3bf-4cd0-a3d0-27060a760efe","ios":"levelo://app?vid=55264226-f3bf-4cd0-a3d0-27060a760efe"},"vehicle_type_id":"4","last_reported":1719590963,"current_range_meters":20000,"station_id":"ce4bgpp2rcd13ifvqc3g","pricing_plan_id":"cebpf4jnsgd1na2vs0mg"},{"bike_id":"653f1800-b937-4622-8a35-0fddd58a3fd9","system_id":"levelo_inurba_marseille","lat":43.298433,"lon":5.362774,"is_reserved":false,"is_disabled":false,"rental_uris":{"android":"levelo://app?vid=653f1800-b937-4622-8a35-0fddd58a3fd9","ios":"levelo://app?vid=653f1800-b937-4622-8a35-0fddd58a3fd9"},"vehicle_type_id":"4","last_reported":1719590963,"current_range_meters":30000,"station_id":"ce4bgpp2rcd13ifvqc3g","pricing_plan_id":"cebpf4jnsgd1na2vs0mg"},{"bike_id":"b4e90371-b51b-4bb3-9f26-7d543acd8573","system_id":"levelo_inurba_marseille","lat":43.30942,"lon":5.38642,"is_reserved":false,"is_disabled":false,"rental_uris":{"android":"levelo://app?vid=b4e90371-b51b-4bb3-9f26-7d543acd8573","ios":"levelo://app?vid=b4e90371-b51b-4bb3-9f26-7d543acd8573"},"vehicle_type_id":"4","last_reported":1719590963,"current_range_meters":26800,"station_id":"","pricing_plan_id":"cebpf4jnsgd1na2vs0mg"},{"bike_id":"42c04109-d627-4e8d-9603-9afff4cd1e4e","system_id":"levelo_inurba_marseille","lat":43.311722,"lon":5.387247,"is_reserved":false,"is_disabled":false,"rental_uris":{"android":"levelo://app?vid=42c04109-d627-4e8d-9603-9afff4cd1e4e","ios":"levelo://app?vid=42c04109-d627-4e8d-9603-9afff4cd1e4e"},"vehicle_type_id":"4","last_reported":1719590963,"current_range_meters":20800,"station_id":"ce4bgv12rcd13ifvqcp0","pricing_plan_id":"cebpf4jnsgd1na2vs0mg"},{"bike_id":"fbf5a49b-bb58-4680-ae85-55096bb80283","system_id":"levelo_inurba_marseille","lat":43.311722,"lon":5.387247,"is_reserved":false,"is_disabled":false,"rental_uris":{"android":"levelo://app?vid=fbf5a49b-bb58-4680-ae85-55096bb80283","ios":"levelo://app?vid=fbf5a49b-bb58-4680-ae85-55096bb80283"},"vehicle_type_id":"4","last_reported":1719590963,"current_range_meters":24400,"station_id":"ce4bgv12rcd13ifvqcp0","pricing_plan_id":"cebpf4jnsgd1na2vs0mg"},{"bike_id":"5084322e-cab1-4304-959f-ca9a8ab25c10","system_id":"levelo_inurba_marseille","lat":43.31164,"lon":5.38721,"is_reserved":false,"is_disabled":false,"rental_uris":{"android":"levelo://app?vid=5084322e-cab1-4304-959f-ca9a8ab25c10","ios":"levelo://app?vid=5084322e-cab1-4304-959f-ca9a8ab25c10"},"vehicle_type_id":"4","last_reported":1719590963,"current_range_meters":28000,"station_id":"ce4bgv12rcd13ifvqcp0","pricing_plan_id":"cebpf4jnsgd1na2vs0mg"},{"bike_id":"102012d7-30e2-4914-ad89-ffa47f78411f","system_id":"levelo_inurba_marseille","lat":43.311722,"lon":5.387247,"is_reserved":false,"is_disabled":false,"rental_uris":{"android":"levelo://app?vid=102012d7-30e2-4914-ad89-ffa47f78411f","ios":"levelo://app?vid=102012d7-30e2-4914-ad89-ffa47f78411f"},"vehicle_type_id":"4","last_reported":1719590963,"current_range_meters":18000,"station_id":"ce4bgv12rcd13ifvqcp0","pricing_plan_id":"cebpf4jnsgd1na2vs0mg"},{"bike_id":"9247fa94-ab4f-4096-82fb-e3f45ebdaa7d","system_id":"levelo_inurba_marseille","lat":43.311722,"lon":5.387247,"is_reserved":false,"is_disabled":false,"rental_uris":{"android":"levelo://app?vid=9247fa94-ab4f-4096-82fb-e3f45ebdaa7d","ios":"levelo://app?vid=9247fa94-ab4f-4096-82fb-e3f45ebdaa7d"},"vehicle_type_id":"4","last_reported":1719590963,"current_range_meters":8400,"station_id":"ce4bgv12rcd13ifvqcp0","pricing_plan_id":"cebpf4jnsgd1na2vs0mg"},{"bike_id":"6d4509f8-67e4-42cb-b23c-50667cfd07a5","system_id":"levelo_inurba_marseille","lat":43.311722,"lon":5.387247,"is_reserved":false,"is_disabled":false,"rental_uris":{"android":"levelo://app?vid=6d4509f8-67e4-42cb-b23c-50667cfd07a5","ios":"levelo://app?vid=6d4509f8-67e4-42cb-b23c-50667cfd07a5"},"vehicle_type_id":"4","last_reported":1719590963,"current_range_meters":16400,"station_id":"ce4bgv12rcd13ifvqcp0","pricing_plan_id":"cebpf4jnsgd1na2vs0mg"},{"bike_id":"014e12d7-071c-4ce3-a3fb-dbcdadde6c38","system_id":"levelo_inurba_marseille","lat":43.311722,"lon":5.387247,"is_reserved":false,"is_disabled":false,"rental_uris":{"android":"levelo://app?vid=014e12d7-071c-4ce3-a3fb-dbcdadde6c38","ios":"levelo://app?vid=014e12d7-071c-4ce3-a3fb-dbcdadde6c38"},"vehicle_type_id":"4","last_reported":1719590963,"current_range_meters":10400,"station_id":"ce4bgv12rcd13ifvqcp0","pricing_plan_id":"cebpf4jnsgd1na2vs0mg"},{"bike_id":"68fae7e1-c4c5-4fac-a5af-30a6e2c1ccf1","system_id":"levelo_inurba_marseille","lat":43.297794,"lon":5.370888,"is_reserved":false,"is_disabled":false,"rental_uris":{"android":"levelo://app?vid=68fae7e1-c4c5-4fac-a5af-30a6e2c1ccf1","ios":"levelo://app?vid=68fae7e1-c4c5-4fac-a5af-30a6e2c1ccf1"},"vehicle_type_id":"4","last_reported":1719590963,"current_range_meters":22800,"station_id":"ce4bgop2rcd13ifvqc1g","pricing_plan_id":"cebpf4jnsgd1na2vs0mg"},{"bike_id":"887768d6-5f1b-465e-b5cd-7f37809448cd","system_id":"levelo_inurba_marseille","lat":43.32288,"lon":5.38272,"is_reserved":false,"is_disabled":false,"rental_uris":{"android":"levelo://app?vid=887768d6-5f1b-465e-b5cd-7f37809448cd","ios":"levelo://app?vid=887768d6-5f1b-465e-b5cd-7f37809448cd"},"vehicle_type_id":"4","last_reported":1719590963,"current_range_meters":31200,"station_id":"ce4bhr12rcd13ifvqhqg","pricing_plan_id":"cebpf4jnsgd1na2vs0mg"},{"bike_id":"8aa6927a-ca37-4aff-a405-d41c982c2a82","system_id":"levelo_inurba_marseille","lat":43.322872,"lon":5.382756,"is_reserved":false,"is_disabled":false,"rental_uris":{"android":"levelo://app?vid=8aa6927a-ca37-4aff-a405-d41c982c2a82","ios":"levelo://app?vid=8aa6927a-ca37-4aff-a405-d41c982c2a82"},"vehicle_type_id":"4","last_reported":1719590963,"current_range_meters":24400,"station_id":"ce4bhr12rcd13ifvqhqg","pricing_plan_id":"cebpf4jnsgd1na2vs0mg"},{"bike_id":"add3887d-f249-4e8e-8b83-f0ed73bca4c8","system_id":"levelo_inurba_marseille","lat":43.2968,"lon":5.37291,"is_reserved":false,"is_disabled":false,"rental_uris":{"android":"levelo://app?vid=add3887d-f249-4e8e-8b83-f0ed73bca4c8","ios":"levelo://app?vid=add3887d-f249-4e8e-8b83-f0ed73bca4c8"},"vehicle_type_id":"4","last_reported":1719590963,"current_range_meters":8400,"station_id":"ce4bgk12rcd13ifvqbj0","pricing_plan_id":"cebpf4jnsgd1na2vs0mg"},{"bike_id":"f7b8525a-7b99-4fd4-aac1-aad42e2a3b77","system_id":"levelo_inurba_marseille","lat":43.29659,"lon":5.36238,"is_reserved":false,"is_disabled":false,"rental_uris":{"android":"levelo://app?vid=f7b8525a-7b99-4fd4-aac1-aad42e2a3b77","ios":"levelo://app?vid=f7b8525a-7b99-4fd4-aac1-aad42e2a3b77"},"vehicle_type_id":"4","last_reported":1719590963,"current_range_meters":16800,"station_id":"","pricing_plan_id":"cebpf4jnsgd1na2vs0mg"},{"bike_id":"55ef1705-8f1e-4bfb-8caa-10240763c558","system_id":"levelo_inurba_marseille","lat":43.2965,"lon":5.36247,"is_reserved":false,"is_disabled":false,"rental_uris":{"android":"levelo://app?vid=55ef1705-8f1e-4bfb-8caa-10240763c558","ios":"levelo://app?vid=55ef1705-8f1e-4bfb-8caa-10240763c558"},"vehicle_type_id":"4","last_reported":1719590963,"current_range_meters":15600,"station_id":"","pricing_plan_id":"cebpf4jnsgd1na2vs0mg"},{"bike_id":"38d36ef8-940a-4e0e-a8f5-08b202cc63f1","system_id":"levelo_inurba_marseille","lat":43.29573,"lon":5.367355,"is_reserved":false,"is_disabled":false,"rental_uris":{"android":"levelo://app?vid=38d36ef8-940a-4e0e-a8f5-08b202cc63f1","ios":"levelo://app?vid=38d36ef8-940a-4e0e-a8f5-08b202cc63f1"},"vehicle_type_id":"4","last_reported":1719590963,"current_range_meters":0,"station_id":"ce4bgph2rcd13ifvqc2g","pricing_plan_id":"cebpf4jnsgd1na2vs0mg"},{"bike_id":"c85d8959-cdd2-42b0-b07e-de6a02bd5bd7","system_id":"levelo_inurba_marseille","lat":43.299028,"lon":5.381509,"is_reserved":false,"is_disabled":false,"rental_uris":{"android":"levelo://app?vid=c85d8959-cdd2-42b0-b07e-de6a02bd5bd7","ios":"levelo://app?vid=c85d8959-cdd2-42b0-b07e-de6a02bd5bd7"},"vehicle_type_id":"4","last_reported":1719590963,"current_range_meters":21600,"station_id":"ce4bgj12rcd13ifvqbc0","pricing_plan_id":"cebpf4jnsgd1na2vs0mg"},{"bike_id":"f3156c25-c98f-4632-8ce6-a1897c6ce4bc","system_id":"levelo_inurba_marseille","lat":43.309589,"lon":5.390258,"is_reserved":false,"is_disabled":false,"rental_uris":{"android":"levelo://app?vid=f3156c25-c98f-4632-8ce6-a1897c6ce4bc","ios":"levelo://app?vid=f3156c25-c98f-4632-8ce6-a1897c6ce4bc"},"vehicle_type_id":"4","last_reported":1719590963,"current_range_meters":4800,"station_id":"ce4bgup2rcd13ifvqco0","pricing_plan_id":"cebpf4jnsgd1na2vs0mg"},{"bike_id":"5d3a4c30-87dc-4219-8eab-398f5dfd0e2c","system_id":"levelo_inurba_marseille","lat":43.309589,"lon":5.390258,"is_reserved":false,"is_disabled":false,"rental_uris":{"android":"levelo://app?vid=5d3a4c30-87dc-4219-8eab-398f5dfd0e2c","ios":"levelo://app?vid=5d3a4c30-87dc-4219-8eab-398f5dfd0e2c"},"vehicle_type_id":"4","last_reported":1719590963,"current_range_meters":3200,"station_id":"ce4bgup2rcd13ifvqco0","pricing_plan_id":"cebpf4jnsgd1na2vs0mg"},{"bike_id":"d87d6b91-c3a2-4917-b8fc-00efd4323270","system_id":"levelo_inurba_marseille","lat":43.309589,"lon":5.390258,"is_reserved":false,"is_disabled":false,"rental_uris":{"android":"levelo://app?vid=d87d6b91-c3a2-4917-b8fc-00efd4323270","ios":"levelo://app?vid=d87d6b91-c3a2-4917-b8fc-00efd4323270"},"vehicle_type_id":"4","last_reported":1719590963,"current_range_meters":23200,"station_id":"ce4bgup2rcd13ifvqco0","pricing_plan_id":"cebpf4jnsgd1na2vs0mg"},{"bike_id":"45e7d158-77f5-43bb-b1f3-512b75975ec9","system_id":"levelo_inurba_marseille","lat":43.296921,"lon":5.376579,"is_reserved":false,"is_disabled":false,"rental_uris":{"android":"levelo://app?vid=45e7d158-77f5-43bb-b1f3-512b75975ec9","ios":"levelo://app?vid=45e7d158-77f5-43bb-b1f3-512b75975ec9"},"vehicle_type_id":"4","last_reported":1719590963,"current_range_meters":8800,"station_id":"ce4bgkh2rcd13ifvqbl0","pricing_plan_id":"cebpf4jnsgd1na2vs0mg"},{"bike_id":"773884e9-33b8-4807-84ea-06ccf8ba6ccc","system_id":"levelo_inurba_marseille","lat":43.29922,"lon":5.38301,"is_reserved":false,"is_disabled":false,"rental_uris":{"android":"levelo://app?vid=773884e9-33b8-4807-84ea-06ccf8ba6ccc","ios":"levelo://app?vid=773884e9-33b8-4807-84ea-06ccf8ba6ccc"},"vehicle_type_id":"4","last_reported":1719590963,"current_range_meters":22800,"station_id":"","pricing_plan_id":"cebpf4jnsgd1na2vs0mg"},{"bike_id":"77c96800-e27c-4330-b546-6f71121b67d6","system_id":"levelo_inurba_marseille","lat":43.29804,"lon":5.38102,"is_reserved":false,"is_disabled":false,"rental_uris":{"android":"levelo://app?vid=77c96800-e27c-4330-b546-6f71121b67d6","ios":"levelo://app?vid=77c96800-e27c-4330-b546-6f71121b67d6"},"vehicle_type_id":"4","last_reported":1719590963,"current_range_meters":0,"station_id":"ce4bgip2rcd13ifvqbb0","pricing_plan_id":"cebpf4jnsgd1na2vs0mg"},{"bike_id":"d898971b-4f5c-4104-9380-6424346f03d1","system_id":"levelo_inurba_marseille","lat":43.295748,"lon":5.37522,"is_reserved":false,"is_disabled":false,"rental_uris":{"android":"levelo://app?vid=d898971b-4f5c-4104-9380-6424346f03d1","ios":"levelo://app?vid=d898971b-4f5c-4104-9380-6424346f03d1"},"vehicle_type_id":"4","last_reported":1719590963,"current_range_meters":19200,"station_id":"ce4bgh92rcd13ifvqb50","pricing_plan_id":"cebpf4jnsgd1na2vs0mg"},{"bike_id":"0ace8e12-749b-48c7-b11f-acff2e9a91c3","system_id":"levelo_inurba_marseille","lat":43.295748,"lon":5.37522,"is_reserved":false,"is_disabled":false,"rental_uris":{"android":"levelo://app?vid=0ace8e12-749b-48c7-b11f-acff2e9a91c3","ios":"levelo://app?vid=0ace8e12-749b-48c7-b11f-acff2e9a91c3"},"vehicle_type_id":"4","last_reported":1719590963,"current_range_meters":9600,"station_id":"ce4bgh92rcd13ifvqb50","pricing_plan_id":"cebpf4jnsgd1na2vs0mg"},{"bike_id":"4e2fa2be-c824-4c09-98bc-2cdb081799d6","system_id":"levelo_inurba_marseille","lat":43.304274,"lon":5.388873,"is_reserved":false,"is_disabled":false,"rental_uris":{"android":"levelo://app?vid=4e2fa2be-c824-4c09-98bc-2cdb081799d6","ios":"levelo://app?vid=4e2fa2be-c824-4c09-98bc-2cdb081799d6"},"vehicle_type_id":"4","last_reported":1719590963,"current_range_meters":29600,"station_id":"ce4bgk12rcd13ifvqbi0","pricing_plan_id":"cebpf4jnsgd1na2vs0mg"},{"bike_id":"2a239fa9-0eed-492d-8f0e-b79da574115d","system_id":"levelo_inurba_marseille","lat":43.298037,"lon":5.381066,"is_reserved":false,"is_disabled":false,"rental_uris":{"android":"levelo://app?vid=2a239fa9-0eed-492d-8f0e-b79da574115d","ios":"levelo://app?vid=2a239fa9-0eed-492d-8f0e-b79da574115d"},"vehicle_type_id":"4","last_reported":1719590963,"current_range_meters":0,"station_id":"ce4bgip2rcd13ifvqbb0","pricing_plan_id":"cebpf4jnsgd1na2vs0mg"},{"bike_id":"fb911390-cadd-4e91-827d-7f05cad622cc","system_id":"levelo_inurba_marseille","lat":43.295279,"lon":5.375048,"is_reserved":false,"is_disabled":false,"rental_uris":{"android":"levelo://app?vid=fb911390-cadd-4e91-827d-7f05cad622cc","ios":"levelo://app?vid=fb911390-cadd-4e91-827d-7f05cad622cc"},"vehicle_type_id":"4","last_reported":1719590963,"current_range_meters":0,"station_id":"ce4bgkp2rcd13ifvqbmg","pricing_plan_id":"cebpf4jnsgd1na2vs0mg"},{"bike_id":"5834dc55-68d2-4d0f-a12d-c9c11f2a2c1c","system_id":"levelo_inurba_marseille","lat":43.296007,"lon":5.377097,"is_reserved":false,"is_disabled":false,"rental_uris":{"android":"levelo://app?vid=5834dc55-68d2-4d0f-a12d-c9c11f2a2c1c","ios":"levelo://app?vid=5834dc55-68d2-4d0f-a12d-c9c11f2a2c1c"},"vehicle_type_id":"4","last_reported":1719590963,"current_range_meters":0,"station_id":"ce4bgi92rcd13ifvqb90","pricing_plan_id":"cebpf4jnsgd1na2vs0mg"},{"bike_id":"8bd3d59d-f360-4393-805f-f7f73930ba55","system_id":"levelo_inurba_marseille","lat":43.299707,"lon":5.384859,"is_reserved":false,"is_disabled":false,"rental_uris":{"android":"levelo://app?vid=8bd3d59d-f360-4393-805f-f7f73930ba55","ios":"levelo://app?vid=8bd3d59d-f360-4393-805f-f7f73930ba55"},"vehicle_type_id":"4","last_reported":1719590963,"current_range_meters":27200,"station_id":"ce4bgj92rcd13ifvqbd0","pricing_plan_id":"cebpf4jnsgd1na2vs0mg"},{"bike_id":"9c27bbab-b48c-452f-b71e-25e5beea055a","system_id":"levelo_inurba_marseille","lat":43.299707,"lon":5.384859,"is_reserved":false,"is_disabled":false,"rental_uris":{"android":"levelo://app?vid=9c27bbab-b48c-452f-b71e-25e5beea055a","ios":"levelo://app?vid=9c27bbab-b48c-452f-b71e-25e5beea055a"},"vehicle_type_id":"4","last_reported":1719590963,"current_range_meters":16000,"station_id":"ce4bgj92rcd13ifvqbd0","pricing_plan_id":"cebpf4jnsgd1na2vs0mg"},{"bike_id":"8269782f-f587-42a2-9eff-b78f7f322009","system_id":"levelo_inurba_marseille","lat":43.299717,"lon":5.384845,"is_reserved":false,"is_disabled":false,"rental_uris":{"android":"levelo://app?vid=8269782f-f587-42a2-9eff-b78f7f322009","ios":"levelo://app?vid=8269782f-f587-42a2-9eff-b78f7f322009"},"vehicle_type_id":"4","last_reported":1719590963,"current_range_meters":4400,"station_id":"ce4bgj92rcd13ifvqbd0","pricing_plan_id":"cebpf4jnsgd1na2vs0mg"},{"bike_id":"44180ea9-e582-4ede-9208-f8da27e78ce5","system_id":"levelo_inurba_marseille","lat":43.295279,"lon":5.375048,"is_reserved":false,"is_disabled":false,"rental_uris":{"android":"levelo://app?vid=44180ea9-e582-4ede-9208-f8da27e78ce5","ios":"levelo://app?vid=44180ea9-e582-4ede-9208-f8da27e78ce5"},"vehicle_type_id":"4","last_reported":1719590963,"current_range_meters":10800,"station_id":"ce4bgkp2rcd13ifvqbmg","pricing_plan_id":"cebpf4jnsgd1na2vs0mg"},{"bike_id":"dc905ec8-b753-4b04-9c11-0b22c8c96f46","system_id":"levelo_inurba_marseille","lat":43.299724,"lon":5.384848,"is_reserved":false,"is_disabled":false,"rental_uris":{"android":"levelo://app?vid=dc905ec8-b753-4b04-9c11-0b22c8c96f46","ios":"levelo://app?vid=dc905ec8-b753-4b04-9c11-0b22c8c96f46"},"vehicle_type_id":"4","last_reported":1719590963,"current_range_meters":12400,"station_id":"ce4bgj92rcd13ifvqbd0","pricing_plan_id":"cebpf4jnsgd1na2vs0mg"},{"bike_id":"7e48b023-4a07-42da-ab8e-5f6649553925","system_id":"levelo_inurba_marseille","lat":43.299717,"lon":5.384845,"is_reserved":false,"is_disabled":false,"rental_uris":{"android":"levelo://app?vid=7e48b023-4a07-42da-ab8e-5f6649553925","ios":"levelo://app?vid=7e48b023-4a07-42da-ab8e-5f6649553925"},"vehicle_type_id":"4","last_reported":1719590963,"current_range_meters":18000,"station_id":"ce4bgj92rcd13ifvqbd0","pricing_plan_id":"cebpf4jnsgd1na2vs0mg"},{"bike_id":"cc0b672f-ba38-43f2-bd6a-e9f11261f90b","system_id":"levelo_inurba_marseille","lat":43.32367,"lon":5.388836,"is_reserved":false,"is_disabled":false,"rental_uris":{"android":"levelo://app?vid=cc0b672f-ba38-43f2-bd6a-e9f11261f90b","ios":"levelo://app?vid=cc0b672f-ba38-43f2-bd6a-e9f11261f90b"},"vehicle_type_id":"4","last_reported":1719590963,"current_range_meters":5200,"station_id":"ce4bhqp2rcd13ifvqhog","pricing_plan_id":"cebpf4jnsgd1na2vs0mg"},{"bike_id":"81af51a8-7a31-45b2-a2ed-4c9620f68fab","system_id":"levelo_inurba_marseille","lat":43.30582,"lon":5.39202,"is_reserved":false,"is_disabled":false,"rental_uris":{"android":"levelo://app?vid=81af51a8-7a31-45b2-a2ed-4c9620f68fab","ios":"levelo://app?vid=81af51a8-7a31-45b2-a2ed-4c9620f68fab"},"vehicle_type_id":"4","last_reported":1719590963,"current_range_meters":6800,"station_id":"","pricing_plan_id":"cebpf4jnsgd1na2vs0mg"},{"bike_id":"704ade29-dcd1-4277-9ca5-988d7d6b2798","system_id":"levelo_inurba_marseille","lat":43.293259,"lon":5.371586,"is_reserved":false,"is_disabled":false,"rental_uris":{"android":"levelo://app?vid=704ade29-dcd1-4277-9ca5-988d7d6b2798","ios":"levelo://app?vid=704ade29-dcd1-4277-9ca5-988d7d6b2798"},"vehicle_type_id":"4","last_reported":1719590963,"current_range_meters":16800,"station_id":"ce4bgh92rcd13ifvqb40","pricing_plan_id":"cebpf4jnsgd1na2vs0mg"},{"bike_id":"ed4ef02e-cc69-42ed-8e42-46469f598031","system_id":"levelo_inurba_marseille","lat":43.293249,"lon":5.371578,"is_reserved":false,"is_disabled":false,"rental_uris":{"android":"levelo://app?vid=ed4ef02e-cc69-42ed-8e42-46469f598031","ios":"levelo://app?vid=ed4ef02e-cc69-42ed-8e42-46469f598031"},"vehicle_type_id":"4","last_reported":1719590963,"current_range_meters":15200,"station_id":"ce4bgh92rcd13ifvqb40","pricing_plan_id":"cebpf4jnsgd1na2vs0mg"},{"bike_id":"bb611f2d-9f32-4d1e-bd03-e72fce025651","system_id":"levelo_inurba_marseille","lat":43.292749,"lon":5.368402,"is_reserved":false,"is_disabled":false,"rental_uris":{"android":"levelo://app?vid=bb611f2d-9f32-4d1e-bd03-e72fce025651","ios":"levelo://app?vid=bb611f2d-9f32-4d1e-bd03-e72fce025651"},"vehicle_type_id":"4","last_reported":1719590963,"current_range_meters":1600,"station_id":"ce4bhbp2rcd13ifvqesg","pricing_plan_id":"cebpf4jnsgd1na2vs0mg"},{"bike_id":"cb6359f5-2e04-4e95-8cc0-f333e9cb9e02","system_id":"levelo_inurba_marseille","lat":43.292749,"lon":5.368402,"is_reserved":false,"is_disabled":false,"rental_uris":{"android":"levelo://app?vid=cb6359f5-2e04-4e95-8cc0-f333e9cb9e02","ios":"levelo://app?vid=cb6359f5-2e04-4e95-8cc0-f333e9cb9e02"},"vehicle_type_id":"4","last_reported":1719590963,"current_range_meters":6800,"station_id":"ce4bhbp2rcd13ifvqesg","pricing_plan_id":"cebpf4jnsgd1na2vs0mg"},{"bike_id":"0b8f6296-032c-44f3-92cd-6415ece1a313","system_id":"levelo_inurba_marseille","lat":43.293009,"lon":5.374584,"is_reserved":false,"is_disabled":false,"rental_uris":{"android":"levelo://app?vid=0b8f6296-032c-44f3-92cd-6415ece1a313","ios":"levelo://app?vid=0b8f6296-032c-44f3-92cd-6415ece1a313"},"vehicle_type_id":"4","last_reported":1719590963,"current_range_meters":29600,"station_id":"ce4bgi12rcd13ifvqb70","pricing_plan_id":"cebpf4jnsgd1na2vs0mg"},{"bike_id":"d3b891a7-2a7a-4bd1-9ddf-fbbc0e610d36","system_id":"levelo_inurba_marseille","lat":43.293009,"lon":5.374584,"is_reserved":false,"is_disabled":false,"rental_uris":{"android":"levelo://app?vid=d3b891a7-2a7a-4bd1-9ddf-fbbc0e610d36","ios":"levelo://app?vid=d3b891a7-2a7a-4bd1-9ddf-fbbc0e610d36"},"vehicle_type_id":"4","last_reported":1719590963,"current_range_meters":18400,"station_id":"ce4bgi12rcd13ifvqb70","pricing_plan_id":"cebpf4jnsgd1na2vs0mg"},{"bike_id":"65b007b8-91aa-4a04-87f5-c899a3d1ed13","system_id":"levelo_inurba_marseille","lat":43.293009,"lon":5.374584,"is_reserved":false,"is_disabled":false,"rental_uris":{"android":"levelo://app?vid=65b007b8-91aa-4a04-87f5-c899a3d1ed13","ios":"levelo://app?vid=65b007b8-91aa-4a04-87f5-c899a3d1ed13"},"vehicle_type_id":"4","last_reported":1719590963,"current_range_meters":0,"station_id":"ce4bgi12rcd13ifvqb70","pricing_plan_id":"cebpf4jnsgd1na2vs0mg"},{"bike_id":"3848cfbb-9784-4a53-a54c-4bb2d5a299f4","system_id":"levelo_inurba_marseille","lat":43.293009,"lon":5.374584,"is_reserved":false,"is_disabled":false,"rental_uris":{"android":"levelo://app?vid=3848cfbb-9784-4a53-a54c-4bb2d5a299f4","ios":"levelo://app?vid=3848cfbb-9784-4a53-a54c-4bb2d5a299f4"},"vehicle_type_id":"4","last_reported":1719590963,"current_range_meters":14400,"station_id":"ce4bgi12rcd13ifvqb70","pricing_plan_id":"cebpf4jnsgd1na2vs0mg"},{"bike_id":"c415e0af-498d-4e36-9af5-a62f192cf96a","system_id":"levelo_inurba_marseille","lat":43.303002,"lon":5.392142,"is_reserved":false,"is_disabled":false,"rental_uris":{"android":"levelo://app?vid=c415e0af-498d-4e36-9af5-a62f192cf96a","ios":"levelo://app?vid=c415e0af-498d-4e36-9af5-a62f192cf96a"},"vehicle_type_id":"4","last_reported":1719590963,"current_range_meters":28800,"station_id":"ce4bgkh2rcd13ifvqbk0","pricing_plan_id":"cebpf4jnsgd1na2vs0mg"},{"bike_id":"daa5b09c-b1f9-44b7-bec5-c5832f17cbcd","system_id":"levelo_inurba_marseille","lat":43.303002,"lon":5.392142,"is_reserved":false,"is_disabled":false,"rental_uris":{"android":"levelo://app?vid=daa5b09c-b1f9-44b7-bec5-c5832f17cbcd","ios":"levelo://app?vid=daa5b09c-b1f9-44b7-bec5-c5832f17cbcd"},"vehicle_type_id":"4","last_reported":1719590963,"current_range_meters":0,"station_id":"ce4bgkh2rcd13ifvqbk0","pricing_plan_id":"cebpf4jnsgd1na2vs0mg"},{"bike_id":"4c3a4fea-5b54-454b-a8b7-f6f610ffec74","system_id":"levelo_inurba_marseille","lat":43.2936,"lon":5.37835,"is_reserved":false,"is_disabled":false,"rental_uris":{"android":"levelo://app?vid=4c3a4fea-5b54-454b-a8b7-f6f610ffec74","ios":"levelo://app?vid=4c3a4fea-5b54-454b-a8b7-f6f610ffec74"},"vehicle_type_id":"4","last_reported":1719590963,"current_range_meters":0,"station_id":"ce4bgjh2rcd13ifvqbf0","pricing_plan_id":"cebpf4jnsgd1na2vs0mg"},{"bike_id":"c0c6817b-cee7-48ab-a91e-6b6536da4430","system_id":"levelo_inurba_marseille","lat":43.2936,"lon":5.37835,"is_reserved":false,"is_disabled":false,"rental_uris":{"android":"levelo://app?vid=c0c6817b-cee7-48ab-a91e-6b6536da4430","ios":"levelo://app?vid=c0c6817b-cee7-48ab-a91e-6b6536da4430"},"vehicle_type_id":"4","last_reported":1719590963,"current_range_meters":0,"station_id":"ce4bgjh2rcd13ifvqbf0","pricing_plan_id":"cebpf4jnsgd1na2vs0mg"},{"bike_id":"299e2819-a622-4a35-aa0e-6470c6f99136","system_id":"levelo_inurba_marseille","lat":43.303002,"lon":5.392142,"is_reserved":false,"is_disabled":false,"rental_uris":{"android":"levelo://app?vid=299e2819-a622-4a35-aa0e-6470c6f99136","ios":"levelo://app?vid=299e2819-a622-4a35-aa0e-6470c6f99136"},"vehicle_type_id":"4","last_reported":1719590963,"current_range_meters":19200,"station_id":"ce4bgkh2rcd13ifvqbk0","pricing_plan_id":"cebpf4jnsgd1na2vs0mg"},{"bike_id":"17b4f2d5-7549-4a77-a459-5b2d5233ded7","system_id":"levelo_inurba_marseille","lat":43.29365,"lon":5.37836,"is_reserved":false,"is_disabled":false,"rental_uris":{"android":"levelo://app?vid=17b4f2d5-7549-4a77-a459-5b2d5233ded7","ios":"levelo://app?vid=17b4f2d5-7549-4a77-a459-5b2d5233ded7"},"vehicle_type_id":"4","last_reported":1719590963,"current_range_meters":0,"station_id":"ce4bgjh2rcd13ifvqbf0","pricing_plan_id":"cebpf4jnsgd1na2vs0mg"},{"bike_id":"366f58c4-43e9-4b12-8234-6a15290fdbb6","system_id":"levelo_inurba_marseille","lat":43.302992,"lon":5.392136,"is_reserved":false,"is_disabled":false,"rental_uris":{"android":"levelo://app?vid=366f58c4-43e9-4b12-8234-6a15290fdbb6","ios":"levelo://app?vid=366f58c4-43e9-4b12-8234-6a15290fdbb6"},"vehicle_type_id":"4","last_reported":1719590963,"current_range_meters":2000,"station_id":"ce4bgkh2rcd13ifvqbk0","pricing_plan_id":"cebpf4jnsgd1na2vs0mg"},{"bike_id":"8f12a8b7-744e-4ca0-95ec-d1af7ac62837","system_id":"levelo_inurba_marseille","lat":43.2936,"lon":5.37835,"is_reserved":false,"is_disabled":false,"rental_uris":{"android":"levelo://app?vid=8f12a8b7-744e-4ca0-95ec-d1af7ac62837","ios":"levelo://app?vid=8f12a8b7-744e-4ca0-95ec-d1af7ac62837"},"vehicle_type_id":"4","last_reported":1719590963,"current_range_meters":10000,"station_id":"ce4bgjh2rcd13ifvqbf0","pricing_plan_id":"cebpf4jnsgd1na2vs0mg"},{"bike_id":"42b14e31-0656-47c7-b933-b401cb7d6301","system_id":"levelo_inurba_marseille","lat":43.293874,"lon":5.37914,"is_reserved":false,"is_disabled":false,"rental_uris":{"android":"levelo://app?vid=42b14e31-0656-47c7-b933-b401cb7d6301","ios":"levelo://app?vid=42b14e31-0656-47c7-b933-b401cb7d6301"},"vehicle_type_id":"4","last_reported":1719590963,"current_range_meters":0,"station_id":"","pricing_plan_id":"cebpf4jnsgd1na2vs0mg"},{"bike_id":"0aab7c26-c66f-4f88-8cdc-90040b23ce07","system_id":"levelo_inurba_marseille","lat":43.292311,"lon":5.360731,"is_reserved":false,"is_disabled":false,"rental_uris":{"android":"levelo://app?vid=0aab7c26-c66f-4f88-8cdc-90040b23ce07","ios":"levelo://app?vid=0aab7c26-c66f-4f88-8cdc-90040b23ce07"},"vehicle_type_id":"4","last_reported":1719590963,"current_range_meters":29600,"station_id":"ce4bhbh2rcd13ifvqeqg","pricing_plan_id":"cebpf4jnsgd1na2vs0mg"},{"bike_id":"a0c1ac21-1360-4f35-9ced-65b4990121fd","system_id":"levelo_inurba_marseille","lat":43.30085,"lon":5.390856,"is_reserved":false,"is_disabled":false,"rental_uris":{"android":"levelo://app?vid=a0c1ac21-1360-4f35-9ced-65b4990121fd","ios":"levelo://app?vid=a0c1ac21-1360-4f35-9ced-65b4990121fd"},"vehicle_type_id":"4","last_reported":1719590963,"current_range_meters":18000,"station_id":"ce4bh192rcd13ifvqdb0","pricing_plan_id":"cebpf4jnsgd1na2vs0mg"},{"bike_id":"3bba8a8a-3c26-464f-b1db-7df42a74a093","system_id":"levelo_inurba_marseille","lat":43.30085,"lon":5.390856,"is_reserved":false,"is_disabled":false,"rental_uris":{"android":"levelo://app?vid=3bba8a8a-3c26-464f-b1db-7df42a74a093","ios":"levelo://app?vid=3bba8a8a-3c26-464f-b1db-7df42a74a093"},"vehicle_type_id":"4","last_reported":1719590963,"current_range_meters":27200,"station_id":"ce4bh192rcd13ifvqdb0","pricing_plan_id":"cebpf4jnsgd1na2vs0mg"},{"bike_id":"dd23435e-fa7e-4bd8-b455-7e4fd7992c8d","system_id":"levelo_inurba_marseille","lat":43.284219,"lon":5.3497,"is_reserved":false,"is_disabled":false,"rental_uris":{"android":"levelo://app?vid=dd23435e-fa7e-4bd8-b455-7e4fd7992c8d","ios":"levelo://app?vid=dd23435e-fa7e-4bd8-b455-7e4fd7992c8d"},"vehicle_type_id":"4","last_reported":1719590963,"current_range_meters":3200,"station_id":"ce4bhbh2rcd13ifvqepg","pricing_plan_id":"cebpf4jnsgd1na2vs0mg"},{"bike_id":"af17fe21-be7c-45df-9f67-7f1976997f7e","system_id":"levelo_inurba_marseille","lat":43.298764,"lon":5.388973,"is_reserved":false,"is_disabled":false,"rental_uris":{"android":"levelo://app?vid=af17fe21-be7c-45df-9f67-7f1976997f7e","ios":"levelo://app?vid=af17fe21-be7c-45df-9f67-7f1976997f7e"},"vehicle_type_id":"4","last_reported":1719590963,"current_range_meters":25600,"station_id":"ce4bh392rcd13ifvqdl0","pricing_plan_id":"cebpf4jnsgd1na2vs0mg"},{"bike_id":"7250e77e-9dda-4a01-92bc-7265aab79931","system_id":"levelo_inurba_marseille","lat":43.298073,"lon":5.388283,"is_reserved":false,"is_disabled":false,"rental_uris":{"android":"levelo://app?vid=7250e77e-9dda-4a01-92bc-7265aab79931","ios":"levelo://app?vid=7250e77e-9dda-4a01-92bc-7265aab79931"},"vehicle_type_id":"4","last_reported":1719590963,"current_range_meters":5200,"station_id":"","pricing_plan_id":"cebpf4jnsgd1na2vs0mg"},{"bike_id":"0ba4f155-e55a-4371-b005-d2e04a263e8d","system_id":"levelo_inurba_marseille","lat":43.29211,"lon":5.35884,"is_reserved":false,"is_disabled":false,"rental_uris":{"android":"levelo://app?vid=0ba4f155-e55a-4371-b005-d2e04a263e8d","ios":"levelo://app?vid=0ba4f155-e55a-4371-b005-d2e04a263e8d"},"vehicle_type_id":"4","last_reported":1719590963,"current_range_meters":5600,"station_id":"","pricing_plan_id":"cebpf4jnsgd1na2vs0mg"},{"bike_id":"41e6b3c0-d6d4-47e0-a15d-6c81fd0527e3","system_id":"levelo_inurba_marseille","lat":43.3088,"lon":5.39623,"is_reserved":false,"is_disabled":false,"rental_uris":{"android":"levelo://app?vid=41e6b3c0-d6d4-47e0-a15d-6c81fd0527e3","ios":"levelo://app?vid=41e6b3c0-d6d4-47e0-a15d-6c81fd0527e3"},"vehicle_type_id":"4","last_reported":1719590963,"current_range_meters":12400,"station_id":"ce4bh012rcd13ifvqcv0","pricing_plan_id":"cebpf4jnsgd1na2vs0mg"},{"bike_id":"31b1613b-b7ac-4540-ab8c-01181d1f7980","system_id":"levelo_inurba_marseille","lat":43.309038,"lon":5.396546,"is_reserved":false,"is_disabled":false,"rental_uris":{"android":"levelo://app?vid=31b1613b-b7ac-4540-ab8c-01181d1f7980","ios":"levelo://app?vid=31b1613b-b7ac-4540-ab8c-01181d1f7980"},"vehicle_type_id":"4","last_reported":1719590963,"current_range_meters":30800,"station_id":"ce4bh012rcd13ifvqcv0","pricing_plan_id":"cebpf4jnsgd1na2vs0mg"},{"bike_id":"bbe91509-42bd-4be6-8c2b-594eda68687a","system_id":"levelo_inurba_marseille","lat":43.313291,"lon":5.396838,"is_reserved":false,"is_disabled":false,"rental_uris":{"android":"levelo://app?vid=bbe91509-42bd-4be6-8c2b-594eda68687a","ios":"levelo://app?vid=bbe91509-42bd-4be6-8c2b-594eda68687a"},"vehicle_type_id":"4","last_reported":1719590963,"current_range_meters":11600,"station_id":"ce4bgvp2rcd13ifvqcu0","pricing_plan_id":"cebpf4jnsgd1na2vs0mg"},{"bike_id":"05dc876e-4b1d-41aa-b575-638ba78428b8","system_id":"levelo_inurba_marseille","lat":43.313291,"lon":5.396838,"is_reserved":false,"is_disabled":false,"rental_uris":{"android":"levelo://app?vid=05dc876e-4b1d-41aa-b575-638ba78428b8","ios":"levelo://app?vid=05dc876e-4b1d-41aa-b575-638ba78428b8"},"vehicle_type_id":"4","last_reported":1719590963,"current_range_meters":23600,"station_id":"ce4bgvp2rcd13ifvqcu0","pricing_plan_id":"cebpf4jnsgd1na2vs0mg"},{"bike_id":"7d8b0cd7-c708-435b-bcbe-f2462ee915f5","system_id":"levelo_inurba_marseille","lat":43.291994,"lon":5.357886,"is_reserved":false,"is_disabled":false,"rental_uris":{"android":"levelo://app?vid=7d8b0cd7-c708-435b-bcbe-f2462ee915f5","ios":"levelo://app?vid=7d8b0cd7-c708-435b-bcbe-f2462ee915f5"},"vehicle_type_id":"4","last_reported":1719590963,"current_range_meters":26800,"station_id":"ce4bhb12rcd13ifvqel0","pricing_plan_id":"cebpf4jnsgd1na2vs0mg"},{"bike_id":"4cc2d72a-4542-4d6d-9cee-0c7c963ecb97","system_id":"levelo_inurba_marseille","lat":43.309038,"lon":5.396546,"is_reserved":false,"is_disabled":false,"rental_uris":{"android":"levelo://app?vid=4cc2d72a-4542-4d6d-9cee-0c7c963ecb97","ios":"levelo://app?vid=4cc2d72a-4542-4d6d-9cee-0c7c963ecb97"},"vehicle_type_id":"4","last_reported":1719590963,"current_range_meters":2800,"station_id":"ce4bh012rcd13ifvqcv0","pricing_plan_id":"cebpf4jnsgd1na2vs0mg"},{"bike_id":"a71ccf29-a8a7-403f-a876-2a33f7f29ec7","system_id":"levelo_inurba_marseille","lat":43.313291,"lon":5.396838,"is_reserved":false,"is_disabled":false,"rental_uris":{"android":"levelo://app?vid=a71ccf29-a8a7-403f-a876-2a33f7f29ec7","ios":"levelo://app?vid=a71ccf29-a8a7-403f-a876-2a33f7f29ec7"},"vehicle_type_id":"4","last_reported":1719590963,"current_range_meters":12000,"station_id":"ce4bgvp2rcd13ifvqcu0","pricing_plan_id":"cebpf4jnsgd1na2vs0mg"},{"bike_id":"2c2d0be7-4501-4128-8d69-bf99b8d84f0c","system_id":"levelo_inurba_marseille","lat":43.313291,"lon":5.396838,"is_reserved":false,"is_disabled":false,"rental_uris":{"android":"levelo://app?vid=2c2d0be7-4501-4128-8d69-bf99b8d84f0c","ios":"levelo://app?vid=2c2d0be7-4501-4128-8d69-bf99b8d84f0c"},"vehicle_type_id":"4","last_reported":1719590963,"current_range_meters":17200,"station_id":"ce4bgvp2rcd13ifvqcu0","pricing_plan_id":"cebpf4jnsgd1na2vs0mg"},{"bike_id":"28a67bee-d931-46cb-ab1e-402f66f3cfc7","system_id":"levelo_inurba_marseille","lat":43.309038,"lon":5.396546,"is_reserved":false,"is_disabled":false,"rental_uris":{"android":"levelo://app?vid=28a67bee-d931-46cb-ab1e-402f66f3cfc7","ios":"levelo://app?vid=28a67bee-d931-46cb-ab1e-402f66f3cfc7"},"vehicle_type_id":"4","last_reported":1719590963,"current_range_meters":21600,"station_id":"ce4bh012rcd13ifvqcv0","pricing_plan_id":"cebpf4jnsgd1na2vs0mg"},{"bike_id":"792b611e-97fa-4c6d-97a6-d803229cc75f","system_id":"levelo_inurba_marseille","lat":43.313291,"lon":5.396838,"is_reserved":false,"is_disabled":false,"rental_uris":{"android":"levelo://app?vid=792b611e-97fa-4c6d-97a6-d803229cc75f","ios":"levelo://app?vid=792b611e-97fa-4c6d-97a6-d803229cc75f"},"vehicle_type_id":"4","last_reported":1719590963,"current_range_meters":31600,"station_id":"ce4bgvp2rcd13ifvqcu0","pricing_plan_id":"cebpf4jnsgd1na2vs0mg"},{"bike_id":"312bb521-cfab-47fa-ba03-42d816cad2bc","system_id":"levelo_inurba_marseille","lat":43.309047,"lon":5.396551,"is_reserved":false,"is_disabled":false,"rental_uris":{"android":"levelo://app?vid=312bb521-cfab-47fa-ba03-42d816cad2bc","ios":"levelo://app?vid=312bb521-cfab-47fa-ba03-42d816cad2bc"},"vehicle_type_id":"4","last_reported":1719590963,"current_range_meters":15600,"station_id":"ce4bh012rcd13ifvqcv0","pricing_plan_id":"cebpf4jnsgd1na2vs0mg"},{"bike_id":"e74dcec4-bb2e-4577-823a-f59ab11ffa12","system_id":"levelo_inurba_marseille","lat":43.309038,"lon":5.396546,"is_reserved":false,"is_disabled":false,"rental_uris":{"android":"levelo://app?vid=e74dcec4-bb2e-4577-823a-f59ab11ffa12","ios":"levelo://app?vid=e74dcec4-bb2e-4577-823a-f59ab11ffa12"},"vehicle_type_id":"4","last_reported":1719590963,"current_range_meters":4400,"station_id":"ce4bh012rcd13ifvqcv0","pricing_plan_id":"cebpf4jnsgd1na2vs0mg"},{"bike_id":"e931383e-8b09-4d02-9dc9-6341bf2cab67","system_id":"levelo_inurba_marseille","lat":43.29529,"lon":5.385581,"is_reserved":false,"is_disabled":false,"rental_uris":{"android":"levelo://app?vid=e931383e-8b09-4d02-9dc9-6341bf2cab67","ios":"levelo://app?vid=e931383e-8b09-4d02-9dc9-6341bf2cab67"},"vehicle_type_id":"4","last_reported":1719590963,"current_range_meters":0,"station_id":"ce4bgih2rcd13ifvqba0","pricing_plan_id":"cebpf4jnsgd1na2vs0mg"},{"bike_id":"529d1244-6365-4a02-a048-935462eb682b","system_id":"levelo_inurba_marseille","lat":43.29529,"lon":5.385581,"is_reserved":false,"is_disabled":false,"rental_uris":{"android":"levelo://app?vid=529d1244-6365-4a02-a048-935462eb682b","ios":"levelo://app?vid=529d1244-6365-4a02-a048-935462eb682b"},"vehicle_type_id":"4","last_reported":1719590963,"current_range_meters":19600,"station_id":"ce4bgih2rcd13ifvqba0","pricing_plan_id":"cebpf4jnsgd1na2vs0mg"},{"bike_id":"310a9e75-324b-4b78-a672-f3abc1dcbb2b","system_id":"levelo_inurba_marseille","lat":43.29529,"lon":5.385581,"is_reserved":false,"is_disabled":false,"rental_uris":{"android":"levelo://app?vid=310a9e75-324b-4b78-a672-f3abc1dcbb2b","ios":"levelo://app?vid=310a9e75-324b-4b78-a672-f3abc1dcbb2b"},"vehicle_type_id":"4","last_reported":1719590963,"current_range_meters":0,"station_id":"ce4bgih2rcd13ifvqba0","pricing_plan_id":"cebpf4jnsgd1na2vs0mg"},{"bike_id":"ec1d062a-2e4b-4475-ae91-571c409a5a96","system_id":"levelo_inurba_marseille","lat":43.29529,"lon":5.385581,"is_reserved":false,"is_disabled":false,"rental_uris":{"android":"levelo://app?vid=ec1d062a-2e4b-4475-ae91-571c409a5a96","ios":"levelo://app?vid=ec1d062a-2e4b-4475-ae91-571c409a5a96"},"vehicle_type_id":"4","last_reported":1719590963,"current_range_meters":16800,"station_id":"ce4bgih2rcd13ifvqba0","pricing_plan_id":"cebpf4jnsgd1na2vs0mg"},{"bike_id":"caf7497d-0ef7-49bc-b707-8a0749072a43","system_id":"levelo_inurba_marseille","lat":43.29529,"lon":5.385581,"is_reserved":false,"is_disabled":false,"rental_uris":{"android":"levelo://app?vid=caf7497d-0ef7-49bc-b707-8a0749072a43","ios":"levelo://app?vid=caf7497d-0ef7-49bc-b707-8a0749072a43"},"vehicle_type_id":"4","last_reported":1719590963,"current_range_meters":400,"station_id":"ce4bgih2rcd13ifvqba0","pricing_plan_id":"cebpf4jnsgd1na2vs0mg"},{"bike_id":"099cad97-cc2a-4380-8ff3-2745359b0466","system_id":"levelo_inurba_marseille","lat":43.29461,"lon":5.38593,"is_reserved":false,"is_disabled":false,"rental_uris":{"android":"levelo://app?vid=099cad97-cc2a-4380-8ff3-2745359b0466","ios":"levelo://app?vid=099cad97-cc2a-4380-8ff3-2745359b0466"},"vehicle_type_id":"4","last_reported":1719590963,"current_range_meters":23600,"station_id":"","pricing_plan_id":"cebpf4jnsgd1na2vs0mg"},{"bike_id":"e54ddcac-b02f-4a54-9ce3-728b18722162","system_id":"levelo_inurba_marseille","lat":43.29419,"lon":5.3863,"is_reserved":false,"is_disabled":false,"rental_uris":{"android":"levelo://app?vid=e54ddcac-b02f-4a54-9ce3-728b18722162","ios":"levelo://app?vid=e54ddcac-b02f-4a54-9ce3-728b18722162"},"vehicle_type_id":"4","last_reported":1719590963,"current_range_meters":22400,"station_id":"ce4bh2h2rcd13ifvqdh0","pricing_plan_id":"cebpf4jnsgd1na2vs0mg"},{"bike_id":"9463962c-b0f0-4dd8-babf-bae7aa128fd1","system_id":"levelo_inurba_marseille","lat":43.294148,"lon":5.386265,"is_reserved":false,"is_disabled":false,"rental_uris":{"android":"levelo://app?vid=9463962c-b0f0-4dd8-babf-bae7aa128fd1","ios":"levelo://app?vid=9463962c-b0f0-4dd8-babf-bae7aa128fd1"},"vehicle_type_id":"4","last_reported":1719590963,"current_range_meters":23200,"station_id":"","pricing_plan_id":"cebpf4jnsgd1na2vs0mg"},{"bike_id":"14bb6e5d-b0df-4d33-bad5-5c53b51f24fa","system_id":"levelo_inurba_marseille","lat":43.294162,"lon":5.386292,"is_reserved":false,"is_disabled":false,"rental_uris":{"android":"levelo://app?vid=14bb6e5d-b0df-4d33-bad5-5c53b51f24fa","ios":"levelo://app?vid=14bb6e5d-b0df-4d33-bad5-5c53b51f24fa"},"vehicle_type_id":"4","last_reported":1719590963,"current_range_meters":21600,"station_id":"ce4bh2h2rcd13ifvqdh0","pricing_plan_id":"cebpf4jnsgd1na2vs0mg"},{"bike_id":"5949ffe6-a7dc-4a70-99f7-a1b43294e475","system_id":"levelo_inurba_marseille","lat":43.28941,"lon":5.3664,"is_reserved":false,"is_disabled":false,"rental_uris":{"android":"levelo://app?vid=5949ffe6-a7dc-4a70-99f7-a1b43294e475","ios":"levelo://app?vid=5949ffe6-a7dc-4a70-99f7-a1b43294e475"},"vehicle_type_id":"4","last_reported":1719590963,"current_range_meters":4800,"station_id":"ce4bhap2rcd13ifvqek0","pricing_plan_id":"cebpf4jnsgd1na2vs0mg"},{"bike_id":"1ee868d1-a350-4359-b302-a226bad9a49c","system_id":"levelo_inurba_marseille","lat":43.290319,"lon":5.375732,"is_reserved":false,"is_disabled":false,"rental_uris":{"android":"levelo://app?vid=1ee868d1-a350-4359-b302-a226bad9a49c","ios":"levelo://app?vid=1ee868d1-a350-4359-b302-a226bad9a49c"},"vehicle_type_id":"4","last_reported":1719590963,"current_range_meters":0,"station_id":"ce4bh692rcd13ifvqe90","pricing_plan_id":"cebpf4jnsgd1na2vs0mg"},{"bike_id":"9c08a772-8a7c-49d7-8d3f-254a26c454c9","system_id":"levelo_inurba_marseille","lat":43.294152,"lon":5.386325,"is_reserved":false,"is_disabled":false,"rental_uris":{"android":"levelo://app?vid=9c08a772-8a7c-49d7-8d3f-254a26c454c9","ios":"levelo://app?vid=9c08a772-8a7c-49d7-8d3f-254a26c454c9"},"vehicle_type_id":"4","last_reported":1719590963,"current_range_meters":31200,"station_id":"ce4bh2h2rcd13ifvqdh0","pricing_plan_id":"cebpf4jnsgd1na2vs0mg"},{"bike_id":"525223f8-115f-4fa6-9481-bd6c1e417cd2","system_id":"levelo_inurba_marseille","lat":43.294112,"lon":5.386343,"is_reserved":false,"is_disabled":false,"rental_uris":{"android":"levelo://app?vid=525223f8-115f-4fa6-9481-bd6c1e417cd2","ios":"levelo://app?vid=525223f8-115f-4fa6-9481-bd6c1e417cd2"},"vehicle_type_id":"4","last_reported":1719590963,"current_range_meters":27200,"station_id":"ce4bh2h2rcd13ifvqdh0","pricing_plan_id":"cebpf4jnsgd1na2vs0mg"},{"bike_id":"73243e59-595d-4310-9545-3877ba74ffbb","system_id":"levelo_inurba_marseille","lat":43.289184,"lon":5.366408,"is_reserved":false,"is_disabled":false,"rental_uris":{"android":"levelo://app?vid=73243e59-595d-4310-9545-3877ba74ffbb","ios":"levelo://app?vid=73243e59-595d-4310-9545-3877ba74ffbb"},"vehicle_type_id":"4","last_reported":1719590963,"current_range_meters":17600,"station_id":"ce4bhap2rcd13ifvqek0","pricing_plan_id":"cebpf4jnsgd1na2vs0mg"},{"bike_id":"1b04654d-1378-4476-99e1-1d398e0a7431","system_id":"levelo_inurba_marseille","lat":43.289468,"lon":5.363719,"is_reserved":false,"is_disabled":false,"rental_uris":{"android":"levelo://app?vid=1b04654d-1378-4476-99e1-1d398e0a7431","ios":"levelo://app?vid=1b04654d-1378-4476-99e1-1d398e0a7431"},"vehicle_type_id":"4","last_reported":1719590963,"current_range_meters":6800,"station_id":"ce4bhc92rcd13ifvqetg","pricing_plan_id":"cebpf4jnsgd1na2vs0mg"},{"bike_id":"3488ad98-92ca-43a4-b271-f15ef6cfeae4","system_id":"levelo_inurba_marseille","lat":43.294119,"lon":5.386378,"is_reserved":false,"is_disabled":false,"rental_uris":{"android":"levelo://app?vid=3488ad98-92ca-43a4-b271-f15ef6cfeae4","ios":"levelo://app?vid=3488ad98-92ca-43a4-b271-f15ef6cfeae4"},"vehicle_type_id":"4","last_reported":1719590963,"current_range_meters":0,"station_id":"ce4bh2h2rcd13ifvqdh0","pricing_plan_id":"cebpf4jnsgd1na2vs0mg"},{"bike_id":"1378b07c-0fbe-48c9-98ab-d85d73d60a60","system_id":"levelo_inurba_marseille","lat":43.289184,"lon":5.366408,"is_reserved":false,"is_disabled":false,"rental_uris":{"android":"levelo://app?vid=1378b07c-0fbe-48c9-98ab-d85d73d60a60","ios":"levelo://app?vid=1378b07c-0fbe-48c9-98ab-d85d73d60a60"},"vehicle_type_id":"4","last_reported":1719590963,"current_range_meters":4400,"station_id":"ce4bhap2rcd13ifvqek0","pricing_plan_id":"cebpf4jnsgd1na2vs0mg"},{"bike_id":"2600a56e-7d1a-4a27-a396-a6ce196a0aa6","system_id":"levelo_inurba_marseille","lat":43.289184,"lon":5.366408,"is_reserved":false,"is_disabled":false,"rental_uris":{"android":"levelo://app?vid=2600a56e-7d1a-4a27-a396-a6ce196a0aa6","ios":"levelo://app?vid=2600a56e-7d1a-4a27-a396-a6ce196a0aa6"},"vehicle_type_id":"4","last_reported":1719590963,"current_range_meters":2800,"station_id":"ce4bhap2rcd13ifvqek0","pricing_plan_id":"cebpf4jnsgd1na2vs0mg"},{"bike_id":"16769c72-ff16-4911-8ec3-60a2242be6a8","system_id":"levelo_inurba_marseille","lat":43.289468,"lon":5.363719,"is_reserved":false,"is_disabled":false,"rental_uris":{"android":"levelo://app?vid=16769c72-ff16-4911-8ec3-60a2242be6a8","ios":"levelo://app?vid=16769c72-ff16-4911-8ec3-60a2242be6a8"},"vehicle_type_id":"4","last_reported":1719590963,"current_range_meters":4400,"station_id":"ce4bhc92rcd13ifvqetg","pricing_plan_id":"cebpf4jnsgd1na2vs0mg"},{"bike_id":"c9c4912e-34a0-48cb-aa44-7df3f41fcd70","system_id":"levelo_inurba_marseille","lat":43.292644,"lon":5.384257,"is_reserved":false,"is_disabled":false,"rental_uris":{"android":"levelo://app?vid=c9c4912e-34a0-48cb-aa44-7df3f41fcd70","ios":"levelo://app?vid=c9c4912e-34a0-48cb-aa44-7df3f41fcd70"},"vehicle_type_id":"4","last_reported":1719590963,"current_range_meters":800,"station_id":"ce4bh692rcd13ifvqea0","pricing_plan_id":"cebpf4jnsgd1na2vs0mg"},{"bike_id":"b60739ca-a2cf-4a5b-934f-5d4297f08b67","system_id":"levelo_inurba_marseille","lat":43.292644,"lon":5.384257,"is_reserved":false,"is_disabled":false,"rental_uris":{"android":"levelo://app?vid=b60739ca-a2cf-4a5b-934f-5d4297f08b67","ios":"levelo://app?vid=b60739ca-a2cf-4a5b-934f-5d4297f08b67"},"vehicle_type_id":"4","last_reported":1719590963,"current_range_meters":10800,"station_id":"ce4bh692rcd13ifvqea0","pricing_plan_id":"cebpf4jnsgd1na2vs0mg"},{"bike_id":"1bb3a0e4-f6d5-4ef7-962c-928acc38e84a","system_id":"levelo_inurba_marseille","lat":43.292642,"lon":5.384254,"is_reserved":false,"is_disabled":false,"rental_uris":{"android":"levelo://app?vid=1bb3a0e4-f6d5-4ef7-962c-928acc38e84a","ios":"levelo://app?vid=1bb3a0e4-f6d5-4ef7-962c-928acc38e84a"},"vehicle_type_id":"4","last_reported":1719590963,"current_range_meters":0,"station_id":"ce4bh692rcd13ifvqea0","pricing_plan_id":"cebpf4jnsgd1na2vs0mg"},{"bike_id":"0abb6b22-a317-4f97-9c10-dc1a4e7b703e","system_id":"levelo_inurba_marseille","lat":43.29254,"lon":5.38448,"is_reserved":false,"is_disabled":false,"rental_uris":{"android":"levelo://app?vid=0abb6b22-a317-4f97-9c10-dc1a4e7b703e","ios":"levelo://app?vid=0abb6b22-a317-4f97-9c10-dc1a4e7b703e"},"vehicle_type_id":"4","last_reported":1719590963,"current_range_meters":0,"station_id":"ce4bh692rcd13ifvqea0","pricing_plan_id":"cebpf4jnsgd1na2vs0mg"},{"bike_id":"9dea2299-9235-4b3d-97ba-1a2827096143","system_id":"levelo_inurba_marseille","lat":43.29011,"lon":5.35609,"is_reserved":false,"is_disabled":false,"rental_uris":{"android":"levelo://app?vid=9dea2299-9235-4b3d-97ba-1a2827096143","ios":"levelo://app?vid=9dea2299-9235-4b3d-97ba-1a2827096143"},"vehicle_type_id":"4","last_reported":1719590963,"current_range_meters":0,"station_id":"ce4bhb92rcd13ifvqen0","pricing_plan_id":"cebpf4jnsgd1na2vs0mg"},{"bike_id":"caf818e8-7258-481b-a4db-dd7b8a580727","system_id":"levelo_inurba_marseille","lat":43.290103,"lon":5.356114,"is_reserved":false,"is_disabled":false,"rental_uris":{"android":"levelo://app?vid=caf818e8-7258-481b-a4db-dd7b8a580727","ios":"levelo://app?vid=caf818e8-7258-481b-a4db-dd7b8a580727"},"vehicle_type_id":"4","last_reported":1719590963,"current_range_meters":10400,"station_id":"ce4bhb92rcd13ifvqen0","pricing_plan_id":"cebpf4jnsgd1na2vs0mg"},{"bike_id":"be43ad91-946a-43fa-8624-693d6a0b621a","system_id":"levelo_inurba_marseille","lat":43.290103,"lon":5.356114,"is_reserved":false,"is_disabled":false,"rental_uris":{"android":"levelo://app?vid=be43ad91-946a-43fa-8624-693d6a0b621a","ios":"levelo://app?vid=be43ad91-946a-43fa-8624-693d6a0b621a"},"vehicle_type_id":"4","last_reported":1719590963,"current_range_meters":29200,"station_id":"ce4bhb92rcd13ifvqen0","pricing_plan_id":"cebpf4jnsgd1na2vs0mg"},{"bike_id":"18d28619-e006-4a4b-9864-9034b4204d39","system_id":"levelo_inurba_marseille","lat":43.290104,"lon":5.356111,"is_reserved":false,"is_disabled":false,"rental_uris":{"android":"levelo://app?vid=18d28619-e006-4a4b-9864-9034b4204d39","ios":"levelo://app?vid=18d28619-e006-4a4b-9864-9034b4204d39"},"vehicle_type_id":"4","last_reported":1719590963,"current_range_meters":1200,"station_id":"ce4bhb92rcd13ifvqen0","pricing_plan_id":"cebpf4jnsgd1na2vs0mg"},{"bike_id":"0229e047-2b83-4e8f-8999-5ff4db2f3709","system_id":"levelo_inurba_marseille","lat":43.290103,"lon":5.356114,"is_reserved":false,"is_disabled":false,"rental_uris":{"android":"levelo://app?vid=0229e047-2b83-4e8f-8999-5ff4db2f3709","ios":"levelo://app?vid=0229e047-2b83-4e8f-8999-5ff4db2f3709"},"vehicle_type_id":"4","last_reported":1719590963,"current_range_meters":9200,"station_id":"ce4bhb92rcd13ifvqen0","pricing_plan_id":"cebpf4jnsgd1na2vs0mg"},{"bike_id":"ad6889e2-5a7c-4be3-8b5d-cd4df4681a1f","system_id":"levelo_inurba_marseille","lat":43.290995,"lon":5.381361,"is_reserved":false,"is_disabled":false,"rental_uris":{"android":"levelo://app?vid=ad6889e2-5a7c-4be3-8b5d-cd4df4681a1f","ios":"levelo://app?vid=ad6889e2-5a7c-4be3-8b5d-cd4df4681a1f"},"vehicle_type_id":"4","last_reported":1719590963,"current_range_meters":0,"station_id":"ce4bh512rcd13ifvqe2g","pricing_plan_id":"cebpf4jnsgd1na2vs0mg"},{"bike_id":"b31d41fb-d7fe-4fdd-ab78-5e1323c9db6e","system_id":"levelo_inurba_marseille","lat":43.297814,"lon":5.393513,"is_reserved":false,"is_disabled":false,"rental_uris":{"android":"levelo://app?vid=b31d41fb-d7fe-4fdd-ab78-5e1323c9db6e","ios":"levelo://app?vid=b31d41fb-d7fe-4fdd-ab78-5e1323c9db6e"},"vehicle_type_id":"4","last_reported":1719590963,"current_range_meters":25600,"station_id":"chh1huq6cuj3fo74tm60","pricing_plan_id":"cebpf4jnsgd1na2vs0mg"},{"bike_id":"1bac0dfa-cab8-4f4c-894c-5e4c033c89a4","system_id":"levelo_inurba_marseille","lat":43.297814,"lon":5.393513,"is_reserved":false,"is_disabled":false,"rental_uris":{"android":"levelo://app?vid=1bac0dfa-cab8-4f4c-894c-5e4c033c89a4","ios":"levelo://app?vid=1bac0dfa-cab8-4f4c-894c-5e4c033c89a4"},"vehicle_type_id":"4","last_reported":1719590963,"current_range_meters":18800,"station_id":"chh1huq6cuj3fo74tm60","pricing_plan_id":"cebpf4jnsgd1na2vs0mg"},{"bike_id":"2f77a11b-d04a-4e92-a97a-13c0ee5cdcf3","system_id":"levelo_inurba_marseille","lat":43.29779,"lon":5.39348,"is_reserved":false,"is_disabled":false,"rental_uris":{"android":"levelo://app?vid=2f77a11b-d04a-4e92-a97a-13c0ee5cdcf3","ios":"levelo://app?vid=2f77a11b-d04a-4e92-a97a-13c0ee5cdcf3"},"vehicle_type_id":"4","last_reported":1719590963,"current_range_meters":17600,"station_id":"","pricing_plan_id":"cebpf4jnsgd1na2vs0mg"},{"bike_id":"d89fc60b-94ba-476d-ae1a-a07e4ee60aac","system_id":"levelo_inurba_marseille","lat":43.330442,"lon":5.389148,"is_reserved":false,"is_disabled":false,"rental_uris":{"android":"levelo://app?vid=d89fc60b-94ba-476d-ae1a-a07e4ee60aac","ios":"levelo://app?vid=d89fc60b-94ba-476d-ae1a-a07e4ee60aac"},"vehicle_type_id":"4","last_reported":1719590963,"current_range_meters":18000,"station_id":"ce4bhr92rcd13ifvqhrg","pricing_plan_id":"cebpf4jnsgd1na2vs0mg"},{"bike_id":"42564510-870e-40a8-a546-4848a6ae7153","system_id":"levelo_inurba_marseille","lat":43.297815,"lon":5.393548,"is_reserved":false,"is_disabled":false,"rental_uris":{"android":"levelo://app?vid=42564510-870e-40a8-a546-4848a6ae7153","ios":"levelo://app?vid=42564510-870e-40a8-a546-4848a6ae7153"},"vehicle_type_id":"4","last_reported":1719590963,"current_range_meters":16800,"station_id":"chh1huq6cuj3fo74tm60","pricing_plan_id":"cebpf4jnsgd1na2vs0mg"},{"bike_id":"a9f7f336-1673-423f-8092-c6a97be12c18","system_id":"levelo_inurba_marseille","lat":43.330442,"lon":5.389148,"is_reserved":false,"is_disabled":false,"rental_uris":{"android":"levelo://app?vid=a9f7f336-1673-423f-8092-c6a97be12c18","ios":"levelo://app?vid=a9f7f336-1673-423f-8092-c6a97be12c18"},"vehicle_type_id":"4","last_reported":1719590963,"current_range_meters":18800,"station_id":"ce4bhr92rcd13ifvqhrg","pricing_plan_id":"cebpf4jnsgd1na2vs0mg"},{"bike_id":"c5ac4983-d5ca-4158-b0d7-8f1d2a5f45c1","system_id":"levelo_inurba_marseille","lat":43.330442,"lon":5.389148,"is_reserved":false,"is_disabled":false,"rental_uris":{"android":"levelo://app?vid=c5ac4983-d5ca-4158-b0d7-8f1d2a5f45c1","ios":"levelo://app?vid=c5ac4983-d5ca-4158-b0d7-8f1d2a5f45c1"},"vehicle_type_id":"4","last_reported":1719590963,"current_range_meters":14000,"station_id":"ce4bhr92rcd13ifvqhrg","pricing_plan_id":"cebpf4jnsgd1na2vs0mg"},{"bike_id":"5ed543c6-4c29-4c5c-a3aa-9369f041f4be","system_id":"levelo_inurba_marseille","lat":43.295169,"lon":5.390426,"is_reserved":false,"is_disabled":false,"rental_uris":{"android":"levelo://app?vid=5ed543c6-4c29-4c5c-a3aa-9369f041f4be","ios":"levelo://app?vid=5ed543c6-4c29-4c5c-a3aa-9369f041f4be"},"vehicle_type_id":"4","last_reported":1719590963,"current_range_meters":12000,"station_id":"ce4bh3p2rcd13ifvqdp0","pricing_plan_id":"cebpf4jnsgd1na2vs0mg"},{"bike_id":"6cb841b1-e3d8-48e6-a5b9-c65a2f18b91e","system_id":"levelo_inurba_marseille","lat":43.31059,"lon":5.40098,"is_reserved":false,"is_disabled":false,"rental_uris":{"android":"levelo://app?vid=6cb841b1-e3d8-48e6-a5b9-c65a2f18b91e","ios":"levelo://app?vid=6cb841b1-e3d8-48e6-a5b9-c65a2f18b91e"},"vehicle_type_id":"4","last_reported":1719590963,"current_range_meters":5200,"station_id":"","pricing_plan_id":"cebpf4jnsgd1na2vs0mg"},{"bike_id":"bb520159-642c-4fa3-bf9d-d0aec9c4aac0","system_id":"levelo_inurba_marseille","lat":43.28856,"lon":5.358371,"is_reserved":false,"is_disabled":false,"rental_uris":{"android":"levelo://app?vid=bb520159-642c-4fa3-bf9d-d0aec9c4aac0","ios":"levelo://app?vid=bb520159-642c-4fa3-bf9d-d0aec9c4aac0"},"vehicle_type_id":"4","last_reported":1719590963,"current_range_meters":0,"station_id":"ce4bhb12rcd13ifvqem0","pricing_plan_id":"cebpf4jnsgd1na2vs0mg"},{"bike_id":"0cbeda5b-d3e7-4f54-934f-08101fcd54ab","system_id":"levelo_inurba_marseille","lat":43.28856,"lon":5.358371,"is_reserved":false,"is_disabled":false,"rental_uris":{"android":"levelo://app?vid=0cbeda5b-d3e7-4f54-934f-08101fcd54ab","ios":"levelo://app?vid=0cbeda5b-d3e7-4f54-934f-08101fcd54ab"},"vehicle_type_id":"4","last_reported":1719590963,"current_range_meters":25200,"station_id":"ce4bhb12rcd13ifvqem0","pricing_plan_id":"cebpf4jnsgd1na2vs0mg"},{"bike_id":"f5b0f49f-8dd3-4af1-b657-0b09627b471f","system_id":"levelo_inurba_marseille","lat":43.3104,"lon":5.40133,"is_reserved":false,"is_disabled":false,"rental_uris":{"android":"levelo://app?vid=f5b0f49f-8dd3-4af1-b657-0b09627b471f","ios":"levelo://app?vid=f5b0f49f-8dd3-4af1-b657-0b09627b471f"},"vehicle_type_id":"4","last_reported":1719590963,"current_range_meters":26000,"station_id":"","pricing_plan_id":"cebpf4jnsgd1na2vs0mg"},{"bike_id":"11da98ef-d0c3-43c2-a7e4-890f2c23ccbc","system_id":"levelo_inurba_marseille","lat":43.337359,"lon":5.374673,"is_reserved":false,"is_disabled":false,"rental_uris":{"android":"levelo://app?vid=11da98ef-d0c3-43c2-a7e4-890f2c23ccbc","ios":"levelo://app?vid=11da98ef-d0c3-43c2-a7e4-890f2c23ccbc"},"vehicle_type_id":"4","last_reported":1719590963,"current_range_meters":6800,"station_id":"","pricing_plan_id":"cebpf4jnsgd1na2vs0mg"},{"bike_id":"bb65fb70-df82-47d8-b27f-438620895501","system_id":"levelo_inurba_marseille","lat":43.33735,"lon":5.37474,"is_reserved":false,"is_disabled":false,"rental_uris":{"android":"levelo://app?vid=bb65fb70-df82-47d8-b27f-438620895501","ios":"levelo://app?vid=bb65fb70-df82-47d8-b27f-438620895501"},"vehicle_type_id":"4","last_reported":1719590963,"current_range_meters":13600,"station_id":"","pricing_plan_id":"cebpf4jnsgd1na2vs0mg"},{"bike_id":"8043cc8a-f702-4e45-9523-d56dfd7ee432","system_id":"levelo_inurba_marseille","lat":43.337383,"lon":5.374716,"is_reserved":false,"is_disabled":false,"rental_uris":{"android":"levelo://app?vid=8043cc8a-f702-4e45-9523-d56dfd7ee432","ios":"levelo://app?vid=8043cc8a-f702-4e45-9523-d56dfd7ee432"},"vehicle_type_id":"0","last_reported":1719590963,"current_range_meters":17600,"station_id":"","pricing_plan_id":"cebpf4jnsgd1na2vs0mg"},{"bike_id":"c25a3696-e1cc-43ba-8656-23d4a118ee2e","system_id":"levelo_inurba_marseille","lat":43.337388,"lon":5.374716,"is_reserved":false,"is_disabled":false,"rental_uris":{"android":"levelo://app?vid=c25a3696-e1cc-43ba-8656-23d4a118ee2e","ios":"levelo://app?vid=c25a3696-e1cc-43ba-8656-23d4a118ee2e"},"vehicle_type_id":"4","last_reported":1719590963,"current_range_meters":10800,"station_id":"","pricing_plan_id":"cebpf4jnsgd1na2vs0mg"},{"bike_id":"bf709b1a-1e81-4c69-a36a-dfef45d67fee","system_id":"levelo_inurba_marseille","lat":43.337391,"lon":5.374707,"is_reserved":false,"is_disabled":false,"rental_uris":{"android":"levelo://app?vid=bf709b1a-1e81-4c69-a36a-dfef45d67fee","ios":"levelo://app?vid=bf709b1a-1e81-4c69-a36a-dfef45d67fee"},"vehicle_type_id":"4","last_reported":1719590963,"current_range_meters":12800,"station_id":"","pricing_plan_id":"cebpf4jnsgd1na2vs0mg"},{"bike_id":"2a0fb516-a307-4861-b129-104556c40f00","system_id":"levelo_inurba_marseille","lat":43.337404,"lon":5.374671,"is_reserved":false,"is_disabled":false,"rental_uris":{"android":"levelo://app?vid=2a0fb516-a307-4861-b129-104556c40f00","ios":"levelo://app?vid=2a0fb516-a307-4861-b129-104556c40f00"},"vehicle_type_id":"0","last_reported":1719590963,"current_range_meters":10400,"station_id":"","pricing_plan_id":"cebpf4jnsgd1na2vs0mg"},{"bike_id":"aa527c2c-31a5-479b-bfbe-daae0d9bb514","system_id":"levelo_inurba_marseille","lat":43.337411,"lon":5.374639,"is_reserved":false,"is_disabled":false,"rental_uris":{"android":"levelo://app?vid=aa527c2c-31a5-479b-bfbe-daae0d9bb514","ios":"levelo://app?vid=aa527c2c-31a5-479b-bfbe-daae0d9bb514"},"vehicle_type_id":"0","last_reported":1719590963,"current_range_meters":8000,"station_id":"","pricing_plan_id":"cebpf4jnsgd1na2vs0mg"},{"bike_id":"9b81675f-44cd-4cbe-9733-2d36a516d8f7","system_id":"levelo_inurba_marseille","lat":43.337416,"lon":5.374689,"is_reserved":false,"is_disabled":false,"rental_uris":{"android":"levelo://app?vid=9b81675f-44cd-4cbe-9733-2d36a516d8f7","ios":"levelo://app?vid=9b81675f-44cd-4cbe-9733-2d36a516d8f7"},"vehicle_type_id":"0","last_reported":1719590963,"current_range_meters":20400,"station_id":"","pricing_plan_id":"cebpf4jnsgd1na2vs0mg"},{"bike_id":"1fd63b3d-5f8a-401a-a876-df55407d72d2","system_id":"levelo_inurba_marseille","lat":43.309371,"lon":5.401449,"is_reserved":false,"is_disabled":false,"rental_uris":{"android":"levelo://app?vid=1fd63b3d-5f8a-401a-a876-df55407d72d2","ios":"levelo://app?vid=1fd63b3d-5f8a-401a-a876-df55407d72d2"},"vehicle_type_id":"4","last_reported":1719590963,"current_range_meters":27600,"station_id":"ce4bgvp2rcd13ifvqct0","pricing_plan_id":"cebpf4jnsgd1na2vs0mg"},{"bike_id":"70df0eff-7892-4d64-8b33-f9b25d3cdb77","system_id":"levelo_inurba_marseille","lat":43.337426,"lon":5.374672,"is_reserved":false,"is_disabled":false,"rental_uris":{"android":"levelo://app?vid=70df0eff-7892-4d64-8b33-f9b25d3cdb77","ios":"levelo://app?vid=70df0eff-7892-4d64-8b33-f9b25d3cdb77"},"vehicle_type_id":"4","last_reported":1719590963,"current_range_meters":12800,"station_id":"","pricing_plan_id":"cebpf4jnsgd1na2vs0mg"},{"bike_id":"cbff8e2e-87ad-4d9e-a09d-9b1fba1c0aeb","system_id":"levelo_inurba_marseille","lat":43.337424,"lon":5.374709,"is_reserved":false,"is_disabled":false,"rental_uris":{"android":"levelo://app?vid=cbff8e2e-87ad-4d9e-a09d-9b1fba1c0aeb","ios":"levelo://app?vid=cbff8e2e-87ad-4d9e-a09d-9b1fba1c0aeb"},"vehicle_type_id":"0","last_reported":1719590963,"current_range_meters":18400,"station_id":"","pricing_plan_id":"cebpf4jnsgd1na2vs0mg"},{"bike_id":"821b8253-de26-4f2e-b4cb-e505a8bc636f","system_id":"levelo_inurba_marseille","lat":43.309371,"lon":5.401449,"is_reserved":false,"is_disabled":false,"rental_uris":{"android":"levelo://app?vid=821b8253-de26-4f2e-b4cb-e505a8bc636f","ios":"levelo://app?vid=821b8253-de26-4f2e-b4cb-e505a8bc636f"},"vehicle_type_id":"4","last_reported":1719590963,"current_range_meters":3200,"station_id":"ce4bgvp2rcd13ifvqct0","pricing_plan_id":"cebpf4jnsgd1na2vs0mg"},{"bike_id":"985eda3a-8205-4c72-8b0d-a44593dd15b5","system_id":"levelo_inurba_marseille","lat":43.337444,"lon":5.374693,"is_reserved":false,"is_disabled":false,"rental_uris":{"android":"levelo://app?vid=985eda3a-8205-4c72-8b0d-a44593dd15b5","ios":"levelo://app?vid=985eda3a-8205-4c72-8b0d-a44593dd15b5"},"vehicle_type_id":"0","last_reported":1719590963,"current_range_meters":11600,"station_id":"","pricing_plan_id":"cebpf4jnsgd1na2vs0mg"},{"bike_id":"0e2f6f1b-bce7-497e-adaf-ea3f572aa753","system_id":"levelo_inurba_marseille","lat":43.31268,"lon":5.40179,"is_reserved":false,"is_disabled":false,"rental_uris":{"android":"levelo://app?vid=0e2f6f1b-bce7-497e-adaf-ea3f572aa753","ios":"levelo://app?vid=0e2f6f1b-bce7-497e-adaf-ea3f572aa753"},"vehicle_type_id":"4","last_reported":1719590963,"current_range_meters":1200,"station_id":"ce4bh092rcd13ifvqd30","pricing_plan_id":"cebpf4jnsgd1na2vs0mg"},{"bike_id":"b0e1489e-7244-4312-ae7b-9f36aa094c9c","system_id":"levelo_inurba_marseille","lat":43.309371,"lon":5.401449,"is_reserved":false,"is_disabled":false,"rental_uris":{"android":"levelo://app?vid=b0e1489e-7244-4312-ae7b-9f36aa094c9c","ios":"levelo://app?vid=b0e1489e-7244-4312-ae7b-9f36aa094c9c"},"vehicle_type_id":"4","last_reported":1719590963,"current_range_meters":2400,"station_id":"ce4bgvp2rcd13ifvqct0","pricing_plan_id":"cebpf4jnsgd1na2vs0mg"},{"bike_id":"bd9a6c26-2db3-4e30-92c7-c85ae97147aa","system_id":"levelo_inurba_marseille","lat":43.337537,"lon":5.37452,"is_reserved":false,"is_disabled":false,"rental_uris":{"android":"levelo://app?vid=bd9a6c26-2db3-4e30-92c7-c85ae97147aa","ios":"levelo://app?vid=bd9a6c26-2db3-4e30-92c7-c85ae97147aa"},"vehicle_type_id":"0","last_reported":1719590963,"current_range_meters":22400,"station_id":"","pricing_plan_id":"cebpf4jnsgd1na2vs0mg"},{"bike_id":"ecaa629b-8d5a-4e34-8919-ca0663573055","system_id":"levelo_inurba_marseille","lat":43.309371,"lon":5.401449,"is_reserved":false,"is_disabled":false,"rental_uris":{"android":"levelo://app?vid=ecaa629b-8d5a-4e34-8919-ca0663573055","ios":"levelo://app?vid=ecaa629b-8d5a-4e34-8919-ca0663573055"},"vehicle_type_id":"4","last_reported":1719590963,"current_range_meters":18400,"station_id":"ce4bgvp2rcd13ifvqct0","pricing_plan_id":"cebpf4jnsgd1na2vs0mg"},{"bike_id":"569e9d29-bf0a-4e7b-be92-97e5f61f7c87","system_id":"levelo_inurba_marseille","lat":43.337574,"lon":5.374407,"is_reserved":false,"is_disabled":false,"rental_uris":{"android":"levelo://app?vid=569e9d29-bf0a-4e7b-be92-97e5f61f7c87","ios":"levelo://app?vid=569e9d29-bf0a-4e7b-be92-97e5f61f7c87"},"vehicle_type_id":"4","last_reported":1719590963,"current_range_meters":18000,"station_id":"","pricing_plan_id":"cebpf4jnsgd1na2vs0mg"},{"bike_id":"92d7601a-bb46-40ba-85b6-c47996d8ef76","system_id":"levelo_inurba_marseille","lat":43.312609,"lon":5.401662,"is_reserved":false,"is_disabled":false,"rental_uris":{"android":"levelo://app?vid=92d7601a-bb46-40ba-85b6-c47996d8ef76","ios":"levelo://app?vid=92d7601a-bb46-40ba-85b6-c47996d8ef76"},"vehicle_type_id":"4","last_reported":1719590963,"current_range_meters":11600,"station_id":"ce4bh092rcd13ifvqd30","pricing_plan_id":"cebpf4jnsgd1na2vs0mg"},{"bike_id":"43f7bf83-ea9e-4332-b362-03a974949e40","system_id":"levelo_inurba_marseille","lat":43.33756,"lon":5.37471,"is_reserved":false,"is_disabled":false,"rental_uris":{"android":"levelo://app?vid=43f7bf83-ea9e-4332-b362-03a974949e40","ios":"levelo://app?vid=43f7bf83-ea9e-4332-b362-03a974949e40"},"vehicle_type_id":"4","last_reported":1719590963,"current_range_meters":13600,"station_id":"","pricing_plan_id":"cebpf4jnsgd1na2vs0mg"},{"bike_id":"2f2e746c-746f-492e-aac4-82e670579d44","system_id":"levelo_inurba_marseille","lat":43.293249,"lon":5.371578,"is_reserved":false,"is_disabled":false,"rental_uris":{"android":"levelo://app?vid=2f2e746c-746f-492e-aac4-82e670579d44","ios":"levelo://app?vid=2f2e746c-746f-492e-aac4-82e670579d44"},"vehicle_type_id":"4","last_reported":1719590963,"current_range_meters":0,"station_id":"ce4bgh92rcd13ifvqb40","pricing_plan_id":"cebpf4jnsgd1na2vs0mg"},{"bike_id":"e0aecc37-2e1f-4dfa-9557-cb990181ecc4","system_id":"levelo_inurba_marseille","lat":43.301117,"lon":5.398795,"is_reserved":false,"is_disabled":false,"rental_uris":{"android":"levelo://app?vid=e0aecc37-2e1f-4dfa-9557-cb990181ecc4","ios":"levelo://app?vid=e0aecc37-2e1f-4dfa-9557-cb990181ecc4"},"vehicle_type_id":"4","last_reported":1719590963,"current_range_meters":20800,"station_id":"ce4bh0h2rcd13ifvqd40","pricing_plan_id":"cebpf4jnsgd1na2vs0mg"},{"bike_id":"8d05dceb-9608-453b-a779-7f26e99210be","system_id":"levelo_inurba_marseille","lat":43.301117,"lon":5.398795,"is_reserved":false,"is_disabled":false,"rental_uris":{"android":"levelo://app?vid=8d05dceb-9608-453b-a779-7f26e99210be","ios":"levelo://app?vid=8d05dceb-9608-453b-a779-7f26e99210be"},"vehicle_type_id":"4","last_reported":1719590963,"current_range_meters":0,"station_id":"ce4bh0h2rcd13ifvqd40","pricing_plan_id":"cebpf4jnsgd1na2vs0mg"},{"bike_id":"037f6b18-d720-4947-aec5-d9208522f751","system_id":"levelo_inurba_marseille","lat":43.301117,"lon":5.398795,"is_reserved":false,"is_disabled":false,"rental_uris":{"android":"levelo://app?vid=037f6b18-d720-4947-aec5-d9208522f751","ios":"levelo://app?vid=037f6b18-d720-4947-aec5-d9208522f751"},"vehicle_type_id":"4","last_reported":1719590963,"current_range_meters":22000,"station_id":"ce4bh0h2rcd13ifvqd40","pricing_plan_id":"cebpf4jnsgd1na2vs0mg"},{"bike_id":"e04aa3d2-af97-4ba0-b792-ce8de8ea6acd","system_id":"levelo_inurba_marseille","lat":43.28727,"lon":5.36078,"is_reserved":false,"is_disabled":false,"rental_uris":{"android":"levelo://app?vid=e04aa3d2-af97-4ba0-b792-ce8de8ea6acd","ios":"levelo://app?vid=e04aa3d2-af97-4ba0-b792-ce8de8ea6acd"},"vehicle_type_id":"4","last_reported":1719590963,"current_range_meters":24000,"station_id":"cki0cbj6b192h4jlfktg","pricing_plan_id":"cebpf4jnsgd1na2vs0mg"},{"bike_id":"1a7c9405-8c09-42a1-bdf1-eb4a40178784","system_id":"levelo_inurba_marseille","lat":43.28723,"lon":5.36078,"is_reserved":false,"is_disabled":false,"rental_uris":{"android":"levelo://app?vid=1a7c9405-8c09-42a1-bdf1-eb4a40178784","ios":"levelo://app?vid=1a7c9405-8c09-42a1-bdf1-eb4a40178784"},"vehicle_type_id":"4","last_reported":1719590963,"current_range_meters":5200,"station_id":"cki0cbj6b192h4jlfktg","pricing_plan_id":"cebpf4jnsgd1na2vs0mg"},{"bike_id":"6c7ff5a4-5f68-49f9-858f-6d5f24a98299","system_id":"levelo_inurba_marseille","lat":43.273609,"lon":5.362708,"is_reserved":false,"is_disabled":false,"rental_uris":{"android":"levelo://app?vid=6c7ff5a4-5f68-49f9-858f-6d5f24a98299","ios":"levelo://app?vid=6c7ff5a4-5f68-49f9-858f-6d5f24a98299"},"vehicle_type_id":"4","last_reported":1719590963,"current_range_meters":19600,"station_id":"ce4bhbh2rcd13ifvqeo0","pricing_plan_id":"cebpf4jnsgd1na2vs0mg"},{"bike_id":"930c4834-9202-40f1-9f9c-3c79749afabf","system_id":"levelo_inurba_marseille","lat":43.32637,"lon":5.39754,"is_reserved":false,"is_disabled":false,"rental_uris":{"android":"levelo://app?vid=930c4834-9202-40f1-9f9c-3c79749afabf","ios":"levelo://app?vid=930c4834-9202-40f1-9f9c-3c79749afabf"},"vehicle_type_id":"4","last_reported":1719590963,"current_range_meters":12400,"station_id":"","pricing_plan_id":"cebpf4jnsgd1na2vs0mg"},{"bike_id":"1aa58cd9-4d9b-4fbf-b9c2-43a14531b6dd","system_id":"levelo_inurba_marseille","lat":43.298681,"lon":5.397225,"is_reserved":false,"is_disabled":false,"rental_uris":{"android":"levelo://app?vid=1aa58cd9-4d9b-4fbf-b9c2-43a14531b6dd","ios":"levelo://app?vid=1aa58cd9-4d9b-4fbf-b9c2-43a14531b6dd"},"vehicle_type_id":"4","last_reported":1719590963,"current_range_meters":10400,"station_id":"ce4bh0h2rcd13ifvqd50","pricing_plan_id":"cebpf4jnsgd1na2vs0mg"},{"bike_id":"e0a26fe1-e3d2-4c45-9901-e66372e2d669","system_id":"levelo_inurba_marseille","lat":43.298681,"lon":5.397225,"is_reserved":false,"is_disabled":false,"rental_uris":{"android":"levelo://app?vid=e0a26fe1-e3d2-4c45-9901-e66372e2d669","ios":"levelo://app?vid=e0a26fe1-e3d2-4c45-9901-e66372e2d669"},"vehicle_type_id":"4","last_reported":1719590963,"current_range_meters":12400,"station_id":"ce4bh0h2rcd13ifvqd50","pricing_plan_id":"cebpf4jnsgd1na2vs0mg"},{"bike_id":"95538550-51c7-4764-bd31-05fc69ab28b6","system_id":"levelo_inurba_marseille","lat":43.286591,"lon":5.363346,"is_reserved":false,"is_disabled":false,"rental_uris":{"android":"levelo://app?vid=95538550-51c7-4764-bd31-05fc69ab28b6","ios":"levelo://app?vid=95538550-51c7-4764-bd31-05fc69ab28b6"},"vehicle_type_id":"4","last_reported":1719590963,"current_range_meters":3200,"station_id":"ce4bhah2rcd13ifvqej0","pricing_plan_id":"cebpf4jnsgd1na2vs0mg"},{"bike_id":"e0dc4f65-5916-4263-a4ee-4f1e85f64159","system_id":"levelo_inurba_marseille","lat":43.286593,"lon":5.363346,"is_reserved":false,"is_disabled":false,"rental_uris":{"android":"levelo://app?vid=e0dc4f65-5916-4263-a4ee-4f1e85f64159","ios":"levelo://app?vid=e0dc4f65-5916-4263-a4ee-4f1e85f64159"},"vehicle_type_id":"4","last_reported":1719590963,"current_range_meters":5600,"station_id":"ce4bhah2rcd13ifvqej0","pricing_plan_id":"cebpf4jnsgd1na2vs0mg"},{"bike_id":"11f63010-45a7-4d8b-8884-71c8fd909845","system_id":"levelo_inurba_marseille","lat":43.295196,"lon":5.39397,"is_reserved":false,"is_disabled":false,"rental_uris":{"android":"levelo://app?vid=11f63010-45a7-4d8b-8884-71c8fd909845","ios":"levelo://app?vid=11f63010-45a7-4d8b-8884-71c8fd909845"},"vehicle_type_id":"4","last_reported":1719590963,"current_range_meters":0,"station_id":"ce4bh292rcd13ifvqdf0","pricing_plan_id":"cebpf4jnsgd1na2vs0mg"},{"bike_id":"128e7343-9cc3-4e04-a759-13fca78e4c18","system_id":"levelo_inurba_marseille","lat":43.298681,"lon":5.397225,"is_reserved":false,"is_disabled":false,"rental_uris":{"android":"levelo://app?vid=128e7343-9cc3-4e04-a759-13fca78e4c18","ios":"levelo://app?vid=128e7343-9cc3-4e04-a759-13fca78e4c18"},"vehicle_type_id":"4","last_reported":1719590963,"current_range_meters":15200,"station_id":"ce4bh0h2rcd13ifvqd50","pricing_plan_id":"cebpf4jnsgd1na2vs0mg"},{"bike_id":"64afbb89-a73f-4c0f-ba4e-0c90f9d043d4","system_id":"levelo_inurba_marseille","lat":43.295194,"lon":5.39397,"is_reserved":false,"is_disabled":false,"rental_uris":{"android":"levelo://app?vid=64afbb89-a73f-4c0f-ba4e-0c90f9d043d4","ios":"levelo://app?vid=64afbb89-a73f-4c0f-ba4e-0c90f9d043d4"},"vehicle_type_id":"4","last_reported":1719590963,"current_range_meters":0,"station_id":"ce4bh292rcd13ifvqdf0","pricing_plan_id":"cebpf4jnsgd1na2vs0mg"},{"bike_id":"53f67a92-2c46-46c9-9ace-e391bc82d659","system_id":"levelo_inurba_marseille","lat":43.295194,"lon":5.39397,"is_reserved":false,"is_disabled":false,"rental_uris":{"android":"levelo://app?vid=53f67a92-2c46-46c9-9ace-e391bc82d659","ios":"levelo://app?vid=53f67a92-2c46-46c9-9ace-e391bc82d659"},"vehicle_type_id":"4","last_reported":1719590963,"current_range_meters":7200,"station_id":"ce4bh292rcd13ifvqdf0","pricing_plan_id":"cebpf4jnsgd1na2vs0mg"},{"bike_id":"551beff2-8128-4df4-8c49-097a4f39c32a","system_id":"levelo_inurba_marseille","lat":43.295196,"lon":5.39397,"is_reserved":false,"is_disabled":false,"rental_uris":{"android":"levelo://app?vid=551beff2-8128-4df4-8c49-097a4f39c32a","ios":"levelo://app?vid=551beff2-8128-4df4-8c49-097a4f39c32a"},"vehicle_type_id":"4","last_reported":1719590963,"current_range_meters":6400,"station_id":"ce4bh292rcd13ifvqdf0","pricing_plan_id":"cebpf4jnsgd1na2vs0mg"},{"bike_id":"720a2cba-e83b-484f-a802-e7a19108c0dd","system_id":"levelo_inurba_marseille","lat":43.295194,"lon":5.39397,"is_reserved":false,"is_disabled":false,"rental_uris":{"android":"levelo://app?vid=720a2cba-e83b-484f-a802-e7a19108c0dd","ios":"levelo://app?vid=720a2cba-e83b-484f-a802-e7a19108c0dd"},"vehicle_type_id":"4","last_reported":1719590963,"current_range_meters":30000,"station_id":"ce4bh292rcd13ifvqdf0","pricing_plan_id":"cebpf4jnsgd1na2vs0mg"},{"bike_id":"4aa737ef-6ff5-4eea-9806-75f59c81c986","system_id":"levelo_inurba_marseille","lat":43.290345,"lon":5.38646,"is_reserved":false,"is_disabled":false,"rental_uris":{"android":"levelo://app?vid=4aa737ef-6ff5-4eea-9806-75f59c81c986","ios":"levelo://app?vid=4aa737ef-6ff5-4eea-9806-75f59c81c986"},"vehicle_type_id":"4","last_reported":1719590963,"current_range_meters":15200,"station_id":"ce4bh4p2rcd13ifvqe0g","pricing_plan_id":"cebpf4jnsgd1na2vs0mg"},{"bike_id":"79f52058-744d-43d9-8139-b35aee6268c3","system_id":"levelo_inurba_marseille","lat":43.289307,"lon":5.38406,"is_reserved":false,"is_disabled":false,"rental_uris":{"android":"levelo://app?vid=79f52058-744d-43d9-8139-b35aee6268c3","ios":"levelo://app?vid=79f52058-744d-43d9-8139-b35aee6268c3"},"vehicle_type_id":"4","last_reported":1719590963,"current_range_meters":26400,"station_id":"ce4bh612rcd13ifvqe6g","pricing_plan_id":"cebpf4jnsgd1na2vs0mg"},{"bike_id":"8418fa31-4680-46c8-b8cf-73846e27c9e6","system_id":"levelo_inurba_marseille","lat":43.290345,"lon":5.38646,"is_reserved":false,"is_disabled":false,"rental_uris":{"android":"levelo://app?vid=8418fa31-4680-46c8-b8cf-73846e27c9e6","ios":"levelo://app?vid=8418fa31-4680-46c8-b8cf-73846e27c9e6"},"vehicle_type_id":"4","last_reported":1719590963,"current_range_meters":4000,"station_id":"ce4bh4p2rcd13ifvqe0g","pricing_plan_id":"cebpf4jnsgd1na2vs0mg"},{"bike_id":"f20dafe2-c0d9-4d06-b53e-5a5e79d5a0e6","system_id":"levelo_inurba_marseille","lat":43.290336,"lon":5.386425,"is_reserved":false,"is_disabled":false,"rental_uris":{"android":"levelo://app?vid=f20dafe2-c0d9-4d06-b53e-5a5e79d5a0e6","ios":"levelo://app?vid=f20dafe2-c0d9-4d06-b53e-5a5e79d5a0e6"},"vehicle_type_id":"4","last_reported":1719590963,"current_range_meters":17600,"station_id":"ce4bh4p2rcd13ifvqe0g","pricing_plan_id":"cebpf4jnsgd1na2vs0mg"},{"bike_id":"3552912d-f838-4ecb-b0e3-80839b50c314","system_id":"levelo_inurba_marseille","lat":43.302759,"lon":5.400793,"is_reserved":false,"is_disabled":false,"rental_uris":{"android":"levelo://app?vid=3552912d-f838-4ecb-b0e3-80839b50c314","ios":"levelo://app?vid=3552912d-f838-4ecb-b0e3-80839b50c314"},"vehicle_type_id":"4","last_reported":1719590963,"current_range_meters":6400,"station_id":"ce4bgvh2rcd13ifvqcs0","pricing_plan_id":"cebpf4jnsgd1na2vs0mg"},{"bike_id":"bd16d103-3d91-468d-9e6e-b8ffc815dcd0","system_id":"levelo_inurba_marseille","lat":43.287185,"lon":5.379373,"is_reserved":false,"is_disabled":false,"rental_uris":{"android":"levelo://app?vid=bd16d103-3d91-468d-9e6e-b8ffc815dcd0","ios":"levelo://app?vid=bd16d103-3d91-468d-9e6e-b8ffc815dcd0"},"vehicle_type_id":"4","last_reported":1719590963,"current_range_meters":0,"station_id":"ce4bh9p2rcd13ifvqec0","pricing_plan_id":"cebpf4jnsgd1na2vs0mg"},{"bike_id":"40f8bc79-3f60-4080-a81f-96e3803ca617","system_id":"levelo_inurba_marseille","lat":43.289445,"lon":5.387197,"is_reserved":false,"is_disabled":false,"rental_uris":{"android":"levelo://app?vid=40f8bc79-3f60-4080-a81f-96e3803ca617","ios":"levelo://app?vid=40f8bc79-3f60-4080-a81f-96e3803ca617"},"vehicle_type_id":"4","last_reported":1719590963,"current_range_meters":1200,"station_id":"","pricing_plan_id":"cebpf4jnsgd1na2vs0mg"},{"bike_id":"7ed2b4ec-a821-4289-a9ef-29c04d6031d4","system_id":"levelo_inurba_marseille","lat":43.316828,"lon":5.404723,"is_reserved":false,"is_disabled":false,"rental_uris":{"android":"levelo://app?vid=7ed2b4ec-a821-4289-a9ef-29c04d6031d4","ios":"levelo://app?vid=7ed2b4ec-a821-4289-a9ef-29c04d6031d4"},"vehicle_type_id":"4","last_reported":1719590963,"current_range_meters":7600,"station_id":"ce4bh012rcd13ifvqd00","pricing_plan_id":"cebpf4jnsgd1na2vs0mg"},{"bike_id":"deab3dab-dda8-45c2-9e5a-3a7245bab61e","system_id":"levelo_inurba_marseille","lat":43.291994,"lon":5.392907,"is_reserved":false,"is_disabled":false,"rental_uris":{"android":"levelo://app?vid=deab3dab-dda8-45c2-9e5a-3a7245bab61e","ios":"levelo://app?vid=deab3dab-dda8-45c2-9e5a-3a7245bab61e"},"vehicle_type_id":"4","last_reported":1719590963,"current_range_meters":5600,"station_id":"ce4bh192rcd13ifvqdd0","pricing_plan_id":"cebpf4jnsgd1na2vs0mg"},{"bike_id":"3709b376-9d85-439b-91a1-5a83fa740a1e","system_id":"levelo_inurba_marseille","lat":43.291994,"lon":5.392907,"is_reserved":false,"is_disabled":false,"rental_uris":{"android":"levelo://app?vid=3709b376-9d85-439b-91a1-5a83fa740a1e","ios":"levelo://app?vid=3709b376-9d85-439b-91a1-5a83fa740a1e"},"vehicle_type_id":"4","last_reported":1719590963,"current_range_meters":400,"station_id":"ce4bh192rcd13ifvqdd0","pricing_plan_id":"cebpf4jnsgd1na2vs0mg"},{"bike_id":"440458ca-9a54-41fb-a323-92a258513b90","system_id":"levelo_inurba_marseille","lat":43.29198,"lon":5.39329,"is_reserved":false,"is_disabled":false,"rental_uris":{"android":"levelo://app?vid=440458ca-9a54-41fb-a323-92a258513b90","ios":"levelo://app?vid=440458ca-9a54-41fb-a323-92a258513b90"},"vehicle_type_id":"4","last_reported":1719590963,"current_range_meters":26000,"station_id":"","pricing_plan_id":"cebpf4jnsgd1na2vs0mg"},{"bike_id":"eb5e49a0-0c25-4dc3-b372-c0049df97099","system_id":"levelo_inurba_marseille","lat":43.284538,"lon":5.358657,"is_reserved":false,"is_disabled":false,"rental_uris":{"android":"levelo://app?vid=eb5e49a0-0c25-4dc3-b372-c0049df97099","ios":"levelo://app?vid=eb5e49a0-0c25-4dc3-b372-c0049df97099"},"vehicle_type_id":"4","last_reported":1719590963,"current_range_meters":20000,"station_id":"ce4bhah2rcd13ifvqei0","pricing_plan_id":"cebpf4jnsgd1na2vs0mg"},{"bike_id":"f66aa2f7-84ac-43da-92d0-a40059009872","system_id":"levelo_inurba_marseille","lat":43.294314,"lon":5.397498,"is_reserved":false,"is_disabled":false,"rental_uris":{"android":"levelo://app?vid=f66aa2f7-84ac-43da-92d0-a40059009872","ios":"levelo://app?vid=f66aa2f7-84ac-43da-92d0-a40059009872"},"vehicle_type_id":"4","last_reported":1719590963,"current_range_meters":6000,"station_id":"ce4bh3h2rcd13ifvqdo0","pricing_plan_id":"cebpf4jnsgd1na2vs0mg"},{"bike_id":"6a649643-3d4d-4d85-a4cb-171f8481b184","system_id":"levelo_inurba_marseille","lat":43.284538,"lon":5.358657,"is_reserved":false,"is_disabled":false,"rental_uris":{"android":"levelo://app?vid=6a649643-3d4d-4d85-a4cb-171f8481b184","ios":"levelo://app?vid=6a649643-3d4d-4d85-a4cb-171f8481b184"},"vehicle_type_id":"4","last_reported":1719590963,"current_range_meters":1600,"station_id":"ce4bhah2rcd13ifvqei0","pricing_plan_id":"cebpf4jnsgd1na2vs0mg"},{"bike_id":"28c060b2-5522-4ce2-8349-1635aff65885","system_id":"levelo_inurba_marseille","lat":43.294314,"lon":5.397498,"is_reserved":false,"is_disabled":false,"rental_uris":{"android":"levelo://app?vid=28c060b2-5522-4ce2-8349-1635aff65885","ios":"levelo://app?vid=28c060b2-5522-4ce2-8349-1635aff65885"},"vehicle_type_id":"4","last_reported":1719590963,"current_range_meters":0,"station_id":"ce4bh3h2rcd13ifvqdo0","pricing_plan_id":"cebpf4jnsgd1na2vs0mg"},{"bike_id":"f3805882-2cd9-4ada-9e0a-950caedf79b2","system_id":"levelo_inurba_marseille","lat":43.294314,"lon":5.397498,"is_reserved":false,"is_disabled":false,"rental_uris":{"android":"levelo://app?vid=f3805882-2cd9-4ada-9e0a-950caedf79b2","ios":"levelo://app?vid=f3805882-2cd9-4ada-9e0a-950caedf79b2"},"vehicle_type_id":"4","last_reported":1719590963,"current_range_meters":8400,"station_id":"ce4bh3h2rcd13ifvqdo0","pricing_plan_id":"cebpf4jnsgd1na2vs0mg"},{"bike_id":"79b29511-9b6d-457f-aa33-ddec2acbc862","system_id":"levelo_inurba_marseille","lat":43.284538,"lon":5.358657,"is_reserved":false,"is_disabled":false,"rental_uris":{"android":"levelo://app?vid=79b29511-9b6d-457f-aa33-ddec2acbc862","ios":"levelo://app?vid=79b29511-9b6d-457f-aa33-ddec2acbc862"},"vehicle_type_id":"4","last_reported":1719590963,"current_range_meters":20800,"station_id":"ce4bhah2rcd13ifvqei0","pricing_plan_id":"cebpf4jnsgd1na2vs0mg"},{"bike_id":"9545e6b8-e1a4-428d-90f4-0e666f2a6904","system_id":"levelo_inurba_marseille","lat":43.284534,"lon":5.358662,"is_reserved":false,"is_disabled":false,"rental_uris":{"android":"levelo://app?vid=9545e6b8-e1a4-428d-90f4-0e666f2a6904","ios":"levelo://app?vid=9545e6b8-e1a4-428d-90f4-0e666f2a6904"},"vehicle_type_id":"4","last_reported":1719590963,"current_range_meters":7600,"station_id":"ce4bhah2rcd13ifvqei0","pricing_plan_id":"cebpf4jnsgd1na2vs0mg"},{"bike_id":"9432e15e-3563-4ea9-875f-c8479b08a55e","system_id":"levelo_inurba_marseille","lat":43.294314,"lon":5.397498,"is_reserved":false,"is_disabled":false,"rental_uris":{"android":"levelo://app?vid=9432e15e-3563-4ea9-875f-c8479b08a55e","ios":"levelo://app?vid=9432e15e-3563-4ea9-875f-c8479b08a55e"},"vehicle_type_id":"4","last_reported":1719590963,"current_range_meters":3200,"station_id":"ce4bh3h2rcd13ifvqdo0","pricing_plan_id":"cebpf4jnsgd1na2vs0mg"},{"bike_id":"ee9a900c-d49b-43d6-a17b-40fe428de39c","system_id":"levelo_inurba_marseille","lat":43.2862,"lon":5.35118,"is_reserved":false,"is_disabled":false,"rental_uris":{"android":"levelo://app?vid=ee9a900c-d49b-43d6-a17b-40fe428de39c","ios":"levelo://app?vid=ee9a900c-d49b-43d6-a17b-40fe428de39c"},"vehicle_type_id":"4","last_reported":1719590963,"current_range_meters":15600,"station_id":"ce4bhch2rcd13ifvqeug","pricing_plan_id":"cebpf4jnsgd1na2vs0mg"},{"bike_id":"757f0ab0-d1b1-487c-b634-0a90844d576b","system_id":"levelo_inurba_marseille","lat":43.285848,"lon":5.350787,"is_reserved":false,"is_disabled":false,"rental_uris":{"android":"levelo://app?vid=757f0ab0-d1b1-487c-b634-0a90844d576b","ios":"levelo://app?vid=757f0ab0-d1b1-487c-b634-0a90844d576b"},"vehicle_type_id":"4","last_reported":1719590963,"current_range_meters":16400,"station_id":"ce4bhch2rcd13ifvqeug","pricing_plan_id":"cebpf4jnsgd1na2vs0mg"},{"bike_id":"580a2350-80ea-48b5-9310-f17fa76992b4","system_id":"levelo_inurba_marseille","lat":43.285848,"lon":5.350787,"is_reserved":false,"is_disabled":false,"rental_uris":{"android":"levelo://app?vid=580a2350-80ea-48b5-9310-f17fa76992b4","ios":"levelo://app?vid=580a2350-80ea-48b5-9310-f17fa76992b4"},"vehicle_type_id":"4","last_reported":1719590963,"current_range_meters":27200,"station_id":"ce4bhch2rcd13ifvqeug","pricing_plan_id":"cebpf4jnsgd1na2vs0mg"},