{"last_updated":1687032401,"ttl":30,"version":"2.2","data":{"bikes":[{"bike_id":"f56364fe-e165-48aa-8f98-e39733967730","system_id":"levelo_inurba_marseille","lat":43.31222,"lon":5.36848,"is_reserved":false,"is_disabled":false,"rental_uris":{"android":"levelo://app?vid=f56364fe-e165-48aa-8f98-e39733967730","ios":"levelo://app?vid=f56364fe-e165-48aa-8f98-e39733967730"},"vehicle_type_id":"4","last_reported":1687032402,"current_range_meters":3200,"station_id":"ce4bgl92rcd13ifvqbq0","pricing_plan_id":"free"},{"bike_id":"17c83520-acc0-4168-b4c3-9219464f9523","system_id":"levelo_inurba_marseille","lat":43.308606,"lon":5.372099,"is_reserved":false,"is_disabled":false,"rental_uris":{"android":"levelo://app?vid=17c83520-acc0-4168-b4c3-9219464f9523","ios":"levelo://app?vid=17c83520-acc0-4168-b4c3-9219464f9523"},"vehicle_type_id":"4","last_reported":1687032402,"current_range_meters":26800,"station_id":"ce4bguh2rcd13ifvqckg","pricing_plan_id":"free"},{"bike_id":"9c746439-937e-436d-8c66-cb90c42aae7f","system_id":"levelo_inurba_marseille","lat":43.31166,"lon":5.37741,"is_reserved":false,"is_disabled":false,"rental_uris":{"android":"levelo://app?vid=9c746439-937e-436d-8c66-cb90c42aae7f","ios":"levelo://app?vid=9c746439-937e-436d-8c66-cb90c42aae7f"},"vehicle_type_id":"4","last_reported":1687032402,"current_range_meters":28800,"station_id":"","pricing_plan_id":"free"},{"bike_id":"2424216c-0462-4ad0-b127-d0366c91b61c","system_id":"levelo_inurba_marseille","lat":43.31699,"lon":5.37708,"is_reserved":false,"is_disabled":false,"rental_uris":{"android":"levelo://app?vid=2424216c-0462-4ad0-b127-d0366c91b61c","ios":"levelo://app?vid=2424216c-0462-4ad0-b127-d0366c91b61c"},"vehicle_type_id":"4","last_reported":1687032402,"current_range_meters":31200,"station_id":"ce4bgth2rcd13ifvqch0","pricing_plan_id":"free"},{"bike_id":"3bbb518e-9a83-40f5-84e5-3a5e60f17226","system_id":"levelo_inurba_marseille","lat":43.317075,"lon":5.377367,"is_reserved":false,"is_disabled":false,"rental_uris":{"android":"levelo://app?vid=3bbb518e-9a83-40f5-84e5-3a5e60f17226","ios":"levelo://app?vid=3bbb518e-9a83-40f5-84e5-3a5e60f17226"},"vehicle_type_id":"4","last_reported":1687032402,"current_range_meters":2800,"station_id":"ce4bgth2rcd13ifvqch0","pricing_plan_id":"free"},{"bike_id":"9995f459-fa59-416d-8a8e-7899ff978c5c","system_id":"levelo_inurba_marseille","lat":43.317075,"lon":5.377367,"is_reserved":false,"is_disabled":false,"rental_uris":{"android":"levelo://app?vid=9995f459-fa59-416d-8a8e-7899ff978c5c","ios":"levelo://app?vid=9995f459-fa59-416d-8a8e-7899ff978c5c"},"vehicle_type_id":"4","last_reported":1687032402,"current_range_meters":11200,"station_id":"ce4bgth2rcd13ifvqch0","pricing_plan_id":"free"},{"bike_id":"6fde29bd-a714-45fb-9559-25c612af75b1","system_id":"levelo_inurba_marseille","lat":43.30312,"lon":5.36884,"is_reserved":false,"is_disabled":false,"rental_uris":{"android":"levelo://app?vid=6fde29bd-a714-45fb-9559-25c612af75b1","ios":"levelo://app?vid=6fde29bd-a714-45fb-9559-25c612af75b1"},"vehicle_type_id":"4","last_reported":1687032402,"current_range_meters":0,"station_id":"ce4bgqh2rcd13ifvqc5g","pricing_plan_id":"free"},{"bike_id":"54105187-4d93-4d9f-90b5-aa0b4942a62d","system_id":"levelo_inurba_marseille","lat":43.315289,"lon":5.380349,"is_reserved":false,"is_disabled":false,"rental_uris":{"android":"levelo://app?vid=54105187-4d93-4d9f-90b5-aa0b4942a62d","ios":"levelo://app?vid=54105187-4d93-4d9f-90b5-aa0b4942a62d"},"vehicle_type_id":"4","last_reported":1687032402,"current_range_meters":0,"station_id":"ce4bhsp2rcd13ifvqi50","pricing_plan_id":"free"},{"bike_id":"1fd97d99-d738-4287-a827-6140508ddda7","system_id":"levelo_inurba_marseille","lat":43.30187,"lon":5.36629,"is_reserved":false,"is_disabled":false,"rental_uris":{"android":"levelo://app?vid=1fd97d99-d738-4287-a827-6140508ddda7","ios":"levelo://app?vid=1fd97d99-d738-4287-a827-6140508ddda7"},"vehicle_type_id":"4","last_reported":1687032402,"current_range_meters":15200,"station_id":"ce4bgrh2rcd13ifvqc8g","pricing_plan_id":"free"},{"bike_id":"ae33307b-fcd5-479b-9ae1-9002ed226c6e","system_id":"levelo_inurba_marseille","lat":43.308012,"lon":5.381511,"is_reserved":false,"is_disabled":false,"rental_uris":{"android":"levelo://app?vid=ae33307b-fcd5-479b-9ae1-9002ed226c6e","ios":"levelo://app?vid=ae33307b-fcd5-479b-9ae1-9002ed226c6e"},"vehicle_type_id":"4","last_reported":1687032402,"current_range_meters":8000,"station_id":"ce4bgt12rcd13ifvqce0","pricing_plan_id":"free"},{"bike_id":"43fc693e-f2a9-4aec-8fd9-d094bb02cb70","system_id":"levelo_inurba_marseille","lat":43.304606,"lon":5.379026,"is_reserved":false,"is_disabled":false,"rental_uris":{"android":"levelo://app?vid=43fc693e-f2a9-4aec-8fd9-d094bb02cb70","ios":"levelo://app?vid=43fc693e-f2a9-4aec-8fd9-d094bb02cb70"},"vehicle_type_id":"4","last_reported":1687032402,"current_range_meters":20000,"station_id":"ce4bgup2rcd13ifvqcn0","pricing_plan_id":"free"},{"bike_id":"b717dc3b-9631-4a53-b912-68884b9e92e3","system_id":"levelo_inurba_marseille","lat":43.303046,"lon":5.368981,"is_reserved":false,"is_disabled":false,"rental_uris":{"android":"levelo://app?vid=b717dc3b-9631-4a53-b912-68884b9e92e3","ios":"levelo://app?vid=b717dc3b-9631-4a53-b912-68884b9e92e3"},"vehicle_type_id":"4","last_reported":1687032402,"current_range_meters":400,"station_id":"ce4bgqh2rcd13ifvqc5g","pricing_plan_id":"free"},{"bike_id":"5003c2fa-8578-4b5b-aee0-bf9c6a52e3f5","system_id":"levelo_inurba_marseille","lat":43.32,"lon":5.38149,"is_reserved":false,"is_disabled":false,"rental_uris":{"android":"levelo://app?vid=5003c2fa-8578-4b5b-aee0-bf9c6a52e3f5","ios":"levelo://app?vid=5003c2fa-8578-4b5b-aee0-bf9c6a52e3f5"},"vehicle_type_id":"4","last_reported":1687032402,"current_range_meters":0,"station_id":"ce4bhr12rcd13ifvqhpg","pricing_plan_id":"free"},{"bike_id":"5ca77738-6310-42c3-b6c3-d9668da647fe","system_id":"levelo_inurba_marseille","lat":43.31999,"lon":5.38153,"is_reserved":false,"is_disabled":false,"rental_uris":{"android":"levelo://app?vid=5ca77738-6310-42c3-b6c3-d9668da647fe","ios":"levelo://app?vid=5ca77738-6310-42c3-b6c3-d9668da647fe"},"vehicle_type_id":"4","last_reported":1687032402,"current_range_meters":19200,"station_id":"ce4bhr12rcd13ifvqhpg","pricing_plan_id":"free"},{"bike_id":"b7a04f58-67ae-402c-8dcd-236991a1864e","system_id":"levelo_inurba_marseille","lat":43.30165,"lon":5.37635,"is_reserved":false,"is_disabled":false,"rental_uris":{"android":"levelo://app?vid=b7a04f58-67ae-402c-8dcd-236991a1864e","ios":"levelo://app?vid=b7a04f58-67ae-402c-8dcd-236991a1864e"},"vehicle_type_id":"4","last_reported":1687032402,"current_range_meters":12000,"station_id":"","pricing_plan_id":"free"},{"bike_id":"9b52fd37-6548-40b9-831a-c666b1a25173","system_id":"levelo_inurba_marseille","lat":43.313571,"lon":5.384829,"is_reserved":false,"is_disabled":false,"rental_uris":{"android":"levelo://app?vid=9b52fd37-6548-40b9-831a-c666b1a25173","ios":"levelo://app?vid=9b52fd37-6548-40b9-831a-c666b1a25173"},"vehicle_type_id":"4","last_reported":1687032402,"current_range_meters":24000,"station_id":"ce4bgt92rcd13ifvqcf0","pricing_plan_id":"free"},{"bike_id":"928be4b2-db2b-4388-865a-7ac218db6365","system_id":"levelo_inurba_marseille","lat":43.313571,"lon":5.384829,"is_reserved":false,"is_disabled":false,"rental_uris":{"android":"levelo://app?vid=928be4b2-db2b-4388-865a-7ac218db6365","ios":"levelo://app?vid=928be4b2-db2b-4388-865a-7ac218db6365"},"vehicle_type_id":"4","last_reported":1687032402,"current_range_meters":8000,"station_id":"ce4bgt92rcd13ifvqcf0","pricing_plan_id":"free"},{"bike_id":"c438a52c-dc41-44c4-956b-5ddd496da5ee","system_id":"levelo_inurba_marseille","lat":43.313571,"lon":5.384829,"is_reserved":false,"is_disabled":false,"rental_uris":{"android":"levelo://app?vid=c438a52c-dc41-44c4-956b-5ddd496da5ee","ios":"levelo://app?vid=c438a52c-dc41-44c4-956b-5ddd496da5ee"},"vehicle_type_id":"4","last_reported":1687032402,"current_range_meters":6800,"station_id":"ce4bgt92rcd13ifvqcf0","pricing_plan_id":"free"},{"bike_id":"56b6eacf-a5b2-44c4-b68f-b1a7156b335d","system_id":"levelo_inurba_marseille","lat":43.299222,"lon":5.365554,"is_reserved":false,"is_disabled":false,"rental_uris":{"android":"levelo://app?vid=56b6eacf-a5b2-44c4-b68f-b1a7156b335d","ios":"levelo://app?vid=56b6eacf-a5b2-44c4-b68f-b1a7156b335d"},"vehicle_type_id":"4","last_reported":1687032402,"current_range_meters":0,"station_id":"ce4bgm92rcd13ifvqbr0","pricing_plan_id":"free"},{"bike_id":"a7846bb0-2a54-4709-b885-86883052f98b","system_id":"levelo_inurba_marseille","lat":43.299222,"lon":5.365554,"is_reserved":false,"is_disabled":false,"rental_uris":{"android":"levelo://app?vid=a7846bb0-2a54-4709-b885-86883052f98b","ios":"levelo://app?vid=a7846bb0-2a54-4709-b885-86883052f98b"},"vehicle_type_id":"4","last_reported":1687032402,"current_range_meters":1200,"station_id":"ce4bgm92rcd13ifvqbr0","pricing_plan_id":"free"},{"bike_id":"68651f36-4fc6-47f8-99f4-f49f769d77b6","system_id":"levelo_inurba_marseille","lat":43.29918,"lon":5.365444,"is_reserved":false,"is_disabled":false,"rental_uris":{"android":"levelo://app?vid=68651f36-4fc6-47f8-99f4-f49f769d77b6","ios":"levelo://app?vid=68651f36-4fc6-47f8-99f4-f49f769d77b6"},"vehicle_type_id":"4","last_reported":1687032402,"current_range_meters":21200,"station_id":"ce4bgm92rcd13ifvqbr0","pricing_plan_id":"free"},{"bike_id":"330412da-b9eb-49fa-9ba0-9288ee9ddd31","system_id":"levelo_inurba_marseille","lat":43.30046,"lon":5.3753,"is_reserved":false,"is_disabled":false,"rental_uris":{"android":"levelo://app?vid=330412da-b9eb-49fa-9ba0-9288ee9ddd31","ios":"levelo://app?vid=330412da-b9eb-49fa-9ba0-9288ee9ddd31"},"vehicle_type_id":"4","last_reported":1687032402,"current_range_meters":17600,"station_id":"","pricing_plan_id":"free"},{"bike_id":"a7de50a9-b27d-465b-8665-c59335a9b96a","system_id":"levelo_inurba_marseille","lat":43.29853,"lon":5.36279,"is_reserved":false,"is_disabled":false,"rental_uris":{"android":"levelo://app?vid=a7de50a9-b27d-465b-8665-c59335a9b96a","ios":"levelo://app?vid=a7de50a9-b27d-465b-8665-c59335a9b96a"},"vehicle_type_id":"4","last_reported":1687032402,"current_range_meters":0,"station_id":"ce4bgpp2rcd13ifvqc3g","pricing_plan_id":"free"},{"bike_id":"8344cfcc-47c6-468b-8ede-be25f336c7c3","system_id":"levelo_inurba_marseille","lat":43.2985,"lon":5.36289,"is_reserved":false,"is_disabled":false,"rental_uris":{"android":"levelo://app?vid=8344cfcc-47c6-468b-8ede-be25f336c7c3","ios":"levelo://app?vid=8344cfcc-47c6-468b-8ede-be25f336c7c3"},"vehicle_type_id":"4","last_reported":1687032402,"current_range_meters":13200,"station_id":"ce4bgpp2rcd13ifvqc3g","pricing_plan_id":"free"},{"bike_id":"1b491c54-0897-4ec9-bb75-b641cc0068f1","system_id":"levelo_inurba_marseille","lat":43.298433,"lon":5.362774,"is_reserved":false,"is_disabled":false,"rental_uris":{"android":"levelo://app?vid=1b491c54-0897-4ec9-bb75-b641cc0068f1","ios":"levelo://app?vid=1b491c54-0897-4ec9-bb75-b641cc0068f1"},"vehicle_type_id":"4","last_reported":1687032402,"current_range_meters":400,"station_id":"ce4bgpp2rcd13ifvqc3g","pricing_plan_id":"free"},{"bike_id":"7aad5215-6daf-48c8-a10c-2334ab1ed464","system_id":"levelo_inurba_marseille","lat":43.298433,"lon":5.362774,"is_reserved":false,"is_disabled":false,"rental_uris":{"android":"levelo://app?vid=7aad5215-6daf-48c8-a10c-2334ab1ed464","ios":"levelo://app?vid=7aad5215-6daf-48c8-a10c-2334ab1ed464"},"vehicle_type_id":"4","last_reported":1687032402,"current_range_meters":11600,"station_id":"ce4bgpp2rcd13ifvqc3g","pricing_plan_id":"free"},{"bike_id":"e2c16901-35b9-48b4-96d0-41c7ef27db01","system_id":"levelo_inurba_marseille","lat":43.298433,"lon":5.362774,"is_reserved":false,"is_disabled":false,"rental_uris":{"android":"levelo://app?vid=e2c16901-35b9-48b4-96d0-41c7ef27db01","ios":"levelo://app?vid=e2c16901-35b9-48b4-96d0-41c7ef27db01"},"vehicle_type_id":"4","last_reported":1687032402,"current_range_meters":7200,"station_id":"ce4bgpp2rcd13ifvqc3g","pricing_plan_id":"free"},{"bike_id":"15ae1075-83a1-4145-83e3-141016c978ef","system_id":"levelo_inurba_marseille","lat":43.298433,"lon":5.362774,"is_reserved":false,"is_disabled":false,"rental_uris":{"android":"levelo://app?vid=15ae1075-83a1-4145-83e3-141016c978ef","ios":"levelo://app?vid=15ae1075-83a1-4145-83e3-141016c978ef"},"vehicle_type_id":"4","last_reported":1687032402,"current_range_meters":4400,"station_id":"ce4bgpp2rcd13ifvqc3g","pricing_plan_id":"free"},{"bike_id":"bec35a8d-8c0b-4b6f-ab7d-f02157e3c2db","system_id":"levelo_inurba_marseille","lat":43.311722,"lon":5.387247,"is_reserved":false,"is_disabled":false,"rental_uris":{"android":"levelo://app?vid=bec35a8d-8c0b-4b6f-ab7d-f02157e3c2db","ios":"levelo://app?vid=bec35a8d-8c0b-4b6f-ab7d-f02157e3c2db"},"vehicle_type_id":"4","last_reported":1687032402,"current_range_meters":8800,"station_id":"ce4bgv12rcd13ifvqcp0","pricing_plan_id":"free"},{"bike_id":"3be27c74-d28f-4e28-8bba-decc04de71c8","system_id":"levelo_inurba_marseille","lat":43.311722,"lon":5.387247,"is_reserved":false,"is_disabled":false,"rental_uris":{"android":"levelo://app?vid=3be27c74-d28f-4e28-8bba-decc04de71c8","ios":"levelo://app?vid=3be27c74-d28f-4e28-8bba-decc04de71c8"},"vehicle_type_id":"4","last_reported":1687032402,"current_range_meters":24000,"station_id":"ce4bgv12rcd13ifvqcp0","pricing_plan_id":"free"},{"bike_id":"303044df-31cd-40da-bf11-ca970106cce9","system_id":"levelo_inurba_marseille","lat":43.297794,"lon":5.370888,"is_reserved":false,"is_disabled":false,"rental_uris":{"android":"levelo://app?vid=303044df-31cd-40da-bf11-ca970106cce9","ios":"levelo://app?vid=303044df-31cd-40da-bf11-ca970106cce9"},"vehicle_type_id":"4","last_reported":1687032402,"current_range_meters":2000,"station_id":"ce4bgop2rcd13ifvqc1g","pricing_plan_id":"free"},{"bike_id":"e8b50248-57f4-48c9-8855-f4e6598d6b38","system_id":"levelo_inurba_marseille","lat":43.297794,"lon":5.370888,"is_reserved":false,"is_disabled":false,"rental_uris":{"android":"levelo://app?vid=e8b50248-57f4-48c9-8855-f4e6598d6b38","ios":"levelo://app?vid=e8b50248-57f4-48c9-8855-f4e6598d6b38"},"vehicle_type_id":"4","last_reported":1687032402,"current_range_meters":0,"station_id":"ce4bgop2rcd13ifvqc1g","pricing_plan_id":"free"},{"bike_id":"37c6e156-8c1b-4fb4-bb57-8fd4e89101e4","system_id":"levelo_inurba_marseille","lat":43.297794,"lon":5.370888,"is_reserved":false,"is_disabled":false,"rental_uris":{"android":"levelo://app?vid=37c6e156-8c1b-4fb4-bb57-8fd4e89101e4","ios":"levelo://app?vid=37c6e156-8c1b-4fb4-bb57-8fd4e89101e4"},"vehicle_type_id":"4","last_reported":1687032402,"current_range_meters":5600,"station_id":"ce4bgop2rcd13ifvqc1g","pricing_plan_id":"free"},{"bike_id":"f2c58d08-dbe7-450d-a68f-ca547b09071b","system_id":"levelo_inurba_marseille","lat":43.297794,"lon":5.370888,"is_reserved":false,"is_disabled":false,"rental_uris":{"android":"levelo://app?vid=f2c58d08-dbe7-450d-a68f-ca547b09071b","ios":"levelo://app?vid=f2c58d08-dbe7-450d-a68f-ca547b09071b"},"vehicle_type_id":"4","last_reported":1687032402,"current_range_meters":0,"station_id":"ce4bgop2rcd13ifvqc1g","pricing_plan_id":"free"},{"bike_id":"ded11021-e6f9-4c52-99f9-b65a7c5353bc","system_id":"levelo_inurba_marseille","lat":43.297774,"lon":5.370875,"is_reserved":false,"is_disabled":false,"rental_uris":{"android":"levelo://app?vid=ded11021-e6f9-4c52-99f9-b65a7c5353bc","ios":"levelo://app?vid=ded11021-e6f9-4c52-99f9-b65a7c5353bc"},"vehicle_type_id":"4","last_reported":1687032402,"current_range_meters":10400,"station_id":"ce4bgop2rcd13ifvqc1g","pricing_plan_id":"free"},{"bike_id":"4bf53da7-5b2e-4feb-ad64-d834c27b533d","system_id":"levelo_inurba_marseille","lat":43.32822,"lon":5.3669,"is_reserved":false,"is_disabled":false,"rental_uris":{"android":"levelo://app?vid=4bf53da7-5b2e-4feb-ad64-d834c27b533d","ios":"levelo://app?vid=4bf53da7-5b2e-4feb-ad64-d834c27b533d"},"vehicle_type_id":"4","last_reported":1687032402,"current_range_meters":24800,"station_id":"ce4bhs92rcd13ifvqi0g","pricing_plan_id":"free"},{"bike_id":"4bb85f49-7f9a-477c-abaa-23a093d581e6","system_id":"levelo_inurba_marseille","lat":43.328371,"lon":5.366909,"is_reserved":false,"is_disabled":false,"rental_uris":{"android":"levelo://app?vid=4bb85f49-7f9a-477c-abaa-23a093d581e6","ios":"levelo://app?vid=4bb85f49-7f9a-477c-abaa-23a093d581e6"},"vehicle_type_id":"4","last_reported":1687032402,"current_range_meters":18800,"station_id":"ce4bhs92rcd13ifvqi0g","pricing_plan_id":"free"},{"bike_id":"176f4894-d7fc-460e-aa5d-7c8c1e206dc3","system_id":"levelo_inurba_marseille","lat":43.297163,"lon":5.365866,"is_reserved":false,"is_disabled":false,"rental_uris":{"android":"levelo://app?vid=176f4894-d7fc-460e-aa5d-7c8c1e206dc3","ios":"levelo://app?vid=176f4894-d7fc-460e-aa5d-7c8c1e206dc3"},"vehicle_type_id":"4","last_reported":1687032402,"current_range_meters":14400,"station_id":"ce4bgn12rcd13ifvqbt0","pricing_plan_id":"free"},{"bike_id":"9662f319-b124-4402-bd1a-6415c9aac544","system_id":"levelo_inurba_marseille","lat":43.297163,"lon":5.365866,"is_reserved":false,"is_disabled":false,"rental_uris":{"android":"levelo://app?vid=9662f319-b124-4402-bd1a-6415c9aac544","ios":"levelo://app?vid=9662f319-b124-4402-bd1a-6415c9aac544"},"vehicle_type_id":"4","last_reported":1687032402,"current_range_meters":3600,"station_id":"ce4bgn12rcd13ifvqbt0","pricing_plan_id":"free"},{"bike_id":"0851357a-94e1-4cf6-ad37-5a7a49d00988","system_id":"levelo_inurba_marseille","lat":43.3283,"lon":5.36206,"is_reserved":false,"is_disabled":false,"rental_uris":{"android":"levelo://app?vid=0851357a-94e1-4cf6-ad37-5a7a49d00988","ios":"levelo://app?vid=0851357a-94e1-4cf6-ad37-5a7a49d00988"},"vehicle_type_id":"4","last_reported":1687032402,"current_range_meters":31200,"station_id":"","pricing_plan_id":"free"},{"bike_id":"e25bbacf-225c-4f1a-a2b1-8f9c37a7c29f","system_id":"levelo_inurba_marseille","lat":43.29912,"lon":5.3785,"is_reserved":false,"is_disabled":false,"rental_uris":{"android":"levelo://app?vid=e25bbacf-225c-4f1a-a2b1-8f9c37a7c29f","ios":"levelo://app?vid=e25bbacf-225c-4f1a-a2b1-8f9c37a7c29f"},"vehicle_type_id":"4","last_reported":1687032402,"current_range_meters":10800,"station_id":"","pricing_plan_id":"free"},{"bike_id":"fbf7f121-825b-46b2-88eb-fe1565ad7f4e","system_id":"levelo_inurba_marseille","lat":43.317075,"lon":5.377367,"is_reserved":false,"is_disabled":false,"rental_uris":{"android":"levelo://app?vid=fbf7f121-825b-46b2-88eb-fe1565ad7f4e","ios":"levelo://app?vid=fbf7f121-825b-46b2-88eb-fe1565ad7f4e"},"vehicle_type_id":"4","last_reported":1687032402,"current_range_meters":17200,"station_id":"ce4bgth2rcd13ifvqch0","pricing_plan_id":"free"},{"bike_id":"88d0330c-5bb0-4a19-9b65-d4683b42e015","system_id":"levelo_inurba_marseille","lat":43.29683,"lon":5.36046,"is_reserved":false,"is_disabled":false,"rental_uris":{"android":"levelo://app?vid=88d0330c-5bb0-4a19-9b65-d4683b42e015","ios":"levelo://app?vid=88d0330c-5bb0-4a19-9b65-d4683b42e015"},"vehicle_type_id":"4","last_reported":1687032402,"current_range_meters":5200,"station_id":"ce4bgpp2rcd13ifvqc3g","pricing_plan_id":"free"},{"bike_id":"24f41ca5-b432-4feb-a0c8-a15026b97306","system_id":"levelo_inurba_marseille","lat":43.296131,"lon":5.370773,"is_reserved":false,"is_disabled":false,"rental_uris":{"android":"levelo://app?vid=24f41ca5-b432-4feb-a0c8-a15026b97306","ios":"levelo://app?vid=24f41ca5-b432-4feb-a0c8-a15026b97306"},"vehicle_type_id":"4","last_reported":1687032402,"current_range_meters":14800,"station_id":"ce4bgnh2rcd13ifvqc0g","pricing_plan_id":"free"},{"bike_id":"76d03c37-e162-4b34-b5c2-eca0e2a54f28","system_id":"levelo_inurba_marseille","lat":43.29731,"lon":5.3769,"is_reserved":false,"is_disabled":false,"rental_uris":{"android":"levelo://app?vid=76d03c37-e162-4b34-b5c2-eca0e2a54f28","ios":"levelo://app?vid=76d03c37-e162-4b34-b5c2-eca0e2a54f28"},"vehicle_type_id":"4","last_reported":1687032402,"current_range_meters":0,"station_id":"","pricing_plan_id":"free"},{"bike_id":"a985f745-d72c-41f5-a396-612f6c4bea27","system_id":"levelo_inurba_marseille","lat":43.299028,"lon":5.381509,"is_reserved":false,"is_disabled":false,"rental_uris":{"android":"levelo://app?vid=a985f745-d72c-41f5-a396-612f6c4bea27","ios":"levelo://app?vid=a985f745-d72c-41f5-a396-612f6c4bea27"},"vehicle_type_id":"4","last_reported":1687032402,"current_range_meters":8000,"station_id":"ce4bgj12rcd13ifvqbc0","pricing_plan_id":"free"},{"bike_id":"597fef51-7bff-414a-a297-c2eb71b63c9e","system_id":"levelo_inurba_marseille","lat":43.296921,"lon":5.376579,"is_reserved":false,"is_disabled":false,"rental_uris":{"android":"levelo://app?vid=597fef51-7bff-414a-a297-c2eb71b63c9e","ios":"levelo://app?vid=597fef51-7bff-414a-a297-c2eb71b63c9e"},"vehicle_type_id":"4","last_reported":1687032402,"current_range_meters":9200,"station_id":"ce4bgkh2rcd13ifvqbl0","pricing_plan_id":"free"},{"bike_id":"fc67773a-168d-4c14-af86-6bb5ec7b3168","system_id":"levelo_inurba_marseille","lat":43.309589,"lon":5.390258,"is_reserved":false,"is_disabled":false,"rental_uris":{"android":"levelo://app?vid=fc67773a-168d-4c14-af86-6bb5ec7b3168","ios":"levelo://app?vid=fc67773a-168d-4c14-af86-6bb5ec7b3168"},"vehicle_type_id":"4","last_reported":1687032402,"current_range_meters":21200,"station_id":"ce4bgup2rcd13ifvqco0","pricing_plan_id":"free"},{"bike_id":"cb74852f-7fec-4e27-982b-3d1d691bcb1d","system_id":"levelo_inurba_marseille","lat":43.298037,"lon":5.381066,"is_reserved":false,"is_disabled":false,"rental_uris":{"android":"levelo://app?vid=cb74852f-7fec-4e27-982b-3d1d691bcb1d","ios":"levelo://app?vid=cb74852f-7fec-4e27-982b-3d1d691bcb1d"},"vehicle_type_id":"4","last_reported":1687032402,"current_range_meters":3200,"station_id":"ce4bgip2rcd13ifvqbb0","pricing_plan_id":"free"},{"bike_id":"93a756df-8666-4278-a00e-30a700deff0c","system_id":"levelo_inurba_marseille","lat":43.29801,"lon":5.38087,"is_reserved":false,"is_disabled":false,"rental_uris":{"android":"levelo://app?vid=93a756df-8666-4278-a00e-30a700deff0c","ios":"levelo://app?vid=93a756df-8666-4278-a00e-30a700deff0c"},"vehicle_type_id":"4","last_reported":1687032402,"current_range_meters":23200,"station_id":"ce4bgip2rcd13ifvqbb0","pricing_plan_id":"free"},{"bike_id":"250c8a96-8498-4211-b8f3-1b00a8d1fbaf","system_id":"levelo_inurba_marseille","lat":43.296477,"lon":5.37768,"is_reserved":false,"is_disabled":false,"rental_uris":{"android":"levelo://app?vid=250c8a96-8498-4211-b8f3-1b00a8d1fbaf","ios":"levelo://app?vid=250c8a96-8498-4211-b8f3-1b00a8d1fbaf"},"vehicle_type_id":"4","last_reported":1687032402,"current_range_meters":15600,"station_id":"","pricing_plan_id":"free"},{"bike_id":"8738a1b9-d180-4d2d-b245-1b57585cf8a5","system_id":"levelo_inurba_marseille","lat":43.30428,"lon":5.38889,"is_reserved":false,"is_disabled":false,"rental_uris":{"android":"levelo://app?vid=8738a1b9-d180-4d2d-b245-1b57585cf8a5","ios":"levelo://app?vid=8738a1b9-d180-4d2d-b245-1b57585cf8a5"},"vehicle_type_id":"4","last_reported":1687032402,"current_range_meters":0,"station_id":"","pricing_plan_id":"free"},{"bike_id":"eb56f040-d7e3-440c-9d05-82afe187dd21","system_id":"levelo_inurba_marseille","lat":43.299717,"lon":5.384845,"is_reserved":false,"is_disabled":false,"rental_uris":{"android":"levelo://app?vid=eb56f040-d7e3-440c-9d05-82afe187dd21","ios":"levelo://app?vid=eb56f040-d7e3-440c-9d05-82afe187dd21"},"vehicle_type_id":"4","last_reported":1687032402,"current_range_meters":30800,"station_id":"ce4bgj92rcd13ifvqbd0","pricing_plan_id":"free"},{"bike_id":"2c9ad911-25e0-4222-8751-d809dfadd582","system_id":"levelo_inurba_marseille","lat":43.32369,"lon":5.38858,"is_reserved":false,"is_disabled":false,"rental_uris":{"android":"levelo://app?vid=2c9ad911-25e0-4222-8751-d809dfadd582","ios":"levelo://app?vid=2c9ad911-25e0-4222-8751-d809dfadd582"},"vehicle_type_id":"4","last_reported":1687032402,"current_range_meters":24400,"station_id":"ce4bhqp2rcd13ifvqhog","pricing_plan_id":"free"},{"bike_id":"6bf2229b-f534-4647-b322-42cb17c0e26c","system_id":"levelo_inurba_marseille","lat":43.32361,"lon":5.38884,"is_reserved":false,"is_disabled":false,"rental_uris":{"android":"levelo://app?vid=6bf2229b-f534-4647-b322-42cb17c0e26c","ios":"levelo://app?vid=6bf2229b-f534-4647-b322-42cb17c0e26c"},"vehicle_type_id":"4","last_reported":1687032402,"current_range_meters":18000,"station_id":"ce4bhqp2rcd13ifvqhog","pricing_plan_id":"free"},{"bike_id":"a5d34394-8ea3-4622-ac56-bc8a8abe2d11","system_id":"levelo_inurba_marseille","lat":43.32367,"lon":5.388836,"is_reserved":false,"is_disabled":false,"rental_uris":{"android":"levelo://app?vid=a5d34394-8ea3-4622-ac56-bc8a8abe2d11","ios":"levelo://app?vid=a5d34394-8ea3-4622-ac56-bc8a8abe2d11"},"vehicle_type_id":"4","last_reported":1687032402,"current_range_meters":0,"station_id":"ce4bhqp2rcd13ifvqhog","pricing_plan_id":"free"},{"bike_id":"bd5e051b-6414-4247-b6a0-72183ead9f6c","system_id":"levelo_inurba_marseille","lat":43.31987,"lon":5.39213,"is_reserved":false,"is_disabled":false,"rental_uris":{"android":"levelo://app?vid=bd5e051b-6414-4247-b6a0-72183ead9f6c","ios":"levelo://app?vid=bd5e051b-6414-4247-b6a0-72183ead9f6c"},"vehicle_type_id":"4","last_reported":1687032402,"current_range_meters":8800,"station_id":"","pricing_plan_id":"free"},{"bike_id":"f26e4e93-bdc3-4d3a-992d-7c38032e2fce","system_id":"levelo_inurba_marseille","lat":43.29307,"lon":5.37166,"is_reserved":false,"is_disabled":false,"rental_uris":{"android":"levelo://app?vid=f26e4e93-bdc3-4d3a-992d-7c38032e2fce","ios":"levelo://app?vid=f26e4e93-bdc3-4d3a-992d-7c38032e2fce"},"vehicle_type_id":"4","last_reported":1687032402,"current_range_meters":30400,"station_id":"ce4bgh92rcd13ifvqb40","pricing_plan_id":"free"},{"bike_id":"4d7a16ea-3f56-43f5-bed3-8a8cce24ced6","system_id":"levelo_inurba_marseille","lat":43.292749,"lon":5.368398,"is_reserved":false,"is_disabled":false,"rental_uris":{"android":"levelo://app?vid=4d7a16ea-3f56-43f5-bed3-8a8cce24ced6","ios":"levelo://app?vid=4d7a16ea-3f56-43f5-bed3-8a8cce24ced6"},"vehicle_type_id":"4","last_reported":1687032402,"current_range_meters":16000,"station_id":"ce4bhbp2rcd13ifvqesg","pricing_plan_id":"free"},{"bike_id":"7a085e1b-08ed-4c16-970b-f7308b346189","system_id":"levelo_inurba_marseille","lat":43.29301,"lon":5.37176,"is_reserved":false,"is_disabled":false,"rental_uris":{"android":"levelo://app?vid=7a085e1b-08ed-4c16-970b-f7308b346189","ios":"levelo://app?vid=7a085e1b-08ed-4c16-970b-f7308b346189"},"vehicle_type_id":"4","last_reported":1687032402,"current_range_meters":5600,"station_id":"ce4bgh92rcd13ifvqb40","pricing_plan_id":"free"},{"bike_id":"e92f491f-519f-4930-b227-31475bd3f914","system_id":"levelo_inurba_marseille","lat":43.293009,"lon":5.374584,"is_reserved":false,"is_disabled":false,"rental_uris":{"android":"levelo://app?vid=e92f491f-519f-4930-b227-31475bd3f914","ios":"levelo://app?vid=e92f491f-519f-4930-b227-31475bd3f914"},"vehicle_type_id":"4","last_reported":1687032402,"current_range_meters":10800,"station_id":"ce4bgi12rcd13ifvqb70","pricing_plan_id":"free"},{"bike_id":"d05e27fb-f9e2-4a68-805c-4e3fc1f94179","system_id":"levelo_inurba_marseille","lat":43.2936,"lon":5.37835,"is_reserved":false,"is_disabled":false,"rental_uris":{"android":"levelo://app?vid=d05e27fb-f9e2-4a68-805c-4e3fc1f94179","ios":"levelo://app?vid=d05e27fb-f9e2-4a68-805c-4e3fc1f94179"},"vehicle_type_id":"4","last_reported":1687032402,"current_range_meters":10400,"station_id":"ce4bgjh2rcd13ifvqbf0","pricing_plan_id":"free"},{"bike_id":"66c58359-33d0-479a-94fa-ca9fa4b53a63","system_id":"levelo_inurba_marseille","lat":43.30406,"lon":5.39326,"is_reserved":false,"is_disabled":false,"rental_uris":{"android":"levelo://app?vid=66c58359-33d0-479a-94fa-ca9fa4b53a63","ios":"levelo://app?vid=66c58359-33d0-479a-94fa-ca9fa4b53a63"},"vehicle_type_id":"4","last_reported":1687032402,"current_range_meters":13600,"station_id":"","pricing_plan_id":"free"},{"bike_id":"f7b551ec-dd01-460a-8f57-ced78ac83f58","system_id":"levelo_inurba_marseille","lat":43.302008,"lon":5.394694,"is_reserved":false,"is_disabled":false,"rental_uris":{"android":"levelo://app?vid=f7b551ec-dd01-460a-8f57-ced78ac83f58","ios":"levelo://app?vid=f7b551ec-dd01-460a-8f57-ced78ac83f58"},"vehicle_type_id":"4","last_reported":1687032402,"current_range_meters":25200,"station_id":"ce4bh0p2rcd13ifvqd70","pricing_plan_id":"free"},{"bike_id":"653a339f-2ce9-4e1e-87c3-7a94223d8a20","system_id":"levelo_inurba_marseille","lat":43.30206,"lon":5.39476,"is_reserved":false,"is_disabled":false,"rental_uris":{"android":"levelo://app?vid=653a339f-2ce9-4e1e-87c3-7a94223d8a20","ios":"levelo://app?vid=653a339f-2ce9-4e1e-87c3-7a94223d8a20"},"vehicle_type_id":"4","last_reported":1687032402,"current_range_meters":2400,"station_id":"ce4bh0p2rcd13ifvqd70","pricing_plan_id":"free"},{"bike_id":"da002d38-d2c5-4f8e-a13f-bc80069c9d18","system_id":"levelo_inurba_marseille","lat":43.294153,"lon":5.386305,"is_reserved":false,"is_disabled":false,"rental_uris":{"android":"levelo://app?vid=da002d38-d2c5-4f8e-a13f-bc80069c9d18","ios":"levelo://app?vid=da002d38-d2c5-4f8e-a13f-bc80069c9d18"},"vehicle_type_id":"4","last_reported":1687032402,"current_range_meters":12800,"station_id":"ce4bh2h2rcd13ifvqdh0","pricing_plan_id":"free"},{"bike_id":"fa656370-7798-4355-8f4f-99804ab88192","system_id":"levelo_inurba_marseille","lat":43.29033,"lon":5.37564,"is_reserved":false,"is_disabled":false,"rental_uris":{"android":"levelo://app?vid=fa656370-7798-4355-8f4f-99804ab88192","ios":"levelo://app?vid=fa656370-7798-4355-8f4f-99804ab88192"},"vehicle_type_id":"4","last_reported":1687032402,"current_range_meters":29200,"station_id":"ce4bh692rcd13ifvqe90","pricing_plan_id":"free"},{"bike_id":"cb7feabd-ffea-4010-b2ea-7dfc6ba0b50b","system_id":"levelo_inurba_marseille","lat":43.29417,"lon":5.38628,"is_reserved":false,"is_disabled":false,"rental_uris":{"android":"levelo://app?vid=cb7feabd-ffea-4010-b2ea-7dfc6ba0b50b","ios":"levelo://app?vid=cb7feabd-ffea-4010-b2ea-7dfc6ba0b50b"},"vehicle_type_id":"4","last_reported":1687032402,"current_range_meters":2000,"station_id":"ce4bh2h2rcd13ifvqdh0","pricing_plan_id":"free"},{"bike_id":"439bf87f-5ad1-4b48-bf6c-3d1efaa303c4","system_id":"levelo_inurba_marseille","lat":43.29414,"lon":5.38628,"is_reserved":false,"is_disabled":false,"rental_uris":{"android":"levelo://app?vid=439bf87f-5ad1-4b48-bf6c-3d1efaa303c4","ios":"levelo://app?vid=439bf87f-5ad1-4b48-bf6c-3d1efaa303c4"},"vehicle_type_id":"4","last_reported":1687032402,"current_range_meters":0,"station_id":"ce4bh2h2rcd13ifvqdh0","pricing_plan_id":"free"},{"bike_id":"9ff6d3f6-0c71-43b2-afe5-ff01be66b179","system_id":"levelo_inurba_marseille","lat":43.29265,"lon":5.38434,"is_reserved":false,"is_disabled":false,"rental_uris":{"android":"levelo://app?vid=9ff6d3f6-0c71-43b2-afe5-ff01be66b179","ios":"levelo://app?vid=9ff6d3f6-0c71-43b2-afe5-ff01be66b179"},"vehicle_type_id":"4","last_reported":1687032402,"current_range_meters":6000,"station_id":"ce4bh692rcd13ifvqea0","pricing_plan_id":"free"},{"bike_id":"6c055fb0-f724-40ab-b81d-d09fa32dd525","system_id":"levelo_inurba_marseille","lat":43.292644,"lon":5.384257,"is_reserved":false,"is_disabled":false,"rental_uris":{"android":"levelo://app?vid=6c055fb0-f724-40ab-b81d-d09fa32dd525","ios":"levelo://app?vid=6c055fb0-f724-40ab-b81d-d09fa32dd525"},"vehicle_type_id":"4","last_reported":1687032402,"current_range_meters":0,"station_id":"ce4bh692rcd13ifvqea0","pricing_plan_id":"free"},{"bike_id":"a93d61d8-f606-4959-ace1-fa2c956f62a0","system_id":"levelo_inurba_marseille","lat":43.29264,"lon":5.38442,"is_reserved":false,"is_disabled":false,"rental_uris":{"android":"levelo://app?vid=a93d61d8-f606-4959-ace1-fa2c956f62a0","ios":"levelo://app?vid=a93d61d8-f606-4959-ace1-fa2c956f62a0"},"vehicle_type_id":"4","last_reported":1687032402,"current_range_meters":400,"station_id":"ce4bh692rcd13ifvqea0","pricing_plan_id":"free"},{"bike_id":"38eb09af-7166-42b9-865e-84246929498f","system_id":"levelo_inurba_marseille","lat":43.29257,"lon":5.38445,"is_reserved":false,"is_disabled":false,"rental_uris":{"android":"levelo://app?vid=38eb09af-7166-42b9-865e-84246929498f","ios":"levelo://app?vid=38eb09af-7166-42b9-865e-84246929498f"},"vehicle_type_id":"4","last_reported":1687032402,"current_range_meters":31200,"station_id":"ce4bh692rcd13ifvqea0","pricing_plan_id":"free"},{"bike_id":"7f122123-70f2-4e4c-80bc-c43c8ff7da65","system_id":"levelo_inurba_marseille","lat":43.292644,"lon":5.384257,"is_reserved":false,"is_disabled":false,"rental_uris":{"android":"levelo://app?vid=7f122123-70f2-4e4c-80bc-c43c8ff7da65","ios":"levelo://app?vid=7f122123-70f2-4e4c-80bc-c43c8ff7da65"},"vehicle_type_id":"4","last_reported":1687032402,"current_range_meters":24000,"station_id":"ce4bh692rcd13ifvqea0","pricing_plan_id":"free"},{"bike_id":"7fd899be-ff01-4e68-92e4-c3c351c71c8d","system_id":"levelo_inurba_marseille","lat":43.290104,"lon":5.356111,"is_reserved":false,"is_disabled":false,"rental_uris":{"android":"levelo://app?vid=7fd899be-ff01-4e68-92e4-c3c351c71c8d","ios":"levelo://app?vid=7fd899be-ff01-4e68-92e4-c3c351c71c8d"},"vehicle_type_id":"4","last_reported":1687032402,"current_range_meters":25200,"station_id":"ce4bhb92rcd13ifvqen0","pricing_plan_id":"free"},{"bike_id":"f8f0887b-70e4-4219-a73c-ff998663428a","system_id":"levelo_inurba_marseille","lat":43.289741,"lon":5.378306,"is_reserved":false,"is_disabled":false,"rental_uris":{"android":"levelo://app?vid=f8f0887b-70e4-4219-a73c-ff998663428a","ios":"levelo://app?vid=f8f0887b-70e4-4219-a73c-ff998663428a"},"vehicle_type_id":"4","last_reported":1687032402,"current_range_meters":5200,"station_id":"ce4bh9p2rcd13ifvqed0","pricing_plan_id":"free"},{"bike_id":"b9b44b37-7edf-4ab6-8685-17eb58a26dbc","system_id":"levelo_inurba_marseille","lat":43.295169,"lon":5.390426,"is_reserved":false,"is_disabled":false,"rental_uris":{"android":"levelo://app?vid=b9b44b37-7edf-4ab6-8685-17eb58a26dbc","ios":"levelo://app?vid=b9b44b37-7edf-4ab6-8685-17eb58a26dbc"},"vehicle_type_id":"4","last_reported":1687032402,"current_range_meters":30400,"station_id":"ce4bh3p2rcd13ifvqdp0","pricing_plan_id":"free"},{"bike_id":"c0fb8083-e02d-4dec-b1b9-fa095e6c5b75","system_id":"levelo_inurba_marseille","lat":43.337396,"lon":5.374526,"is_reserved":false,"is_disabled":false,"rental_uris":{"android":"levelo://app?vid=c0fb8083-e02d-4dec-b1b9-fa095e6c5b75","ios":"levelo://app?vid=c0fb8083-e02d-4dec-b1b9-fa095e6c5b75"},"vehicle_type_id":"4","last_reported":1687032402,"current_range_meters":0,"station_id":"ce4bhp92rcd13ifvqhag","pricing_plan_id":"free"},{"bike_id":"dea82d2c-fad5-42a4-8383-6fd0e8472b81","system_id":"levelo_inurba_marseille","lat":43.309371,"lon":5.401449,"is_reserved":false,"is_disabled":false,"rental_uris":{"android":"levelo://app?vid=dea82d2c-fad5-42a4-8383-6fd0e8472b81","ios":"levelo://app?vid=dea82d2c-fad5-42a4-8383-6fd0e8472b81"},"vehicle_type_id":"4","last_reported":1687032402,"current_range_meters":0,"station_id":"ce4bgvp2rcd13ifvqct0","pricing_plan_id":"free"},{"bike_id":"41a8749b-6d93-4d1b-8e52-c5f60f65ae7c","system_id":"levelo_inurba_marseille","lat":43.33752,"lon":5.37443,"is_reserved":false,"is_disabled":false,"rental_uris":{"android":"levelo://app?vid=41a8749b-6d93-4d1b-8e52-c5f60f65ae7c","ios":"levelo://app?vid=41a8749b-6d93-4d1b-8e52-c5f60f65ae7c"},"vehicle_type_id":"4","last_reported":1687032402,"current_range_meters":29600,"station_id":"","pricing_plan_id":"free"},{"bike_id":"a9cd6dee-3762-4d32-a870-aa1f74470000","system_id":"levelo_inurba_marseille","lat":43.33763,"lon":5.37498,"is_reserved":false,"is_disabled":false,"rental_uris":{"android":"levelo://app?vid=a9cd6dee-3762-4d32-a870-aa1f74470000","ios":"levelo://app?vid=a9cd6dee-3762-4d32-a870-aa1f74470000"},"vehicle_type_id":"4","last_reported":1687032402,"current_range_meters":31200,"station_id":"","pricing_plan_id":"free"},{"bike_id":"25f349ad-ee25-482b-afe5-fbb586ee8807","system_id":"levelo_inurba_marseille","lat":43.295196,"lon":5.39397,"is_reserved":false,"is_disabled":false,"rental_uris":{"android":"levelo://app?vid=25f349ad-ee25-482b-afe5-fbb586ee8807","ios":"levelo://app?vid=25f349ad-ee25-482b-afe5-fbb586ee8807"},"vehicle_type_id":"4","last_reported":1687032402,"current_range_meters":5200,"station_id":"ce4bh292rcd13ifvqdf0","pricing_plan_id":"free"},{"bike_id":"ba299de9-a9a6-44d7-bdb7-9159de90629f","system_id":"levelo_inurba_marseille","lat":43.295196,"lon":5.39397,"is_reserved":false,"is_disabled":false,"rental_uris":{"android":"levelo://app?vid=ba299de9-a9a6-44d7-bdb7-9159de90629f","ios":"levelo://app?vid=ba299de9-a9a6-44d7-bdb7-9159de90629f"},"vehicle_type_id":"4","last_reported":1687032402,"current_range_meters":1200,"station_id":"ce4bh292rcd13ifvqdf0","pricing_plan_id":"free"},{"bike_id":"a61e7666-7914-4748-9cc8-77e16b81955e","system_id":"levelo_inurba_marseille","lat":43.295196,"lon":5.39397,"is_reserved":false,"is_disabled":false,"rental_uris":{"android":"levelo://app?vid=a61e7666-7914-4748-9cc8-77e16b81955e","ios":"levelo://app?vid=a61e7666-7914-4748-9cc8-77e16b81955e"},"vehicle_type_id":"4","last_reported":1687032402,"current_range_meters":4400,"station_id":"ce4bh292rcd13ifvqdf0","pricing_plan_id":"free"},{"bike_id":"6a6b6c59-8c03-4246-be83-48e3fa4cc618","system_id":"levelo_inurba_marseille","lat":43.295194,"lon":5.39397,"is_reserved":false,"is_disabled":false,"rental_uris":{"android":"levelo://app?vid=6a6b6c59-8c03-4246-be83-48e3fa4cc618","ios":"levelo://app?vid=6a6b6c59-8c03-4246-be83-48e3fa4cc618"},"vehicle_type_id":"4","last_reported":1687032402,"current_range_meters":28800,"station_id":"ce4bh292rcd13ifvqdf0","pricing_plan_id":"free"},{"bike_id":"d7653d5b-84f4-4540-9979-20f55f5f1db3","system_id":"levelo_inurba_marseille","lat":43.295194,"lon":5.39397,"is_reserved":false,"is_disabled":false,"rental_uris":{"android":"levelo://app?vid=d7653d5b-84f4-4540-9979-20f55f5f1db3","ios":"levelo://app?vid=d7653d5b-84f4-4540-9979-20f55f5f1db3"},"vehicle_type_id":"4","last_reported":1687032402,"current_range_meters":12000,"station_id":"ce4bh292rcd13ifvqdf0","pricing_plan_id":"free"},{"bike_id":"77f14d25-e69e-46f6-9941-cb348aeaadb3","system_id":"levelo_inurba_marseille","lat":43.302759,"lon":5.400793,"is_reserved":false,"is_disabled":false,"rental_uris":{"android":"levelo://app?vid=77f14d25-e69e-46f6-9941-cb348aeaadb3","ios":"levelo://app?vid=77f14d25-e69e-46f6-9941-cb348aeaadb3"},"vehicle_type_id":"4","last_reported":1687032402,"current_range_meters":24000,"station_id":"ce4bgvh2rcd13ifvqcs0","pricing_plan_id":"free"},{"bike_id":"2d3a8acc-38b8-4435-a610-07cbeeeac1f0","system_id":"levelo_inurba_marseille","lat":43.302759,"lon":5.400793,"is_reserved":false,"is_disabled":false,"rental_uris":{"android":"levelo://app?vid=2d3a8acc-38b8-4435-a610-07cbeeeac1f0","ios":"levelo://app?vid=2d3a8acc-38b8-4435-a610-07cbeeeac1f0"},"vehicle_type_id":"4","last_reported":1687032402,"current_range_meters":1200,"station_id":"ce4bgvh2rcd13ifvqcs0","pricing_plan_id":"free"},{"bike_id":"cafadc54-b264-4a26-8fd8-f4cd402b6bc5","system_id":"levelo_inurba_marseille","lat":43.290336,"lon":5.386425,"is_reserved":false,"is_disabled":false,"rental_uris":{"android":"levelo://app?vid=cafadc54-b264-4a26-8fd8-f4cd402b6bc5","ios":"levelo://app?vid=cafadc54-b264-4a26-8fd8-f4cd402b6bc5"},"vehicle_type_id":"4","last_reported":1687032402,"current_range_meters":9600,"station_id":"ce4bh4p2rcd13ifvqe0g","pricing_plan_id":"free"},{"bike_id":"fab32c9c-bd74-453f-888e-08ae03b4a1c4","system_id":"levelo_inurba_marseille","lat":43.286039,"lon":5.370679,"is_reserved":false,"is_disabled":false,"rental_uris":{"android":"levelo://app?vid=fab32c9c-bd74-453f-888e-08ae03b4a1c4","ios":"levelo://app?vid=fab32c9c-bd74-453f-888e-08ae03b4a1c4"},"vehicle_type_id":"4","last_reported":1687032402,"current_range_meters":31200,"station_id":"ce4bht12rcd13ifvqi60","pricing_plan_id":"free"},{"bike_id":"e74fc74f-3724-41a9-b71b-7cf2495afa77","system_id":"levelo_inurba_marseille","lat":43.286039,"lon":5.370679,"is_reserved":false,"is_disabled":false,"rental_uris":{"android":"levelo://app?vid=e74fc74f-3724-41a9-b71b-7cf2495afa77","ios":"levelo://app?vid=e74fc74f-3724-41a9-b71b-7cf2495afa77"},"vehicle_type_id":"4","last_reported":1687032402,"current_range_meters":4800,"station_id":"ce4bht12rcd13ifvqi60","pricing_plan_id":"free"},{"bike_id":"1b458d9e-8c53-4ccc-b905-35e564e8fa8a","system_id":"levelo_inurba_marseille","lat":43.31651,"lon":5.40438,"is_reserved":false,"is_disabled":false,"rental_uris":{"android":"levelo://app?vid=1b458d9e-8c53-4ccc-b905-35e564e8fa8a","ios":"levelo://app?vid=1b458d9e-8c53-4ccc-b905-35e564e8fa8a"},"vehicle_type_id":"4","last_reported":1687032402,"current_range_meters":7200,"station_id":"ce4bh012rcd13ifvqd00","pricing_plan_id":"free"},{"bike_id":"4002193a-b434-481a-87ad-94cfb6eca5e3","system_id":"levelo_inurba_marseille","lat":43.31645,"lon":5.40441,"is_reserved":false,"is_disabled":false,"rental_uris":{"android":"levelo://app?vid=4002193a-b434-481a-87ad-94cfb6eca5e3","ios":"levelo://app?vid=4002193a-b434-481a-87ad-94cfb6eca5e3"},"vehicle_type_id":"4","last_reported":1687032402,"current_range_meters":9200,"station_id":"ce4bh012rcd13ifvqd00","pricing_plan_id":"free"},{"bike_id":"a278104e-0224-471b-bf69-08650d5c2d32","system_id":"levelo_inurba_marseille","lat":43.291994,"lon":5.392907,"is_reserved":false,"is_disabled":false,"rental_uris":{"android":"levelo://app?vid=a278104e-0224-471b-bf69-08650d5c2d32","ios":"levelo://app?vid=a278104e-0224-471b-bf69-08650d5c2d32"},"vehicle_type_id":"4","last_reported":1687032402,"current_range_meters":6800,"station_id":"ce4bh192rcd13ifvqdd0","pricing_plan_id":"free"},{"bike_id":"d96eb2d8-7bd8-472d-b4cd-4d3ebf3f0414","system_id":"levelo_inurba_marseille","lat":43.294314,"lon":5.397498,"is_reserved":false,"is_disabled":false,"rental_uris":{"android":"levelo://app?vid=d96eb2d8-7bd8-472d-b4cd-4d3ebf3f0414","ios":"levelo://app?vid=d96eb2d8-7bd8-472d-b4cd-4d3ebf3f0414"},"vehicle_type_id":"4","last_reported":1687032402,"current_range_meters":6800,"station_id":"ce4bh3h2rcd13ifvqdo0","pricing_plan_id":"free"},{"bike_id":"40392785-2ac7-4530-8d6b-c3588cafb45f","system_id":"levelo_inurba_marseille","lat":43.286595,"lon":5.386795,"is_reserved":false,"is_disabled":false,"rental_uris":{"android":"levelo://app?vid=40392785-2ac7-4530-8d6b-c3588cafb45f","ios":"levelo://app?vid=40392785-2ac7-4530-8d6b-c3588cafb45f"},"vehicle_type_id":"4","last_reported":1687032402,"current_range_meters":0,"station_id":"ce4bh492rcd13ifvqdug","pricing_plan_id":"free"},{"bike_id":"43275ef6-770c-4f0e-926c-1c3aecd7abec","system_id":"levelo_inurba_marseille","lat":43.287909,"lon":5.390554,"is_reserved":false,"is_disabled":false,"rental_uris":{"android":"levelo://app?vid=43275ef6-770c-4f0e-926c-1c3aecd7abec","ios":"levelo://app?vid=43275ef6-770c-4f0e-926c-1c3aecd7abec"},"vehicle_type_id":"4","last_reported":1687032402,"current_range_meters":15200,"station_id":"","pricing_plan_id":"free"},{"bike_id":"16e5fedd-6e86-436a-a0a2-72c7cd60a6ea","system_id":"levelo_inurba_marseille","lat":43.323464,"lon":5.406297,"is_reserved":false,"is_disabled":false,"rental_uris":{"android":"levelo://app?vid=16e5fedd-6e86-436a-a0a2-72c7cd60a6ea","ios":"levelo://app?vid=16e5fedd-6e86-436a-a0a2-72c7cd60a6ea"},"vehicle_type_id":"4","last_reported":1687032402,"current_range_meters":29600,"station_id":"ce4bhq92rcd13ifvqhjg","pricing_plan_id":"free"},{"bike_id":"00b4d942-d645-4a17-a320-9c02b5ecca68","system_id":"levelo_inurba_marseille","lat":43.288501,"lon":5.393087,"is_reserved":false,"is_disabled":false,"rental_uris":{"android":"levelo://app?vid=00b4d942-d645-4a17-a320-9c02b5ecca68","ios":"levelo://app?vid=00b4d942-d645-4a17-a320-9c02b5ecca68"},"vehicle_type_id":"4","last_reported":1687032402,"current_range_meters":24800,"station_id":"ce4bh2p2rcd13ifvqdi0","pricing_plan_id":"free"},{"bike_id":"27d25dcc-f4bb-4a1e-8032-595faad38501","system_id":"levelo_inurba_marseille","lat":43.28355,"lon":5.38107,"is_reserved":false,"is_disabled":false,"rental_uris":{"android":"levelo://app?vid=27d25dcc-f4bb-4a1e-8032-595faad38501","ios":"levelo://app?vid=27d25dcc-f4bb-4a1e-8032-595faad38501"},"vehicle_type_id":"4","last_reported":1687032402,"current_range_meters":0,"station_id":"ce4bh412rcd13ifvqdr0","pricing_plan_id":"free"},{"bike_id":"485fbe80-7791-47a3-874c-0d57ca2838f7","system_id":"levelo_inurba_marseille","lat":43.28345,"lon":5.38108,"is_reserved":false,"is_disabled":false,"rental_uris":{"android":"levelo://app?vid=485fbe80-7791-47a3-874c-0d57ca2838f7","ios":"levelo://app?vid=485fbe80-7791-47a3-874c-0d57ca2838f7"},"vehicle_type_id":"4","last_reported":1687032402,"current_range_meters":22800,"station_id":"","pricing_plan_id":"free"},{"bike_id":"1f24386c-f4de-4f2b-bb8a-d54495b1f62e","system_id":"levelo_inurba_marseille","lat":43.292724,"lon":5.401131,"is_reserved":false,"is_disabled":false,"rental_uris":{"android":"levelo://app?vid=1f24386c-f4de-4f2b-bb8a-d54495b1f62e","ios":"levelo://app?vid=1f24386c-f4de-4f2b-bb8a-d54495b1f62e"},"vehicle_type_id":"4","last_reported":1687032402,"current_range_meters":29200,"station_id":"ce4bh312rcd13ifvqdk0","pricing_plan_id":"free"},{"bike_id":"5646d184-4b8c-4a71-a31a-865415b07750","system_id":"levelo_inurba_marseille","lat":43.28039,"lon":5.369297,"is_reserved":false,"is_disabled":false,"rental_uris":{"android":"levelo://app?vid=5646d184-4b8c-4a71-a31a-865415b07750","ios":"levelo://app?vid=5646d184-4b8c-4a71-a31a-865415b07750"},"vehicle_type_id":"4","last_reported":1687032402,"current_range_meters":3200,"station_id":"ce4bha12rcd13ifvqef0","pricing_plan_id":"free"},{"bike_id":"d0d2a598-1c50-46fa-9cb3-63cd31287f26","system_id":"levelo_inurba_marseille","lat":43.28039,"lon":5.369297,"is_reserved":false,"is_disabled":false,"rental_uris":{"android":"levelo://app?vid=d0d2a598-1c50-46fa-9cb3-63cd31287f26","ios":"levelo://app?vid=d0d2a598-1c50-46fa-9cb3-63cd31287f26"},"vehicle_type_id":"4","last_reported":1687032402,"current_range_meters":16400,"station_id":"ce4bha12rcd13ifvqef0","pricing_plan_id":"free"},{"bike_id":"4caee429-b645-4db1-b3b4-c85bec18a4f4","system_id":"levelo_inurba_marseille","lat":43.28039,"lon":5.369297,"is_reserved":false,"is_disabled":false,"rental_uris":{"android":"levelo://app?vid=4caee429-b645-4db1-b3b4-c85bec18a4f4","ios":"levelo://app?vid=4caee429-b645-4db1-b3b4-c85bec18a4f4"},"vehicle_type_id":"4","last_reported":1687032402,"current_range_meters":2000,"station_id":"ce4bha12rcd13ifvqef0","pricing_plan_id":"free"},{"bike_id":"32c84e20-4726-4674-87ba-2b5ef7e1f362","system_id":"levelo_inurba_marseille","lat":43.28039,"lon":5.369297,"is_reserved":false,"is_disabled":false,"rental_uris":{"android":"levelo://app?vid=32c84e20-4726-4674-87ba-2b5ef7e1f362","ios":"levelo://app?vid=32c84e20-4726-4674-87ba-2b5ef7e1f362"},"vehicle_type_id":"4","last_reported":1687032402,"current_range_meters":14000,"station_id":"ce4bha12rcd13ifvqef0","pricing_plan_id":"free"},{"bike_id":"1b46c873-fefd-463c-990b-fbe54fde90d7","system_id":"levelo_inurba_marseille","lat":43.28039,"lon":5.369297,"is_reserved":false,"is_disabled":false,"rental_uris":{"android":"levelo://app?vid=1b46c873-fefd-463c-990b-fbe54fde90d7","ios":"levelo://app?vid=1b46c873-fefd-463c-990b-fbe54fde90d7"},"vehicle_type_id":"4","last_reported":1687032402,"current_range_meters":10800,"station_id":"ce4bha12rcd13ifvqef0","pricing_plan_id":"free"},{"bike_id":"9874670b-ed78-4f76-b92d-e0a79fc44bda","system_id":"levelo_inurba_marseille","lat":43.2791,"lon":5.38015,"is_reserved":false,"is_disabled":false,"rental_uris":{"android":"levelo://app?vid=9874670b-ed78-4f76-b92d-e0a79fc44bda","ios":"levelo://app?vid=9874670b-ed78-4f76-b92d-e0a79fc44bda"},"vehicle_type_id":"4","last_reported":1687032402,"current_range_meters":22000,"station_id":"","pricing_plan_id":"free"},{"bike_id":"d5c70807-5d0d-47ff-a4a9-0d47da595a59","system_id":"levelo_inurba_marseille","lat":43.287154,"lon":5.399979,"is_reserved":false,"is_disabled":false,"rental_uris":{"android":"levelo://app?vid=d5c70807-5d0d-47ff-a4a9-0d47da595a59","ios":"levelo://app?vid=d5c70807-5d0d-47ff-a4a9-0d47da595a59"},"vehicle_type_id":"4","last_reported":1687032402,"current_range_meters":0,"station_id":"ce4bho92rcd13ifvqh3g","pricing_plan_id":"free"},{"bike_id":"6b953df6-decf-42e4-9d96-19bff1bcf405","system_id":"levelo_inurba_marseille","lat":43.27975,"lon":5.38726,"is_reserved":false,"is_disabled":false,"rental_uris":{"android":"levelo://app?vid=6b953df6-decf-42e4-9d96-19bff1bcf405","ios":"levelo://app?vid=6b953df6-decf-42e4-9d96-19bff1bcf405"},"vehicle_type_id":"4","last_reported":1687032402,"current_range_meters":21600,"station_id":"ce4bhg12rcd13ifvqf80","pricing_plan_id":"free"},{"bike_id":"7e3a82b4-d746-4295-90c2-5de7a33459a9","system_id":"levelo_inurba_marseille","lat":43.27972,"lon":5.38727,"is_reserved":false,"is_disabled":false,"rental_uris":{"android":"levelo://app?vid=7e3a82b4-d746-4295-90c2-5de7a33459a9","ios":"levelo://app?vid=7e3a82b4-d746-4295-90c2-5de7a33459a9"},"vehicle_type_id":"4","last_reported":1687032402,"current_range_meters":24400,"station_id":"","pricing_plan_id":"free"},{"bike_id":"a19cbe22-9033-45b5-bece-bf53d57e8d23","system_id":"levelo_inurba_marseille","lat":43.320045,"lon":5.415046,"is_reserved":false,"is_disabled":false,"rental_uris":{"android":"levelo://app?vid=a19cbe22-9033-45b5-bece-bf53d57e8d23","ios":"levelo://app?vid=a19cbe22-9033-45b5-bece-bf53d57e8d23"},"vehicle_type_id":"4","last_reported":1687032402,"current_range_meters":15200,"station_id":"ce4bhq92rcd13ifvqhkg","pricing_plan_id":"free"},{"bike_id":"fc07ce33-43ab-493e-a38b-98548b256b57","system_id":"levelo_inurba_marseille","lat":43.29251,"lon":5.40894,"is_reserved":false,"is_disabled":false,"rental_uris":{"android":"levelo://app?vid=fc07ce33-43ab-493e-a38b-98548b256b57","ios":"levelo://app?vid=fc07ce33-43ab-493e-a38b-98548b256b57"},"vehicle_type_id":"4","last_reported":1687032402,"current_range_meters":400,"station_id":"ce4bh192rcd13ifvqdc0","pricing_plan_id":"free"},{"bike_id":"ea25047e-2fc3-4c03-b5fe-2b2b3f52b7b6","system_id":"levelo_inurba_marseille","lat":43.292571,"lon":5.409107,"is_reserved":false,"is_disabled":false,"rental_uris":{"android":"levelo://app?vid=ea25047e-2fc3-4c03-b5fe-2b2b3f52b7b6","ios":"levelo://app?vid=ea25047e-2fc3-4c03-b5fe-2b2b3f52b7b6"},"vehicle_type_id":"4","last_reported":1687032402,"current_range_meters":0,"station_id":"ce4bh192rcd13ifvqdc0","pricing_plan_id":"free"},{"bike_id":"a7f366c2-874e-4be8-ad8f-afe708fd90e3","system_id":"levelo_inurba_marseille","lat":43.27618,"lon":5.361009,"is_reserved":false,"is_disabled":false,"rental_uris":{"android":"levelo://app?vid=a7f366c2-874e-4be8-ad8f-afe708fd90e3","ios":"levelo://app?vid=a7f366c2-874e-4be8-ad8f-afe708fd90e3"},"vehicle_type_id":"4","last_reported":1687032402,"current_range_meters":24400,"station_id":"ce4bgj92rcd13ifvqbe0","pricing_plan_id":"free"},{"bike_id":"3afa5abb-0a64-479c-888a-cf99465cd00a","system_id":"levelo_inurba_marseille","lat":43.27821,"lon":5.38916,"is_reserved":false,"is_disabled":false,"rental_uris":{"android":"levelo://app?vid=3afa5abb-0a64-479c-888a-cf99465cd00a","ios":"levelo://app?vid=3afa5abb-0a64-479c-888a-cf99465cd00a"},"vehicle_type_id":"4","last_reported":1687032402,"current_range_meters":2800,"station_id":"","pricing_plan_id":"free"},{"bike_id":"f7cb4d63-724b-4985-aa4a-5b18a2747f97","system_id":"levelo_inurba_marseille","lat":43.280784,"lon":5.396622,"is_reserved":false,"is_disabled":false,"rental_uris":{"android":"levelo://app?vid=f7cb4d63-724b-4985-aa4a-5b18a2747f97","ios":"levelo://app?vid=f7cb4d63-724b-4985-aa4a-5b18a2747f97"},"vehicle_type_id":"4","last_reported":1687032402,"current_range_meters":3600,"station_id":"ce4bho12rcd13ifvqh2g","pricing_plan_id":"free"},{"bike_id":"50c70489-5f25-4594-9e5b-b8744f5c9ef0","system_id":"levelo_inurba_marseille","lat":43.27674,"lon":5.38889,"is_reserved":false,"is_disabled":false,"rental_uris":{"android":"levelo://app?vid=50c70489-5f25-4594-9e5b-b8744f5c9ef0","ios":"levelo://app?vid=50c70489-5f25-4594-9e5b-b8744f5c9ef0"},"vehicle_type_id":"4","last_reported":1687032402,"current_range_meters":3200,"station_id":"ce4bhi12rcd13ifvqfo0","pricing_plan_id":"free"},{"bike_id":"605e99ef-31e2-473a-b14b-90bfb9d35464","system_id":"levelo_inurba_marseille","lat":43.31721,"lon":5.424,"is_reserved":false,"is_disabled":false,"rental_uris":{"android":"levelo://app?vid=605e99ef-31e2-473a-b14b-90bfb9d35464","ios":"levelo://app?vid=605e99ef-31e2-473a-b14b-90bfb9d35464"},"vehicle_type_id":"4","last_reported":1687032402,"current_range_meters":22400,"station_id":"ce4bhp92rcd13ifvqhbg","pricing_plan_id":"free"},{"bike_id":"e3802016-3aa4-4eae-8bd7-be0d8fe1145f","system_id":"levelo_inurba_marseille","lat":43.273139,"lon":5.390874,"is_reserved":false,"is_disabled":false,"rental_uris":{"android":"levelo://app?vid=e3802016-3aa4-4eae-8bd7-be0d8fe1145f","ios":"levelo://app?vid=e3802016-3aa4-4eae-8bd7-be0d8fe1145f"},"vehicle_type_id":"4","last_reported":1687032402,"current_range_meters":2000,"station_id":"ce4bhgp2rcd13ifvqfe0","pricing_plan_id":"free"},{"bike_id":"eccf7542-747e-4ae3-bde2-55f7842b0215","system_id":"levelo_inurba_marseille","lat":43.27423,"lon":5.39406,"is_reserved":false,"is_disabled":false,"rental_uris":{"android":"levelo://app?vid=eccf7542-747e-4ae3-bde2-55f7842b0215","ios":"levelo://app?vid=eccf7542-747e-4ae3-bde2-55f7842b0215"},"vehicle_type_id":"4","last_reported":1687032402,"current_range_meters":20000,"station_id":"","pricing_plan_id":"free"},{"bike_id":"a3c0b230-1ef1-4747-bc7a-9cae75611082","system_id":"levelo_inurba_marseille","lat":43.27423,"lon":5.39411,"is_reserved":false,"is_disabled":false,"rental_uris":{"android":"levelo://app?vid=a3c0b230-1ef1-4747-bc7a-9cae75611082","ios":"levelo://app?vid=a3c0b230-1ef1-4747-bc7a-9cae75611082"},"vehicle_type_id":"4","last_reported":1687032402,"current_range_meters":8800,"station_id":"","pricing_plan_id":"free"},{"bike_id":"6275aaca-a354-407f-be44-df40f2969d44","system_id":"levelo_inurba_marseille","lat":43.273125,"lon":5.390731,"is_reserved":false,"is_disabled":false,"rental_uris":{"android":"levelo://app?vid=6275aaca-a354-407f-be44-df40f2969d44","ios":"levelo://app?vid=6275aaca-a354-407f-be44-df40f2969d44"},"vehicle_type_id":"4","last_reported":1687032402,"current_range_meters":31200,"station_id":"ce4bhgp2rcd13ifvqfe0","pricing_plan_id":"free"},{"bike_id":"f82c4e0b-ce86-4de4-962b-f266d6ba506e","system_id":"levelo_inurba_marseille","lat":43.273125,"lon":5.390731,"is_reserved":false,"is_disabled":false,"rental_uris":{"android":"levelo://app?vid=f82c4e0b-ce86-4de4-962b-f266d6ba506e","ios":"levelo://app?vid=f82c4e0b-ce86-4de4-962b-f266d6ba506e"},"vehicle_type_id":"4","last_reported":1687032402,"current_range_meters":29200,"station_id":"ce4bhgp2rcd13ifvqfe0","pricing_plan_id":"free"},{"bike_id":"c2047bb5-22cd-49bd-b587-998080a823b4","system_id":"levelo_inurba_marseille","lat":43.27423,"lon":5.39417,"is_reserved":false,"is_disabled":false,"rental_uris":{"android":"levelo://app?vid=c2047bb5-22cd-49bd-b587-998080a823b4","ios":"levelo://app?vid=c2047bb5-22cd-49bd-b587-998080a823b4"},"vehicle_type_id":"4","last_reported":1687032402,"current_range_meters":15200,"station_id":"","pricing_plan_id":"free"},{"bike_id":"cfba2fbe-9ed5-423f-b411-8d6c38451715","system_id":"levelo_inurba_marseille","lat":43.27301,"lon":5.390833,"is_reserved":false,"is_disabled":false,"rental_uris":{"android":"levelo://app?vid=cfba2fbe-9ed5-423f-b411-8d6c38451715","ios":"levelo://app?vid=cfba2fbe-9ed5-423f-b411-8d6c38451715"},"vehicle_type_id":"4","last_reported":1687032402,"current_range_meters":31200,"station_id":"ce4bhgp2rcd13ifvqfe0","pricing_plan_id":"free"},{"bike_id":"a3c5653a-2ceb-496d-90f7-32ed3da026ca","system_id":"levelo_inurba_marseille","lat":43.304096,"lon":5.425385,"is_reserved":false,"is_disabled":false,"rental_uris":{"android":"levelo://app?vid=a3c5653a-2ceb-496d-90f7-32ed3da026ca","ios":"levelo://app?vid=a3c5653a-2ceb-496d-90f7-32ed3da026ca"},"vehicle_type_id":"4","last_reported":1687032402,"current_range_meters":800,"station_id":"ce4bhoh2rcd13ifvqh6g","pricing_plan_id":"free"},{"bike_id":"c7c208a7-5834-4cc7-b9ad-617762a9327b","system_id":"levelo_inurba_marseille","lat":43.295523,"lon":5.422926,"is_reserved":false,"is_disabled":false,"rental_uris":{"android":"levelo://app?vid=c7c208a7-5834-4cc7-b9ad-617762a9327b","ios":"levelo://app?vid=c7c208a7-5834-4cc7-b9ad-617762a9327b"},"vehicle_type_id":"4","last_reported":1687032402,"current_range_meters":12400,"station_id":"ce4bhph2rcd13ifvqhdg","pricing_plan_id":"free"},{"bike_id":"17b54309-3065-4be1-a8b9-b08272f5856d","system_id":"levelo_inurba_marseille","lat":43.29554,"lon":5.42284,"is_reserved":false,"is_disabled":false,"rental_uris":{"android":"levelo://app?vid=17b54309-3065-4be1-a8b9-b08272f5856d","ios":"levelo://app?vid=17b54309-3065-4be1-a8b9-b08272f5856d"},"vehicle_type_id":"4","last_reported":1687032402,"current_range_meters":25200,"station_id":"ce4bhph2rcd13ifvqhdg","pricing_plan_id":"free"},{"bike_id":"809167dc-5bff-4d12-adff-f5adde152137","system_id":"levelo_inurba_marseille","lat":43.272124,"lon":5.391768,"is_reserved":false,"is_disabled":false,"rental_uris":{"android":"levelo://app?vid=809167dc-5bff-4d12-adff-f5adde152137","ios":"levelo://app?vid=809167dc-5bff-4d12-adff-f5adde152137"},"vehicle_type_id":"4","last_reported":1687032402,"current_range_meters":2000,"station_id":"ce4bhhp2rcd13ifvqfm0","pricing_plan_id":"free"},{"bike_id":"1debb75f-616d-4cea-b1f4-11190dfc5f83","system_id":"levelo_inurba_marseille","lat":43.2721,"lon":5.39182,"is_reserved":false,"is_disabled":false,"rental_uris":{"android":"levelo://app?vid=1debb75f-616d-4cea-b1f4-11190dfc5f83","ios":"levelo://app?vid=1debb75f-616d-4cea-b1f4-11190dfc5f83"},"vehicle_type_id":"4","last_reported":1687032402,"current_range_meters":800,"station_id":"ce4bhhp2rcd13ifvqfm0","pricing_plan_id":"free"},{"bike_id":"90d6893a-f1b0-4703-883c-6fbf42830f17","system_id":"levelo_inurba_marseille","lat":43.27174,"lon":5.39077,"is_reserved":false,"is_disabled":false,"rental_uris":{"android":"levelo://app?vid=90d6893a-f1b0-4703-883c-6fbf42830f17","ios":"levelo://app?vid=90d6893a-f1b0-4703-883c-6fbf42830f17"},"vehicle_type_id":"4","last_reported":1687032402,"current_range_meters":25200,"station_id":"","pricing_plan_id":"free"},{"bike_id":"24077aae-22cf-4e9b-87d1-9ebb83667652","system_id":"levelo_inurba_marseille","lat":43.2781,"lon":5.4071,"is_reserved":false,"is_disabled":false,"rental_uris":{"android":"levelo://app?vid=24077aae-22cf-4e9b-87d1-9ebb83667652","ios":"levelo://app?vid=24077aae-22cf-4e9b-87d1-9ebb83667652"},"vehicle_type_id":"4","last_reported":1687032402,"current_range_meters":29200,"station_id":"ce4bhnh2rcd13ifvqgtg","pricing_plan_id":"free"},{"bike_id":"f63ec399-f461-4132-a7fc-d6ce0f8d97e8","system_id":"levelo_inurba_marseille","lat":43.2781,"lon":5.40712,"is_reserved":false,"is_disabled":false,"rental_uris":{"android":"levelo://app?vid=f63ec399-f461-4132-a7fc-d6ce0f8d97e8","ios":"levelo://app?vid=f63ec399-f461-4132-a7fc-d6ce0f8d97e8"},"vehicle_type_id":"4","last_reported":1687032402,"current_range_meters":19200,"station_id":"ce4bhnh2rcd13ifvqgtg","pricing_plan_id":"free"},{"bike_id":"d8db7db3-62a7-436a-9d1e-aea3493f2459","system_id":"levelo_inurba_marseille","lat":43.26681,"lon":5.382694,"is_reserved":false,"is_disabled":false,"rental_uris":{"android":"levelo://app?vid=d8db7db3-62a7-436a-9d1e-aea3493f2459","ios":"levelo://app?vid=d8db7db3-62a7-436a-9d1e-aea3493f2459"},"vehicle_type_id":"4","last_reported":1687032402,"current_range_meters":5200,"station_id":"ce4bhg92rcd13ifvqf90","pricing_plan_id":"free"},{"bike_id":"1966b9b1-41b4-46cf-a2b8-50f73c10f991","system_id":"levelo_inurba_marseille","lat":43.26691,"lon":5.38272,"is_reserved":false,"is_disabled":false,"rental_uris":{"android":"levelo://app?vid=1966b9b1-41b4-46cf-a2b8-50f73c10f991","ios":"levelo://app?vid=1966b9b1-41b4-46cf-a2b8-50f73c10f991"},"vehicle_type_id":"4","last_reported":1687032402,"current_range_meters":31200,"station_id":"ce4bhg92rcd13ifvqf90","pricing_plan_id":"free"},{"bike_id":"efe69a54-7ac4-4197-aa31-bead5a356e62","system_id":"levelo_inurba_marseille","lat":43.26689,"lon":5.38281,"is_reserved":false,"is_disabled":false,"rental_uris":{"android":"levelo://app?vid=efe69a54-7ac4-4197-aa31-bead5a356e62","ios":"levelo://app?vid=efe69a54-7ac4-4197-aa31-bead5a356e62"},"vehicle_type_id":"4","last_reported":1687032402,"current_range_meters":24400,"station_id":"ce4bhg92rcd13ifvqf90","pricing_plan_id":"free"},{"bike_id":"66f04f4e-86d2-44ca-8163-a51790206b0b","system_id":"levelo_inurba_marseille","lat":43.26681,"lon":5.382694,"is_reserved":false,"is_disabled":false,"rental_uris":{"android":"levelo://app?vid=66f04f4e-86d2-44ca-8163-a51790206b0b","ios":"levelo://app?vid=66f04f4e-86d2-44ca-8163-a51790206b0b"},"vehicle_type_id":"4","last_reported":1687032402,"current_range_meters":4400,"station_id":"ce4bhg92rcd13ifvqf90","pricing_plan_id":"free"},{"bike_id":"7e80adc5-b785-4b7a-825f-001784eb8c70","system_id":"levelo_inurba_marseille","lat":43.26684,"lon":5.38269,"is_reserved":false,"is_disabled":false,"rental_uris":{"android":"levelo://app?vid=7e80adc5-b785-4b7a-825f-001784eb8c70","ios":"levelo://app?vid=7e80adc5-b785-4b7a-825f-001784eb8c70"},"vehicle_type_id":"4","last_reported":1687032402,"current_range_meters":19200,"station_id":"ce4bhg92rcd13ifvqf90","pricing_plan_id":"free"},{"bike_id":"243e7354-ba1b-4746-828d-c5de9cd6c538","system_id":"levelo_inurba_marseille","lat":43.26681,"lon":5.382694,"is_reserved":false,"is_disabled":false,"rental_uris":{"android":"levelo://app?vid=243e7354-ba1b-4746-828d-c5de9cd6c538","ios":"levelo://app?vid=243e7354-ba1b-4746-828d-c5de9cd6c538"},"vehicle_type_id":"4","last_reported":1687032402,"current_range_meters":22000,"station_id":"ce4bhg92rcd13ifvqf90","pricing_plan_id":"free"},{"bike_id":"c50523d7-bf6d-4294-b132-d51917413983","system_id":"levelo_inurba_marseille","lat":43.26681,"lon":5.382694,"is_reserved":false,"is_disabled":false,"rental_uris":{"android":"levelo://app?vid=c50523d7-bf6d-4294-b132-d51917413983","ios":"levelo://app?vid=c50523d7-bf6d-4294-b132-d51917413983"},"vehicle_type_id":"4","last_reported":1687032402,"current_range_meters":31200,"station_id":"ce4bhg92rcd13ifvqf90","pricing_plan_id":"free"},{"bike_id":"0fc70891-18cb-4a21-950f-f0b149f9031c","system_id":"levelo_inurba_marseille","lat":43.26681,"lon":5.382694,"is_reserved":false,"is_disabled":false,"rental_uris":{"android":"levelo://app?vid=0fc70891-18cb-4a21-950f-f0b149f9031c","ios":"levelo://app?vid=0fc70891-18cb-4a21-950f-f0b149f9031c"},"vehicle_type_id":"4","last_reported":1687032402,"current_range_meters":27200,"station_id":"ce4bhg92rcd13ifvqf90","pricing_plan_id":"free"},{"bike_id":"e124e6c2-8f4f-42af-9cd2-d1ecb0550a04","system_id":"levelo_inurba_marseille","lat":43.26681,"lon":5.382694,"is_reserved":false,"is_disabled":false,"rental_uris":{"android":"levelo://app?vid=e124e6c2-8f4f-42af-9cd2-d1ecb0550a04","ios":"levelo://app?vid=e124e6c2-8f4f-42af-9cd2-d1ecb0550a04"},"vehicle_type_id":"4","last_reported":1687032402,"current_range_meters":31200,"station_id":"ce4bhg92rcd13ifvqf90","pricing_plan_id":"free"},{"bike_id":"80b55d8c-7ac0-4e8b-8f62-d49781de8e9b","system_id":"levelo_inurba_marseille","lat":43.26681,"lon":5.38272,"is_reserved":false,"is_disabled":false,"rental_uris":{"android":"levelo://app?vid=80b55d8c-7ac0-4e8b-8f62-d49781de8e9b","ios":"levelo://app?vid=80b55d8c-7ac0-4e8b-8f62-d49781de8e9b"},"vehicle_type_id":"4","last_reported":1687032402,"current_range_meters":26000,"station_id":"ce4bhg92rcd13ifvqf90","pricing_plan_id":"free"},{"bike_id":"805dd294-8c9f-4366-bba0-c6bedbd1112d","system_id":"levelo_inurba_marseille","lat":43.26681,"lon":5.382694,"is_reserved":false,"is_disabled":false,"rental_uris":{"android":"levelo://app?vid=805dd294-8c9f-4366-bba0-c6bedbd1112d","ios":"levelo://app?vid=805dd294-8c9f-4366-bba0-c6bedbd1112d"},"vehicle_type_id":"4","last_reported":1687032402,"current_range_meters":31200,"station_id":"ce4bhg92rcd13ifvqf90","pricing_plan_id":"free"},{"bike_id":"1cc38e42-d238-435a-9d73-d79862600457","system_id":"levelo_inurba_marseille","lat":43.26679,"lon":5.38272,"is_reserved":false,"is_disabled":false,"rental_uris":{"android":"levelo://app?vid=1cc38e42-d238-435a-9d73-d79862600457","ios":"levelo://app?vid=1cc38e42-d238-435a-9d73-d79862600457"},"vehicle_type_id":"4","last_reported":1687032402,"current_range_meters":19200,"station_id":"ce4bhg92rcd13ifvqf90","pricing_plan_id":"free"},{"bike_id":"65165479-2a84-481c-afff-7c23224eaf0a","system_id":"levelo_inurba_marseille","lat":43.26679,"lon":5.38279,"is_reserved":false,"is_disabled":false,"rental_uris":{"android":"levelo://app?vid=65165479-2a84-481c-afff-7c23224eaf0a","ios":"levelo://app?vid=65165479-2a84-481c-afff-7c23224eaf0a"},"vehicle_type_id":"4","last_reported":1687032402,"current_range_meters":5600,"station_id":"ce4bhg92rcd13ifvqf90","pricing_plan_id":"free"},{"bike_id":"baa4c0ca-f44c-424d-8d0f-b0ae130f45a7","system_id":"levelo_inurba_marseille","lat":43.26673,"lon":5.38273,"is_reserved":false,"is_disabled":false,"rental_uris":{"android":"levelo://app?vid=baa4c0ca-f44c-424d-8d0f-b0ae130f45a7","ios":"levelo://app?vid=baa4c0ca-f44c-424d-8d0f-b0ae130f45a7"},"vehicle_type_id":"4","last_reported":1687032402,"current_range_meters":31200,"station_id":"ce4bhg92rcd13ifvqf90","pricing_plan_id":"free"},{"bike_id":"efcd4409-b407-4893-a081-8018deada33e","system_id":"levelo_inurba_marseille","lat":43.27989,"lon":5.41657,"is_reserved":false,"is_disabled":false,"rental_uris":{"android":"levelo://app?vid=efcd4409-b407-4893-a081-8018deada33e","ios":"levelo://app?vid=efcd4409-b407-4893-a081-8018deada33e"},"vehicle_type_id":"4","last_reported":1687032402,"current_range_meters":10400,"station_id":"ce4bho12rcd13ifvqh1g","pricing_plan_id":"free"},{"bike_id":"d78d7ec5-f2d5-40b9-9ac0-deb985a7ead5","system_id":"levelo_inurba_marseille","lat":43.2799,"lon":5.41663,"is_reserved":false,"is_disabled":false,"rental_uris":{"android":"levelo://app?vid=d78d7ec5-f2d5-40b9-9ac0-deb985a7ead5","ios":"levelo://app?vid=d78d7ec5-f2d5-40b9-9ac0-deb985a7ead5"},"vehicle_type_id":"4","last_reported":1687032402,"current_range_meters":22000,"station_id":"ce4bho12rcd13ifvqh1g","pricing_plan_id":"free"},{"bike_id":"3987290e-fd4b-4f2b-81c0-57fca98f9cde","system_id":"levelo_inurba_marseille","lat":43.267966,"lon":5.393976,"is_reserved":false,"is_disabled":false,"rental_uris":{"android":"levelo://app?vid=3987290e-fd4b-4f2b-81c0-57fca98f9cde","ios":"levelo://app?vid=3987290e-fd4b-4f2b-81c0-57fca98f9cde"},"vehicle_type_id":"4","last_reported":1687032402,"current_range_meters":31200,"station_id":"ce4bhh12rcd13ifvqfg0","pricing_plan_id":"free"},{"bike_id":"fdc27c93-2398-4427-969a-d5f9cbf527b1","system_id":"levelo_inurba_marseille","lat":43.26193,"lon":5.37538,"is_reserved":false,"is_disabled":false,"rental_uris":{"android":"levelo://app?vid=fdc27c93-2398-4427-969a-d5f9cbf527b1","ios":"levelo://app?vid=fdc27c93-2398-4427-969a-d5f9cbf527b1"},"vehicle_type_id":"4","last_reported":1687032402,"current_range_meters":16800,"station_id":"","pricing_plan_id":"free"},{"bike_id":"c110e53b-cf0c-412d-9d86-cdc6d0024913","system_id":"levelo_inurba_marseille","lat":43.26216,"lon":5.37923,"is_reserved":false,"is_disabled":false,"rental_uris":{"android":"levelo://app?vid=c110e53b-cf0c-412d-9d86-cdc6d0024913","ios":"levelo://app?vid=c110e53b-cf0c-412d-9d86-cdc6d0024913"},"vehicle_type_id":"4","last_reported":1687032402,"current_range_meters":20000,"station_id":"ce4bhjp2rcd13ifvqg90","pricing_plan_id":"free"},{"bike_id":"5c2e1f1a-4f2e-449d-bbe7-8a7b3cb59a51","system_id":"levelo_inurba_marseille","lat":43.26215,"lon":5.3792,"is_reserved":false,"is_disabled":false,"rental_uris":{"android":"levelo://app?vid=5c2e1f1a-4f2e-449d-bbe7-8a7b3cb59a51","ios":"levelo://app?vid=5c2e1f1a-4f2e-449d-bbe7-8a7b3cb59a51"},"vehicle_type_id":"4","last_reported":1687032402,"current_range_meters":12800,"station_id":"ce4bhjp2rcd13ifvqg90","pricing_plan_id":"free"},{"bike_id":"e8b6fafc-fab8-42a4-8ea0-9b2033819168","system_id":"levelo_inurba_marseille","lat":43.26213,"lon":5.37923,"is_reserved":false,"is_disabled":false,"rental_uris":{"android":"levelo://app?vid=e8b6fafc-fab8-42a4-8ea0-9b2033819168","ios":"levelo://app?vid=e8b6fafc-fab8-42a4-8ea0-9b2033819168"},"vehicle_type_id":"4","last_reported":1687032402,"current_range_meters":31200,"station_id":"ce4bhjp2rcd13ifvqg90","pricing_plan_id":"free"},{"bike_id":"ea62e870-934e-46c7-b7e6-8e74ec0b9b90","system_id":"levelo_inurba_marseille","lat":43.26212,"lon":5.37916,"is_reserved":false,"is_disabled":false,"rental_uris":{"android":"levelo://app?vid=ea62e870-934e-46c7-b7e6-8e74ec0b9b90","ios":"levelo://app?vid=ea62e870-934e-46c7-b7e6-8e74ec0b9b90"},"vehicle_type_id":"4","last_reported":1687032402,"current_range_meters":25200,"station_id":"ce4bhjp2rcd13ifvqg90","pricing_plan_id":"free"},{"bike_id":"ca46cb86-dbde-4029-bd60-75693ddea8d4","system_id":"levelo_inurba_marseille","lat":43.26213,"lon":5.37927,"is_reserved":false,"is_disabled":false,"rental_uris":{"android":"levelo://app?vid=ca46cb86-dbde-4029-bd60-75693ddea8d4","ios":"levelo://app?vid=ca46cb86-dbde-4029-bd60-75693ddea8d4"},"vehicle_type_id":"4","last_reported":1687032402,"current_range_meters":10800,"station_id":"ce4bhjp2rcd13ifvqg90","pricing_plan_id":"free"},{"bike_id":"b405e01a-b660-44ad-9d22-7b92ff72c3bc","system_id":"levelo_inurba_marseille","lat":43.26213,"lon":5.379281,"is_reserved":false,"is_disabled":false,"rental_uris":{"android":"levelo://app?vid=b405e01a-b660-44ad-9d22-7b92ff72c3bc","ios":"levelo://app?vid=b405e01a-b660-44ad-9d22-7b92ff72c3bc"},"vehicle_type_id":"4","last_reported":1687032402,"current_range_meters":31200,"station_id":"ce4bhjp2rcd13ifvqg90","pricing_plan_id":"free"},{"bike_id":"2d65fd79-b97b-4cc7-927d-26081624c71c","system_id":"levelo_inurba_marseille","lat":43.26212,"lon":5.37922,"is_reserved":false,"is_disabled":false,"rental_uris":{"android":"levelo://app?vid=2d65fd79-b97b-4cc7-927d-26081624c71c","ios":"levelo://app?vid=2d65fd79-b97b-4cc7-927d-26081624c71c"},"vehicle_type_id":"4","last_reported":1687032402,"current_range_meters":15200,"station_id":"ce4bhjp2rcd13ifvqg90","pricing_plan_id":"free"},{"bike_id":"68160dc5-66ee-48f3-a7fd-08d448042157","system_id":"levelo_inurba_marseille","lat":43.262123,"lon":5.379261,"is_reserved":false,"is_disabled":false,"rental_uris":{"android":"levelo://app?vid=68160dc5-66ee-48f3-a7fd-08d448042157","ios":"levelo://app?vid=68160dc5-66ee-48f3-a7fd-08d448042157"},"vehicle_type_id":"4","last_reported":1687032402,"current_range_meters":28800,"station_id":"ce4bhjp2rcd13ifvqg90","pricing_plan_id":"free"},{"bike_id":"fc14b0b0-db18-45f8-ae29-152574302986","system_id":"levelo_inurba_marseille","lat":43.26211,"lon":5.37921,"is_reserved":false,"is_disabled":false,"rental_uris":{"android":"levelo://app?vid=fc14b0b0-db18-45f8-ae29-152574302986","ios":"levelo://app?vid=fc14b0b0-db18-45f8-ae29-152574302986"},"vehicle_type_id":"4","last_reported":1687032402,"current_range_meters":12400,"station_id":"ce4bhjp2rcd13ifvqg90","pricing_plan_id":"free"},{"bike_id":"db9d8b83-5b08-4b76-b005-57fd52fe9e93","system_id":"levelo_inurba_marseille","lat":43.262116,"lon":5.379265,"is_reserved":false,"is_disabled":false,"rental_uris":{"android":"levelo://app?vid=db9d8b83-5b08-4b76-b005-57fd52fe9e93","ios":"levelo://app?vid=db9d8b83-5b08-4b76-b005-57fd52fe9e93"},"vehicle_type_id":"4","last_reported":1687032402,"current_range_meters":14000,"station_id":"ce4bhjp2rcd13ifvqg90","pricing_plan_id":"free"},{"bike_id":"9df76f25-1cd8-4d21-a4a1-42e690d94951","system_id":"levelo_inurba_marseille","lat":43.26211,"lon":5.37922,"is_reserved":false,"is_disabled":false,"rental_uris":{"android":"levelo://app?vid=9df76f25-1cd8-4d21-a4a1-42e690d94951","ios":"levelo://app?vid=9df76f25-1cd8-4d21-a4a1-42e690d94951"},"vehicle_type_id":"4","last_reported":1687032402,"current_range_meters":17600,"station_id":"ce4bhjp2rcd13ifvqg90","pricing_plan_id":"free"},{"bike_id":"3096f713-b093-493f-9a5b-0467126c255f","system_id":"levelo_inurba_marseille","lat":43.26211,"lon":5.37923,"is_reserved":false,"is_disabled":false,"rental_uris":{"android":"levelo://app?vid=3096f713-b093-493f-9a5b-0467126c255f","ios":"levelo://app?vid=3096f713-b093-493f-9a5b-0467126c255f"},"vehicle_type_id":"4","last_reported":1687032402,"current_range_meters":4400,"station_id":"ce4bhjp2rcd13ifvqg90","pricing_plan_id":"free"},{"bike_id":"ff0cd381-cf8f-40e5-a8fa-4669ac4eaee0","system_id":"levelo_inurba_marseille","lat":43.26211,"lon":5.37924,"is_reserved":false,"is_disabled":false,"rental_uris":{"android":"levelo://app?vid=ff0cd381-cf8f-40e5-a8fa-4669ac4eaee0","ios":"levelo://app?vid=ff0cd381-cf8f-40e5-a8fa-4669ac4eaee0"},"vehicle_type_id":"4","last_reported":1687032402,"current_range_meters":26400,"station_id":"ce4bhjp2rcd13ifvqg90","pricing_plan_id":"free"},{"bike_id":"2aa79ce7-fff8-4b93-bc10-41660464c642","system_id":"levelo_inurba_marseille","lat":43.26212,"lon":5.37932,"is_reserved":false,"is_disabled":false,"rental_uris":{"android":"levelo://app?vid=2aa79ce7-fff8-4b93-bc10-41660464c642","ios":"levelo://app?vid=2aa79ce7-fff8-4b93-bc10-41660464c642"},"vehicle_type_id":"4","last_reported":1687032402,"current_range_meters":22000,"station_id":"ce4bhjp2rcd13ifvqg90","pricing_plan_id":"free"},{"bike_id":"c39a453d-ea08-4fcb-9938-90dd3b7af212","system_id":"levelo_inurba_marseille","lat":43.262102,"lon":5.379264,"is_reserved":false,"is_disabled":false,"rental_uris":{"android":"levelo://app?vid=c39a453d-ea08-4fcb-9938-90dd3b7af212","ios":"levelo://app?vid=c39a453d-ea08-4fcb-9938-90dd3b7af212"},"vehicle_type_id":"4","last_reported":1687032402,"current_range_meters":12000,"station_id":"ce4bhjp2rcd13ifvqg90","pricing_plan_id":"free"},{"bike_id":"b76cc4f0-c162-477e-9775-3c477ba8fe87","system_id":"levelo_inurba_marseille","lat":43.2621,"lon":5.37929,"is_reserved":false,"is_disabled":false,"rental_uris":{"android":"levelo://app?vid=b76cc4f0-c162-477e-9775-3c477ba8fe87","ios":"levelo://app?vid=b76cc4f0-c162-477e-9775-3c477ba8fe87"},"vehicle_type_id":"4","last_reported":1687032402,"current_range_meters":29600,"station_id":"ce4bhjp2rcd13ifvqg90","pricing_plan_id":"free"},{"bike_id":"8073b83a-1805-4797-9622-ee3f14f8f0cf","system_id":"levelo_inurba_marseille","lat":43.26209,"lon":5.37922,"is_reserved":false,"is_disabled":false,"rental_uris":{"android":"levelo://app?vid=8073b83a-1805-4797-9622-ee3f14f8f0cf","ios":"levelo://app?vid=8073b83a-1805-4797-9622-ee3f14f8f0cf"},"vehicle_type_id":"4","last_reported":1687032402,"current_range_meters":22000,"station_id":"ce4bhjp2rcd13ifvqg90","pricing_plan_id":"free"},{"bike_id":"1aa86a74-78ab-4b2c-9b22-5d18a3235d3b","system_id":"levelo_inurba_marseille","lat":43.26209,"lon":5.37922,"is_reserved":false,"is_disabled":false,"rental_uris":{"android":"levelo://app?vid=1aa86a74-78ab-4b2c-9b22-5d18a3235d3b","ios":"levelo://app?vid=1aa86a74-78ab-4b2c-9b22-5d18a3235d3b"},"vehicle_type_id":"4","last_reported":1687032402,"current_range_meters":23200,"station_id":"ce4bhjp2rcd13ifvqg90","pricing_plan_id":"free"},{"bike_id":"3aaaae40-4715-472e-9fb3-833756e6b3c6","system_id":"levelo_inurba_marseille","lat":43.262097,"lon":5.379283,"is_reserved":false,"is_disabled":false,"rental_uris":{"android":"levelo://app?vid=3aaaae40-4715-472e-9fb3-833756e6b3c6","ios":"levelo://app?vid=3aaaae40-4715-472e-9fb3-833756e6b3c6"},"vehicle_type_id":"4","last_reported":1687032402,"current_range_meters":31200,"station_id":"ce4bhjp2rcd13ifvqg90","pricing_plan_id":"free"},{"bike_id":"84b9db6e-3ff6-4fc5-9588-de39363ea0a4","system_id":"levelo_inurba_marseille","lat":43.2621,"lon":5.379313,"is_reserved":false,"is_disabled":false,"rental_uris":{"android":"levelo://app?vid=84b9db6e-3ff6-4fc5-9588-de39363ea0a4","ios":"levelo://app?vid=84b9db6e-3ff6-4fc5-9588-de39363ea0a4"},"vehicle_type_id":"4","last_reported":1687032402,"current_range_meters":30400,"station_id":"ce4bhjp2rcd13ifvqg90","pricing_plan_id":"free"},{"bike_id":"9d9d66d5-3cae-40ac-8709-6b524ba29811","system_id":"levelo_inurba_marseille","lat":43.26209,"lon":5.37925,"is_reserved":false,"is_disabled":false,"rental_uris":{"android":"levelo://app?vid=9d9d66d5-3cae-40ac-8709-6b524ba29811","ios":"levelo://app?vid=9d9d66d5-3cae-40ac-8709-6b524ba29811"},"vehicle_type_id":"4","last_reported":1687032402,"current_range_meters":17600,"station_id":"ce4bhjp2rcd13ifvqg90","pricing_plan_id":"free"},{"bike_id":"bddd26ce-6b5c-4b34-85fc-515db0a13eaf","system_id":"levelo_inurba_marseille","lat":43.26209,"lon":5.37926,"is_reserved":false,"is_disabled":false,"rental_uris":{"android":"levelo://app?vid=bddd26ce-6b5c-4b34-85fc-515db0a13eaf","ios":"levelo://app?vid=bddd26ce-6b5c-4b34-85fc-515db0a13eaf"},"vehicle_type_id":"4","last_reported":1687032402,"current_range_meters":31200,"station_id":"ce4bhjp2rcd13ifvqg90","pricing_plan_id":"free"},{"bike_id":"2d0f0fe2-9dc3-4547-b7a3-e036c026eb7c","system_id":"levelo_inurba_marseille","lat":43.26209,"lon":5.37927,"is_reserved":false,"is_disabled":false,"rental_uris":{"android":"levelo://app?vid=2d0f0fe2-9dc3-4547-b7a3-e036c026eb7c","ios":"levelo://app?vid=2d0f0fe2-9dc3-4547-b7a3-e036c026eb7c"},"vehicle_type_id":"4","last_reported":1687032402,"current_range_meters":14400,"station_id":"ce4bhjp2rcd13ifvqg90","pricing_plan_id":"free"},{"bike_id":"36f5ea99-8efe-4c9a-8ba9-504d0463ed54","system_id":"levelo_inurba_marseille","lat":43.262088,"lon":5.379294,"is_reserved":false,"is_disabled":false,"rental_uris":{"android":"levelo://app?vid=36f5ea99-8efe-4c9a-8ba9-504d0463ed54","ios":"levelo://app?vid=36f5ea99-8efe-4c9a-8ba9-504d0463ed54"},"vehicle_type_id":"4","last_reported":1687032402,"current_range_meters":14800,"station_id":"ce4bhjp2rcd13ifvqg90","pricing_plan_id":"free"},{"bike_id":"14f91770-e5bd-49c9-ab9c-18d480a04fee","system_id":"levelo_inurba_marseille","lat":43.26208,"lon":5.37924,"is_reserved":false,"is_disabled":false,"rental_uris":{"android":"levelo://app?vid=14f91770-e5bd-49c9-ab9c-18d480a04fee","ios":"levelo://app?vid=14f91770-e5bd-49c9-ab9c-18d480a04fee"},"vehicle_type_id":"4","last_reported":1687032402,"current_range_meters":12800,"station_id":"ce4bhjp2rcd13ifvqg90","pricing_plan_id":"free"},{"bike_id":"b6b5f1ac-8a63-4832-bdb8-c1700bac554d","system_id":"levelo_inurba_marseille","lat":43.26159,"lon":5.37455,"is_reserved":false,"is_disabled":false,"rental_uris":{"android":"levelo://app?vid=b6b5f1ac-8a63-4832-bdb8-c1700bac554d","ios":"levelo://app?vid=b6b5f1ac-8a63-4832-bdb8-c1700bac554d"},"vehicle_type_id":"4","last_reported":1687032402,"current_range_meters":16800,"station_id":"ce4bhgp2rcd13ifvqfc0","pricing_plan_id":"free"},{"bike_id":"1e06eb7f-d33a-44ad-b658-e04700a25e6f","system_id":"levelo_inurba_marseille","lat":43.26208,"lon":5.379286,"is_reserved":false,"is_disabled":false,"rental_uris":{"android":"levelo://app?vid=1e06eb7f-d33a-44ad-b658-e04700a25e6f","ios":"levelo://app?vid=1e06eb7f-d33a-44ad-b658-e04700a25e6f"},"vehicle_type_id":"4","last_reported":1687032402,"current_range_meters":31200,"station_id":"ce4bhjp2rcd13ifvqg90","pricing_plan_id":"free"},{"bike_id":"e002c8e0-d3a4-45be-a015-e49dbcdde71d","system_id":"levelo_inurba_marseille","lat":43.26208,"lon":5.37929,"is_reserved":false,"is_disabled":false,"rental_uris":{"android":"levelo://app?vid=e002c8e0-d3a4-45be-a015-e49dbcdde71d","ios":"levelo://app?vid=e002c8e0-d3a4-45be-a015-e49dbcdde71d"},"vehicle_type_id":"4","last_reported":1687032402,"current_range_meters":29200,"station_id":"ce4bhjp2rcd13ifvqg90","pricing_plan_id":"free"},{"bike_id":"7d384896-0137-4921-acd3-bc3badb3d20e","system_id":"levelo_inurba_marseille","lat":43.26205,"lon":5.37907,"is_reserved":false,"is_disabled":false,"rental_uris":{"android":"levelo://app?vid=7d384896-0137-4921-acd3-bc3badb3d20e","ios":"levelo://app?vid=7d384896-0137-4921-acd3-bc3badb3d20e"},"vehicle_type_id":"4","last_reported":1687032402,"current_range_meters":20800,"station_id":"ce4bhjp2rcd13ifvqg90","pricing_plan_id":"free"},{"bike_id":"faab296f-48d1-46c5-b2d8-73e773fb8dde","system_id":"levelo_inurba_marseille","lat":43.26207,"lon":5.37924,"is_reserved":false,"is_disabled":false,"rental_uris":{"android":"levelo://app?vid=faab296f-48d1-46c5-b2d8-73e773fb8dde","ios":"levelo://app?vid=faab296f-48d1-46c5-b2d8-73e773fb8dde"},"vehicle_type_id":"4","last_reported":1687032402,"current_range_meters":22000,"station_id":"ce4bhjp2rcd13ifvqg90","pricing_plan_id":"free"},{"bike_id":"ab511131-7c27-4778-8d24-a26196192374","system_id":"levelo_inurba_marseille","lat":43.26207,"lon":5.37926,"is_reserved":false,"is_disabled":false,"rental_uris":{"android":"levelo://app?vid=ab511131-7c27-4778-8d24-a26196192374","ios":"levelo://app?vid=ab511131-7c27-4778-8d24-a26196192374"},"vehicle_type_id":"4","last_reported":1687032402,"current_range_meters":10800,"station_id":"ce4bhjp2rcd13ifvqg90","pricing_plan_id":"free"},{"bike_id":"511de726-445a-48f1-a41c-0b171f4678fa","system_id":"levelo_inurba_marseille","lat":43.26207,"lon":5.37928,"is_reserved":false,"is_disabled":false,"rental_uris":{"android":"levelo://app?vid=511de726-445a-48f1-a41c-0b171f4678fa","ios":"levelo://app?vid=511de726-445a-48f1-a41c-0b171f4678fa"},"vehicle_type_id":"4","last_reported":1687032402,"current_range_meters":31200,"station_id":"ce4bhjp2rcd13ifvqg90","pricing_plan_id":"free"},{"bike_id":"1fbcd0e5-2252-4e20-af10-fe84b5942d1d","system_id":"levelo_inurba_marseille","lat":43.26202,"lon":5.379299,"is_reserved":false,"is_disabled":false,"rental_uris":{"android":"levelo://app?vid=1fbcd0e5-2252-4e20-af10-fe84b5942d1d","ios":"levelo://app?vid=1fbcd0e5-2252-4e20-af10-fe84b5942d1d"},"vehicle_type_id":"4","last_reported":1687032402,"current_range_meters":31200,"station_id":"ce4bhjp2rcd13ifvqg90","pricing_plan_id":"free"},{"bike_id":"467df531-33c3-407c-936c-56836c8edfbc","system_id":"levelo_inurba_marseille","lat":43.26206,"lon":5.37926,"is_reserved":false,"is_disabled":false,"rental_uris":{"android":"levelo://app?vid=467df531-33c3-407c-936c-56836c8edfbc","ios":"levelo://app?vid=467df531-33c3-407c-936c-56836c8edfbc"},"vehicle_type_id":"4","last_reported":1687032402,"current_range_meters":30400,"station_id":"ce4bhjp2rcd13ifvqg90","pricing_plan_id":"free"},{"bike_id":"d6387107-c643-44c3-b3d3-cb93dfe84911","system_id":"levelo_inurba_marseille","lat":43.26206,"lon":5.37926,"is_reserved":false,"is_disabled":false,"rental_uris":{"android":"levelo://app?vid=d6387107-c643-44c3-b3d3-cb93dfe84911","ios":"levelo://app?vid=d6387107-c643-44c3-b3d3-cb93dfe84911"},"vehicle_type_id":"4","last_reported":1687032402,"current_range_meters":20000,"station_id":"ce4bhjp2rcd13ifvqg90","pricing_plan_id":"free"},{"bike_id":"e12747e2-cb30-40ae-8ccc-5f1f274383f1","system_id":"levelo_inurba_marseille","lat":43.26202,"lon":5.379299,"is_reserved":false,"is_disabled":false,"rental_uris":{"android":"levelo://app?vid=e12747e2-cb30-40ae-8ccc-5f1f274383f1","ios":"levelo://app?vid=e12747e2-cb30-40ae-8ccc-5f1f274383f1"},"vehicle_type_id":"4","last_reported":1687032402,"current_range_meters":12400,"station_id":"ce4bhjp2rcd13ifvqg90","pricing_plan_id":"free"},{"bike_id":"2ef7ff39-20c6-4210-aa08-d4c911805bd9","system_id":"levelo_inurba_marseille","lat":43.26206,"lon":5.37929,"is_reserved":false,"is_disabled":false,"rental_uris":{"android":"levelo://app?vid=2ef7ff39-20c6-4210-aa08-d4c911805bd9","ios":"levelo://app?vid=2ef7ff39-20c6-4210-aa08-d4c911805bd9"},"vehicle_type_id":"4","last_reported":1687032402,"current_range_meters":29600,"station_id":"ce4bhjp2rcd13ifvqg90","pricing_plan_id":"free"},{"bike_id":"abd9f73a-dd35-47ee-8053-6243488dbb0c","system_id":"levelo_inurba_marseille","lat":43.26205,"lon":5.37922,"is_reserved":false,"is_disabled":false,"rental_uris":{"android":"levelo://app?vid=abd9f73a-dd35-47ee-8053-6243488dbb0c","ios":"levelo://app?vid=abd9f73a-dd35-47ee-8053-6243488dbb0c"},"vehicle_type_id":"4","last_reported":1687032402,"current_range_meters":18400,"station_id":"ce4bhjp2rcd13ifvqg90","pricing_plan_id":"free"},{"bike_id":"0f32807b-3989-43d0-8336-df89a6bbc3de","system_id":"levelo_inurba_marseille","lat":43.26206,"lon":5.3793,"is_reserved":false,"is_disabled":false,"rental_uris":{"android":"levelo://app?vid=0f32807b-3989-43d0-8336-df89a6bbc3de","ios":"levelo://app?vid=0f32807b-3989-43d0-8336-df89a6bbc3de"},"vehicle_type_id":"4","last_reported":1687032402,"current_range_meters":21200,"station_id":"ce4bhjp2rcd13ifvqg90","pricing_plan_id":"free"},{"bike_id":"c399ea41-3739-433c-8f2a-ffdd523ae783","system_id":"levelo_inurba_marseille","lat":43.26206,"lon":5.3793,"is_reserved":false,"is_disabled":false,"rental_uris":{"android":"levelo://app?vid=c399ea41-3739-433c-8f2a-ffdd523ae783","ios":"levelo://app?vid=c399ea41-3739-433c-8f2a-ffdd523ae783"},"vehicle_type_id":"4","last_reported":1687032402,"current_range_meters":30800,"station_id":"ce4bhjp2rcd13ifvqg90","pricing_plan_id":"free"},{"bike_id":"703a8786-ddd0-4f61-843e-fadf0bf61061","system_id":"levelo_inurba_marseille","lat":43.26207,"lon":5.37939,"is_reserved":false,"is_disabled":false,"rental_uris":{"android":"levelo://app?vid=703a8786-ddd0-4f61-843e-fadf0bf61061","ios":"levelo://app?vid=703a8786-ddd0-4f61-843e-fadf0bf61061"},"vehicle_type_id":"4","last_reported":1687032402,"current_range_meters":14000,"station_id":"ce4bhjp2rcd13ifvqg90","pricing_plan_id":"free"},{"bike_id":"0c46b4e4-940f-4f8a-bdcc-8b0dcbac7d4d","system_id":"levelo_inurba_marseille","lat":43.26205,"lon":5.37924,"is_reserved":false,"is_disabled":false,"rental_uris":{"android":"levelo://app?vid=0c46b4e4-940f-4f8a-bdcc-8b0dcbac7d4d","ios":"levelo://app?vid=0c46b4e4-940f-4f8a-bdcc-8b0dcbac7d4d"},"vehicle_type_id":"4","last_reported":1687032402,"current_range_meters":31200,"station_id":"ce4bhjp2rcd13ifvqg90","pricing_plan_id":"free"},{"bike_id":"4d0f0de9-e360-4980-86a0-e12c39ac1f0a","system_id":"levelo_inurba_marseille","lat":43.26205,"lon":5.37924,"is_reserved":false,"is_disabled":false,"rental_uris":{"android":"levelo://app?vid=4d0f0de9-e360-4980-86a0-e12c39ac1f0a","ios":"levelo://app?vid=4d0f0de9-e360-4980-86a0-e12c39ac1f0a"},"vehicle_type_id":"4","last_reported":1687032402,"current_range_meters":14000,"station_id":"ce4bhjp2rcd13ifvqg90","pricing_plan_id":"free"},{"bike_id":"5746e080-6873-4825-a717-db5f29841bfa","system_id":"levelo_inurba_marseille","lat":43.26205,"lon":5.37925,"is_reserved":false,"is_disabled":false,"rental_uris":{"android":"levelo://app?vid=5746e080-6873-4825-a717-db5f29841bfa","ios":"levelo://app?vid=5746e080-6873-4825-a717-db5f29841bfa"},"vehicle_type_id":"4","last_reported":1687032402,"current_range_meters":30000,"station_id":"ce4bhjp2rcd13ifvqg90","pricing_plan_id":"free"},{"bike_id":"1e75134c-00b5-437a-be60-db87eb6c35a0","system_id":"levelo_inurba_marseille","lat":43.26204,"lon":5.37921,"is_reserved":false,"is_disabled":false,"rental_uris":{"android":"levelo://app?vid=1e75134c-00b5-437a-be60-db87eb6c35a0","ios":"levelo://app?vid=1e75134c-00b5-437a-be60-db87eb6c35a0"},"vehicle_type_id":"4","last_reported":1687032402,"current_range_meters":22000,"station_id":"ce4bhjp2rcd13ifvqg90","pricing_plan_id":"free"},{"bike_id":"f242875e-e3c1-4064-a25f-e20f70dd64f2","system_id":"levelo_inurba_marseille","lat":43.26205,"lon":5.3793,"is_reserved":false,"is_disabled":false,"rental_uris":{"android":"levelo://app?vid=f242875e-e3c1-4064-a25f-e20f70dd64f2","ios":"levelo://app?vid=f242875e-e3c1-4064-a25f-e20f70dd64f2"},"vehicle_type_id":"4","last_reported":1687032402,"current_range_meters":28000,"station_id":"ce4bhjp2rcd13ifvqg90","pricing_plan_id":"free"},{"bike_id":"eb82b6b3-daf9-4f09-bed8-2b784cf070fa","system_id":"levelo_inurba_marseille","lat":43.26205,"lon":5.3793,"is_reserved":false,"is_disabled":false,"rental_uris":{"android":"levelo://app?vid=eb82b6b3-daf9-4f09-bed8-2b784cf070fa","ios":"levelo://app?vid=eb82b6b3-daf9-4f09-bed8-2b784cf070fa"},"vehicle_type_id":"4","last_reported":1687032402,"current_range_meters":30000,"station_id":"ce4bhjp2rcd13ifvqg90","pricing_plan_id":"free"},{"bike_id":"f7cb5758-4319-474c-ab2b-9ffe590fb218","system_id":"levelo_inurba_marseille","lat":43.26204,"lon":5.37923,"is_reserved":false,"is_disabled":false,"rental_uris":{"android":"levelo://app?vid=f7cb5758-4319-474c-ab2b-9ffe590fb218","ios":"levelo://app?vid=f7cb5758-4319-474c-ab2b-9ffe590fb218"},"vehicle_type_id":"4","last_reported":1687032402,"current_range_meters":31200,"station_id":"ce4bhjp2rcd13ifvqg90","pricing_plan_id":"free"},{"bike_id":"ea24ec08-e563-459b-8966-b31f0841148d","system_id":"levelo_inurba_marseille","lat":43.26204,"lon":5.37926,"is_reserved":false,"is_disabled":false,"rental_uris":{"android":"levelo://app?vid=ea24ec08-e563-459b-8966-b31f0841148d","ios":"levelo://app?vid=ea24ec08-e563-459b-8966-b31f0841148d"},"vehicle_type_id":"4","last_reported":1687032402,"current_range_meters":25600,"station_id":"ce4bhjp2rcd13ifvqg90","pricing_plan_id":"free"},{"bike_id":"cb819c0f-6ffa-4f80-a81f-88af8c3cc91d","system_id":"levelo_inurba_marseille","lat":43.26204,"lon":5.37926,"is_reserved":false,"is_disabled":false,"rental_uris":{"android":"levelo://app?vid=cb819c0f-6ffa-4f80-a81f-88af8c3cc91d","ios":"levelo://app?vid=cb819c0f-6ffa-4f80-a81f-88af8c3cc91d"},"vehicle_type_id":"4","last_reported":1687032402,"current_range_meters":8800,"station_id":"ce4bhjp2rcd13ifvqg90","pricing_plan_id":"free"},{"bike_id":"ab378214-b701-4916-8132-48240331f637","system_id":"levelo_inurba_marseille","lat":43.26204,"lon":5.37928,"is_reserved":false,"is_disabled":false,"rental_uris":{"android":"levelo://app?vid=ab378214-b701-4916-8132-48240331f637","ios":"levelo://app?vid=ab378214-b701-4916-8132-48240331f637"},"vehicle_type_id":"4","last_reported":1687032402,"current_range_meters":12000,"station_id":"ce4bhjp2rcd13ifvqg90","pricing_plan_id":"free"},{"bike_id":"350b9ea5-6643-4a3a-b826-0bf340ae4c16","system_id":"levelo_inurba_marseille","lat":43.26205,"lon":5.37936,"is_reserved":false,"is_disabled":false,"rental_uris":{"android":"levelo://app?vid=350b9ea5-6643-4a3a-b826-0bf340ae4c16","ios":"levelo://app?vid=350b9ea5-6643-4a3a-b826-0bf340ae4c16"},"vehicle_type_id":"4","last_reported":1687032402,"current_range_meters":20800,"station_id":"ce4bhjp2rcd13ifvqg90","pricing_plan_id":"free"},{"bike_id":"8e5bf5ff-cee7-4523-89bb-6e59c0fefa80","system_id":"levelo_inurba_marseille","lat":43.27182,"lon":5.40987,"is_reserved":false,"is_disabled":false,"rental_uris":{"android":"levelo://app?vid=8e5bf5ff-cee7-4523-89bb-6e59c0fefa80","ios":"levelo://app?vid=8e5bf5ff-cee7-4523-89bb-6e59c0fefa80"},"vehicle_type_id":"4","last_reported":1687032402,"current_range_meters":18400,"station_id":"","pricing_plan_id":"free"},{"bike_id":"b66ee968-f311-40a9-86d7-6297db3c3882","system_id":"levelo_inurba_marseille","lat":43.26203,"lon":5.37923,"is_reserved":false,"is_disabled":false,"rental_uris":{"android":"levelo://app?vid=b66ee968-f311-40a9-86d7-6297db3c3882","ios":"levelo://app?vid=b66ee968-f311-40a9-86d7-6297db3c3882"},"vehicle_type_id":"4","last_reported":1687032402,"current_range_meters":17200,"station_id":"ce4bhjp2rcd13ifvqg90","pricing_plan_id":"free"},{"bike_id":"b6cf1a23-a50c-4af6-9595-1a3baf28483e","system_id":"levelo_inurba_marseille","lat":43.26204,"lon":5.37931,"is_reserved":false,"is_disabled":false,"rental_uris":{"android":"levelo://app?vid=b6cf1a23-a50c-4af6-9595-1a3baf28483e","ios":"levelo://app?vid=b6cf1a23-a50c-4af6-9595-1a3baf28483e"},"vehicle_type_id":"4","last_reported":1687032402,"current_range_meters":3600,"station_id":"ce4bhjp2rcd13ifvqg90","pricing_plan_id":"free"},{"bike_id":"147de1b6-47ac-4c8a-a576-b040c57c3e49","system_id":"levelo_inurba_marseille","lat":43.26203,"lon":5.37925,"is_reserved":false,"is_disabled":false,"rental_uris":{"android":"levelo://app?vid=147de1b6-47ac-4c8a-a576-b040c57c3e49","ios":"levelo://app?vid=147de1b6-47ac-4c8a-a576-b040c57c3e49"},"vehicle_type_id":"4","last_reported":1687032402,"current_range_meters":31600,"station_id":"ce4bhjp2rcd13ifvqg90","pricing_plan_id":"free"},{"bike_id":"7891bf97-4eb1-4cae-8d6e-efdfff2479a5","system_id":"levelo_inurba_marseille","lat":43.26202,"lon":5.379299,"is_reserved":false,"is_disabled":false,"rental_uris":{"android":"levelo://app?vid=7891bf97-4eb1-4cae-8d6e-efdfff2479a5","ios":"levelo://app?vid=7891bf97-4eb1-4cae-8d6e-efdfff2479a5"},"vehicle_type_id":"4","last_reported":1687032402,"current_range_meters":15600,"station_id":"ce4bhjp2rcd13ifvqg90","pricing_plan_id":"free"},{"bike_id":"5235f36c-90e9-47f4-8a63-79e0921267af","system_id":"levelo_inurba_marseille","lat":43.262041,"lon":5.379334,"is_reserved":false,"is_disabled":false,"rental_uris":{"android":"levelo://app?vid=5235f36c-90e9-47f4-8a63-79e0921267af","ios":"levelo://app?vid=5235f36c-90e9-47f4-8a63-79e0921267af"},"vehicle_type_id":"4","last_reported":1687032402,"current_range_meters":31200,"station_id":"ce4bhjp2rcd13ifvqg90","pricing_plan_id":"free"},{"bike_id":"56e1c853-c0f1-47d6-a0d8-3cde442fadf9","system_id":"levelo_inurba_marseille","lat":43.26204,"lon":5.37933,"is_reserved":false,"is_disabled":false,"rental_uris":{"android":"levelo://app?vid=56e1c853-c0f1-47d6-a0d8-3cde442fadf9","ios":"levelo://app?vid=56e1c853-c0f1-47d6-a0d8-3cde442fadf9"},"vehicle_type_id":"4","last_reported":1687032402,"current_range_meters":31200,"station_id":"ce4bhjp2rcd13ifvqg90","pricing_plan_id":"free"},{"bike_id":"4306d7f9-bcb9-4e12-876d-b11eeaacd898","system_id":"levelo_inurba_marseille","lat":43.26203,"lon":5.37927,"is_reserved":false,"is_disabled":false,"rental_uris":{"android":"levelo://app?vid=4306d7f9-bcb9-4e12-876d-b11eeaacd898","ios":"levelo://app?vid=4306d7f9-bcb9-4e12-876d-b11eeaacd898"},"vehicle_type_id":"4","last_reported":1687032402,"current_range_meters":18000,"station_id":"ce4bhjp2rcd13ifvqg90","pricing_plan_id":"free"},{"bike_id":"105aba82-4d29-4740-ae55-0a1d2d67eac8","system_id":"levelo_inurba_marseille","lat":43.26202,"lon":5.379299,"is_reserved":false,"is_disabled":false,"rental_uris":{"android":"levelo://app?vid=105aba82-4d29-4740-ae55-0a1d2d67eac8","ios":"levelo://app?vid=105aba82-4d29-4740-ae55-0a1d2d67eac8"},"vehicle_type_id":"4","last_reported":1687032402,"current_range_meters":9600,"station_id":"ce4bhjp2rcd13ifvqg90","pricing_plan_id":"free"},{"bike_id":"6d1a3faf-1927-444f-bd2c-108e22fab7ef","system_id":"levelo_inurba_marseille","lat":43.26202,"lon":5.379299,"is_reserved":false,"is_disabled":false,"rental_uris":{"android":"levelo://app?vid=6d1a3faf-1927-444f-bd2c-108e22fab7ef","ios":"levelo://app?vid=6d1a3faf-1927-444f-bd2c-108e22fab7ef"},"vehicle_type_id":"4","last_reported":1687032402,"current_range_meters":17200,"station_id":"ce4bhjp2rcd13ifvqg90","pricing_plan_id":"free"},{"bike_id":"4221ef51-b6f7-48eb-89db-3c2c7f768117","system_id":"levelo_inurba_marseille","lat":43.262036,"lon":5.379336,"is_reserved":false,"is_disabled":false,"rental_uris":{"android":"levelo://app?vid=4221ef51-b6f7-48eb-89db-3c2c7f768117","ios":"levelo://app?vid=4221ef51-b6f7-48eb-89db-3c2c7f768117"},"vehicle_type_id":"4","last_reported":1687032402,"current_range_meters":30400,"station_id":"ce4bhjp2rcd13ifvqg90","pricing_plan_id":"free"},{"bike_id":"60c9d739-5601-4d3c-8a49-d3d0a470fe73","system_id":"levelo_inurba_marseille","lat":43.26203,"lon":5.37929,"is_reserved":false,"is_disabled":false,"rental_uris":{"android":"levelo://app?vid=60c9d739-5601-4d3c-8a49-d3d0a470fe73","ios":"levelo://app?vid=60c9d739-5601-4d3c-8a49-d3d0a470fe73"},"vehicle_type_id":"4","last_reported":1687032402,"current_range_meters":20000,"station_id":"ce4bhjp2rcd13ifvqg90","pricing_plan_id":"free"},{"bike_id":"255f1d55-73f2-4691-adc3-2cc7cbe003f7","system_id":"levelo_inurba_marseille","lat":43.262036,"lon":5.379336,"is_reserved":false,"is_disabled":false,"rental_uris":{"android":"levelo://app?vid=255f1d55-73f2-4691-adc3-2cc7cbe003f7","ios":"levelo://app?vid=255f1d55-73f2-4691-adc3-2cc7cbe003f7"},"vehicle_type_id":"4","last_reported":1687032402,"current_range_meters":10000,"station_id":"ce4bhjp2rcd13ifvqg90","pricing_plan_id":"free"},{"bike_id":"a979245b-5546-4539-97e4-67e7026c16d8","system_id":"levelo_inurba_marseille","lat":43.26202,"lon":5.37924,"is_reserved":false,"is_disabled":false,"rental_uris":{"android":"levelo://app?vid=a979245b-5546-4539-97e4-67e7026c16d8","ios":"levelo://app?vid=a979245b-5546-4539-97e4-67e7026c16d8"},"vehicle_type_id":"4","last_reported":1687032402,"current_range_meters":28800,"station_id":"ce4bhjp2rcd13ifvqg90","pricing_plan_id":"free"},{"bike_id":"7d4c1512-d870-4f23-bf5a-049a1c75566f","system_id":"levelo_inurba_marseille","lat":43.26202,"lon":5.37925,"is_reserved":false,"is_disabled":false,"rental_uris":{"android":"levelo://app?vid=7d4c1512-d870-4f23-bf5a-049a1c75566f","ios":"levelo://app?vid=7d4c1512-d870-4f23-bf5a-049a1c75566f"},"vehicle_type_id":"4","last_reported":1687032402,"current_range_meters":31200,"station_id":"ce4bhjp2rcd13ifvqg90","pricing_plan_id":"free"},{"bike_id":"c02d7797-b855-4777-9f2b-f73e85522ec9","system_id":"levelo_inurba_marseille","lat":43.26204,"lon":5.37944,"is_reserved":false,"is_disabled":false,"rental_uris":{"android":"levelo://app?vid=c02d7797-b855-4777-9f2b-f73e85522ec9","ios":"levelo://app?vid=c02d7797-b855-4777-9f2b-f73e85522ec9"},"vehicle_type_id":"4","last_reported":1687032402,"current_range_meters":16400,"station_id":"ce4bhjp2rcd13ifvqg90","pricing_plan_id":"free"},{"bike_id":"7d293a7c-72d8-4b17-bab4-f4281c7c5610","system_id":"levelo_inurba_marseille","lat":43.26202,"lon":5.37929,"is_reserved":false,"is_disabled":false,"rental_uris":{"android":"levelo://app?vid=7d293a7c-72d8-4b17-bab4-f4281c7c5610","ios":"levelo://app?vid=7d293a7c-72d8-4b17-bab4-f4281c7c5610"},"vehicle_type_id":"4","last_reported":1687032402,"current_range_meters":28000,"station_id":"ce4bhjp2rcd13ifvqg90","pricing_plan_id":"free"},{"bike_id":"cac131d3-b0e2-4179-a2c6-920d240619e3","system_id":"levelo_inurba_marseille","lat":43.26202,"lon":5.37932,"is_reserved":false,"is_disabled":false,"rental_uris":{"android":"levelo://app?vid=cac131d3-b0e2-4179-a2c6-920d240619e3","ios":"levelo://app?vid=cac131d3-b0e2-4179-a2c6-920d240619e3"},"vehicle_type_id":"4","last_reported":1687032402,"current_range_meters":2800,"station_id":"ce4bhjp2rcd13ifvqg90","pricing_plan_id":"free"},{"bike_id":"fa11bb5b-8649-4d40-975e-6e9e9ac9a7ee","system_id":"levelo_inurba_marseille","lat":43.262017,"lon":5.3793,"is_reserved":false,"is_disabled":false,"rental_uris":{"android":"levelo://app?vid=fa11bb5b-8649-4d40-975e-6e9e9ac9a7ee","ios":"levelo://app?vid=fa11bb5b-8649-4d40-975e-6e9e9ac9a7ee"},"vehicle_type_id":"4","last_reported":1687032402,"current_range_meters":18000,"station_id":"ce4bhjp2rcd13ifvqg90","pricing_plan_id":"free"},{"bike_id":"34b78aa5-f66b-433e-848f-3a318f520e7b","system_id":"levelo_inurba_marseille","lat":43.26201,"lon":5.37925,"is_reserved":false,"is_disabled":false,"rental_uris":{"android":"levelo://app?vid=34b78aa5-f66b-433e-848f-3a318f520e7b","ios":"levelo://app?vid=34b78aa5-f66b-433e-848f-3a318f520e7b"},"vehicle_type_id":"4","last_reported":1687032402,"current_range_meters":14800,"station_id":"ce4bhjp2rcd13ifvqg90","pricing_plan_id":"free"},{"bike_id":"1290350e-c139-492d-bc0a-49bd9a893d1f","system_id":"levelo_inurba_marseille","lat":43.26202,"lon":5.379332,"is_reserved":false,"is_disabled":false,"rental_uris":{"android":"levelo://app?vid=1290350e-c139-492d-bc0a-49bd9a893d1f","ios":"levelo://app?vid=1290350e-c139-492d-bc0a-49bd9a893d1f"},"vehicle_type_id":"4","last_reported":1687032402,"current_range_meters":18000,"station_id":"ce4bhjp2rcd13ifvqg90","pricing_plan_id":"free"},{"bike_id":"7b97506e-ee8f-4885-a673-6a0a3edbcc6e","system_id":"levelo_inurba_marseille","lat":43.26202,"lon":5.379299,"is_reserved":false,"is_disabled":false,"rental_uris":{"android":"levelo://app?vid=7b97506e-ee8f-4885-a673-6a0a3edbcc6e","ios":"levelo://app?vid=7b97506e-ee8f-4885-a673-6a0a3edbcc6e"},"vehicle_type_id":"4","last_reported":1687032402,"current_range_meters":14000,"station_id":"ce4bhjp2rcd13ifvqg90","pricing_plan_id":"free"},{"bike_id":"52b8acf3-1e4c-48cd-9669-bb8d21f70dde","system_id":"levelo_inurba_marseille","lat":43.262012,"lon":5.379307,"is_reserved":false,"is_disabled":false,"rental_uris":{"android":"levelo://app?vid=52b8acf3-1e4c-48cd-9669-bb8d21f70dde","ios":"levelo://app?vid=52b8acf3-1e4c-48cd-9669-bb8d21f70dde"},"vehicle_type_id":"4","last_reported":1687032402,"current_range_meters":2000,"station_id":"ce4bhjp2rcd13ifvqg90","pricing_plan_id":"free"},