{"last_updated":1702706916,"ttl":30,"version":"2.2","data":{"bikes":[{"bike_id":"d33f367f-c488-4341-a51b-59fdf8e6519e","system_id":"levelo_inurba_marseille","lat":43.314811,"lon":5.373103,"is_reserved":false,"is_disabled":false,"rental_uris":{"android":"levelo://app?vid=d33f367f-c488-4341-a51b-59fdf8e6519e","ios":"levelo://app?vid=d33f367f-c488-4341-a51b-59fdf8e6519e"},"vehicle_type_id":"4","last_reported":1702706916,"current_range_meters":26800,"station_id":"ce4bgt12rcd13ifvqcd0","pricing_plan_id":"free"},{"bike_id":"2628431f-da41-45b9-bb5b-b864794506d1","system_id":"levelo_inurba_marseille","lat":43.31429,"lon":5.373405,"is_reserved":false,"is_disabled":false,"rental_uris":{"android":"levelo://app?vid=2628431f-da41-45b9-bb5b-b864794506d1","ios":"levelo://app?vid=2628431f-da41-45b9-bb5b-b864794506d1"},"vehicle_type_id":"4","last_reported":1702706916,"current_range_meters":3600,"station_id":"","pricing_plan_id":"free"},{"bike_id":"364c763f-f7cd-41b9-a3ff-da2d59f1a8b2","system_id":"levelo_inurba_marseille","lat":43.308998,"lon":5.372047,"is_reserved":false,"is_disabled":false,"rental_uris":{"android":"levelo://app?vid=364c763f-f7cd-41b9-a3ff-da2d59f1a8b2","ios":"levelo://app?vid=364c763f-f7cd-41b9-a3ff-da2d59f1a8b2"},"vehicle_type_id":"4","last_reported":1702706916,"current_range_meters":13200,"station_id":"ce4bguh2rcd13ifvqckg","pricing_plan_id":"free"},{"bike_id":"115225e0-b2c3-48fd-9ecf-55f4100d1bfc","system_id":"levelo_inurba_marseille","lat":43.309039,"lon":5.371797,"is_reserved":false,"is_disabled":false,"rental_uris":{"android":"levelo://app?vid=115225e0-b2c3-48fd-9ecf-55f4100d1bfc","ios":"levelo://app?vid=115225e0-b2c3-48fd-9ecf-55f4100d1bfc"},"vehicle_type_id":"4","last_reported":1702706916,"current_range_meters":28000,"station_id":"ce4bguh2rcd13ifvqckg","pricing_plan_id":"free"},{"bike_id":"3f8b821f-e430-4a35-bf14-f8b6e777ea11","system_id":"levelo_inurba_marseille","lat":43.313939,"lon":5.375306,"is_reserved":false,"is_disabled":false,"rental_uris":{"android":"levelo://app?vid=3f8b821f-e430-4a35-bf14-f8b6e777ea11","ios":"levelo://app?vid=3f8b821f-e430-4a35-bf14-f8b6e777ea11"},"vehicle_type_id":"4","last_reported":1702706916,"current_range_meters":0,"station_id":"","pricing_plan_id":"free"},{"bike_id":"4c731e8b-e162-4cc4-817d-bca012a397b3","system_id":"levelo_inurba_marseille","lat":43.305479,"lon":5.365365,"is_reserved":false,"is_disabled":false,"rental_uris":{"android":"levelo://app?vid=4c731e8b-e162-4cc4-817d-bca012a397b3","ios":"levelo://app?vid=4c731e8b-e162-4cc4-817d-bca012a397b3"},"vehicle_type_id":"4","last_reported":1702706916,"current_range_meters":30000,"station_id":"ce4bgs12rcd13ifvqcag","pricing_plan_id":"free"},{"bike_id":"955e4ab2-16e5-44e8-a986-a2f50ff96c06","system_id":"levelo_inurba_marseille","lat":43.305382,"lon":5.365389,"is_reserved":false,"is_disabled":false,"rental_uris":{"android":"levelo://app?vid=955e4ab2-16e5-44e8-a986-a2f50ff96c06","ios":"levelo://app?vid=955e4ab2-16e5-44e8-a986-a2f50ff96c06"},"vehicle_type_id":"4","last_reported":1702706916,"current_range_meters":16800,"station_id":"","pricing_plan_id":"free"},{"bike_id":"853009c0-e01a-439c-b3e9-4c7d620628f6","system_id":"levelo_inurba_marseille","lat":43.305989,"lon":5.37225,"is_reserved":false,"is_disabled":false,"rental_uris":{"android":"levelo://app?vid=853009c0-e01a-439c-b3e9-4c7d620628f6","ios":"levelo://app?vid=853009c0-e01a-439c-b3e9-4c7d620628f6"},"vehicle_type_id":"4","last_reported":1702706916,"current_range_meters":31200,"station_id":"ce4bgqh2rcd13ifvqc4g","pricing_plan_id":"free"},{"bike_id":"37480a4d-1ce9-421b-8587-12d2f7ed17e2","system_id":"levelo_inurba_marseille","lat":43.305989,"lon":5.37225,"is_reserved":false,"is_disabled":false,"rental_uris":{"android":"levelo://app?vid=37480a4d-1ce9-421b-8587-12d2f7ed17e2","ios":"levelo://app?vid=37480a4d-1ce9-421b-8587-12d2f7ed17e2"},"vehicle_type_id":"4","last_reported":1702706916,"current_range_meters":30000,"station_id":"ce4bgqh2rcd13ifvqc4g","pricing_plan_id":"free"},{"bike_id":"7adbc92d-bd7f-4a29-acec-23acef8d21ae","system_id":"levelo_inurba_marseille","lat":43.305989,"lon":5.37225,"is_reserved":false,"is_disabled":false,"rental_uris":{"android":"levelo://app?vid=7adbc92d-bd7f-4a29-acec-23acef8d21ae","ios":"levelo://app?vid=7adbc92d-bd7f-4a29-acec-23acef8d21ae"},"vehicle_type_id":"4","last_reported":1702706916,"current_range_meters":30400,"station_id":"ce4bgqh2rcd13ifvqc4g","pricing_plan_id":"free"},{"bike_id":"7fcf464a-8fdb-478c-bc37-3ce4d8355ba5","system_id":"levelo_inurba_marseille","lat":43.311125,"lon":5.377624,"is_reserved":false,"is_disabled":false,"rental_uris":{"android":"levelo://app?vid=7fcf464a-8fdb-478c-bc37-3ce4d8355ba5","ios":"levelo://app?vid=7fcf464a-8fdb-478c-bc37-3ce4d8355ba5"},"vehicle_type_id":"4","last_reported":1702706916,"current_range_meters":29600,"station_id":"ce4bgt92rcd13ifvqcg0","pricing_plan_id":"free"},{"bike_id":"e172c963-750d-4c43-8d62-81cc7d1a450b","system_id":"levelo_inurba_marseille","lat":43.311198,"lon":5.377664,"is_reserved":false,"is_disabled":false,"rental_uris":{"android":"levelo://app?vid=e172c963-750d-4c43-8d62-81cc7d1a450b","ios":"levelo://app?vid=e172c963-750d-4c43-8d62-81cc7d1a450b"},"vehicle_type_id":"4","last_reported":1702706916,"current_range_meters":29600,"station_id":"ce4bgt92rcd13ifvqcg0","pricing_plan_id":"free"},{"bike_id":"e74aec2d-5977-4835-a0ef-ff9144d01f7e","system_id":"levelo_inurba_marseille","lat":43.311183,"lon":5.377661,"is_reserved":false,"is_disabled":false,"rental_uris":{"android":"levelo://app?vid=e74aec2d-5977-4835-a0ef-ff9144d01f7e","ios":"levelo://app?vid=e74aec2d-5977-4835-a0ef-ff9144d01f7e"},"vehicle_type_id":"4","last_reported":1702706916,"current_range_meters":30400,"station_id":"ce4bgt92rcd13ifvqcg0","pricing_plan_id":"free"},{"bike_id":"130e36da-c514-4fa3-97f3-eeaac599205a","system_id":"levelo_inurba_marseille","lat":43.31113,"lon":5.37766,"is_reserved":false,"is_disabled":false,"rental_uris":{"android":"levelo://app?vid=130e36da-c514-4fa3-97f3-eeaac599205a","ios":"levelo://app?vid=130e36da-c514-4fa3-97f3-eeaac599205a"},"vehicle_type_id":"4","last_reported":1702706916,"current_range_meters":24800,"station_id":"ce4bgt92rcd13ifvqcg0","pricing_plan_id":"free"},{"bike_id":"da1adf6b-e342-42cc-a38f-572258e7207f","system_id":"levelo_inurba_marseille","lat":43.311191,"lon":5.377692,"is_reserved":false,"is_disabled":false,"rental_uris":{"android":"levelo://app?vid=da1adf6b-e342-42cc-a38f-572258e7207f","ios":"levelo://app?vid=da1adf6b-e342-42cc-a38f-572258e7207f"},"vehicle_type_id":"4","last_reported":1702706916,"current_range_meters":20800,"station_id":"ce4bgt92rcd13ifvqcg0","pricing_plan_id":"free"},{"bike_id":"16046fba-77f4-45d2-8b4a-5f3d0ad93944","system_id":"levelo_inurba_marseille","lat":43.3112,"lon":5.3777,"is_reserved":false,"is_disabled":false,"rental_uris":{"android":"levelo://app?vid=16046fba-77f4-45d2-8b4a-5f3d0ad93944","ios":"levelo://app?vid=16046fba-77f4-45d2-8b4a-5f3d0ad93944"},"vehicle_type_id":"4","last_reported":1702706916,"current_range_meters":31200,"station_id":"ce4bgt92rcd13ifvqcg0","pricing_plan_id":"free"},{"bike_id":"0f7506b8-446e-4484-9730-ec67e05e0215","system_id":"levelo_inurba_marseille","lat":43.3111,"lon":5.3777,"is_reserved":false,"is_disabled":false,"rental_uris":{"android":"levelo://app?vid=0f7506b8-446e-4484-9730-ec67e05e0215","ios":"levelo://app?vid=0f7506b8-446e-4484-9730-ec67e05e0215"},"vehicle_type_id":"4","last_reported":1702706916,"current_range_meters":26800,"station_id":"ce4bgt92rcd13ifvqcg0","pricing_plan_id":"free"},{"bike_id":"9a557d8f-d5f1-4bc5-8063-680898b9e532","system_id":"levelo_inurba_marseille","lat":43.307945,"lon":5.376487,"is_reserved":false,"is_disabled":false,"rental_uris":{"android":"levelo://app?vid=9a557d8f-d5f1-4bc5-8063-680898b9e532","ios":"levelo://app?vid=9a557d8f-d5f1-4bc5-8063-680898b9e532"},"vehicle_type_id":"4","last_reported":1702706916,"current_range_meters":30400,"station_id":"ce4bgv92rcd13ifvqcq0","pricing_plan_id":"free"},{"bike_id":"d1da759d-fc45-453e-b296-18644f500a5c","system_id":"levelo_inurba_marseille","lat":43.307845,"lon":5.376475,"is_reserved":false,"is_disabled":false,"rental_uris":{"android":"levelo://app?vid=d1da759d-fc45-453e-b296-18644f500a5c","ios":"levelo://app?vid=d1da759d-fc45-453e-b296-18644f500a5c"},"vehicle_type_id":"4","last_reported":1702706916,"current_range_meters":20800,"station_id":"ce4bgv92rcd13ifvqcq0","pricing_plan_id":"free"},{"bike_id":"1cac14e1-4099-455b-ab55-73d699c3e506","system_id":"levelo_inurba_marseille","lat":43.307821,"lon":5.37654,"is_reserved":false,"is_disabled":false,"rental_uris":{"android":"levelo://app?vid=1cac14e1-4099-455b-ab55-73d699c3e506","ios":"levelo://app?vid=1cac14e1-4099-455b-ab55-73d699c3e506"},"vehicle_type_id":"4","last_reported":1702706916,"current_range_meters":19600,"station_id":"ce4bgv92rcd13ifvqcq0","pricing_plan_id":"free"},{"bike_id":"8f2f2472-686d-4d1b-bd99-8d9acdd0522f","system_id":"levelo_inurba_marseille","lat":43.307945,"lon":5.376487,"is_reserved":false,"is_disabled":false,"rental_uris":{"android":"levelo://app?vid=8f2f2472-686d-4d1b-bd99-8d9acdd0522f","ios":"levelo://app?vid=8f2f2472-686d-4d1b-bd99-8d9acdd0522f"},"vehicle_type_id":"4","last_reported":1702706916,"current_range_meters":22800,"station_id":"ce4bgv92rcd13ifvqcq0","pricing_plan_id":"free"},{"bike_id":"0b4323a1-cc0b-4211-ba5e-81bfe708871c","system_id":"levelo_inurba_marseille","lat":43.303046,"lon":5.368981,"is_reserved":false,"is_disabled":false,"rental_uris":{"android":"levelo://app?vid=0b4323a1-cc0b-4211-ba5e-81bfe708871c","ios":"levelo://app?vid=0b4323a1-cc0b-4211-ba5e-81bfe708871c"},"vehicle_type_id":"4","last_reported":1702706916,"current_range_meters":26400,"station_id":"ce4bgqh2rcd13ifvqc5g","pricing_plan_id":"free"},{"bike_id":"112889bc-8d0f-431d-9767-314715ea602b","system_id":"levelo_inurba_marseille","lat":43.315565,"lon":5.380095,"is_reserved":false,"is_disabled":false,"rental_uris":{"android":"levelo://app?vid=112889bc-8d0f-431d-9767-314715ea602b","ios":"levelo://app?vid=112889bc-8d0f-431d-9767-314715ea602b"},"vehicle_type_id":"4","last_reported":1702706916,"current_range_meters":17600,"station_id":"ce4bhsp2rcd13ifvqi50","pricing_plan_id":"free"},{"bike_id":"268d7a8f-ffed-4eee-ad75-969cf62031fb","system_id":"levelo_inurba_marseille","lat":43.315323,"lon":5.380302,"is_reserved":false,"is_disabled":false,"rental_uris":{"android":"levelo://app?vid=268d7a8f-ffed-4eee-ad75-969cf62031fb","ios":"levelo://app?vid=268d7a8f-ffed-4eee-ad75-969cf62031fb"},"vehicle_type_id":"4","last_reported":1702706916,"current_range_meters":3200,"station_id":"ce4bhsp2rcd13ifvqi50","pricing_plan_id":"free"},{"bike_id":"33858e5b-f48b-40ee-88f1-169fb62afdc9","system_id":"levelo_inurba_marseille","lat":43.315293,"lon":5.380349,"is_reserved":false,"is_disabled":false,"rental_uris":{"android":"levelo://app?vid=33858e5b-f48b-40ee-88f1-169fb62afdc9","ios":"levelo://app?vid=33858e5b-f48b-40ee-88f1-169fb62afdc9"},"vehicle_type_id":"4","last_reported":1702706916,"current_range_meters":20400,"station_id":"ce4bhsp2rcd13ifvqi50","pricing_plan_id":"free"},{"bike_id":"2c0f810e-97b9-40fd-8717-732697151019","system_id":"levelo_inurba_marseille","lat":43.301939,"lon":5.366286,"is_reserved":false,"is_disabled":false,"rental_uris":{"android":"levelo://app?vid=2c0f810e-97b9-40fd-8717-732697151019","ios":"levelo://app?vid=2c0f810e-97b9-40fd-8717-732697151019"},"vehicle_type_id":"4","last_reported":1702706916,"current_range_meters":26800,"station_id":"ce4bgrh2rcd13ifvqc8g","pricing_plan_id":"free"},{"bike_id":"476f9859-a189-453e-8792-5bf67b3102a7","system_id":"levelo_inurba_marseille","lat":43.304606,"lon":5.379026,"is_reserved":false,"is_disabled":false,"rental_uris":{"android":"levelo://app?vid=476f9859-a189-453e-8792-5bf67b3102a7","ios":"levelo://app?vid=476f9859-a189-453e-8792-5bf67b3102a7"},"vehicle_type_id":"4","last_reported":1702706916,"current_range_meters":21200,"station_id":"ce4bgup2rcd13ifvqcn0","pricing_plan_id":"free"},{"bike_id":"8d0764f7-c6ec-46ef-9112-b98e0cf7975f","system_id":"levelo_inurba_marseille","lat":43.304606,"lon":5.379026,"is_reserved":false,"is_disabled":false,"rental_uris":{"android":"levelo://app?vid=8d0764f7-c6ec-46ef-9112-b98e0cf7975f","ios":"levelo://app?vid=8d0764f7-c6ec-46ef-9112-b98e0cf7975f"},"vehicle_type_id":"4","last_reported":1702706916,"current_range_meters":14000,"station_id":"ce4bgup2rcd13ifvqcn0","pricing_plan_id":"free"},{"bike_id":"59c69b7b-d415-4ac3-b7a7-e7939df95624","system_id":"levelo_inurba_marseille","lat":43.304606,"lon":5.379026,"is_reserved":false,"is_disabled":false,"rental_uris":{"android":"levelo://app?vid=59c69b7b-d415-4ac3-b7a7-e7939df95624","ios":"levelo://app?vid=59c69b7b-d415-4ac3-b7a7-e7939df95624"},"vehicle_type_id":"4","last_reported":1702706916,"current_range_meters":25200,"station_id":"ce4bgup2rcd13ifvqcn0","pricing_plan_id":"free"},{"bike_id":"30875250-a2a6-4d0e-85c2-0c9f8054357d","system_id":"levelo_inurba_marseille","lat":43.304606,"lon":5.379026,"is_reserved":false,"is_disabled":false,"rental_uris":{"android":"levelo://app?vid=30875250-a2a6-4d0e-85c2-0c9f8054357d","ios":"levelo://app?vid=30875250-a2a6-4d0e-85c2-0c9f8054357d"},"vehicle_type_id":"4","last_reported":1702706916,"current_range_meters":31200,"station_id":"ce4bgup2rcd13ifvqcn0","pricing_plan_id":"free"},{"bike_id":"9c248663-03d1-415b-88d2-6bfbc9175a63","system_id":"levelo_inurba_marseille","lat":43.304606,"lon":5.379026,"is_reserved":false,"is_disabled":false,"rental_uris":{"android":"levelo://app?vid=9c248663-03d1-415b-88d2-6bfbc9175a63","ios":"levelo://app?vid=9c248663-03d1-415b-88d2-6bfbc9175a63"},"vehicle_type_id":"4","last_reported":1702706916,"current_range_meters":24800,"station_id":"ce4bgup2rcd13ifvqcn0","pricing_plan_id":"free"},{"bike_id":"3ec6da86-b6f8-43fb-a36f-5b0aa8c723a9","system_id":"levelo_inurba_marseille","lat":43.304606,"lon":5.379026,"is_reserved":false,"is_disabled":false,"rental_uris":{"android":"levelo://app?vid=3ec6da86-b6f8-43fb-a36f-5b0aa8c723a9","ios":"levelo://app?vid=3ec6da86-b6f8-43fb-a36f-5b0aa8c723a9"},"vehicle_type_id":"4","last_reported":1702706916,"current_range_meters":28400,"station_id":"ce4bgup2rcd13ifvqcn0","pricing_plan_id":"free"},{"bike_id":"88f7ea2a-62f7-4a88-9e9d-900940b4d7e5","system_id":"levelo_inurba_marseille","lat":43.324771,"lon":5.36557,"is_reserved":false,"is_disabled":false,"rental_uris":{"android":"levelo://app?vid=88f7ea2a-62f7-4a88-9e9d-900940b4d7e5","ios":"levelo://app?vid=88f7ea2a-62f7-4a88-9e9d-900940b4d7e5"},"vehicle_type_id":"4","last_reported":1702706916,"current_range_meters":17600,"station_id":"ce4bhs12rcd13ifvqhvg","pricing_plan_id":"free"},{"bike_id":"f1cde3ff-6cd4-4e86-99bc-06e7a73fc0a0","system_id":"levelo_inurba_marseille","lat":43.324799,"lon":5.365589,"is_reserved":false,"is_disabled":false,"rental_uris":{"android":"levelo://app?vid=f1cde3ff-6cd4-4e86-99bc-06e7a73fc0a0","ios":"levelo://app?vid=f1cde3ff-6cd4-4e86-99bc-06e7a73fc0a0"},"vehicle_type_id":"4","last_reported":1702706916,"current_range_meters":18400,"station_id":"ce4bhs12rcd13ifvqhvg","pricing_plan_id":"free"},{"bike_id":"dfe62985-6f65-471f-8bdb-4e96693a7937","system_id":"levelo_inurba_marseille","lat":43.324771,"lon":5.36557,"is_reserved":false,"is_disabled":false,"rental_uris":{"android":"levelo://app?vid=dfe62985-6f65-471f-8bdb-4e96693a7937","ios":"levelo://app?vid=dfe62985-6f65-471f-8bdb-4e96693a7937"},"vehicle_type_id":"4","last_reported":1702706916,"current_range_meters":19200,"station_id":"ce4bhs12rcd13ifvqhvg","pricing_plan_id":"free"},{"bike_id":"5e39cacd-4f47-46aa-b469-20ce9e1ba57c","system_id":"levelo_inurba_marseille","lat":43.324771,"lon":5.36557,"is_reserved":false,"is_disabled":false,"rental_uris":{"android":"levelo://app?vid=5e39cacd-4f47-46aa-b469-20ce9e1ba57c","ios":"levelo://app?vid=5e39cacd-4f47-46aa-b469-20ce9e1ba57c"},"vehicle_type_id":"4","last_reported":1702706916,"current_range_meters":3200,"station_id":"ce4bhs12rcd13ifvqhvg","pricing_plan_id":"free"},{"bike_id":"bae35c7a-4a97-4af1-8e9f-dcedf04f5262","system_id":"levelo_inurba_marseille","lat":43.302784,"lon":5.377158,"is_reserved":false,"is_disabled":false,"rental_uris":{"android":"levelo://app?vid=bae35c7a-4a97-4af1-8e9f-dcedf04f5262","ios":"levelo://app?vid=bae35c7a-4a97-4af1-8e9f-dcedf04f5262"},"vehicle_type_id":"4","last_reported":1702706916,"current_range_meters":26400,"station_id":"ce4bguh2rcd13ifvqcj0","pricing_plan_id":"free"},{"bike_id":"2716ecf2-2796-49fc-8310-074102d61e52","system_id":"levelo_inurba_marseille","lat":43.313571,"lon":5.384829,"is_reserved":false,"is_disabled":false,"rental_uris":{"android":"levelo://app?vid=2716ecf2-2796-49fc-8310-074102d61e52","ios":"levelo://app?vid=2716ecf2-2796-49fc-8310-074102d61e52"},"vehicle_type_id":"4","last_reported":1702706916,"current_range_meters":30400,"station_id":"ce4bgt92rcd13ifvqcf0","pricing_plan_id":"free"},{"bike_id":"3a981fd6-72c7-4d26-be2f-f18e5e8dc7e2","system_id":"levelo_inurba_marseille","lat":43.313571,"lon":5.384829,"is_reserved":false,"is_disabled":false,"rental_uris":{"android":"levelo://app?vid=3a981fd6-72c7-4d26-be2f-f18e5e8dc7e2","ios":"levelo://app?vid=3a981fd6-72c7-4d26-be2f-f18e5e8dc7e2"},"vehicle_type_id":"4","last_reported":1702706916,"current_range_meters":22800,"station_id":"ce4bgt92rcd13ifvqcf0","pricing_plan_id":"free"},{"bike_id":"3ef484fa-fae5-4029-81ca-7b86e7c91b64","system_id":"levelo_inurba_marseille","lat":43.313571,"lon":5.384829,"is_reserved":false,"is_disabled":false,"rental_uris":{"android":"levelo://app?vid=3ef484fa-fae5-4029-81ca-7b86e7c91b64","ios":"levelo://app?vid=3ef484fa-fae5-4029-81ca-7b86e7c91b64"},"vehicle_type_id":"4","last_reported":1702706916,"current_range_meters":30000,"station_id":"ce4bgt92rcd13ifvqcf0","pricing_plan_id":"free"},{"bike_id":"0e936087-40f5-4e5f-b2fe-2881522db863","system_id":"levelo_inurba_marseille","lat":43.305452,"lon":5.38414,"is_reserved":false,"is_disabled":false,"rental_uris":{"android":"levelo://app?vid=0e936087-40f5-4e5f-b2fe-2881522db863","ios":"levelo://app?vid=0e936087-40f5-4e5f-b2fe-2881522db863"},"vehicle_type_id":"4","last_reported":1702706916,"current_range_meters":30800,"station_id":"ce4bgg92rcd13ifvqb30","pricing_plan_id":"free"},{"bike_id":"c4e77394-aef9-4077-b745-e99148625344","system_id":"levelo_inurba_marseille","lat":43.32733,"lon":5.36707,"is_reserved":false,"is_disabled":false,"rental_uris":{"android":"levelo://app?vid=c4e77394-aef9-4077-b745-e99148625344","ios":"levelo://app?vid=c4e77394-aef9-4077-b745-e99148625344"},"vehicle_type_id":"4","last_reported":1702706916,"current_range_meters":24000,"station_id":"","pricing_plan_id":"free"},{"bike_id":"22dac74e-e661-444b-8f06-ce0dd3721dfc","system_id":"levelo_inurba_marseille","lat":43.305364,"lon":5.384119,"is_reserved":false,"is_disabled":false,"rental_uris":{"android":"levelo://app?vid=22dac74e-e661-444b-8f06-ce0dd3721dfc","ios":"levelo://app?vid=22dac74e-e661-444b-8f06-ce0dd3721dfc"},"vehicle_type_id":"4","last_reported":1702706916,"current_range_meters":22000,"station_id":"ce4bgg92rcd13ifvqb30","pricing_plan_id":"free"},{"bike_id":"819cb438-2e9c-4e0b-902b-5e19ef554d5c","system_id":"levelo_inurba_marseille","lat":43.305465,"lon":5.384378,"is_reserved":false,"is_disabled":false,"rental_uris":{"android":"levelo://app?vid=819cb438-2e9c-4e0b-902b-5e19ef554d5c","ios":"levelo://app?vid=819cb438-2e9c-4e0b-902b-5e19ef554d5c"},"vehicle_type_id":"4","last_reported":1702706916,"current_range_meters":18000,"station_id":"ce4bgg92rcd13ifvqb30","pricing_plan_id":"free"},{"bike_id":"8dc0bf60-a205-4613-a951-bb78f8fbdad9","system_id":"levelo_inurba_marseille","lat":43.299243,"lon":5.374807,"is_reserved":false,"is_disabled":false,"rental_uris":{"android":"levelo://app?vid=8dc0bf60-a205-4613-a951-bb78f8fbdad9","ios":"levelo://app?vid=8dc0bf60-a205-4613-a951-bb78f8fbdad9"},"vehicle_type_id":"4","last_reported":1702706916,"current_range_meters":28000,"station_id":"ce4bgjh2rcd13ifvqbg0","pricing_plan_id":"free"},{"bike_id":"4e41a654-5406-45b1-9dc1-841f600c7a80","system_id":"levelo_inurba_marseille","lat":43.297794,"lon":5.370888,"is_reserved":false,"is_disabled":false,"rental_uris":{"android":"levelo://app?vid=4e41a654-5406-45b1-9dc1-841f600c7a80","ios":"levelo://app?vid=4e41a654-5406-45b1-9dc1-841f600c7a80"},"vehicle_type_id":"4","last_reported":1702706916,"current_range_meters":27200,"station_id":"ce4bgop2rcd13ifvqc1g","pricing_plan_id":"free"},{"bike_id":"cb559df9-b405-48a1-9eb4-7367463ff55c","system_id":"levelo_inurba_marseille","lat":43.322994,"lon":5.382795,"is_reserved":false,"is_disabled":false,"rental_uris":{"android":"levelo://app?vid=cb559df9-b405-48a1-9eb4-7367463ff55c","ios":"levelo://app?vid=cb559df9-b405-48a1-9eb4-7367463ff55c"},"vehicle_type_id":"4","last_reported":1702706916,"current_range_meters":4000,"station_id":"ce4bhr12rcd13ifvqhqg","pricing_plan_id":"free"},{"bike_id":"1177e27d-2934-4bf5-aba8-55c73c052e6c","system_id":"levelo_inurba_marseille","lat":43.299028,"lon":5.381509,"is_reserved":false,"is_disabled":false,"rental_uris":{"android":"levelo://app?vid=1177e27d-2934-4bf5-aba8-55c73c052e6c","ios":"levelo://app?vid=1177e27d-2934-4bf5-aba8-55c73c052e6c"},"vehicle_type_id":"4","last_reported":1702706916,"current_range_meters":30000,"station_id":"ce4bgj12rcd13ifvqbc0","pricing_plan_id":"free"},{"bike_id":"daa31491-55fa-4ad2-8759-023ac4dd9bbf","system_id":"levelo_inurba_marseille","lat":43.299028,"lon":5.381509,"is_reserved":false,"is_disabled":false,"rental_uris":{"android":"levelo://app?vid=daa31491-55fa-4ad2-8759-023ac4dd9bbf","ios":"levelo://app?vid=daa31491-55fa-4ad2-8759-023ac4dd9bbf"},"vehicle_type_id":"4","last_reported":1702706916,"current_range_meters":28000,"station_id":"ce4bgj12rcd13ifvqbc0","pricing_plan_id":"free"},{"bike_id":"663d0f88-bc7b-439f-9d6a-2be0aba05dd6","system_id":"levelo_inurba_marseille","lat":43.299028,"lon":5.381509,"is_reserved":false,"is_disabled":false,"rental_uris":{"android":"levelo://app?vid=663d0f88-bc7b-439f-9d6a-2be0aba05dd6","ios":"levelo://app?vid=663d0f88-bc7b-439f-9d6a-2be0aba05dd6"},"vehicle_type_id":"4","last_reported":1702706916,"current_range_meters":27200,"station_id":"ce4bgj12rcd13ifvqbc0","pricing_plan_id":"free"},{"bike_id":"ff49cfbd-ac0d-4758-a027-e310510bc30b","system_id":"levelo_inurba_marseille","lat":43.297932,"lon":5.380907,"is_reserved":false,"is_disabled":false,"rental_uris":{"android":"levelo://app?vid=ff49cfbd-ac0d-4758-a027-e310510bc30b","ios":"levelo://app?vid=ff49cfbd-ac0d-4758-a027-e310510bc30b"},"vehicle_type_id":"4","last_reported":1702706916,"current_range_meters":25200,"station_id":"ce4bgip2rcd13ifvqbb0","pricing_plan_id":"free"},{"bike_id":"c01bd912-b87a-4ece-8926-f95c65b1db33","system_id":"levelo_inurba_marseille","lat":43.304278,"lon":5.388868,"is_reserved":false,"is_disabled":false,"rental_uris":{"android":"levelo://app?vid=c01bd912-b87a-4ece-8926-f95c65b1db33","ios":"levelo://app?vid=c01bd912-b87a-4ece-8926-f95c65b1db33"},"vehicle_type_id":"4","last_reported":1702706916,"current_range_meters":27200,"station_id":"ce4bgk12rcd13ifvqbi0","pricing_plan_id":"free"},{"bike_id":"2c048e88-0c2a-4989-b647-64b42c16da45","system_id":"levelo_inurba_marseille","lat":43.29793,"lon":5.38103,"is_reserved":false,"is_disabled":false,"rental_uris":{"android":"levelo://app?vid=2c048e88-0c2a-4989-b647-64b42c16da45","ios":"levelo://app?vid=2c048e88-0c2a-4989-b647-64b42c16da45"},"vehicle_type_id":"4","last_reported":1702706916,"current_range_meters":29600,"station_id":"","pricing_plan_id":"free"},{"bike_id":"dc4ac81a-8211-472c-8f2e-db9a96f655bf","system_id":"levelo_inurba_marseille","lat":43.29791,"lon":5.38112,"is_reserved":false,"is_disabled":false,"rental_uris":{"android":"levelo://app?vid=dc4ac81a-8211-472c-8f2e-db9a96f655bf","ios":"levelo://app?vid=dc4ac81a-8211-472c-8f2e-db9a96f655bf"},"vehicle_type_id":"4","last_reported":1702706916,"current_range_meters":30000,"station_id":"","pricing_plan_id":"free"},{"bike_id":"cb197826-50fb-46fe-a18c-d83eb15a7f63","system_id":"levelo_inurba_marseille","lat":43.296263,"lon":5.377094,"is_reserved":false,"is_disabled":false,"rental_uris":{"android":"levelo://app?vid=cb197826-50fb-46fe-a18c-d83eb15a7f63","ios":"levelo://app?vid=cb197826-50fb-46fe-a18c-d83eb15a7f63"},"vehicle_type_id":"4","last_reported":1702706916,"current_range_meters":28800,"station_id":"ce4bgi92rcd13ifvqb90","pricing_plan_id":"free"},{"bike_id":"3fccb696-6b9b-49ad-a22b-71a7840c76cc","system_id":"levelo_inurba_marseille","lat":43.29975,"lon":5.38483,"is_reserved":false,"is_disabled":false,"rental_uris":{"android":"levelo://app?vid=3fccb696-6b9b-49ad-a22b-71a7840c76cc","ios":"levelo://app?vid=3fccb696-6b9b-49ad-a22b-71a7840c76cc"},"vehicle_type_id":"4","last_reported":1702706916,"current_range_meters":19600,"station_id":"ce4bgj92rcd13ifvqbd0","pricing_plan_id":"free"},{"bike_id":"dacd3d18-da79-4281-a239-2811fdaf26ee","system_id":"levelo_inurba_marseille","lat":43.299707,"lon":5.384859,"is_reserved":false,"is_disabled":false,"rental_uris":{"android":"levelo://app?vid=dacd3d18-da79-4281-a239-2811fdaf26ee","ios":"levelo://app?vid=dacd3d18-da79-4281-a239-2811fdaf26ee"},"vehicle_type_id":"4","last_reported":1702706916,"current_range_meters":28800,"station_id":"ce4bgj92rcd13ifvqbd0","pricing_plan_id":"free"},{"bike_id":"24c19684-28c7-4ae4-b6ac-1840f97117bb","system_id":"levelo_inurba_marseille","lat":43.32367,"lon":5.388836,"is_reserved":false,"is_disabled":false,"rental_uris":{"android":"levelo://app?vid=24c19684-28c7-4ae4-b6ac-1840f97117bb","ios":"levelo://app?vid=24c19684-28c7-4ae4-b6ac-1840f97117bb"},"vehicle_type_id":"4","last_reported":1702706916,"current_range_meters":1200,"station_id":"ce4bhqp2rcd13ifvqhog","pricing_plan_id":"free"},{"bike_id":"23483833-7647-4091-91ac-ede8de7eab3c","system_id":"levelo_inurba_marseille","lat":43.32365,"lon":5.388842,"is_reserved":false,"is_disabled":false,"rental_uris":{"android":"levelo://app?vid=23483833-7647-4091-91ac-ede8de7eab3c","ios":"levelo://app?vid=23483833-7647-4091-91ac-ede8de7eab3c"},"vehicle_type_id":"4","last_reported":1702706916,"current_range_meters":13200,"station_id":"ce4bhqp2rcd13ifvqhog","pricing_plan_id":"free"},{"bike_id":"fdec5a4c-49a3-4317-9409-4f87bd2cac2a","system_id":"levelo_inurba_marseille","lat":43.292311,"lon":5.360731,"is_reserved":false,"is_disabled":false,"rental_uris":{"android":"levelo://app?vid=fdec5a4c-49a3-4317-9409-4f87bd2cac2a","ios":"levelo://app?vid=fdec5a4c-49a3-4317-9409-4f87bd2cac2a"},"vehicle_type_id":"4","last_reported":1702706916,"current_range_meters":21600,"station_id":"ce4bhbh2rcd13ifvqeqg","pricing_plan_id":"free"},{"bike_id":"4e8c9641-9d34-41c3-82d7-da2d6a40db01","system_id":"levelo_inurba_marseille","lat":43.309038,"lon":5.396546,"is_reserved":false,"is_disabled":false,"rental_uris":{"android":"levelo://app?vid=4e8c9641-9d34-41c3-82d7-da2d6a40db01","ios":"levelo://app?vid=4e8c9641-9d34-41c3-82d7-da2d6a40db01"},"vehicle_type_id":"4","last_reported":1702706916,"current_range_meters":31200,"station_id":"ce4bh012rcd13ifvqcv0","pricing_plan_id":"free"},{"bike_id":"47ffa475-e02f-4947-b8ae-328e913236af","system_id":"levelo_inurba_marseille","lat":43.291994,"lon":5.357886,"is_reserved":false,"is_disabled":false,"rental_uris":{"android":"levelo://app?vid=47ffa475-e02f-4947-b8ae-328e913236af","ios":"levelo://app?vid=47ffa475-e02f-4947-b8ae-328e913236af"},"vehicle_type_id":"4","last_reported":1702706916,"current_range_meters":25600,"station_id":"ce4bhb12rcd13ifvqel0","pricing_plan_id":"free"},{"bike_id":"12dc0d0f-0ac1-4e8a-93cc-03d12567c142","system_id":"levelo_inurba_marseille","lat":43.309038,"lon":5.396546,"is_reserved":false,"is_disabled":false,"rental_uris":{"android":"levelo://app?vid=12dc0d0f-0ac1-4e8a-93cc-03d12567c142","ios":"levelo://app?vid=12dc0d0f-0ac1-4e8a-93cc-03d12567c142"},"vehicle_type_id":"4","last_reported":1702706916,"current_range_meters":30800,"station_id":"ce4bh012rcd13ifvqcv0","pricing_plan_id":"free"},{"bike_id":"1f2f7f38-fc2e-46b3-b8d4-5d56c317ed5f","system_id":"levelo_inurba_marseille","lat":43.309038,"lon":5.396546,"is_reserved":false,"is_disabled":false,"rental_uris":{"android":"levelo://app?vid=1f2f7f38-fc2e-46b3-b8d4-5d56c317ed5f","ios":"levelo://app?vid=1f2f7f38-fc2e-46b3-b8d4-5d56c317ed5f"},"vehicle_type_id":"4","last_reported":1702706916,"current_range_meters":31200,"station_id":"ce4bh012rcd13ifvqcv0","pricing_plan_id":"free"},{"bike_id":"487691ae-5cc2-42cf-bc80-2404297a81a8","system_id":"levelo_inurba_marseille","lat":43.309047,"lon":5.396551,"is_reserved":false,"is_disabled":false,"rental_uris":{"android":"levelo://app?vid=487691ae-5cc2-42cf-bc80-2404297a81a8","ios":"levelo://app?vid=487691ae-5cc2-42cf-bc80-2404297a81a8"},"vehicle_type_id":"4","last_reported":1702706916,"current_range_meters":30800,"station_id":"ce4bh012rcd13ifvqcv0","pricing_plan_id":"free"},{"bike_id":"bd3ba144-6dbe-4e0a-b3a6-5acf2e053d44","system_id":"levelo_inurba_marseille","lat":43.313291,"lon":5.396838,"is_reserved":false,"is_disabled":false,"rental_uris":{"android":"levelo://app?vid=bd3ba144-6dbe-4e0a-b3a6-5acf2e053d44","ios":"levelo://app?vid=bd3ba144-6dbe-4e0a-b3a6-5acf2e053d44"},"vehicle_type_id":"4","last_reported":1702706916,"current_range_meters":14000,"station_id":"ce4bgvp2rcd13ifvqcu0","pricing_plan_id":"free"},{"bike_id":"d195ec21-de91-44fd-a501-11abffbab2cc","system_id":"levelo_inurba_marseille","lat":43.309038,"lon":5.396546,"is_reserved":false,"is_disabled":false,"rental_uris":{"android":"levelo://app?vid=d195ec21-de91-44fd-a501-11abffbab2cc","ios":"levelo://app?vid=d195ec21-de91-44fd-a501-11abffbab2cc"},"vehicle_type_id":"4","last_reported":1702706916,"current_range_meters":30400,"station_id":"ce4bh012rcd13ifvqcv0","pricing_plan_id":"free"},{"bike_id":"13fbc514-e701-4d27-9689-deadb82d14f9","system_id":"levelo_inurba_marseille","lat":43.313291,"lon":5.396838,"is_reserved":false,"is_disabled":false,"rental_uris":{"android":"levelo://app?vid=13fbc514-e701-4d27-9689-deadb82d14f9","ios":"levelo://app?vid=13fbc514-e701-4d27-9689-deadb82d14f9"},"vehicle_type_id":"4","last_reported":1702706916,"current_range_meters":31200,"station_id":"ce4bgvp2rcd13ifvqcu0","pricing_plan_id":"free"},{"bike_id":"19be8206-8276-4789-9069-e9e6632d2bb2","system_id":"levelo_inurba_marseille","lat":43.313291,"lon":5.396838,"is_reserved":false,"is_disabled":false,"rental_uris":{"android":"levelo://app?vid=19be8206-8276-4789-9069-e9e6632d2bb2","ios":"levelo://app?vid=19be8206-8276-4789-9069-e9e6632d2bb2"},"vehicle_type_id":"4","last_reported":1702706916,"current_range_meters":29200,"station_id":"ce4bgvp2rcd13ifvqcu0","pricing_plan_id":"free"},{"bike_id":"60187a11-0163-442c-809b-00ec0cffbb70","system_id":"levelo_inurba_marseille","lat":43.313291,"lon":5.396838,"is_reserved":false,"is_disabled":false,"rental_uris":{"android":"levelo://app?vid=60187a11-0163-442c-809b-00ec0cffbb70","ios":"levelo://app?vid=60187a11-0163-442c-809b-00ec0cffbb70"},"vehicle_type_id":"4","last_reported":1702706916,"current_range_meters":24800,"station_id":"ce4bgvp2rcd13ifvqcu0","pricing_plan_id":"free"},{"bike_id":"54edd6c6-18d6-4ab4-a90d-63fa7d286eb8","system_id":"levelo_inurba_marseille","lat":43.313291,"lon":5.396838,"is_reserved":false,"is_disabled":false,"rental_uris":{"android":"levelo://app?vid=54edd6c6-18d6-4ab4-a90d-63fa7d286eb8","ios":"levelo://app?vid=54edd6c6-18d6-4ab4-a90d-63fa7d286eb8"},"vehicle_type_id":"4","last_reported":1702706916,"current_range_meters":18800,"station_id":"ce4bgvp2rcd13ifvqcu0","pricing_plan_id":"free"},{"bike_id":"01fde0b0-c1f0-4f59-af26-8288eec52bb2","system_id":"levelo_inurba_marseille","lat":43.31329,"lon":5.39694,"is_reserved":false,"is_disabled":false,"rental_uris":{"android":"levelo://app?vid=01fde0b0-c1f0-4f59-af26-8288eec52bb2","ios":"levelo://app?vid=01fde0b0-c1f0-4f59-af26-8288eec52bb2"},"vehicle_type_id":"4","last_reported":1702706916,"current_range_meters":15600,"station_id":"ce4bgvp2rcd13ifvqcu0","pricing_plan_id":"free"},{"bike_id":"20f0f84b-0d27-4446-b15b-2f78ac82e964","system_id":"levelo_inurba_marseille","lat":43.309038,"lon":5.396546,"is_reserved":false,"is_disabled":false,"rental_uris":{"android":"levelo://app?vid=20f0f84b-0d27-4446-b15b-2f78ac82e964","ios":"levelo://app?vid=20f0f84b-0d27-4446-b15b-2f78ac82e964"},"vehicle_type_id":"4","last_reported":1702706916,"current_range_meters":30400,"station_id":"ce4bh012rcd13ifvqcv0","pricing_plan_id":"free"},{"bike_id":"5d8f4c0a-1894-4784-9947-4c7cec0be9bc","system_id":"levelo_inurba_marseille","lat":43.313291,"lon":5.396838,"is_reserved":false,"is_disabled":false,"rental_uris":{"android":"levelo://app?vid=5d8f4c0a-1894-4784-9947-4c7cec0be9bc","ios":"levelo://app?vid=5d8f4c0a-1894-4784-9947-4c7cec0be9bc"},"vehicle_type_id":"4","last_reported":1702706916,"current_range_meters":31200,"station_id":"ce4bgvp2rcd13ifvqcu0","pricing_plan_id":"free"},{"bike_id":"d6589bf1-53ac-4632-9df9-93fa3c4e523a","system_id":"levelo_inurba_marseille","lat":43.313291,"lon":5.396838,"is_reserved":false,"is_disabled":false,"rental_uris":{"android":"levelo://app?vid=d6589bf1-53ac-4632-9df9-93fa3c4e523a","ios":"levelo://app?vid=d6589bf1-53ac-4632-9df9-93fa3c4e523a"},"vehicle_type_id":"4","last_reported":1702706916,"current_range_meters":30800,"station_id":"ce4bgvp2rcd13ifvqcu0","pricing_plan_id":"free"},{"bike_id":"d747db38-c572-43d2-b79c-da892d7302ed","system_id":"levelo_inurba_marseille","lat":43.302008,"lon":5.394694,"is_reserved":false,"is_disabled":false,"rental_uris":{"android":"levelo://app?vid=d747db38-c572-43d2-b79c-da892d7302ed","ios":"levelo://app?vid=d747db38-c572-43d2-b79c-da892d7302ed"},"vehicle_type_id":"4","last_reported":1702706916,"current_range_meters":12000,"station_id":"ce4bh0p2rcd13ifvqd70","pricing_plan_id":"free"},{"bike_id":"0ec4c317-eea6-40e8-a28c-b462eb598fb4","system_id":"levelo_inurba_marseille","lat":43.302008,"lon":5.394694,"is_reserved":false,"is_disabled":false,"rental_uris":{"android":"levelo://app?vid=0ec4c317-eea6-40e8-a28c-b462eb598fb4","ios":"levelo://app?vid=0ec4c317-eea6-40e8-a28c-b462eb598fb4"},"vehicle_type_id":"4","last_reported":1702706916,"current_range_meters":31200,"station_id":"ce4bh0p2rcd13ifvqd70","pricing_plan_id":"free"},{"bike_id":"8b869b6f-1657-4913-893c-bc0846db2722","system_id":"levelo_inurba_marseille","lat":43.290624,"lon":5.359245,"is_reserved":false,"is_disabled":false,"rental_uris":{"android":"levelo://app?vid=8b869b6f-1657-4913-893c-bc0846db2722","ios":"levelo://app?vid=8b869b6f-1657-4913-893c-bc0846db2722"},"vehicle_type_id":"4","last_reported":1702706916,"current_range_meters":30400,"station_id":"ce4bha92rcd13ifvqeg0","pricing_plan_id":"free"},{"bike_id":"8e6c9b82-15bb-4a2c-9415-c7b3246d0f4e","system_id":"levelo_inurba_marseille","lat":43.290631,"lon":5.359244,"is_reserved":false,"is_disabled":false,"rental_uris":{"android":"levelo://app?vid=8e6c9b82-15bb-4a2c-9415-c7b3246d0f4e","ios":"levelo://app?vid=8e6c9b82-15bb-4a2c-9415-c7b3246d0f4e"},"vehicle_type_id":"4","last_reported":1702706916,"current_range_meters":30000,"station_id":"ce4bha92rcd13ifvqeg0","pricing_plan_id":"free"},{"bike_id":"f100d9ed-88ad-410f-a90f-5b70c679b3b9","system_id":"levelo_inurba_marseille","lat":43.294215,"lon":5.386305,"is_reserved":false,"is_disabled":false,"rental_uris":{"android":"levelo://app?vid=f100d9ed-88ad-410f-a90f-5b70c679b3b9","ios":"levelo://app?vid=f100d9ed-88ad-410f-a90f-5b70c679b3b9"},"vehicle_type_id":"4","last_reported":1702706916,"current_range_meters":27200,"station_id":"ce4bh2h2rcd13ifvqdh0","pricing_plan_id":"free"},{"bike_id":"3bce2040-8455-415a-b0ea-c8ff1d60188b","system_id":"levelo_inurba_marseille","lat":43.304274,"lon":5.397513,"is_reserved":false,"is_disabled":false,"rental_uris":{"android":"levelo://app?vid=3bce2040-8455-415a-b0ea-c8ff1d60188b","ios":"levelo://app?vid=3bce2040-8455-415a-b0ea-c8ff1d60188b"},"vehicle_type_id":"4","last_reported":1702706916,"current_range_meters":30000,"station_id":"ce4bh092rcd13ifvqd20","pricing_plan_id":"free"},{"bike_id":"2af1ec1d-db50-4675-b168-902ca134119a","system_id":"levelo_inurba_marseille","lat":43.330442,"lon":5.389148,"is_reserved":false,"is_disabled":false,"rental_uris":{"android":"levelo://app?vid=2af1ec1d-db50-4675-b168-902ca134119a","ios":"levelo://app?vid=2af1ec1d-db50-4675-b168-902ca134119a"},"vehicle_type_id":"4","last_reported":1702706916,"current_range_meters":0,"station_id":"ce4bhr92rcd13ifvqhrg","pricing_plan_id":"free"},{"bike_id":"d631d6f7-57e3-48c8-8fe8-03f59a31fdff","system_id":"levelo_inurba_marseille","lat":43.289981,"lon":5.356175,"is_reserved":false,"is_disabled":false,"rental_uris":{"android":"levelo://app?vid=d631d6f7-57e3-48c8-8fe8-03f59a31fdff","ios":"levelo://app?vid=d631d6f7-57e3-48c8-8fe8-03f59a31fdff"},"vehicle_type_id":"4","last_reported":1702706916,"current_range_meters":28000,"station_id":"ce4bhb92rcd13ifvqen0","pricing_plan_id":"free"},{"bike_id":"66a77c24-4c1a-4df3-aad3-6a7c8d2e924e","system_id":"levelo_inurba_marseille","lat":43.2978,"lon":5.39326,"is_reserved":false,"is_disabled":false,"rental_uris":{"android":"levelo://app?vid=66a77c24-4c1a-4df3-aad3-6a7c8d2e924e","ios":"levelo://app?vid=66a77c24-4c1a-4df3-aad3-6a7c8d2e924e"},"vehicle_type_id":"4","last_reported":1702706916,"current_range_meters":22000,"station_id":"chh1huq6cuj3fo74tm60","pricing_plan_id":"free"},{"bike_id":"d903b426-6aff-4b6f-9c02-331924c3adfd","system_id":"levelo_inurba_marseille","lat":43.2979,"lon":5.39341,"is_reserved":false,"is_disabled":false,"rental_uris":{"android":"levelo://app?vid=d903b426-6aff-4b6f-9c02-331924c3adfd","ios":"levelo://app?vid=d903b426-6aff-4b6f-9c02-331924c3adfd"},"vehicle_type_id":"4","last_reported":1702706916,"current_range_meters":7200,"station_id":"chh1huq6cuj3fo74tm60","pricing_plan_id":"free"},{"bike_id":"20f90816-47c6-43f9-a0d2-8c08837c13bc","system_id":"levelo_inurba_marseille","lat":43.295169,"lon":5.390426,"is_reserved":false,"is_disabled":false,"rental_uris":{"android":"levelo://app?vid=20f90816-47c6-43f9-a0d2-8c08837c13bc","ios":"levelo://app?vid=20f90816-47c6-43f9-a0d2-8c08837c13bc"},"vehicle_type_id":"4","last_reported":1702706916,"current_range_meters":22800,"station_id":"ce4bh3p2rcd13ifvqdp0","pricing_plan_id":"free"},{"bike_id":"b5a55196-d764-49b7-889e-1d516451747d","system_id":"levelo_inurba_marseille","lat":43.298333,"lon":5.394803,"is_reserved":false,"is_disabled":false,"rental_uris":{"android":"levelo://app?vid=b5a55196-d764-49b7-889e-1d516451747d","ios":"levelo://app?vid=b5a55196-d764-49b7-889e-1d516451747d"},"vehicle_type_id":"4","last_reported":1702706916,"current_range_meters":7600,"station_id":"chh1huq6cuj3fo74tm60","pricing_plan_id":"free"},{"bike_id":"388ae4df-7423-4375-a40b-a4c9f6505968","system_id":"levelo_inurba_marseille","lat":43.28856,"lon":5.358371,"is_reserved":false,"is_disabled":false,"rental_uris":{"android":"levelo://app?vid=388ae4df-7423-4375-a40b-a4c9f6505968","ios":"levelo://app?vid=388ae4df-7423-4375-a40b-a4c9f6505968"},"vehicle_type_id":"4","last_reported":1702706916,"current_range_meters":24000,"station_id":"ce4bhb12rcd13ifvqem0","pricing_plan_id":"free"},{"bike_id":"f370df73-3a4c-4b80-b214-7e982bcaf66c","system_id":"levelo_inurba_marseille","lat":43.288472,"lon":5.358521,"is_reserved":false,"is_disabled":false,"rental_uris":{"android":"levelo://app?vid=f370df73-3a4c-4b80-b214-7e982bcaf66c","ios":"levelo://app?vid=f370df73-3a4c-4b80-b214-7e982bcaf66c"},"vehicle_type_id":"4","last_reported":1702706916,"current_range_meters":28800,"station_id":"ce4bhb12rcd13ifvqem0","pricing_plan_id":"free"},{"bike_id":"00e23489-fc45-4f8a-86c0-c57b25f07af9","system_id":"levelo_inurba_marseille","lat":43.312819,"lon":5.401647,"is_reserved":false,"is_disabled":false,"rental_uris":{"android":"levelo://app?vid=00e23489-fc45-4f8a-86c0-c57b25f07af9","ios":"levelo://app?vid=00e23489-fc45-4f8a-86c0-c57b25f07af9"},"vehicle_type_id":"4","last_reported":1702706916,"current_range_meters":22000,"station_id":"ce4bh092rcd13ifvqd30","pricing_plan_id":"free"},{"bike_id":"d7168f19-7a13-4d7e-8ab1-71cde9db2782","system_id":"levelo_inurba_marseille","lat":43.30933,"lon":5.40138,"is_reserved":false,"is_disabled":false,"rental_uris":{"android":"levelo://app?vid=d7168f19-7a13-4d7e-8ab1-71cde9db2782","ios":"levelo://app?vid=d7168f19-7a13-4d7e-8ab1-71cde9db2782"},"vehicle_type_id":"4","last_reported":1702706916,"current_range_meters":31200,"station_id":"ce4bgvp2rcd13ifvqct0","pricing_plan_id":"free"},{"bike_id":"24e969ec-be9e-4068-8b50-fc501ac5d0a5","system_id":"levelo_inurba_marseille","lat":43.309371,"lon":5.401449,"is_reserved":false,"is_disabled":false,"rental_uris":{"android":"levelo://app?vid=24e969ec-be9e-4068-8b50-fc501ac5d0a5","ios":"levelo://app?vid=24e969ec-be9e-4068-8b50-fc501ac5d0a5"},"vehicle_type_id":"4","last_reported":1702706916,"current_range_meters":29600,"station_id":"ce4bgvp2rcd13ifvqct0","pricing_plan_id":"free"},{"bike_id":"f0cd831c-cfb9-44c7-9487-103b6df223ca","system_id":"levelo_inurba_marseille","lat":43.337445,"lon":5.374592,"is_reserved":false,"is_disabled":false,"rental_uris":{"android":"levelo://app?vid=f0cd831c-cfb9-44c7-9487-103b6df223ca","ios":"levelo://app?vid=f0cd831c-cfb9-44c7-9487-103b6df223ca"},"vehicle_type_id":"4","last_reported":1702706916,"current_range_meters":29200,"station_id":"","pricing_plan_id":"free"},{"bike_id":"763d58d6-fa5b-4e2f-9e51-5f56b510625c","system_id":"levelo_inurba_marseille","lat":43.30939,"lon":5.40143,"is_reserved":false,"is_disabled":false,"rental_uris":{"android":"levelo://app?vid=763d58d6-fa5b-4e2f-9e51-5f56b510625c","ios":"levelo://app?vid=763d58d6-fa5b-4e2f-9e51-5f56b510625c"},"vehicle_type_id":"4","last_reported":1702706916,"current_range_meters":30000,"station_id":"ce4bgvp2rcd13ifvqct0","pricing_plan_id":"free"},{"bike_id":"07a15d55-b14c-4ce7-93bc-3a65de392734","system_id":"levelo_inurba_marseille","lat":43.30925,"lon":5.40141,"is_reserved":false,"is_disabled":false,"rental_uris":{"android":"levelo://app?vid=07a15d55-b14c-4ce7-93bc-3a65de392734","ios":"levelo://app?vid=07a15d55-b14c-4ce7-93bc-3a65de392734"},"vehicle_type_id":"4","last_reported":1702706916,"current_range_meters":24000,"station_id":"ce4bgvp2rcd13ifvqct0","pricing_plan_id":"free"},{"bike_id":"04e3a01a-72ea-476a-91dc-05a081b55c66","system_id":"levelo_inurba_marseille","lat":43.309371,"lon":5.401449,"is_reserved":false,"is_disabled":false,"rental_uris":{"android":"levelo://app?vid=04e3a01a-72ea-476a-91dc-05a081b55c66","ios":"levelo://app?vid=04e3a01a-72ea-476a-91dc-05a081b55c66"},"vehicle_type_id":"4","last_reported":1702706916,"current_range_meters":21600,"station_id":"ce4bgvp2rcd13ifvqct0","pricing_plan_id":"free"},{"bike_id":"c452463b-afcc-45cc-8c39-9b523db91afe","system_id":"levelo_inurba_marseille","lat":43.30659,"lon":5.40074,"is_reserved":false,"is_disabled":false,"rental_uris":{"android":"levelo://app?vid=c452463b-afcc-45cc-8c39-9b523db91afe","ios":"levelo://app?vid=c452463b-afcc-45cc-8c39-9b523db91afe"},"vehicle_type_id":"4","last_reported":1702706916,"current_range_meters":15200,"station_id":"ce4bh112rcd13ifvqda0","pricing_plan_id":"free"},{"bike_id":"189250a1-5934-47cd-aa3d-01791d59bc97","system_id":"levelo_inurba_marseille","lat":43.306412,"lon":5.401035,"is_reserved":false,"is_disabled":false,"rental_uris":{"android":"levelo://app?vid=189250a1-5934-47cd-aa3d-01791d59bc97","ios":"levelo://app?vid=189250a1-5934-47cd-aa3d-01791d59bc97"},"vehicle_type_id":"4","last_reported":1702706916,"current_range_meters":28800,"station_id":"ce4bh112rcd13ifvqda0","pricing_plan_id":"free"},{"bike_id":"602b589c-3dd4-4e7b-95a9-845240e6fbdf","system_id":"levelo_inurba_marseille","lat":43.309257,"lon":5.401457,"is_reserved":false,"is_disabled":false,"rental_uris":{"android":"levelo://app?vid=602b589c-3dd4-4e7b-95a9-845240e6fbdf","ios":"levelo://app?vid=602b589c-3dd4-4e7b-95a9-845240e6fbdf"},"vehicle_type_id":"4","last_reported":1702706916,"current_range_meters":19600,"station_id":"ce4bgvp2rcd13ifvqct0","pricing_plan_id":"free"},{"bike_id":"c2896d5f-fb99-49ba-ad74-87bbd813e6d8","system_id":"levelo_inurba_marseille","lat":43.306509,"lon":5.400748,"is_reserved":false,"is_disabled":false,"rental_uris":{"android":"levelo://app?vid=c2896d5f-fb99-49ba-ad74-87bbd813e6d8","ios":"levelo://app?vid=c2896d5f-fb99-49ba-ad74-87bbd813e6d8"},"vehicle_type_id":"4","last_reported":1702706916,"current_range_meters":28800,"station_id":"ce4bh112rcd13ifvqda0","pricing_plan_id":"free"},{"bike_id":"a15a6f31-d26a-498f-aab0-fad2629bd007","system_id":"levelo_inurba_marseille","lat":43.337535,"lon":5.37446,"is_reserved":false,"is_disabled":false,"rental_uris":{"android":"levelo://app?vid=a15a6f31-d26a-498f-aab0-fad2629bd007","ios":"levelo://app?vid=a15a6f31-d26a-498f-aab0-fad2629bd007"},"vehicle_type_id":"4","last_reported":1702706916,"current_range_meters":0,"station_id":"","pricing_plan_id":"free"},{"bike_id":"f393cc08-b52f-4486-8abc-d4e8aa707b34","system_id":"levelo_inurba_marseille","lat":43.306441,"lon":5.400754,"is_reserved":false,"is_disabled":false,"rental_uris":{"android":"levelo://app?vid=f393cc08-b52f-4486-8abc-d4e8aa707b34","ios":"levelo://app?vid=f393cc08-b52f-4486-8abc-d4e8aa707b34"},"vehicle_type_id":"4","last_reported":1702706916,"current_range_meters":20800,"station_id":"ce4bh112rcd13ifvqda0","pricing_plan_id":"free"},{"bike_id":"ef80ceab-dc9f-4b6c-8f52-707d5177f481","system_id":"levelo_inurba_marseille","lat":43.33752,"lon":5.37466,"is_reserved":false,"is_disabled":false,"rental_uris":{"android":"levelo://app?vid=ef80ceab-dc9f-4b6c-8f52-707d5177f481","ios":"levelo://app?vid=ef80ceab-dc9f-4b6c-8f52-707d5177f481"},"vehicle_type_id":"4","last_reported":1702706916,"current_range_meters":30000,"station_id":"","pricing_plan_id":"free"},{"bike_id":"1b1bd80c-92ec-4f8e-8e80-a125315f4b22","system_id":"levelo_inurba_marseille","lat":43.337586,"lon":5.374287,"is_reserved":false,"is_disabled":false,"rental_uris":{"android":"levelo://app?vid=1b1bd80c-92ec-4f8e-8e80-a125315f4b22","ios":"levelo://app?vid=1b1bd80c-92ec-4f8e-8e80-a125315f4b22"},"vehicle_type_id":"4","last_reported":1702706916,"current_range_meters":5600,"station_id":"","pricing_plan_id":"free"},{"bike_id":"04e08174-077d-406e-9800-126d71351cb7","system_id":"levelo_inurba_marseille","lat":43.309254,"lon":5.401529,"is_reserved":false,"is_disabled":false,"rental_uris":{"android":"levelo://app?vid=04e08174-077d-406e-9800-126d71351cb7","ios":"levelo://app?vid=04e08174-077d-406e-9800-126d71351cb7"},"vehicle_type_id":"4","last_reported":1702706916,"current_range_meters":7600,"station_id":"ce4bgvp2rcd13ifvqct0","pricing_plan_id":"free"},{"bike_id":"2e4c9a65-b80d-445d-a336-1912afda714a","system_id":"levelo_inurba_marseille","lat":43.306576,"lon":5.400816,"is_reserved":false,"is_disabled":false,"rental_uris":{"android":"levelo://app?vid=2e4c9a65-b80d-445d-a336-1912afda714a","ios":"levelo://app?vid=2e4c9a65-b80d-445d-a336-1912afda714a"},"vehicle_type_id":"4","last_reported":1702706916,"current_range_meters":31200,"station_id":"ce4bh112rcd13ifvqda0","pricing_plan_id":"free"},{"bike_id":"9e5231e6-9497-41e6-bfd0-a7d79b8fad43","system_id":"levelo_inurba_marseille","lat":43.337617,"lon":5.374253,"is_reserved":false,"is_disabled":false,"rental_uris":{"android":"levelo://app?vid=9e5231e6-9497-41e6-bfd0-a7d79b8fad43","ios":"levelo://app?vid=9e5231e6-9497-41e6-bfd0-a7d79b8fad43"},"vehicle_type_id":"4","last_reported":1702706916,"current_range_meters":26400,"station_id":"","pricing_plan_id":"free"},{"bike_id":"597b3b0d-46be-434c-a32a-d7e9f399292d","system_id":"levelo_inurba_marseille","lat":43.306405,"lon":5.40081,"is_reserved":false,"is_disabled":false,"rental_uris":{"android":"levelo://app?vid=597b3b0d-46be-434c-a32a-d7e9f399292d","ios":"levelo://app?vid=597b3b0d-46be-434c-a32a-d7e9f399292d"},"vehicle_type_id":"4","last_reported":1702706916,"current_range_meters":12000,"station_id":"ce4bh112rcd13ifvqda0","pricing_plan_id":"free"},{"bike_id":"811eac48-7c36-4ce9-9a27-879aa1e1514e","system_id":"levelo_inurba_marseille","lat":43.337619,"lon":5.374357,"is_reserved":false,"is_disabled":false,"rental_uris":{"android":"levelo://app?vid=811eac48-7c36-4ce9-9a27-879aa1e1514e","ios":"levelo://app?vid=811eac48-7c36-4ce9-9a27-879aa1e1514e"},"vehicle_type_id":"4","last_reported":1702706916,"current_range_meters":25200,"station_id":"","pricing_plan_id":"free"},{"bike_id":"f90eee77-8c3a-454f-afe5-d5090ba54fcb","system_id":"levelo_inurba_marseille","lat":43.306422,"lon":5.400864,"is_reserved":false,"is_disabled":false,"rental_uris":{"android":"levelo://app?vid=f90eee77-8c3a-454f-afe5-d5090ba54fcb","ios":"levelo://app?vid=f90eee77-8c3a-454f-afe5-d5090ba54fcb"},"vehicle_type_id":"4","last_reported":1702706916,"current_range_meters":30000,"station_id":"ce4bh112rcd13ifvqda0","pricing_plan_id":"free"},{"bike_id":"930bba3a-4350-44cf-bb9b-310a6cbdb5ef","system_id":"levelo_inurba_marseille","lat":43.337587,"lon":5.37492,"is_reserved":false,"is_disabled":false,"rental_uris":{"android":"levelo://app?vid=930bba3a-4350-44cf-bb9b-310a6cbdb5ef","ios":"levelo://app?vid=930bba3a-4350-44cf-bb9b-310a6cbdb5ef"},"vehicle_type_id":"4","last_reported":1702706916,"current_range_meters":25200,"station_id":"","pricing_plan_id":"free"},{"bike_id":"e641768d-59e6-4ace-a5a2-4bfc5ecea5d6","system_id":"levelo_inurba_marseille","lat":43.28727,"lon":5.36078,"is_reserved":false,"is_disabled":false,"rental_uris":{"android":"levelo://app?vid=e641768d-59e6-4ace-a5a2-4bfc5ecea5d6","ios":"levelo://app?vid=e641768d-59e6-4ace-a5a2-4bfc5ecea5d6"},"vehicle_type_id":"4","last_reported":1702706916,"current_range_meters":27600,"station_id":"cki0cbj6b192h4jlfktg","pricing_plan_id":"free"},{"bike_id":"6cc69b2a-d99e-4c4e-9fe2-c8db62adbf90","system_id":"levelo_inurba_marseille","lat":43.286591,"lon":5.363346,"is_reserved":false,"is_disabled":false,"rental_uris":{"android":"levelo://app?vid=6cc69b2a-d99e-4c4e-9fe2-c8db62adbf90","ios":"levelo://app?vid=6cc69b2a-d99e-4c4e-9fe2-c8db62adbf90"},"vehicle_type_id":"4","last_reported":1702706916,"current_range_meters":22000,"station_id":"ce4bhah2rcd13ifvqej0","pricing_plan_id":"free"},{"bike_id":"8822d33b-3a04-4b65-840a-d3eb4134ca21","system_id":"levelo_inurba_marseille","lat":43.286591,"lon":5.363346,"is_reserved":false,"is_disabled":false,"rental_uris":{"android":"levelo://app?vid=8822d33b-3a04-4b65-840a-d3eb4134ca21","ios":"levelo://app?vid=8822d33b-3a04-4b65-840a-d3eb4134ca21"},"vehicle_type_id":"4","last_reported":1702706916,"current_range_meters":31200,"station_id":"ce4bhah2rcd13ifvqej0","pricing_plan_id":"free"},{"bike_id":"76893ee2-668c-4f13-b195-bc2f8a4fafd1","system_id":"levelo_inurba_marseille","lat":43.28698,"lon":5.3739,"is_reserved":false,"is_disabled":false,"rental_uris":{"android":"levelo://app?vid=76893ee2-668c-4f13-b195-bc2f8a4fafd1","ios":"levelo://app?vid=76893ee2-668c-4f13-b195-bc2f8a4fafd1"},"vehicle_type_id":"4","last_reported":1702706916,"current_range_meters":29600,"station_id":"ce4bh3p2rcd13ifvqdq0","pricing_plan_id":"free"},{"bike_id":"399fe230-69bb-43af-9589-f56a65c00a3c","system_id":"levelo_inurba_marseille","lat":43.289307,"lon":5.38406,"is_reserved":false,"is_disabled":false,"rental_uris":{"android":"levelo://app?vid=399fe230-69bb-43af-9589-f56a65c00a3c","ios":"levelo://app?vid=399fe230-69bb-43af-9589-f56a65c00a3c"},"vehicle_type_id":"4","last_reported":1702706916,"current_range_meters":30000,"station_id":"ce4bh612rcd13ifvqe6g","pricing_plan_id":"free"},{"bike_id":"46937d05-36c2-495a-9b30-7603f646a5e5","system_id":"levelo_inurba_marseille","lat":43.307507,"lon":5.402733,"is_reserved":false,"is_disabled":false,"rental_uris":{"android":"levelo://app?vid=46937d05-36c2-495a-9b30-7603f646a5e5","ios":"levelo://app?vid=46937d05-36c2-495a-9b30-7603f646a5e5"},"vehicle_type_id":"4","last_reported":1702706916,"current_range_meters":15200,"station_id":"","pricing_plan_id":"free"},{"bike_id":"14d4d69a-7cc0-4e4a-840c-f74b52499a58","system_id":"levelo_inurba_marseille","lat":43.296263,"lon":5.40601,"is_reserved":false,"is_disabled":false,"rental_uris":{"android":"levelo://app?vid=14d4d69a-7cc0-4e4a-840c-f74b52499a58","ios":"levelo://app?vid=14d4d69a-7cc0-4e4a-840c-f74b52499a58"},"vehicle_type_id":"4","last_reported":1702706916,"current_range_meters":21200,"station_id":"ce4bh0h2rcd13ifvqd60","pricing_plan_id":"free"},{"bike_id":"246d5fa5-c550-48ea-a6ec-41b624ab5d9f","system_id":"levelo_inurba_marseille","lat":43.286039,"lon":5.370679,"is_reserved":false,"is_disabled":false,"rental_uris":{"android":"levelo://app?vid=246d5fa5-c550-48ea-a6ec-41b624ab5d9f","ios":"levelo://app?vid=246d5fa5-c550-48ea-a6ec-41b624ab5d9f"},"vehicle_type_id":"4","last_reported":1702706916,"current_range_meters":29600,"station_id":"ce4bht12rcd13ifvqi60","pricing_plan_id":"free"},{"bike_id":"a8945866-d924-4a3d-92b0-29e8f47ddb15","system_id":"levelo_inurba_marseille","lat":43.316828,"lon":5.404723,"is_reserved":false,"is_disabled":false,"rental_uris":{"android":"levelo://app?vid=a8945866-d924-4a3d-92b0-29e8f47ddb15","ios":"levelo://app?vid=a8945866-d924-4a3d-92b0-29e8f47ddb15"},"vehicle_type_id":"4","last_reported":1702706916,"current_range_meters":24400,"station_id":"ce4bh012rcd13ifvqd00","pricing_plan_id":"free"},{"bike_id":"15e43c5c-45e9-4cf0-8cb1-213ee8167c83","system_id":"levelo_inurba_marseille","lat":43.316828,"lon":5.404723,"is_reserved":false,"is_disabled":false,"rental_uris":{"android":"levelo://app?vid=15e43c5c-45e9-4cf0-8cb1-213ee8167c83","ios":"levelo://app?vid=15e43c5c-45e9-4cf0-8cb1-213ee8167c83"},"vehicle_type_id":"4","last_reported":1702706916,"current_range_meters":31200,"station_id":"ce4bh012rcd13ifvqd00","pricing_plan_id":"free"},{"bike_id":"5e51ae91-c72f-4edd-86e1-6c212451560b","system_id":"levelo_inurba_marseille","lat":43.3169,"lon":5.4047,"is_reserved":false,"is_disabled":false,"rental_uris":{"android":"levelo://app?vid=5e51ae91-c72f-4edd-86e1-6c212451560b","ios":"levelo://app?vid=5e51ae91-c72f-4edd-86e1-6c212451560b"},"vehicle_type_id":"4","last_reported":1702706916,"current_range_meters":18400,"station_id":"ce4bh012rcd13ifvqd00","pricing_plan_id":"free"},{"bike_id":"af03bd75-5a55-42d6-9448-76988b0cd0f5","system_id":"levelo_inurba_marseille","lat":43.284538,"lon":5.358657,"is_reserved":false,"is_disabled":false,"rental_uris":{"android":"levelo://app?vid=af03bd75-5a55-42d6-9448-76988b0cd0f5","ios":"levelo://app?vid=af03bd75-5a55-42d6-9448-76988b0cd0f5"},"vehicle_type_id":"4","last_reported":1702706916,"current_range_meters":23600,"station_id":"ce4bhah2rcd13ifvqei0","pricing_plan_id":"free"},{"bike_id":"81840d09-973c-442b-94b6-30872550d88e","system_id":"levelo_inurba_marseille","lat":43.284538,"lon":5.358657,"is_reserved":false,"is_disabled":false,"rental_uris":{"android":"levelo://app?vid=81840d09-973c-442b-94b6-30872550d88e","ios":"levelo://app?vid=81840d09-973c-442b-94b6-30872550d88e"},"vehicle_type_id":"4","last_reported":1702706916,"current_range_meters":22800,"station_id":"ce4bhah2rcd13ifvqei0","pricing_plan_id":"free"},{"bike_id":"5220c138-d038-470d-8d02-b86dcb2c38d7","system_id":"levelo_inurba_marseille","lat":43.284538,"lon":5.358657,"is_reserved":false,"is_disabled":false,"rental_uris":{"android":"levelo://app?vid=5220c138-d038-470d-8d02-b86dcb2c38d7","ios":"levelo://app?vid=5220c138-d038-470d-8d02-b86dcb2c38d7"},"vehicle_type_id":"4","last_reported":1702706916,"current_range_meters":26800,"station_id":"ce4bhah2rcd13ifvqei0","pricing_plan_id":"free"},{"bike_id":"70846cb5-3948-4958-a7db-55150a19c35a","system_id":"levelo_inurba_marseille","lat":43.284534,"lon":5.358662,"is_reserved":false,"is_disabled":false,"rental_uris":{"android":"levelo://app?vid=70846cb5-3948-4958-a7db-55150a19c35a","ios":"levelo://app?vid=70846cb5-3948-4958-a7db-55150a19c35a"},"vehicle_type_id":"4","last_reported":1702706916,"current_range_meters":28000,"station_id":"ce4bhah2rcd13ifvqei0","pricing_plan_id":"free"},{"bike_id":"158ebdba-5c18-4ba8-89f2-3c50d6f0e2e6","system_id":"levelo_inurba_marseille","lat":43.284538,"lon":5.358657,"is_reserved":false,"is_disabled":false,"rental_uris":{"android":"levelo://app?vid=158ebdba-5c18-4ba8-89f2-3c50d6f0e2e6","ios":"levelo://app?vid=158ebdba-5c18-4ba8-89f2-3c50d6f0e2e6"},"vehicle_type_id":"4","last_reported":1702706916,"current_range_meters":18400,"station_id":"ce4bhah2rcd13ifvqei0","pricing_plan_id":"free"},{"bike_id":"2284a95d-d077-4971-a3cc-1fe601a147e6","system_id":"levelo_inurba_marseille","lat":43.28462,"lon":5.3588,"is_reserved":false,"is_disabled":false,"rental_uris":{"android":"levelo://app?vid=2284a95d-d077-4971-a3cc-1fe601a147e6","ios":"levelo://app?vid=2284a95d-d077-4971-a3cc-1fe601a147e6"},"vehicle_type_id":"4","last_reported":1702706916,"current_range_meters":21200,"station_id":"ce4bhah2rcd13ifvqei0","pricing_plan_id":"free"},{"bike_id":"999c1c73-14ce-4803-8e6e-121f5dbc97ab","system_id":"levelo_inurba_marseille","lat":43.284534,"lon":5.358662,"is_reserved":false,"is_disabled":false,"rental_uris":{"android":"levelo://app?vid=999c1c73-14ce-4803-8e6e-121f5dbc97ab","ios":"levelo://app?vid=999c1c73-14ce-4803-8e6e-121f5dbc97ab"},"vehicle_type_id":"4","last_reported":1702706916,"current_range_meters":29600,"station_id":"ce4bhah2rcd13ifvqei0","pricing_plan_id":"free"},{"bike_id":"e8a3e117-03a8-4be4-94c0-e3dce05c5c03","system_id":"levelo_inurba_marseille","lat":43.28459,"lon":5.35888,"is_reserved":false,"is_disabled":false,"rental_uris":{"android":"levelo://app?vid=e8a3e117-03a8-4be4-94c0-e3dce05c5c03","ios":"levelo://app?vid=e8a3e117-03a8-4be4-94c0-e3dce05c5c03"},"vehicle_type_id":"4","last_reported":1702706916,"current_range_meters":27200,"station_id":"ce4bhah2rcd13ifvqei0","pricing_plan_id":"free"},{"bike_id":"e975d844-bdb6-4a4d-a916-7bc121752c81","system_id":"levelo_inurba_marseille","lat":43.284538,"lon":5.358657,"is_reserved":false,"is_disabled":false,"rental_uris":{"android":"levelo://app?vid=e975d844-bdb6-4a4d-a916-7bc121752c81","ios":"levelo://app?vid=e975d844-bdb6-4a4d-a916-7bc121752c81"},"vehicle_type_id":"4","last_reported":1702706916,"current_range_meters":31600,"station_id":"ce4bhah2rcd13ifvqei0","pricing_plan_id":"free"},{"bike_id":"52ca29a8-75dd-4a86-af9b-e6a0cc74019a","system_id":"levelo_inurba_marseille","lat":43.28458,"lon":5.35888,"is_reserved":false,"is_disabled":false,"rental_uris":{"android":"levelo://app?vid=52ca29a8-75dd-4a86-af9b-e6a0cc74019a","ios":"levelo://app?vid=52ca29a8-75dd-4a86-af9b-e6a0cc74019a"},"vehicle_type_id":"4","last_reported":1702706916,"current_range_meters":19200,"station_id":"ce4bhah2rcd13ifvqei0","pricing_plan_id":"free"},{"bike_id":"1dc688ff-b84f-4e04-9b9d-e6d9a6525d77","system_id":"levelo_inurba_marseille","lat":43.284534,"lon":5.358662,"is_reserved":false,"is_disabled":false,"rental_uris":{"android":"levelo://app?vid=1dc688ff-b84f-4e04-9b9d-e6d9a6525d77","ios":"levelo://app?vid=1dc688ff-b84f-4e04-9b9d-e6d9a6525d77"},"vehicle_type_id":"4","last_reported":1702706916,"current_range_meters":30400,"station_id":"ce4bhah2rcd13ifvqei0","pricing_plan_id":"free"},{"bike_id":"87e6b154-056e-4ecc-bfe8-29383000fcbe","system_id":"levelo_inurba_marseille","lat":43.284538,"lon":5.358657,"is_reserved":false,"is_disabled":false,"rental_uris":{"android":"levelo://app?vid=87e6b154-056e-4ecc-bfe8-29383000fcbe","ios":"levelo://app?vid=87e6b154-056e-4ecc-bfe8-29383000fcbe"},"vehicle_type_id":"4","last_reported":1702706916,"current_range_meters":31600,"station_id":"ce4bhah2rcd13ifvqei0","pricing_plan_id":"free"},{"bike_id":"7e2b676e-e1f2-4add-8c5f-a068966ad9fe","system_id":"levelo_inurba_marseille","lat":43.285856,"lon":5.350771,"is_reserved":false,"is_disabled":false,"rental_uris":{"android":"levelo://app?vid=7e2b676e-e1f2-4add-8c5f-a068966ad9fe","ios":"levelo://app?vid=7e2b676e-e1f2-4add-8c5f-a068966ad9fe"},"vehicle_type_id":"4","last_reported":1702706916,"current_range_meters":31200,"station_id":"ce4bhch2rcd13ifvqeug","pricing_plan_id":"free"},{"bike_id":"a1ef8553-b80f-45ea-84c8-cb1e0d3cca7a","system_id":"levelo_inurba_marseille","lat":43.283998,"lon":5.375062,"is_reserved":false,"is_disabled":false,"rental_uris":{"android":"levelo://app?vid=a1ef8553-b80f-45ea-84c8-cb1e0d3cca7a","ios":"levelo://app?vid=a1ef8553-b80f-45ea-84c8-cb1e0d3cca7a"},"vehicle_type_id":"4","last_reported":1702706916,"current_range_meters":24800,"station_id":"ce4bh412rcd13ifvqds0","pricing_plan_id":"free"},{"bike_id":"31241e34-1f61-41b2-89fd-d34195f78aac","system_id":"levelo_inurba_marseille","lat":43.284069,"lon":5.37516,"is_reserved":false,"is_disabled":false,"rental_uris":{"android":"levelo://app?vid=31241e34-1f61-41b2-89fd-d34195f78aac","ios":"levelo://app?vid=31241e34-1f61-41b2-89fd-d34195f78aac"},"vehicle_type_id":"4","last_reported":1702706916,"current_range_meters":22000,"station_id":"ce4bh412rcd13ifvqds0","pricing_plan_id":"free"},{"bike_id":"151faa8f-15eb-4ba8-9717-304010bb1317","system_id":"levelo_inurba_marseille","lat":43.284062,"lon":5.375195,"is_reserved":false,"is_disabled":false,"rental_uris":{"android":"levelo://app?vid=151faa8f-15eb-4ba8-9717-304010bb1317","ios":"levelo://app?vid=151faa8f-15eb-4ba8-9717-304010bb1317"},"vehicle_type_id":"4","last_reported":1702706916,"current_range_meters":22400,"station_id":"ce4bh412rcd13ifvqds0","pricing_plan_id":"free"},{"bike_id":"e4392df1-b0ad-4c77-a3c7-f850080cec73","system_id":"levelo_inurba_marseille","lat":43.295713,"lon":5.399639,"is_reserved":false,"is_disabled":false,"rental_uris":{"android":"levelo://app?vid=e4392df1-b0ad-4c77-a3c7-f850080cec73","ios":"levelo://app?vid=e4392df1-b0ad-4c77-a3c7-f850080cec73"},"vehicle_type_id":"4","last_reported":1702706916,"current_range_meters":27200,"station_id":"ce4bh312rcd13ifvqdj0","pricing_plan_id":"free"},{"bike_id":"4e7f35df-b5be-41f8-a088-b359fd0719b0","system_id":"levelo_inurba_marseille","lat":43.323464,"lon":5.406297,"is_reserved":false,"is_disabled":false,"rental_uris":{"android":"levelo://app?vid=4e7f35df-b5be-41f8-a088-b359fd0719b0","ios":"levelo://app?vid=4e7f35df-b5be-41f8-a088-b359fd0719b0"},"vehicle_type_id":"4","last_reported":1702706916,"current_range_meters":27200,"station_id":"ce4bhq92rcd13ifvqhjg","pricing_plan_id":"free"},{"bike_id":"16373837-b161-407f-b0fa-3d0f27559010","system_id":"levelo_inurba_marseille","lat":43.323464,"lon":5.406297,"is_reserved":false,"is_disabled":false,"rental_uris":{"android":"levelo://app?vid=16373837-b161-407f-b0fa-3d0f27559010","ios":"levelo://app?vid=16373837-b161-407f-b0fa-3d0f27559010"},"vehicle_type_id":"4","last_reported":1702706916,"current_range_meters":31200,"station_id":"ce4bhq92rcd13ifvqhjg","pricing_plan_id":"free"},{"bike_id":"e9b39183-1687-4493-aa65-d43978106867","system_id":"levelo_inurba_marseille","lat":43.297946,"lon":5.404063,"is_reserved":false,"is_disabled":false,"rental_uris":{"android":"levelo://app?vid=e9b39183-1687-4493-aa65-d43978106867","ios":"levelo://app?vid=e9b39183-1687-4493-aa65-d43978106867"},"vehicle_type_id":"4","last_reported":1702706916,"current_range_meters":29600,"station_id":"ce4bh112rcd13ifvqd90","pricing_plan_id":"free"},{"bike_id":"6224307a-594f-4adb-8e38-9b687a44f183","system_id":"levelo_inurba_marseille","lat":43.284793,"lon":5.384119,"is_reserved":false,"is_disabled":false,"rental_uris":{"android":"levelo://app?vid=6224307a-594f-4adb-8e38-9b687a44f183","ios":"levelo://app?vid=6224307a-594f-4adb-8e38-9b687a44f183"},"vehicle_type_id":"4","last_reported":1702706916,"current_range_meters":30000,"station_id":"ce4bh512rcd13ifvqe3g","pricing_plan_id":"free"},{"bike_id":"7119c3f3-0088-40cb-801b-1ef84cd19a9d","system_id":"levelo_inurba_marseille","lat":43.282754,"lon":5.350519,"is_reserved":false,"is_disabled":false,"rental_uris":{"android":"levelo://app?vid=7119c3f3-0088-40cb-801b-1ef84cd19a9d","ios":"levelo://app?vid=7119c3f3-0088-40cb-801b-1ef84cd19a9d"},"vehicle_type_id":"4","last_reported":1702706916,"current_range_meters":25200,"station_id":"ce4bhbp2rcd13ifvqerg","pricing_plan_id":"free"},{"bike_id":"ecb0aebc-f285-446f-9a63-74c5c9ef762b","system_id":"levelo_inurba_marseille","lat":43.280389,"lon":5.369333,"is_reserved":false,"is_disabled":false,"rental_uris":{"android":"levelo://app?vid=ecb0aebc-f285-446f-9a63-74c5c9ef762b","ios":"levelo://app?vid=ecb0aebc-f285-446f-9a63-74c5c9ef762b"},"vehicle_type_id":"4","last_reported":1702706916,"current_range_meters":15600,"station_id":"ce4bha12rcd13ifvqef0","pricing_plan_id":"free"},{"bike_id":"9cef1480-ecad-4853-a2f4-f5776b57053e","system_id":"levelo_inurba_marseille","lat":43.280382,"lon":5.369291,"is_reserved":false,"is_disabled":false,"rental_uris":{"android":"levelo://app?vid=9cef1480-ecad-4853-a2f4-f5776b57053e","ios":"levelo://app?vid=9cef1480-ecad-4853-a2f4-f5776b57053e"},"vehicle_type_id":"4","last_reported":1702706916,"current_range_meters":12000,"station_id":"ce4bha12rcd13ifvqef0","pricing_plan_id":"free"},{"bike_id":"866b9d67-381b-4562-a7ca-4f4f676ccc7e","system_id":"levelo_inurba_marseille","lat":43.280382,"lon":5.369291,"is_reserved":false,"is_disabled":false,"rental_uris":{"android":"levelo://app?vid=866b9d67-381b-4562-a7ca-4f4f676ccc7e","ios":"levelo://app?vid=866b9d67-381b-4562-a7ca-4f4f676ccc7e"},"vehicle_type_id":"4","last_reported":1702706916,"current_range_meters":30400,"station_id":"ce4bha12rcd13ifvqef0","pricing_plan_id":"free"},{"bike_id":"8fb47eb9-d1de-47c3-9a4f-063d68d00739","system_id":"levelo_inurba_marseille","lat":43.280382,"lon":5.369291,"is_reserved":false,"is_disabled":false,"rental_uris":{"android":"levelo://app?vid=8fb47eb9-d1de-47c3-9a4f-063d68d00739","ios":"levelo://app?vid=8fb47eb9-d1de-47c3-9a4f-063d68d00739"},"vehicle_type_id":"4","last_reported":1702706916,"current_range_meters":31200,"station_id":"ce4bha12rcd13ifvqef0","pricing_plan_id":"free"},{"bike_id":"e04d024f-d664-423c-b963-3e21ecbf2e8d","system_id":"levelo_inurba_marseille","lat":43.280382,"lon":5.369291,"is_reserved":false,"is_disabled":false,"rental_uris":{"android":"levelo://app?vid=e04d024f-d664-423c-b963-3e21ecbf2e8d","ios":"levelo://app?vid=e04d024f-d664-423c-b963-3e21ecbf2e8d"},"vehicle_type_id":"4","last_reported":1702706916,"current_range_meters":24000,"station_id":"ce4bha12rcd13ifvqef0","pricing_plan_id":"free"},{"bike_id":"491d167f-3979-4af1-9be9-7840e703d79f","system_id":"levelo_inurba_marseille","lat":43.280344,"lon":5.369369,"is_reserved":false,"is_disabled":false,"rental_uris":{"android":"levelo://app?vid=491d167f-3979-4af1-9be9-7840e703d79f","ios":"levelo://app?vid=491d167f-3979-4af1-9be9-7840e703d79f"},"vehicle_type_id":"4","last_reported":1702706916,"current_range_meters":18000,"station_id":"ce4bha12rcd13ifvqef0","pricing_plan_id":"free"},{"bike_id":"62c32a41-5c85-445e-a62d-27f8a6e615c9","system_id":"levelo_inurba_marseille","lat":43.280382,"lon":5.369291,"is_reserved":false,"is_disabled":false,"rental_uris":{"android":"levelo://app?vid=62c32a41-5c85-445e-a62d-27f8a6e615c9","ios":"levelo://app?vid=62c32a41-5c85-445e-a62d-27f8a6e615c9"},"vehicle_type_id":"4","last_reported":1702706916,"current_range_meters":29200,"station_id":"ce4bha12rcd13ifvqef0","pricing_plan_id":"free"},{"bike_id":"9bca6cec-9622-45cb-a8d3-5586517dcf7d","system_id":"levelo_inurba_marseille","lat":43.280296,"lon":5.369411,"is_reserved":false,"is_disabled":false,"rental_uris":{"android":"levelo://app?vid=9bca6cec-9622-45cb-a8d3-5586517dcf7d","ios":"levelo://app?vid=9bca6cec-9622-45cb-a8d3-5586517dcf7d"},"vehicle_type_id":"4","last_reported":1702706916,"current_range_meters":29600,"station_id":"ce4bha12rcd13ifvqef0","pricing_plan_id":"free"},{"bike_id":"cd377531-93c1-4a7d-83cc-49ed9a0ed027","system_id":"levelo_inurba_marseille","lat":43.29041,"lon":5.399634,"is_reserved":false,"is_disabled":false,"rental_uris":{"android":"levelo://app?vid=cd377531-93c1-4a7d-83cc-49ed9a0ed027","ios":"levelo://app?vid=cd377531-93c1-4a7d-83cc-49ed9a0ed027"},"vehicle_type_id":"4","last_reported":1702706916,"current_range_meters":7200,"station_id":"ce4bh392rcd13ifvqdm0","pricing_plan_id":"free"},{"bike_id":"51c67930-0f81-4e81-8ba2-97e5f5bf98b2","system_id":"levelo_inurba_marseille","lat":43.280382,"lon":5.369291,"is_reserved":false,"is_disabled":false,"rental_uris":{"android":"levelo://app?vid=51c67930-0f81-4e81-8ba2-97e5f5bf98b2","ios":"levelo://app?vid=51c67930-0f81-4e81-8ba2-97e5f5bf98b2"},"vehicle_type_id":"4","last_reported":1702706916,"current_range_meters":31200,"station_id":"ce4bha12rcd13ifvqef0","pricing_plan_id":"free"},{"bike_id":"4e8f196b-948f-4846-b9fe-48914fb007b2","system_id":"levelo_inurba_marseille","lat":43.29041,"lon":5.399634,"is_reserved":false,"is_disabled":false,"rental_uris":{"android":"levelo://app?vid=4e8f196b-948f-4846-b9fe-48914fb007b2","ios":"levelo://app?vid=4e8f196b-948f-4846-b9fe-48914fb007b2"},"vehicle_type_id":"4","last_reported":1702706916,"current_range_meters":30400,"station_id":"ce4bh392rcd13ifvqdm0","pricing_plan_id":"free"},{"bike_id":"0adde8ec-c4a7-410e-9dab-9e182f2c85bf","system_id":"levelo_inurba_marseille","lat":43.296263,"lon":5.40601,"is_reserved":false,"is_disabled":false,"rental_uris":{"android":"levelo://app?vid=0adde8ec-c4a7-410e-9dab-9e182f2c85bf","ios":"levelo://app?vid=0adde8ec-c4a7-410e-9dab-9e182f2c85bf"},"vehicle_type_id":"4","last_reported":1702706916,"current_range_meters":28000,"station_id":"ce4bh0h2rcd13ifvqd60","pricing_plan_id":"free"},{"bike_id":"957909a1-8942-42df-be69-e5124932ce4a","system_id":"levelo_inurba_marseille","lat":43.304188,"lon":5.412904,"is_reserved":false,"is_disabled":false,"rental_uris":{"android":"levelo://app?vid=957909a1-8942-42df-be69-e5124932ce4a","ios":"levelo://app?vid=957909a1-8942-42df-be69-e5124932ce4a"},"vehicle_type_id":"4","last_reported":1702706916,"current_range_meters":30400,"station_id":"ce4bhop2rcd13ifvqh8g","pricing_plan_id":"free"},{"bike_id":"e0cf4589-cf18-4a4b-aad9-e4409d47e905","system_id":"levelo_inurba_marseille","lat":43.304188,"lon":5.412904,"is_reserved":false,"is_disabled":false,"rental_uris":{"android":"levelo://app?vid=e0cf4589-cf18-4a4b-aad9-e4409d47e905","ios":"levelo://app?vid=e0cf4589-cf18-4a4b-aad9-e4409d47e905"},"vehicle_type_id":"4","last_reported":1702706916,"current_range_meters":11600,"station_id":"ce4bhop2rcd13ifvqh8g","pricing_plan_id":"free"},{"bike_id":"369a2d76-1cb2-4769-8325-7427d7fc473b","system_id":"levelo_inurba_marseille","lat":43.279087,"lon":5.380114,"is_reserved":false,"is_disabled":false,"rental_uris":{"android":"levelo://app?vid=369a2d76-1cb2-4769-8325-7427d7fc473b","ios":"levelo://app?vid=369a2d76-1cb2-4769-8325-7427d7fc473b"},"vehicle_type_id":"4","last_reported":1702706916,"current_range_meters":30400,"station_id":"ce4bhf92rcd13ifvqf50","pricing_plan_id":"free"},{"bike_id":"ddb27bb2-5bb4-45bf-8605-38c8e69064b5","system_id":"levelo_inurba_marseille","lat":43.279742,"lon":5.38744,"is_reserved":false,"is_disabled":false,"rental_uris":{"android":"levelo://app?vid=ddb27bb2-5bb4-45bf-8605-38c8e69064b5","ios":"levelo://app?vid=ddb27bb2-5bb4-45bf-8605-38c8e69064b5"},"vehicle_type_id":"4","last_reported":1702706916,"current_range_meters":29600,"station_id":"ce4bhg12rcd13ifvqf80","pricing_plan_id":"free"},{"bike_id":"736d01b6-d838-4b2f-a29e-fc37863f3e6c","system_id":"levelo_inurba_marseille","lat":43.279742,"lon":5.38744,"is_reserved":false,"is_disabled":false,"rental_uris":{"android":"levelo://app?vid=736d01b6-d838-4b2f-a29e-fc37863f3e6c","ios":"levelo://app?vid=736d01b6-d838-4b2f-a29e-fc37863f3e6c"},"vehicle_type_id":"4","last_reported":1702706916,"current_range_meters":23200,"station_id":"ce4bhg12rcd13ifvqf80","pricing_plan_id":"free"},{"bike_id":"e451e4bd-3920-4512-b19b-09907a859394","system_id":"levelo_inurba_marseille","lat":43.279742,"lon":5.38744,"is_reserved":false,"is_disabled":false,"rental_uris":{"android":"levelo://app?vid=e451e4bd-3920-4512-b19b-09907a859394","ios":"levelo://app?vid=e451e4bd-3920-4512-b19b-09907a859394"},"vehicle_type_id":"4","last_reported":1702706916,"current_range_meters":30000,"station_id":"ce4bhg12rcd13ifvqf80","pricing_plan_id":"free"},{"bike_id":"e893d083-1305-4087-b1e2-85456bd1e812","system_id":"levelo_inurba_marseille","lat":43.276157,"lon":5.361113,"is_reserved":false,"is_disabled":false,"rental_uris":{"android":"levelo://app?vid=e893d083-1305-4087-b1e2-85456bd1e812","ios":"levelo://app?vid=e893d083-1305-4087-b1e2-85456bd1e812"},"vehicle_type_id":"4","last_reported":1702706916,"current_range_meters":17200,"station_id":"ce4bgj92rcd13ifvqbe0","pricing_plan_id":"free"},{"bike_id":"83badb27-cbbe-4778-a803-709a57d63666","system_id":"levelo_inurba_marseille","lat":43.278399,"lon":5.392139,"is_reserved":false,"is_disabled":false,"rental_uris":{"android":"levelo://app?vid=83badb27-cbbe-4778-a803-709a57d63666","ios":"levelo://app?vid=83badb27-cbbe-4778-a803-709a57d63666"},"vehicle_type_id":"4","last_reported":1702706916,"current_range_meters":23600,"station_id":"ce4bhjp2rcd13ifvqga0","pricing_plan_id":"free"},{"bike_id":"aefdb8d3-712e-405e-8c6b-2abb60bb3de8","system_id":"levelo_inurba_marseille","lat":43.278331,"lon":5.392111,"is_reserved":false,"is_disabled":false,"rental_uris":{"android":"levelo://app?vid=aefdb8d3-712e-405e-8c6b-2abb60bb3de8","ios":"levelo://app?vid=aefdb8d3-712e-405e-8c6b-2abb60bb3de8"},"vehicle_type_id":"4","last_reported":1702706916,"current_range_meters":30400,"station_id":"ce4bhjp2rcd13ifvqga0","pricing_plan_id":"free"},{"bike_id":"ef98bf92-9e1c-46c5-a5b5-2cda60e67176","system_id":"levelo_inurba_marseille","lat":43.278399,"lon":5.392139,"is_reserved":false,"is_disabled":false,"rental_uris":{"android":"levelo://app?vid=ef98bf92-9e1c-46c5-a5b5-2cda60e67176","ios":"levelo://app?vid=ef98bf92-9e1c-46c5-a5b5-2cda60e67176"},"vehicle_type_id":"4","last_reported":1702706916,"current_range_meters":10400,"station_id":"ce4bhjp2rcd13ifvqga0","pricing_plan_id":"free"},{"bike_id":"6e5354e9-808a-46aa-a367-f7473c5da546","system_id":"levelo_inurba_marseille","lat":43.278399,"lon":5.392139,"is_reserved":false,"is_disabled":false,"rental_uris":{"android":"levelo://app?vid=6e5354e9-808a-46aa-a367-f7473c5da546","ios":"levelo://app?vid=6e5354e9-808a-46aa-a367-f7473c5da546"},"vehicle_type_id":"4","last_reported":1702706916,"current_range_meters":4800,"station_id":"ce4bhjp2rcd13ifvqga0","pricing_plan_id":"free"},{"bike_id":"24f3845c-a9ba-4301-a986-17a4e3a1f5b8","system_id":"levelo_inurba_marseille","lat":43.336134,"lon":5.410341,"is_reserved":false,"is_disabled":false,"rental_uris":{"android":"levelo://app?vid=24f3845c-a9ba-4301-a986-17a4e3a1f5b8","ios":"levelo://app?vid=24f3845c-a9ba-4301-a986-17a4e3a1f5b8"},"vehicle_type_id":"4","last_reported":1702706916,"current_range_meters":25200,"station_id":"ce4bhqh2rcd13ifvqhmg","pricing_plan_id":"free"},{"bike_id":"bb2e8b8b-88f8-43ad-ad63-527eff6a3984","system_id":"levelo_inurba_marseille","lat":43.27664,"lon":5.38878,"is_reserved":false,"is_disabled":false,"rental_uris":{"android":"levelo://app?vid=bb2e8b8b-88f8-43ad-ad63-527eff6a3984","ios":"levelo://app?vid=bb2e8b8b-88f8-43ad-ad63-527eff6a3984"},"vehicle_type_id":"4","last_reported":1702706916,"current_range_meters":29200,"station_id":"ce4bhi12rcd13ifvqfo0","pricing_plan_id":"free"},{"bike_id":"7b7bfaee-0e53-4459-bbde-886e6805f2a5","system_id":"levelo_inurba_marseille","lat":43.317121,"lon":5.423936,"is_reserved":false,"is_disabled":false,"rental_uris":{"android":"levelo://app?vid=7b7bfaee-0e53-4459-bbde-886e6805f2a5","ios":"levelo://app?vid=7b7bfaee-0e53-4459-bbde-886e6805f2a5"},"vehicle_type_id":"4","last_reported":1702706916,"current_range_meters":28800,"station_id":"ce4bhp92rcd13ifvqhbg","pricing_plan_id":"free"},{"bike_id":"e7f3199b-16c7-4ec8-844a-fb3b2f233e43","system_id":"levelo_inurba_marseille","lat":43.317121,"lon":5.423936,"is_reserved":false,"is_disabled":false,"rental_uris":{"android":"levelo://app?vid=e7f3199b-16c7-4ec8-844a-fb3b2f233e43","ios":"levelo://app?vid=e7f3199b-16c7-4ec8-844a-fb3b2f233e43"},"vehicle_type_id":"4","last_reported":1702706916,"current_range_meters":30800,"station_id":"ce4bhp92rcd13ifvqhbg","pricing_plan_id":"free"},{"bike_id":"13b63d08-aaa3-4985-bf57-1f32727c58d1","system_id":"levelo_inurba_marseille","lat":43.310785,"lon":5.424305,"is_reserved":false,"is_disabled":false,"rental_uris":{"android":"levelo://app?vid=13b63d08-aaa3-4985-bf57-1f32727c58d1","ios":"levelo://app?vid=13b63d08-aaa3-4985-bf57-1f32727c58d1"},"vehicle_type_id":"4","last_reported":1702706916,"current_range_meters":30000,"station_id":"ce4bhp92rcd13ifvqhag","pricing_plan_id":"free"},{"bike_id":"93a9a0b0-f09a-4679-973e-f3ebca0caf36","system_id":"levelo_inurba_marseille","lat":43.310785,"lon":5.424305,"is_reserved":false,"is_disabled":false,"rental_uris":{"android":"levelo://app?vid=93a9a0b0-f09a-4679-973e-f3ebca0caf36","ios":"levelo://app?vid=93a9a0b0-f09a-4679-973e-f3ebca0caf36"},"vehicle_type_id":"4","last_reported":1702706916,"current_range_meters":31200,"station_id":"ce4bhp92rcd13ifvqhag","pricing_plan_id":"free"},{"bike_id":"88d21734-a1ec-434c-836c-b0fde0b8c8e9","system_id":"levelo_inurba_marseille","lat":43.310785,"lon":5.424305,"is_reserved":false,"is_disabled":false,"rental_uris":{"android":"levelo://app?vid=88d21734-a1ec-434c-836c-b0fde0b8c8e9","ios":"levelo://app?vid=88d21734-a1ec-434c-836c-b0fde0b8c8e9"},"vehicle_type_id":"4","last_reported":1702706916,"current_range_meters":28400,"station_id":"ce4bhp92rcd13ifvqhag","pricing_plan_id":"free"},{"bike_id":"cdc69067-dad5-415d-b4f3-0a438e350196","system_id":"levelo_inurba_marseille","lat":43.317121,"lon":5.423936,"is_reserved":false,"is_disabled":false,"rental_uris":{"android":"levelo://app?vid=cdc69067-dad5-415d-b4f3-0a438e350196","ios":"levelo://app?vid=cdc69067-dad5-415d-b4f3-0a438e350196"},"vehicle_type_id":"4","last_reported":1702706916,"current_range_meters":27600,"station_id":"ce4bhp92rcd13ifvqhbg","pricing_plan_id":"free"},{"bike_id":"3145fa08-0303-4ace-ae9b-bbd51dc032ca","system_id":"levelo_inurba_marseille","lat":43.340804,"lon":5.410219,"is_reserved":false,"is_disabled":false,"rental_uris":{"android":"levelo://app?vid=3145fa08-0303-4ace-ae9b-bbd51dc032ca","ios":"levelo://app?vid=3145fa08-0303-4ace-ae9b-bbd51dc032ca"},"vehicle_type_id":"4","last_reported":1702706916,"current_range_meters":18000,"station_id":"ce4bhqh2rcd13ifvqhlg","pricing_plan_id":"free"},{"bike_id":"9fd98958-12f3-4062-a784-cd245cbf37c6","system_id":"levelo_inurba_marseille","lat":43.340804,"lon":5.410219,"is_reserved":false,"is_disabled":false,"rental_uris":{"android":"levelo://app?vid=9fd98958-12f3-4062-a784-cd245cbf37c6","ios":"levelo://app?vid=9fd98958-12f3-4062-a784-cd245cbf37c6"},"vehicle_type_id":"4","last_reported":1702706916,"current_range_meters":31200,"station_id":"ce4bhqh2rcd13ifvqhlg","pricing_plan_id":"free"},{"bike_id":"5bfd1a40-b0e4-41f3-a861-bd72abc8764c","system_id":"levelo_inurba_marseille","lat":43.340804,"lon":5.410219,"is_reserved":false,"is_disabled":false,"rental_uris":{"android":"levelo://app?vid=5bfd1a40-b0e4-41f3-a861-bd72abc8764c","ios":"levelo://app?vid=5bfd1a40-b0e4-41f3-a861-bd72abc8764c"},"vehicle_type_id":"4","last_reported":1702706916,"current_range_meters":12400,"station_id":"ce4bhqh2rcd13ifvqhlg","pricing_plan_id":"free"},{"bike_id":"fca8008a-37f2-44f6-8524-0b617ad370e9","system_id":"levelo_inurba_marseille","lat":43.341391,"lon":5.409049,"is_reserved":false,"is_disabled":false,"rental_uris":{"android":"levelo://app?vid=fca8008a-37f2-44f6-8524-0b617ad370e9","ios":"levelo://app?vid=fca8008a-37f2-44f6-8524-0b617ad370e9"},"vehicle_type_id":"4","last_reported":1702706916,"current_range_meters":30800,"station_id":"ce4bhqh2rcd13ifvqhlg","pricing_plan_id":"free"},{"bike_id":"243e20d6-82d7-462c-b5ad-7fe7f8c79b11","system_id":"levelo_inurba_marseille","lat":43.340804,"lon":5.410219,"is_reserved":false,"is_disabled":false,"rental_uris":{"android":"levelo://app?vid=243e20d6-82d7-462c-b5ad-7fe7f8c79b11","ios":"levelo://app?vid=243e20d6-82d7-462c-b5ad-7fe7f8c79b11"},"vehicle_type_id":"4","last_reported":1702706916,"current_range_meters":20000,"station_id":"ce4bhqh2rcd13ifvqhlg","pricing_plan_id":"free"},{"bike_id":"3ca2c2d2-99b0-4aa6-a05d-e30f02e6a7fb","system_id":"levelo_inurba_marseille","lat":43.276092,"lon":5.395289,"is_reserved":false,"is_disabled":false,"rental_uris":{"android":"levelo://app?vid=3ca2c2d2-99b0-4aa6-a05d-e30f02e6a7fb","ios":"levelo://app?vid=3ca2c2d2-99b0-4aa6-a05d-e30f02e6a7fb"},"vehicle_type_id":"4","last_reported":1702706916,"current_range_meters":23600,"station_id":"","pricing_plan_id":"free"},{"bike_id":"10eadedf-b2e9-4bb9-a1f0-77df69175439","system_id":"levelo_inurba_marseille","lat":43.283255,"lon":5.408345,"is_reserved":false,"is_disabled":false,"rental_uris":{"android":"levelo://app?vid=10eadedf-b2e9-4bb9-a1f0-77df69175439","ios":"levelo://app?vid=10eadedf-b2e9-4bb9-a1f0-77df69175439"},"vehicle_type_id":"4","last_reported":1702706916,"current_range_meters":13600,"station_id":"","pricing_plan_id":"free"},{"bike_id":"549600fb-47b9-4312-8242-de53dbdf980c","system_id":"levelo_inurba_marseille","lat":43.304096,"lon":5.425385,"is_reserved":false,"is_disabled":false,"rental_uris":{"android":"levelo://app?vid=549600fb-47b9-4312-8242-de53dbdf980c","ios":"levelo://app?vid=549600fb-47b9-4312-8242-de53dbdf980c"},"vehicle_type_id":"4","last_reported":1702706916,"current_range_meters":7600,"station_id":"ce4bhoh2rcd13ifvqh6g","pricing_plan_id":"free"},{"bike_id":"127120c9-2a95-4892-91e0-d0f0a2b77fe5","system_id":"levelo_inurba_marseille","lat":43.304096,"lon":5.425385,"is_reserved":false,"is_disabled":false,"rental_uris":{"android":"levelo://app?vid=127120c9-2a95-4892-91e0-d0f0a2b77fe5","ios":"levelo://app?vid=127120c9-2a95-4892-91e0-d0f0a2b77fe5"},"vehicle_type_id":"4","last_reported":1702706916,"current_range_meters":28000,"station_id":"ce4bhoh2rcd13ifvqh6g","pricing_plan_id":"free"},{"bike_id":"a89d95c9-89b9-4ca6-bcd1-bb8857de2bcc","system_id":"levelo_inurba_marseille","lat":43.295523,"lon":5.422926,"is_reserved":false,"is_disabled":false,"rental_uris":{"android":"levelo://app?vid=a89d95c9-89b9-4ca6-bcd1-bb8857de2bcc","ios":"levelo://app?vid=a89d95c9-89b9-4ca6-bcd1-bb8857de2bcc"},"vehicle_type_id":"4","last_reported":1702706916,"current_range_meters":30800,"station_id":"ce4bhph2rcd13ifvqhdg","pricing_plan_id":"free"},{"bike_id":"de9feb39-3844-4206-aa16-9fe6fe1926e0","system_id":"levelo_inurba_marseille","lat":43.295534,"lon":5.422791,"is_reserved":false,"is_disabled":false,"rental_uris":{"android":"levelo://app?vid=de9feb39-3844-4206-aa16-9fe6fe1926e0","ios":"levelo://app?vid=de9feb39-3844-4206-aa16-9fe6fe1926e0"},"vehicle_type_id":"4","last_reported":1702706916,"current_range_meters":16400,"station_id":"ce4bhph2rcd13ifvqhdg","pricing_plan_id":"free"},{"bike_id":"9d165c4a-79e8-407c-9e21-efd5d8b1a9d8","system_id":"levelo_inurba_marseille","lat":43.295523,"lon":5.422926,"is_reserved":false,"is_disabled":false,"rental_uris":{"android":"levelo://app?vid=9d165c4a-79e8-407c-9e21-efd5d8b1a9d8","ios":"levelo://app?vid=9d165c4a-79e8-407c-9e21-efd5d8b1a9d8"},"vehicle_type_id":"4","last_reported":1702706916,"current_range_meters":22000,"station_id":"ce4bhph2rcd13ifvqhdg","pricing_plan_id":"free"},{"bike_id":"ada57737-7a79-44c0-8f3e-ecbad75f6298","system_id":"levelo_inurba_marseille","lat":43.272124,"lon":5.391768,"is_reserved":false,"is_disabled":false,"rental_uris":{"android":"levelo://app?vid=ada57737-7a79-44c0-8f3e-ecbad75f6298","ios":"levelo://app?vid=ada57737-7a79-44c0-8f3e-ecbad75f6298"},"vehicle_type_id":"4","last_reported":1702706916,"current_range_meters":28800,"station_id":"ce4bhhp2rcd13ifvqfm0","pricing_plan_id":"free"},{"bike_id":"087230b3-ae12-46fc-8650-d840a066a359","system_id":"levelo_inurba_marseille","lat":43.272124,"lon":5.391768,"is_reserved":false,"is_disabled":false,"rental_uris":{"android":"levelo://app?vid=087230b3-ae12-46fc-8650-d840a066a359","ios":"levelo://app?vid=087230b3-ae12-46fc-8650-d840a066a359"},"vehicle_type_id":"4","last_reported":1702706916,"current_range_meters":27200,"station_id":"ce4bhhp2rcd13ifvqfm0","pricing_plan_id":"free"},{"bike_id":"f1893e08-ab0a-46d8-a16f-65b7dbffc6d9","system_id":"levelo_inurba_marseille","lat":43.272116,"lon":5.391747,"is_reserved":false,"is_disabled":false,"rental_uris":{"android":"levelo://app?vid=f1893e08-ab0a-46d8-a16f-65b7dbffc6d9","ios":"levelo://app?vid=f1893e08-ab0a-46d8-a16f-65b7dbffc6d9"},"vehicle_type_id":"4","last_reported":1702706916,"current_range_meters":23200,"station_id":"ce4bhhp2rcd13ifvqfm0","pricing_plan_id":"free"},{"bike_id":"30f59ffe-e1fa-4ed8-a4e3-ce159c007c40","system_id":"levelo_inurba_marseille","lat":43.278128,"lon":5.407195,"is_reserved":false,"is_disabled":false,"rental_uris":{"android":"levelo://app?vid=30f59ffe-e1fa-4ed8-a4e3-ce159c007c40","ios":"levelo://app?vid=30f59ffe-e1fa-4ed8-a4e3-ce159c007c40"},"vehicle_type_id":"4","last_reported":1702706916,"current_range_meters":31600,"station_id":"ce4bhnh2rcd13ifvqgtg","pricing_plan_id":"free"},{"bike_id":"a500f2ef-4fe9-42d6-a809-85fd295238ec","system_id":"levelo_inurba_marseille","lat":43.278128,"lon":5.407195,"is_reserved":false,"is_disabled":false,"rental_uris":{"android":"levelo://app?vid=a500f2ef-4fe9-42d6-a809-85fd295238ec","ios":"levelo://app?vid=a500f2ef-4fe9-42d6-a809-85fd295238ec"},"vehicle_type_id":"4","last_reported":1702706916,"current_range_meters":20800,"station_id":"ce4bhnh2rcd13ifvqgtg","pricing_plan_id":"free"},{"bike_id":"e7bb2053-a87e-4489-8e3a-9f54845126c3","system_id":"levelo_inurba_marseille","lat":43.269467,"lon":5.386439,"is_reserved":false,"is_disabled":false,"rental_uris":{"android":"levelo://app?vid=e7bb2053-a87e-4489-8e3a-9f54845126c3","ios":"levelo://app?vid=e7bb2053-a87e-4489-8e3a-9f54845126c3"},"vehicle_type_id":"4","last_reported":1702706916,"current_range_meters":27200,"station_id":"ce4bhh92rcd13ifvqfh0","pricing_plan_id":"free"},{"bike_id":"cfc2a9ae-3971-4522-8ad5-74b87fef58b2","system_id":"levelo_inurba_marseille","lat":43.269319,"lon":5.389397,"is_reserved":false,"is_disabled":false,"rental_uris":{"android":"levelo://app?vid=cfc2a9ae-3971-4522-8ad5-74b87fef58b2","ios":"levelo://app?vid=cfc2a9ae-3971-4522-8ad5-74b87fef58b2"},"vehicle_type_id":"4","last_reported":1702706916,"current_range_meters":12000,"station_id":"ce4bhhh2rcd13ifvqfl0","pricing_plan_id":"free"},{"bike_id":"3d7613a8-2957-48f2-a5b2-9af82aa83639","system_id":"levelo_inurba_marseille","lat":43.269319,"lon":5.389397,"is_reserved":false,"is_disabled":false,"rental_uris":{"android":"levelo://app?vid=3d7613a8-2957-48f2-a5b2-9af82aa83639","ios":"levelo://app?vid=3d7613a8-2957-48f2-a5b2-9af82aa83639"},"vehicle_type_id":"4","last_reported":1702706916,"current_range_meters":26400,"station_id":"ce4bhhh2rcd13ifvqfl0","pricing_plan_id":"free"},{"bike_id":"db774753-4382-453e-a138-c32d538f9839","system_id":"levelo_inurba_marseille","lat":43.358661,"lon":5.356725,"is_reserved":false,"is_disabled":false,"rental_uris":{"android":"levelo://app?vid=db774753-4382-453e-a138-c32d538f9839","ios":"levelo://app?vid=db774753-4382-453e-a138-c32d538f9839"},"vehicle_type_id":"4","last_reported":1702706916,"current_range_meters":11200,"station_id":"","pricing_plan_id":"free"},{"bike_id":"692a4d00-3ed9-4cf9-ad2d-8ad5e5cbcf1b","system_id":"levelo_inurba_marseille","lat":43.26681,"lon":5.382694,"is_reserved":false,"is_disabled":false,"rental_uris":{"android":"levelo://app?vid=692a4d00-3ed9-4cf9-ad2d-8ad5e5cbcf1b","ios":"levelo://app?vid=692a4d00-3ed9-4cf9-ad2d-8ad5e5cbcf1b"},"vehicle_type_id":"4","last_reported":1702706916,"current_range_meters":29600,"station_id":"ce4bhg92rcd13ifvqf90","pricing_plan_id":"free"},{"bike_id":"9eeb4bd8-9399-4615-8241-69fb745cad0f","system_id":"levelo_inurba_marseille","lat":43.26681,"lon":5.382694,"is_reserved":false,"is_disabled":false,"rental_uris":{"android":"levelo://app?vid=9eeb4bd8-9399-4615-8241-69fb745cad0f","ios":"levelo://app?vid=9eeb4bd8-9399-4615-8241-69fb745cad0f"},"vehicle_type_id":"4","last_reported":1702706916,"current_range_meters":27600,"station_id":"ce4bhg92rcd13ifvqf90","pricing_plan_id":"free"},{"bike_id":"584daf60-db60-4cbd-849a-0678bafa0905","system_id":"levelo_inurba_marseille","lat":43.2656,"lon":5.37285,"is_reserved":false,"is_disabled":false,"rental_uris":{"android":"levelo://app?vid=584daf60-db60-4cbd-849a-0678bafa0905","ios":"levelo://app?vid=584daf60-db60-4cbd-849a-0678bafa0905"},"vehicle_type_id":"4","last_reported":1702706916,"current_range_meters":18400,"station_id":"ce4bhg12rcd13ifvqf70","pricing_plan_id":"free"},{"bike_id":"1ad16cbe-7518-49ea-9ef2-d1663652f953","system_id":"levelo_inurba_marseille","lat":43.27996,"lon":5.416624,"is_reserved":false,"is_disabled":false,"rental_uris":{"android":"levelo://app?vid=1ad16cbe-7518-49ea-9ef2-d1663652f953","ios":"levelo://app?vid=1ad16cbe-7518-49ea-9ef2-d1663652f953"},"vehicle_type_id":"4","last_reported":1702706916,"current_range_meters":30000,"station_id":"ce4bho12rcd13ifvqh1g","pricing_plan_id":"free"},{"bike_id":"d337aed5-b006-4fa2-a52c-bd9aea53631a","system_id":"levelo_inurba_marseille","lat":43.27996,"lon":5.416624,"is_reserved":false,"is_disabled":false,"rental_uris":{"android":"levelo://app?vid=d337aed5-b006-4fa2-a52c-bd9aea53631a","ios":"levelo://app?vid=d337aed5-b006-4fa2-a52c-bd9aea53631a"},"vehicle_type_id":"4","last_reported":1702706916,"current_range_meters":30800,"station_id":"ce4bho12rcd13ifvqh1g","pricing_plan_id":"free"},{"bike_id":"fd29b18d-2911-49fd-ae30-d6862a180741","system_id":"levelo_inurba_marseille","lat":43.267966,"lon":5.393976,"is_reserved":false,"is_disabled":false,"rental_uris":{"android":"levelo://app?vid=fd29b18d-2911-49fd-ae30-d6862a180741","ios":"levelo://app?vid=fd29b18d-2911-49fd-ae30-d6862a180741"},"vehicle_type_id":"4","last_reported":1702706916,"current_range_meters":23600,"station_id":"ce4bhh12rcd13ifvqfg0","pricing_plan_id":"free"},{"bike_id":"55ca53a3-e131-46c7-b3e6-d5a4418e1df7","system_id":"levelo_inurba_marseille","lat":43.265717,"lon":5.390066,"is_reserved":false,"is_disabled":false,"rental_uris":{"android":"levelo://app?vid=55ca53a3-e131-46c7-b3e6-d5a4418e1df7","ios":"levelo://app?vid=55ca53a3-e131-46c7-b3e6-d5a4418e1df7"},"vehicle_type_id":"4","last_reported":1702706916,"current_range_meters":24400,"station_id":"ce4bhe12rcd13ifvqf30","pricing_plan_id":"free"},{"bike_id":"95e9dd1f-f2f5-405d-b720-08fe860b3dcc","system_id":"levelo_inurba_marseille","lat":43.30796,"lon":5.43526,"is_reserved":false,"is_disabled":false,"rental_uris":{"android":"levelo://app?vid=95e9dd1f-f2f5-405d-b720-08fe860b3dcc","ios":"levelo://app?vid=95e9dd1f-f2f5-405d-b720-08fe860b3dcc"},"vehicle_type_id":"4","last_reported":1702706916,"current_range_meters":29200,"station_id":"ce4bhph2rcd13ifvqheg","pricing_plan_id":"free"},{"bike_id":"2e54b5eb-86d4-42b0-b58c-6213048bdfc5","system_id":"levelo_inurba_marseille","lat":43.261782,"lon":5.374515,"is_reserved":false,"is_disabled":false,"rental_uris":{"android":"levelo://app?vid=2e54b5eb-86d4-42b0-b58c-6213048bdfc5","ios":"levelo://app?vid=2e54b5eb-86d4-42b0-b58c-6213048bdfc5"},"vehicle_type_id":"4","last_reported":1702706916,"current_range_meters":26400,"station_id":"ce4bhgp2rcd13ifvqfc0","pricing_plan_id":"free"},{"bike_id":"4dc0e6e3-8a35-452d-90f5-2c022ecd845c","system_id":"levelo_inurba_marseille","lat":43.261782,"lon":5.374515,"is_reserved":false,"is_disabled":false,"rental_uris":{"android":"levelo://app?vid=4dc0e6e3-8a35-452d-90f5-2c022ecd845c","ios":"levelo://app?vid=4dc0e6e3-8a35-452d-90f5-2c022ecd845c"},"vehicle_type_id":"4","last_reported":1702706916,"current_range_meters":29200,"station_id":"ce4bhgp2rcd13ifvqfc0","pricing_plan_id":"free"},{"bike_id":"1d3a6f7d-296e-413a-8b5b-3a7a158a21e1","system_id":"levelo_inurba_marseille","lat":43.317104,"lon":5.436818,"is_reserved":false,"is_disabled":false,"rental_uris":{"android":"levelo://app?vid=1d3a6f7d-296e-413a-8b5b-3a7a158a21e1","ios":"levelo://app?vid=1d3a6f7d-296e-413a-8b5b-3a7a158a21e1"},"vehicle_type_id":"4","last_reported":1702706916,"current_range_meters":31200,"station_id":"ce4bhp92rcd13ifvqhcg","pricing_plan_id":"free"},{"bike_id":"151ad32e-e8a8-4f27-83ce-9e7eab520933","system_id":"levelo_inurba_marseille","lat":43.31717,"lon":5.43708,"is_reserved":false,"is_disabled":false,"rental_uris":{"android":"levelo://app?vid=151ad32e-e8a8-4f27-83ce-9e7eab520933","ios":"levelo://app?vid=151ad32e-e8a8-4f27-83ce-9e7eab520933"},"vehicle_type_id":"4","last_reported":1702706916,"current_range_meters":25200,"station_id":"ce4bhp92rcd13ifvqhcg","pricing_plan_id":"free"},{"bike_id":"3c5a8c9f-937e-4a0f-a268-98b266e41e01","system_id":"levelo_inurba_marseille","lat":43.26205,"lon":5.37921,"is_reserved":false,"is_disabled":false,"rental_uris":{"android":"levelo://app?vid=3c5a8c9f-937e-4a0f-a268-98b266e41e01","ios":"levelo://app?vid=3c5a8c9f-937e-4a0f-a268-98b266e41e01"},"vehicle_type_id":"4","last_reported":1702706916,"current_range_meters":16800,"station_id":"ce4bhjp2rcd13ifvqg90","pricing_plan_id":"free"},{"bike_id":"451a809d-ed97-4703-9bf3-116a76b64c03","system_id":"levelo_inurba_marseille","lat":43.271368,"lon":5.40928,"is_reserved":false,"is_disabled":false,"rental_uris":{"android":"levelo://app?vid=451a809d-ed97-4703-9bf3-116a76b64c03","ios":"levelo://app?vid=451a809d-ed97-4703-9bf3-116a76b64c03"},"vehicle_type_id":"4","last_reported":1702706916,"current_range_meters":25600,"station_id":"ce4bhl12rcd13ifvqgf0","pricing_plan_id":"free"},{"bike_id":"660d181c-b222-46c4-b1d2-ee34d913a60f","system_id":"levelo_inurba_marseille","lat":43.26806,"lon":5.40258,"is_reserved":false,"is_disabled":false,"rental_uris":{"android":"levelo://app?vid=660d181c-b222-46c4-b1d2-ee34d913a60f","ios":"levelo://app?vid=660d181c-b222-46c4-b1d2-ee34d913a60f"},"vehicle_type_id":"4","last_reported":1702706916,"current_range_meters":2800,"station_id":"ce501612rcd8frsf0b60","pricing_plan_id":"free"},{"bike_id":"dd56b8c8-65e0-491e-8f20-9ee5b66ffaa9","system_id":"levelo_inurba_marseille","lat":43.298768,"lon":5.43643,"is_reserved":false,"is_disabled":false,"rental_uris":{"android":"levelo://app?vid=dd56b8c8-65e0-491e-8f20-9ee5b66ffaa9","ios":"levelo://app?vid=dd56b8c8-65e0-491e-8f20-9ee5b66ffaa9"},"vehicle_type_id":"4","last_reported":1702706916,"current_range_meters":29600,"station_id":"ce4bhpp2rcd13ifvqhfg","pricing_plan_id":"free"},{"bike_id":"c631178c-cd78-45a3-b946-94536a797b09","system_id":"levelo_inurba_marseille","lat":43.281548,"lon":5.42643,"is_reserved":false,"is_disabled":false,"rental_uris":{"android":"levelo://app?vid=c631178c-cd78-45a3-b946-94536a797b09","ios":"levelo://app?vid=c631178c-cd78-45a3-b946-94536a797b09"},"vehicle_type_id":"4","last_reported":1702706916,"current_range_meters":28400,"station_id":"ce4bhnh2rcd13ifvqgug","pricing_plan_id":"free"},{"bike_id":"31998b13-745f-4f17-b3ac-6cc5ccee1f4f","system_id":"levelo_inurba_marseille","lat":43.281548,"lon":5.42643,"is_reserved":false,"is_disabled":false,"rental_uris":{"android":"levelo://app?vid=31998b13-745f-4f17-b3ac-6cc5ccee1f4f","ios":"levelo://app?vid=31998b13-745f-4f17-b3ac-6cc5ccee1f4f"},"vehicle_type_id":"4","last_reported":1702706916,"current_range_meters":24800,"station_id":"ce4bhnh2rcd13ifvqgug","pricing_plan_id":"free"},{"bike_id":"e1803111-55b0-48ae-9b89-5622dc968695","system_id":"levelo_inurba_marseille","lat":43.281548,"lon":5.42643,"is_reserved":false,"is_disabled":false,"rental_uris":{"android":"levelo://app?vid=e1803111-55b0-48ae-9b89-5622dc968695","ios":"levelo://app?vid=e1803111-55b0-48ae-9b89-5622dc968695"},"vehicle_type_id":"4","last_reported":1702706916,"current_range_meters":19600,"station_id":"ce4bhnh2rcd13ifvqgug","pricing_plan_id":"free"},{"bike_id":"5a38afba-e22c-49ca-88fa-3920e4ddb201","system_id":"levelo_inurba_marseille","lat":43.281548,"lon":5.42643,"is_reserved":false,"is_disabled":false,"rental_uris":{"android":"levelo://app?vid=5a38afba-e22c-49ca-88fa-3920e4ddb201","ios":"levelo://app?vid=5a38afba-e22c-49ca-88fa-3920e4ddb201"},"vehicle_type_id":"4","last_reported":1702706916,"current_range_meters":25200,"station_id":"ce4bhnh2rcd13ifvqgug","pricing_plan_id":"free"},{"bike_id":"407de52b-e231-47b1-8325-f6fab784ea23","system_id":"levelo_inurba_marseille","lat":43.2607,"lon":5.393983,"is_reserved":false,"is_disabled":false,"rental_uris":{"android":"levelo://app?vid=407de52b-e231-47b1-8325-f6fab784ea23","ios":"levelo://app?vid=407de52b-e231-47b1-8325-f6fab784ea23"},"vehicle_type_id":"4","last_reported":1702706916,"current_range_meters":31200,"station_id":"ce4bhh92rcd13ifvqfj0","pricing_plan_id":"free"},{"bike_id":"b76e4b50-f6f0-431f-a6f8-b141c06663a4","system_id":"levelo_inurba_marseille","lat":43.275028,"lon":5.424534,"is_reserved":false,"is_disabled":false,"rental_uris":{"android":"levelo://app?vid=b76e4b50-f6f0-431f-a6f8-b141c06663a4","ios":"levelo://app?vid=b76e4b50-f6f0-431f-a6f8-b141c06663a4"},"vehicle_type_id":"4","last_reported":1702706916,"current_range_meters":15600,"station_id":"ce4bhn92rcd13ifvqgrg","pricing_plan_id":"free"},{"bike_id":"cc5d76b0-a393-4a4c-baa6-a656fc269eb7","system_id":"levelo_inurba_marseille","lat":43.275028,"lon":5.424534,"is_reserved":false,"is_disabled":false,"rental_uris":{"android":"levelo://app?vid=cc5d76b0-a393-4a4c-baa6-a656fc269eb7","ios":"levelo://app?vid=cc5d76b0-a393-4a4c-baa6-a656fc269eb7"},"vehicle_type_id":"4","last_reported":1702706916,"current_range_meters":30400,"station_id":"ce4bhn92rcd13ifvqgrg","pricing_plan_id":"free"},{"bike_id":"4a436564-a1e8-41f0-94ce-946bc6833290","system_id":"levelo_inurba_marseille","lat":43.258224,"lon":5.394369,"is_reserved":false,"is_disabled":false,"rental_uris":{"android":"levelo://app?vid=4a436564-a1e8-41f0-94ce-946bc6833290","ios":"levelo://app?vid=4a436564-a1e8-41f0-94ce-946bc6833290"},"vehicle_type_id":"4","last_reported":1702706916,"current_range_meters":27600,"station_id":"ce4bhip2rcd13ifvqft0","pricing_plan_id":"free"},{"bike_id":"2ecae49b-9e6e-4af1-b744-4b6eeb8f1ceb","system_id":"levelo_inurba_marseille","lat":43.258224,"lon":5.394369,"is_reserved":false,"is_disabled":false,"rental_uris":{"android":"levelo://app?vid=2ecae49b-9e6e-4af1-b744-4b6eeb8f1ceb","ios":"levelo://app?vid=2ecae49b-9e6e-4af1-b744-4b6eeb8f1ceb"},"vehicle_type_id":"4","last_reported":1702706916,"current_range_meters":16400,"station_id":"ce4bhip2rcd13ifvqft0","pricing_plan_id":"free"},{"bike_id":"152f0b5f-2e6b-49d7-9e6c-7e17f0f4350b","system_id":"levelo_inurba_marseille","lat":43.270721,"lon":5.422764,"is_reserved":false,"is_disabled":false,"rental_uris":{"android":"levelo://app?vid=152f0b5f-2e6b-49d7-9e6c-7e17f0f4350b","ios":"levelo://app?vid=152f0b5f-2e6b-49d7-9e6c-7e17f0f4350b"},"vehicle_type_id":"4","last_reported":1702706916,"current_range_meters":18800,"station_id":"ce4bhk92rcd13ifvqgb0","pricing_plan_id":"free"},{"bike_id":"ec491bd9-8538-42ae-8c44-f3058f033f0c","system_id":"levelo_inurba_marseille","lat":43.270721,"lon":5.422764,"is_reserved":false,"is_disabled":false,"rental_uris":{"android":"levelo://app?vid=ec491bd9-8538-42ae-8c44-f3058f033f0c","ios":"levelo://app?vid=ec491bd9-8538-42ae-8c44-f3058f033f0c"},"vehicle_type_id":"4","last_reported":1702706916,"current_range_meters":14400,"station_id":"ce4bhk92rcd13ifvqgb0","pricing_plan_id":"free"},{"bike_id":"d80e9aeb-ee42-4689-98ac-80b68def8b3f","system_id":"levelo_inurba_marseille","lat":43.270721,"lon":5.422764,"is_reserved":false,"is_disabled":false,"rental_uris":{"android":"levelo://app?vid=d80e9aeb-ee42-4689-98ac-80b68def8b3f","ios":"levelo://app?vid=d80e9aeb-ee42-4689-98ac-80b68def8b3f"},"vehicle_type_id":"4","last_reported":1702706916,"current_range_meters":30400,"station_id":"ce4bhk92rcd13ifvqgb0","pricing_plan_id":"free"},{"bike_id":"9f23c4fe-2b8e-4fa6-aeed-63e5db4fbaf9","system_id":"levelo_inurba_marseille","lat":43.270705,"lon":5.422826,"is_reserved":false,"is_disabled":false,"rental_uris":{"android":"levelo://app?vid=9f23c4fe-2b8e-4fa6-aeed-63e5db4fbaf9","ios":"levelo://app?vid=9f23c4fe-2b8e-4fa6-aeed-63e5db4fbaf9"},"vehicle_type_id":"4","last_reported":1702706916,"current_range_meters":13600,"station_id":"ce4bhk92rcd13ifvqgb0","pricing_plan_id":"free"},{"bike_id":"4edb9643-d51d-4d78-bab9-4a9b45a5f0c4","system_id":"levelo_inurba_marseille","lat":43.258658,"lon":5.398935,"is_reserved":false,"is_disabled":false,"rental_uris":{"android":"levelo://app?vid=4edb9643-d51d-4d78-bab9-4a9b45a5f0c4","ios":"levelo://app?vid=4edb9643-d51d-4d78-bab9-4a9b45a5f0c4"},"vehicle_type_id":"4","last_reported":1702706916,"current_range_meters":28400,"station_id":"ce4bhl92rcd13ifvqghg","pricing_plan_id":"free"},