{"last_updated":1731794847,"ttl":60,"version":"2.2","data":{"bikes":[{"bike_id":"cabd53db-01b3-4a6a-8bda-43b678fb3829","system_id":"levelo_inurba_marseille","lat":43.28937,"lon":5.38409,"is_reserved":false,"is_disabled":false,"rental_uris":{"android":"levelo://app?vid=cabd53db-01b3-4a6a-8bda-43b678fb3829","ios":"levelo://app?vid=cabd53db-01b3-4a6a-8bda-43b678fb3829"},"vehicle_type_id":"4","last_reported":1731794847,"current_range_meters":30800,"station_id":"ce4bh612rcd13ifvqe6g","pricing_plan_id":"cebpf4jnsgd1na2vs0mg"},{"bike_id":"060ae80b-28df-4756-9733-563ac5474d72","system_id":"levelo_inurba_marseille","lat":43.28938,"lon":5.36645,"is_reserved":false,"is_disabled":false,"rental_uris":{"android":"levelo://app?vid=060ae80b-28df-4756-9733-563ac5474d72","ios":"levelo://app?vid=060ae80b-28df-4756-9733-563ac5474d72"},"vehicle_type_id":"4","last_reported":1731794847,"current_range_meters":22800,"station_id":"ce4bhap2rcd13ifvqek0","pricing_plan_id":"cebpf4jnsgd1na2vs0mg"},{"bike_id":"fe7748b6-9d91-4994-bdd2-fe51f904eb01","system_id":"levelo_inurba_marseille","lat":43.29951,"lon":5.37372,"is_reserved":false,"is_disabled":false,"rental_uris":{"android":"levelo://app?vid=fe7748b6-9d91-4994-bdd2-fe51f904eb01","ios":"levelo://app?vid=fe7748b6-9d91-4994-bdd2-fe51f904eb01"},"vehicle_type_id":"4","last_reported":1731794847,"current_range_meters":20800,"station_id":"ce4bgjh2rcd13ifvqbg0","pricing_plan_id":"cebpf4jnsgd1na2vs0mg"},{"bike_id":"45c178a2-06a1-4784-9547-3194078b2f63","system_id":"levelo_inurba_marseille","lat":43.28703,"lon":5.37396,"is_reserved":false,"is_disabled":false,"rental_uris":{"android":"levelo://app?vid=45c178a2-06a1-4784-9547-3194078b2f63","ios":"levelo://app?vid=45c178a2-06a1-4784-9547-3194078b2f63"},"vehicle_type_id":"4","last_reported":1731794847,"current_range_meters":20800,"station_id":"ce4bh3p2rcd13ifvqdq0","pricing_plan_id":"cebpf4jnsgd1na2vs0mg"},{"bike_id":"0672d165-d197-4474-bbec-2df95543fd2f","system_id":"levelo_inurba_marseille","lat":43.29895,"lon":5.436819,"is_reserved":false,"is_disabled":false,"rental_uris":{"android":"levelo://app?vid=0672d165-d197-4474-bbec-2df95543fd2f","ios":"levelo://app?vid=0672d165-d197-4474-bbec-2df95543fd2f"},"vehicle_type_id":"4","last_reported":1731794847,"current_range_meters":10000,"station_id":"ce4bhpp2rcd13ifvqhfg","pricing_plan_id":"cebpf4jnsgd1na2vs0mg"},{"bike_id":"d9d8a7d9-cde4-4fab-ab69-fcee8fe6a6da","system_id":"levelo_inurba_marseille","lat":43.250249,"lon":5.389014,"is_reserved":false,"is_disabled":false,"rental_uris":{"android":"levelo://app?vid=d9d8a7d9-cde4-4fab-ab69-fcee8fe6a6da","ios":"levelo://app?vid=d9d8a7d9-cde4-4fab-ab69-fcee8fe6a6da"},"vehicle_type_id":"4","last_reported":1731794847,"current_range_meters":11200,"station_id":"ce4bhgp2rcd13ifvqfd0","pricing_plan_id":"cebpf4jnsgd1na2vs0mg"},{"bike_id":"083dbee0-0e04-4a5e-93ff-4f8789a778b7","system_id":"levelo_inurba_marseille","lat":43.22937,"lon":5.35377,"is_reserved":false,"is_disabled":false,"rental_uris":{"android":"levelo://app?vid=083dbee0-0e04-4a5e-93ff-4f8789a778b7","ios":"levelo://app?vid=083dbee0-0e04-4a5e-93ff-4f8789a778b7"},"vehicle_type_id":"4","last_reported":1731794847,"current_range_meters":38800,"station_id":"cpo3532slgdg3j2ikp40","pricing_plan_id":"cebpf4jnsgd1na2vs0mg"},{"bike_id":"46ae7776-05b5-4e01-b4d5-a7b5b7f8ed14","system_id":"levelo_inurba_marseille","lat":43.28042,"lon":5.36959,"is_reserved":false,"is_disabled":false,"rental_uris":{"android":"levelo://app?vid=46ae7776-05b5-4e01-b4d5-a7b5b7f8ed14","ios":"levelo://app?vid=46ae7776-05b5-4e01-b4d5-a7b5b7f8ed14"},"vehicle_type_id":"4","last_reported":1731794847,"current_range_meters":3200,"station_id":"ce4bha12rcd13ifvqef0","pricing_plan_id":"cebpf4jnsgd1na2vs0mg"},{"bike_id":"fa4d3d6b-2f22-40c0-b10a-f7a96055bc74","system_id":"levelo_inurba_marseille","lat":43.28705,"lon":5.37388,"is_reserved":false,"is_disabled":false,"rental_uris":{"android":"levelo://app?vid=fa4d3d6b-2f22-40c0-b10a-f7a96055bc74","ios":"levelo://app?vid=fa4d3d6b-2f22-40c0-b10a-f7a96055bc74"},"vehicle_type_id":"4","last_reported":1731794847,"current_range_meters":38800,"station_id":"ce4bh3p2rcd13ifvqdq0","pricing_plan_id":"cebpf4jnsgd1na2vs0mg"},{"bike_id":"b361c1fc-f63b-4883-ac7d-1a695da9acca","system_id":"levelo_inurba_marseille","lat":43.2418,"lon":5.39729,"is_reserved":false,"is_disabled":false,"rental_uris":{"android":"levelo://app?vid=b361c1fc-f63b-4883-ac7d-1a695da9acca","ios":"levelo://app?vid=b361c1fc-f63b-4883-ac7d-1a695da9acca"},"vehicle_type_id":"4","last_reported":1731794847,"current_range_meters":36400,"station_id":"ce4bhn12rcd13ifvqgpg","pricing_plan_id":"cebpf4jnsgd1na2vs0mg"},{"bike_id":"4c167bc3-2964-4625-adc0-c92e539ad80f","system_id":"levelo_inurba_marseille","lat":43.28298,"lon":5.40798,"is_reserved":false,"is_disabled":false,"rental_uris":{"android":"levelo://app?vid=4c167bc3-2964-4625-adc0-c92e539ad80f","ios":"levelo://app?vid=4c167bc3-2964-4625-adc0-c92e539ad80f"},"vehicle_type_id":"4","last_reported":1731794847,"current_range_meters":37600,"station_id":"","pricing_plan_id":"cebpf4jnsgd1na2vs0mg"},{"bike_id":"55427a38-c132-414c-aa3f-10e35ee4dd0a","system_id":"levelo_inurba_marseille","lat":43.3212,"lon":5.36818,"is_reserved":false,"is_disabled":false,"rental_uris":{"android":"levelo://app?vid=55427a38-c132-414c-aa3f-10e35ee4dd0a","ios":"levelo://app?vid=55427a38-c132-414c-aa3f-10e35ee4dd0a"},"vehicle_type_id":"4","last_reported":1731794847,"current_range_meters":38800,"station_id":"","pricing_plan_id":"cebpf4jnsgd1na2vs0mg"},{"bike_id":"addde65d-338b-474e-bbcb-a31ebf5f7243","system_id":"levelo_inurba_marseille","lat":43.30915,"lon":5.368427,"is_reserved":false,"is_disabled":false,"rental_uris":{"android":"levelo://app?vid=addde65d-338b-474e-bbcb-a31ebf5f7243","ios":"levelo://app?vid=addde65d-338b-474e-bbcb-a31ebf5f7243"},"vehicle_type_id":"4","last_reported":1731794847,"current_range_meters":34800,"station_id":"ce4bgn92rcd13ifvqbvg","pricing_plan_id":"cebpf4jnsgd1na2vs0mg"},{"bike_id":"40a97675-88c7-4654-941f-612dc5d72fb0","system_id":"levelo_inurba_marseille","lat":43.31532,"lon":5.38022,"is_reserved":false,"is_disabled":false,"rental_uris":{"android":"levelo://app?vid=40a97675-88c7-4654-941f-612dc5d72fb0","ios":"levelo://app?vid=40a97675-88c7-4654-941f-612dc5d72fb0"},"vehicle_type_id":"4","last_reported":1731794847,"current_range_meters":38800,"station_id":"ce4bhsp2rcd13ifvqi50","pricing_plan_id":"cebpf4jnsgd1na2vs0mg"},{"bike_id":"6b0ea79e-cb12-4a50-9845-e4686b3cacc8","system_id":"levelo_inurba_marseille","lat":43.295751,"lon":5.399791,"is_reserved":false,"is_disabled":false,"rental_uris":{"android":"levelo://app?vid=6b0ea79e-cb12-4a50-9845-e4686b3cacc8","ios":"levelo://app?vid=6b0ea79e-cb12-4a50-9845-e4686b3cacc8"},"vehicle_type_id":"4","last_reported":1731794847,"current_range_meters":12400,"station_id":"","pricing_plan_id":"cebpf4jnsgd1na2vs0mg"},{"bike_id":"6b3b29cc-0d16-4209-baf0-d9aa368351c0","system_id":"levelo_inurba_marseille","lat":43.32558,"lon":5.41479,"is_reserved":false,"is_disabled":false,"rental_uris":{"android":"levelo://app?vid=6b3b29cc-0d16-4209-baf0-d9aa368351c0","ios":"levelo://app?vid=6b3b29cc-0d16-4209-baf0-d9aa368351c0"},"vehicle_type_id":"4","last_reported":1731794847,"current_range_meters":24800,"station_id":"ce4bhq12rcd13ifvqhhg","pricing_plan_id":"cebpf4jnsgd1na2vs0mg"},{"bike_id":"f15012ce-6680-4496-bf94-69a210141df8","system_id":"levelo_inurba_marseille","lat":43.28064,"lon":5.36972,"is_reserved":false,"is_disabled":false,"rental_uris":{"android":"levelo://app?vid=f15012ce-6680-4496-bf94-69a210141df8","ios":"levelo://app?vid=f15012ce-6680-4496-bf94-69a210141df8"},"vehicle_type_id":"4","last_reported":1731794847,"current_range_meters":30000,"station_id":"ce4bha12rcd13ifvqef0","pricing_plan_id":"cebpf4jnsgd1na2vs0mg"},{"bike_id":"72499688-a320-4333-843e-c093213a74e4","system_id":"levelo_inurba_marseille","lat":43.23061,"lon":5.35493,"is_reserved":false,"is_disabled":false,"rental_uris":{"android":"levelo://app?vid=72499688-a320-4333-843e-c093213a74e4","ios":"levelo://app?vid=72499688-a320-4333-843e-c093213a74e4"},"vehicle_type_id":"4","last_reported":1731794847,"current_range_meters":8000,"station_id":"cpo3342slgdg3j2ifvpg","pricing_plan_id":"cebpf4jnsgd1na2vs0mg"},{"bike_id":"2dbb2de1-6b20-470a-a5a8-98f709fd3897","system_id":"levelo_inurba_marseille","lat":43.25007,"lon":5.38912,"is_reserved":false,"is_disabled":false,"rental_uris":{"android":"levelo://app?vid=2dbb2de1-6b20-470a-a5a8-98f709fd3897","ios":"levelo://app?vid=2dbb2de1-6b20-470a-a5a8-98f709fd3897"},"vehicle_type_id":"4","last_reported":1731794847,"current_range_meters":28800,"station_id":"ce4bhgp2rcd13ifvqfd0","pricing_plan_id":"cebpf4jnsgd1na2vs0mg"},{"bike_id":"7cf438d8-b1d8-49cd-a040-7a7802b38a16","system_id":"levelo_inurba_marseille","lat":43.28103,"lon":5.37839,"is_reserved":false,"is_disabled":false,"rental_uris":{"android":"levelo://app?vid=7cf438d8-b1d8-49cd-a040-7a7802b38a16","ios":"levelo://app?vid=7cf438d8-b1d8-49cd-a040-7a7802b38a16"},"vehicle_type_id":"4","last_reported":1731794847,"current_range_meters":32000,"station_id":"ce4bha12rcd13ifvqee0","pricing_plan_id":"cebpf4jnsgd1na2vs0mg"},{"bike_id":"0e1d2e7a-8318-45fe-af1b-31857eb1aac8","system_id":"levelo_inurba_marseille","lat":43.23959,"lon":5.36627,"is_reserved":false,"is_disabled":false,"rental_uris":{"android":"levelo://app?vid=0e1d2e7a-8318-45fe-af1b-31857eb1aac8","ios":"levelo://app?vid=0e1d2e7a-8318-45fe-af1b-31857eb1aac8"},"vehicle_type_id":"4","last_reported":1731794847,"current_range_meters":27600,"station_id":"ce4bhi12rcd13ifvqfp0","pricing_plan_id":"cebpf4jnsgd1na2vs0mg"},{"bike_id":"6e014877-fba4-4d8a-a98c-3f4793400c5c","system_id":"levelo_inurba_marseille","lat":43.2749,"lon":5.42455,"is_reserved":false,"is_disabled":false,"rental_uris":{"android":"levelo://app?vid=6e014877-fba4-4d8a-a98c-3f4793400c5c","ios":"levelo://app?vid=6e014877-fba4-4d8a-a98c-3f4793400c5c"},"vehicle_type_id":"4","last_reported":1731794847,"current_range_meters":8400,"station_id":"ce4bhn92rcd13ifvqgrg","pricing_plan_id":"cebpf4jnsgd1na2vs0mg"},{"bike_id":"79b76398-f4aa-422b-b325-2360d07a8784","system_id":"levelo_inurba_marseille","lat":43.33727,"lon":5.39187,"is_reserved":false,"is_disabled":false,"rental_uris":{"android":"levelo://app?vid=79b76398-f4aa-422b-b325-2360d07a8784","ios":"levelo://app?vid=79b76398-f4aa-422b-b325-2360d07a8784"},"vehicle_type_id":"4","last_reported":1731794847,"current_range_meters":38400,"station_id":"ce4bhr92rcd13ifvqhsg","pricing_plan_id":"cebpf4jnsgd1na2vs0mg"},{"bike_id":"6954d931-1cf2-4337-bbd5-1c9ac3ae6e04","system_id":"levelo_inurba_marseille","lat":43.31373,"lon":5.38501,"is_reserved":false,"is_disabled":false,"rental_uris":{"android":"levelo://app?vid=6954d931-1cf2-4337-bbd5-1c9ac3ae6e04","ios":"levelo://app?vid=6954d931-1cf2-4337-bbd5-1c9ac3ae6e04"},"vehicle_type_id":"4","last_reported":1731794847,"current_range_meters":38800,"station_id":"ce4bgt92rcd13ifvqcf0","pricing_plan_id":"cebpf4jnsgd1na2vs0mg"},{"bike_id":"df47582f-0f65-41c8-b777-f058d2c34946","system_id":"levelo_inurba_marseille","lat":43.27218,"lon":5.39183,"is_reserved":false,"is_disabled":false,"rental_uris":{"android":"levelo://app?vid=df47582f-0f65-41c8-b777-f058d2c34946","ios":"levelo://app?vid=df47582f-0f65-41c8-b777-f058d2c34946"},"vehicle_type_id":"4","last_reported":1731794847,"current_range_meters":6800,"station_id":"ce4bhhp2rcd13ifvqfm0","pricing_plan_id":"cebpf4jnsgd1na2vs0mg"},{"bike_id":"efd07578-0d87-479b-a620-d02e7740eb0d","system_id":"levelo_inurba_marseille","lat":43.24391,"lon":5.37061,"is_reserved":false,"is_disabled":false,"rental_uris":{"android":"levelo://app?vid=efd07578-0d87-479b-a620-d02e7740eb0d","ios":"levelo://app?vid=efd07578-0d87-479b-a620-d02e7740eb0d"},"vehicle_type_id":"4","last_reported":1731794847,"current_range_meters":38800,"station_id":"ce4bhhh2rcd13ifvqfk0","pricing_plan_id":"cebpf4jnsgd1na2vs0mg"},{"bike_id":"b6029c3b-1cc6-42b5-9f84-ba98b58b4c08","system_id":"levelo_inurba_marseille","lat":43.26945,"lon":5.40256,"is_reserved":false,"is_disabled":false,"rental_uris":{"android":"levelo://app?vid=b6029c3b-1cc6-42b5-9f84-ba98b58b4c08","ios":"levelo://app?vid=b6029c3b-1cc6-42b5-9f84-ba98b58b4c08"},"vehicle_type_id":"4","last_reported":1731794847,"current_range_meters":9200,"station_id":"cjm6bp8fraef2m0cb0m0","pricing_plan_id":"cebpf4jnsgd1na2vs0mg"},{"bike_id":"20ee2fe6-d8c1-41a6-b78d-47ddf498b853","system_id":"levelo_inurba_marseille","lat":43.30137,"lon":5.38787,"is_reserved":false,"is_disabled":false,"rental_uris":{"android":"levelo://app?vid=20ee2fe6-d8c1-41a6-b78d-47ddf498b853","ios":"levelo://app?vid=20ee2fe6-d8c1-41a6-b78d-47ddf498b853"},"vehicle_type_id":"4","last_reported":1731794847,"current_range_meters":27200,"station_id":"ce4bghh2rcd13ifvqb60","pricing_plan_id":"cebpf4jnsgd1na2vs0mg"},{"bike_id":"3fcbe528-45e3-439d-80db-ce667e24fe73","system_id":"levelo_inurba_marseille","lat":43.23059,"lon":5.35494,"is_reserved":false,"is_disabled":false,"rental_uris":{"android":"levelo://app?vid=3fcbe528-45e3-439d-80db-ce667e24fe73","ios":"levelo://app?vid=3fcbe528-45e3-439d-80db-ce667e24fe73"},"vehicle_type_id":"4","last_reported":1731794847,"current_range_meters":19600,"station_id":"cpo3342slgdg3j2ifvpg","pricing_plan_id":"cebpf4jnsgd1na2vs0mg"},{"bike_id":"43c36af0-c13f-42b5-8251-cc08a78635b2","system_id":"levelo_inurba_marseille","lat":43.31172,"lon":5.38723,"is_reserved":false,"is_disabled":false,"rental_uris":{"android":"levelo://app?vid=43c36af0-c13f-42b5-8251-cc08a78635b2","ios":"levelo://app?vid=43c36af0-c13f-42b5-8251-cc08a78635b2"},"vehicle_type_id":"4","last_reported":1731794847,"current_range_meters":23200,"station_id":"ce4bgv12rcd13ifvqcp0","pricing_plan_id":"cebpf4jnsgd1na2vs0mg"},{"bike_id":"b2f45d15-d036-4f36-a361-a492e289342e","system_id":"levelo_inurba_marseille","lat":43.2292,"lon":5.35385,"is_reserved":false,"is_disabled":false,"rental_uris":{"android":"levelo://app?vid=b2f45d15-d036-4f36-a361-a492e289342e","ios":"levelo://app?vid=b2f45d15-d036-4f36-a361-a492e289342e"},"vehicle_type_id":"4","last_reported":1731794847,"current_range_meters":37600,"station_id":"cpo3532slgdg3j2ikp40","pricing_plan_id":"cebpf4jnsgd1na2vs0mg"},{"bike_id":"8c113686-d856-4393-a409-d8ad21856f3b","system_id":"levelo_inurba_marseille","lat":43.29978,"lon":5.38489,"is_reserved":false,"is_disabled":false,"rental_uris":{"android":"levelo://app?vid=8c113686-d856-4393-a409-d8ad21856f3b","ios":"levelo://app?vid=8c113686-d856-4393-a409-d8ad21856f3b"},"vehicle_type_id":"4","last_reported":1731794847,"current_range_meters":7200,"station_id":"ce4bgj92rcd13ifvqbd0","pricing_plan_id":"cebpf4jnsgd1na2vs0mg"},{"bike_id":"db0085fb-8c79-4ddd-9c9c-5f619ed839e1","system_id":"levelo_inurba_marseille","lat":43.27623,"lon":5.36114,"is_reserved":false,"is_disabled":false,"rental_uris":{"android":"levelo://app?vid=db0085fb-8c79-4ddd-9c9c-5f619ed839e1","ios":"levelo://app?vid=db0085fb-8c79-4ddd-9c9c-5f619ed839e1"},"vehicle_type_id":"4","last_reported":1731794847,"current_range_meters":35600,"station_id":"ce4bgj92rcd13ifvqbe0","pricing_plan_id":"cebpf4jnsgd1na2vs0mg"},{"bike_id":"81b4aa9c-93d6-46a0-b3f3-133d7dfa2b4e","system_id":"levelo_inurba_marseille","lat":43.24809,"lon":5.3746,"is_reserved":false,"is_disabled":false,"rental_uris":{"android":"levelo://app?vid=81b4aa9c-93d6-46a0-b3f3-133d7dfa2b4e","ios":"levelo://app?vid=81b4aa9c-93d6-46a0-b3f3-133d7dfa2b4e"},"vehicle_type_id":"4","last_reported":1731794847,"current_range_meters":38800,"station_id":"ce4bhgh2rcd13ifvqfb0","pricing_plan_id":"cebpf4jnsgd1na2vs0mg"},{"bike_id":"6d6a0dde-c067-4493-bad2-5ee0d9b9474d","system_id":"levelo_inurba_marseille","lat":43.29304,"lon":5.37486,"is_reserved":false,"is_disabled":false,"rental_uris":{"android":"levelo://app?vid=6d6a0dde-c067-4493-bad2-5ee0d9b9474d","ios":"levelo://app?vid=6d6a0dde-c067-4493-bad2-5ee0d9b9474d"},"vehicle_type_id":"4","last_reported":1731794847,"current_range_meters":34000,"station_id":"ce4bgi12rcd13ifvqb70","pricing_plan_id":"cebpf4jnsgd1na2vs0mg"},{"bike_id":"7761c108-d771-4541-891e-8b1bb868bea3","system_id":"levelo_inurba_marseille","lat":43.31321,"lon":5.39694,"is_reserved":false,"is_disabled":false,"rental_uris":{"android":"levelo://app?vid=7761c108-d771-4541-891e-8b1bb868bea3","ios":"levelo://app?vid=7761c108-d771-4541-891e-8b1bb868bea3"},"vehicle_type_id":"4","last_reported":1731794847,"current_range_meters":26800,"station_id":"ce4bgvp2rcd13ifvqcu0","pricing_plan_id":"cebpf4jnsgd1na2vs0mg"},{"bike_id":"17c1da7f-753a-419e-b420-c5c13659a37e","system_id":"levelo_inurba_marseille","lat":43.31993,"lon":5.38157,"is_reserved":false,"is_disabled":false,"rental_uris":{"android":"levelo://app?vid=17c1da7f-753a-419e-b420-c5c13659a37e","ios":"levelo://app?vid=17c1da7f-753a-419e-b420-c5c13659a37e"},"vehicle_type_id":"4","last_reported":1731794847,"current_range_meters":12400,"station_id":"ce4bhr12rcd13ifvqhpg","pricing_plan_id":"cebpf4jnsgd1na2vs0mg"},{"bike_id":"b128a8d7-7942-4d37-9966-cfc17584ff0d","system_id":"levelo_inurba_marseille","lat":43.28063,"lon":5.40775,"is_reserved":false,"is_disabled":false,"rental_uris":{"android":"levelo://app?vid=b128a8d7-7942-4d37-9966-cfc17584ff0d","ios":"levelo://app?vid=b128a8d7-7942-4d37-9966-cfc17584ff0d"},"vehicle_type_id":"4","last_reported":1731794847,"current_range_meters":17600,"station_id":"","pricing_plan_id":"cebpf4jnsgd1na2vs0mg"},{"bike_id":"76115c9c-6a69-4b90-85b6-7213cbed9156","system_id":"levelo_inurba_marseille","lat":43.31166,"lon":5.38715,"is_reserved":false,"is_disabled":false,"rental_uris":{"android":"levelo://app?vid=76115c9c-6a69-4b90-85b6-7213cbed9156","ios":"levelo://app?vid=76115c9c-6a69-4b90-85b6-7213cbed9156"},"vehicle_type_id":"4","last_reported":1731794847,"current_range_meters":12000,"station_id":"ce4bgv12rcd13ifvqcp0","pricing_plan_id":"cebpf4jnsgd1na2vs0mg"},{"bike_id":"33a0d132-328f-4bb3-946d-7d1f272bb6c0","system_id":"levelo_inurba_marseille","lat":43.30887,"lon":5.37196,"is_reserved":false,"is_disabled":false,"rental_uris":{"android":"levelo://app?vid=33a0d132-328f-4bb3-946d-7d1f272bb6c0","ios":"levelo://app?vid=33a0d132-328f-4bb3-946d-7d1f272bb6c0"},"vehicle_type_id":"4","last_reported":1731794847,"current_range_meters":24800,"station_id":"ce4bguh2rcd13ifvqckg","pricing_plan_id":"cebpf4jnsgd1na2vs0mg"},{"bike_id":"f5cb94bf-6f05-456d-aefe-ebbc3c4e89e9","system_id":"levelo_inurba_marseille","lat":43.2956,"lon":5.42293,"is_reserved":false,"is_disabled":false,"rental_uris":{"android":"levelo://app?vid=f5cb94bf-6f05-456d-aefe-ebbc3c4e89e9","ios":"levelo://app?vid=f5cb94bf-6f05-456d-aefe-ebbc3c4e89e9"},"vehicle_type_id":"4","last_reported":1731794847,"current_range_meters":8000,"station_id":"ce4bhph2rcd13ifvqhdg","pricing_plan_id":"cebpf4jnsgd1na2vs0mg"},{"bike_id":"0d090cbd-7bd8-48ce-96b4-17fa666688e1","system_id":"levelo_inurba_marseille","lat":43.34147,"lon":5.40909,"is_reserved":false,"is_disabled":false,"rental_uris":{"android":"levelo://app?vid=0d090cbd-7bd8-48ce-96b4-17fa666688e1","ios":"levelo://app?vid=0d090cbd-7bd8-48ce-96b4-17fa666688e1"},"vehicle_type_id":"4","last_reported":1731794847,"current_range_meters":28400,"station_id":"ce4bhqh2rcd13ifvqhlg","pricing_plan_id":"cebpf4jnsgd1na2vs0mg"},{"bike_id":"5f4fcc2a-041d-4ee6-ad12-6841b42ade09","system_id":"levelo_inurba_marseille","lat":43.29723,"lon":5.36606,"is_reserved":false,"is_disabled":false,"rental_uris":{"android":"levelo://app?vid=5f4fcc2a-041d-4ee6-ad12-6841b42ade09","ios":"levelo://app?vid=5f4fcc2a-041d-4ee6-ad12-6841b42ade09"},"vehicle_type_id":"4","last_reported":1731794847,"current_range_meters":38800,"station_id":"ce4bgn12rcd13ifvqbt0","pricing_plan_id":"cebpf4jnsgd1na2vs0mg"},{"bike_id":"e8143c0e-8661-464c-9059-125c96f3bb9d","system_id":"levelo_inurba_marseille","lat":43.29031,"lon":5.38659,"is_reserved":false,"is_disabled":false,"rental_uris":{"android":"levelo://app?vid=e8143c0e-8661-464c-9059-125c96f3bb9d","ios":"levelo://app?vid=e8143c0e-8661-464c-9059-125c96f3bb9d"},"vehicle_type_id":"4","last_reported":1731794847,"current_range_meters":32400,"station_id":"ce4bh4p2rcd13ifvqe0g","pricing_plan_id":"cebpf4jnsgd1na2vs0mg"},{"bike_id":"0b580216-b07f-4821-a19d-686462be0488","system_id":"levelo_inurba_marseille","lat":43.2293,"lon":5.35381,"is_reserved":false,"is_disabled":false,"rental_uris":{"android":"levelo://app?vid=0b580216-b07f-4821-a19d-686462be0488","ios":"levelo://app?vid=0b580216-b07f-4821-a19d-686462be0488"},"vehicle_type_id":"4","last_reported":1731794847,"current_range_meters":38000,"station_id":"cpo3532slgdg3j2ikp40","pricing_plan_id":"cebpf4jnsgd1na2vs0mg"},{"bike_id":"8ec12441-0a09-48b5-9b60-4ec15c08e11c","system_id":"levelo_inurba_marseille","lat":43.23198,"lon":5.39972,"is_reserved":false,"is_disabled":false,"rental_uris":{"android":"levelo://app?vid=8ec12441-0a09-48b5-9b60-4ec15c08e11c","ios":"levelo://app?vid=8ec12441-0a09-48b5-9b60-4ec15c08e11c"},"vehicle_type_id":"4","last_reported":1731794847,"current_range_meters":11600,"station_id":"ce4bhn12rcd13ifvqgqg","pricing_plan_id":"cebpf4jnsgd1na2vs0mg"},{"bike_id":"dc148b60-efee-45c2-af1f-26a46263cd7d","system_id":"levelo_inurba_marseille","lat":43.29833,"lon":5.36252,"is_reserved":false,"is_disabled":false,"rental_uris":{"android":"levelo://app?vid=dc148b60-efee-45c2-af1f-26a46263cd7d","ios":"levelo://app?vid=dc148b60-efee-45c2-af1f-26a46263cd7d"},"vehicle_type_id":"4","last_reported":1731794847,"current_range_meters":30000,"station_id":"ce4bgpp2rcd13ifvqc3g","pricing_plan_id":"cebpf4jnsgd1na2vs0mg"},{"bike_id":"27e12b8e-c7c8-4db8-b9ab-f7656582137d","system_id":"levelo_inurba_marseille","lat":43.28273,"lon":5.3507,"is_reserved":false,"is_disabled":false,"rental_uris":{"android":"levelo://app?vid=27e12b8e-c7c8-4db8-b9ab-f7656582137d","ios":"levelo://app?vid=27e12b8e-c7c8-4db8-b9ab-f7656582137d"},"vehicle_type_id":"4","last_reported":1731794847,"current_range_meters":8000,"station_id":"ce4bhbp2rcd13ifvqerg","pricing_plan_id":"cebpf4jnsgd1na2vs0mg"},{"bike_id":"4138345b-cc1d-40b0-8916-e8013770729a","system_id":"levelo_inurba_marseille","lat":43.2465,"lon":5.38887,"is_reserved":false,"is_disabled":false,"rental_uris":{"android":"levelo://app?vid=4138345b-cc1d-40b0-8916-e8013770729a","ios":"levelo://app?vid=4138345b-cc1d-40b0-8916-e8013770729a"},"vehicle_type_id":"4","last_reported":1731794847,"current_range_meters":38400,"station_id":"ce4bhg12rcd13ifvqf60","pricing_plan_id":"cebpf4jnsgd1na2vs0mg"},{"bike_id":"dd43d69f-9afa-40e9-be53-1e91b14089f5","system_id":"levelo_inurba_marseille","lat":43.28474,"lon":5.38412,"is_reserved":false,"is_disabled":false,"rental_uris":{"android":"levelo://app?vid=dd43d69f-9afa-40e9-be53-1e91b14089f5","ios":"levelo://app?vid=dd43d69f-9afa-40e9-be53-1e91b14089f5"},"vehicle_type_id":"4","last_reported":1731794847,"current_range_meters":28000,"station_id":"ce4bh512rcd13ifvqe3g","pricing_plan_id":"cebpf4jnsgd1na2vs0mg"},{"bike_id":"79c75216-d7e3-41e7-a669-13e9b0afb65c","system_id":"levelo_inurba_marseille","lat":43.28467,"lon":5.35897,"is_reserved":false,"is_disabled":false,"rental_uris":{"android":"levelo://app?vid=79c75216-d7e3-41e7-a669-13e9b0afb65c","ios":"levelo://app?vid=79c75216-d7e3-41e7-a669-13e9b0afb65c"},"vehicle_type_id":"4","last_reported":1731794847,"current_range_meters":17600,"station_id":"ce4bhah2rcd13ifvqei0","pricing_plan_id":"cebpf4jnsgd1na2vs0mg"},{"bike_id":"9c16e19f-b952-452f-b4fc-f2aa9d923631","system_id":"levelo_inurba_marseille","lat":43.31534,"lon":5.38021,"is_reserved":false,"is_disabled":false,"rental_uris":{"android":"levelo://app?vid=9c16e19f-b952-452f-b4fc-f2aa9d923631","ios":"levelo://app?vid=9c16e19f-b952-452f-b4fc-f2aa9d923631"},"vehicle_type_id":"4","last_reported":1731794847,"current_range_meters":38800,"station_id":"ce4bhsp2rcd13ifvqi50","pricing_plan_id":"cebpf4jnsgd1na2vs0mg"},{"bike_id":"ca8542a7-392d-4521-8203-879c6d07ae3f","system_id":"levelo_inurba_marseille","lat":43.3081,"lon":5.37013,"is_reserved":false,"is_disabled":false,"rental_uris":{"android":"levelo://app?vid=ca8542a7-392d-4521-8203-879c6d07ae3f","ios":"levelo://app?vid=ca8542a7-392d-4521-8203-879c6d07ae3f"},"vehicle_type_id":"4","last_reported":1731794847,"current_range_meters":32000,"station_id":"","pricing_plan_id":"cebpf4jnsgd1na2vs0mg"},{"bike_id":"bae81943-f1eb-4f58-8fe3-254cd012d472","system_id":"levelo_inurba_marseille","lat":43.25488,"lon":5.37647,"is_reserved":false,"is_disabled":false,"rental_uris":{"android":"levelo://app?vid=bae81943-f1eb-4f58-8fe3-254cd012d472","ios":"levelo://app?vid=bae81943-f1eb-4f58-8fe3-254cd012d472"},"vehicle_type_id":"4","last_reported":1731794847,"current_range_meters":38400,"station_id":"ce4bhh12rcd13ifvqff0","pricing_plan_id":"cebpf4jnsgd1na2vs0mg"},{"bike_id":"11f34f82-e38f-41da-978e-027f6b26b077","system_id":"levelo_inurba_marseille","lat":43.31483,"lon":5.37299,"is_reserved":false,"is_disabled":false,"rental_uris":{"android":"levelo://app?vid=11f34f82-e38f-41da-978e-027f6b26b077","ios":"levelo://app?vid=11f34f82-e38f-41da-978e-027f6b26b077"},"vehicle_type_id":"4","last_reported":1731794847,"current_range_meters":38800,"station_id":"ce4bgt12rcd13ifvqcd0","pricing_plan_id":"cebpf4jnsgd1na2vs0mg"},{"bike_id":"87119aad-ad8b-4504-8d03-d8d8d5751481","system_id":"levelo_inurba_marseille","lat":43.27915,"lon":5.41216,"is_reserved":false,"is_disabled":false,"rental_uris":{"android":"levelo://app?vid=87119aad-ad8b-4504-8d03-d8d8d5751481","ios":"levelo://app?vid=87119aad-ad8b-4504-8d03-d8d8d5751481"},"vehicle_type_id":"4","last_reported":1731794847,"current_range_meters":26000,"station_id":"","pricing_plan_id":"cebpf4jnsgd1na2vs0mg"},{"bike_id":"ba57f1ef-3fbb-4816-9e62-2e0737689f5e","system_id":"levelo_inurba_marseille","lat":43.3361,"lon":5.41035,"is_reserved":false,"is_disabled":false,"rental_uris":{"android":"levelo://app?vid=ba57f1ef-3fbb-4816-9e62-2e0737689f5e","ios":"levelo://app?vid=ba57f1ef-3fbb-4816-9e62-2e0737689f5e"},"vehicle_type_id":"4","last_reported":1731794847,"current_range_meters":38000,"station_id":"ce4bhqh2rcd13ifvqhmg","pricing_plan_id":"cebpf4jnsgd1na2vs0mg"},{"bike_id":"d0f41db2-5ef1-497c-893a-cd42bc49abfe","system_id":"levelo_inurba_marseille","lat":43.29457,"lon":5.38814,"is_reserved":false,"is_disabled":false,"rental_uris":{"android":"levelo://app?vid=d0f41db2-5ef1-497c-893a-cd42bc49abfe","ios":"levelo://app?vid=d0f41db2-5ef1-497c-893a-cd42bc49abfe"},"vehicle_type_id":"4","last_reported":1731794847,"current_range_meters":2800,"station_id":"","pricing_plan_id":"cebpf4jnsgd1na2vs0mg"},{"bike_id":"461b8f01-20f2-4b5b-be2f-179315653034","system_id":"levelo_inurba_marseille","lat":43.27071,"lon":5.42277,"is_reserved":false,"is_disabled":false,"rental_uris":{"android":"levelo://app?vid=461b8f01-20f2-4b5b-be2f-179315653034","ios":"levelo://app?vid=461b8f01-20f2-4b5b-be2f-179315653034"},"vehicle_type_id":"4","last_reported":1731794847,"current_range_meters":32000,"station_id":"ce4bhk92rcd13ifvqgb0","pricing_plan_id":"cebpf4jnsgd1na2vs0mg"},{"bike_id":"df224c69-5a43-4fd1-8307-db3393b5b5c0","system_id":"levelo_inurba_marseille","lat":43.31544,"lon":5.38019,"is_reserved":false,"is_disabled":false,"rental_uris":{"android":"levelo://app?vid=df224c69-5a43-4fd1-8307-db3393b5b5c0","ios":"levelo://app?vid=df224c69-5a43-4fd1-8307-db3393b5b5c0"},"vehicle_type_id":"4","last_reported":1731794847,"current_range_meters":4800,"station_id":"ce4bhsp2rcd13ifvqi50","pricing_plan_id":"cebpf4jnsgd1na2vs0mg"},{"bike_id":"3361414f-d1c9-4b52-abe5-f2b586dff41e","system_id":"levelo_inurba_marseille","lat":43.28573,"lon":5.39493,"is_reserved":false,"is_disabled":false,"rental_uris":{"android":"levelo://app?vid=3361414f-d1c9-4b52-abe5-f2b586dff41e","ios":"levelo://app?vid=3361414f-d1c9-4b52-abe5-f2b586dff41e"},"vehicle_type_id":"4","last_reported":1731794847,"current_range_meters":38000,"station_id":"ce4bh292rcd13ifvqdg0","pricing_plan_id":"cebpf4jnsgd1na2vs0mg"},{"bike_id":"12867844-fa2a-41b2-8d74-706d4ef15909","system_id":"levelo_inurba_marseille","lat":43.33764,"lon":5.3744,"is_reserved":false,"is_disabled":false,"rental_uris":{"android":"levelo://app?vid=12867844-fa2a-41b2-8d74-706d4ef15909","ios":"levelo://app?vid=12867844-fa2a-41b2-8d74-706d4ef15909"},"vehicle_type_id":"4","last_reported":1731794847,"current_range_meters":36400,"station_id":"","pricing_plan_id":"cebpf4jnsgd1na2vs0mg"},{"bike_id":"3455c789-2e35-4152-8de0-fa613ba872df","system_id":"levelo_inurba_marseille","lat":43.32363,"lon":5.38883,"is_reserved":false,"is_disabled":false,"rental_uris":{"android":"levelo://app?vid=3455c789-2e35-4152-8de0-fa613ba872df","ios":"levelo://app?vid=3455c789-2e35-4152-8de0-fa613ba872df"},"vehicle_type_id":"4","last_reported":1731794847,"current_range_meters":36400,"station_id":"ce4bhqp2rcd13ifvqhog","pricing_plan_id":"cebpf4jnsgd1na2vs0mg"},{"bike_id":"0f94c962-6bca-4904-9b9e-b573544d963c","system_id":"levelo_inurba_marseille","lat":43.27618,"lon":5.36112,"is_reserved":false,"is_disabled":false,"rental_uris":{"android":"levelo://app?vid=0f94c962-6bca-4904-9b9e-b573544d963c","ios":"levelo://app?vid=0f94c962-6bca-4904-9b9e-b573544d963c"},"vehicle_type_id":"4","last_reported":1731794847,"current_range_meters":4000,"station_id":"ce4bgj92rcd13ifvqbe0","pricing_plan_id":"cebpf4jnsgd1na2vs0mg"},{"bike_id":"fe734cae-2bee-46e8-b56e-e78538f27304","system_id":"levelo_inurba_marseille","lat":43.31175,"lon":5.38707,"is_reserved":false,"is_disabled":false,"rental_uris":{"android":"levelo://app?vid=fe734cae-2bee-46e8-b56e-e78538f27304","ios":"levelo://app?vid=fe734cae-2bee-46e8-b56e-e78538f27304"},"vehicle_type_id":"4","last_reported":1731794847,"current_range_meters":39200,"station_id":"ce4bgv12rcd13ifvqcp0","pricing_plan_id":"cebpf4jnsgd1na2vs0mg"},{"bike_id":"93029be8-c148-40c6-a98e-a5d31e4e4fd0","system_id":"levelo_inurba_marseille","lat":43.28352,"lon":5.38097,"is_reserved":false,"is_disabled":false,"rental_uris":{"android":"levelo://app?vid=93029be8-c148-40c6-a98e-a5d31e4e4fd0","ios":"levelo://app?vid=93029be8-c148-40c6-a98e-a5d31e4e4fd0"},"vehicle_type_id":"4","last_reported":1731794847,"current_range_meters":27200,"station_id":"ce4bh412rcd13ifvqdr0","pricing_plan_id":"cebpf4jnsgd1na2vs0mg"},{"bike_id":"413ed430-efa5-4149-92d9-9407d7eab0f6","system_id":"levelo_inurba_marseille","lat":43.292694,"lon":5.384384,"is_reserved":false,"is_disabled":false,"rental_uris":{"android":"levelo://app?vid=413ed430-efa5-4149-92d9-9407d7eab0f6","ios":"levelo://app?vid=413ed430-efa5-4149-92d9-9407d7eab0f6"},"vehicle_type_id":"4","last_reported":1731794847,"current_range_meters":11600,"station_id":"ce4bhap2rcd13ifvqek0","pricing_plan_id":"cebpf4jnsgd1na2vs0mg"},{"bike_id":"2a141a32-dc78-4ae0-9359-e278afd77178","system_id":"levelo_inurba_marseille","lat":43.28855,"lon":5.39314,"is_reserved":false,"is_disabled":false,"rental_uris":{"android":"levelo://app?vid=2a141a32-dc78-4ae0-9359-e278afd77178","ios":"levelo://app?vid=2a141a32-dc78-4ae0-9359-e278afd77178"},"vehicle_type_id":"4","last_reported":1731794847,"current_range_meters":8800,"station_id":"ce4bh2p2rcd13ifvqdi0","pricing_plan_id":"cebpf4jnsgd1na2vs0mg"},{"bike_id":"89dddfc4-ec44-4327-b3aa-c350546d94f0","system_id":"levelo_inurba_marseille","lat":43.24814,"lon":5.3746,"is_reserved":false,"is_disabled":false,"rental_uris":{"android":"levelo://app?vid=89dddfc4-ec44-4327-b3aa-c350546d94f0","ios":"levelo://app?vid=89dddfc4-ec44-4327-b3aa-c350546d94f0"},"vehicle_type_id":"4","last_reported":1731794847,"current_range_meters":38800,"station_id":"ce4bhgh2rcd13ifvqfb0","pricing_plan_id":"cebpf4jnsgd1na2vs0mg"},{"bike_id":"668faf26-2673-4d88-b155-60e4c335055b","system_id":"levelo_inurba_marseille","lat":43.29636,"lon":5.40599,"is_reserved":false,"is_disabled":false,"rental_uris":{"android":"levelo://app?vid=668faf26-2673-4d88-b155-60e4c335055b","ios":"levelo://app?vid=668faf26-2673-4d88-b155-60e4c335055b"},"vehicle_type_id":"4","last_reported":1731794847,"current_range_meters":28800,"station_id":"ce4bh0h2rcd13ifvqd60","pricing_plan_id":"cebpf4jnsgd1na2vs0mg"},{"bike_id":"197019d9-cb9a-40a3-8d0d-41e308275835","system_id":"levelo_inurba_marseille","lat":43.27812,"lon":5.4071,"is_reserved":false,"is_disabled":false,"rental_uris":{"android":"levelo://app?vid=197019d9-cb9a-40a3-8d0d-41e308275835","ios":"levelo://app?vid=197019d9-cb9a-40a3-8d0d-41e308275835"},"vehicle_type_id":"4","last_reported":1731794847,"current_range_meters":19600,"station_id":"ce4bhnh2rcd13ifvqgtg","pricing_plan_id":"cebpf4jnsgd1na2vs0mg"},{"bike_id":"6b76da8b-8346-4b5f-a49b-cdde5bffd08b","system_id":"levelo_inurba_marseille","lat":43.27813,"lon":5.40718,"is_reserved":false,"is_disabled":false,"rental_uris":{"android":"levelo://app?vid=6b76da8b-8346-4b5f-a49b-cdde5bffd08b","ios":"levelo://app?vid=6b76da8b-8346-4b5f-a49b-cdde5bffd08b"},"vehicle_type_id":"4","last_reported":1731794847,"current_range_meters":39200,"station_id":"ce4bhnh2rcd13ifvqgtg","pricing_plan_id":"cebpf4jnsgd1na2vs0mg"},{"bike_id":"29b4b37b-f701-47a6-a128-f3171ca95432","system_id":"levelo_inurba_marseille","lat":43.25813,"lon":5.39892,"is_reserved":false,"is_disabled":false,"rental_uris":{"android":"levelo://app?vid=29b4b37b-f701-47a6-a128-f3171ca95432","ios":"levelo://app?vid=29b4b37b-f701-47a6-a128-f3171ca95432"},"vehicle_type_id":"4","last_reported":1731794847,"current_range_meters":38400,"station_id":"ce4bhl92rcd13ifvqghg","pricing_plan_id":"cebpf4jnsgd1na2vs0mg"},{"bike_id":"89c1b901-2eda-4ba2-bc36-2c42a48c2a9b","system_id":"levelo_inurba_marseille","lat":43.28045,"lon":5.36947,"is_reserved":false,"is_disabled":false,"rental_uris":{"android":"levelo://app?vid=89c1b901-2eda-4ba2-bc36-2c42a48c2a9b","ios":"levelo://app?vid=89c1b901-2eda-4ba2-bc36-2c42a48c2a9b"},"vehicle_type_id":"4","last_reported":1731794847,"current_range_meters":14400,"station_id":"ce4bha12rcd13ifvqef0","pricing_plan_id":"cebpf4jnsgd1na2vs0mg"},{"bike_id":"baffc865-24a9-4285-b55a-b0850c7fb732","system_id":"levelo_inurba_marseille","lat":43.30439,"lon":5.38894,"is_reserved":false,"is_disabled":false,"rental_uris":{"android":"levelo://app?vid=baffc865-24a9-4285-b55a-b0850c7fb732","ios":"levelo://app?vid=baffc865-24a9-4285-b55a-b0850c7fb732"},"vehicle_type_id":"4","last_reported":1731794847,"current_range_meters":24800,"station_id":"ce4bgk12rcd13ifvqbi0","pricing_plan_id":"cebpf4jnsgd1na2vs0mg"},{"bike_id":"3997aca1-4804-4c65-bee8-764a9c6f2647","system_id":"levelo_inurba_marseille","lat":43.28716,"lon":5.37941,"is_reserved":false,"is_disabled":false,"rental_uris":{"android":"levelo://app?vid=3997aca1-4804-4c65-bee8-764a9c6f2647","ios":"levelo://app?vid=3997aca1-4804-4c65-bee8-764a9c6f2647"},"vehicle_type_id":"4","last_reported":1731794847,"current_range_meters":8000,"station_id":"ce4bh9p2rcd13ifvqec0","pricing_plan_id":"cebpf4jnsgd1na2vs0mg"},{"bike_id":"229a21f3-e57e-48a7-b1f1-ad0d31f9767a","system_id":"levelo_inurba_marseille","lat":43.24668,"lon":5.38164,"is_reserved":false,"is_disabled":false,"rental_uris":{"android":"levelo://app?vid=229a21f3-e57e-48a7-b1f1-ad0d31f9767a","ios":"levelo://app?vid=229a21f3-e57e-48a7-b1f1-ad0d31f9767a"},"vehicle_type_id":"4","last_reported":1731794847,"current_range_meters":8400,"station_id":"ce4bhih2rcd13ifvqfr0","pricing_plan_id":"cebpf4jnsgd1na2vs0mg"},{"bike_id":"55de90ef-93bb-4b4c-873e-c1124968a95d","system_id":"levelo_inurba_marseille","lat":43.28617,"lon":5.35111,"is_reserved":false,"is_disabled":false,"rental_uris":{"android":"levelo://app?vid=55de90ef-93bb-4b4c-873e-c1124968a95d","ios":"levelo://app?vid=55de90ef-93bb-4b4c-873e-c1124968a95d"},"vehicle_type_id":"4","last_reported":1731794847,"current_range_meters":36800,"station_id":"ce4bhch2rcd13ifvqeug","pricing_plan_id":"cebpf4jnsgd1na2vs0mg"},{"bike_id":"c3c6f875-7904-4757-afa3-103210a4ebfe","system_id":"levelo_inurba_marseille","lat":43.292664,"lon":5.384338,"is_reserved":false,"is_disabled":false,"rental_uris":{"android":"levelo://app?vid=c3c6f875-7904-4757-afa3-103210a4ebfe","ios":"levelo://app?vid=c3c6f875-7904-4757-afa3-103210a4ebfe"},"vehicle_type_id":"4","last_reported":1731794847,"current_range_meters":38800,"station_id":"ce4bh692rcd13ifvqea0","pricing_plan_id":"cebpf4jnsgd1na2vs0mg"},{"bike_id":"a005df12-ce78-479e-9f94-804652961b37","system_id":"levelo_inurba_marseille","lat":43.27815,"lon":5.40719,"is_reserved":false,"is_disabled":false,"rental_uris":{"android":"levelo://app?vid=a005df12-ce78-479e-9f94-804652961b37","ios":"levelo://app?vid=a005df12-ce78-479e-9f94-804652961b37"},"vehicle_type_id":"4","last_reported":1731794847,"current_range_meters":33600,"station_id":"ce4bhnh2rcd13ifvqgtg","pricing_plan_id":"cebpf4jnsgd1na2vs0mg"},{"bike_id":"aac4a11e-78b9-47b9-a707-f636758c0e68","system_id":"levelo_inurba_marseille","lat":43.32111,"lon":5.36779,"is_reserved":false,"is_disabled":false,"rental_uris":{"android":"levelo://app?vid=aac4a11e-78b9-47b9-a707-f636758c0e68","ios":"levelo://app?vid=aac4a11e-78b9-47b9-a707-f636758c0e68"},"vehicle_type_id":"4","last_reported":1731794847,"current_range_meters":35200,"station_id":"ce4bhrh2rcd13ifvqhug","pricing_plan_id":"cebpf4jnsgd1na2vs0mg"},{"bike_id":"dad4fc99-7834-472f-beb3-94813371314e","system_id":"levelo_inurba_marseille","lat":43.307175,"lon":5.372838,"is_reserved":false,"is_disabled":false,"rental_uris":{"android":"levelo://app?vid=dad4fc99-7834-472f-beb3-94813371314e","ios":"levelo://app?vid=dad4fc99-7834-472f-beb3-94813371314e"},"vehicle_type_id":"4","last_reported":1731794847,"current_range_meters":28400,"station_id":"ce4bguh2rcd13ifvqckg","pricing_plan_id":"cebpf4jnsgd1na2vs0mg"},{"bike_id":"7fafd95f-8b28-45bd-928d-344fdd0f7435","system_id":"levelo_inurba_marseille","lat":43.29978,"lon":5.38493,"is_reserved":false,"is_disabled":false,"rental_uris":{"android":"levelo://app?vid=7fafd95f-8b28-45bd-928d-344fdd0f7435","ios":"levelo://app?vid=7fafd95f-8b28-45bd-928d-344fdd0f7435"},"vehicle_type_id":"4","last_reported":1731794847,"current_range_meters":31200,"station_id":"ce4bgj92rcd13ifvqbd0","pricing_plan_id":"cebpf4jnsgd1na2vs0mg"},{"bike_id":"17d081be-279e-4b11-85bb-cf9660b5133f","system_id":"levelo_inurba_marseille","lat":43.31176,"lon":5.38722,"is_reserved":false,"is_disabled":false,"rental_uris":{"android":"levelo://app?vid=17d081be-279e-4b11-85bb-cf9660b5133f","ios":"levelo://app?vid=17d081be-279e-4b11-85bb-cf9660b5133f"},"vehicle_type_id":"4","last_reported":1731794847,"current_range_meters":17200,"station_id":"ce4bgv12rcd13ifvqcp0","pricing_plan_id":"cebpf4jnsgd1na2vs0mg"},{"bike_id":"efec111c-7c0f-4ce3-a66b-ba162819fd17","system_id":"levelo_inurba_marseille","lat":43.30889,"lon":5.39657,"is_reserved":false,"is_disabled":false,"rental_uris":{"android":"levelo://app?vid=efec111c-7c0f-4ce3-a66b-ba162819fd17","ios":"levelo://app?vid=efec111c-7c0f-4ce3-a66b-ba162819fd17"},"vehicle_type_id":"4","last_reported":1731794847,"current_range_meters":32000,"station_id":"ce4bh012rcd13ifvqcv0","pricing_plan_id":"cebpf4jnsgd1na2vs0mg"},{"bike_id":"08586d67-74a4-4b66-9b20-38b225f131c4","system_id":"levelo_inurba_marseille","lat":43.24663,"lon":5.38166,"is_reserved":false,"is_disabled":false,"rental_uris":{"android":"levelo://app?vid=08586d67-74a4-4b66-9b20-38b225f131c4","ios":"levelo://app?vid=08586d67-74a4-4b66-9b20-38b225f131c4"},"vehicle_type_id":"4","last_reported":1731794847,"current_range_meters":11600,"station_id":"ce4bhih2rcd13ifvqfr0","pricing_plan_id":"cebpf4jnsgd1na2vs0mg"},{"bike_id":"22729281-a652-4d0e-9935-de91a5d586ea","system_id":"levelo_inurba_marseille","lat":43.3206,"lon":5.41515,"is_reserved":false,"is_disabled":false,"rental_uris":{"android":"levelo://app?vid=22729281-a652-4d0e-9935-de91a5d586ea","ios":"levelo://app?vid=22729281-a652-4d0e-9935-de91a5d586ea"},"vehicle_type_id":"4","last_reported":1731794847,"current_range_meters":24000,"station_id":"ce4bhq92rcd13ifvqhkg","pricing_plan_id":"cebpf4jnsgd1na2vs0mg"},{"bike_id":"9f92a7ac-738d-40f9-93b9-933c1f0ff525","system_id":"levelo_inurba_marseille","lat":43.32369,"lon":5.38885,"is_reserved":false,"is_disabled":false,"rental_uris":{"android":"levelo://app?vid=9f92a7ac-738d-40f9-93b9-933c1f0ff525","ios":"levelo://app?vid=9f92a7ac-738d-40f9-93b9-933c1f0ff525"},"vehicle_type_id":"4","last_reported":1731794847,"current_range_meters":23200,"station_id":"ce4bhqp2rcd13ifvqhog","pricing_plan_id":"cebpf4jnsgd1na2vs0mg"},{"bike_id":"eab7f27a-2130-4ef6-bc6c-a714aa4e3728","system_id":"levelo_inurba_marseille","lat":43.28709,"lon":5.39994,"is_reserved":false,"is_disabled":false,"rental_uris":{"android":"levelo://app?vid=eab7f27a-2130-4ef6-bc6c-a714aa4e3728","ios":"levelo://app?vid=eab7f27a-2130-4ef6-bc6c-a714aa4e3728"},"vehicle_type_id":"4","last_reported":1731794847,"current_range_meters":27200,"station_id":"ce4bho92rcd13ifvqh3g","pricing_plan_id":"cebpf4jnsgd1na2vs0mg"},{"bike_id":"4001dc88-a18a-43de-817c-834bee53d343","system_id":"levelo_inurba_marseille","lat":43.30206,"lon":5.39453,"is_reserved":false,"is_disabled":false,"rental_uris":{"android":"levelo://app?vid=4001dc88-a18a-43de-817c-834bee53d343","ios":"levelo://app?vid=4001dc88-a18a-43de-817c-834bee53d343"},"vehicle_type_id":"4","last_reported":1731794847,"current_range_meters":23200,"station_id":"ce4bh0p2rcd13ifvqd70","pricing_plan_id":"cebpf4jnsgd1na2vs0mg"},{"bike_id":"0701ef54-3c18-46fe-84c1-b06f086eaa16","system_id":"levelo_inurba_marseille","lat":43.23966,"lon":5.36633,"is_reserved":false,"is_disabled":false,"rental_uris":{"android":"levelo://app?vid=0701ef54-3c18-46fe-84c1-b06f086eaa16","ios":"levelo://app?vid=0701ef54-3c18-46fe-84c1-b06f086eaa16"},"vehicle_type_id":"4","last_reported":1731794847,"current_range_meters":35200,"station_id":"ce4bhi12rcd13ifvqfp0","pricing_plan_id":"cebpf4jnsgd1na2vs0mg"},{"bike_id":"0073972d-a935-4059-b97f-8dd9efd6a6bc","system_id":"levelo_inurba_marseille","lat":43.29935,"lon":5.36542,"is_reserved":false,"is_disabled":false,"rental_uris":{"android":"levelo://app?vid=0073972d-a935-4059-b97f-8dd9efd6a6bc","ios":"levelo://app?vid=0073972d-a935-4059-b97f-8dd9efd6a6bc"},"vehicle_type_id":"4","last_reported":1731794847,"current_range_meters":38000,"station_id":"ce4bgm92rcd13ifvqbr0","pricing_plan_id":"cebpf4jnsgd1na2vs0mg"},{"bike_id":"d54f2dfa-2ad2-469a-8720-163ef98eb87d","system_id":"levelo_inurba_marseille","lat":43.25129,"lon":5.39456,"is_reserved":false,"is_disabled":false,"rental_uris":{"android":"levelo://app?vid=d54f2dfa-2ad2-469a-8720-163ef98eb87d","ios":"levelo://app?vid=d54f2dfa-2ad2-469a-8720-163ef98eb87d"},"vehicle_type_id":"4","last_reported":1731794847,"current_range_meters":22000,"station_id":"ce4bhm12rcd13ifvqgkg","pricing_plan_id":"cebpf4jnsgd1na2vs0mg"},{"bike_id":"57b99ce3-236c-4dc3-99be-410305fc9c85","system_id":"levelo_inurba_marseille","lat":43.32105,"lon":5.36769,"is_reserved":false,"is_disabled":false,"rental_uris":{"android":"levelo://app?vid=57b99ce3-236c-4dc3-99be-410305fc9c85","ios":"levelo://app?vid=57b99ce3-236c-4dc3-99be-410305fc9c85"},"vehicle_type_id":"4","last_reported":1731794847,"current_range_meters":38800,"station_id":"ce4bhrh2rcd13ifvqhug","pricing_plan_id":"cebpf4jnsgd1na2vs0mg"},{"bike_id":"40131c97-5534-4979-8808-2f9e4d317ef9","system_id":"levelo_inurba_marseille","lat":43.32343,"lon":5.40621,"is_reserved":false,"is_disabled":false,"rental_uris":{"android":"levelo://app?vid=40131c97-5534-4979-8808-2f9e4d317ef9","ios":"levelo://app?vid=40131c97-5534-4979-8808-2f9e4d317ef9"},"vehicle_type_id":"4","last_reported":1731794847,"current_range_meters":10800,"station_id":"ce4bhq92rcd13ifvqhjg","pricing_plan_id":"cebpf4jnsgd1na2vs0mg"},{"bike_id":"6d757fef-4f26-43f9-ac2c-ffab39bf7dae","system_id":"levelo_inurba_marseille","lat":43.32249,"lon":5.36901,"is_reserved":false,"is_disabled":false,"rental_uris":{"android":"levelo://app?vid=6d757fef-4f26-43f9-ac2c-ffab39bf7dae","ios":"levelo://app?vid=6d757fef-4f26-43f9-ac2c-ffab39bf7dae"},"vehicle_type_id":"4","last_reported":1731794847,"current_range_meters":18000,"station_id":"","pricing_plan_id":"cebpf4jnsgd1na2vs0mg"},{"bike_id":"d61ade2d-2a62-45c7-aa0c-ad3400ec0ddf","system_id":"levelo_inurba_marseille","lat":43.29555,"lon":5.42292,"is_reserved":false,"is_disabled":false,"rental_uris":{"android":"levelo://app?vid=d61ade2d-2a62-45c7-aa0c-ad3400ec0ddf","ios":"levelo://app?vid=d61ade2d-2a62-45c7-aa0c-ad3400ec0ddf"},"vehicle_type_id":"4","last_reported":1731794847,"current_range_meters":39200,"station_id":"ce4bhph2rcd13ifvqhdg","pricing_plan_id":"cebpf4jnsgd1na2vs0mg"},{"bike_id":"f98f668e-942b-4334-901e-b2330d667117","system_id":"levelo_inurba_marseille","lat":43.2942,"lon":5.38625,"is_reserved":false,"is_disabled":false,"rental_uris":{"android":"levelo://app?vid=f98f668e-942b-4334-901e-b2330d667117","ios":"levelo://app?vid=f98f668e-942b-4334-901e-b2330d667117"},"vehicle_type_id":"4","last_reported":1731794847,"current_range_meters":2000,"station_id":"ce4bh2h2rcd13ifvqdh0","pricing_plan_id":"cebpf4jnsgd1na2vs0mg"},{"bike_id":"b7486312-624d-47b8-b49c-c97a159169b3","system_id":"levelo_inurba_marseille","lat":43.29852,"lon":5.36282,"is_reserved":false,"is_disabled":false,"rental_uris":{"android":"levelo://app?vid=b7486312-624d-47b8-b49c-c97a159169b3","ios":"levelo://app?vid=b7486312-624d-47b8-b49c-c97a159169b3"},"vehicle_type_id":"4","last_reported":1731794847,"current_range_meters":38400,"station_id":"ce4bgpp2rcd13ifvqc3g","pricing_plan_id":"cebpf4jnsgd1na2vs0mg"},{"bike_id":"1b500d2b-2e64-48f6-a85a-017aef601f16","system_id":"levelo_inurba_marseille","lat":43.29714,"lon":5.36616,"is_reserved":false,"is_disabled":false,"rental_uris":{"android":"levelo://app?vid=1b500d2b-2e64-48f6-a85a-017aef601f16","ios":"levelo://app?vid=1b500d2b-2e64-48f6-a85a-017aef601f16"},"vehicle_type_id":"4","last_reported":1731794847,"current_range_meters":38000,"station_id":"ce4bgn12rcd13ifvqbt0","pricing_plan_id":"cebpf4jnsgd1na2vs0mg"},{"bike_id":"ac8f50b0-40d9-47b2-95c0-f75aa3c61094","system_id":"levelo_inurba_marseille","lat":43.27323,"lon":5.39105,"is_reserved":false,"is_disabled":false,"rental_uris":{"android":"levelo://app?vid=ac8f50b0-40d9-47b2-95c0-f75aa3c61094","ios":"levelo://app?vid=ac8f50b0-40d9-47b2-95c0-f75aa3c61094"},"vehicle_type_id":"4","last_reported":1731794847,"current_range_meters":37600,"station_id":"ce4bhgp2rcd13ifvqfe0","pricing_plan_id":"cebpf4jnsgd1na2vs0mg"},{"bike_id":"3cb028b2-e9b4-4b5d-869e-e3723400af16","system_id":"levelo_inurba_marseille","lat":43.33024,"lon":5.39042,"is_reserved":false,"is_disabled":false,"rental_uris":{"android":"levelo://app?vid=3cb028b2-e9b4-4b5d-869e-e3723400af16","ios":"levelo://app?vid=3cb028b2-e9b4-4b5d-869e-e3723400af16"},"vehicle_type_id":"4","last_reported":1731794847,"current_range_meters":36000,"station_id":"ce4bhr92rcd13ifvqhrg","pricing_plan_id":"cebpf4jnsgd1na2vs0mg"},{"bike_id":"b49108a1-062e-40dd-bdc8-ab362f4c4076","system_id":"levelo_inurba_marseille","lat":43.29571,"lon":5.39979,"is_reserved":false,"is_disabled":false,"rental_uris":{"android":"levelo://app?vid=b49108a1-062e-40dd-bdc8-ab362f4c4076","ios":"levelo://app?vid=b49108a1-062e-40dd-bdc8-ab362f4c4076"},"vehicle_type_id":"4","last_reported":1731794847,"current_range_meters":19200,"station_id":"ce4bh312rcd13ifvqdj0","pricing_plan_id":"cebpf4jnsgd1na2vs0mg"},{"bike_id":"3463f55e-bd13-4f74-a35c-67c7e21c2348","system_id":"levelo_inurba_marseille","lat":43.28731,"lon":5.37749,"is_reserved":false,"is_disabled":false,"rental_uris":{"android":"levelo://app?vid=3463f55e-bd13-4f74-a35c-67c7e21c2348","ios":"levelo://app?vid=3463f55e-bd13-4f74-a35c-67c7e21c2348"},"vehicle_type_id":"4","last_reported":1731794847,"current_range_meters":25200,"station_id":"","pricing_plan_id":"cebpf4jnsgd1na2vs0mg"},{"bike_id":"164fbc1d-42da-4045-a100-0c0898f1f976","system_id":"levelo_inurba_marseille","lat":43.28698,"lon":5.37395,"is_reserved":false,"is_disabled":false,"rental_uris":{"android":"levelo://app?vid=164fbc1d-42da-4045-a100-0c0898f1f976","ios":"levelo://app?vid=164fbc1d-42da-4045-a100-0c0898f1f976"},"vehicle_type_id":"4","last_reported":1731794847,"current_range_meters":38000,"station_id":"ce4bh3p2rcd13ifvqdq0","pricing_plan_id":"cebpf4jnsgd1na2vs0mg"},{"bike_id":"a4e8e96c-867e-4521-9861-087b3f6c78bd","system_id":"levelo_inurba_marseille","lat":43.25003,"lon":5.38927,"is_reserved":false,"is_disabled":false,"rental_uris":{"android":"levelo://app?vid=a4e8e96c-867e-4521-9861-087b3f6c78bd","ios":"levelo://app?vid=a4e8e96c-867e-4521-9861-087b3f6c78bd"},"vehicle_type_id":"4","last_reported":1731794847,"current_range_meters":38800,"station_id":"ce4bhgp2rcd13ifvqfd0","pricing_plan_id":"cebpf4jnsgd1na2vs0mg"},{"bike_id":"1ece79d9-7ffd-41b5-a656-cdbcd837990c","system_id":"levelo_inurba_marseille","lat":43.32114,"lon":5.3679,"is_reserved":false,"is_disabled":false,"rental_uris":{"android":"levelo://app?vid=1ece79d9-7ffd-41b5-a656-cdbcd837990c","ios":"levelo://app?vid=1ece79d9-7ffd-41b5-a656-cdbcd837990c"},"vehicle_type_id":"4","last_reported":1731794847,"current_range_meters":12800,"station_id":"ce4bhrh2rcd13ifvqhug","pricing_plan_id":"cebpf4jnsgd1na2vs0mg"},{"bike_id":"34086fed-aa86-4e74-a4e7-9fb1ff2b340d","system_id":"levelo_inurba_marseille","lat":43.27186,"lon":5.40988,"is_reserved":false,"is_disabled":false,"rental_uris":{"android":"levelo://app?vid=34086fed-aa86-4e74-a4e7-9fb1ff2b340d","ios":"levelo://app?vid=34086fed-aa86-4e74-a4e7-9fb1ff2b340d"},"vehicle_type_id":"4","last_reported":1731794847,"current_range_meters":38000,"station_id":"ce4bhl12rcd13ifvqgf0","pricing_plan_id":"cebpf4jnsgd1na2vs0mg"},{"bike_id":"9b255d94-ee94-41ce-968c-16898d9f52f3","system_id":"levelo_inurba_marseille","lat":43.23968,"lon":5.3662,"is_reserved":false,"is_disabled":false,"rental_uris":{"android":"levelo://app?vid=9b255d94-ee94-41ce-968c-16898d9f52f3","ios":"levelo://app?vid=9b255d94-ee94-41ce-968c-16898d9f52f3"},"vehicle_type_id":"4","last_reported":1731794847,"current_range_meters":4000,"station_id":"ce4bhi12rcd13ifvqfp0","pricing_plan_id":"cebpf4jnsgd1na2vs0mg"},{"bike_id":"75934938-87d6-4d42-a27e-5e18539dde4f","system_id":"levelo_inurba_marseille","lat":43.29568,"lon":5.39971,"is_reserved":false,"is_disabled":false,"rental_uris":{"android":"levelo://app?vid=75934938-87d6-4d42-a27e-5e18539dde4f","ios":"levelo://app?vid=75934938-87d6-4d42-a27e-5e18539dde4f"},"vehicle_type_id":"4","last_reported":1731794847,"current_range_meters":16400,"station_id":"ce4bh312rcd13ifvqdj0","pricing_plan_id":"cebpf4jnsgd1na2vs0mg"},{"bike_id":"7bcbd630-9ec9-4664-aefe-eba5c168de12","system_id":"levelo_inurba_marseille","lat":43.24998,"lon":5.38925,"is_reserved":false,"is_disabled":false,"rental_uris":{"android":"levelo://app?vid=7bcbd630-9ec9-4664-aefe-eba5c168de12","ios":"levelo://app?vid=7bcbd630-9ec9-4664-aefe-eba5c168de12"},"vehicle_type_id":"4","last_reported":1731794847,"current_range_meters":37600,"station_id":"ce4bhbp2rcd13ifvqerg","pricing_plan_id":"cebpf4jnsgd1na2vs0mg"},{"bike_id":"4f9aec25-ebfb-43bb-9e44-97a8b551a896","system_id":"levelo_inurba_marseille","lat":43.28728,"lon":5.379517,"is_reserved":false,"is_disabled":false,"rental_uris":{"android":"levelo://app?vid=4f9aec25-ebfb-43bb-9e44-97a8b551a896","ios":"levelo://app?vid=4f9aec25-ebfb-43bb-9e44-97a8b551a896"},"vehicle_type_id":"4","last_reported":1731794847,"current_range_meters":36400,"station_id":"ce4bh9p2rcd13ifvqec0","pricing_plan_id":"cebpf4jnsgd1na2vs0mg"},{"bike_id":"d4cf1962-c4fc-4987-82ad-e066e34a5012","system_id":"levelo_inurba_marseille","lat":43.34139,"lon":5.40907,"is_reserved":false,"is_disabled":false,"rental_uris":{"android":"levelo://app?vid=d4cf1962-c4fc-4987-82ad-e066e34a5012","ios":"levelo://app?vid=d4cf1962-c4fc-4987-82ad-e066e34a5012"},"vehicle_type_id":"4","last_reported":1731794847,"current_range_meters":38000,"station_id":"ce4bhqh2rcd13ifvqhlg","pricing_plan_id":"cebpf4jnsgd1na2vs0mg"},{"bike_id":"0876f4fa-3b80-4ef8-a397-bcdc65be4124","system_id":"levelo_inurba_marseille","lat":43.29895,"lon":5.43671,"is_reserved":false,"is_disabled":false,"rental_uris":{"android":"levelo://app?vid=0876f4fa-3b80-4ef8-a397-bcdc65be4124","ios":"levelo://app?vid=0876f4fa-3b80-4ef8-a397-bcdc65be4124"},"vehicle_type_id":"4","last_reported":1731794847,"current_range_meters":38800,"station_id":"ce4bhpp2rcd13ifvqhfg","pricing_plan_id":"cebpf4jnsgd1na2vs0mg"},{"bike_id":"55de28cf-e37c-4724-b81f-8a648780c5b9","system_id":"levelo_inurba_marseille","lat":43.23194,"lon":5.35549,"is_reserved":false,"is_disabled":false,"rental_uris":{"android":"levelo://app?vid=55de28cf-e37c-4724-b81f-8a648780c5b9","ios":"levelo://app?vid=55de28cf-e37c-4724-b81f-8a648780c5b9"},"vehicle_type_id":"4","last_reported":1731794847,"current_range_meters":37600,"station_id":"ce4bhu92rcd13ifvqi70","pricing_plan_id":"cebpf4jnsgd1na2vs0mg"},{"bike_id":"510a6a8b-13b8-4198-abd3-321c378b577a","system_id":"levelo_inurba_marseille","lat":43.30121,"lon":5.38064,"is_reserved":false,"is_disabled":false,"rental_uris":{"android":"levelo://app?vid=510a6a8b-13b8-4198-abd3-321c378b577a","ios":"levelo://app?vid=510a6a8b-13b8-4198-abd3-321c378b577a"},"vehicle_type_id":"4","last_reported":1731794847,"current_range_meters":8000,"station_id":"ce4bgip2rcd13ifvqbb0","pricing_plan_id":"cebpf4jnsgd1na2vs0mg"},{"bike_id":"40b19118-895d-4b0c-8644-f05474e158d8","system_id":"levelo_inurba_marseille","lat":43.27841,"lon":5.39215,"is_reserved":false,"is_disabled":false,"rental_uris":{"android":"levelo://app?vid=40b19118-895d-4b0c-8644-f05474e158d8","ios":"levelo://app?vid=40b19118-895d-4b0c-8644-f05474e158d8"},"vehicle_type_id":"4","last_reported":1731794847,"current_range_meters":25600,"station_id":"ce4bhjp2rcd13ifvqga0","pricing_plan_id":"cebpf4jnsgd1na2vs0mg"},{"bike_id":"9fae9d1c-40b2-4d1b-ba39-617e08a33530","system_id":"levelo_inurba_marseille","lat":43.3154,"lon":5.38029,"is_reserved":false,"is_disabled":false,"rental_uris":{"android":"levelo://app?vid=9fae9d1c-40b2-4d1b-ba39-617e08a33530","ios":"levelo://app?vid=9fae9d1c-40b2-4d1b-ba39-617e08a33530"},"vehicle_type_id":"4","last_reported":1731794847,"current_range_meters":10800,"station_id":"ce4bhsp2rcd13ifvqi50","pricing_plan_id":"cebpf4jnsgd1na2vs0mg"},{"bike_id":"b79639c8-f683-439e-96da-8387beb8a08f","system_id":"levelo_inurba_marseille","lat":43.31085,"lon":5.4243,"is_reserved":false,"is_disabled":false,"rental_uris":{"android":"levelo://app?vid=b79639c8-f683-439e-96da-8387beb8a08f","ios":"levelo://app?vid=b79639c8-f683-439e-96da-8387beb8a08f"},"vehicle_type_id":"4","last_reported":1731794847,"current_range_meters":9200,"station_id":"ce4bhp92rcd13ifvqhag","pricing_plan_id":"cebpf4jnsgd1na2vs0mg"},{"bike_id":"345e9cae-774c-405a-b6aa-cdd0aaec4b63","system_id":"levelo_inurba_marseille","lat":43.31282,"lon":5.40171,"is_reserved":false,"is_disabled":false,"rental_uris":{"android":"levelo://app?vid=345e9cae-774c-405a-b6aa-cdd0aaec4b63","ios":"levelo://app?vid=345e9cae-774c-405a-b6aa-cdd0aaec4b63"},"vehicle_type_id":"4","last_reported":1731794847,"current_range_meters":4000,"station_id":"ce4bh092rcd13ifvqd30","pricing_plan_id":"cebpf4jnsgd1na2vs0mg"},{"bike_id":"cc7eaf9b-2c4d-496e-a8c3-41a4a3313bb9","system_id":"levelo_inurba_marseille","lat":43.32659,"lon":5.40994,"is_reserved":false,"is_disabled":false,"rental_uris":{"android":"levelo://app?vid=cc7eaf9b-2c4d-496e-a8c3-41a4a3313bb9","ios":"levelo://app?vid=cc7eaf9b-2c4d-496e-a8c3-41a4a3313bb9"},"vehicle_type_id":"4","last_reported":1731794847,"current_range_meters":10000,"station_id":"ce4bhpp2rcd13ifvqhgg","pricing_plan_id":"cebpf4jnsgd1na2vs0mg"},{"bike_id":"aaaf8aae-53a7-46f2-bc5a-7b42ea1053b6","system_id":"levelo_inurba_marseille","lat":43.27811,"lon":5.40693,"is_reserved":false,"is_disabled":false,"rental_uris":{"android":"levelo://app?vid=aaaf8aae-53a7-46f2-bc5a-7b42ea1053b6","ios":"levelo://app?vid=aaaf8aae-53a7-46f2-bc5a-7b42ea1053b6"},"vehicle_type_id":"4","last_reported":1731794847,"current_range_meters":39200,"station_id":"ce4bhnh2rcd13ifvqgtg","pricing_plan_id":"cebpf4jnsgd1na2vs0mg"},{"bike_id":"7f72c520-37a4-4f2d-98ff-043f9f4682b0","system_id":"levelo_inurba_marseille","lat":43.27058,"lon":5.40259,"is_reserved":false,"is_disabled":false,"rental_uris":{"android":"levelo://app?vid=7f72c520-37a4-4f2d-98ff-043f9f4682b0","ios":"levelo://app?vid=7f72c520-37a4-4f2d-98ff-043f9f4682b0"},"vehicle_type_id":"4","last_reported":1731794847,"current_range_meters":6800,"station_id":"ce4bhk92rcd13ifvqgc0","pricing_plan_id":"cebpf4jnsgd1na2vs0mg"},{"bike_id":"f3fe112d-bf29-4621-a795-f193f2d2276c","system_id":"levelo_inurba_marseille","lat":43.24658,"lon":5.38166,"is_reserved":false,"is_disabled":false,"rental_uris":{"android":"levelo://app?vid=f3fe112d-bf29-4621-a795-f193f2d2276c","ios":"levelo://app?vid=f3fe112d-bf29-4621-a795-f193f2d2276c"},"vehicle_type_id":"4","last_reported":1731794847,"current_range_meters":19600,"station_id":"ce4bhih2rcd13ifvqfr0","pricing_plan_id":"cebpf4jnsgd1na2vs0mg"},{"bike_id":"eb9a84f5-6092-4dc4-a3c0-a07efb437c77","system_id":"levelo_inurba_marseille","lat":43.3379,"lon":5.37443,"is_reserved":false,"is_disabled":false,"rental_uris":{"android":"levelo://app?vid=eb9a84f5-6092-4dc4-a3c0-a07efb437c77","ios":"levelo://app?vid=eb9a84f5-6092-4dc4-a3c0-a07efb437c77"},"vehicle_type_id":"4","last_reported":1731794847,"current_range_meters":8800,"station_id":"","pricing_plan_id":"cebpf4jnsgd1na2vs0mg"},{"bike_id":"1765268a-82de-4429-88fa-129dcab3cb43","system_id":"levelo_inurba_marseille","lat":43.29418,"lon":5.38604,"is_reserved":false,"is_disabled":false,"rental_uris":{"android":"levelo://app?vid=1765268a-82de-4429-88fa-129dcab3cb43","ios":"levelo://app?vid=1765268a-82de-4429-88fa-129dcab3cb43"},"vehicle_type_id":"4","last_reported":1731794847,"current_range_meters":28800,"station_id":"ce4bh2h2rcd13ifvqdh0","pricing_plan_id":"cebpf4jnsgd1na2vs0mg"},{"bike_id":"22ea48db-755d-43c3-a7d2-0beff01815d8","system_id":"levelo_inurba_marseille","lat":43.337707,"lon":5.374325,"is_reserved":false,"is_disabled":false,"rental_uris":{"android":"levelo://app?vid=22ea48db-755d-43c3-a7d2-0beff01815d8","ios":"levelo://app?vid=22ea48db-755d-43c3-a7d2-0beff01815d8"},"vehicle_type_id":"4","last_reported":1731794847,"current_range_meters":10800,"station_id":"","pricing_plan_id":"cebpf4jnsgd1na2vs0mg"},{"bike_id":"eacd9ebb-691f-4a83-85ee-81beefc74253","system_id":"levelo_inurba_marseille","lat":43.33733,"lon":5.39183,"is_reserved":false,"is_disabled":false,"rental_uris":{"android":"levelo://app?vid=eacd9ebb-691f-4a83-85ee-81beefc74253","ios":"levelo://app?vid=eacd9ebb-691f-4a83-85ee-81beefc74253"},"vehicle_type_id":"4","last_reported":1731794847,"current_range_meters":38800,"station_id":"ce4bhr92rcd13ifvqhsg","pricing_plan_id":"cebpf4jnsgd1na2vs0mg"},{"bike_id":"a1862017-f597-4949-a306-4d7c53cc8b86","system_id":"levelo_inurba_marseille","lat":43.24169,"lon":5.364,"is_reserved":false,"is_disabled":false,"rental_uris":{"android":"levelo://app?vid=a1862017-f597-4949-a306-4d7c53cc8b86","ios":"levelo://app?vid=a1862017-f597-4949-a306-4d7c53cc8b86"},"vehicle_type_id":"4","last_reported":1731794847,"current_range_meters":11200,"station_id":"cpo36qri1sfpv3e86is0","pricing_plan_id":"cebpf4jnsgd1na2vs0mg"},{"bike_id":"93d2376b-d24b-4c4a-bf7c-d9d7da5c25f0","system_id":"levelo_inurba_marseille","lat":43.23055,"lon":5.35493,"is_reserved":false,"is_disabled":false,"rental_uris":{"android":"levelo://app?vid=93d2376b-d24b-4c4a-bf7c-d9d7da5c25f0","ios":"levelo://app?vid=93d2376b-d24b-4c4a-bf7c-d9d7da5c25f0"},"vehicle_type_id":"4","last_reported":1731794847,"current_range_meters":15200,"station_id":"cpo3342slgdg3j2ifvpg","pricing_plan_id":"cebpf4jnsgd1na2vs0mg"},{"bike_id":"0e8f6598-98ac-43af-b400-e50e231fd3c3","system_id":"levelo_inurba_marseille","lat":43.30887,"lon":5.37195,"is_reserved":false,"is_disabled":false,"rental_uris":{"android":"levelo://app?vid=0e8f6598-98ac-43af-b400-e50e231fd3c3","ios":"levelo://app?vid=0e8f6598-98ac-43af-b400-e50e231fd3c3"},"vehicle_type_id":"4","last_reported":1731794847,"current_range_meters":26000,"station_id":"ce4bguh2rcd13ifvqckg","pricing_plan_id":"cebpf4jnsgd1na2vs0mg"},{"bike_id":"eb0b6258-25b5-4174-825d-16bccd206154","system_id":"levelo_inurba_marseille","lat":43.3303,"lon":5.39042,"is_reserved":false,"is_disabled":false,"rental_uris":{"android":"levelo://app?vid=eb0b6258-25b5-4174-825d-16bccd206154","ios":"levelo://app?vid=eb0b6258-25b5-4174-825d-16bccd206154"},"vehicle_type_id":"4","last_reported":1731794847,"current_range_meters":8000,"station_id":"ce4bhr92rcd13ifvqhrg","pricing_plan_id":"cebpf4jnsgd1na2vs0mg"},{"bike_id":"ca655f3b-8380-4045-b3f8-8acaa0e83ede","system_id":"levelo_inurba_marseille","lat":43.33739,"lon":5.37423,"is_reserved":false,"is_disabled":false,"rental_uris":{"android":"levelo://app?vid=ca655f3b-8380-4045-b3f8-8acaa0e83ede","ios":"levelo://app?vid=ca655f3b-8380-4045-b3f8-8acaa0e83ede"},"vehicle_type_id":"4","last_reported":1731794847,"current_range_meters":35600,"station_id":"","pricing_plan_id":"cebpf4jnsgd1na2vs0mg"},{"bike_id":"3bec9701-1266-4cd8-9789-f238163e8695","system_id":"levelo_inurba_marseille","lat":43.3248,"lon":5.36567,"is_reserved":false,"is_disabled":false,"rental_uris":{"android":"levelo://app?vid=3bec9701-1266-4cd8-9789-f238163e8695","ios":"levelo://app?vid=3bec9701-1266-4cd8-9789-f238163e8695"},"vehicle_type_id":"4","last_reported":1731794847,"current_range_meters":38800,"station_id":"ce4bhs12rcd13ifvqhvg","pricing_plan_id":"cebpf4jnsgd1na2vs0mg"},{"bike_id":"a6b8c285-acc9-4039-9531-1aae39136a33","system_id":"levelo_inurba_marseille","lat":43.312042,"lon":5.367348,"is_reserved":false,"is_disabled":false,"rental_uris":{"android":"levelo://app?vid=a6b8c285-acc9-4039-9531-1aae39136a33","ios":"levelo://app?vid=a6b8c285-acc9-4039-9531-1aae39136a33"},"vehicle_type_id":"4","last_reported":1731794847,"current_range_meters":12800,"station_id":"","pricing_plan_id":"cebpf4jnsgd1na2vs0mg"},{"bike_id":"04e579be-d930-46e5-bb29-40fdc45896e1","system_id":"levelo_inurba_marseille","lat":43.32637,"lon":5.36203,"is_reserved":false,"is_disabled":false,"rental_uris":{"android":"levelo://app?vid=04e579be-d930-46e5-bb29-40fdc45896e1","ios":"levelo://app?vid=04e579be-d930-46e5-bb29-40fdc45896e1"},"vehicle_type_id":"4","last_reported":1731794847,"current_range_meters":8400,"station_id":"","pricing_plan_id":"cebpf4jnsgd1na2vs0mg"},{"bike_id":"37b940f2-53f1-40b3-bcdc-a092eab2c248","system_id":"levelo_inurba_marseille","lat":43.23962,"lon":5.36622,"is_reserved":false,"is_disabled":false,"rental_uris":{"android":"levelo://app?vid=37b940f2-53f1-40b3-bcdc-a092eab2c248","ios":"levelo://app?vid=37b940f2-53f1-40b3-bcdc-a092eab2c248"},"vehicle_type_id":"4","last_reported":1731794847,"current_range_meters":24800,"station_id":"ce4bhi12rcd13ifvqfp0","pricing_plan_id":"cebpf4jnsgd1na2vs0mg"},{"bike_id":"358c4c1e-9f30-4721-b1a8-ab606a5de373","system_id":"levelo_inurba_marseille","lat":43.25495,"lon":5.37649,"is_reserved":false,"is_disabled":false,"rental_uris":{"android":"levelo://app?vid=358c4c1e-9f30-4721-b1a8-ab606a5de373","ios":"levelo://app?vid=358c4c1e-9f30-4721-b1a8-ab606a5de373"},"vehicle_type_id":"4","last_reported":1731794847,"current_range_meters":18000,"station_id":"ce4bhh12rcd13ifvqff0","pricing_plan_id":"cebpf4jnsgd1na2vs0mg"},{"bike_id":"e4e7e038-935b-4990-ae2a-9c99c27a3ef5","system_id":"levelo_inurba_marseille","lat":43.31176,"lon":5.38718,"is_reserved":false,"is_disabled":false,"rental_uris":{"android":"levelo://app?vid=e4e7e038-935b-4990-ae2a-9c99c27a3ef5","ios":"levelo://app?vid=e4e7e038-935b-4990-ae2a-9c99c27a3ef5"},"vehicle_type_id":"4","last_reported":1731794847,"current_range_meters":38000,"station_id":"ce4bgv12rcd13ifvqcp0","pricing_plan_id":"cebpf4jnsgd1na2vs0mg"},{"bike_id":"a1729bd1-9e1e-49fd-b8fc-91417500c65a","system_id":"levelo_inurba_marseille","lat":43.30318,"lon":5.36905,"is_reserved":false,"is_disabled":false,"rental_uris":{"android":"levelo://app?vid=a1729bd1-9e1e-49fd-b8fc-91417500c65a","ios":"levelo://app?vid=a1729bd1-9e1e-49fd-b8fc-91417500c65a"},"vehicle_type_id":"4","last_reported":1731794847,"current_range_meters":38400,"station_id":"ce4bgqh2rcd13ifvqc5g","pricing_plan_id":"cebpf4jnsgd1na2vs0mg"},{"bike_id":"56075252-74df-41bd-8879-5a4ae6ac7900","system_id":"levelo_inurba_marseille","lat":43.24384,"lon":5.37057,"is_reserved":false,"is_disabled":false,"rental_uris":{"android":"levelo://app?vid=56075252-74df-41bd-8879-5a4ae6ac7900","ios":"levelo://app?vid=56075252-74df-41bd-8879-5a4ae6ac7900"},"vehicle_type_id":"4","last_reported":1731794847,"current_range_meters":15200,"station_id":"ce4bhhh2rcd13ifvqfk0","pricing_plan_id":"cebpf4jnsgd1na2vs0mg"},{"bike_id":"776c19bb-9271-4d1b-b450-71b28ade05f5","system_id":"levelo_inurba_marseille","lat":43.23188,"lon":5.35555,"is_reserved":false,"is_disabled":false,"rental_uris":{"android":"levelo://app?vid=776c19bb-9271-4d1b-b450-71b28ade05f5","ios":"levelo://app?vid=776c19bb-9271-4d1b-b450-71b28ade05f5"},"vehicle_type_id":"4","last_reported":1731794847,"current_range_meters":38400,"station_id":"ce4bhu92rcd13ifvqi70","pricing_plan_id":"cebpf4jnsgd1na2vs0mg"},{"bike_id":"3731846e-2218-45f1-ac96-76a41185ff9d","system_id":"levelo_inurba_marseille","lat":43.24169,"lon":5.36403,"is_reserved":false,"is_disabled":false,"rental_uris":{"android":"levelo://app?vid=3731846e-2218-45f1-ac96-76a41185ff9d","ios":"levelo://app?vid=3731846e-2218-45f1-ac96-76a41185ff9d"},"vehicle_type_id":"4","last_reported":1731794847,"current_range_meters":38400,"station_id":"cpo36qri1sfpv3e86is0","pricing_plan_id":"cebpf4jnsgd1na2vs0mg"},{"bike_id":"76f4890c-957d-48ca-a3e0-c7a9a9d95cd2","system_id":"levelo_inurba_marseille","lat":43.319795,"lon":5.381409,"is_reserved":false,"is_disabled":false,"rental_uris":{"android":"levelo://app?vid=76f4890c-957d-48ca-a3e0-c7a9a9d95cd2","ios":"levelo://app?vid=76f4890c-957d-48ca-a3e0-c7a9a9d95cd2"},"vehicle_type_id":"4","last_reported":1731794847,"current_range_meters":32000,"station_id":"ce4bhr12rcd13ifvqhpg","pricing_plan_id":"cebpf4jnsgd1na2vs0mg"},{"bike_id":"b497c4c1-47c5-46df-89b4-3a0f01d4aeca","system_id":"levelo_inurba_marseille","lat":43.321128,"lon":5.367735,"is_reserved":false,"is_disabled":false,"rental_uris":{"android":"levelo://app?vid=b497c4c1-47c5-46df-89b4-3a0f01d4aeca","ios":"levelo://app?vid=b497c4c1-47c5-46df-89b4-3a0f01d4aeca"},"vehicle_type_id":"4","last_reported":1731794847,"current_range_meters":27200,"station_id":"ce4bhrh2rcd13ifvqhug","pricing_plan_id":"cebpf4jnsgd1na2vs0mg"},{"bike_id":"92ac4858-87d6-4ceb-8f6e-004635a816a8","system_id":"levelo_inurba_marseille","lat":43.27787,"lon":5.40722,"is_reserved":false,"is_disabled":false,"rental_uris":{"android":"levelo://app?vid=92ac4858-87d6-4ceb-8f6e-004635a816a8","ios":"levelo://app?vid=92ac4858-87d6-4ceb-8f6e-004635a816a8"},"vehicle_type_id":"4","last_reported":1731794847,"current_range_meters":29600,"station_id":"ce4bhnh2rcd13ifvqgtg","pricing_plan_id":"cebpf4jnsgd1na2vs0mg"},{"bike_id":"5837896b-5dca-4d49-b05e-cc1583710155","system_id":"levelo_inurba_marseille","lat":43.25003,"lon":5.38936,"is_reserved":false,"is_disabled":false,"rental_uris":{"android":"levelo://app?vid=5837896b-5dca-4d49-b05e-cc1583710155","ios":"levelo://app?vid=5837896b-5dca-4d49-b05e-cc1583710155"},"vehicle_type_id":"4","last_reported":1731794847,"current_range_meters":34800,"station_id":"ce4bhgp2rcd13ifvqfd0","pricing_plan_id":"cebpf4jnsgd1na2vs0mg"},{"bike_id":"e2cb9a95-8841-4502-8379-e23accb3e9c2","system_id":"levelo_inurba_marseille","lat":43.30153,"lon":5.38862,"is_reserved":false,"is_disabled":false,"rental_uris":{"android":"levelo://app?vid=e2cb9a95-8841-4502-8379-e23accb3e9c2","ios":"levelo://app?vid=e2cb9a95-8841-4502-8379-e23accb3e9c2"},"vehicle_type_id":"4","last_reported":1731794847,"current_range_meters":9600,"station_id":"ce4bh0h2rcd13ifvqd40","pricing_plan_id":"cebpf4jnsgd1na2vs0mg"},{"bike_id":"a2b165e7-8d8d-4922-9ef2-c24fcea2bf58","system_id":"levelo_inurba_marseille","lat":43.27077,"lon":5.42287,"is_reserved":false,"is_disabled":false,"rental_uris":{"android":"levelo://app?vid=a2b165e7-8d8d-4922-9ef2-c24fcea2bf58","ios":"levelo://app?vid=a2b165e7-8d8d-4922-9ef2-c24fcea2bf58"},"vehicle_type_id":"4","last_reported":1731794847,"current_range_meters":9200,"station_id":"ce4bhk92rcd13ifvqgb0","pricing_plan_id":"cebpf4jnsgd1na2vs0mg"},{"bike_id":"0acb2657-b8bc-4e29-a8f8-ccdc72f62e02","system_id":"levelo_inurba_marseille","lat":43.27839,"lon":5.39213,"is_reserved":false,"is_disabled":false,"rental_uris":{"android":"levelo://app?vid=0acb2657-b8bc-4e29-a8f8-ccdc72f62e02","ios":"levelo://app?vid=0acb2657-b8bc-4e29-a8f8-ccdc72f62e02"},"vehicle_type_id":"4","last_reported":1731794847,"current_range_meters":12800,"station_id":"ce4bhjp2rcd13ifvqga0","pricing_plan_id":"cebpf4jnsgd1na2vs0mg"},{"bike_id":"4f072872-5e38-4a4b-9811-1d9e60a837c4","system_id":"levelo_inurba_marseille","lat":43.23072,"lon":5.35495,"is_reserved":false,"is_disabled":false,"rental_uris":{"android":"levelo://app?vid=4f072872-5e38-4a4b-9811-1d9e60a837c4","ios":"levelo://app?vid=4f072872-5e38-4a4b-9811-1d9e60a837c4"},"vehicle_type_id":"4","last_reported":1731794847,"current_range_meters":9200,"station_id":"cpo3342slgdg3j2ifvpg","pricing_plan_id":"cebpf4jnsgd1na2vs0mg"},{"bike_id":"63532acd-0e03-47a2-9de7-46e1913982b8","system_id":"levelo_inurba_marseille","lat":43.32109,"lon":5.36781,"is_reserved":false,"is_disabled":false,"rental_uris":{"android":"levelo://app?vid=63532acd-0e03-47a2-9de7-46e1913982b8","ios":"levelo://app?vid=63532acd-0e03-47a2-9de7-46e1913982b8"},"vehicle_type_id":"4","last_reported":1731794847,"current_range_meters":24000,"station_id":"ce4bhrh2rcd13ifvqhug","pricing_plan_id":"cebpf4jnsgd1na2vs0mg"},{"bike_id":"716deff2-644f-4891-837f-fd7c8996db74","system_id":"levelo_inurba_marseille","lat":43.31987,"lon":5.38155,"is_reserved":false,"is_disabled":false,"rental_uris":{"android":"levelo://app?vid=716deff2-644f-4891-837f-fd7c8996db74","ios":"levelo://app?vid=716deff2-644f-4891-837f-fd7c8996db74"},"vehicle_type_id":"4","last_reported":1731794847,"current_range_meters":20400,"station_id":"ce4bhr12rcd13ifvqhpg","pricing_plan_id":"cebpf4jnsgd1na2vs0mg"},{"bike_id":"538ff880-7009-4230-aa76-28de0d1a5a41","system_id":"levelo_inurba_marseille","lat":43.24388,"lon":5.37057,"is_reserved":false,"is_disabled":false,"rental_uris":{"android":"levelo://app?vid=538ff880-7009-4230-aa76-28de0d1a5a41","ios":"levelo://app?vid=538ff880-7009-4230-aa76-28de0d1a5a41"},"vehicle_type_id":"4","last_reported":1731794847,"current_range_meters":17200,"station_id":"ce4bhhh2rcd13ifvqfk0","pricing_plan_id":"cebpf4jnsgd1na2vs0mg"},{"bike_id":"a84f5389-258d-4508-9c0f-32ee5d326b43","system_id":"levelo_inurba_marseille","lat":43.33767,"lon":5.37475,"is_reserved":false,"is_disabled":false,"rental_uris":{"android":"levelo://app?vid=a84f5389-258d-4508-9c0f-32ee5d326b43","ios":"levelo://app?vid=a84f5389-258d-4508-9c0f-32ee5d326b43"},"vehicle_type_id":"4","last_reported":1731794847,"current_range_meters":32400,"station_id":"","pricing_plan_id":"cebpf4jnsgd1na2vs0mg"},{"bike_id":"2883a6b8-3a8c-4d76-ab5c-9642b0f4f36e","system_id":"levelo_inurba_marseille","lat":43.29379,"lon":5.37225,"is_reserved":false,"is_disabled":false,"rental_uris":{"android":"levelo://app?vid=2883a6b8-3a8c-4d76-ab5c-9642b0f4f36e","ios":"levelo://app?vid=2883a6b8-3a8c-4d76-ab5c-9642b0f4f36e"},"vehicle_type_id":"4","last_reported":1731794847,"current_range_meters":14000,"station_id":"ce4bhb12rcd13ifvqel0","pricing_plan_id":"cebpf4jnsgd1na2vs0mg"},{"bike_id":"be1310f4-83b7-4f34-bf6a-75c463509ba8","system_id":"levelo_inurba_marseille","lat":43.28456,"lon":5.35877,"is_reserved":false,"is_disabled":false,"rental_uris":{"android":"levelo://app?vid=be1310f4-83b7-4f34-bf6a-75c463509ba8","ios":"levelo://app?vid=be1310f4-83b7-4f34-bf6a-75c463509ba8"},"vehicle_type_id":"4","last_reported":1731794847,"current_range_meters":28000,"station_id":"ce4bhah2rcd13ifvqei0","pricing_plan_id":"cebpf4jnsgd1na2vs0mg"},{"bike_id":"fae8bfb2-18eb-46f8-9b34-08db2a729b28","system_id":"levelo_inurba_marseille","lat":43.31223,"lon":5.36848,"is_reserved":false,"is_disabled":false,"rental_uris":{"android":"levelo://app?vid=fae8bfb2-18eb-46f8-9b34-08db2a729b28","ios":"levelo://app?vid=fae8bfb2-18eb-46f8-9b34-08db2a729b28"},"vehicle_type_id":"4","last_reported":1731794847,"current_range_meters":38800,"station_id":"ce4bgl92rcd13ifvqbq0","pricing_plan_id":"cebpf4jnsgd1na2vs0mg"},{"bike_id":"ed8cfcce-fcd3-4866-b7bb-3032e5fedbfd","system_id":"levelo_inurba_marseille","lat":43.32349,"lon":5.40627,"is_reserved":false,"is_disabled":false,"rental_uris":{"android":"levelo://app?vid=ed8cfcce-fcd3-4866-b7bb-3032e5fedbfd","ios":"levelo://app?vid=ed8cfcce-fcd3-4866-b7bb-3032e5fedbfd"},"vehicle_type_id":"4","last_reported":1731794847,"current_range_meters":29600,"station_id":"ce4bhq92rcd13ifvqhjg","pricing_plan_id":"cebpf4jnsgd1na2vs0mg"},{"bike_id":"96962833-4b59-4049-b0bb-5dd03c52034d","system_id":"levelo_inurba_marseille","lat":43.29032,"lon":5.39956,"is_reserved":false,"is_disabled":false,"rental_uris":{"android":"levelo://app?vid=96962833-4b59-4049-b0bb-5dd03c52034d","ios":"levelo://app?vid=96962833-4b59-4049-b0bb-5dd03c52034d"},"vehicle_type_id":"4","last_reported":1731794847,"current_range_meters":30800,"station_id":"ce4bh392rcd13ifvqdm0","pricing_plan_id":"cebpf4jnsgd1na2vs0mg"},{"bike_id":"36191937-43d8-437a-baf8-6bc88ac41e80","system_id":"levelo_inurba_marseille","lat":43.27943,"lon":5.41046,"is_reserved":false,"is_disabled":false,"rental_uris":{"android":"levelo://app?vid=36191937-43d8-437a-baf8-6bc88ac41e80","ios":"levelo://app?vid=36191937-43d8-437a-baf8-6bc88ac41e80"},"vehicle_type_id":"4","last_reported":1731794847,"current_range_meters":34000,"station_id":"ce4bhnp2rcd13ifvqh0g","pricing_plan_id":"cebpf4jnsgd1na2vs0mg"},{"bike_id":"d6ea0d18-09c5-4a16-8d92-16497ecc1e85","system_id":"levelo_inurba_marseille","lat":43.27495,"lon":5.42449,"is_reserved":false,"is_disabled":false,"rental_uris":{"android":"levelo://app?vid=d6ea0d18-09c5-4a16-8d92-16497ecc1e85","ios":"levelo://app?vid=d6ea0d18-09c5-4a16-8d92-16497ecc1e85"},"vehicle_type_id":"4","last_reported":1731794847,"current_range_meters":4400,"station_id":"ce4bhn92rcd13ifvqgrg","pricing_plan_id":"cebpf4jnsgd1na2vs0mg"},{"bike_id":"b5ce9235-4ffb-4d40-a9ab-7ab7ce5a79f6","system_id":"levelo_inurba_marseille","lat":43.24818,"lon":5.37459,"is_reserved":false,"is_disabled":false,"rental_uris":{"android":"levelo://app?vid=b5ce9235-4ffb-4d40-a9ab-7ab7ce5a79f6","ios":"levelo://app?vid=b5ce9235-4ffb-4d40-a9ab-7ab7ce5a79f6"},"vehicle_type_id":"4","last_reported":1731794847,"current_range_meters":38000,"station_id":"ce4bhgh2rcd13ifvqfb0","pricing_plan_id":"cebpf4jnsgd1na2vs0mg"},{"bike_id":"0bdc4ebb-8ae3-48a0-915a-ada36e03fd3e","system_id":"levelo_inurba_marseille","lat":43.27928,"lon":5.38032,"is_reserved":false,"is_disabled":false,"rental_uris":{"android":"levelo://app?vid=0bdc4ebb-8ae3-48a0-915a-ada36e03fd3e","ios":"levelo://app?vid=0bdc4ebb-8ae3-48a0-915a-ada36e03fd3e"},"vehicle_type_id":"4","last_reported":1731794847,"current_range_meters":38800,"station_id":"ce4bhf92rcd13ifvqf50","pricing_plan_id":"cebpf4jnsgd1na2vs0mg"},{"bike_id":"23dc3eca-7aa2-42ee-a821-5901eae129f9","system_id":"levelo_inurba_marseille","lat":43.32367,"lon":5.38884,"is_reserved":false,"is_disabled":false,"rental_uris":{"android":"levelo://app?vid=23dc3eca-7aa2-42ee-a821-5901eae129f9","ios":"levelo://app?vid=23dc3eca-7aa2-42ee-a821-5901eae129f9"},"vehicle_type_id":"4","last_reported":1731794847,"current_range_meters":7200,"station_id":"ce4bhqp2rcd13ifvqhog","pricing_plan_id":"cebpf4jnsgd1na2vs0mg"},{"bike_id":"ae7aa9df-9b30-4ca1-9d8c-301e689f0c14","system_id":"levelo_inurba_marseille","lat":43.33724,"lon":5.39195,"is_reserved":false,"is_disabled":false,"rental_uris":{"android":"levelo://app?vid=ae7aa9df-9b30-4ca1-9d8c-301e689f0c14","ios":"levelo://app?vid=ae7aa9df-9b30-4ca1-9d8c-301e689f0c14"},"vehicle_type_id":"4","last_reported":1731794847,"current_range_meters":38000,"station_id":"ce4bhr92rcd13ifvqhsg","pricing_plan_id":"cebpf4jnsgd1na2vs0mg"},{"bike_id":"6d6992bf-ade3-4a22-a168-306dafdc4544","system_id":"levelo_inurba_marseille","lat":43.24175,"lon":5.36395,"is_reserved":false,"is_disabled":false,"rental_uris":{"android":"levelo://app?vid=6d6992bf-ade3-4a22-a168-306dafdc4544","ios":"levelo://app?vid=6d6992bf-ade3-4a22-a168-306dafdc4544"},"vehicle_type_id":"4","last_reported":1731794847,"current_range_meters":32000,"station_id":"cpo36qri1sfpv3e86is0","pricing_plan_id":"cebpf4jnsgd1na2vs0mg"},{"bike_id":"074c6971-4ae7-4906-8673-1607af29a7e1","system_id":"levelo_inurba_marseille","lat":43.25108,"lon":5.39513,"is_reserved":false,"is_disabled":false,"rental_uris":{"android":"levelo://app?vid=074c6971-4ae7-4906-8673-1607af29a7e1","ios":"levelo://app?vid=074c6971-4ae7-4906-8673-1607af29a7e1"},"vehicle_type_id":"4","last_reported":1731794847,"current_range_meters":30800,"station_id":"ce4bhm12rcd13ifvqgkg","pricing_plan_id":"cebpf4jnsgd1na2vs0mg"},{"bike_id":"17969969-d259-461b-b03e-5c0bba5d26d7","system_id":"levelo_inurba_marseille","lat":43.24808,"lon":5.37458,"is_reserved":false,"is_disabled":false,"rental_uris":{"android":"levelo://app?vid=17969969-d259-461b-b03e-5c0bba5d26d7","ios":"levelo://app?vid=17969969-d259-461b-b03e-5c0bba5d26d7"},"vehicle_type_id":"4","last_reported":1731794847,"current_range_meters":38800,"station_id":"ce4bhgh2rcd13ifvqfb0","pricing_plan_id":"cebpf4jnsgd1na2vs0mg"},{"bike_id":"f7612cb9-64e6-456e-b407-47173cb6e342","system_id":"levelo_inurba_marseille","lat":43.28604,"lon":5.37066,"is_reserved":false,"is_disabled":false,"rental_uris":{"android":"levelo://app?vid=f7612cb9-64e6-456e-b407-47173cb6e342","ios":"levelo://app?vid=f7612cb9-64e6-456e-b407-47173cb6e342"},"vehicle_type_id":"4","last_reported":1731794847,"current_range_meters":8000,"station_id":"ce4bht12rcd13ifvqi60","pricing_plan_id":"cebpf4jnsgd1na2vs0mg"},{"bike_id":"a2c6d4bf-c9ce-477a-b3d3-cc660f04e882","system_id":"levelo_inurba_marseille","lat":43.28728,"lon":5.36087,"is_reserved":false,"is_disabled":false,"rental_uris":{"android":"levelo://app?vid=a2c6d4bf-c9ce-477a-b3d3-cc660f04e882","ios":"levelo://app?vid=a2c6d4bf-c9ce-477a-b3d3-cc660f04e882"},"vehicle_type_id":"4","last_reported":1731794847,"current_range_meters":28000,"station_id":"cki0cbj6b192h4jlfktg","pricing_plan_id":"cebpf4jnsgd1na2vs0mg"},{"bike_id":"6d397c9e-9477-43d7-b96a-98e95cbe24d5","system_id":"levelo_inurba_marseille","lat":43.28038,"lon":5.36946,"is_reserved":false,"is_disabled":false,"rental_uris":{"android":"levelo://app?vid=6d397c9e-9477-43d7-b96a-98e95cbe24d5","ios":"levelo://app?vid=6d397c9e-9477-43d7-b96a-98e95cbe24d5"},"vehicle_type_id":"4","last_reported":1731794847,"current_range_meters":27200,"station_id":"ce4bha12rcd13ifvqef0","pricing_plan_id":"cebpf4jnsgd1na2vs0mg"},{"bike_id":"8b9d8db2-1d88-428b-8005-f18c16caea87","system_id":"levelo_inurba_marseille","lat":43.3059,"lon":5.39351,"is_reserved":false,"is_disabled":false,"rental_uris":{"android":"levelo://app?vid=8b9d8db2-1d88-428b-8005-f18c16caea87","ios":"levelo://app?vid=8b9d8db2-1d88-428b-8005-f18c16caea87"},"vehicle_type_id":"4","last_reported":1731794847,"current_range_meters":38800,"station_id":"ce4bh0p2rcd13ifvqd80","pricing_plan_id":"cebpf4jnsgd1na2vs0mg"},{"bike_id":"e01cc651-aff2-4aec-b088-cd6c105accbf","system_id":"levelo_inurba_marseille","lat":43.31713,"lon":5.37759,"is_reserved":false,"is_disabled":false,"rental_uris":{"android":"levelo://app?vid=e01cc651-aff2-4aec-b088-cd6c105accbf","ios":"levelo://app?vid=e01cc651-aff2-4aec-b088-cd6c105accbf"},"vehicle_type_id":"4","last_reported":1731794847,"current_range_meters":28000,"station_id":"ce4bgth2rcd13ifvqch0","pricing_plan_id":"cebpf4jnsgd1na2vs0mg"},{"bike_id":"4ee4605c-22f2-4532-b44d-f5fb03fd5142","system_id":"levelo_inurba_marseille","lat":43.30807,"lon":5.43526,"is_reserved":false,"is_disabled":false,"rental_uris":{"android":"levelo://app?vid=4ee4605c-22f2-4532-b44d-f5fb03fd5142","ios":"levelo://app?vid=4ee4605c-22f2-4532-b44d-f5fb03fd5142"},"vehicle_type_id":"4","last_reported":1731794847,"current_range_meters":12000,"station_id":"ce4bhph2rcd13ifvqheg","pricing_plan_id":"cebpf4jnsgd1na2vs0mg"},{"bike_id":"d12776dd-7ba2-49d7-a666-159758337c79","system_id":"levelo_inurba_marseille","lat":43.32484,"lon":5.36588,"is_reserved":false,"is_disabled":false,"rental_uris":{"android":"levelo://app?vid=d12776dd-7ba2-49d7-a666-159758337c79","ios":"levelo://app?vid=d12776dd-7ba2-49d7-a666-159758337c79"},"vehicle_type_id":"4","last_reported":1731794847,"current_range_meters":38800,"station_id":"ce4bhs12rcd13ifvqhvg","pricing_plan_id":"cebpf4jnsgd1na2vs0mg"},{"bike_id":"c3e05a7b-e07e-4018-a441-5bc2687302f2","system_id":"levelo_inurba_marseille","lat":43.27979,"lon":5.38757,"is_reserved":false,"is_disabled":false,"rental_uris":{"android":"levelo://app?vid=c3e05a7b-e07e-4018-a441-5bc2687302f2","ios":"levelo://app?vid=c3e05a7b-e07e-4018-a441-5bc2687302f2"},"vehicle_type_id":"4","last_reported":1731794847,"current_range_meters":38800,"station_id":"ce4bhg12rcd13ifvqf80","pricing_plan_id":"cebpf4jnsgd1na2vs0mg"},{"bike_id":"a4424cd9-439d-43b9-afad-8102f87f9143","system_id":"levelo_inurba_marseille","lat":43.28419,"lon":5.37524,"is_reserved":false,"is_disabled":false,"rental_uris":{"android":"levelo://app?vid=a4424cd9-439d-43b9-afad-8102f87f9143","ios":"levelo://app?vid=a4424cd9-439d-43b9-afad-8102f87f9143"},"vehicle_type_id":"4","last_reported":1731794847,"current_range_meters":21600,"station_id":"ce4bh412rcd13ifvqds0","pricing_plan_id":"cebpf4jnsgd1na2vs0mg"},{"bike_id":"4b72687f-bdd8-4489-92cd-5b62fd882221","system_id":"levelo_inurba_marseille","lat":43.2963,"lon":5.40606,"is_reserved":false,"is_disabled":false,"rental_uris":{"android":"levelo://app?vid=4b72687f-bdd8-4489-92cd-5b62fd882221","ios":"levelo://app?vid=4b72687f-bdd8-4489-92cd-5b62fd882221"},"vehicle_type_id":"4","last_reported":1731794847,"current_range_meters":26000,"station_id":"ce4bh0h2rcd13ifvqd60","pricing_plan_id":"cebpf4jnsgd1na2vs0mg"},{"bike_id":"115b2baf-19fd-4b2f-b6c6-ccfee2ab58d0","system_id":"levelo_inurba_marseille","lat":43.29035,"lon":5.3865,"is_reserved":false,"is_disabled":false,"rental_uris":{"android":"levelo://app?vid=115b2baf-19fd-4b2f-b6c6-ccfee2ab58d0","ios":"levelo://app?vid=115b2baf-19fd-4b2f-b6c6-ccfee2ab58d0"},"vehicle_type_id":"4","last_reported":1731794847,"current_range_meters":38000,"station_id":"ce4bh4p2rcd13ifvqe0g","pricing_plan_id":"cebpf4jnsgd1na2vs0mg"},{"bike_id":"022f478e-da93-4eda-9d1b-2d0e36905c07","system_id":"levelo_inurba_marseille","lat":43.33744,"lon":5.37428,"is_reserved":false,"is_disabled":false,"rental_uris":{"android":"levelo://app?vid=022f478e-da93-4eda-9d1b-2d0e36905c07","ios":"levelo://app?vid=022f478e-da93-4eda-9d1b-2d0e36905c07"},"vehicle_type_id":"4","last_reported":1731794847,"current_range_meters":14800,"station_id":"","pricing_plan_id":"cebpf4jnsgd1na2vs0mg"},{"bike_id":"3c7108fb-85fe-43b6-95ce-e6a5e6d34b1a","system_id":"levelo_inurba_marseille","lat":43.33732,"lon":5.39177,"is_reserved":false,"is_disabled":false,"rental_uris":{"android":"levelo://app?vid=3c7108fb-85fe-43b6-95ce-e6a5e6d34b1a","ios":"levelo://app?vid=3c7108fb-85fe-43b6-95ce-e6a5e6d34b1a"},"vehicle_type_id":"4","last_reported":1731794847,"current_range_meters":30000,"station_id":"ce4bhr92rcd13ifvqhsg","pricing_plan_id":"cebpf4jnsgd1na2vs0mg"},{"bike_id":"cfcf0ff4-90a5-403a-b8ef-15fb267cd050","system_id":"levelo_inurba_marseille","lat":43.23963,"lon":5.36633,"is_reserved":false,"is_disabled":false,"rental_uris":{"android":"levelo://app?vid=cfcf0ff4-90a5-403a-b8ef-15fb267cd050","ios":"levelo://app?vid=cfcf0ff4-90a5-403a-b8ef-15fb267cd050"},"vehicle_type_id":"4","last_reported":1731794847,"current_range_meters":24400,"station_id":"ce4bhi12rcd13ifvqfp0","pricing_plan_id":"cebpf4jnsgd1na2vs0mg"},{"bike_id":"304e8918-a7cb-4a1c-8b2e-038be7c7d89a","system_id":"levelo_inurba_marseille","lat":43.297091,"lon":5.365971,"is_reserved":false,"is_disabled":false,"rental_uris":{"android":"levelo://app?vid=304e8918-a7cb-4a1c-8b2e-038be7c7d89a","ios":"levelo://app?vid=304e8918-a7cb-4a1c-8b2e-038be7c7d89a"},"vehicle_type_id":"4","last_reported":1731794847,"current_range_meters":24800,"station_id":"ce4bgn12rcd13ifvqbt0","pricing_plan_id":"cebpf4jnsgd1na2vs0mg"},{"bike_id":"d351f0c6-17a7-470e-a114-9d7054da8601","system_id":"levelo_inurba_marseille","lat":43.30594,"lon":5.39362,"is_reserved":false,"is_disabled":false,"rental_uris":{"android":"levelo://app?vid=d351f0c6-17a7-470e-a114-9d7054da8601","ios":"levelo://app?vid=d351f0c6-17a7-470e-a114-9d7054da8601"},"vehicle_type_id":"4","last_reported":1731794847,"current_range_meters":32000,"station_id":"ce4bh0p2rcd13ifvqd80","pricing_plan_id":"cebpf4jnsgd1na2vs0mg"},{"bike_id":"251d8918-1250-4853-9293-89ee39d3be92","system_id":"levelo_inurba_marseille","lat":43.33022,"lon":5.39038,"is_reserved":false,"is_disabled":false,"rental_uris":{"android":"levelo://app?vid=251d8918-1250-4853-9293-89ee39d3be92","ios":"levelo://app?vid=251d8918-1250-4853-9293-89ee39d3be92"},"vehicle_type_id":"4","last_reported":1731794847,"current_range_meters":34800,"station_id":"ce4bhr92rcd13ifvqhrg","pricing_plan_id":"cebpf4jnsgd1na2vs0mg"},{"bike_id":"809471e3-ec39-4f2b-b271-49c8263623d6","system_id":"levelo_inurba_marseille","lat":43.24994,"lon":5.38931,"is_reserved":false,"is_disabled":false,"rental_uris":{"android":"levelo://app?vid=809471e3-ec39-4f2b-b271-49c8263623d6","ios":"levelo://app?vid=809471e3-ec39-4f2b-b271-49c8263623d6"},"vehicle_type_id":"4","last_reported":1731794847,"current_range_meters":38800,"station_id":"ce4bhgp2rcd13ifvqfd0","pricing_plan_id":"cebpf4jnsgd1na2vs0mg"},{"bike_id":"1c14619e-1d95-44b4-9b5a-e81f83b47b30","system_id":"levelo_inurba_marseille","lat":43.29096,"lon":5.38118,"is_reserved":false,"is_disabled":false,"rental_uris":{"android":"levelo://app?vid=1c14619e-1d95-44b4-9b5a-e81f83b47b30","ios":"levelo://app?vid=1c14619e-1d95-44b4-9b5a-e81f83b47b30"},"vehicle_type_id":"4","last_reported":1731794847,"current_range_meters":37600,"station_id":"ce4bh512rcd13ifvqe2g","pricing_plan_id":"cebpf4jnsgd1na2vs0mg"},{"bike_id":"e739c142-1582-47b1-8dca-d28c1adf5ac2","system_id":"levelo_inurba_marseille","lat":43.29422,"lon":5.38614,"is_reserved":false,"is_disabled":false,"rental_uris":{"android":"levelo://app?vid=e739c142-1582-47b1-8dca-d28c1adf5ac2","ios":"levelo://app?vid=e739c142-1582-47b1-8dca-d28c1adf5ac2"},"vehicle_type_id":"4","last_reported":1731794847,"current_range_meters":9200,"station_id":"ce4bh2h2rcd13ifvqdh0","pricing_plan_id":"cebpf4jnsgd1na2vs0mg"},{"bike_id":"aded939c-4e5e-4aaa-8b62-e488c8d7e507","system_id":"levelo_inurba_marseille","lat":43.30948,"lon":5.39046,"is_reserved":false,"is_disabled":false,"rental_uris":{"android":"levelo://app?vid=aded939c-4e5e-4aaa-8b62-e488c8d7e507","ios":"levelo://app?vid=aded939c-4e5e-4aaa-8b62-e488c8d7e507"},"vehicle_type_id":"4","last_reported":1731794847,"current_range_meters":17600,"station_id":"ce4bgup2rcd13ifvqco0","pricing_plan_id":"cebpf4jnsgd1na2vs0mg"},{"bike_id":"9e5dc250-b6a5-41ce-8a87-894e843c1424","system_id":"levelo_inurba_marseille","lat":43.28042,"lon":5.36956,"is_reserved":false,"is_disabled":false,"rental_uris":{"android":"levelo://app?vid=9e5dc250-b6a5-41ce-8a87-894e843c1424","ios":"levelo://app?vid=9e5dc250-b6a5-41ce-8a87-894e843c1424"},"vehicle_type_id":"4","last_reported":1731794847,"current_range_meters":38800,"station_id":"ce4bha12rcd13ifvqef0","pricing_plan_id":"cebpf4jnsgd1na2vs0mg"},{"bike_id":"39c73ca0-9868-4267-a026-9af6d76ca39c","system_id":"levelo_inurba_marseille","lat":43.30882,"lon":5.39633,"is_reserved":false,"is_disabled":false,"rental_uris":{"android":"levelo://app?vid=39c73ca0-9868-4267-a026-9af6d76ca39c","ios":"levelo://app?vid=39c73ca0-9868-4267-a026-9af6d76ca39c"},"vehicle_type_id":"4","last_reported":1731794847,"current_range_meters":22800,"station_id":"ce4bh012rcd13ifvqcv0","pricing_plan_id":"cebpf4jnsgd1na2vs0mg"},{"bike_id":"71d52017-341a-4f4d-a7ae-ab5a1e66cbd1","system_id":"levelo_inurba_marseille","lat":43.24171,"lon":5.36399,"is_reserved":false,"is_disabled":false,"rental_uris":{"android":"levelo://app?vid=71d52017-341a-4f4d-a7ae-ab5a1e66cbd1","ios":"levelo://app?vid=71d52017-341a-4f4d-a7ae-ab5a1e66cbd1"},"vehicle_type_id":"4","last_reported":1731794847,"current_range_meters":31200,"station_id":"cpo36qri1sfpv3e86is0","pricing_plan_id":"cebpf4jnsgd1na2vs0mg"},{"bike_id":"350a9689-e0f9-433b-b8e3-ae363fbe7e21","system_id":"levelo_inurba_marseille","lat":43.29571,"lon":5.39984,"is_reserved":false,"is_disabled":false,"rental_uris":{"android":"levelo://app?vid=350a9689-e0f9-433b-b8e3-ae363fbe7e21","ios":"levelo://app?vid=350a9689-e0f9-433b-b8e3-ae363fbe7e21"},"vehicle_type_id":"4","last_reported":1731794847,"current_range_meters":17600,"station_id":"ce4bh312rcd13ifvqdj0","pricing_plan_id":"cebpf4jnsgd1na2vs0mg"},{"bike_id":"92ae6e09-1f39-49c2-9455-cdbd4d0c4b63","system_id":"levelo_inurba_marseille","lat":43.29207,"lon":5.40034,"is_reserved":false,"is_disabled":false,"rental_uris":{"android":"levelo://app?vid=92ae6e09-1f39-49c2-9455-cdbd4d0c4b63","ios":"levelo://app?vid=92ae6e09-1f39-49c2-9455-cdbd4d0c4b63"},"vehicle_type_id":"4","last_reported":1731794847,"current_range_meters":17200,"station_id":"","pricing_plan_id":"cebpf4jnsgd1na2vs0mg"},{"bike_id":"d3c9bcdd-81e9-43dd-9ee0-72186c6564f4","system_id":"levelo_inurba_marseille","lat":43.29449,"lon":5.39731,"is_reserved":false,"is_disabled":false,"rental_uris":{"android":"levelo://app?vid=d3c9bcdd-81e9-43dd-9ee0-72186c6564f4","ios":"levelo://app?vid=d3c9bcdd-81e9-43dd-9ee0-72186c6564f4"},"vehicle_type_id":"4","last_reported":1731794847,"current_range_meters":6400,"station_id":"ce4bh3h2rcd13ifvqdo0","pricing_plan_id":"cebpf4jnsgd1na2vs0mg"},{"bike_id":"0d68c0e4-95e0-4ef9-b5fd-6722b2b062ca","system_id":"levelo_inurba_marseille","lat":43.30423,"lon":5.41278,"is_reserved":false,"is_disabled":false,"rental_uris":{"android":"levelo://app?vid=0d68c0e4-95e0-4ef9-b5fd-6722b2b062ca","ios":"levelo://app?vid=0d68c0e4-95e0-4ef9-b5fd-6722b2b062ca"},"vehicle_type_id":"4","last_reported":1731794847,"current_range_meters":5600,"station_id":"ce4bhop2rcd13ifvqh8g","pricing_plan_id":"cebpf4jnsgd1na2vs0mg"},{"bike_id":"897fb253-bf7b-4ba7-b053-6d609e4ca0bd","system_id":"levelo_inurba_marseille","lat":43.275587,"lon":5.384246,"is_reserved":false,"is_disabled":false,"rental_uris":{"android":"levelo://app?vid=897fb253-bf7b-4ba7-b053-6d609e4ca0bd","ios":"levelo://app?vid=897fb253-bf7b-4ba7-b053-6d609e4ca0bd"},"vehicle_type_id":"4","last_reported":1731794847,"current_range_meters":8800,"station_id":"ce4bhh92rcd13ifvqfi0","pricing_plan_id":"cebpf4jnsgd1na2vs0mg"},{"bike_id":"442c0903-f40e-4bdf-be0d-6587cc076f59","system_id":"levelo_inurba_marseille","lat":43.23192,"lon":5.35555,"is_reserved":false,"is_disabled":false,"rental_uris":{"android":"levelo://app?vid=442c0903-f40e-4bdf-be0d-6587cc076f59","ios":"levelo://app?vid=442c0903-f40e-4bdf-be0d-6587cc076f59"},"vehicle_type_id":"4","last_reported":1731794847,"current_range_meters":37600,"station_id":"ce4bhu92rcd13ifvqi70","pricing_plan_id":"cebpf4jnsgd1na2vs0mg"},{"bike_id":"52a88814-c932-478e-8b01-bb24c5c2409b","system_id":"levelo_inurba_marseille","lat":43.29845,"lon":5.36274,"is_reserved":false,"is_disabled":false,"rental_uris":{"android":"levelo://app?vid=52a88814-c932-478e-8b01-bb24c5c2409b","ios":"levelo://app?vid=52a88814-c932-478e-8b01-bb24c5c2409b"},"vehicle_type_id":"4","last_reported":1731794847,"current_range_meters":37600,"station_id":"ce4bgpp2rcd13ifvqc3g","pricing_plan_id":"cebpf4jnsgd1na2vs0mg"},{"bike_id":"7aa56a35-d352-4828-b96f-5c04e5a6badb","system_id":"levelo_inurba_marseille","lat":43.29731,"lon":5.37695,"is_reserved":false,"is_disabled":false,"rental_uris":{"android":"levelo://app?vid=7aa56a35-d352-4828-b96f-5c04e5a6badb","ios":"levelo://app?vid=7aa56a35-d352-4828-b96f-5c04e5a6badb"},"vehicle_type_id":"4","last_reported":1731794847,"current_range_meters":35200,"station_id":"ce4bgkh2rcd13ifvqbl0","pricing_plan_id":"cebpf4jnsgd1na2vs0mg"},{"bike_id":"1c4774a7-a2d4-4020-9a1a-c36e307e75d8","system_id":"levelo_inurba_marseille","lat":43.32361,"lon":5.38881,"is_reserved":false,"is_disabled":false,"rental_uris":{"android":"levelo://app?vid=1c4774a7-a2d4-4020-9a1a-c36e307e75d8","ios":"levelo://app?vid=1c4774a7-a2d4-4020-9a1a-c36e307e75d8"},"vehicle_type_id":"4","last_reported":1731794847,"current_range_meters":24800,"station_id":"ce4bhqp2rcd13ifvqhog","pricing_plan_id":"cebpf4jnsgd1na2vs0mg"},{"bike_id":"07239500-0860-48e9-979e-da0c8569eb71","system_id":"levelo_inurba_marseille","lat":43.30157,"lon":5.38077,"is_reserved":false,"is_disabled":false,"rental_uris":{"android":"levelo://app?vid=07239500-0860-48e9-979e-da0c8569eb71","ios":"levelo://app?vid=07239500-0860-48e9-979e-da0c8569eb71"},"vehicle_type_id":"4","last_reported":1731794847,"current_range_meters":26000,"station_id":"ce4bgjp2rcd13ifvqbh0","pricing_plan_id":"cebpf4jnsgd1na2vs0mg"},{"bike_id":"e9ea7137-c022-41d2-9efd-4b40da370ac9","system_id":"levelo_inurba_marseille","lat":43.31081,"lon":5.4243,"is_reserved":false,"is_disabled":false,"rental_uris":{"android":"levelo://app?vid=e9ea7137-c022-41d2-9efd-4b40da370ac9","ios":"levelo://app?vid=e9ea7137-c022-41d2-9efd-4b40da370ac9"},"vehicle_type_id":"4","last_reported":1731794847,"current_range_meters":18000,"station_id":"ce4bhp92rcd13ifvqhag","pricing_plan_id":"cebpf4jnsgd1na2vs0mg"},{"bike_id":"ba4bc675-7475-480f-b1f9-99dc2fae23df","system_id":"levelo_inurba_marseille","lat":43.30179,"lon":5.36616,"is_reserved":false,"is_disabled":false,"rental_uris":{"android":"levelo://app?vid=ba4bc675-7475-480f-b1f9-99dc2fae23df","ios":"levelo://app?vid=ba4bc675-7475-480f-b1f9-99dc2fae23df"},"vehicle_type_id":"4","last_reported":1731794847,"current_range_meters":38800,"station_id":"ce4bgrh2rcd13ifvqc8g","pricing_plan_id":"cebpf4jnsgd1na2vs0mg"},{"bike_id":"5962e039-9036-4944-b5c6-f1a6c4a87b96","system_id":"levelo_inurba_marseille","lat":43.28044,"lon":5.36946,"is_reserved":false,"is_disabled":false,"rental_uris":{"android":"levelo://app?vid=5962e039-9036-4944-b5c6-f1a6c4a87b96","ios":"levelo://app?vid=5962e039-9036-4944-b5c6-f1a6c4a87b96"},"vehicle_type_id":"4","last_reported":1731794847,"current_range_meters":32000,"station_id":"ce4bha12rcd13ifvqef0","pricing_plan_id":"cebpf4jnsgd1na2vs0mg"},{"bike_id":"0a883e10-e917-4452-b08e-d0dd37d5a7fb","system_id":"levelo_inurba_marseille","lat":43.28947,"lon":5.36643,"is_reserved":false,"is_disabled":false,"rental_uris":{"android":"levelo://app?vid=0a883e10-e917-4452-b08e-d0dd37d5a7fb","ios":"levelo://app?vid=0a883e10-e917-4452-b08e-d0dd37d5a7fb"},"vehicle_type_id":"4","last_reported":1731794847,"current_range_meters":24400,"station_id":"ce4bhap2rcd13ifvqek0","pricing_plan_id":"cebpf4jnsgd1na2vs0mg"},{"bike_id":"178c7bfa-d1cb-4d65-8aa6-84d3f4f29c93","system_id":"levelo_inurba_marseille","lat":43.25575,"lon":5.38231,"is_reserved":false,"is_disabled":false,"rental_uris":{"android":"levelo://app?vid=178c7bfa-d1cb-4d65-8aa6-84d3f4f29c93","ios":"levelo://app?vid=178c7bfa-d1cb-4d65-8aa6-84d3f4f29c93"},"vehicle_type_id":"4","last_reported":1731794847,"current_range_meters":28800,"station_id":"ce4bhih2rcd13ifvqfs0","pricing_plan_id":"cebpf4jnsgd1na2vs0mg"},{"bike_id":"d5b6cb88-78c6-4af2-8156-957faefe852f","system_id":"levelo_inurba_marseille","lat":43.28934,"lon":5.38403,"is_reserved":false,"is_disabled":false,"rental_uris":{"android":"levelo://app?vid=d5b6cb88-78c6-4af2-8156-957faefe852f","ios":"levelo://app?vid=d5b6cb88-78c6-4af2-8156-957faefe852f"},"vehicle_type_id":"4","last_reported":1731794847,"current_range_meters":36400,"station_id":"ce4bh612rcd13ifvqe6g","pricing_plan_id":"cebpf4jnsgd1na2vs0mg"},{"bike_id":"3d1e60ca-0ef4-4d61-bde3-33dddb055cfa","system_id":"levelo_inurba_marseille","lat":43.29536,"lon":5.38546,"is_reserved":false,"is_disabled":false,"rental_uris":{"android":"levelo://app?vid=3d1e60ca-0ef4-4d61-bde3-33dddb055cfa","ios":"levelo://app?vid=3d1e60ca-0ef4-4d61-bde3-33dddb055cfa"},"vehicle_type_id":"4","last_reported":1731794847,"current_range_meters":38400,"station_id":"ce4bgih2rcd13ifvqba0","pricing_plan_id":"cebpf4jnsgd1na2vs0mg"},{"bike_id":"2fc8f02c-e5f3-4e56-9038-45f0a5217743","system_id":"levelo_inurba_marseille","lat":43.2707,"lon":5.42278,"is_reserved":false,"is_disabled":false,"rental_uris":{"android":"levelo://app?vid=2fc8f02c-e5f3-4e56-9038-45f0a5217743","ios":"levelo://app?vid=2fc8f02c-e5f3-4e56-9038-45f0a5217743"},"vehicle_type_id":"4","last_reported":1731794847,"current_range_meters":10800,"station_id":"ce4bhk92rcd13ifvqgb0","pricing_plan_id":"cebpf4jnsgd1na2vs0mg"},{"bike_id":"db34b958-bfd7-45c8-80f1-d1f93bb12a53","system_id":"levelo_inurba_marseille","lat":43.28345,"lon":5.38108,"is_reserved":false,"is_disabled":false,"rental_uris":{"android":"levelo://app?vid=db34b958-bfd7-45c8-80f1-d1f93bb12a53","ios":"levelo://app?vid=db34b958-bfd7-45c8-80f1-d1f93bb12a53"},"vehicle_type_id":"4","last_reported":1731794847,"current_range_meters":28400,"station_id":"ce4bh412rcd13ifvqdr0","pricing_plan_id":"cebpf4jnsgd1na2vs0mg"},{"bike_id":"e607fae5-d866-4399-9546-e1fac4320320","system_id":"levelo_inurba_marseille","lat":43.30354,"lon":5.4188,"is_reserved":false,"is_disabled":false,"rental_uris":{"android":"levelo://app?vid=e607fae5-d866-4399-9546-e1fac4320320","ios":"levelo://app?vid=e607fae5-d866-4399-9546-e1fac4320320"},"vehicle_type_id":"4","last_reported":1731794847,"current_range_meters":22000,"station_id":"ce4bhop2rcd13ifvqh7g","pricing_plan_id":"cebpf4jnsgd1na2vs0mg"},{"bike_id":"2785b7f0-01ac-4d41-85ef-7ace1688d58d","system_id":"levelo_inurba_marseille","lat":43.29843,"lon":5.36267,"is_reserved":false,"is_disabled":false,"rental_uris":{"android":"levelo://app?vid=2785b7f0-01ac-4d41-85ef-7ace1688d58d","ios":"levelo://app?vid=2785b7f0-01ac-4d41-85ef-7ace1688d58d"},"vehicle_type_id":"4","last_reported":1731794847,"current_range_meters":14000,"station_id":"ce4bgpp2rcd13ifvqc3g","pricing_plan_id":"cebpf4jnsgd1na2vs0mg"},{"bike_id":"56411145-5d77-4f61-b745-f4c7000b2e9b","system_id":"levelo_inurba_marseille","lat":43.3205,"lon":5.4155,"is_reserved":false,"is_disabled":false,"rental_uris":{"android":"levelo://app?vid=56411145-5d77-4f61-b745-f4c7000b2e9b","ios":"levelo://app?vid=56411145-5d77-4f61-b745-f4c7000b2e9b"},"vehicle_type_id":"4","last_reported":1731794847,"current_range_meters":20800,"station_id":"ce4bhq92rcd13ifvqhkg","pricing_plan_id":"cebpf4jnsgd1na2vs0mg"},{"bike_id":"10daca96-dff9-4f7e-9ad2-87250168f437","system_id":"levelo_inurba_marseille","lat":43.30535,"lon":5.36717,"is_reserved":false,"is_disabled":false,"rental_uris":{"android":"levelo://app?vid=10daca96-dff9-4f7e-9ad2-87250168f437","ios":"levelo://app?vid=10daca96-dff9-4f7e-9ad2-87250168f437"},"vehicle_type_id":"4","last_reported":1731794847,"current_range_meters":7200,"station_id":"ce4bgrp2rcd13ifvqc9g","pricing_plan_id":"cebpf4jnsgd1na2vs0mg"},{"bike_id":"a4c5d741-fe84-4920-a6ef-f4eccc7e37d4","system_id":"levelo_inurba_marseille","lat":43.28488,"lon":5.3855,"is_reserved":false,"is_disabled":false,"rental_uris":{"android":"levelo://app?vid=a4c5d741-fe84-4920-a6ef-f4eccc7e37d4","ios":"levelo://app?vid=a4c5d741-fe84-4920-a6ef-f4eccc7e37d4"},"vehicle_type_id":"4","last_reported":1731794847,"current_range_meters":20000,"station_id":"ce4bh8p2rcd13ifvqeb0","pricing_plan_id":"cebpf4jnsgd1na2vs0mg"},{"bike_id":"8d13458a-6ef6-44b2-a084-c316faf7b133","system_id":"levelo_inurba_marseille","lat":43.27949,"lon":5.41049,"is_reserved":false,"is_disabled":false,"rental_uris":{"android":"levelo://app?vid=8d13458a-6ef6-44b2-a084-c316faf7b133","ios":"levelo://app?vid=8d13458a-6ef6-44b2-a084-c316faf7b133"},"vehicle_type_id":"4","last_reported":1731794847,"current_range_meters":38000,"station_id":"ce4bhnp2rcd13ifvqh0g","pricing_plan_id":"cebpf4jnsgd1na2vs0mg"},{"bike_id":"17dafe74-a678-4b7e-ae60-dc60340eae44","system_id":"levelo_inurba_marseille","lat":43.29967,"lon":5.38497,"is_reserved":false,"is_disabled":false,"rental_uris":{"android":"levelo://app?vid=17dafe74-a678-4b7e-ae60-dc60340eae44","ios":"levelo://app?vid=17dafe74-a678-4b7e-ae60-dc60340eae44"},"vehicle_type_id":"4","last_reported":1731794847,"current_range_meters":4000,"station_id":"ce4bgj92rcd13ifvqbd0","pricing_plan_id":"cebpf4jnsgd1na2vs0mg"},