{"last_updated":1716628023,"ttl":30,"version":"2.2","data":{"bikes":[{"bike_id":"5576acd8-f1f3-43d0-b8d5-699596c48895","system_id":"levelo_inurba_marseille","lat":43.31341,"lon":5.367098,"is_reserved":false,"is_disabled":false,"rental_uris":{"android":"levelo://app?vid=5576acd8-f1f3-43d0-b8d5-699596c48895","ios":"levelo://app?vid=5576acd8-f1f3-43d0-b8d5-699596c48895"},"vehicle_type_id":"4","last_reported":1716628023,"current_range_meters":22000,"station_id":"ce4bgr92rcd13ifvqc6g","pricing_plan_id":"cebpf4jnsgd1na2vs0mg"},{"bike_id":"cc7911cb-66ff-4f15-a541-2f8e883d397f","system_id":"levelo_inurba_marseille","lat":43.31341,"lon":5.367098,"is_reserved":false,"is_disabled":false,"rental_uris":{"android":"levelo://app?vid=cc7911cb-66ff-4f15-a541-2f8e883d397f","ios":"levelo://app?vid=cc7911cb-66ff-4f15-a541-2f8e883d397f"},"vehicle_type_id":"4","last_reported":1716628023,"current_range_meters":25600,"station_id":"ce4bgr92rcd13ifvqc6g","pricing_plan_id":"cebpf4jnsgd1na2vs0mg"},{"bike_id":"c3f6cb8d-ae2a-4a6e-9cd0-7256f8272478","system_id":"levelo_inurba_marseille","lat":43.313391,"lon":5.36706,"is_reserved":false,"is_disabled":false,"rental_uris":{"android":"levelo://app?vid=c3f6cb8d-ae2a-4a6e-9cd0-7256f8272478","ios":"levelo://app?vid=c3f6cb8d-ae2a-4a6e-9cd0-7256f8272478"},"vehicle_type_id":"4","last_reported":1716628023,"current_range_meters":27200,"station_id":"ce4bgr92rcd13ifvqc6g","pricing_plan_id":"cebpf4jnsgd1na2vs0mg"},{"bike_id":"ccd4c622-b43a-4991-804e-2f797523bd41","system_id":"levelo_inurba_marseille","lat":43.312239,"lon":5.368562,"is_reserved":false,"is_disabled":false,"rental_uris":{"android":"levelo://app?vid=ccd4c622-b43a-4991-804e-2f797523bd41","ios":"levelo://app?vid=ccd4c622-b43a-4991-804e-2f797523bd41"},"vehicle_type_id":"4","last_reported":1716628023,"current_range_meters":31200,"station_id":"ce4bgl92rcd13ifvqbq0","pricing_plan_id":"cebpf4jnsgd1na2vs0mg"},{"bike_id":"be575b37-c0c9-4f77-8f4d-760ddafe9ce4","system_id":"levelo_inurba_marseille","lat":43.312239,"lon":5.368562,"is_reserved":false,"is_disabled":false,"rental_uris":{"android":"levelo://app?vid=be575b37-c0c9-4f77-8f4d-760ddafe9ce4","ios":"levelo://app?vid=be575b37-c0c9-4f77-8f4d-760ddafe9ce4"},"vehicle_type_id":"4","last_reported":1716628023,"current_range_meters":4000,"station_id":"ce4bgl92rcd13ifvqbq0","pricing_plan_id":"cebpf4jnsgd1na2vs0mg"},{"bike_id":"b8253452-9671-46ab-8efc-778db06b1ad6","system_id":"levelo_inurba_marseille","lat":43.309076,"lon":5.368465,"is_reserved":false,"is_disabled":false,"rental_uris":{"android":"levelo://app?vid=b8253452-9671-46ab-8efc-778db06b1ad6","ios":"levelo://app?vid=b8253452-9671-46ab-8efc-778db06b1ad6"},"vehicle_type_id":"4","last_reported":1716628023,"current_range_meters":26800,"station_id":"ce4bgn92rcd13ifvqbvg","pricing_plan_id":"cebpf4jnsgd1na2vs0mg"},{"bike_id":"0ba26f5a-2e0d-422f-be20-8eebbcf5b33e","system_id":"levelo_inurba_marseille","lat":43.309076,"lon":5.368465,"is_reserved":false,"is_disabled":false,"rental_uris":{"android":"levelo://app?vid=0ba26f5a-2e0d-422f-be20-8eebbcf5b33e","ios":"levelo://app?vid=0ba26f5a-2e0d-422f-be20-8eebbcf5b33e"},"vehicle_type_id":"4","last_reported":1716628023,"current_range_meters":28400,"station_id":"ce4bgn92rcd13ifvqbvg","pricing_plan_id":"cebpf4jnsgd1na2vs0mg"},{"bike_id":"556bb7a9-3f65-4ff6-8968-73a7c6778b92","system_id":"levelo_inurba_marseille","lat":43.309076,"lon":5.368465,"is_reserved":false,"is_disabled":false,"rental_uris":{"android":"levelo://app?vid=556bb7a9-3f65-4ff6-8968-73a7c6778b92","ios":"levelo://app?vid=556bb7a9-3f65-4ff6-8968-73a7c6778b92"},"vehicle_type_id":"4","last_reported":1716628023,"current_range_meters":9600,"station_id":"ce4bgn92rcd13ifvqbvg","pricing_plan_id":"cebpf4jnsgd1na2vs0mg"},{"bike_id":"71f93766-9ea0-4dfb-a75b-3c21b385b317","system_id":"levelo_inurba_marseille","lat":43.314811,"lon":5.373104,"is_reserved":false,"is_disabled":false,"rental_uris":{"android":"levelo://app?vid=71f93766-9ea0-4dfb-a75b-3c21b385b317","ios":"levelo://app?vid=71f93766-9ea0-4dfb-a75b-3c21b385b317"},"vehicle_type_id":"4","last_reported":1716628023,"current_range_meters":31200,"station_id":"ce4bgt12rcd13ifvqcd0","pricing_plan_id":"cebpf4jnsgd1na2vs0mg"},{"bike_id":"32b14350-9d03-4948-8453-dd94dc3b99e2","system_id":"levelo_inurba_marseille","lat":43.31494,"lon":5.37302,"is_reserved":false,"is_disabled":false,"rental_uris":{"android":"levelo://app?vid=32b14350-9d03-4948-8453-dd94dc3b99e2","ios":"levelo://app?vid=32b14350-9d03-4948-8453-dd94dc3b99e2"},"vehicle_type_id":"4","last_reported":1716628023,"current_range_meters":8400,"station_id":"ce4bgt12rcd13ifvqcd0","pricing_plan_id":"cebpf4jnsgd1na2vs0mg"},{"bike_id":"6bf620d6-54b8-4282-b19c-13a8b15edc8e","system_id":"levelo_inurba_marseille","lat":43.314811,"lon":5.373103,"is_reserved":false,"is_disabled":false,"rental_uris":{"android":"levelo://app?vid=6bf620d6-54b8-4282-b19c-13a8b15edc8e","ios":"levelo://app?vid=6bf620d6-54b8-4282-b19c-13a8b15edc8e"},"vehicle_type_id":"4","last_reported":1716628023,"current_range_meters":24800,"station_id":"ce4bgt12rcd13ifvqcd0","pricing_plan_id":"cebpf4jnsgd1na2vs0mg"},{"bike_id":"f607a2d9-dea8-4867-a264-a375240e5b9a","system_id":"levelo_inurba_marseille","lat":43.31672,"lon":5.3722,"is_reserved":false,"is_disabled":false,"rental_uris":{"android":"levelo://app?vid=f607a2d9-dea8-4867-a264-a375240e5b9a","ios":"levelo://app?vid=f607a2d9-dea8-4867-a264-a375240e5b9a"},"vehicle_type_id":"4","last_reported":1716628023,"current_range_meters":0,"station_id":"","pricing_plan_id":"cebpf4jnsgd1na2vs0mg"},{"bike_id":"085f8808-1d82-4a31-a42a-8e58df7e3717","system_id":"levelo_inurba_marseille","lat":43.30677,"lon":5.37223,"is_reserved":false,"is_disabled":false,"rental_uris":{"android":"levelo://app?vid=085f8808-1d82-4a31-a42a-8e58df7e3717","ios":"levelo://app?vid=085f8808-1d82-4a31-a42a-8e58df7e3717"},"vehicle_type_id":"4","last_reported":1716628023,"current_range_meters":30800,"station_id":"","pricing_plan_id":"cebpf4jnsgd1na2vs0mg"},{"bike_id":"676e0028-081c-4965-be00-f47a3c98ef67","system_id":"levelo_inurba_marseille","lat":43.305712,"lon":5.365641,"is_reserved":false,"is_disabled":false,"rental_uris":{"android":"levelo://app?vid=676e0028-081c-4965-be00-f47a3c98ef67","ios":"levelo://app?vid=676e0028-081c-4965-be00-f47a3c98ef67"},"vehicle_type_id":"4","last_reported":1716628023,"current_range_meters":30800,"station_id":"ce4bgs12rcd13ifvqcag","pricing_plan_id":"cebpf4jnsgd1na2vs0mg"},{"bike_id":"dd1fbb68-673d-43c8-a101-60a0af972c4e","system_id":"levelo_inurba_marseille","lat":43.305712,"lon":5.365641,"is_reserved":false,"is_disabled":false,"rental_uris":{"android":"levelo://app?vid=dd1fbb68-673d-43c8-a101-60a0af972c4e","ios":"levelo://app?vid=dd1fbb68-673d-43c8-a101-60a0af972c4e"},"vehicle_type_id":"4","last_reported":1716628023,"current_range_meters":7200,"station_id":"ce4bgs12rcd13ifvqcag","pricing_plan_id":"cebpf4jnsgd1na2vs0mg"},{"bike_id":"205c015b-3591-4ed3-90de-90c32a4b20c8","system_id":"levelo_inurba_marseille","lat":43.305714,"lon":5.365633,"is_reserved":false,"is_disabled":false,"rental_uris":{"android":"levelo://app?vid=205c015b-3591-4ed3-90de-90c32a4b20c8","ios":"levelo://app?vid=205c015b-3591-4ed3-90de-90c32a4b20c8"},"vehicle_type_id":"4","last_reported":1716628023,"current_range_meters":17200,"station_id":"ce4bgs12rcd13ifvqcag","pricing_plan_id":"cebpf4jnsgd1na2vs0mg"},{"bike_id":"5a450b43-fecd-4da9-a5e0-d7ffb1baad25","system_id":"levelo_inurba_marseille","lat":43.305714,"lon":5.365633,"is_reserved":false,"is_disabled":false,"rental_uris":{"android":"levelo://app?vid=5a450b43-fecd-4da9-a5e0-d7ffb1baad25","ios":"levelo://app?vid=5a450b43-fecd-4da9-a5e0-d7ffb1baad25"},"vehicle_type_id":"4","last_reported":1716628023,"current_range_meters":25200,"station_id":"ce4bgs12rcd13ifvqcag","pricing_plan_id":"cebpf4jnsgd1na2vs0mg"},{"bike_id":"b6ce7c80-3477-4abd-97ce-f0f72679ba99","system_id":"levelo_inurba_marseille","lat":43.305712,"lon":5.365641,"is_reserved":false,"is_disabled":false,"rental_uris":{"android":"levelo://app?vid=b6ce7c80-3477-4abd-97ce-f0f72679ba99","ios":"levelo://app?vid=b6ce7c80-3477-4abd-97ce-f0f72679ba99"},"vehicle_type_id":"4","last_reported":1716628023,"current_range_meters":24800,"station_id":"ce4bgs12rcd13ifvqcag","pricing_plan_id":"cebpf4jnsgd1na2vs0mg"},{"bike_id":"a7f665d5-2df5-4e4b-aace-3ad78f9c90f0","system_id":"levelo_inurba_marseille","lat":43.305712,"lon":5.365641,"is_reserved":false,"is_disabled":false,"rental_uris":{"android":"levelo://app?vid=a7f665d5-2df5-4e4b-aace-3ad78f9c90f0","ios":"levelo://app?vid=a7f665d5-2df5-4e4b-aace-3ad78f9c90f0"},"vehicle_type_id":"4","last_reported":1716628023,"current_range_meters":11200,"station_id":"ce4bgs12rcd13ifvqcag","pricing_plan_id":"cebpf4jnsgd1na2vs0mg"},{"bike_id":"a5355339-f5a6-4615-8d18-cff42313c354","system_id":"levelo_inurba_marseille","lat":43.305714,"lon":5.365633,"is_reserved":false,"is_disabled":false,"rental_uris":{"android":"levelo://app?vid=a5355339-f5a6-4615-8d18-cff42313c354","ios":"levelo://app?vid=a5355339-f5a6-4615-8d18-cff42313c354"},"vehicle_type_id":"4","last_reported":1716628023,"current_range_meters":31200,"station_id":"ce4bgs12rcd13ifvqcag","pricing_plan_id":"cebpf4jnsgd1na2vs0mg"},{"bike_id":"a3367ac5-ad8b-432c-8442-d5035f6a342e","system_id":"levelo_inurba_marseille","lat":43.305706,"lon":5.365654,"is_reserved":false,"is_disabled":false,"rental_uris":{"android":"levelo://app?vid=a3367ac5-ad8b-432c-8442-d5035f6a342e","ios":"levelo://app?vid=a3367ac5-ad8b-432c-8442-d5035f6a342e"},"vehicle_type_id":"4","last_reported":1716628023,"current_range_meters":17600,"station_id":"ce4bgs12rcd13ifvqcag","pricing_plan_id":"cebpf4jnsgd1na2vs0mg"},{"bike_id":"1926950b-a99f-4b7b-aee4-fde862036d99","system_id":"levelo_inurba_marseille","lat":43.305706,"lon":5.365654,"is_reserved":false,"is_disabled":false,"rental_uris":{"android":"levelo://app?vid=1926950b-a99f-4b7b-aee4-fde862036d99","ios":"levelo://app?vid=1926950b-a99f-4b7b-aee4-fde862036d99"},"vehicle_type_id":"4","last_reported":1716628023,"current_range_meters":23200,"station_id":"ce4bgs12rcd13ifvqcag","pricing_plan_id":"cebpf4jnsgd1na2vs0mg"},{"bike_id":"242454ef-233e-4ebf-98d9-94ad9bf714d4","system_id":"levelo_inurba_marseille","lat":43.305714,"lon":5.365633,"is_reserved":false,"is_disabled":false,"rental_uris":{"android":"levelo://app?vid=242454ef-233e-4ebf-98d9-94ad9bf714d4","ios":"levelo://app?vid=242454ef-233e-4ebf-98d9-94ad9bf714d4"},"vehicle_type_id":"4","last_reported":1716628023,"current_range_meters":12800,"station_id":"ce4bgs12rcd13ifvqcag","pricing_plan_id":"cebpf4jnsgd1na2vs0mg"},{"bike_id":"9a7d3b58-4d07-466f-bd09-160241c8d7ae","system_id":"levelo_inurba_marseille","lat":43.305706,"lon":5.365654,"is_reserved":false,"is_disabled":false,"rental_uris":{"android":"levelo://app?vid=9a7d3b58-4d07-466f-bd09-160241c8d7ae","ios":"levelo://app?vid=9a7d3b58-4d07-466f-bd09-160241c8d7ae"},"vehicle_type_id":"4","last_reported":1716628023,"current_range_meters":4000,"station_id":"ce4bgs12rcd13ifvqcag","pricing_plan_id":"cebpf4jnsgd1na2vs0mg"},{"bike_id":"fea704e8-86bf-4522-b577-10e13b515611","system_id":"levelo_inurba_marseille","lat":43.305706,"lon":5.365654,"is_reserved":false,"is_disabled":false,"rental_uris":{"android":"levelo://app?vid=fea704e8-86bf-4522-b577-10e13b515611","ios":"levelo://app?vid=fea704e8-86bf-4522-b577-10e13b515611"},"vehicle_type_id":"4","last_reported":1716628023,"current_range_meters":8800,"station_id":"ce4bgs12rcd13ifvqcag","pricing_plan_id":"cebpf4jnsgd1na2vs0mg"},{"bike_id":"08ebfbd5-e728-4fbc-9fb3-da07eb85f2f2","system_id":"levelo_inurba_marseille","lat":43.305706,"lon":5.365654,"is_reserved":false,"is_disabled":false,"rental_uris":{"android":"levelo://app?vid=08ebfbd5-e728-4fbc-9fb3-da07eb85f2f2","ios":"levelo://app?vid=08ebfbd5-e728-4fbc-9fb3-da07eb85f2f2"},"vehicle_type_id":"4","last_reported":1716628023,"current_range_meters":24800,"station_id":"ce4bgs12rcd13ifvqcag","pricing_plan_id":"cebpf4jnsgd1na2vs0mg"},{"bike_id":"89d5fdc9-d50f-4e42-9a2b-098d485775e9","system_id":"levelo_inurba_marseille","lat":43.305706,"lon":5.365654,"is_reserved":false,"is_disabled":false,"rental_uris":{"android":"levelo://app?vid=89d5fdc9-d50f-4e42-9a2b-098d485775e9","ios":"levelo://app?vid=89d5fdc9-d50f-4e42-9a2b-098d485775e9"},"vehicle_type_id":"4","last_reported":1716628023,"current_range_meters":30800,"station_id":"ce4bgs12rcd13ifvqcag","pricing_plan_id":"cebpf4jnsgd1na2vs0mg"},{"bike_id":"7f0fee0b-4d26-464e-973a-ded706df8273","system_id":"levelo_inurba_marseille","lat":43.305706,"lon":5.365654,"is_reserved":false,"is_disabled":false,"rental_uris":{"android":"levelo://app?vid=7f0fee0b-4d26-464e-973a-ded706df8273","ios":"levelo://app?vid=7f0fee0b-4d26-464e-973a-ded706df8273"},"vehicle_type_id":"4","last_reported":1716628023,"current_range_meters":27600,"station_id":"ce4bgs12rcd13ifvqcag","pricing_plan_id":"cebpf4jnsgd1na2vs0mg"},{"bike_id":"9c9cb351-0b2d-46ca-980d-840eaff7e293","system_id":"levelo_inurba_marseille","lat":43.305706,"lon":5.365654,"is_reserved":false,"is_disabled":false,"rental_uris":{"android":"levelo://app?vid=9c9cb351-0b2d-46ca-980d-840eaff7e293","ios":"levelo://app?vid=9c9cb351-0b2d-46ca-980d-840eaff7e293"},"vehicle_type_id":"4","last_reported":1716628023,"current_range_meters":17600,"station_id":"ce4bgs12rcd13ifvqcag","pricing_plan_id":"cebpf4jnsgd1na2vs0mg"},{"bike_id":"1cc43af9-bc8b-42af-b0b9-02e41cdadb7e","system_id":"levelo_inurba_marseille","lat":43.305989,"lon":5.37225,"is_reserved":false,"is_disabled":false,"rental_uris":{"android":"levelo://app?vid=1cc43af9-bc8b-42af-b0b9-02e41cdadb7e","ios":"levelo://app?vid=1cc43af9-bc8b-42af-b0b9-02e41cdadb7e"},"vehicle_type_id":"4","last_reported":1716628023,"current_range_meters":31200,"station_id":"ce4bgqh2rcd13ifvqc4g","pricing_plan_id":"cebpf4jnsgd1na2vs0mg"},{"bike_id":"3065a195-273f-444f-a9f6-2248756f4043","system_id":"levelo_inurba_marseille","lat":43.305989,"lon":5.37225,"is_reserved":false,"is_disabled":false,"rental_uris":{"android":"levelo://app?vid=3065a195-273f-444f-a9f6-2248756f4043","ios":"levelo://app?vid=3065a195-273f-444f-a9f6-2248756f4043"},"vehicle_type_id":"4","last_reported":1716628023,"current_range_meters":18000,"station_id":"ce4bgqh2rcd13ifvqc4g","pricing_plan_id":"cebpf4jnsgd1na2vs0mg"},{"bike_id":"66e749ab-0f16-4df9-ad74-2611d6a6e694","system_id":"levelo_inurba_marseille","lat":43.305989,"lon":5.37225,"is_reserved":false,"is_disabled":false,"rental_uris":{"android":"levelo://app?vid=66e749ab-0f16-4df9-ad74-2611d6a6e694","ios":"levelo://app?vid=66e749ab-0f16-4df9-ad74-2611d6a6e694"},"vehicle_type_id":"4","last_reported":1716628023,"current_range_meters":30800,"station_id":"ce4bgqh2rcd13ifvqc4g","pricing_plan_id":"cebpf4jnsgd1na2vs0mg"},{"bike_id":"db55dc7b-87ab-4a87-98fb-6c7c9f32a9e7","system_id":"levelo_inurba_marseille","lat":43.306013,"lon":5.372313,"is_reserved":false,"is_disabled":false,"rental_uris":{"android":"levelo://app?vid=db55dc7b-87ab-4a87-98fb-6c7c9f32a9e7","ios":"levelo://app?vid=db55dc7b-87ab-4a87-98fb-6c7c9f32a9e7"},"vehicle_type_id":"4","last_reported":1716628023,"current_range_meters":31200,"station_id":"ce4bgqh2rcd13ifvqc4g","pricing_plan_id":"cebpf4jnsgd1na2vs0mg"},{"bike_id":"9e93dd09-af86-4ae6-b521-99e413012368","system_id":"levelo_inurba_marseille","lat":43.311125,"lon":5.377624,"is_reserved":false,"is_disabled":false,"rental_uris":{"android":"levelo://app?vid=9e93dd09-af86-4ae6-b521-99e413012368","ios":"levelo://app?vid=9e93dd09-af86-4ae6-b521-99e413012368"},"vehicle_type_id":"4","last_reported":1716628023,"current_range_meters":19600,"station_id":"ce4bgt92rcd13ifvqcg0","pricing_plan_id":"cebpf4jnsgd1na2vs0mg"},{"bike_id":"43cc8668-d787-4bda-b72c-f2bb22bfaf9d","system_id":"levelo_inurba_marseille","lat":43.307945,"lon":5.376487,"is_reserved":false,"is_disabled":false,"rental_uris":{"android":"levelo://app?vid=43cc8668-d787-4bda-b72c-f2bb22bfaf9d","ios":"levelo://app?vid=43cc8668-d787-4bda-b72c-f2bb22bfaf9d"},"vehicle_type_id":"4","last_reported":1716628023,"current_range_meters":31200,"station_id":"ce4bgv92rcd13ifvqcq0","pricing_plan_id":"cebpf4jnsgd1na2vs0mg"},{"bike_id":"184a89fb-5ee7-41d5-a183-bd11992968c6","system_id":"levelo_inurba_marseille","lat":43.30781,"lon":5.37651,"is_reserved":false,"is_disabled":false,"rental_uris":{"android":"levelo://app?vid=184a89fb-5ee7-41d5-a183-bd11992968c6","ios":"levelo://app?vid=184a89fb-5ee7-41d5-a183-bd11992968c6"},"vehicle_type_id":"4","last_reported":1716628023,"current_range_meters":23600,"station_id":"ce4bgv92rcd13ifvqcq0","pricing_plan_id":"cebpf4jnsgd1na2vs0mg"},{"bike_id":"add2a82d-310e-4590-8dfd-5ae16ac2f080","system_id":"levelo_inurba_marseille","lat":43.307945,"lon":5.376487,"is_reserved":false,"is_disabled":false,"rental_uris":{"android":"levelo://app?vid=add2a82d-310e-4590-8dfd-5ae16ac2f080","ios":"levelo://app?vid=add2a82d-310e-4590-8dfd-5ae16ac2f080"},"vehicle_type_id":"4","last_reported":1716628023,"current_range_meters":26400,"station_id":"ce4bgv92rcd13ifvqcq0","pricing_plan_id":"cebpf4jnsgd1na2vs0mg"},{"bike_id":"b3e8db60-869c-4b01-8df6-c52c20099087","system_id":"levelo_inurba_marseille","lat":43.317075,"lon":5.377367,"is_reserved":false,"is_disabled":false,"rental_uris":{"android":"levelo://app?vid=b3e8db60-869c-4b01-8df6-c52c20099087","ios":"levelo://app?vid=b3e8db60-869c-4b01-8df6-c52c20099087"},"vehicle_type_id":"4","last_reported":1716628023,"current_range_meters":3600,"station_id":"ce4bgth2rcd13ifvqch0","pricing_plan_id":"cebpf4jnsgd1na2vs0mg"},{"bike_id":"1f7ad4e9-c184-4db2-8917-49841a53a5ab","system_id":"levelo_inurba_marseille","lat":43.317075,"lon":5.377367,"is_reserved":false,"is_disabled":false,"rental_uris":{"android":"levelo://app?vid=1f7ad4e9-c184-4db2-8917-49841a53a5ab","ios":"levelo://app?vid=1f7ad4e9-c184-4db2-8917-49841a53a5ab"},"vehicle_type_id":"4","last_reported":1716628023,"current_range_meters":27200,"station_id":"ce4bgth2rcd13ifvqch0","pricing_plan_id":"cebpf4jnsgd1na2vs0mg"},{"bike_id":"93f58689-97e9-41c3-8746-cad4911b3904","system_id":"levelo_inurba_marseille","lat":43.317075,"lon":5.377367,"is_reserved":false,"is_disabled":false,"rental_uris":{"android":"levelo://app?vid=93f58689-97e9-41c3-8746-cad4911b3904","ios":"levelo://app?vid=93f58689-97e9-41c3-8746-cad4911b3904"},"vehicle_type_id":"4","last_reported":1716628023,"current_range_meters":22800,"station_id":"ce4bgth2rcd13ifvqch0","pricing_plan_id":"cebpf4jnsgd1na2vs0mg"},{"bike_id":"f991b367-4dde-4b63-ac1b-762127691947","system_id":"levelo_inurba_marseille","lat":43.303046,"lon":5.368981,"is_reserved":false,"is_disabled":false,"rental_uris":{"android":"levelo://app?vid=f991b367-4dde-4b63-ac1b-762127691947","ios":"levelo://app?vid=f991b367-4dde-4b63-ac1b-762127691947"},"vehicle_type_id":"4","last_reported":1716628023,"current_range_meters":18800,"station_id":"ce4bgqh2rcd13ifvqc5g","pricing_plan_id":"cebpf4jnsgd1na2vs0mg"},{"bike_id":"a8cb2d6b-473c-4a0c-8913-9ca480745e83","system_id":"levelo_inurba_marseille","lat":43.303046,"lon":5.368981,"is_reserved":false,"is_disabled":false,"rental_uris":{"android":"levelo://app?vid=a8cb2d6b-473c-4a0c-8913-9ca480745e83","ios":"levelo://app?vid=a8cb2d6b-473c-4a0c-8913-9ca480745e83"},"vehicle_type_id":"4","last_reported":1716628023,"current_range_meters":31200,"station_id":"ce4bgqh2rcd13ifvqc5g","pricing_plan_id":"cebpf4jnsgd1na2vs0mg"},{"bike_id":"b5392ffe-1e39-4800-b073-db3ac5cbb7b8","system_id":"levelo_inurba_marseille","lat":43.30304,"lon":5.368987,"is_reserved":false,"is_disabled":false,"rental_uris":{"android":"levelo://app?vid=b5392ffe-1e39-4800-b073-db3ac5cbb7b8","ios":"levelo://app?vid=b5392ffe-1e39-4800-b073-db3ac5cbb7b8"},"vehicle_type_id":"4","last_reported":1716628023,"current_range_meters":27600,"station_id":"ce4bgqh2rcd13ifvqc5g","pricing_plan_id":"cebpf4jnsgd1na2vs0mg"},{"bike_id":"e2d71dc7-d260-448c-a121-1cbe2d9d414c","system_id":"levelo_inurba_marseille","lat":43.315293,"lon":5.380349,"is_reserved":false,"is_disabled":false,"rental_uris":{"android":"levelo://app?vid=e2d71dc7-d260-448c-a121-1cbe2d9d414c","ios":"levelo://app?vid=e2d71dc7-d260-448c-a121-1cbe2d9d414c"},"vehicle_type_id":"4","last_reported":1716628023,"current_range_meters":17600,"station_id":"ce4bhsp2rcd13ifvqi50","pricing_plan_id":"cebpf4jnsgd1na2vs0mg"},{"bike_id":"b2aaad0c-72fe-484f-892f-9feedb04c854","system_id":"levelo_inurba_marseille","lat":43.315293,"lon":5.380349,"is_reserved":false,"is_disabled":false,"rental_uris":{"android":"levelo://app?vid=b2aaad0c-72fe-484f-892f-9feedb04c854","ios":"levelo://app?vid=b2aaad0c-72fe-484f-892f-9feedb04c854"},"vehicle_type_id":"4","last_reported":1716628023,"current_range_meters":28400,"station_id":"ce4bhsp2rcd13ifvqi50","pricing_plan_id":"cebpf4jnsgd1na2vs0mg"},{"bike_id":"f7633be1-3de1-4ce3-8637-6512c32b7aaa","system_id":"levelo_inurba_marseille","lat":43.301939,"lon":5.366286,"is_reserved":false,"is_disabled":false,"rental_uris":{"android":"levelo://app?vid=f7633be1-3de1-4ce3-8637-6512c32b7aaa","ios":"levelo://app?vid=f7633be1-3de1-4ce3-8637-6512c32b7aaa"},"vehicle_type_id":"4","last_reported":1716628023,"current_range_meters":16400,"station_id":"ce4bgrh2rcd13ifvqc8g","pricing_plan_id":"cebpf4jnsgd1na2vs0mg"},{"bike_id":"305ad047-f8a1-4986-a69b-48573e08a0aa","system_id":"levelo_inurba_marseille","lat":43.301939,"lon":5.366286,"is_reserved":false,"is_disabled":false,"rental_uris":{"android":"levelo://app?vid=305ad047-f8a1-4986-a69b-48573e08a0aa","ios":"levelo://app?vid=305ad047-f8a1-4986-a69b-48573e08a0aa"},"vehicle_type_id":"4","last_reported":1716628023,"current_range_meters":22800,"station_id":"ce4bgrh2rcd13ifvqc8g","pricing_plan_id":"cebpf4jnsgd1na2vs0mg"},{"bike_id":"52d33e8a-d723-4ce9-969c-b7e747d9189d","system_id":"levelo_inurba_marseille","lat":43.30817,"lon":5.3815,"is_reserved":false,"is_disabled":false,"rental_uris":{"android":"levelo://app?vid=52d33e8a-d723-4ce9-969c-b7e747d9189d","ios":"levelo://app?vid=52d33e8a-d723-4ce9-969c-b7e747d9189d"},"vehicle_type_id":"4","last_reported":1716628023,"current_range_meters":22800,"station_id":"ce4bgt12rcd13ifvqce0","pricing_plan_id":"cebpf4jnsgd1na2vs0mg"},{"bike_id":"e543afe7-3f21-4a19-a63e-580fcb10673a","system_id":"levelo_inurba_marseille","lat":43.30471,"lon":5.37905,"is_reserved":false,"is_disabled":false,"rental_uris":{"android":"levelo://app?vid=e543afe7-3f21-4a19-a63e-580fcb10673a","ios":"levelo://app?vid=e543afe7-3f21-4a19-a63e-580fcb10673a"},"vehicle_type_id":"4","last_reported":1716628023,"current_range_meters":17600,"station_id":"ce4bgup2rcd13ifvqcn0","pricing_plan_id":"cebpf4jnsgd1na2vs0mg"},{"bike_id":"1f0c3dad-db97-4249-8735-51fe213e088c","system_id":"levelo_inurba_marseille","lat":43.304606,"lon":5.379026,"is_reserved":false,"is_disabled":false,"rental_uris":{"android":"levelo://app?vid=1f0c3dad-db97-4249-8735-51fe213e088c","ios":"levelo://app?vid=1f0c3dad-db97-4249-8735-51fe213e088c"},"vehicle_type_id":"4","last_reported":1716628023,"current_range_meters":26800,"station_id":"ce4bgup2rcd13ifvqcn0","pricing_plan_id":"cebpf4jnsgd1na2vs0mg"},{"bike_id":"15d4c624-38da-4fee-855a-452ec0727b4a","system_id":"levelo_inurba_marseille","lat":43.304606,"lon":5.379026,"is_reserved":false,"is_disabled":false,"rental_uris":{"android":"levelo://app?vid=15d4c624-38da-4fee-855a-452ec0727b4a","ios":"levelo://app?vid=15d4c624-38da-4fee-855a-452ec0727b4a"},"vehicle_type_id":"4","last_reported":1716628023,"current_range_meters":23600,"station_id":"ce4bgup2rcd13ifvqcn0","pricing_plan_id":"cebpf4jnsgd1na2vs0mg"},{"bike_id":"2f86550a-22f1-425c-bb2d-c3f844c75a78","system_id":"levelo_inurba_marseille","lat":43.304606,"lon":5.379026,"is_reserved":false,"is_disabled":false,"rental_uris":{"android":"levelo://app?vid=2f86550a-22f1-425c-bb2d-c3f844c75a78","ios":"levelo://app?vid=2f86550a-22f1-425c-bb2d-c3f844c75a78"},"vehicle_type_id":"4","last_reported":1716628023,"current_range_meters":12000,"station_id":"ce4bgup2rcd13ifvqcn0","pricing_plan_id":"cebpf4jnsgd1na2vs0mg"},{"bike_id":"03b2d0ac-4855-463a-a2f0-be21041dc802","system_id":"levelo_inurba_marseille","lat":43.304606,"lon":5.379026,"is_reserved":false,"is_disabled":false,"rental_uris":{"android":"levelo://app?vid=03b2d0ac-4855-463a-a2f0-be21041dc802","ios":"levelo://app?vid=03b2d0ac-4855-463a-a2f0-be21041dc802"},"vehicle_type_id":"4","last_reported":1716628023,"current_range_meters":31200,"station_id":"ce4bgup2rcd13ifvqcn0","pricing_plan_id":"cebpf4jnsgd1na2vs0mg"},{"bike_id":"27e1d31f-c331-490e-9bc1-7e0615e954df","system_id":"levelo_inurba_marseille","lat":43.304606,"lon":5.379026,"is_reserved":false,"is_disabled":false,"rental_uris":{"android":"levelo://app?vid=27e1d31f-c331-490e-9bc1-7e0615e954df","ios":"levelo://app?vid=27e1d31f-c331-490e-9bc1-7e0615e954df"},"vehicle_type_id":"4","last_reported":1716628023,"current_range_meters":11600,"station_id":"ce4bgup2rcd13ifvqcn0","pricing_plan_id":"cebpf4jnsgd1na2vs0mg"},{"bike_id":"4cd0568d-5f56-49fa-8713-719b17bf8980","system_id":"levelo_inurba_marseille","lat":43.304606,"lon":5.379026,"is_reserved":false,"is_disabled":false,"rental_uris":{"android":"levelo://app?vid=4cd0568d-5f56-49fa-8713-719b17bf8980","ios":"levelo://app?vid=4cd0568d-5f56-49fa-8713-719b17bf8980"},"vehicle_type_id":"4","last_reported":1716628023,"current_range_meters":27600,"station_id":"ce4bgup2rcd13ifvqcn0","pricing_plan_id":"cebpf4jnsgd1na2vs0mg"},{"bike_id":"4a2415ce-2df8-41e3-83a4-81d6a67d2ec1","system_id":"levelo_inurba_marseille","lat":43.304606,"lon":5.379026,"is_reserved":false,"is_disabled":false,"rental_uris":{"android":"levelo://app?vid=4a2415ce-2df8-41e3-83a4-81d6a67d2ec1","ios":"levelo://app?vid=4a2415ce-2df8-41e3-83a4-81d6a67d2ec1"},"vehicle_type_id":"4","last_reported":1716628023,"current_range_meters":29200,"station_id":"ce4bgup2rcd13ifvqcn0","pricing_plan_id":"cebpf4jnsgd1na2vs0mg"},{"bike_id":"8c765e76-e2bd-4886-842a-5b8ec4e17787","system_id":"levelo_inurba_marseille","lat":43.304606,"lon":5.379026,"is_reserved":false,"is_disabled":false,"rental_uris":{"android":"levelo://app?vid=8c765e76-e2bd-4886-842a-5b8ec4e17787","ios":"levelo://app?vid=8c765e76-e2bd-4886-842a-5b8ec4e17787"},"vehicle_type_id":"4","last_reported":1716628023,"current_range_meters":31200,"station_id":"ce4bgup2rcd13ifvqcn0","pricing_plan_id":"cebpf4jnsgd1na2vs0mg"},{"bike_id":"b4659b39-b6aa-4930-88f4-f5c94c4e316d","system_id":"levelo_inurba_marseille","lat":43.304606,"lon":5.379026,"is_reserved":false,"is_disabled":false,"rental_uris":{"android":"levelo://app?vid=b4659b39-b6aa-4930-88f4-f5c94c4e316d","ios":"levelo://app?vid=b4659b39-b6aa-4930-88f4-f5c94c4e316d"},"vehicle_type_id":"4","last_reported":1716628023,"current_range_meters":12000,"station_id":"ce4bgup2rcd13ifvqcn0","pricing_plan_id":"cebpf4jnsgd1na2vs0mg"},{"bike_id":"ed8a54a8-03a7-485d-812f-205c55caedfe","system_id":"levelo_inurba_marseille","lat":43.304606,"lon":5.379026,"is_reserved":false,"is_disabled":false,"rental_uris":{"android":"levelo://app?vid=ed8a54a8-03a7-485d-812f-205c55caedfe","ios":"levelo://app?vid=ed8a54a8-03a7-485d-812f-205c55caedfe"},"vehicle_type_id":"4","last_reported":1716628023,"current_range_meters":15200,"station_id":"ce4bgup2rcd13ifvqcn0","pricing_plan_id":"cebpf4jnsgd1na2vs0mg"},{"bike_id":"005ef6cb-c2c1-405d-977e-baab9d8a5ee2","system_id":"levelo_inurba_marseille","lat":43.304606,"lon":5.379026,"is_reserved":false,"is_disabled":false,"rental_uris":{"android":"levelo://app?vid=005ef6cb-c2c1-405d-977e-baab9d8a5ee2","ios":"levelo://app?vid=005ef6cb-c2c1-405d-977e-baab9d8a5ee2"},"vehicle_type_id":"4","last_reported":1716628023,"current_range_meters":9200,"station_id":"ce4bgup2rcd13ifvqcn0","pricing_plan_id":"cebpf4jnsgd1na2vs0mg"},{"bike_id":"b7bc8f7b-6eef-424d-9d7f-c70f8ea0a2c5","system_id":"levelo_inurba_marseille","lat":43.304606,"lon":5.379026,"is_reserved":false,"is_disabled":false,"rental_uris":{"android":"levelo://app?vid=b7bc8f7b-6eef-424d-9d7f-c70f8ea0a2c5","ios":"levelo://app?vid=b7bc8f7b-6eef-424d-9d7f-c70f8ea0a2c5"},"vehicle_type_id":"4","last_reported":1716628023,"current_range_meters":20800,"station_id":"ce4bgup2rcd13ifvqcn0","pricing_plan_id":"cebpf4jnsgd1na2vs0mg"},{"bike_id":"97aa767d-4a7c-4d81-b244-c5d3efb49efc","system_id":"levelo_inurba_marseille","lat":43.324771,"lon":5.36557,"is_reserved":false,"is_disabled":false,"rental_uris":{"android":"levelo://app?vid=97aa767d-4a7c-4d81-b244-c5d3efb49efc","ios":"levelo://app?vid=97aa767d-4a7c-4d81-b244-c5d3efb49efc"},"vehicle_type_id":"4","last_reported":1716628023,"current_range_meters":22400,"station_id":"ce4bhs12rcd13ifvqhvg","pricing_plan_id":"cebpf4jnsgd1na2vs0mg"},{"bike_id":"742cf3eb-0ede-4447-aa0d-235083ddda48","system_id":"levelo_inurba_marseille","lat":43.324771,"lon":5.36557,"is_reserved":false,"is_disabled":false,"rental_uris":{"android":"levelo://app?vid=742cf3eb-0ede-4447-aa0d-235083ddda48","ios":"levelo://app?vid=742cf3eb-0ede-4447-aa0d-235083ddda48"},"vehicle_type_id":"4","last_reported":1716628023,"current_range_meters":30800,"station_id":"ce4bhs12rcd13ifvqhvg","pricing_plan_id":"cebpf4jnsgd1na2vs0mg"},{"bike_id":"c4f55511-783d-4f82-8265-81981a8b4676","system_id":"levelo_inurba_marseille","lat":43.324771,"lon":5.36557,"is_reserved":false,"is_disabled":false,"rental_uris":{"android":"levelo://app?vid=c4f55511-783d-4f82-8265-81981a8b4676","ios":"levelo://app?vid=c4f55511-783d-4f82-8265-81981a8b4676"},"vehicle_type_id":"4","last_reported":1716628023,"current_range_meters":24800,"station_id":"ce4bhs12rcd13ifvqhvg","pricing_plan_id":"cebpf4jnsgd1na2vs0mg"},{"bike_id":"649dc2ca-940f-4aa6-921e-cbec14ebb78e","system_id":"levelo_inurba_marseille","lat":43.324771,"lon":5.36557,"is_reserved":false,"is_disabled":false,"rental_uris":{"android":"levelo://app?vid=649dc2ca-940f-4aa6-921e-cbec14ebb78e","ios":"levelo://app?vid=649dc2ca-940f-4aa6-921e-cbec14ebb78e"},"vehicle_type_id":"4","last_reported":1716628023,"current_range_meters":28800,"station_id":"ce4bhs12rcd13ifvqhvg","pricing_plan_id":"cebpf4jnsgd1na2vs0mg"},{"bike_id":"eacf2fee-b3a5-4cc4-b0dc-f9903d7c3880","system_id":"levelo_inurba_marseille","lat":43.324771,"lon":5.36557,"is_reserved":false,"is_disabled":false,"rental_uris":{"android":"levelo://app?vid=eacf2fee-b3a5-4cc4-b0dc-f9903d7c3880","ios":"levelo://app?vid=eacf2fee-b3a5-4cc4-b0dc-f9903d7c3880"},"vehicle_type_id":"4","last_reported":1716628023,"current_range_meters":15200,"station_id":"ce4bhs12rcd13ifvqhvg","pricing_plan_id":"cebpf4jnsgd1na2vs0mg"},{"bike_id":"d2124f90-7968-4d97-9025-bfed8e88a104","system_id":"levelo_inurba_marseille","lat":43.324771,"lon":5.36557,"is_reserved":false,"is_disabled":false,"rental_uris":{"android":"levelo://app?vid=d2124f90-7968-4d97-9025-bfed8e88a104","ios":"levelo://app?vid=d2124f90-7968-4d97-9025-bfed8e88a104"},"vehicle_type_id":"4","last_reported":1716628023,"current_range_meters":18800,"station_id":"ce4bhs12rcd13ifvqhvg","pricing_plan_id":"cebpf4jnsgd1na2vs0mg"},{"bike_id":"4e5bba4b-f9f5-4d5c-a401-5331d227861a","system_id":"levelo_inurba_marseille","lat":43.302784,"lon":5.377158,"is_reserved":false,"is_disabled":false,"rental_uris":{"android":"levelo://app?vid=4e5bba4b-f9f5-4d5c-a401-5331d227861a","ios":"levelo://app?vid=4e5bba4b-f9f5-4d5c-a401-5331d227861a"},"vehicle_type_id":"4","last_reported":1716628023,"current_range_meters":15600,"station_id":"ce4bguh2rcd13ifvqcj0","pricing_plan_id":"cebpf4jnsgd1na2vs0mg"},{"bike_id":"320ddb95-8697-4e1f-bef7-888b0e9d44b5","system_id":"levelo_inurba_marseille","lat":43.302784,"lon":5.377158,"is_reserved":false,"is_disabled":false,"rental_uris":{"android":"levelo://app?vid=320ddb95-8697-4e1f-bef7-888b0e9d44b5","ios":"levelo://app?vid=320ddb95-8697-4e1f-bef7-888b0e9d44b5"},"vehicle_type_id":"4","last_reported":1716628023,"current_range_meters":9600,"station_id":"ce4bguh2rcd13ifvqcj0","pricing_plan_id":"cebpf4jnsgd1na2vs0mg"},{"bike_id":"a777791b-1715-4075-8cff-8d612004d231","system_id":"levelo_inurba_marseille","lat":43.302784,"lon":5.377158,"is_reserved":false,"is_disabled":false,"rental_uris":{"android":"levelo://app?vid=a777791b-1715-4075-8cff-8d612004d231","ios":"levelo://app?vid=a777791b-1715-4075-8cff-8d612004d231"},"vehicle_type_id":"4","last_reported":1716628023,"current_range_meters":31200,"station_id":"ce4bguh2rcd13ifvqcj0","pricing_plan_id":"cebpf4jnsgd1na2vs0mg"},{"bike_id":"47f52184-d95b-4541-8e21-0e62a43a6fc2","system_id":"levelo_inurba_marseille","lat":43.302784,"lon":5.377158,"is_reserved":false,"is_disabled":false,"rental_uris":{"android":"levelo://app?vid=47f52184-d95b-4541-8e21-0e62a43a6fc2","ios":"levelo://app?vid=47f52184-d95b-4541-8e21-0e62a43a6fc2"},"vehicle_type_id":"4","last_reported":1716628023,"current_range_meters":31200,"station_id":"ce4bguh2rcd13ifvqcj0","pricing_plan_id":"cebpf4jnsgd1na2vs0mg"},{"bike_id":"7820d013-7d69-49d7-bff1-02ce0ab76e19","system_id":"levelo_inurba_marseille","lat":43.302784,"lon":5.377158,"is_reserved":false,"is_disabled":false,"rental_uris":{"android":"levelo://app?vid=7820d013-7d69-49d7-bff1-02ce0ab76e19","ios":"levelo://app?vid=7820d013-7d69-49d7-bff1-02ce0ab76e19"},"vehicle_type_id":"4","last_reported":1716628023,"current_range_meters":30400,"station_id":"ce4bguh2rcd13ifvqcj0","pricing_plan_id":"cebpf4jnsgd1na2vs0mg"},{"bike_id":"9a49d310-1063-4964-985b-639eddabec7a","system_id":"levelo_inurba_marseille","lat":43.302784,"lon":5.377158,"is_reserved":false,"is_disabled":false,"rental_uris":{"android":"levelo://app?vid=9a49d310-1063-4964-985b-639eddabec7a","ios":"levelo://app?vid=9a49d310-1063-4964-985b-639eddabec7a"},"vehicle_type_id":"4","last_reported":1716628023,"current_range_meters":16400,"station_id":"ce4bguh2rcd13ifvqcj0","pricing_plan_id":"cebpf4jnsgd1na2vs0mg"},{"bike_id":"87e0e847-6d63-4499-864e-7377bcfdd13b","system_id":"levelo_inurba_marseille","lat":43.302784,"lon":5.377158,"is_reserved":false,"is_disabled":false,"rental_uris":{"android":"levelo://app?vid=87e0e847-6d63-4499-864e-7377bcfdd13b","ios":"levelo://app?vid=87e0e847-6d63-4499-864e-7377bcfdd13b"},"vehicle_type_id":"4","last_reported":1716628023,"current_range_meters":26400,"station_id":"ce4bguh2rcd13ifvqcj0","pricing_plan_id":"cebpf4jnsgd1na2vs0mg"},{"bike_id":"a930048f-2bf0-453f-ab3d-de3f4501801f","system_id":"levelo_inurba_marseille","lat":43.302784,"lon":5.377158,"is_reserved":false,"is_disabled":false,"rental_uris":{"android":"levelo://app?vid=a930048f-2bf0-453f-ab3d-de3f4501801f","ios":"levelo://app?vid=a930048f-2bf0-453f-ab3d-de3f4501801f"},"vehicle_type_id":"4","last_reported":1716628023,"current_range_meters":4400,"station_id":"ce4bguh2rcd13ifvqcj0","pricing_plan_id":"cebpf4jnsgd1na2vs0mg"},{"bike_id":"f24d2251-671e-48a0-b8a1-6a31dc1b1ece","system_id":"levelo_inurba_marseille","lat":43.302784,"lon":5.377158,"is_reserved":false,"is_disabled":false,"rental_uris":{"android":"levelo://app?vid=f24d2251-671e-48a0-b8a1-6a31dc1b1ece","ios":"levelo://app?vid=f24d2251-671e-48a0-b8a1-6a31dc1b1ece"},"vehicle_type_id":"4","last_reported":1716628023,"current_range_meters":4800,"station_id":"ce4bguh2rcd13ifvqcj0","pricing_plan_id":"cebpf4jnsgd1na2vs0mg"},{"bike_id":"0437bfa4-63dd-45be-b2b4-9acba0f76496","system_id":"levelo_inurba_marseille","lat":43.301429,"lon":5.37413,"is_reserved":false,"is_disabled":false,"rental_uris":{"android":"levelo://app?vid=0437bfa4-63dd-45be-b2b4-9acba0f76496","ios":"levelo://app?vid=0437bfa4-63dd-45be-b2b4-9acba0f76496"},"vehicle_type_id":"4","last_reported":1716628023,"current_range_meters":31200,"station_id":"ce4bgs92rcd13ifvqcc0","pricing_plan_id":"cebpf4jnsgd1na2vs0mg"},{"bike_id":"fc673e08-07fb-4502-8eca-36998d5f213b","system_id":"levelo_inurba_marseille","lat":43.301429,"lon":5.37413,"is_reserved":false,"is_disabled":false,"rental_uris":{"android":"levelo://app?vid=fc673e08-07fb-4502-8eca-36998d5f213b","ios":"levelo://app?vid=fc673e08-07fb-4502-8eca-36998d5f213b"},"vehicle_type_id":"4","last_reported":1716628023,"current_range_meters":29600,"station_id":"ce4bgs92rcd13ifvqcc0","pricing_plan_id":"cebpf4jnsgd1na2vs0mg"},{"bike_id":"2fea1fc4-411d-4d80-a08a-7a7f4ed28e9c","system_id":"levelo_inurba_marseille","lat":43.30143,"lon":5.37413,"is_reserved":false,"is_disabled":false,"rental_uris":{"android":"levelo://app?vid=2fea1fc4-411d-4d80-a08a-7a7f4ed28e9c","ios":"levelo://app?vid=2fea1fc4-411d-4d80-a08a-7a7f4ed28e9c"},"vehicle_type_id":"4","last_reported":1716628023,"current_range_meters":29200,"station_id":"ce4bgs92rcd13ifvqcc0","pricing_plan_id":"cebpf4jnsgd1na2vs0mg"},{"bike_id":"71369abf-e394-4940-97da-986f25abee8b","system_id":"levelo_inurba_marseille","lat":43.31985,"lon":5.38141,"is_reserved":false,"is_disabled":false,"rental_uris":{"android":"levelo://app?vid=71369abf-e394-4940-97da-986f25abee8b","ios":"levelo://app?vid=71369abf-e394-4940-97da-986f25abee8b"},"vehicle_type_id":"4","last_reported":1716628023,"current_range_meters":18800,"station_id":"ce4bhr12rcd13ifvqhpg","pricing_plan_id":"cebpf4jnsgd1na2vs0mg"},{"bike_id":"c8b49537-2b74-4c39-b278-b0480ace25fc","system_id":"levelo_inurba_marseille","lat":43.3199,"lon":5.38153,"is_reserved":false,"is_disabled":false,"rental_uris":{"android":"levelo://app?vid=c8b49537-2b74-4c39-b278-b0480ace25fc","ios":"levelo://app?vid=c8b49537-2b74-4c39-b278-b0480ace25fc"},"vehicle_type_id":"4","last_reported":1716628023,"current_range_meters":21200,"station_id":"ce4bhr12rcd13ifvqhpg","pricing_plan_id":"cebpf4jnsgd1na2vs0mg"},{"bike_id":"d9cb442c-7f8c-424e-ac43-d1683b791e55","system_id":"levelo_inurba_marseille","lat":43.31991,"lon":5.38153,"is_reserved":false,"is_disabled":false,"rental_uris":{"android":"levelo://app?vid=d9cb442c-7f8c-424e-ac43-d1683b791e55","ios":"levelo://app?vid=d9cb442c-7f8c-424e-ac43-d1683b791e55"},"vehicle_type_id":"4","last_reported":1716628023,"current_range_meters":2000,"station_id":"ce4bhr12rcd13ifvqhpg","pricing_plan_id":"cebpf4jnsgd1na2vs0mg"},{"bike_id":"e3ab1838-c864-47ce-8fd2-dce41b728620","system_id":"levelo_inurba_marseille","lat":43.319935,"lon":5.381699,"is_reserved":false,"is_disabled":false,"rental_uris":{"android":"levelo://app?vid=e3ab1838-c864-47ce-8fd2-dce41b728620","ios":"levelo://app?vid=e3ab1838-c864-47ce-8fd2-dce41b728620"},"vehicle_type_id":"4","last_reported":1716628023,"current_range_meters":30400,"station_id":"ce4bhr12rcd13ifvqhpg","pricing_plan_id":"cebpf4jnsgd1na2vs0mg"},{"bike_id":"8e957714-9444-426f-96bf-245e4385b9b9","system_id":"levelo_inurba_marseille","lat":43.319935,"lon":5.381699,"is_reserved":false,"is_disabled":false,"rental_uris":{"android":"levelo://app?vid=8e957714-9444-426f-96bf-245e4385b9b9","ios":"levelo://app?vid=8e957714-9444-426f-96bf-245e4385b9b9"},"vehicle_type_id":"4","last_reported":1716628023,"current_range_meters":18000,"station_id":"ce4bhr12rcd13ifvqhpg","pricing_plan_id":"cebpf4jnsgd1na2vs0mg"},{"bike_id":"fbc10012-8aa5-46bb-8da1-b12a72cef8f2","system_id":"levelo_inurba_marseille","lat":43.299222,"lon":5.365554,"is_reserved":false,"is_disabled":false,"rental_uris":{"android":"levelo://app?vid=fbc10012-8aa5-46bb-8da1-b12a72cef8f2","ios":"levelo://app?vid=fbc10012-8aa5-46bb-8da1-b12a72cef8f2"},"vehicle_type_id":"4","last_reported":1716628023,"current_range_meters":29200,"station_id":"ce4bgm92rcd13ifvqbr0","pricing_plan_id":"cebpf4jnsgd1na2vs0mg"},{"bike_id":"976222ba-f720-4fa9-b9fd-7663748bf576","system_id":"levelo_inurba_marseille","lat":43.299222,"lon":5.365554,"is_reserved":false,"is_disabled":false,"rental_uris":{"android":"levelo://app?vid=976222ba-f720-4fa9-b9fd-7663748bf576","ios":"levelo://app?vid=976222ba-f720-4fa9-b9fd-7663748bf576"},"vehicle_type_id":"4","last_reported":1716628023,"current_range_meters":6000,"station_id":"ce4bgm92rcd13ifvqbr0","pricing_plan_id":"cebpf4jnsgd1na2vs0mg"},{"bike_id":"64a72816-2711-44dc-8e93-5fa61ccd6409","system_id":"levelo_inurba_marseille","lat":43.299222,"lon":5.365554,"is_reserved":false,"is_disabled":false,"rental_uris":{"android":"levelo://app?vid=64a72816-2711-44dc-8e93-5fa61ccd6409","ios":"levelo://app?vid=64a72816-2711-44dc-8e93-5fa61ccd6409"},"vehicle_type_id":"4","last_reported":1716628023,"current_range_meters":29600,"station_id":"ce4bgm92rcd13ifvqbr0","pricing_plan_id":"cebpf4jnsgd1na2vs0mg"},{"bike_id":"c1327422-e62e-4554-a43a-34353d1de358","system_id":"levelo_inurba_marseille","lat":43.299724,"lon":5.371829,"is_reserved":false,"is_disabled":false,"rental_uris":{"android":"levelo://app?vid=c1327422-e62e-4554-a43a-34353d1de358","ios":"levelo://app?vid=c1327422-e62e-4554-a43a-34353d1de358"},"vehicle_type_id":"4","last_reported":1716628023,"current_range_meters":400,"station_id":"ce4bgr92rcd13ifvqc7g","pricing_plan_id":"cebpf4jnsgd1na2vs0mg"},{"bike_id":"e7affa5e-1b86-49b9-923a-7cc38a1b5960","system_id":"levelo_inurba_marseille","lat":43.298433,"lon":5.362774,"is_reserved":false,"is_disabled":false,"rental_uris":{"android":"levelo://app?vid=e7affa5e-1b86-49b9-923a-7cc38a1b5960","ios":"levelo://app?vid=e7affa5e-1b86-49b9-923a-7cc38a1b5960"},"vehicle_type_id":"4","last_reported":1716628023,"current_range_meters":28400,"station_id":"ce4bgpp2rcd13ifvqc3g","pricing_plan_id":"cebpf4jnsgd1na2vs0mg"},{"bike_id":"f6498cdc-3ccd-424f-86d8-b9d58e397eb5","system_id":"levelo_inurba_marseille","lat":43.298433,"lon":5.362774,"is_reserved":false,"is_disabled":false,"rental_uris":{"android":"levelo://app?vid=f6498cdc-3ccd-424f-86d8-b9d58e397eb5","ios":"levelo://app?vid=f6498cdc-3ccd-424f-86d8-b9d58e397eb5"},"vehicle_type_id":"4","last_reported":1716628023,"current_range_meters":18000,"station_id":"ce4bgpp2rcd13ifvqc3g","pricing_plan_id":"cebpf4jnsgd1na2vs0mg"},{"bike_id":"00f67eaf-b99d-4a1f-bb7b-74887e8c805d","system_id":"levelo_inurba_marseille","lat":43.298433,"lon":5.362774,"is_reserved":false,"is_disabled":false,"rental_uris":{"android":"levelo://app?vid=00f67eaf-b99d-4a1f-bb7b-74887e8c805d","ios":"levelo://app?vid=00f67eaf-b99d-4a1f-bb7b-74887e8c805d"},"vehicle_type_id":"4","last_reported":1716628023,"current_range_meters":8400,"station_id":"ce4bgpp2rcd13ifvqc3g","pricing_plan_id":"cebpf4jnsgd1na2vs0mg"},{"bike_id":"dda5ef1f-f1c3-4dde-9421-ab13e0e2ba3b","system_id":"levelo_inurba_marseille","lat":43.298433,"lon":5.362774,"is_reserved":false,"is_disabled":false,"rental_uris":{"android":"levelo://app?vid=dda5ef1f-f1c3-4dde-9421-ab13e0e2ba3b","ios":"levelo://app?vid=dda5ef1f-f1c3-4dde-9421-ab13e0e2ba3b"},"vehicle_type_id":"4","last_reported":1716628023,"current_range_meters":28800,"station_id":"ce4bgpp2rcd13ifvqc3g","pricing_plan_id":"cebpf4jnsgd1na2vs0mg"},{"bike_id":"84f54921-626c-4609-8dee-55d4d5ddcde4","system_id":"levelo_inurba_marseille","lat":43.298433,"lon":5.362774,"is_reserved":false,"is_disabled":false,"rental_uris":{"android":"levelo://app?vid=84f54921-626c-4609-8dee-55d4d5ddcde4","ios":"levelo://app?vid=84f54921-626c-4609-8dee-55d4d5ddcde4"},"vehicle_type_id":"4","last_reported":1716628023,"current_range_meters":4000,"station_id":"ce4bgpp2rcd13ifvqc3g","pricing_plan_id":"cebpf4jnsgd1na2vs0mg"},{"bike_id":"b1c08ad9-9938-4b1b-9cdc-a211f98f32a6","system_id":"levelo_inurba_marseille","lat":43.305364,"lon":5.384119,"is_reserved":false,"is_disabled":false,"rental_uris":{"android":"levelo://app?vid=b1c08ad9-9938-4b1b-9cdc-a211f98f32a6","ios":"levelo://app?vid=b1c08ad9-9938-4b1b-9cdc-a211f98f32a6"},"vehicle_type_id":"4","last_reported":1716628023,"current_range_meters":21200,"station_id":"ce4bgg92rcd13ifvqb30","pricing_plan_id":"cebpf4jnsgd1na2vs0mg"},{"bike_id":"2811c3c9-b352-4c74-b190-561ce81df485","system_id":"levelo_inurba_marseille","lat":43.298433,"lon":5.362774,"is_reserved":false,"is_disabled":false,"rental_uris":{"android":"levelo://app?vid=2811c3c9-b352-4c74-b190-561ce81df485","ios":"levelo://app?vid=2811c3c9-b352-4c74-b190-561ce81df485"},"vehicle_type_id":"4","last_reported":1716628023,"current_range_meters":9200,"station_id":"ce4bgpp2rcd13ifvqc3g","pricing_plan_id":"cebpf4jnsgd1na2vs0mg"},{"bike_id":"aa30251f-34a4-4ee1-9170-0ec43723866a","system_id":"levelo_inurba_marseille","lat":43.298433,"lon":5.362774,"is_reserved":false,"is_disabled":false,"rental_uris":{"android":"levelo://app?vid=aa30251f-34a4-4ee1-9170-0ec43723866a","ios":"levelo://app?vid=aa30251f-34a4-4ee1-9170-0ec43723866a"},"vehicle_type_id":"4","last_reported":1716628023,"current_range_meters":9600,"station_id":"ce4bgpp2rcd13ifvqc3g","pricing_plan_id":"cebpf4jnsgd1na2vs0mg"},{"bike_id":"6a1e02e6-bea7-4885-90b2-83e9d2040fde","system_id":"levelo_inurba_marseille","lat":43.298433,"lon":5.362774,"is_reserved":false,"is_disabled":false,"rental_uris":{"android":"levelo://app?vid=6a1e02e6-bea7-4885-90b2-83e9d2040fde","ios":"levelo://app?vid=6a1e02e6-bea7-4885-90b2-83e9d2040fde"},"vehicle_type_id":"4","last_reported":1716628023,"current_range_meters":15200,"station_id":"ce4bgpp2rcd13ifvqc3g","pricing_plan_id":"cebpf4jnsgd1na2vs0mg"},{"bike_id":"2bd1c005-a0d1-4ee7-81f1-c5648a4f51c3","system_id":"levelo_inurba_marseille","lat":43.298433,"lon":5.362774,"is_reserved":false,"is_disabled":false,"rental_uris":{"android":"levelo://app?vid=2bd1c005-a0d1-4ee7-81f1-c5648a4f51c3","ios":"levelo://app?vid=2bd1c005-a0d1-4ee7-81f1-c5648a4f51c3"},"vehicle_type_id":"4","last_reported":1716628023,"current_range_meters":27200,"station_id":"ce4bgpp2rcd13ifvqc3g","pricing_plan_id":"cebpf4jnsgd1na2vs0mg"},{"bike_id":"7d419b5b-a30f-4a7e-b910-7d3631ba9263","system_id":"levelo_inurba_marseille","lat":43.298433,"lon":5.362774,"is_reserved":false,"is_disabled":false,"rental_uris":{"android":"levelo://app?vid=7d419b5b-a30f-4a7e-b910-7d3631ba9263","ios":"levelo://app?vid=7d419b5b-a30f-4a7e-b910-7d3631ba9263"},"vehicle_type_id":"4","last_reported":1716628023,"current_range_meters":11200,"station_id":"ce4bgpp2rcd13ifvqc3g","pricing_plan_id":"cebpf4jnsgd1na2vs0mg"},{"bike_id":"fb1c13a3-3a0f-48c6-8656-28fe4e468dec","system_id":"levelo_inurba_marseille","lat":43.298433,"lon":5.362774,"is_reserved":false,"is_disabled":false,"rental_uris":{"android":"levelo://app?vid=fb1c13a3-3a0f-48c6-8656-28fe4e468dec","ios":"levelo://app?vid=fb1c13a3-3a0f-48c6-8656-28fe4e468dec"},"vehicle_type_id":"4","last_reported":1716628023,"current_range_meters":21600,"station_id":"ce4bgpp2rcd13ifvqc3g","pricing_plan_id":"cebpf4jnsgd1na2vs0mg"},{"bike_id":"133055eb-0ab7-4f8a-a45c-f0304d1fa53f","system_id":"levelo_inurba_marseille","lat":43.298433,"lon":5.362774,"is_reserved":false,"is_disabled":false,"rental_uris":{"android":"levelo://app?vid=133055eb-0ab7-4f8a-a45c-f0304d1fa53f","ios":"levelo://app?vid=133055eb-0ab7-4f8a-a45c-f0304d1fa53f"},"vehicle_type_id":"4","last_reported":1716628023,"current_range_meters":23200,"station_id":"ce4bgpp2rcd13ifvqc3g","pricing_plan_id":"cebpf4jnsgd1na2vs0mg"},{"bike_id":"1550be65-40b1-4686-90b3-17eacb8bbfa2","system_id":"levelo_inurba_marseille","lat":43.311722,"lon":5.387247,"is_reserved":false,"is_disabled":false,"rental_uris":{"android":"levelo://app?vid=1550be65-40b1-4686-90b3-17eacb8bbfa2","ios":"levelo://app?vid=1550be65-40b1-4686-90b3-17eacb8bbfa2"},"vehicle_type_id":"4","last_reported":1716628023,"current_range_meters":31200,"station_id":"ce4bgv12rcd13ifvqcp0","pricing_plan_id":"cebpf4jnsgd1na2vs0mg"},{"bike_id":"de61a3e3-c60f-40d6-aec3-7c45a385f2e6","system_id":"levelo_inurba_marseille","lat":43.31906,"lon":5.38588,"is_reserved":false,"is_disabled":false,"rental_uris":{"android":"levelo://app?vid=de61a3e3-c60f-40d6-aec3-7c45a385f2e6","ios":"levelo://app?vid=de61a3e3-c60f-40d6-aec3-7c45a385f2e6"},"vehicle_type_id":"4","last_reported":1716628023,"current_range_meters":14000,"station_id":"ce4bhr92rcd13ifvqhrg","pricing_plan_id":"cebpf4jnsgd1na2vs0mg"},{"bike_id":"ed492a4e-944e-43b3-bd26-4581a8e6f7a8","system_id":"levelo_inurba_marseille","lat":43.297774,"lon":5.370875,"is_reserved":false,"is_disabled":false,"rental_uris":{"android":"levelo://app?vid=ed492a4e-944e-43b3-bd26-4581a8e6f7a8","ios":"levelo://app?vid=ed492a4e-944e-43b3-bd26-4581a8e6f7a8"},"vehicle_type_id":"4","last_reported":1716628023,"current_range_meters":29600,"station_id":"ce4bgop2rcd13ifvqc1g","pricing_plan_id":"cebpf4jnsgd1na2vs0mg"},{"bike_id":"31d6e92c-8072-4aa7-9b3f-cdb77dfbd009","system_id":"levelo_inurba_marseille","lat":43.29779,"lon":5.37093,"is_reserved":false,"is_disabled":false,"rental_uris":{"android":"levelo://app?vid=31d6e92c-8072-4aa7-9b3f-cdb77dfbd009","ios":"levelo://app?vid=31d6e92c-8072-4aa7-9b3f-cdb77dfbd009"},"vehicle_type_id":"4","last_reported":1716628023,"current_range_meters":23600,"station_id":"ce4bgop2rcd13ifvqc1g","pricing_plan_id":"cebpf4jnsgd1na2vs0mg"},{"bike_id":"4ef7b0ec-8739-4872-bfaf-29ebbdda1b71","system_id":"levelo_inurba_marseille","lat":43.297825,"lon":5.371479,"is_reserved":false,"is_disabled":false,"rental_uris":{"android":"levelo://app?vid=4ef7b0ec-8739-4872-bfaf-29ebbdda1b71","ios":"levelo://app?vid=4ef7b0ec-8739-4872-bfaf-29ebbdda1b71"},"vehicle_type_id":"4","last_reported":1716628023,"current_range_meters":27600,"station_id":"ce4bgop2rcd13ifvqc1g","pricing_plan_id":"cebpf4jnsgd1na2vs0mg"},{"bike_id":"f8e753fd-677e-4ecc-8088-2cfd73d8125b","system_id":"levelo_inurba_marseille","lat":43.297774,"lon":5.370875,"is_reserved":false,"is_disabled":false,"rental_uris":{"android":"levelo://app?vid=f8e753fd-677e-4ecc-8088-2cfd73d8125b","ios":"levelo://app?vid=f8e753fd-677e-4ecc-8088-2cfd73d8125b"},"vehicle_type_id":"4","last_reported":1716628023,"current_range_meters":5200,"station_id":"ce4bgop2rcd13ifvqc1g","pricing_plan_id":"cebpf4jnsgd1na2vs0mg"},{"bike_id":"44991ac8-d706-4f51-9a70-e44937b720db","system_id":"levelo_inurba_marseille","lat":43.30219,"lon":5.38261,"is_reserved":false,"is_disabled":false,"rental_uris":{"android":"levelo://app?vid=44991ac8-d706-4f51-9a70-e44937b720db","ios":"levelo://app?vid=44991ac8-d706-4f51-9a70-e44937b720db"},"vehicle_type_id":"4","last_reported":1716628023,"current_range_meters":11600,"station_id":"","pricing_plan_id":"cebpf4jnsgd1na2vs0mg"},{"bike_id":"232ebce7-539b-40ce-bf83-4bd165ac8610","system_id":"levelo_inurba_marseille","lat":43.297163,"lon":5.365866,"is_reserved":false,"is_disabled":false,"rental_uris":{"android":"levelo://app?vid=232ebce7-539b-40ce-bf83-4bd165ac8610","ios":"levelo://app?vid=232ebce7-539b-40ce-bf83-4bd165ac8610"},"vehicle_type_id":"4","last_reported":1716628023,"current_range_meters":11200,"station_id":"ce4bgn12rcd13ifvqbt0","pricing_plan_id":"cebpf4jnsgd1na2vs0mg"},{"bike_id":"d53c3cc6-b979-4d6c-8138-1de3eb680dda","system_id":"levelo_inurba_marseille","lat":43.297163,"lon":5.365866,"is_reserved":false,"is_disabled":false,"rental_uris":{"android":"levelo://app?vid=d53c3cc6-b979-4d6c-8138-1de3eb680dda","ios":"levelo://app?vid=d53c3cc6-b979-4d6c-8138-1de3eb680dda"},"vehicle_type_id":"4","last_reported":1716628023,"current_range_meters":28000,"station_id":"ce4bgn12rcd13ifvqbt0","pricing_plan_id":"cebpf4jnsgd1na2vs0mg"},{"bike_id":"b2b3259d-7685-4a05-b50c-26cc9641c733","system_id":"levelo_inurba_marseille","lat":43.2968,"lon":5.37291,"is_reserved":false,"is_disabled":false,"rental_uris":{"android":"levelo://app?vid=b2b3259d-7685-4a05-b50c-26cc9641c733","ios":"levelo://app?vid=b2b3259d-7685-4a05-b50c-26cc9641c733"},"vehicle_type_id":"4","last_reported":1716628023,"current_range_meters":10400,"station_id":"ce4bgk12rcd13ifvqbj0","pricing_plan_id":"cebpf4jnsgd1na2vs0mg"},{"bike_id":"c6b0f098-d537-4877-9cbc-a4c133b65730","system_id":"levelo_inurba_marseille","lat":43.2968,"lon":5.37291,"is_reserved":false,"is_disabled":false,"rental_uris":{"android":"levelo://app?vid=c6b0f098-d537-4877-9cbc-a4c133b65730","ios":"levelo://app?vid=c6b0f098-d537-4877-9cbc-a4c133b65730"},"vehicle_type_id":"4","last_reported":1716628023,"current_range_meters":29200,"station_id":"ce4bgk12rcd13ifvqbj0","pricing_plan_id":"cebpf4jnsgd1na2vs0mg"},{"bike_id":"11b227de-e979-4469-9955-8e912c324a76","system_id":"levelo_inurba_marseille","lat":43.2968,"lon":5.37291,"is_reserved":false,"is_disabled":false,"rental_uris":{"android":"levelo://app?vid=11b227de-e979-4469-9955-8e912c324a76","ios":"levelo://app?vid=11b227de-e979-4469-9955-8e912c324a76"},"vehicle_type_id":"4","last_reported":1716628023,"current_range_meters":25600,"station_id":"ce4bgk12rcd13ifvqbj0","pricing_plan_id":"cebpf4jnsgd1na2vs0mg"},{"bike_id":"b0181dbd-d16d-4347-9382-b450da867146","system_id":"levelo_inurba_marseille","lat":43.29657,"lon":5.36162,"is_reserved":false,"is_disabled":false,"rental_uris":{"android":"levelo://app?vid=b0181dbd-d16d-4347-9382-b450da867146","ios":"levelo://app?vid=b0181dbd-d16d-4347-9382-b450da867146"},"vehicle_type_id":"4","last_reported":1716628023,"current_range_meters":9200,"station_id":"","pricing_plan_id":"cebpf4jnsgd1na2vs0mg"},{"bike_id":"109f3c4e-6c1b-4a4c-812e-143df3c0b0d1","system_id":"levelo_inurba_marseille","lat":43.296131,"lon":5.370773,"is_reserved":false,"is_disabled":false,"rental_uris":{"android":"levelo://app?vid=109f3c4e-6c1b-4a4c-812e-143df3c0b0d1","ios":"levelo://app?vid=109f3c4e-6c1b-4a4c-812e-143df3c0b0d1"},"vehicle_type_id":"4","last_reported":1716628023,"current_range_meters":29600,"station_id":"ce4bgnh2rcd13ifvqc0g","pricing_plan_id":"cebpf4jnsgd1na2vs0mg"},{"bike_id":"7136ee3d-4576-4953-b9ba-fc68f6a23cc7","system_id":"levelo_inurba_marseille","lat":43.296131,"lon":5.370791,"is_reserved":false,"is_disabled":false,"rental_uris":{"android":"levelo://app?vid=7136ee3d-4576-4953-b9ba-fc68f6a23cc7","ios":"levelo://app?vid=7136ee3d-4576-4953-b9ba-fc68f6a23cc7"},"vehicle_type_id":"4","last_reported":1716628023,"current_range_meters":4000,"station_id":"ce4bgnh2rcd13ifvqc0g","pricing_plan_id":"cebpf4jnsgd1na2vs0mg"},{"bike_id":"afd0cc94-7814-4c9c-8081-dc12cfed984a","system_id":"levelo_inurba_marseille","lat":43.296131,"lon":5.370773,"is_reserved":false,"is_disabled":false,"rental_uris":{"android":"levelo://app?vid=afd0cc94-7814-4c9c-8081-dc12cfed984a","ios":"levelo://app?vid=afd0cc94-7814-4c9c-8081-dc12cfed984a"},"vehicle_type_id":"4","last_reported":1716628023,"current_range_meters":27200,"station_id":"ce4bgnh2rcd13ifvqc0g","pricing_plan_id":"cebpf4jnsgd1na2vs0mg"},{"bike_id":"4b3e9ea1-0e87-4eff-9fda-a86a5d0431ee","system_id":"levelo_inurba_marseille","lat":43.29573,"lon":5.367355,"is_reserved":false,"is_disabled":false,"rental_uris":{"android":"levelo://app?vid=4b3e9ea1-0e87-4eff-9fda-a86a5d0431ee","ios":"levelo://app?vid=4b3e9ea1-0e87-4eff-9fda-a86a5d0431ee"},"vehicle_type_id":"4","last_reported":1716628023,"current_range_meters":18400,"station_id":"ce4bgph2rcd13ifvqc2g","pricing_plan_id":"cebpf4jnsgd1na2vs0mg"},{"bike_id":"244f79b1-11a1-43cd-8526-a61e2cf599e6","system_id":"levelo_inurba_marseille","lat":43.29573,"lon":5.367355,"is_reserved":false,"is_disabled":false,"rental_uris":{"android":"levelo://app?vid=244f79b1-11a1-43cd-8526-a61e2cf599e6","ios":"levelo://app?vid=244f79b1-11a1-43cd-8526-a61e2cf599e6"},"vehicle_type_id":"4","last_reported":1716628023,"current_range_meters":22000,"station_id":"ce4bgph2rcd13ifvqc2g","pricing_plan_id":"cebpf4jnsgd1na2vs0mg"},{"bike_id":"419caffc-2da2-40cc-8758-875e5fc51728","system_id":"levelo_inurba_marseille","lat":43.295748,"lon":5.37522,"is_reserved":false,"is_disabled":false,"rental_uris":{"android":"levelo://app?vid=419caffc-2da2-40cc-8758-875e5fc51728","ios":"levelo://app?vid=419caffc-2da2-40cc-8758-875e5fc51728"},"vehicle_type_id":"4","last_reported":1716628023,"current_range_meters":25600,"station_id":"ce4bgh92rcd13ifvqb50","pricing_plan_id":"cebpf4jnsgd1na2vs0mg"},{"bike_id":"64e11892-0626-4cda-bf86-224950657347","system_id":"levelo_inurba_marseille","lat":43.29573,"lon":5.367355,"is_reserved":false,"is_disabled":false,"rental_uris":{"android":"levelo://app?vid=64e11892-0626-4cda-bf86-224950657347","ios":"levelo://app?vid=64e11892-0626-4cda-bf86-224950657347"},"vehicle_type_id":"4","last_reported":1716628023,"current_range_meters":1600,"station_id":"ce4bgph2rcd13ifvqc2g","pricing_plan_id":"cebpf4jnsgd1na2vs0mg"},{"bike_id":"586632f1-43d3-4bb4-9cff-923668a6d9e8","system_id":"levelo_inurba_marseille","lat":43.29573,"lon":5.367355,"is_reserved":false,"is_disabled":false,"rental_uris":{"android":"levelo://app?vid=586632f1-43d3-4bb4-9cff-923668a6d9e8","ios":"levelo://app?vid=586632f1-43d3-4bb4-9cff-923668a6d9e8"},"vehicle_type_id":"4","last_reported":1716628023,"current_range_meters":18400,"station_id":"ce4bgph2rcd13ifvqc2g","pricing_plan_id":"cebpf4jnsgd1na2vs0mg"},{"bike_id":"44ffee35-f3bf-48bd-a26d-0aef94eb5566","system_id":"levelo_inurba_marseille","lat":43.296921,"lon":5.376579,"is_reserved":false,"is_disabled":false,"rental_uris":{"android":"levelo://app?vid=44ffee35-f3bf-48bd-a26d-0aef94eb5566","ios":"levelo://app?vid=44ffee35-f3bf-48bd-a26d-0aef94eb5566"},"vehicle_type_id":"4","last_reported":1716628023,"current_range_meters":17200,"station_id":"ce4bgkh2rcd13ifvqbl0","pricing_plan_id":"cebpf4jnsgd1na2vs0mg"},{"bike_id":"4261c195-3c17-4bb0-b2d2-770799873a78","system_id":"levelo_inurba_marseille","lat":43.296935,"lon":5.376544,"is_reserved":false,"is_disabled":false,"rental_uris":{"android":"levelo://app?vid=4261c195-3c17-4bb0-b2d2-770799873a78","ios":"levelo://app?vid=4261c195-3c17-4bb0-b2d2-770799873a78"},"vehicle_type_id":"4","last_reported":1716628023,"current_range_meters":10400,"station_id":"ce4bgkh2rcd13ifvqbl0","pricing_plan_id":"cebpf4jnsgd1na2vs0mg"},{"bike_id":"0f25a9ea-5c24-4e3b-82fb-a2c459b6d68d","system_id":"levelo_inurba_marseille","lat":43.296921,"lon":5.376579,"is_reserved":false,"is_disabled":false,"rental_uris":{"android":"levelo://app?vid=0f25a9ea-5c24-4e3b-82fb-a2c459b6d68d","ios":"levelo://app?vid=0f25a9ea-5c24-4e3b-82fb-a2c459b6d68d"},"vehicle_type_id":"4","last_reported":1716628023,"current_range_meters":20400,"station_id":"ce4bgkh2rcd13ifvqbl0","pricing_plan_id":"cebpf4jnsgd1na2vs0mg"},{"bike_id":"e7425a34-9f0a-47bc-ada8-4a9a2fb64829","system_id":"levelo_inurba_marseille","lat":43.296921,"lon":5.376579,"is_reserved":false,"is_disabled":false,"rental_uris":{"android":"levelo://app?vid=e7425a34-9f0a-47bc-ada8-4a9a2fb64829","ios":"levelo://app?vid=e7425a34-9f0a-47bc-ada8-4a9a2fb64829"},"vehicle_type_id":"4","last_reported":1716628023,"current_range_meters":21200,"station_id":"ce4bgkh2rcd13ifvqbl0","pricing_plan_id":"cebpf4jnsgd1na2vs0mg"},{"bike_id":"41e31285-d25c-4e79-bd9d-a2c79018c12d","system_id":"levelo_inurba_marseille","lat":43.309589,"lon":5.390258,"is_reserved":false,"is_disabled":false,"rental_uris":{"android":"levelo://app?vid=41e31285-d25c-4e79-bd9d-a2c79018c12d","ios":"levelo://app?vid=41e31285-d25c-4e79-bd9d-a2c79018c12d"},"vehicle_type_id":"4","last_reported":1716628023,"current_range_meters":4800,"station_id":"ce4bgup2rcd13ifvqco0","pricing_plan_id":"cebpf4jnsgd1na2vs0mg"},{"bike_id":"ed63e8d1-addc-42a1-872f-3b0c4b06cd28","system_id":"levelo_inurba_marseille","lat":43.296921,"lon":5.376579,"is_reserved":false,"is_disabled":false,"rental_uris":{"android":"levelo://app?vid=ed63e8d1-addc-42a1-872f-3b0c4b06cd28","ios":"levelo://app?vid=ed63e8d1-addc-42a1-872f-3b0c4b06cd28"},"vehicle_type_id":"4","last_reported":1716628023,"current_range_meters":30000,"station_id":"ce4bgkh2rcd13ifvqbl0","pricing_plan_id":"cebpf4jnsgd1na2vs0mg"},{"bike_id":"5d247e63-04ac-4793-b9aa-facb7a8e925f","system_id":"levelo_inurba_marseille","lat":43.295279,"lon":5.375048,"is_reserved":false,"is_disabled":false,"rental_uris":{"android":"levelo://app?vid=5d247e63-04ac-4793-b9aa-facb7a8e925f","ios":"levelo://app?vid=5d247e63-04ac-4793-b9aa-facb7a8e925f"},"vehicle_type_id":"4","last_reported":1716628023,"current_range_meters":28000,"station_id":"ce4bgkp2rcd13ifvqbmg","pricing_plan_id":"cebpf4jnsgd1na2vs0mg"},{"bike_id":"321edc6a-95a3-4d05-8e05-54c48e8f12d8","system_id":"levelo_inurba_marseille","lat":43.295748,"lon":5.37522,"is_reserved":false,"is_disabled":false,"rental_uris":{"android":"levelo://app?vid=321edc6a-95a3-4d05-8e05-54c48e8f12d8","ios":"levelo://app?vid=321edc6a-95a3-4d05-8e05-54c48e8f12d8"},"vehicle_type_id":"4","last_reported":1716628023,"current_range_meters":4000,"station_id":"ce4bgh92rcd13ifvqb50","pricing_plan_id":"cebpf4jnsgd1na2vs0mg"},{"bike_id":"ca3d0b7f-d4d1-4e07-ae42-56f6163cdcfa","system_id":"levelo_inurba_marseille","lat":43.295748,"lon":5.37522,"is_reserved":false,"is_disabled":false,"rental_uris":{"android":"levelo://app?vid=ca3d0b7f-d4d1-4e07-ae42-56f6163cdcfa","ios":"levelo://app?vid=ca3d0b7f-d4d1-4e07-ae42-56f6163cdcfa"},"vehicle_type_id":"4","last_reported":1716628023,"current_range_meters":9200,"station_id":"ce4bgh92rcd13ifvqb50","pricing_plan_id":"cebpf4jnsgd1na2vs0mg"},{"bike_id":"9d81673e-8782-48e6-9dbf-bff10cbd3530","system_id":"levelo_inurba_marseille","lat":43.295748,"lon":5.37522,"is_reserved":false,"is_disabled":false,"rental_uris":{"android":"levelo://app?vid=9d81673e-8782-48e6-9dbf-bff10cbd3530","ios":"levelo://app?vid=9d81673e-8782-48e6-9dbf-bff10cbd3530"},"vehicle_type_id":"4","last_reported":1716628023,"current_range_meters":10000,"station_id":"ce4bgh92rcd13ifvqb50","pricing_plan_id":"cebpf4jnsgd1na2vs0mg"},{"bike_id":"46624aa2-311c-49d3-bcd2-4ac0bd36c1a5","system_id":"levelo_inurba_marseille","lat":43.295748,"lon":5.37522,"is_reserved":false,"is_disabled":false,"rental_uris":{"android":"levelo://app?vid=46624aa2-311c-49d3-bcd2-4ac0bd36c1a5","ios":"levelo://app?vid=46624aa2-311c-49d3-bcd2-4ac0bd36c1a5"},"vehicle_type_id":"4","last_reported":1716628023,"current_range_meters":26800,"station_id":"ce4bgh92rcd13ifvqb50","pricing_plan_id":"cebpf4jnsgd1na2vs0mg"},{"bike_id":"613a88e6-f930-4d42-b243-fdf06a283f93","system_id":"levelo_inurba_marseille","lat":43.295748,"lon":5.37522,"is_reserved":false,"is_disabled":false,"rental_uris":{"android":"levelo://app?vid=613a88e6-f930-4d42-b243-fdf06a283f93","ios":"levelo://app?vid=613a88e6-f930-4d42-b243-fdf06a283f93"},"vehicle_type_id":"4","last_reported":1716628023,"current_range_meters":27200,"station_id":"ce4bgh92rcd13ifvqb50","pricing_plan_id":"cebpf4jnsgd1na2vs0mg"},{"bike_id":"112b58c2-0a80-494f-b141-71a94602417c","system_id":"levelo_inurba_marseille","lat":43.295748,"lon":5.37522,"is_reserved":false,"is_disabled":false,"rental_uris":{"android":"levelo://app?vid=112b58c2-0a80-494f-b141-71a94602417c","ios":"levelo://app?vid=112b58c2-0a80-494f-b141-71a94602417c"},"vehicle_type_id":"4","last_reported":1716628023,"current_range_meters":2800,"station_id":"ce4bgh92rcd13ifvqb50","pricing_plan_id":"cebpf4jnsgd1na2vs0mg"},{"bike_id":"716c22f3-2e8c-4630-8298-61f4fbe6b417","system_id":"levelo_inurba_marseille","lat":43.295748,"lon":5.37522,"is_reserved":false,"is_disabled":false,"rental_uris":{"android":"levelo://app?vid=716c22f3-2e8c-4630-8298-61f4fbe6b417","ios":"levelo://app?vid=716c22f3-2e8c-4630-8298-61f4fbe6b417"},"vehicle_type_id":"4","last_reported":1716628023,"current_range_meters":16800,"station_id":"ce4bgh92rcd13ifvqb50","pricing_plan_id":"cebpf4jnsgd1na2vs0mg"},{"bike_id":"18e90988-d933-413e-932f-6336fc3f90e3","system_id":"levelo_inurba_marseille","lat":43.296263,"lon":5.377094,"is_reserved":false,"is_disabled":false,"rental_uris":{"android":"levelo://app?vid=18e90988-d933-413e-932f-6336fc3f90e3","ios":"levelo://app?vid=18e90988-d933-413e-932f-6336fc3f90e3"},"vehicle_type_id":"4","last_reported":1716628023,"current_range_meters":16400,"station_id":"ce4bgi92rcd13ifvqb90","pricing_plan_id":"cebpf4jnsgd1na2vs0mg"},{"bike_id":"0ce832cd-f0b7-41dd-a81a-b38e1778b876","system_id":"levelo_inurba_marseille","lat":43.295748,"lon":5.37522,"is_reserved":false,"is_disabled":false,"rental_uris":{"android":"levelo://app?vid=0ce832cd-f0b7-41dd-a81a-b38e1778b876","ios":"levelo://app?vid=0ce832cd-f0b7-41dd-a81a-b38e1778b876"},"vehicle_type_id":"4","last_reported":1716628023,"current_range_meters":14800,"station_id":"ce4bgh92rcd13ifvqb50","pricing_plan_id":"cebpf4jnsgd1na2vs0mg"},{"bike_id":"135b5f22-b798-4ee1-9ce6-79122bb62886","system_id":"levelo_inurba_marseille","lat":43.304274,"lon":5.388873,"is_reserved":false,"is_disabled":false,"rental_uris":{"android":"levelo://app?vid=135b5f22-b798-4ee1-9ce6-79122bb62886","ios":"levelo://app?vid=135b5f22-b798-4ee1-9ce6-79122bb62886"},"vehicle_type_id":"4","last_reported":1716628023,"current_range_meters":15600,"station_id":"ce4bgk12rcd13ifvqbi0","pricing_plan_id":"cebpf4jnsgd1na2vs0mg"},{"bike_id":"46a067b7-5c3d-49da-a82a-c67d67fe49f4","system_id":"levelo_inurba_marseille","lat":43.295748,"lon":5.37522,"is_reserved":false,"is_disabled":false,"rental_uris":{"android":"levelo://app?vid=46a067b7-5c3d-49da-a82a-c67d67fe49f4","ios":"levelo://app?vid=46a067b7-5c3d-49da-a82a-c67d67fe49f4"},"vehicle_type_id":"4","last_reported":1716628023,"current_range_meters":0,"station_id":"ce4bgh92rcd13ifvqb50","pricing_plan_id":"cebpf4jnsgd1na2vs0mg"},{"bike_id":"a65639ab-5baf-4df8-bb15-fdb7b3a3ae9e","system_id":"levelo_inurba_marseille","lat":43.295748,"lon":5.37522,"is_reserved":false,"is_disabled":false,"rental_uris":{"android":"levelo://app?vid=a65639ab-5baf-4df8-bb15-fdb7b3a3ae9e","ios":"levelo://app?vid=a65639ab-5baf-4df8-bb15-fdb7b3a3ae9e"},"vehicle_type_id":"4","last_reported":1716628023,"current_range_meters":29600,"station_id":"ce4bgh92rcd13ifvqb50","pricing_plan_id":"cebpf4jnsgd1na2vs0mg"},{"bike_id":"4cf31eda-d5b1-4706-9dcb-7efe949ec753","system_id":"levelo_inurba_marseille","lat":43.295748,"lon":5.37522,"is_reserved":false,"is_disabled":false,"rental_uris":{"android":"levelo://app?vid=4cf31eda-d5b1-4706-9dcb-7efe949ec753","ios":"levelo://app?vid=4cf31eda-d5b1-4706-9dcb-7efe949ec753"},"vehicle_type_id":"4","last_reported":1716628023,"current_range_meters":24800,"station_id":"ce4bgh92rcd13ifvqb50","pricing_plan_id":"cebpf4jnsgd1na2vs0mg"},{"bike_id":"5c0bf3ec-97d2-4ed0-a222-59b6fbf409ea","system_id":"levelo_inurba_marseille","lat":43.295748,"lon":5.37522,"is_reserved":false,"is_disabled":false,"rental_uris":{"android":"levelo://app?vid=5c0bf3ec-97d2-4ed0-a222-59b6fbf409ea","ios":"levelo://app?vid=5c0bf3ec-97d2-4ed0-a222-59b6fbf409ea"},"vehicle_type_id":"4","last_reported":1716628023,"current_range_meters":11600,"station_id":"ce4bgh92rcd13ifvqb50","pricing_plan_id":"cebpf4jnsgd1na2vs0mg"},{"bike_id":"7e0dd751-d4ed-4be3-ab48-f55dc91e3b71","system_id":"levelo_inurba_marseille","lat":43.304278,"lon":5.388868,"is_reserved":false,"is_disabled":false,"rental_uris":{"android":"levelo://app?vid=7e0dd751-d4ed-4be3-ab48-f55dc91e3b71","ios":"levelo://app?vid=7e0dd751-d4ed-4be3-ab48-f55dc91e3b71"},"vehicle_type_id":"4","last_reported":1716628023,"current_range_meters":6800,"station_id":"ce4bgk12rcd13ifvqbi0","pricing_plan_id":"cebpf4jnsgd1na2vs0mg"},{"bike_id":"7c7096d4-e996-4616-a552-9dcd9015b3ba","system_id":"levelo_inurba_marseille","lat":43.296277,"lon":5.377108,"is_reserved":false,"is_disabled":false,"rental_uris":{"android":"levelo://app?vid=7c7096d4-e996-4616-a552-9dcd9015b3ba","ios":"levelo://app?vid=7c7096d4-e996-4616-a552-9dcd9015b3ba"},"vehicle_type_id":"4","last_reported":1716628023,"current_range_meters":4400,"station_id":"ce4bgi92rcd13ifvqb90","pricing_plan_id":"cebpf4jnsgd1na2vs0mg"},{"bike_id":"f501b539-6cb1-4506-85f9-70e02910d79d","system_id":"levelo_inurba_marseille","lat":43.296263,"lon":5.377094,"is_reserved":false,"is_disabled":false,"rental_uris":{"android":"levelo://app?vid=f501b539-6cb1-4506-85f9-70e02910d79d","ios":"levelo://app?vid=f501b539-6cb1-4506-85f9-70e02910d79d"},"vehicle_type_id":"4","last_reported":1716628023,"current_range_meters":12400,"station_id":"ce4bgi92rcd13ifvqb90","pricing_plan_id":"cebpf4jnsgd1na2vs0mg"},{"bike_id":"6dd45484-6f91-4050-a430-2bf2ae98d339","system_id":"levelo_inurba_marseille","lat":43.296277,"lon":5.377108,"is_reserved":false,"is_disabled":false,"rental_uris":{"android":"levelo://app?vid=6dd45484-6f91-4050-a430-2bf2ae98d339","ios":"levelo://app?vid=6dd45484-6f91-4050-a430-2bf2ae98d339"},"vehicle_type_id":"4","last_reported":1716628023,"current_range_meters":6800,"station_id":"ce4bgi92rcd13ifvqb90","pricing_plan_id":"cebpf4jnsgd1na2vs0mg"},{"bike_id":"ea5c8d42-c861-4802-a2ac-9f57d3bd183f","system_id":"levelo_inurba_marseille","lat":43.299707,"lon":5.384859,"is_reserved":false,"is_disabled":false,"rental_uris":{"android":"levelo://app?vid=ea5c8d42-c861-4802-a2ac-9f57d3bd183f","ios":"levelo://app?vid=ea5c8d42-c861-4802-a2ac-9f57d3bd183f"},"vehicle_type_id":"4","last_reported":1716628023,"current_range_meters":31200,"station_id":"ce4bgj92rcd13ifvqbd0","pricing_plan_id":"cebpf4jnsgd1na2vs0mg"},{"bike_id":"d014cf3e-048b-41f0-8f75-4b7171a47831","system_id":"levelo_inurba_marseille","lat":43.299707,"lon":5.384859,"is_reserved":false,"is_disabled":false,"rental_uris":{"android":"levelo://app?vid=d014cf3e-048b-41f0-8f75-4b7171a47831","ios":"levelo://app?vid=d014cf3e-048b-41f0-8f75-4b7171a47831"},"vehicle_type_id":"4","last_reported":1716628023,"current_range_meters":31200,"station_id":"ce4bgj92rcd13ifvqbd0","pricing_plan_id":"cebpf4jnsgd1na2vs0mg"},{"bike_id":"ec1132eb-1228-424b-98dd-c8c4beab1aa2","system_id":"levelo_inurba_marseille","lat":43.299717,"lon":5.384845,"is_reserved":false,"is_disabled":false,"rental_uris":{"android":"levelo://app?vid=ec1132eb-1228-424b-98dd-c8c4beab1aa2","ios":"levelo://app?vid=ec1132eb-1228-424b-98dd-c8c4beab1aa2"},"vehicle_type_id":"4","last_reported":1716628023,"current_range_meters":20000,"station_id":"ce4bgj92rcd13ifvqbd0","pricing_plan_id":"cebpf4jnsgd1na2vs0mg"},{"bike_id":"548c2333-74bc-476e-81ad-6d5a14a7a9d7","system_id":"levelo_inurba_marseille","lat":43.295279,"lon":5.375048,"is_reserved":false,"is_disabled":false,"rental_uris":{"android":"levelo://app?vid=548c2333-74bc-476e-81ad-6d5a14a7a9d7","ios":"levelo://app?vid=548c2333-74bc-476e-81ad-6d5a14a7a9d7"},"vehicle_type_id":"4","last_reported":1716628023,"current_range_meters":19200,"station_id":"ce4bgkp2rcd13ifvqbmg","pricing_plan_id":"cebpf4jnsgd1na2vs0mg"},{"bike_id":"adec0a5c-8bbe-4fc4-815b-cebc5f7ef7e7","system_id":"levelo_inurba_marseille","lat":43.295279,"lon":5.375048,"is_reserved":false,"is_disabled":false,"rental_uris":{"android":"levelo://app?vid=adec0a5c-8bbe-4fc4-815b-cebc5f7ef7e7","ios":"levelo://app?vid=adec0a5c-8bbe-4fc4-815b-cebc5f7ef7e7"},"vehicle_type_id":"4","last_reported":1716628023,"current_range_meters":19600,"station_id":"ce4bgkp2rcd13ifvqbmg","pricing_plan_id":"cebpf4jnsgd1na2vs0mg"},{"bike_id":"78252e3e-8eff-4ccb-a142-6526e4cc39f4","system_id":"levelo_inurba_marseille","lat":43.30089,"lon":5.38729,"is_reserved":false,"is_disabled":false,"rental_uris":{"android":"levelo://app?vid=78252e3e-8eff-4ccb-a142-6526e4cc39f4","ios":"levelo://app?vid=78252e3e-8eff-4ccb-a142-6526e4cc39f4"},"vehicle_type_id":"4","last_reported":1716628023,"current_range_meters":1200,"station_id":"","pricing_plan_id":"cebpf4jnsgd1na2vs0mg"},{"bike_id":"c692fd75-9972-42e1-92a8-4ac7cce47a41","system_id":"levelo_inurba_marseille","lat":43.299243,"lon":5.37481,"is_reserved":false,"is_disabled":false,"rental_uris":{"android":"levelo://app?vid=c692fd75-9972-42e1-92a8-4ac7cce47a41","ios":"levelo://app?vid=c692fd75-9972-42e1-92a8-4ac7cce47a41"},"vehicle_type_id":"4","last_reported":1716628023,"current_range_meters":12400,"station_id":"ce4bgjh2rcd13ifvqbg0","pricing_plan_id":"cebpf4jnsgd1na2vs0mg"},{"bike_id":"489823e6-287e-4f39-a689-3db2a123fd25","system_id":"levelo_inurba_marseille","lat":43.32364,"lon":5.3888,"is_reserved":false,"is_disabled":false,"rental_uris":{"android":"levelo://app?vid=489823e6-287e-4f39-a689-3db2a123fd25","ios":"levelo://app?vid=489823e6-287e-4f39-a689-3db2a123fd25"},"vehicle_type_id":"4","last_reported":1716628023,"current_range_meters":6000,"station_id":"ce4bhqp2rcd13ifvqhog","pricing_plan_id":"cebpf4jnsgd1na2vs0mg"},{"bike_id":"b6a8772c-63c3-4ea7-b1c7-31487e89e320","system_id":"levelo_inurba_marseille","lat":43.32367,"lon":5.388836,"is_reserved":false,"is_disabled":false,"rental_uris":{"android":"levelo://app?vid=b6a8772c-63c3-4ea7-b1c7-31487e89e320","ios":"levelo://app?vid=b6a8772c-63c3-4ea7-b1c7-31487e89e320"},"vehicle_type_id":"4","last_reported":1716628023,"current_range_meters":9200,"station_id":"ce4bhqp2rcd13ifvqhog","pricing_plan_id":"cebpf4jnsgd1na2vs0mg"},{"bike_id":"4b54d467-8a02-402d-972e-e713523f387e","system_id":"levelo_inurba_marseille","lat":43.32367,"lon":5.388836,"is_reserved":false,"is_disabled":false,"rental_uris":{"android":"levelo://app?vid=4b54d467-8a02-402d-972e-e713523f387e","ios":"levelo://app?vid=4b54d467-8a02-402d-972e-e713523f387e"},"vehicle_type_id":"4","last_reported":1716628023,"current_range_meters":18800,"station_id":"ce4bhqp2rcd13ifvqhog","pricing_plan_id":"cebpf4jnsgd1na2vs0mg"},{"bike_id":"418e94cd-3484-4584-a11f-e9dc130a9122","system_id":"levelo_inurba_marseille","lat":43.323703,"lon":5.38885,"is_reserved":false,"is_disabled":false,"rental_uris":{"android":"levelo://app?vid=418e94cd-3484-4584-a11f-e9dc130a9122","ios":"levelo://app?vid=418e94cd-3484-4584-a11f-e9dc130a9122"},"vehicle_type_id":"4","last_reported":1716628023,"current_range_meters":14000,"station_id":"ce4bhqp2rcd13ifvqhog","pricing_plan_id":"cebpf4jnsgd1na2vs0mg"},{"bike_id":"c11fbe9e-a0d8-45a6-9854-048cfe235e0f","system_id":"levelo_inurba_marseille","lat":43.29602,"lon":5.381084,"is_reserved":false,"is_disabled":false,"rental_uris":{"android":"levelo://app?vid=c11fbe9e-a0d8-45a6-9854-048cfe235e0f","ios":"levelo://app?vid=c11fbe9e-a0d8-45a6-9854-048cfe235e0f"},"vehicle_type_id":"4","last_reported":1716628023,"current_range_meters":12800,"station_id":"ce4bgl12rcd13ifvqbo0","pricing_plan_id":"cebpf4jnsgd1na2vs0mg"},{"bike_id":"64387aeb-797c-4a42-a6dc-5eebcca6a92d","system_id":"levelo_inurba_marseille","lat":43.29285,"lon":5.36856,"is_reserved":false,"is_disabled":false,"rental_uris":{"android":"levelo://app?vid=64387aeb-797c-4a42-a6dc-5eebcca6a92d","ios":"levelo://app?vid=64387aeb-797c-4a42-a6dc-5eebcca6a92d"},"vehicle_type_id":"4","last_reported":1716628023,"current_range_meters":20800,"station_id":"ce4bhbp2rcd13ifvqesg","pricing_plan_id":"cebpf4jnsgd1na2vs0mg"},{"bike_id":"1652675e-05ab-43d3-a6ae-c9cec8ccb249","system_id":"levelo_inurba_marseille","lat":43.29284,"lon":5.36844,"is_reserved":false,"is_disabled":false,"rental_uris":{"android":"levelo://app?vid=1652675e-05ab-43d3-a6ae-c9cec8ccb249","ios":"levelo://app?vid=1652675e-05ab-43d3-a6ae-c9cec8ccb249"},"vehicle_type_id":"4","last_reported":1716628023,"current_range_meters":28400,"station_id":"ce4bhbp2rcd13ifvqesg","pricing_plan_id":"cebpf4jnsgd1na2vs0mg"},{"bike_id":"34ac1674-66ea-4e39-b551-66394ac95077","system_id":"levelo_inurba_marseille","lat":43.29281,"lon":5.36822,"is_reserved":false,"is_disabled":false,"rental_uris":{"android":"levelo://app?vid=34ac1674-66ea-4e39-b551-66394ac95077","ios":"levelo://app?vid=34ac1674-66ea-4e39-b551-66394ac95077"},"vehicle_type_id":"4","last_reported":1716628023,"current_range_meters":11200,"station_id":"ce4bhbp2rcd13ifvqesg","pricing_plan_id":"cebpf4jnsgd1na2vs0mg"},{"bike_id":"75753355-e953-424b-879e-f62de72e9374","system_id":"levelo_inurba_marseille","lat":43.29281,"lon":5.36848,"is_reserved":false,"is_disabled":false,"rental_uris":{"android":"levelo://app?vid=75753355-e953-424b-879e-f62de72e9374","ios":"levelo://app?vid=75753355-e953-424b-879e-f62de72e9374"},"vehicle_type_id":"4","last_reported":1716628023,"current_range_meters":24000,"station_id":"ce4bhbp2rcd13ifvqesg","pricing_plan_id":"cebpf4jnsgd1na2vs0mg"},{"bike_id":"5cac664d-bea8-4ca6-a2e8-6b0bc90ba1fe","system_id":"levelo_inurba_marseille","lat":43.29281,"lon":5.3685,"is_reserved":false,"is_disabled":false,"rental_uris":{"android":"levelo://app?vid=5cac664d-bea8-4ca6-a2e8-6b0bc90ba1fe","ios":"levelo://app?vid=5cac664d-bea8-4ca6-a2e8-6b0bc90ba1fe"},"vehicle_type_id":"4","last_reported":1716628023,"current_range_meters":28800,"station_id":"ce4bhbp2rcd13ifvqesg","pricing_plan_id":"cebpf4jnsgd1na2vs0mg"},{"bike_id":"e85c25a9-b051-4aa3-a860-b24850256fd9","system_id":"levelo_inurba_marseille","lat":43.2928,"lon":5.36847,"is_reserved":false,"is_disabled":false,"rental_uris":{"android":"levelo://app?vid=e85c25a9-b051-4aa3-a860-b24850256fd9","ios":"levelo://app?vid=e85c25a9-b051-4aa3-a860-b24850256fd9"},"vehicle_type_id":"4","last_reported":1716628023,"current_range_meters":24800,"station_id":"ce4bhbp2rcd13ifvqesg","pricing_plan_id":"cebpf4jnsgd1na2vs0mg"},{"bike_id":"c4f151e6-675d-4799-b40c-1e38cd972d4a","system_id":"levelo_inurba_marseille","lat":43.292795,"lon":5.368375,"is_reserved":false,"is_disabled":false,"rental_uris":{"android":"levelo://app?vid=c4f151e6-675d-4799-b40c-1e38cd972d4a","ios":"levelo://app?vid=c4f151e6-675d-4799-b40c-1e38cd972d4a"},"vehicle_type_id":"4","last_reported":1716628023,"current_range_meters":17600,"station_id":"ce4bhbp2rcd13ifvqesg","pricing_plan_id":"cebpf4jnsgd1na2vs0mg"},{"bike_id":"4c6bf196-ce5f-4c63-8123-a69e23102ae4","system_id":"levelo_inurba_marseille","lat":43.293259,"lon":5.371586,"is_reserved":false,"is_disabled":false,"rental_uris":{"android":"levelo://app?vid=4c6bf196-ce5f-4c63-8123-a69e23102ae4","ios":"levelo://app?vid=4c6bf196-ce5f-4c63-8123-a69e23102ae4"},"vehicle_type_id":"4","last_reported":1716628023,"current_range_meters":19200,"station_id":"ce4bgh92rcd13ifvqb40","pricing_plan_id":"cebpf4jnsgd1na2vs0mg"},{"bike_id":"6a883b00-470c-4dbb-9aa0-ff610b7b5ed2","system_id":"levelo_inurba_marseille","lat":43.29278,"lon":5.36843,"is_reserved":false,"is_disabled":false,"rental_uris":{"android":"levelo://app?vid=6a883b00-470c-4dbb-9aa0-ff610b7b5ed2","ios":"levelo://app?vid=6a883b00-470c-4dbb-9aa0-ff610b7b5ed2"},"vehicle_type_id":"4","last_reported":1716628023,"current_range_meters":5200,"station_id":"ce4bhbp2rcd13ifvqesg","pricing_plan_id":"cebpf4jnsgd1na2vs0mg"},{"bike_id":"786ad7c0-4468-4da3-9233-c972c5d67c6d","system_id":"levelo_inurba_marseille","lat":43.29278,"lon":5.36849,"is_reserved":false,"is_disabled":false,"rental_uris":{"android":"levelo://app?vid=786ad7c0-4468-4da3-9233-c972c5d67c6d","ios":"levelo://app?vid=786ad7c0-4468-4da3-9233-c972c5d67c6d"},"vehicle_type_id":"4","last_reported":1716628023,"current_range_meters":21600,"station_id":"ce4bhbp2rcd13ifvqesg","pricing_plan_id":"cebpf4jnsgd1na2vs0mg"},{"bike_id":"4b3c4e4b-5d47-4fab-8b61-3b166ebb5e71","system_id":"levelo_inurba_marseille","lat":43.293259,"lon":5.371586,"is_reserved":false,"is_disabled":false,"rental_uris":{"android":"levelo://app?vid=4b3c4e4b-5d47-4fab-8b61-3b166ebb5e71","ios":"levelo://app?vid=4b3c4e4b-5d47-4fab-8b61-3b166ebb5e71"},"vehicle_type_id":"4","last_reported":1716628023,"current_range_meters":27200,"station_id":"ce4bgh92rcd13ifvqb40","pricing_plan_id":"cebpf4jnsgd1na2vs0mg"},{"bike_id":"230eb066-e1c1-4e71-9ac1-5bfdfcbc96fe","system_id":"levelo_inurba_marseille","lat":43.292749,"lon":5.368398,"is_reserved":false,"is_disabled":false,"rental_uris":{"android":"levelo://app?vid=230eb066-e1c1-4e71-9ac1-5bfdfcbc96fe","ios":"levelo://app?vid=230eb066-e1c1-4e71-9ac1-5bfdfcbc96fe"},"vehicle_type_id":"4","last_reported":1716628023,"current_range_meters":25200,"station_id":"ce4bhbp2rcd13ifvqesg","pricing_plan_id":"cebpf4jnsgd1na2vs0mg"},{"bike_id":"c2b76437-0d9e-4136-bb53-4e05458b483b","system_id":"levelo_inurba_marseille","lat":43.292749,"lon":5.368402,"is_reserved":false,"is_disabled":false,"rental_uris":{"android":"levelo://app?vid=c2b76437-0d9e-4136-bb53-4e05458b483b","ios":"levelo://app?vid=c2b76437-0d9e-4136-bb53-4e05458b483b"},"vehicle_type_id":"4","last_reported":1716628023,"current_range_meters":23600,"station_id":"ce4bhbp2rcd13ifvqesg","pricing_plan_id":"cebpf4jnsgd1na2vs0mg"},{"bike_id":"0b54224d-3116-4a77-98a4-c76123dac4f9","system_id":"levelo_inurba_marseille","lat":43.292749,"lon":5.368402,"is_reserved":false,"is_disabled":false,"rental_uris":{"android":"levelo://app?vid=0b54224d-3116-4a77-98a4-c76123dac4f9","ios":"levelo://app?vid=0b54224d-3116-4a77-98a4-c76123dac4f9"},"vehicle_type_id":"4","last_reported":1716628023,"current_range_meters":18400,"station_id":"ce4bhbp2rcd13ifvqesg","pricing_plan_id":"cebpf4jnsgd1na2vs0mg"},{"bike_id":"fd25b1fe-ff6d-420b-a8e9-1661ba137027","system_id":"levelo_inurba_marseille","lat":43.292749,"lon":5.368402,"is_reserved":false,"is_disabled":false,"rental_uris":{"android":"levelo://app?vid=fd25b1fe-ff6d-420b-a8e9-1661ba137027","ios":"levelo://app?vid=fd25b1fe-ff6d-420b-a8e9-1661ba137027"},"vehicle_type_id":"4","last_reported":1716628023,"current_range_meters":30800,"station_id":"ce4bhbp2rcd13ifvqesg","pricing_plan_id":"cebpf4jnsgd1na2vs0mg"},{"bike_id":"f61926a5-a621-4e17-9940-2e095afe92c7","system_id":"levelo_inurba_marseille","lat":43.292749,"lon":5.368402,"is_reserved":false,"is_disabled":false,"rental_uris":{"android":"levelo://app?vid=f61926a5-a621-4e17-9940-2e095afe92c7","ios":"levelo://app?vid=f61926a5-a621-4e17-9940-2e095afe92c7"},"vehicle_type_id":"4","last_reported":1716628023,"current_range_meters":13600,"station_id":"ce4bhbp2rcd13ifvqesg","pricing_plan_id":"cebpf4jnsgd1na2vs0mg"},{"bike_id":"48307d88-12f4-4c14-9072-b3387c5914b7","system_id":"levelo_inurba_marseille","lat":43.292749,"lon":5.368402,"is_reserved":false,"is_disabled":false,"rental_uris":{"android":"levelo://app?vid=48307d88-12f4-4c14-9072-b3387c5914b7","ios":"levelo://app?vid=48307d88-12f4-4c14-9072-b3387c5914b7"},"vehicle_type_id":"4","last_reported":1716628023,"current_range_meters":10000,"station_id":"ce4bhbp2rcd13ifvqesg","pricing_plan_id":"cebpf4jnsgd1na2vs0mg"},{"bike_id":"ef3417d3-bbfc-484b-b27f-ce24501d7366","system_id":"levelo_inurba_marseille","lat":43.292749,"lon":5.368402,"is_reserved":false,"is_disabled":false,"rental_uris":{"android":"levelo://app?vid=ef3417d3-bbfc-484b-b27f-ce24501d7366","ios":"levelo://app?vid=ef3417d3-bbfc-484b-b27f-ce24501d7366"},"vehicle_type_id":"4","last_reported":1716628023,"current_range_meters":12400,"station_id":"ce4bhbp2rcd13ifvqesg","pricing_plan_id":"cebpf4jnsgd1na2vs0mg"},{"bike_id":"95226e9b-b17a-4008-90cd-7eb40de47c8b","system_id":"levelo_inurba_marseille","lat":43.292749,"lon":5.368402,"is_reserved":false,"is_disabled":false,"rental_uris":{"android":"levelo://app?vid=95226e9b-b17a-4008-90cd-7eb40de47c8b","ios":"levelo://app?vid=95226e9b-b17a-4008-90cd-7eb40de47c8b"},"vehicle_type_id":"4","last_reported":1716628023,"current_range_meters":10800,"station_id":"ce4bhbp2rcd13ifvqesg","pricing_plan_id":"cebpf4jnsgd1na2vs0mg"},{"bike_id":"7085f153-257c-4936-9e5a-4307ec0c6a97","system_id":"levelo_inurba_marseille","lat":43.29263,"lon":5.36849,"is_reserved":false,"is_disabled":false,"rental_uris":{"android":"levelo://app?vid=7085f153-257c-4936-9e5a-4307ec0c6a97","ios":"levelo://app?vid=7085f153-257c-4936-9e5a-4307ec0c6a97"},"vehicle_type_id":"4","last_reported":1716628023,"current_range_meters":30400,"station_id":"ce4bhbp2rcd13ifvqesg","pricing_plan_id":"cebpf4jnsgd1na2vs0mg"},{"bike_id":"5c3f1cd4-228e-4fbc-afd8-b475d9775af7","system_id":"levelo_inurba_marseille","lat":43.292749,"lon":5.368402,"is_reserved":false,"is_disabled":false,"rental_uris":{"android":"levelo://app?vid=5c3f1cd4-228e-4fbc-afd8-b475d9775af7","ios":"levelo://app?vid=5c3f1cd4-228e-4fbc-afd8-b475d9775af7"},"vehicle_type_id":"4","last_reported":1716628023,"current_range_meters":24000,"station_id":"ce4bhbp2rcd13ifvqesg","pricing_plan_id":"cebpf4jnsgd1na2vs0mg"},{"bike_id":"825e9d5e-1e56-4abb-9ef1-9d422f5c3ebe","system_id":"levelo_inurba_marseille","lat":43.292749,"lon":5.368402,"is_reserved":false,"is_disabled":false,"rental_uris":{"android":"levelo://app?vid=825e9d5e-1e56-4abb-9ef1-9d422f5c3ebe","ios":"levelo://app?vid=825e9d5e-1e56-4abb-9ef1-9d422f5c3ebe"},"vehicle_type_id":"4","last_reported":1716628023,"current_range_meters":19200,"station_id":"ce4bhbp2rcd13ifvqesg","pricing_plan_id":"cebpf4jnsgd1na2vs0mg"},{"bike_id":"0a84801d-ca8c-49fa-bec8-52fee8ce949f","system_id":"levelo_inurba_marseille","lat":43.293009,"lon":5.374584,"is_reserved":false,"is_disabled":false,"rental_uris":{"android":"levelo://app?vid=0a84801d-ca8c-49fa-bec8-52fee8ce949f","ios":"levelo://app?vid=0a84801d-ca8c-49fa-bec8-52fee8ce949f"},"vehicle_type_id":"4","last_reported":1716628023,"current_range_meters":7200,"station_id":"ce4bgi12rcd13ifvqb70","pricing_plan_id":"cebpf4jnsgd1na2vs0mg"},{"bike_id":"97cffe40-9d86-47b1-8e3d-253d31e99c21","system_id":"levelo_inurba_marseille","lat":43.293009,"lon":5.374584,"is_reserved":false,"is_disabled":false,"rental_uris":{"android":"levelo://app?vid=97cffe40-9d86-47b1-8e3d-253d31e99c21","ios":"levelo://app?vid=97cffe40-9d86-47b1-8e3d-253d31e99c21"},"vehicle_type_id":"4","last_reported":1716628023,"current_range_meters":30800,"station_id":"ce4bgi12rcd13ifvqb70","pricing_plan_id":"cebpf4jnsgd1na2vs0mg"},{"bike_id":"09dbd29b-5624-4936-8362-98509cdf1a98","system_id":"levelo_inurba_marseille","lat":43.293009,"lon":5.374584,"is_reserved":false,"is_disabled":false,"rental_uris":{"android":"levelo://app?vid=09dbd29b-5624-4936-8362-98509cdf1a98","ios":"levelo://app?vid=09dbd29b-5624-4936-8362-98509cdf1a98"},"vehicle_type_id":"4","last_reported":1716628023,"current_range_meters":24400,"station_id":"ce4bgi12rcd13ifvqb70","pricing_plan_id":"cebpf4jnsgd1na2vs0mg"},{"bike_id":"443b8cfa-d251-4cbc-a873-1fd991175dd0","system_id":"levelo_inurba_marseille","lat":43.293009,"lon":5.374584,"is_reserved":false,"is_disabled":false,"rental_uris":{"android":"levelo://app?vid=443b8cfa-d251-4cbc-a873-1fd991175dd0","ios":"levelo://app?vid=443b8cfa-d251-4cbc-a873-1fd991175dd0"},"vehicle_type_id":"4","last_reported":1716628023,"current_range_meters":6800,"station_id":"ce4bgi12rcd13ifvqb70","pricing_plan_id":"cebpf4jnsgd1na2vs0mg"},{"bike_id":"e63bd8c7-16d4-4c2b-96f4-87e68aaffb74","system_id":"levelo_inurba_marseille","lat":43.305972,"lon":5.3936,"is_reserved":false,"is_disabled":false,"rental_uris":{"android":"levelo://app?vid=e63bd8c7-16d4-4c2b-96f4-87e68aaffb74","ios":"levelo://app?vid=e63bd8c7-16d4-4c2b-96f4-87e68aaffb74"},"vehicle_type_id":"4","last_reported":1716628023,"current_range_meters":0,"station_id":"ce4bh0p2rcd13ifvqd80","pricing_plan_id":"cebpf4jnsgd1na2vs0mg"},{"bike_id":"f0774587-6adc-47f4-9cd5-7ce26146d0e0","system_id":"levelo_inurba_marseille","lat":43.293009,"lon":5.374584,"is_reserved":false,"is_disabled":false,"rental_uris":{"android":"levelo://app?vid=f0774587-6adc-47f4-9cd5-7ce26146d0e0","ios":"levelo://app?vid=f0774587-6adc-47f4-9cd5-7ce26146d0e0"},"vehicle_type_id":"4","last_reported":1716628023,"current_range_meters":10800,"station_id":"ce4bgi12rcd13ifvqb70","pricing_plan_id":"cebpf4jnsgd1na2vs0mg"},{"bike_id":"474af041-6065-429f-970b-3694f9a74d86","system_id":"levelo_inurba_marseille","lat":43.293009,"lon":5.374584,"is_reserved":false,"is_disabled":false,"rental_uris":{"android":"levelo://app?vid=474af041-6065-429f-970b-3694f9a74d86","ios":"levelo://app?vid=474af041-6065-429f-970b-3694f9a74d86"},"vehicle_type_id":"4","last_reported":1716628023,"current_range_meters":4000,"station_id":"ce4bgi12rcd13ifvqb70","pricing_plan_id":"cebpf4jnsgd1na2vs0mg"},{"bike_id":"48d16303-1ba2-4cff-a7df-2b51c1c8feff","system_id":"levelo_inurba_marseille","lat":43.293009,"lon":5.374584,"is_reserved":false,"is_disabled":false,"rental_uris":{"android":"levelo://app?vid=48d16303-1ba2-4cff-a7df-2b51c1c8feff","ios":"levelo://app?vid=48d16303-1ba2-4cff-a7df-2b51c1c8feff"},"vehicle_type_id":"4","last_reported":1716628023,"current_range_meters":24800,"station_id":"ce4bgi12rcd13ifvqb70","pricing_plan_id":"cebpf4jnsgd1na2vs0mg"},{"bike_id":"09859151-3483-42df-8a2c-cd2bf7ff73d9","system_id":"levelo_inurba_marseille","lat":43.29285,"lon":5.37433,"is_reserved":false,"is_disabled":false,"rental_uris":{"android":"levelo://app?vid=09859151-3483-42df-8a2c-cd2bf7ff73d9","ios":"levelo://app?vid=09859151-3483-42df-8a2c-cd2bf7ff73d9"},"vehicle_type_id":"4","last_reported":1716628023,"current_range_meters":30000,"station_id":"ce4bgi12rcd13ifvqb70","pricing_plan_id":"cebpf4jnsgd1na2vs0mg"},{"bike_id":"84d80a49-036d-4813-a233-65781565e39b","system_id":"levelo_inurba_marseille","lat":43.293009,"lon":5.374584,"is_reserved":false,"is_disabled":false,"rental_uris":{"android":"levelo://app?vid=84d80a49-036d-4813-a233-65781565e39b","ios":"levelo://app?vid=84d80a49-036d-4813-a233-65781565e39b"},"vehicle_type_id":"4","last_reported":1716628023,"current_range_meters":10000,"station_id":"ce4bgi12rcd13ifvqb70","pricing_plan_id":"cebpf4jnsgd1na2vs0mg"},{"bike_id":"2e52e775-4edd-40b7-9144-c46c43310301","system_id":"levelo_inurba_marseille","lat":43.29369,"lon":5.37838,"is_reserved":false,"is_disabled":false,"rental_uris":{"android":"levelo://app?vid=2e52e775-4edd-40b7-9144-c46c43310301","ios":"levelo://app?vid=2e52e775-4edd-40b7-9144-c46c43310301"},"vehicle_type_id":"4","last_reported":1716628023,"current_range_meters":0,"station_id":"ce4bgjh2rcd13ifvqbf0","pricing_plan_id":"cebpf4jnsgd1na2vs0mg"},{"bike_id":"111feb37-3ae4-4d80-9968-c993a4cf3679","system_id":"levelo_inurba_marseille","lat":43.2936,"lon":5.37835,"is_reserved":false,"is_disabled":false,"rental_uris":{"android":"levelo://app?vid=111feb37-3ae4-4d80-9968-c993a4cf3679","ios":"levelo://app?vid=111feb37-3ae4-4d80-9968-c993a4cf3679"},"vehicle_type_id":"4","last_reported":1716628023,"current_range_meters":13200,"station_id":"ce4bgjh2rcd13ifvqbf0","pricing_plan_id":"cebpf4jnsgd1na2vs0mg"},{"bike_id":"26a2c024-4055-4da6-92d1-45d251886cc8","system_id":"levelo_inurba_marseille","lat":43.2936,"lon":5.37835,"is_reserved":false,"is_disabled":false,"rental_uris":{"android":"levelo://app?vid=26a2c024-4055-4da6-92d1-45d251886cc8","ios":"levelo://app?vid=26a2c024-4055-4da6-92d1-45d251886cc8"},"vehicle_type_id":"4","last_reported":1716628023,"current_range_meters":0,"station_id":"ce4bgjh2rcd13ifvqbf0","pricing_plan_id":"cebpf4jnsgd1na2vs0mg"},{"bike_id":"39e2e68f-99a3-40e0-8748-f1ab02b18cb4","system_id":"levelo_inurba_marseille","lat":43.2936,"lon":5.37835,"is_reserved":false,"is_disabled":false,"rental_uris":{"android":"levelo://app?vid=39e2e68f-99a3-40e0-8748-f1ab02b18cb4","ios":"levelo://app?vid=39e2e68f-99a3-40e0-8748-f1ab02b18cb4"},"vehicle_type_id":"4","last_reported":1716628023,"current_range_meters":25200,"station_id":"ce4bgjh2rcd13ifvqbf0","pricing_plan_id":"cebpf4jnsgd1na2vs0mg"},{"bike_id":"9ac36d51-0c18-4aa3-b3c5-b77f0512f7d6","system_id":"levelo_inurba_marseille","lat":43.2936,"lon":5.37835,"is_reserved":false,"is_disabled":false,"rental_uris":{"android":"levelo://app?vid=9ac36d51-0c18-4aa3-b3c5-b77f0512f7d6","ios":"levelo://app?vid=9ac36d51-0c18-4aa3-b3c5-b77f0512f7d6"},"vehicle_type_id":"4","last_reported":1716628023,"current_range_meters":12400,"station_id":"ce4bgjh2rcd13ifvqbf0","pricing_plan_id":"cebpf4jnsgd1na2vs0mg"},{"bike_id":"99545c9a-a2d4-49f5-a8d3-fe264ad4cef5","system_id":"levelo_inurba_marseille","lat":43.292311,"lon":5.360731,"is_reserved":false,"is_disabled":false,"rental_uris":{"android":"levelo://app?vid=99545c9a-a2d4-49f5-a8d3-fe264ad4cef5","ios":"levelo://app?vid=99545c9a-a2d4-49f5-a8d3-fe264ad4cef5"},"vehicle_type_id":"4","last_reported":1716628023,"current_range_meters":21200,"station_id":"ce4bhbh2rcd13ifvqeqg","pricing_plan_id":"cebpf4jnsgd1na2vs0mg"},{"bike_id":"90b98d77-bbf1-4789-8301-2fed0aa7162c","system_id":"levelo_inurba_marseille","lat":43.292311,"lon":5.360731,"is_reserved":false,"is_disabled":false,"rental_uris":{"android":"levelo://app?vid=90b98d77-bbf1-4789-8301-2fed0aa7162c","ios":"levelo://app?vid=90b98d77-bbf1-4789-8301-2fed0aa7162c"},"vehicle_type_id":"4","last_reported":1716628023,"current_range_meters":15200,"station_id":"ce4bhbh2rcd13ifvqeqg","pricing_plan_id":"cebpf4jnsgd1na2vs0mg"},{"bike_id":"e8a3232d-46eb-4c7e-bb6d-574a2609a0d0","system_id":"levelo_inurba_marseille","lat":43.292311,"lon":5.360731,"is_reserved":false,"is_disabled":false,"rental_uris":{"android":"levelo://app?vid=e8a3232d-46eb-4c7e-bb6d-574a2609a0d0","ios":"levelo://app?vid=e8a3232d-46eb-4c7e-bb6d-574a2609a0d0"},"vehicle_type_id":"4","last_reported":1716628023,"current_range_meters":26400,"station_id":"ce4bhbh2rcd13ifvqeqg","pricing_plan_id":"cebpf4jnsgd1na2vs0mg"},{"bike_id":"15b590ac-6b14-46d7-b3d3-9bfb95746a6c","system_id":"levelo_inurba_marseille","lat":43.292311,"lon":5.360731,"is_reserved":false,"is_disabled":false,"rental_uris":{"android":"levelo://app?vid=15b590ac-6b14-46d7-b3d3-9bfb95746a6c","ios":"levelo://app?vid=15b590ac-6b14-46d7-b3d3-9bfb95746a6c"},"vehicle_type_id":"4","last_reported":1716628023,"current_range_meters":13600,"station_id":"ce4bhbh2rcd13ifvqeqg","pricing_plan_id":"cebpf4jnsgd1na2vs0mg"},{"bike_id":"57aed8a1-21f5-4940-96bb-4fcadc5e7e64","system_id":"levelo_inurba_marseille","lat":43.292311,"lon":5.360731,"is_reserved":false,"is_disabled":false,"rental_uris":{"android":"levelo://app?vid=57aed8a1-21f5-4940-96bb-4fcadc5e7e64","ios":"levelo://app?vid=57aed8a1-21f5-4940-96bb-4fcadc5e7e64"},"vehicle_type_id":"4","last_reported":1716628023,"current_range_meters":4400,"station_id":"ce4bhbh2rcd13ifvqeqg","pricing_plan_id":"cebpf4jnsgd1na2vs0mg"},{"bike_id":"e0bcb37c-d089-484c-beb5-75072998bdba","system_id":"levelo_inurba_marseille","lat":43.30085,"lon":5.390856,"is_reserved":false,"is_disabled":false,"rental_uris":{"android":"levelo://app?vid=e0bcb37c-d089-484c-beb5-75072998bdba","ios":"levelo://app?vid=e0bcb37c-d089-484c-beb5-75072998bdba"},"vehicle_type_id":"4","last_reported":1716628023,"current_range_meters":1600,"station_id":"ce4bh192rcd13ifvqdb0","pricing_plan_id":"cebpf4jnsgd1na2vs0mg"},{"bike_id":"db8c1a88-a8fb-48ce-a659-4c4fbbc41298","system_id":"levelo_inurba_marseille","lat":43.292311,"lon":5.360731,"is_reserved":false,"is_disabled":false,"rental_uris":{"android":"levelo://app?vid=db8c1a88-a8fb-48ce-a659-4c4fbbc41298","ios":"levelo://app?vid=db8c1a88-a8fb-48ce-a659-4c4fbbc41298"},"vehicle_type_id":"4","last_reported":1716628023,"current_range_meters":31200,"station_id":"ce4bhbh2rcd13ifvqeqg","pricing_plan_id":"cebpf4jnsgd1na2vs0mg"},{"bike_id":"23f79f2d-e349-413b-ae78-c3b7f633e079","system_id":"levelo_inurba_marseille","lat":43.3008,"lon":5.39097,"is_reserved":false,"is_disabled":false,"rental_uris":{"android":"levelo://app?vid=23f79f2d-e349-413b-ae78-c3b7f633e079","ios":"levelo://app?vid=23f79f2d-e349-413b-ae78-c3b7f633e079"},"vehicle_type_id":"4","last_reported":1716628023,"current_range_meters":15600,"station_id":"ce4bh192rcd13ifvqdb0","pricing_plan_id":"cebpf4jnsgd1na2vs0mg"},{"bike_id":"a7522fc3-2fbf-4f29-9ca1-21642acf71bb","system_id":"levelo_inurba_marseille","lat":43.291671,"lon":5.371575,"is_reserved":false,"is_disabled":false,"rental_uris":{"android":"levelo://app?vid=a7522fc3-2fbf-4f29-9ca1-21642acf71bb","ios":"levelo://app?vid=a7522fc3-2fbf-4f29-9ca1-21642acf71bb"},"vehicle_type_id":"4","last_reported":1716628023,"current_range_meters":0,"station_id":"ce4bha92rcd13ifvqeh0","pricing_plan_id":"cebpf4jnsgd1na2vs0mg"},{"bike_id":"888770e4-8638-4790-9da7-d20aeb5d05b5","system_id":"levelo_inurba_marseille","lat":43.291671,"lon":5.371575,"is_reserved":false,"is_disabled":false,"rental_uris":{"android":"levelo://app?vid=888770e4-8638-4790-9da7-d20aeb5d05b5","ios":"levelo://app?vid=888770e4-8638-4790-9da7-d20aeb5d05b5"},"vehicle_type_id":"4","last_reported":1716628023,"current_range_meters":21200,"station_id":"ce4bha92rcd13ifvqeh0","pricing_plan_id":"cebpf4jnsgd1na2vs0mg"},{"bike_id":"5bb9bbec-c22f-4746-b817-575d2f43dbc7","system_id":"levelo_inurba_marseille","lat":43.29866,"lon":5.38901,"is_reserved":false,"is_disabled":false,"rental_uris":{"android":"levelo://app?vid=5bb9bbec-c22f-4746-b817-575d2f43dbc7","ios":"levelo://app?vid=5bb9bbec-c22f-4746-b817-575d2f43dbc7"},"vehicle_type_id":"4","last_reported":1716628023,"current_range_meters":0,"station_id":"ce4bh392rcd13ifvqdl0","pricing_plan_id":"cebpf4jnsgd1na2vs0mg"},{"bike_id":"87f63cef-a184-4ea6-a9cb-5cb3299ca223","system_id":"levelo_inurba_marseille","lat":43.309047,"lon":5.396551,"is_reserved":false,"is_disabled":false,"rental_uris":{"android":"levelo://app?vid=87f63cef-a184-4ea6-a9cb-5cb3299ca223","ios":"levelo://app?vid=87f63cef-a184-4ea6-a9cb-5cb3299ca223"},"vehicle_type_id":"4","last_reported":1716628023,"current_range_meters":26400,"station_id":"ce4bh012rcd13ifvqcv0","pricing_plan_id":"cebpf4jnsgd1na2vs0mg"},{"bike_id":"c833a63d-941b-45d0-8528-f32203e1b3ea","system_id":"levelo_inurba_marseille","lat":43.292005,"lon":5.357875,"is_reserved":false,"is_disabled":false,"rental_uris":{"android":"levelo://app?vid=c833a63d-941b-45d0-8528-f32203e1b3ea","ios":"levelo://app?vid=c833a63d-941b-45d0-8528-f32203e1b3ea"},"vehicle_type_id":"4","last_reported":1716628023,"current_range_meters":16800,"station_id":"ce4bhb12rcd13ifvqel0","pricing_plan_id":"cebpf4jnsgd1na2vs0mg"},{"bike_id":"e357b7d1-79be-4dd6-837c-37db48bfcc05","system_id":"levelo_inurba_marseille","lat":43.30882,"lon":5.39623,"is_reserved":false,"is_disabled":false,"rental_uris":{"android":"levelo://app?vid=e357b7d1-79be-4dd6-837c-37db48bfcc05","ios":"levelo://app?vid=e357b7d1-79be-4dd6-837c-37db48bfcc05"},"vehicle_type_id":"4","last_reported":1716628023,"current_range_meters":30800,"station_id":"ce4bh012rcd13ifvqcv0","pricing_plan_id":"cebpf4jnsgd1na2vs0mg"},{"bike_id":"f0f19433-8de6-43d7-adfd-f73ce6c0543f","system_id":"levelo_inurba_marseille","lat":43.30881,"lon":5.3963,"is_reserved":false,"is_disabled":false,"rental_uris":{"android":"levelo://app?vid=f0f19433-8de6-43d7-adfd-f73ce6c0543f","ios":"levelo://app?vid=f0f19433-8de6-43d7-adfd-f73ce6c0543f"},"vehicle_type_id":"4","last_reported":1716628023,"current_range_meters":30400,"station_id":"ce4bh012rcd13ifvqcv0","pricing_plan_id":"cebpf4jnsgd1na2vs0mg"},{"bike_id":"f22b79e2-40d1-477d-9d87-e4ac79b2c2c3","system_id":"levelo_inurba_marseille","lat":43.30886,"lon":5.39635,"is_reserved":false,"is_disabled":false,"rental_uris":{"android":"levelo://app?vid=f22b79e2-40d1-477d-9d87-e4ac79b2c2c3","ios":"levelo://app?vid=f22b79e2-40d1-477d-9d87-e4ac79b2c2c3"},"vehicle_type_id":"4","last_reported":1716628023,"current_range_meters":24000,"station_id":"ce4bh012rcd13ifvqcv0","pricing_plan_id":"cebpf4jnsgd1na2vs0mg"},{"bike_id":"a183f657-e1cc-4d29-b80d-097b4738790e","system_id":"levelo_inurba_marseille","lat":43.309038,"lon":5.396546,"is_reserved":false,"is_disabled":false,"rental_uris":{"android":"levelo://app?vid=a183f657-e1cc-4d29-b80d-097b4738790e","ios":"levelo://app?vid=a183f657-e1cc-4d29-b80d-097b4738790e"},"vehicle_type_id":"4","last_reported":1716628023,"current_range_meters":18400,"station_id":"ce4bh012rcd13ifvqcv0","pricing_plan_id":"cebpf4jnsgd1na2vs0mg"},{"bike_id":"9d4d8b0d-6d09-4840-bb23-c8e5191a3ebf","system_id":"levelo_inurba_marseille","lat":43.291994,"lon":5.357886,"is_reserved":false,"is_disabled":false,"rental_uris":{"android":"levelo://app?vid=9d4d8b0d-6d09-4840-bb23-c8e5191a3ebf","ios":"levelo://app?vid=9d4d8b0d-6d09-4840-bb23-c8e5191a3ebf"},"vehicle_type_id":"4","last_reported":1716628023,"current_range_meters":19600,"station_id":"ce4bhb12rcd13ifvqel0","pricing_plan_id":"cebpf4jnsgd1na2vs0mg"},{"bike_id":"2a0310fb-45c6-4abf-b26b-c05b7b0fe8ba","system_id":"levelo_inurba_marseille","lat":43.313291,"lon":5.396838,"is_reserved":false,"is_disabled":false,"rental_uris":{"android":"levelo://app?vid=2a0310fb-45c6-4abf-b26b-c05b7b0fe8ba","ios":"levelo://app?vid=2a0310fb-45c6-4abf-b26b-c05b7b0fe8ba"},"vehicle_type_id":"4","last_reported":1716628023,"current_range_meters":22400,"station_id":"ce4bgvp2rcd13ifvqcu0","pricing_plan_id":"cebpf4jnsgd1na2vs0mg"},{"bike_id":"0d614f45-4a3e-4c77-b35b-61ac04329d09","system_id":"levelo_inurba_marseille","lat":43.313291,"lon":5.396838,"is_reserved":false,"is_disabled":false,"rental_uris":{"android":"levelo://app?vid=0d614f45-4a3e-4c77-b35b-61ac04329d09","ios":"levelo://app?vid=0d614f45-4a3e-4c77-b35b-61ac04329d09"},"vehicle_type_id":"4","last_reported":1716628023,"current_range_meters":30800,"station_id":"ce4bgvp2rcd13ifvqcu0","pricing_plan_id":"cebpf4jnsgd1na2vs0mg"},{"bike_id":"bd9e45e2-54dd-4637-b3c1-2ad580b97e94","system_id":"levelo_inurba_marseille","lat":43.308716,"lon":5.396374,"is_reserved":false,"is_disabled":false,"rental_uris":{"android":"levelo://app?vid=bd9e45e2-54dd-4637-b3c1-2ad580b97e94","ios":"levelo://app?vid=bd9e45e2-54dd-4637-b3c1-2ad580b97e94"},"vehicle_type_id":"4","last_reported":1716628023,"current_range_meters":18000,"station_id":"ce4bh012rcd13ifvqcv0","pricing_plan_id":"cebpf4jnsgd1na2vs0mg"},{"bike_id":"9f4d8e70-b0f0-4f43-bfcd-3052910ad99e","system_id":"levelo_inurba_marseille","lat":43.309038,"lon":5.396546,"is_reserved":false,"is_disabled":false,"rental_uris":{"android":"levelo://app?vid=9f4d8e70-b0f0-4f43-bfcd-3052910ad99e","ios":"levelo://app?vid=9f4d8e70-b0f0-4f43-bfcd-3052910ad99e"},"vehicle_type_id":"4","last_reported":1716628023,"current_range_meters":23600,"station_id":"ce4bh012rcd13ifvqcv0","pricing_plan_id":"cebpf4jnsgd1na2vs0mg"},