{"last_updated":1703164179,"ttl":30,"version":"2.2","data":{"bikes":[{"bike_id":"0f4cc70e-ce1e-4e82-a66e-5588a43de74a","system_id":"levelo_inurba_marseille","lat":43.313391,"lon":5.36706,"is_reserved":false,"is_disabled":false,"rental_uris":{"android":"levelo://app?vid=0f4cc70e-ce1e-4e82-a66e-5588a43de74a","ios":"levelo://app?vid=0f4cc70e-ce1e-4e82-a66e-5588a43de74a"},"vehicle_type_id":"4","last_reported":1703164179,"current_range_meters":32000,"station_id":"ce4bgr92rcd13ifvqc6g","pricing_plan_id":"free"},{"bike_id":"3d744cd0-2fe6-494a-829e-68e65badb23a","system_id":"levelo_inurba_marseille","lat":43.31341,"lon":5.367098,"is_reserved":false,"is_disabled":false,"rental_uris":{"android":"levelo://app?vid=3d744cd0-2fe6-494a-829e-68e65badb23a","ios":"levelo://app?vid=3d744cd0-2fe6-494a-829e-68e65badb23a"},"vehicle_type_id":"4","last_reported":1703164179,"current_range_meters":26800,"station_id":"ce4bgr92rcd13ifvqc6g","pricing_plan_id":"free"},{"bike_id":"58d3b9e0-6402-4a47-b126-d305d66a04b8","system_id":"levelo_inurba_marseille","lat":43.313391,"lon":5.36706,"is_reserved":false,"is_disabled":false,"rental_uris":{"android":"levelo://app?vid=58d3b9e0-6402-4a47-b126-d305d66a04b8","ios":"levelo://app?vid=58d3b9e0-6402-4a47-b126-d305d66a04b8"},"vehicle_type_id":"4","last_reported":1703164179,"current_range_meters":31600,"station_id":"ce4bgr92rcd13ifvqc6g","pricing_plan_id":"free"},{"bike_id":"c32e3021-2d39-45a9-8f5c-43c0f9699d07","system_id":"levelo_inurba_marseille","lat":43.313391,"lon":5.36706,"is_reserved":false,"is_disabled":false,"rental_uris":{"android":"levelo://app?vid=c32e3021-2d39-45a9-8f5c-43c0f9699d07","ios":"levelo://app?vid=c32e3021-2d39-45a9-8f5c-43c0f9699d07"},"vehicle_type_id":"4","last_reported":1703164179,"current_range_meters":24400,"station_id":"ce4bgr92rcd13ifvqc6g","pricing_plan_id":"free"},{"bike_id":"4b9365ff-f769-448f-a9d9-57ddbc67c34b","system_id":"levelo_inurba_marseille","lat":43.31341,"lon":5.367098,"is_reserved":false,"is_disabled":false,"rental_uris":{"android":"levelo://app?vid=4b9365ff-f769-448f-a9d9-57ddbc67c34b","ios":"levelo://app?vid=4b9365ff-f769-448f-a9d9-57ddbc67c34b"},"vehicle_type_id":"4","last_reported":1703164179,"current_range_meters":28400,"station_id":"ce4bgr92rcd13ifvqc6g","pricing_plan_id":"free"},{"bike_id":"863d1d39-2b2c-4c20-9587-ed3879c48410","system_id":"levelo_inurba_marseille","lat":43.313391,"lon":5.36706,"is_reserved":false,"is_disabled":false,"rental_uris":{"android":"levelo://app?vid=863d1d39-2b2c-4c20-9587-ed3879c48410","ios":"levelo://app?vid=863d1d39-2b2c-4c20-9587-ed3879c48410"},"vehicle_type_id":"4","last_reported":1703164179,"current_range_meters":20800,"station_id":"ce4bgr92rcd13ifvqc6g","pricing_plan_id":"free"},{"bike_id":"44266770-10d5-4172-be5e-779fd33c33cf","system_id":"levelo_inurba_marseille","lat":43.31341,"lon":5.367098,"is_reserved":false,"is_disabled":false,"rental_uris":{"android":"levelo://app?vid=44266770-10d5-4172-be5e-779fd33c33cf","ios":"levelo://app?vid=44266770-10d5-4172-be5e-779fd33c33cf"},"vehicle_type_id":"4","last_reported":1703164179,"current_range_meters":31600,"station_id":"ce4bgr92rcd13ifvqc6g","pricing_plan_id":"free"},{"bike_id":"0f5db317-8a14-4ce0-a03e-ed3ebee076f9","system_id":"levelo_inurba_marseille","lat":43.31341,"lon":5.367098,"is_reserved":false,"is_disabled":false,"rental_uris":{"android":"levelo://app?vid=0f5db317-8a14-4ce0-a03e-ed3ebee076f9","ios":"levelo://app?vid=0f5db317-8a14-4ce0-a03e-ed3ebee076f9"},"vehicle_type_id":"4","last_reported":1703164179,"current_range_meters":2000,"station_id":"ce4bgr92rcd13ifvqc6g","pricing_plan_id":"free"},{"bike_id":"9c4bed50-4c08-46fb-9163-9ec5afa45ff6","system_id":"levelo_inurba_marseille","lat":43.31341,"lon":5.367098,"is_reserved":false,"is_disabled":false,"rental_uris":{"android":"levelo://app?vid=9c4bed50-4c08-46fb-9163-9ec5afa45ff6","ios":"levelo://app?vid=9c4bed50-4c08-46fb-9163-9ec5afa45ff6"},"vehicle_type_id":"4","last_reported":1703164179,"current_range_meters":0,"station_id":"ce4bgr92rcd13ifvqc6g","pricing_plan_id":"free"},{"bike_id":"0f877e39-0671-47e1-bc9c-1ec99ea40997","system_id":"levelo_inurba_marseille","lat":43.312239,"lon":5.368562,"is_reserved":false,"is_disabled":false,"rental_uris":{"android":"levelo://app?vid=0f877e39-0671-47e1-bc9c-1ec99ea40997","ios":"levelo://app?vid=0f877e39-0671-47e1-bc9c-1ec99ea40997"},"vehicle_type_id":"4","last_reported":1703164179,"current_range_meters":29600,"station_id":"ce4bgl92rcd13ifvqbq0","pricing_plan_id":"free"},{"bike_id":"7a8eff8a-d94e-4a19-840c-bc93c8b246ae","system_id":"levelo_inurba_marseille","lat":43.312239,"lon":5.368562,"is_reserved":false,"is_disabled":false,"rental_uris":{"android":"levelo://app?vid=7a8eff8a-d94e-4a19-840c-bc93c8b246ae","ios":"levelo://app?vid=7a8eff8a-d94e-4a19-840c-bc93c8b246ae"},"vehicle_type_id":"4","last_reported":1703164179,"current_range_meters":18400,"station_id":"ce4bgl92rcd13ifvqbq0","pricing_plan_id":"free"},{"bike_id":"c8943c13-69f1-4cf2-ba7f-315fba118e64","system_id":"levelo_inurba_marseille","lat":43.312239,"lon":5.368562,"is_reserved":false,"is_disabled":false,"rental_uris":{"android":"levelo://app?vid=c8943c13-69f1-4cf2-ba7f-315fba118e64","ios":"levelo://app?vid=c8943c13-69f1-4cf2-ba7f-315fba118e64"},"vehicle_type_id":"4","last_reported":1703164179,"current_range_meters":12000,"station_id":"ce4bgl92rcd13ifvqbq0","pricing_plan_id":"free"},{"bike_id":"178a1ce0-04fa-4222-a455-77af4f145e02","system_id":"levelo_inurba_marseille","lat":43.312239,"lon":5.368562,"is_reserved":false,"is_disabled":false,"rental_uris":{"android":"levelo://app?vid=178a1ce0-04fa-4222-a455-77af4f145e02","ios":"levelo://app?vid=178a1ce0-04fa-4222-a455-77af4f145e02"},"vehicle_type_id":"4","last_reported":1703164179,"current_range_meters":9600,"station_id":"ce4bgl92rcd13ifvqbq0","pricing_plan_id":"free"},{"bike_id":"a9597c4f-3ce5-4725-86f0-2964a7de4ebd","system_id":"levelo_inurba_marseille","lat":43.312239,"lon":5.368562,"is_reserved":false,"is_disabled":false,"rental_uris":{"android":"levelo://app?vid=a9597c4f-3ce5-4725-86f0-2964a7de4ebd","ios":"levelo://app?vid=a9597c4f-3ce5-4725-86f0-2964a7de4ebd"},"vehicle_type_id":"4","last_reported":1703164179,"current_range_meters":19200,"station_id":"ce4bgl92rcd13ifvqbq0","pricing_plan_id":"free"},{"bike_id":"900faecd-2c48-45e3-bfad-680d0ef4d7c0","system_id":"levelo_inurba_marseille","lat":43.309076,"lon":5.368465,"is_reserved":false,"is_disabled":false,"rental_uris":{"android":"levelo://app?vid=900faecd-2c48-45e3-bfad-680d0ef4d7c0","ios":"levelo://app?vid=900faecd-2c48-45e3-bfad-680d0ef4d7c0"},"vehicle_type_id":"4","last_reported":1703164179,"current_range_meters":21600,"station_id":"ce4bgn92rcd13ifvqbvg","pricing_plan_id":"free"},{"bike_id":"7ace44ff-a623-4bd0-aa0d-281c87f1577f","system_id":"levelo_inurba_marseille","lat":43.31491,"lon":5.37305,"is_reserved":false,"is_disabled":false,"rental_uris":{"android":"levelo://app?vid=7ace44ff-a623-4bd0-aa0d-281c87f1577f","ios":"levelo://app?vid=7ace44ff-a623-4bd0-aa0d-281c87f1577f"},"vehicle_type_id":"4","last_reported":1703164179,"current_range_meters":20800,"station_id":"ce4bgt12rcd13ifvqcd0","pricing_plan_id":"free"},{"bike_id":"c2446bcf-4180-47bf-a07a-d9ee0612d91b","system_id":"levelo_inurba_marseille","lat":43.30554,"lon":5.36535,"is_reserved":false,"is_disabled":false,"rental_uris":{"android":"levelo://app?vid=c2446bcf-4180-47bf-a07a-d9ee0612d91b","ios":"levelo://app?vid=c2446bcf-4180-47bf-a07a-d9ee0612d91b"},"vehicle_type_id":"4","last_reported":1703164179,"current_range_meters":20400,"station_id":"ce4bgs12rcd13ifvqcag","pricing_plan_id":"free"},{"bike_id":"52a98006-4d2a-4dde-8525-b5f89dcc2730","system_id":"levelo_inurba_marseille","lat":43.305446,"lon":5.365408,"is_reserved":false,"is_disabled":false,"rental_uris":{"android":"levelo://app?vid=52a98006-4d2a-4dde-8525-b5f89dcc2730","ios":"levelo://app?vid=52a98006-4d2a-4dde-8525-b5f89dcc2730"},"vehicle_type_id":"4","last_reported":1703164179,"current_range_meters":26400,"station_id":"ce4bgs12rcd13ifvqcag","pricing_plan_id":"free"},{"bike_id":"55e12fc2-3a66-4565-b2f4-c37626558fe1","system_id":"levelo_inurba_marseille","lat":43.305706,"lon":5.365654,"is_reserved":false,"is_disabled":false,"rental_uris":{"android":"levelo://app?vid=55e12fc2-3a66-4565-b2f4-c37626558fe1","ios":"levelo://app?vid=55e12fc2-3a66-4565-b2f4-c37626558fe1"},"vehicle_type_id":"4","last_reported":1703164179,"current_range_meters":6800,"station_id":"ce4bgs12rcd13ifvqcag","pricing_plan_id":"free"},{"bike_id":"3b889af7-a29d-437b-9dae-21d150b3c58a","system_id":"levelo_inurba_marseille","lat":43.305409,"lon":5.365285,"is_reserved":false,"is_disabled":false,"rental_uris":{"android":"levelo://app?vid=3b889af7-a29d-437b-9dae-21d150b3c58a","ios":"levelo://app?vid=3b889af7-a29d-437b-9dae-21d150b3c58a"},"vehicle_type_id":"4","last_reported":1703164179,"current_range_meters":27200,"station_id":"ce4bgs12rcd13ifvqcag","pricing_plan_id":"free"},{"bike_id":"f5efb623-bff2-4eef-885f-f58dff8e49b1","system_id":"levelo_inurba_marseille","lat":43.305368,"lon":5.367343,"is_reserved":false,"is_disabled":false,"rental_uris":{"android":"levelo://app?vid=f5efb623-bff2-4eef-885f-f58dff8e49b1","ios":"levelo://app?vid=f5efb623-bff2-4eef-885f-f58dff8e49b1"},"vehicle_type_id":"4","last_reported":1703164179,"current_range_meters":18400,"station_id":"ce4bgrp2rcd13ifvqc9g","pricing_plan_id":"free"},{"bike_id":"6e9bde32-8a5c-47e2-8942-eb7a14578bcd","system_id":"levelo_inurba_marseille","lat":43.305368,"lon":5.367343,"is_reserved":false,"is_disabled":false,"rental_uris":{"android":"levelo://app?vid=6e9bde32-8a5c-47e2-8942-eb7a14578bcd","ios":"levelo://app?vid=6e9bde32-8a5c-47e2-8942-eb7a14578bcd"},"vehicle_type_id":"4","last_reported":1703164179,"current_range_meters":17200,"station_id":"ce4bgrp2rcd13ifvqc9g","pricing_plan_id":"free"},{"bike_id":"8c86b092-3201-483b-9438-e0fe2f5e957c","system_id":"levelo_inurba_marseille","lat":43.305989,"lon":5.37225,"is_reserved":false,"is_disabled":false,"rental_uris":{"android":"levelo://app?vid=8c86b092-3201-483b-9438-e0fe2f5e957c","ios":"levelo://app?vid=8c86b092-3201-483b-9438-e0fe2f5e957c"},"vehicle_type_id":"4","last_reported":1703164179,"current_range_meters":25200,"station_id":"ce4bgqh2rcd13ifvqc4g","pricing_plan_id":"free"},{"bike_id":"cc63d9ff-8323-48a1-8826-f442f70bc513","system_id":"levelo_inurba_marseille","lat":43.307945,"lon":5.376487,"is_reserved":false,"is_disabled":false,"rental_uris":{"android":"levelo://app?vid=cc63d9ff-8323-48a1-8826-f442f70bc513","ios":"levelo://app?vid=cc63d9ff-8323-48a1-8826-f442f70bc513"},"vehicle_type_id":"4","last_reported":1703164179,"current_range_meters":27600,"station_id":"ce4bgv92rcd13ifvqcq0","pricing_plan_id":"free"},{"bike_id":"fdf98b4a-5908-45b6-90bf-f763152262b2","system_id":"levelo_inurba_marseille","lat":43.30304,"lon":5.368987,"is_reserved":false,"is_disabled":false,"rental_uris":{"android":"levelo://app?vid=fdf98b4a-5908-45b6-90bf-f763152262b2","ios":"levelo://app?vid=fdf98b4a-5908-45b6-90bf-f763152262b2"},"vehicle_type_id":"4","last_reported":1703164179,"current_range_meters":9200,"station_id":"ce4bgqh2rcd13ifvqc5g","pricing_plan_id":"free"},{"bike_id":"0f29f9fc-ade1-445d-ba8d-4631c9525c9b","system_id":"levelo_inurba_marseille","lat":43.30641,"lon":5.37986,"is_reserved":false,"is_disabled":false,"rental_uris":{"android":"levelo://app?vid=0f29f9fc-ade1-445d-ba8d-4631c9525c9b","ios":"levelo://app?vid=0f29f9fc-ade1-445d-ba8d-4631c9525c9b"},"vehicle_type_id":"4","last_reported":1703164179,"current_range_meters":400,"station_id":"","pricing_plan_id":"free"},{"bike_id":"a4c81745-a500-48ee-8a99-745edbdd1ca8","system_id":"levelo_inurba_marseille","lat":43.324771,"lon":5.36557,"is_reserved":false,"is_disabled":false,"rental_uris":{"android":"levelo://app?vid=a4c81745-a500-48ee-8a99-745edbdd1ca8","ios":"levelo://app?vid=a4c81745-a500-48ee-8a99-745edbdd1ca8"},"vehicle_type_id":"4","last_reported":1703164179,"current_range_meters":4800,"station_id":"ce4bhs12rcd13ifvqhvg","pricing_plan_id":"free"},{"bike_id":"f31357b9-fba8-47c4-af04-485b43510202","system_id":"levelo_inurba_marseille","lat":43.324771,"lon":5.36557,"is_reserved":false,"is_disabled":false,"rental_uris":{"android":"levelo://app?vid=f31357b9-fba8-47c4-af04-485b43510202","ios":"levelo://app?vid=f31357b9-fba8-47c4-af04-485b43510202"},"vehicle_type_id":"4","last_reported":1703164179,"current_range_meters":17600,"station_id":"ce4bhs12rcd13ifvqhvg","pricing_plan_id":"free"},{"bike_id":"47840dc3-c9b3-4c2f-bdb2-3770067fe91d","system_id":"levelo_inurba_marseille","lat":43.302784,"lon":5.377158,"is_reserved":false,"is_disabled":false,"rental_uris":{"android":"levelo://app?vid=47840dc3-c9b3-4c2f-bdb2-3770067fe91d","ios":"levelo://app?vid=47840dc3-c9b3-4c2f-bdb2-3770067fe91d"},"vehicle_type_id":"4","last_reported":1703164179,"current_range_meters":16400,"station_id":"ce4bguh2rcd13ifvqcj0","pricing_plan_id":"free"},{"bike_id":"ad0dedf2-0cd4-4d6b-9ecb-d240001f99ef","system_id":"levelo_inurba_marseille","lat":43.319935,"lon":5.381699,"is_reserved":false,"is_disabled":false,"rental_uris":{"android":"levelo://app?vid=ad0dedf2-0cd4-4d6b-9ecb-d240001f99ef","ios":"levelo://app?vid=ad0dedf2-0cd4-4d6b-9ecb-d240001f99ef"},"vehicle_type_id":"4","last_reported":1703164179,"current_range_meters":0,"station_id":"ce4bhr12rcd13ifvqhpg","pricing_plan_id":"free"},{"bike_id":"bf29f302-2dda-4aeb-bd7f-38d08e28933e","system_id":"levelo_inurba_marseille","lat":43.320005,"lon":5.381601,"is_reserved":false,"is_disabled":false,"rental_uris":{"android":"levelo://app?vid=bf29f302-2dda-4aeb-bd7f-38d08e28933e","ios":"levelo://app?vid=bf29f302-2dda-4aeb-bd7f-38d08e28933e"},"vehicle_type_id":"4","last_reported":1703164179,"current_range_meters":10400,"station_id":"ce4bhr12rcd13ifvqhpg","pricing_plan_id":"free"},{"bike_id":"2673d872-0e2c-41bc-af78-53d64dc70391","system_id":"levelo_inurba_marseille","lat":43.313571,"lon":5.384829,"is_reserved":false,"is_disabled":false,"rental_uris":{"android":"levelo://app?vid=2673d872-0e2c-41bc-af78-53d64dc70391","ios":"levelo://app?vid=2673d872-0e2c-41bc-af78-53d64dc70391"},"vehicle_type_id":"4","last_reported":1703164179,"current_range_meters":16000,"station_id":"ce4bgt92rcd13ifvqcf0","pricing_plan_id":"free"},{"bike_id":"b8aeb2d3-a4c3-41f7-9782-aecdbbe33e4e","system_id":"levelo_inurba_marseille","lat":43.299724,"lon":5.371829,"is_reserved":false,"is_disabled":false,"rental_uris":{"android":"levelo://app?vid=b8aeb2d3-a4c3-41f7-9782-aecdbbe33e4e","ios":"levelo://app?vid=b8aeb2d3-a4c3-41f7-9782-aecdbbe33e4e"},"vehicle_type_id":"4","last_reported":1703164179,"current_range_meters":20800,"station_id":"ce4bgr92rcd13ifvqc7g","pricing_plan_id":"free"},{"bike_id":"d271bcc2-c7d7-41ff-b0d6-408952311658","system_id":"levelo_inurba_marseille","lat":43.299724,"lon":5.371829,"is_reserved":false,"is_disabled":false,"rental_uris":{"android":"levelo://app?vid=d271bcc2-c7d7-41ff-b0d6-408952311658","ios":"levelo://app?vid=d271bcc2-c7d7-41ff-b0d6-408952311658"},"vehicle_type_id":"4","last_reported":1703164179,"current_range_meters":12800,"station_id":"ce4bgr92rcd13ifvqc7g","pricing_plan_id":"free"},{"bike_id":"db9d800a-03e0-48c4-8eb2-264397aaab8a","system_id":"levelo_inurba_marseille","lat":43.305364,"lon":5.384119,"is_reserved":false,"is_disabled":false,"rental_uris":{"android":"levelo://app?vid=db9d800a-03e0-48c4-8eb2-264397aaab8a","ios":"levelo://app?vid=db9d800a-03e0-48c4-8eb2-264397aaab8a"},"vehicle_type_id":"4","last_reported":1703164179,"current_range_meters":26800,"station_id":"ce4bgg92rcd13ifvqb30","pricing_plan_id":"free"},{"bike_id":"cca78b1a-392c-44c2-a95e-c0812097f4cd","system_id":"levelo_inurba_marseille","lat":43.298433,"lon":5.362774,"is_reserved":false,"is_disabled":false,"rental_uris":{"android":"levelo://app?vid=cca78b1a-392c-44c2-a95e-c0812097f4cd","ios":"levelo://app?vid=cca78b1a-392c-44c2-a95e-c0812097f4cd"},"vehicle_type_id":"4","last_reported":1703164179,"current_range_meters":800,"station_id":"ce4bgpp2rcd13ifvqc3g","pricing_plan_id":"free"},{"bike_id":"e2976019-7b89-4cc5-9cfb-045bbf74915d","system_id":"levelo_inurba_marseille","lat":43.298433,"lon":5.362774,"is_reserved":false,"is_disabled":false,"rental_uris":{"android":"levelo://app?vid=e2976019-7b89-4cc5-9cfb-045bbf74915d","ios":"levelo://app?vid=e2976019-7b89-4cc5-9cfb-045bbf74915d"},"vehicle_type_id":"4","last_reported":1703164179,"current_range_meters":18400,"station_id":"ce4bgpp2rcd13ifvqc3g","pricing_plan_id":"free"},{"bike_id":"e8c80b5a-4e5c-4a75-b822-6f18d9ba7312","system_id":"levelo_inurba_marseille","lat":43.298433,"lon":5.362774,"is_reserved":false,"is_disabled":false,"rental_uris":{"android":"levelo://app?vid=e8c80b5a-4e5c-4a75-b822-6f18d9ba7312","ios":"levelo://app?vid=e8c80b5a-4e5c-4a75-b822-6f18d9ba7312"},"vehicle_type_id":"4","last_reported":1703164179,"current_range_meters":27600,"station_id":"ce4bgpp2rcd13ifvqc3g","pricing_plan_id":"free"},{"bike_id":"db4fffcc-d7f7-42b8-8946-844d8963797e","system_id":"levelo_inurba_marseille","lat":43.298433,"lon":5.362774,"is_reserved":false,"is_disabled":false,"rental_uris":{"android":"levelo://app?vid=db4fffcc-d7f7-42b8-8946-844d8963797e","ios":"levelo://app?vid=db4fffcc-d7f7-42b8-8946-844d8963797e"},"vehicle_type_id":"4","last_reported":1703164179,"current_range_meters":28000,"station_id":"ce4bgpp2rcd13ifvqc3g","pricing_plan_id":"free"},{"bike_id":"3f0bb4e6-9b22-4acb-8b5e-87d3e3faf9d2","system_id":"levelo_inurba_marseille","lat":43.311722,"lon":5.387247,"is_reserved":false,"is_disabled":false,"rental_uris":{"android":"levelo://app?vid=3f0bb4e6-9b22-4acb-8b5e-87d3e3faf9d2","ios":"levelo://app?vid=3f0bb4e6-9b22-4acb-8b5e-87d3e3faf9d2"},"vehicle_type_id":"4","last_reported":1703164179,"current_range_meters":23200,"station_id":"ce4bgv12rcd13ifvqcp0","pricing_plan_id":"free"},{"bike_id":"e1315c69-e0bc-474b-b7c9-7e9d82b8f41e","system_id":"levelo_inurba_marseille","lat":43.297794,"lon":5.370888,"is_reserved":false,"is_disabled":false,"rental_uris":{"android":"levelo://app?vid=e1315c69-e0bc-474b-b7c9-7e9d82b8f41e","ios":"levelo://app?vid=e1315c69-e0bc-474b-b7c9-7e9d82b8f41e"},"vehicle_type_id":"4","last_reported":1703164179,"current_range_meters":16000,"station_id":"ce4bgop2rcd13ifvqc1g","pricing_plan_id":"free"},{"bike_id":"2b6f46c3-91a7-4759-9431-2e20cdfcf4a0","system_id":"levelo_inurba_marseille","lat":43.29782,"lon":5.37102,"is_reserved":false,"is_disabled":false,"rental_uris":{"android":"levelo://app?vid=2b6f46c3-91a7-4759-9431-2e20cdfcf4a0","ios":"levelo://app?vid=2b6f46c3-91a7-4759-9431-2e20cdfcf4a0"},"vehicle_type_id":"4","last_reported":1703164179,"current_range_meters":16000,"station_id":"ce4bgop2rcd13ifvqc1g","pricing_plan_id":"free"},{"bike_id":"c7926408-b132-4ce6-a394-54a707bf478d","system_id":"levelo_inurba_marseille","lat":43.29778,"lon":5.37098,"is_reserved":false,"is_disabled":false,"rental_uris":{"android":"levelo://app?vid=c7926408-b132-4ce6-a394-54a707bf478d","ios":"levelo://app?vid=c7926408-b132-4ce6-a394-54a707bf478d"},"vehicle_type_id":"4","last_reported":1703164179,"current_range_meters":0,"station_id":"ce4bgop2rcd13ifvqc1g","pricing_plan_id":"free"},{"bike_id":"c22e4b9f-ba20-4a7c-a7c8-fd0a73d903e0","system_id":"levelo_inurba_marseille","lat":43.32827,"lon":5.36679,"is_reserved":false,"is_disabled":false,"rental_uris":{"android":"levelo://app?vid=c22e4b9f-ba20-4a7c-a7c8-fd0a73d903e0","ios":"levelo://app?vid=c22e4b9f-ba20-4a7c-a7c8-fd0a73d903e0"},"vehicle_type_id":"4","last_reported":1703164179,"current_range_meters":18800,"station_id":"ce4bhs92rcd13ifvqi0g","pricing_plan_id":"free"},{"bike_id":"0cdbd0f0-d3c9-4a82-8c6d-6ffa03bfbf25","system_id":"levelo_inurba_marseille","lat":43.32829,"lon":5.36682,"is_reserved":false,"is_disabled":false,"rental_uris":{"android":"levelo://app?vid=0cdbd0f0-d3c9-4a82-8c6d-6ffa03bfbf25","ios":"levelo://app?vid=0cdbd0f0-d3c9-4a82-8c6d-6ffa03bfbf25"},"vehicle_type_id":"4","last_reported":1703164179,"current_range_meters":18800,"station_id":"ce4bhs92rcd13ifvqi0g","pricing_plan_id":"free"},{"bike_id":"c12df297-168e-4ca3-95d9-a300ff1ffbd9","system_id":"levelo_inurba_marseille","lat":43.328371,"lon":5.366909,"is_reserved":false,"is_disabled":false,"rental_uris":{"android":"levelo://app?vid=c12df297-168e-4ca3-95d9-a300ff1ffbd9","ios":"levelo://app?vid=c12df297-168e-4ca3-95d9-a300ff1ffbd9"},"vehicle_type_id":"4","last_reported":1703164179,"current_range_meters":25200,"station_id":"ce4bhs92rcd13ifvqi0g","pricing_plan_id":"free"},{"bike_id":"320fd6bc-9934-4f00-8583-40902cb3794b","system_id":"levelo_inurba_marseille","lat":43.297163,"lon":5.365866,"is_reserved":false,"is_disabled":false,"rental_uris":{"android":"levelo://app?vid=320fd6bc-9934-4f00-8583-40902cb3794b","ios":"levelo://app?vid=320fd6bc-9934-4f00-8583-40902cb3794b"},"vehicle_type_id":"4","last_reported":1703164179,"current_range_meters":23200,"station_id":"ce4bgn12rcd13ifvqbt0","pricing_plan_id":"free"},{"bike_id":"6524adb7-9903-4212-8ccc-cd4ec72e004e","system_id":"levelo_inurba_marseille","lat":43.297163,"lon":5.365866,"is_reserved":false,"is_disabled":false,"rental_uris":{"android":"levelo://app?vid=6524adb7-9903-4212-8ccc-cd4ec72e004e","ios":"levelo://app?vid=6524adb7-9903-4212-8ccc-cd4ec72e004e"},"vehicle_type_id":"4","last_reported":1703164179,"current_range_meters":1200,"station_id":"ce4bgn12rcd13ifvqbt0","pricing_plan_id":"free"},{"bike_id":"f58968fe-d5ad-49dc-b0eb-5cb6051344db","system_id":"levelo_inurba_marseille","lat":43.2968,"lon":5.37291,"is_reserved":false,"is_disabled":false,"rental_uris":{"android":"levelo://app?vid=f58968fe-d5ad-49dc-b0eb-5cb6051344db","ios":"levelo://app?vid=f58968fe-d5ad-49dc-b0eb-5cb6051344db"},"vehicle_type_id":"4","last_reported":1703164179,"current_range_meters":26400,"station_id":"ce4bgk12rcd13ifvqbj0","pricing_plan_id":"free"},{"bike_id":"b578afce-5989-430b-a4ae-1666e82eb0ae","system_id":"levelo_inurba_marseille","lat":43.29573,"lon":5.367355,"is_reserved":false,"is_disabled":false,"rental_uris":{"android":"levelo://app?vid=b578afce-5989-430b-a4ae-1666e82eb0ae","ios":"levelo://app?vid=b578afce-5989-430b-a4ae-1666e82eb0ae"},"vehicle_type_id":"4","last_reported":1703164179,"current_range_meters":9600,"station_id":"ce4bgph2rcd13ifvqc2g","pricing_plan_id":"free"},{"bike_id":"5eea934c-be28-47dc-a818-c879b33e2737","system_id":"levelo_inurba_marseille","lat":43.29573,"lon":5.367355,"is_reserved":false,"is_disabled":false,"rental_uris":{"android":"levelo://app?vid=5eea934c-be28-47dc-a818-c879b33e2737","ios":"levelo://app?vid=5eea934c-be28-47dc-a818-c879b33e2737"},"vehicle_type_id":"4","last_reported":1703164179,"current_range_meters":22000,"station_id":"ce4bgph2rcd13ifvqc2g","pricing_plan_id":"free"},{"bike_id":"707561d9-10f7-4c99-ac27-c6cdd72284c2","system_id":"levelo_inurba_marseille","lat":43.29618,"lon":5.37165,"is_reserved":false,"is_disabled":false,"rental_uris":{"android":"levelo://app?vid=707561d9-10f7-4c99-ac27-c6cdd72284c2","ios":"levelo://app?vid=707561d9-10f7-4c99-ac27-c6cdd72284c2"},"vehicle_type_id":"4","last_reported":1703164179,"current_range_meters":3200,"station_id":"ce4bgnh2rcd13ifvqc0g","pricing_plan_id":"free"},{"bike_id":"e74b921c-c06c-44cd-aa24-eefec1430c79","system_id":"levelo_inurba_marseille","lat":43.29573,"lon":5.367355,"is_reserved":false,"is_disabled":false,"rental_uris":{"android":"levelo://app?vid=e74b921c-c06c-44cd-aa24-eefec1430c79","ios":"levelo://app?vid=e74b921c-c06c-44cd-aa24-eefec1430c79"},"vehicle_type_id":"4","last_reported":1703164179,"current_range_meters":14000,"station_id":"ce4bgph2rcd13ifvqc2g","pricing_plan_id":"free"},{"bike_id":"91f97631-d0df-430c-be7e-5771f04a351c","system_id":"levelo_inurba_marseille","lat":43.29573,"lon":5.367355,"is_reserved":false,"is_disabled":false,"rental_uris":{"android":"levelo://app?vid=91f97631-d0df-430c-be7e-5771f04a351c","ios":"levelo://app?vid=91f97631-d0df-430c-be7e-5771f04a351c"},"vehicle_type_id":"4","last_reported":1703164179,"current_range_meters":30400,"station_id":"ce4bgph2rcd13ifvqc2g","pricing_plan_id":"free"},{"bike_id":"9deeefdf-5bf5-41b1-b532-c4e17d4ccedc","system_id":"levelo_inurba_marseille","lat":43.296921,"lon":5.376579,"is_reserved":false,"is_disabled":false,"rental_uris":{"android":"levelo://app?vid=9deeefdf-5bf5-41b1-b532-c4e17d4ccedc","ios":"levelo://app?vid=9deeefdf-5bf5-41b1-b532-c4e17d4ccedc"},"vehicle_type_id":"4","last_reported":1703164179,"current_range_meters":22400,"station_id":"ce4bgkh2rcd13ifvqbl0","pricing_plan_id":"free"},{"bike_id":"2cd762d3-4814-4bab-be95-490197a0fe9f","system_id":"levelo_inurba_marseille","lat":43.299028,"lon":5.381509,"is_reserved":false,"is_disabled":false,"rental_uris":{"android":"levelo://app?vid=2cd762d3-4814-4bab-be95-490197a0fe9f","ios":"levelo://app?vid=2cd762d3-4814-4bab-be95-490197a0fe9f"},"vehicle_type_id":"4","last_reported":1703164179,"current_range_meters":10800,"station_id":"ce4bgj12rcd13ifvqbc0","pricing_plan_id":"free"},{"bike_id":"cdb4aaa0-36b4-4994-b820-ce4bfdc3394e","system_id":"levelo_inurba_marseille","lat":43.309589,"lon":5.390258,"is_reserved":false,"is_disabled":false,"rental_uris":{"android":"levelo://app?vid=cdb4aaa0-36b4-4994-b820-ce4bfdc3394e","ios":"levelo://app?vid=cdb4aaa0-36b4-4994-b820-ce4bfdc3394e"},"vehicle_type_id":"4","last_reported":1703164179,"current_range_meters":31600,"station_id":"ce4bgup2rcd13ifvqco0","pricing_plan_id":"free"},{"bike_id":"bf5b35d5-669b-4ca7-ad23-ecbe9dc98347","system_id":"levelo_inurba_marseille","lat":43.299028,"lon":5.381509,"is_reserved":false,"is_disabled":false,"rental_uris":{"android":"levelo://app?vid=bf5b35d5-669b-4ca7-ad23-ecbe9dc98347","ios":"levelo://app?vid=bf5b35d5-669b-4ca7-ad23-ecbe9dc98347"},"vehicle_type_id":"4","last_reported":1703164179,"current_range_meters":22000,"station_id":"ce4bgj12rcd13ifvqbc0","pricing_plan_id":"free"},{"bike_id":"04ca680c-0493-4f1b-9ef8-db1e704523dd","system_id":"levelo_inurba_marseille","lat":43.317557,"lon":5.390173,"is_reserved":false,"is_disabled":false,"rental_uris":{"android":"levelo://app?vid=04ca680c-0493-4f1b-9ef8-db1e704523dd","ios":"levelo://app?vid=04ca680c-0493-4f1b-9ef8-db1e704523dd"},"vehicle_type_id":"4","last_reported":1703164179,"current_range_meters":26000,"station_id":"ce4bhqp2rcd13ifvqhng","pricing_plan_id":"free"},{"bike_id":"af0f6185-47fd-4d35-84c5-812a8497b556","system_id":"levelo_inurba_marseille","lat":43.298037,"lon":5.381066,"is_reserved":false,"is_disabled":false,"rental_uris":{"android":"levelo://app?vid=af0f6185-47fd-4d35-84c5-812a8497b556","ios":"levelo://app?vid=af0f6185-47fd-4d35-84c5-812a8497b556"},"vehicle_type_id":"4","last_reported":1703164179,"current_range_meters":6000,"station_id":"ce4bgip2rcd13ifvqbb0","pricing_plan_id":"free"},{"bike_id":"97317757-e749-49af-b50c-dafbe6207119","system_id":"levelo_inurba_marseille","lat":43.298037,"lon":5.381066,"is_reserved":false,"is_disabled":false,"rental_uris":{"android":"levelo://app?vid=97317757-e749-49af-b50c-dafbe6207119","ios":"levelo://app?vid=97317757-e749-49af-b50c-dafbe6207119"},"vehicle_type_id":"4","last_reported":1703164179,"current_range_meters":20800,"station_id":"ce4bgip2rcd13ifvqbb0","pricing_plan_id":"free"},{"bike_id":"5b390af1-7d16-478d-aa19-909852797834","system_id":"levelo_inurba_marseille","lat":43.298037,"lon":5.381066,"is_reserved":false,"is_disabled":false,"rental_uris":{"android":"levelo://app?vid=5b390af1-7d16-478d-aa19-909852797834","ios":"levelo://app?vid=5b390af1-7d16-478d-aa19-909852797834"},"vehicle_type_id":"4","last_reported":1703164179,"current_range_meters":4000,"station_id":"ce4bgip2rcd13ifvqbb0","pricing_plan_id":"free"},{"bike_id":"a4f48b99-c5cf-430d-a67f-43fa2d52cdd1","system_id":"levelo_inurba_marseille","lat":43.295279,"lon":5.375048,"is_reserved":false,"is_disabled":false,"rental_uris":{"android":"levelo://app?vid=a4f48b99-c5cf-430d-a67f-43fa2d52cdd1","ios":"levelo://app?vid=a4f48b99-c5cf-430d-a67f-43fa2d52cdd1"},"vehicle_type_id":"4","last_reported":1703164179,"current_range_meters":5600,"station_id":"ce4bgkp2rcd13ifvqbmg","pricing_plan_id":"free"},{"bike_id":"7d9fa33d-8d51-43f7-8b34-d0f549facef2","system_id":"levelo_inurba_marseille","lat":43.295279,"lon":5.375048,"is_reserved":false,"is_disabled":false,"rental_uris":{"android":"levelo://app?vid=7d9fa33d-8d51-43f7-8b34-d0f549facef2","ios":"levelo://app?vid=7d9fa33d-8d51-43f7-8b34-d0f549facef2"},"vehicle_type_id":"4","last_reported":1703164179,"current_range_meters":22800,"station_id":"ce4bgkp2rcd13ifvqbmg","pricing_plan_id":"free"},{"bike_id":"35f21b94-1871-4597-92a4-504e11fe3ea2","system_id":"levelo_inurba_marseille","lat":43.295279,"lon":5.375048,"is_reserved":false,"is_disabled":false,"rental_uris":{"android":"levelo://app?vid=35f21b94-1871-4597-92a4-504e11fe3ea2","ios":"levelo://app?vid=35f21b94-1871-4597-92a4-504e11fe3ea2"},"vehicle_type_id":"4","last_reported":1703164179,"current_range_meters":7600,"station_id":"ce4bgkp2rcd13ifvqbmg","pricing_plan_id":"free"},{"bike_id":"39a5a7f1-613e-4ce9-85dc-bf406e7675c4","system_id":"levelo_inurba_marseille","lat":43.32364,"lon":5.38885,"is_reserved":false,"is_disabled":false,"rental_uris":{"android":"levelo://app?vid=39a5a7f1-613e-4ce9-85dc-bf406e7675c4","ios":"levelo://app?vid=39a5a7f1-613e-4ce9-85dc-bf406e7675c4"},"vehicle_type_id":"4","last_reported":1703164179,"current_range_meters":0,"station_id":"ce4bhqp2rcd13ifvqhog","pricing_plan_id":"free"},{"bike_id":"65d4c50c-5fb8-459c-bc53-9059926e739d","system_id":"levelo_inurba_marseille","lat":43.29602,"lon":5.381084,"is_reserved":false,"is_disabled":false,"rental_uris":{"android":"levelo://app?vid=65d4c50c-5fb8-459c-bc53-9059926e739d","ios":"levelo://app?vid=65d4c50c-5fb8-459c-bc53-9059926e739d"},"vehicle_type_id":"4","last_reported":1703164179,"current_range_meters":29600,"station_id":"ce4bgl12rcd13ifvqbo0","pricing_plan_id":"free"},{"bike_id":"4851cd58-f6e9-4458-8780-5aa48e90ad10","system_id":"levelo_inurba_marseille","lat":43.29602,"lon":5.381084,"is_reserved":false,"is_disabled":false,"rental_uris":{"android":"levelo://app?vid=4851cd58-f6e9-4458-8780-5aa48e90ad10","ios":"levelo://app?vid=4851cd58-f6e9-4458-8780-5aa48e90ad10"},"vehicle_type_id":"4","last_reported":1703164179,"current_range_meters":27600,"station_id":"ce4bgl12rcd13ifvqbo0","pricing_plan_id":"free"},{"bike_id":"3ae6aee1-e188-42b5-ad76-cadd07f2f208","system_id":"levelo_inurba_marseille","lat":43.293249,"lon":5.371578,"is_reserved":false,"is_disabled":false,"rental_uris":{"android":"levelo://app?vid=3ae6aee1-e188-42b5-ad76-cadd07f2f208","ios":"levelo://app?vid=3ae6aee1-e188-42b5-ad76-cadd07f2f208"},"vehicle_type_id":"4","last_reported":1703164179,"current_range_meters":30800,"station_id":"ce4bgh92rcd13ifvqb40","pricing_plan_id":"free"},{"bike_id":"b4c77eae-0e09-4a92-88fd-b5b7a2d271e1","system_id":"levelo_inurba_marseille","lat":43.293259,"lon":5.371586,"is_reserved":false,"is_disabled":false,"rental_uris":{"android":"levelo://app?vid=b4c77eae-0e09-4a92-88fd-b5b7a2d271e1","ios":"levelo://app?vid=b4c77eae-0e09-4a92-88fd-b5b7a2d271e1"},"vehicle_type_id":"4","last_reported":1703164179,"current_range_meters":24800,"station_id":"ce4bgh92rcd13ifvqb40","pricing_plan_id":"free"},{"bike_id":"9cdc2d81-9540-473b-814e-843973f830c4","system_id":"levelo_inurba_marseille","lat":43.292749,"lon":5.368402,"is_reserved":false,"is_disabled":false,"rental_uris":{"android":"levelo://app?vid=9cdc2d81-9540-473b-814e-843973f830c4","ios":"levelo://app?vid=9cdc2d81-9540-473b-814e-843973f830c4"},"vehicle_type_id":"4","last_reported":1703164179,"current_range_meters":19200,"station_id":"ce4bhbp2rcd13ifvqesg","pricing_plan_id":"free"},{"bike_id":"b0f25976-608a-4949-99f4-0d4d60db2f98","system_id":"levelo_inurba_marseille","lat":43.292749,"lon":5.368398,"is_reserved":false,"is_disabled":false,"rental_uris":{"android":"levelo://app?vid=b0f25976-608a-4949-99f4-0d4d60db2f98","ios":"levelo://app?vid=b0f25976-608a-4949-99f4-0d4d60db2f98"},"vehicle_type_id":"4","last_reported":1703164179,"current_range_meters":21200,"station_id":"ce4bhbp2rcd13ifvqesg","pricing_plan_id":"free"},{"bike_id":"65fc9901-b62d-43f6-835f-e1d4f6eefa8e","system_id":"levelo_inurba_marseille","lat":43.293259,"lon":5.371586,"is_reserved":false,"is_disabled":false,"rental_uris":{"android":"levelo://app?vid=65fc9901-b62d-43f6-835f-e1d4f6eefa8e","ios":"levelo://app?vid=65fc9901-b62d-43f6-835f-e1d4f6eefa8e"},"vehicle_type_id":"4","last_reported":1703164179,"current_range_meters":27200,"station_id":"ce4bgh92rcd13ifvqb40","pricing_plan_id":"free"},{"bike_id":"9f8fe673-18c7-4def-8ae7-6c96c2209d5e","system_id":"levelo_inurba_marseille","lat":43.29317,"lon":5.37468,"is_reserved":false,"is_disabled":false,"rental_uris":{"android":"levelo://app?vid=9f8fe673-18c7-4def-8ae7-6c96c2209d5e","ios":"levelo://app?vid=9f8fe673-18c7-4def-8ae7-6c96c2209d5e"},"vehicle_type_id":"4","last_reported":1703164179,"current_range_meters":28000,"station_id":"ce4bgi12rcd13ifvqb70","pricing_plan_id":"free"},{"bike_id":"9c4bba34-edc6-4b5d-bfb5-c6f6e399e95b","system_id":"levelo_inurba_marseille","lat":43.2936,"lon":5.37835,"is_reserved":false,"is_disabled":false,"rental_uris":{"android":"levelo://app?vid=9c4bba34-edc6-4b5d-bfb5-c6f6e399e95b","ios":"levelo://app?vid=9c4bba34-edc6-4b5d-bfb5-c6f6e399e95b"},"vehicle_type_id":"4","last_reported":1703164179,"current_range_meters":8400,"station_id":"ce4bgjh2rcd13ifvqbf0","pricing_plan_id":"free"},{"bike_id":"b80325ce-2a9b-42e0-ad72-779f107baf26","system_id":"levelo_inurba_marseille","lat":43.2936,"lon":5.37835,"is_reserved":false,"is_disabled":false,"rental_uris":{"android":"levelo://app?vid=b80325ce-2a9b-42e0-ad72-779f107baf26","ios":"levelo://app?vid=b80325ce-2a9b-42e0-ad72-779f107baf26"},"vehicle_type_id":"4","last_reported":1703164179,"current_range_meters":2400,"station_id":"ce4bgjh2rcd13ifvqbf0","pricing_plan_id":"free"},{"bike_id":"6a59a8d4-52dc-4030-b6df-5ff883015fc6","system_id":"levelo_inurba_marseille","lat":43.2936,"lon":5.37835,"is_reserved":false,"is_disabled":false,"rental_uris":{"android":"levelo://app?vid=6a59a8d4-52dc-4030-b6df-5ff883015fc6","ios":"levelo://app?vid=6a59a8d4-52dc-4030-b6df-5ff883015fc6"},"vehicle_type_id":"4","last_reported":1703164179,"current_range_meters":27600,"station_id":"ce4bgjh2rcd13ifvqbf0","pricing_plan_id":"free"},{"bike_id":"3e11a4f1-158c-4a91-8954-c21d0cc438fe","system_id":"levelo_inurba_marseille","lat":43.2936,"lon":5.37835,"is_reserved":false,"is_disabled":false,"rental_uris":{"android":"levelo://app?vid=3e11a4f1-158c-4a91-8954-c21d0cc438fe","ios":"levelo://app?vid=3e11a4f1-158c-4a91-8954-c21d0cc438fe"},"vehicle_type_id":"4","last_reported":1703164179,"current_range_meters":25200,"station_id":"ce4bgjh2rcd13ifvqbf0","pricing_plan_id":"free"},{"bike_id":"dcfcbb6d-c7e3-499f-8694-a46f7c2f8693","system_id":"levelo_inurba_marseille","lat":43.2936,"lon":5.37835,"is_reserved":false,"is_disabled":false,"rental_uris":{"android":"levelo://app?vid=dcfcbb6d-c7e3-499f-8694-a46f7c2f8693","ios":"levelo://app?vid=dcfcbb6d-c7e3-499f-8694-a46f7c2f8693"},"vehicle_type_id":"4","last_reported":1703164179,"current_range_meters":19200,"station_id":"ce4bgjh2rcd13ifvqbf0","pricing_plan_id":"free"},{"bike_id":"13d3718a-0b5e-447c-b07b-5b03836fc189","system_id":"levelo_inurba_marseille","lat":43.300852,"lon":5.390859,"is_reserved":false,"is_disabled":false,"rental_uris":{"android":"levelo://app?vid=13d3718a-0b5e-447c-b07b-5b03836fc189","ios":"levelo://app?vid=13d3718a-0b5e-447c-b07b-5b03836fc189"},"vehicle_type_id":"4","last_reported":1703164179,"current_range_meters":27200,"station_id":"ce4bh192rcd13ifvqdb0","pricing_plan_id":"free"},{"bike_id":"7cb44ba8-bc29-496a-ba8c-6433331e0950","system_id":"levelo_inurba_marseille","lat":43.292311,"lon":5.360731,"is_reserved":false,"is_disabled":false,"rental_uris":{"android":"levelo://app?vid=7cb44ba8-bc29-496a-ba8c-6433331e0950","ios":"levelo://app?vid=7cb44ba8-bc29-496a-ba8c-6433331e0950"},"vehicle_type_id":"4","last_reported":1703164179,"current_range_meters":10400,"station_id":"ce4bhbh2rcd13ifvqeqg","pricing_plan_id":"free"},{"bike_id":"8f283ee4-2860-4cfc-8540-18256481381e","system_id":"levelo_inurba_marseille","lat":43.291994,"lon":5.357886,"is_reserved":false,"is_disabled":false,"rental_uris":{"android":"levelo://app?vid=8f283ee4-2860-4cfc-8540-18256481381e","ios":"levelo://app?vid=8f283ee4-2860-4cfc-8540-18256481381e"},"vehicle_type_id":"4","last_reported":1703164179,"current_range_meters":0,"station_id":"ce4bhb12rcd13ifvqel0","pricing_plan_id":"free"},{"bike_id":"f245a8a3-e5e1-4f41-b6cd-c3578c6cfda6","system_id":"levelo_inurba_marseille","lat":43.313291,"lon":5.396838,"is_reserved":false,"is_disabled":false,"rental_uris":{"android":"levelo://app?vid=f245a8a3-e5e1-4f41-b6cd-c3578c6cfda6","ios":"levelo://app?vid=f245a8a3-e5e1-4f41-b6cd-c3578c6cfda6"},"vehicle_type_id":"4","last_reported":1703164179,"current_range_meters":13200,"station_id":"ce4bgvp2rcd13ifvqcu0","pricing_plan_id":"free"},{"bike_id":"96a7a828-b1c7-47af-80ff-a3f49cb59467","system_id":"levelo_inurba_marseille","lat":43.309047,"lon":5.396551,"is_reserved":false,"is_disabled":false,"rental_uris":{"android":"levelo://app?vid=96a7a828-b1c7-47af-80ff-a3f49cb59467","ios":"levelo://app?vid=96a7a828-b1c7-47af-80ff-a3f49cb59467"},"vehicle_type_id":"4","last_reported":1703164179,"current_range_meters":7200,"station_id":"ce4bh012rcd13ifvqcv0","pricing_plan_id":"free"},{"bike_id":"6a56f5e4-9640-4b51-ad82-69f976940172","system_id":"levelo_inurba_marseille","lat":43.29529,"lon":5.385581,"is_reserved":false,"is_disabled":false,"rental_uris":{"android":"levelo://app?vid=6a56f5e4-9640-4b51-ad82-69f976940172","ios":"levelo://app?vid=6a56f5e4-9640-4b51-ad82-69f976940172"},"vehicle_type_id":"4","last_reported":1703164179,"current_range_meters":16800,"station_id":"ce4bgih2rcd13ifvqba0","pricing_plan_id":"free"},{"bike_id":"b19edf88-ad7d-45b6-bf8c-6d63c9ec3559","system_id":"levelo_inurba_marseille","lat":43.29529,"lon":5.385581,"is_reserved":false,"is_disabled":false,"rental_uris":{"android":"levelo://app?vid=b19edf88-ad7d-45b6-bf8c-6d63c9ec3559","ios":"levelo://app?vid=b19edf88-ad7d-45b6-bf8c-6d63c9ec3559"},"vehicle_type_id":"4","last_reported":1703164179,"current_range_meters":3600,"station_id":"ce4bgih2rcd13ifvqba0","pricing_plan_id":"free"},{"bike_id":"6f7c4fec-5d79-4f8a-9f2a-41c240fa2b8f","system_id":"levelo_inurba_marseille","lat":43.290779,"lon":5.371482,"is_reserved":false,"is_disabled":false,"rental_uris":{"android":"levelo://app?vid=6f7c4fec-5d79-4f8a-9f2a-41c240fa2b8f","ios":"levelo://app?vid=6f7c4fec-5d79-4f8a-9f2a-41c240fa2b8f"},"vehicle_type_id":"4","last_reported":1703164179,"current_range_meters":16400,"station_id":"ce4bh5p2rcd13ifvqe4g","pricing_plan_id":"free"},{"bike_id":"ee96d512-9574-4f84-a43b-d66d527d1304","system_id":"levelo_inurba_marseille","lat":43.290779,"lon":5.371482,"is_reserved":false,"is_disabled":false,"rental_uris":{"android":"levelo://app?vid=ee96d512-9574-4f84-a43b-d66d527d1304","ios":"levelo://app?vid=ee96d512-9574-4f84-a43b-d66d527d1304"},"vehicle_type_id":"4","last_reported":1703164179,"current_range_meters":20000,"station_id":"ce4bh5p2rcd13ifvqe4g","pricing_plan_id":"free"},{"bike_id":"786367b5-9dc6-48b8-ab81-5706acc87a83","system_id":"levelo_inurba_marseille","lat":43.290779,"lon":5.371482,"is_reserved":false,"is_disabled":false,"rental_uris":{"android":"levelo://app?vid=786367b5-9dc6-48b8-ab81-5706acc87a83","ios":"levelo://app?vid=786367b5-9dc6-48b8-ab81-5706acc87a83"},"vehicle_type_id":"4","last_reported":1703164179,"current_range_meters":9200,"station_id":"ce4bh5p2rcd13ifvqe4g","pricing_plan_id":"free"},{"bike_id":"d4de18cd-4a37-4a10-85fa-98192ca786b6","system_id":"levelo_inurba_marseille","lat":43.302008,"lon":5.394694,"is_reserved":false,"is_disabled":false,"rental_uris":{"android":"levelo://app?vid=d4de18cd-4a37-4a10-85fa-98192ca786b6","ios":"levelo://app?vid=d4de18cd-4a37-4a10-85fa-98192ca786b6"},"vehicle_type_id":"4","last_reported":1703164179,"current_range_meters":6000,"station_id":"ce4bh0p2rcd13ifvqd70","pricing_plan_id":"free"},{"bike_id":"26d356d5-2535-4969-a64e-14f10d3460ba","system_id":"levelo_inurba_marseille","lat":43.290624,"lon":5.359245,"is_reserved":false,"is_disabled":false,"rental_uris":{"android":"levelo://app?vid=26d356d5-2535-4969-a64e-14f10d3460ba","ios":"levelo://app?vid=26d356d5-2535-4969-a64e-14f10d3460ba"},"vehicle_type_id":"4","last_reported":1703164179,"current_range_meters":10800,"station_id":"ce4bha92rcd13ifvqeg0","pricing_plan_id":"free"},{"bike_id":"2e88d8bb-dec4-4446-b6f9-19c61fb204a3","system_id":"levelo_inurba_marseille","lat":43.302008,"lon":5.394694,"is_reserved":false,"is_disabled":false,"rental_uris":{"android":"levelo://app?vid=2e88d8bb-dec4-4446-b6f9-19c61fb204a3","ios":"levelo://app?vid=2e88d8bb-dec4-4446-b6f9-19c61fb204a3"},"vehicle_type_id":"4","last_reported":1703164179,"current_range_meters":26400,"station_id":"ce4bh0p2rcd13ifvqd70","pricing_plan_id":"free"},{"bike_id":"a1225178-708d-4224-96ba-82ea4d67832d","system_id":"levelo_inurba_marseille","lat":43.289468,"lon":5.363719,"is_reserved":false,"is_disabled":false,"rental_uris":{"android":"levelo://app?vid=a1225178-708d-4224-96ba-82ea4d67832d","ios":"levelo://app?vid=a1225178-708d-4224-96ba-82ea4d67832d"},"vehicle_type_id":"4","last_reported":1703164179,"current_range_meters":27200,"station_id":"ce4bhc92rcd13ifvqetg","pricing_plan_id":"free"},{"bike_id":"32fac7d4-89e5-43d2-8d29-3abe8689111d","system_id":"levelo_inurba_marseille","lat":43.290327,"lon":5.375711,"is_reserved":false,"is_disabled":false,"rental_uris":{"android":"levelo://app?vid=32fac7d4-89e5-43d2-8d29-3abe8689111d","ios":"levelo://app?vid=32fac7d4-89e5-43d2-8d29-3abe8689111d"},"vehicle_type_id":"4","last_reported":1703164179,"current_range_meters":20000,"station_id":"ce4bh692rcd13ifvqe90","pricing_plan_id":"free"},{"bike_id":"f6bcd2ef-d6b0-406d-b04d-ab847b8af403","system_id":"levelo_inurba_marseille","lat":43.294162,"lon":5.386292,"is_reserved":false,"is_disabled":false,"rental_uris":{"android":"levelo://app?vid=f6bcd2ef-d6b0-406d-b04d-ab847b8af403","ios":"levelo://app?vid=f6bcd2ef-d6b0-406d-b04d-ab847b8af403"},"vehicle_type_id":"4","last_reported":1703164179,"current_range_meters":2800,"station_id":"ce4bh2h2rcd13ifvqdh0","pricing_plan_id":"free"},{"bike_id":"fba14ede-6e49-4239-a57d-80e2845a3f5b","system_id":"levelo_inurba_marseille","lat":43.294153,"lon":5.386305,"is_reserved":false,"is_disabled":false,"rental_uris":{"android":"levelo://app?vid=fba14ede-6e49-4239-a57d-80e2845a3f5b","ios":"levelo://app?vid=fba14ede-6e49-4239-a57d-80e2845a3f5b"},"vehicle_type_id":"4","last_reported":1703164179,"current_range_meters":24400,"station_id":"ce4bh2h2rcd13ifvqdh0","pricing_plan_id":"free"},{"bike_id":"bab124a5-dd64-4a45-8f9e-d32bc612f232","system_id":"levelo_inurba_marseille","lat":43.294162,"lon":5.386292,"is_reserved":false,"is_disabled":false,"rental_uris":{"android":"levelo://app?vid=bab124a5-dd64-4a45-8f9e-d32bc612f232","ios":"levelo://app?vid=bab124a5-dd64-4a45-8f9e-d32bc612f232"},"vehicle_type_id":"4","last_reported":1703164179,"current_range_meters":0,"station_id":"ce4bh2h2rcd13ifvqdh0","pricing_plan_id":"free"},{"bike_id":"3cce40c3-7768-4ba7-b278-2affa3271211","system_id":"levelo_inurba_marseille","lat":43.289184,"lon":5.366408,"is_reserved":false,"is_disabled":false,"rental_uris":{"android":"levelo://app?vid=3cce40c3-7768-4ba7-b278-2affa3271211","ios":"levelo://app?vid=3cce40c3-7768-4ba7-b278-2affa3271211"},"vehicle_type_id":"4","last_reported":1703164179,"current_range_meters":19600,"station_id":"ce4bhap2rcd13ifvqek0","pricing_plan_id":"free"},{"bike_id":"562ebffe-1f44-4a6d-b788-305122d274b6","system_id":"levelo_inurba_marseille","lat":43.28939,"lon":5.36642,"is_reserved":false,"is_disabled":false,"rental_uris":{"android":"levelo://app?vid=562ebffe-1f44-4a6d-b788-305122d274b6","ios":"levelo://app?vid=562ebffe-1f44-4a6d-b788-305122d274b6"},"vehicle_type_id":"4","last_reported":1703164179,"current_range_meters":19200,"station_id":"ce4bhap2rcd13ifvqek0","pricing_plan_id":"free"},{"bike_id":"1e1b683d-03a8-4de0-a6c8-e70c74e3138e","system_id":"levelo_inurba_marseille","lat":43.289184,"lon":5.366408,"is_reserved":false,"is_disabled":false,"rental_uris":{"android":"levelo://app?vid=1e1b683d-03a8-4de0-a6c8-e70c74e3138e","ios":"levelo://app?vid=1e1b683d-03a8-4de0-a6c8-e70c74e3138e"},"vehicle_type_id":"4","last_reported":1703164179,"current_range_meters":12000,"station_id":"ce4bhap2rcd13ifvqek0","pricing_plan_id":"free"},{"bike_id":"ecbf95c8-04fb-4350-b913-76d490bd4936","system_id":"levelo_inurba_marseille","lat":43.289468,"lon":5.363719,"is_reserved":false,"is_disabled":false,"rental_uris":{"android":"levelo://app?vid=ecbf95c8-04fb-4350-b913-76d490bd4936","ios":"levelo://app?vid=ecbf95c8-04fb-4350-b913-76d490bd4936"},"vehicle_type_id":"4","last_reported":1703164179,"current_range_meters":26000,"station_id":"ce4bhc92rcd13ifvqetg","pricing_plan_id":"free"},{"bike_id":"2f18d998-8588-47b0-ad59-3ce29d8d3e39","system_id":"levelo_inurba_marseille","lat":43.294162,"lon":5.386292,"is_reserved":false,"is_disabled":false,"rental_uris":{"android":"levelo://app?vid=2f18d998-8588-47b0-ad59-3ce29d8d3e39","ios":"levelo://app?vid=2f18d998-8588-47b0-ad59-3ce29d8d3e39"},"vehicle_type_id":"4","last_reported":1703164179,"current_range_meters":9600,"station_id":"ce4bh2h2rcd13ifvqdh0","pricing_plan_id":"free"},{"bike_id":"83efca68-5ce6-4422-94ca-75c4ec7e9919","system_id":"levelo_inurba_marseille","lat":43.289468,"lon":5.363719,"is_reserved":false,"is_disabled":false,"rental_uris":{"android":"levelo://app?vid=83efca68-5ce6-4422-94ca-75c4ec7e9919","ios":"levelo://app?vid=83efca68-5ce6-4422-94ca-75c4ec7e9919"},"vehicle_type_id":"4","last_reported":1703164179,"current_range_meters":16000,"station_id":"ce4bhc92rcd13ifvqetg","pricing_plan_id":"free"},{"bike_id":"a5c22097-e79d-46b6-a96d-de58aa5c5343","system_id":"levelo_inurba_marseille","lat":43.289468,"lon":5.363719,"is_reserved":false,"is_disabled":false,"rental_uris":{"android":"levelo://app?vid=a5c22097-e79d-46b6-a96d-de58aa5c5343","ios":"levelo://app?vid=a5c22097-e79d-46b6-a96d-de58aa5c5343"},"vehicle_type_id":"4","last_reported":1703164179,"current_range_meters":12800,"station_id":"ce4bhc92rcd13ifvqetg","pricing_plan_id":"free"},{"bike_id":"65d3b825-555e-49eb-8455-90bdf2439a31","system_id":"levelo_inurba_marseille","lat":43.289184,"lon":5.366408,"is_reserved":false,"is_disabled":false,"rental_uris":{"android":"levelo://app?vid=65d3b825-555e-49eb-8455-90bdf2439a31","ios":"levelo://app?vid=65d3b825-555e-49eb-8455-90bdf2439a31"},"vehicle_type_id":"4","last_reported":1703164179,"current_range_meters":20400,"station_id":"ce4bhap2rcd13ifvqek0","pricing_plan_id":"free"},{"bike_id":"b7fc016e-e0c0-44ad-b2c8-05a8ffba96b4","system_id":"levelo_inurba_marseille","lat":43.292642,"lon":5.384254,"is_reserved":false,"is_disabled":false,"rental_uris":{"android":"levelo://app?vid=b7fc016e-e0c0-44ad-b2c8-05a8ffba96b4","ios":"levelo://app?vid=b7fc016e-e0c0-44ad-b2c8-05a8ffba96b4"},"vehicle_type_id":"4","last_reported":1703164179,"current_range_meters":23600,"station_id":"ce4bh692rcd13ifvqea0","pricing_plan_id":"free"},{"bike_id":"df3c4dd8-5735-4190-a7d2-5cd6b0635c6f","system_id":"levelo_inurba_marseille","lat":43.304296,"lon":5.397513,"is_reserved":false,"is_disabled":false,"rental_uris":{"android":"levelo://app?vid=df3c4dd8-5735-4190-a7d2-5cd6b0635c6f","ios":"levelo://app?vid=df3c4dd8-5735-4190-a7d2-5cd6b0635c6f"},"vehicle_type_id":"4","last_reported":1703164179,"current_range_meters":26800,"station_id":"ce4bh092rcd13ifvqd20","pricing_plan_id":"free"},{"bike_id":"48f73dbd-1341-4328-ba77-c0f4f53d08bc","system_id":"levelo_inurba_marseille","lat":43.292644,"lon":5.384257,"is_reserved":false,"is_disabled":false,"rental_uris":{"android":"levelo://app?vid=48f73dbd-1341-4328-ba77-c0f4f53d08bc","ios":"levelo://app?vid=48f73dbd-1341-4328-ba77-c0f4f53d08bc"},"vehicle_type_id":"4","last_reported":1703164179,"current_range_meters":2400,"station_id":"ce4bh692rcd13ifvqea0","pricing_plan_id":"free"},{"bike_id":"a8b13f71-4cea-46ae-ac33-55774b476f24","system_id":"levelo_inurba_marseille","lat":43.28923,"lon":5.36164,"is_reserved":false,"is_disabled":false,"rental_uris":{"android":"levelo://app?vid=a8b13f71-4cea-46ae-ac33-55774b476f24","ios":"levelo://app?vid=a8b13f71-4cea-46ae-ac33-55774b476f24"},"vehicle_type_id":"4","last_reported":1703164179,"current_range_meters":19600,"station_id":"","pricing_plan_id":"free"},{"bike_id":"918cfe44-6887-4bcb-84e8-6b9f71abc617","system_id":"levelo_inurba_marseille","lat":43.330442,"lon":5.389148,"is_reserved":false,"is_disabled":false,"rental_uris":{"android":"levelo://app?vid=918cfe44-6887-4bcb-84e8-6b9f71abc617","ios":"levelo://app?vid=918cfe44-6887-4bcb-84e8-6b9f71abc617"},"vehicle_type_id":"4","last_reported":1703164179,"current_range_meters":8000,"station_id":"ce4bhr92rcd13ifvqhrg","pricing_plan_id":"free"},{"bike_id":"5961899a-c90d-4b53-9920-bac82dc04d3a","system_id":"levelo_inurba_marseille","lat":43.290104,"lon":5.356111,"is_reserved":false,"is_disabled":false,"rental_uris":{"android":"levelo://app?vid=5961899a-c90d-4b53-9920-bac82dc04d3a","ios":"levelo://app?vid=5961899a-c90d-4b53-9920-bac82dc04d3a"},"vehicle_type_id":"4","last_reported":1703164179,"current_range_meters":18800,"station_id":"ce4bhb92rcd13ifvqen0","pricing_plan_id":"free"},{"bike_id":"d26cb1dd-e127-411a-9f9c-7182dd7e6e7e","system_id":"levelo_inurba_marseille","lat":43.290104,"lon":5.356111,"is_reserved":false,"is_disabled":false,"rental_uris":{"android":"levelo://app?vid=d26cb1dd-e127-411a-9f9c-7182dd7e6e7e","ios":"levelo://app?vid=d26cb1dd-e127-411a-9f9c-7182dd7e6e7e"},"vehicle_type_id":"4","last_reported":1703164179,"current_range_meters":28000,"station_id":"ce4bhb92rcd13ifvqen0","pricing_plan_id":"free"},{"bike_id":"3f4fb145-f029-48fc-9e98-99a075923b07","system_id":"levelo_inurba_marseille","lat":43.290103,"lon":5.356114,"is_reserved":false,"is_disabled":false,"rental_uris":{"android":"levelo://app?vid=3f4fb145-f029-48fc-9e98-99a075923b07","ios":"levelo://app?vid=3f4fb145-f029-48fc-9e98-99a075923b07"},"vehicle_type_id":"4","last_reported":1703164179,"current_range_meters":30000,"station_id":"ce4bhb92rcd13ifvqen0","pricing_plan_id":"free"},{"bike_id":"b02fa10d-af5d-41b9-a8a8-63264c764cf5","system_id":"levelo_inurba_marseille","lat":43.289741,"lon":5.378306,"is_reserved":false,"is_disabled":false,"rental_uris":{"android":"levelo://app?vid=b02fa10d-af5d-41b9-a8a8-63264c764cf5","ios":"levelo://app?vid=b02fa10d-af5d-41b9-a8a8-63264c764cf5"},"vehicle_type_id":"4","last_reported":1703164179,"current_range_meters":15200,"station_id":"ce4bh9p2rcd13ifvqed0","pricing_plan_id":"free"},{"bike_id":"f0777a53-8cdd-4f30-991d-ef15116cdf42","system_id":"levelo_inurba_marseille","lat":43.29775,"lon":5.39339,"is_reserved":false,"is_disabled":false,"rental_uris":{"android":"levelo://app?vid=f0777a53-8cdd-4f30-991d-ef15116cdf42","ios":"levelo://app?vid=f0777a53-8cdd-4f30-991d-ef15116cdf42"},"vehicle_type_id":"4","last_reported":1703164179,"current_range_meters":10400,"station_id":"chh1huq6cuj3fo74tm60","pricing_plan_id":"free"},{"bike_id":"e05ac4f7-2fe8-441e-9cee-99ae0a5ac2eb","system_id":"levelo_inurba_marseille","lat":43.289741,"lon":5.378306,"is_reserved":false,"is_disabled":false,"rental_uris":{"android":"levelo://app?vid=e05ac4f7-2fe8-441e-9cee-99ae0a5ac2eb","ios":"levelo://app?vid=e05ac4f7-2fe8-441e-9cee-99ae0a5ac2eb"},"vehicle_type_id":"4","last_reported":1703164179,"current_range_meters":7600,"station_id":"ce4bh9p2rcd13ifvqed0","pricing_plan_id":"free"},{"bike_id":"cf64b4fa-d9d3-4b24-9a22-dd29895def99","system_id":"levelo_inurba_marseille","lat":43.28856,"lon":5.358371,"is_reserved":false,"is_disabled":false,"rental_uris":{"android":"levelo://app?vid=cf64b4fa-d9d3-4b24-9a22-dd29895def99","ios":"levelo://app?vid=cf64b4fa-d9d3-4b24-9a22-dd29895def99"},"vehicle_type_id":"4","last_reported":1703164179,"current_range_meters":0,"station_id":"ce4bhb12rcd13ifvqem0","pricing_plan_id":"free"},{"bike_id":"c0af256a-8861-4b80-8c14-611a32714652","system_id":"levelo_inurba_marseille","lat":43.290094,"lon":5.381264,"is_reserved":false,"is_disabled":false,"rental_uris":{"android":"levelo://app?vid=c0af256a-8861-4b80-8c14-611a32714652","ios":"levelo://app?vid=c0af256a-8861-4b80-8c14-611a32714652"},"vehicle_type_id":"4","last_reported":1703164179,"current_range_meters":20400,"station_id":"ce4bh4p2rcd13ifvqe1g","pricing_plan_id":"free"},{"bike_id":"1d1aafe3-40ce-4e3a-8053-8ddb1e5f4cd0","system_id":"levelo_inurba_marseille","lat":43.28856,"lon":5.358371,"is_reserved":false,"is_disabled":false,"rental_uris":{"android":"levelo://app?vid=1d1aafe3-40ce-4e3a-8053-8ddb1e5f4cd0","ios":"levelo://app?vid=1d1aafe3-40ce-4e3a-8053-8ddb1e5f4cd0"},"vehicle_type_id":"4","last_reported":1703164179,"current_range_meters":14800,"station_id":"ce4bhb12rcd13ifvqem0","pricing_plan_id":"free"},{"bike_id":"fdd7f490-de60-4a2a-901f-16c82262eed9","system_id":"levelo_inurba_marseille","lat":43.28856,"lon":5.358371,"is_reserved":false,"is_disabled":false,"rental_uris":{"android":"levelo://app?vid=fdd7f490-de60-4a2a-901f-16c82262eed9","ios":"levelo://app?vid=fdd7f490-de60-4a2a-901f-16c82262eed9"},"vehicle_type_id":"4","last_reported":1703164179,"current_range_meters":12400,"station_id":"ce4bhb12rcd13ifvqem0","pricing_plan_id":"free"},{"bike_id":"c8b85199-dabf-421f-9a19-2ebde103b63c","system_id":"levelo_inurba_marseille","lat":43.28856,"lon":5.358371,"is_reserved":false,"is_disabled":false,"rental_uris":{"android":"levelo://app?vid=c8b85199-dabf-421f-9a19-2ebde103b63c","ios":"levelo://app?vid=c8b85199-dabf-421f-9a19-2ebde103b63c"},"vehicle_type_id":"4","last_reported":1703164179,"current_range_meters":22800,"station_id":"ce4bhb12rcd13ifvqem0","pricing_plan_id":"free"},{"bike_id":"6bf830c5-a8f6-4cfc-a90e-3c68aaedb3ca","system_id":"levelo_inurba_marseille","lat":43.28856,"lon":5.358371,"is_reserved":false,"is_disabled":false,"rental_uris":{"android":"levelo://app?vid=6bf830c5-a8f6-4cfc-a90e-3c68aaedb3ca","ios":"levelo://app?vid=6bf830c5-a8f6-4cfc-a90e-3c68aaedb3ca"},"vehicle_type_id":"4","last_reported":1703164179,"current_range_meters":8400,"station_id":"ce4bhb12rcd13ifvqem0","pricing_plan_id":"free"},{"bike_id":"cd70171d-ec98-4233-a1e2-c525be36acbf","system_id":"levelo_inurba_marseille","lat":43.28856,"lon":5.358371,"is_reserved":false,"is_disabled":false,"rental_uris":{"android":"levelo://app?vid=cd70171d-ec98-4233-a1e2-c525be36acbf","ios":"levelo://app?vid=cd70171d-ec98-4233-a1e2-c525be36acbf"},"vehicle_type_id":"4","last_reported":1703164179,"current_range_meters":13600,"station_id":"ce4bhb12rcd13ifvqem0","pricing_plan_id":"free"},{"bike_id":"bf632abc-e345-49d6-8308-821424c759d8","system_id":"levelo_inurba_marseille","lat":43.28856,"lon":5.358371,"is_reserved":false,"is_disabled":false,"rental_uris":{"android":"levelo://app?vid=bf632abc-e345-49d6-8308-821424c759d8","ios":"levelo://app?vid=bf632abc-e345-49d6-8308-821424c759d8"},"vehicle_type_id":"4","last_reported":1703164179,"current_range_meters":6800,"station_id":"ce4bhb12rcd13ifvqem0","pricing_plan_id":"free"},{"bike_id":"a3dcd3ae-94fe-4858-8289-9607b0a21047","system_id":"levelo_inurba_marseille","lat":43.33741,"lon":5.374355,"is_reserved":false,"is_disabled":false,"rental_uris":{"android":"levelo://app?vid=a3dcd3ae-94fe-4858-8289-9607b0a21047","ios":"levelo://app?vid=a3dcd3ae-94fe-4858-8289-9607b0a21047"},"vehicle_type_id":"4","last_reported":1703164179,"current_range_meters":25600,"station_id":"","pricing_plan_id":"free"},{"bike_id":"ddc9d1bd-e735-41d7-a0e7-236d2294aa17","system_id":"levelo_inurba_marseille","lat":43.312609,"lon":5.401662,"is_reserved":false,"is_disabled":false,"rental_uris":{"android":"levelo://app?vid=ddc9d1bd-e735-41d7-a0e7-236d2294aa17","ios":"levelo://app?vid=ddc9d1bd-e735-41d7-a0e7-236d2294aa17"},"vehicle_type_id":"4","last_reported":1703164179,"current_range_meters":17200,"station_id":"ce4bh092rcd13ifvqd30","pricing_plan_id":"free"},{"bike_id":"63eed96a-4780-4031-928c-16b60c97299a","system_id":"levelo_inurba_marseille","lat":43.309371,"lon":5.401449,"is_reserved":false,"is_disabled":false,"rental_uris":{"android":"levelo://app?vid=63eed96a-4780-4031-928c-16b60c97299a","ios":"levelo://app?vid=63eed96a-4780-4031-928c-16b60c97299a"},"vehicle_type_id":"4","last_reported":1703164179,"current_range_meters":11200,"station_id":"ce4bgvp2rcd13ifvqct0","pricing_plan_id":"free"},{"bike_id":"88b93662-7666-40db-8f91-c83754121d78","system_id":"levelo_inurba_marseille","lat":43.28727,"lon":5.36078,"is_reserved":false,"is_disabled":false,"rental_uris":{"android":"levelo://app?vid=88b93662-7666-40db-8f91-c83754121d78","ios":"levelo://app?vid=88b93662-7666-40db-8f91-c83754121d78"},"vehicle_type_id":"4","last_reported":1703164179,"current_range_meters":25600,"station_id":"cki0cbj6b192h4jlfktg","pricing_plan_id":"free"},{"bike_id":"5cd5a5ce-f07c-4e42-8c06-b2d9bae09821","system_id":"levelo_inurba_marseille","lat":43.28727,"lon":5.36078,"is_reserved":false,"is_disabled":false,"rental_uris":{"android":"levelo://app?vid=5cd5a5ce-f07c-4e42-8c06-b2d9bae09821","ios":"levelo://app?vid=5cd5a5ce-f07c-4e42-8c06-b2d9bae09821"},"vehicle_type_id":"4","last_reported":1703164179,"current_range_meters":24800,"station_id":"cki0cbj6b192h4jlfktg","pricing_plan_id":"free"},{"bike_id":"1d910800-0e36-4c91-a85e-2a2535317800","system_id":"levelo_inurba_marseille","lat":43.298681,"lon":5.397225,"is_reserved":false,"is_disabled":false,"rental_uris":{"android":"levelo://app?vid=1d910800-0e36-4c91-a85e-2a2535317800","ios":"levelo://app?vid=1d910800-0e36-4c91-a85e-2a2535317800"},"vehicle_type_id":"4","last_reported":1703164179,"current_range_meters":0,"station_id":"ce4bh0h2rcd13ifvqd50","pricing_plan_id":"free"},{"bike_id":"2bb3393a-bbea-420f-b018-224aeec2ee2e","system_id":"levelo_inurba_marseille","lat":43.289307,"lon":5.38406,"is_reserved":false,"is_disabled":false,"rental_uris":{"android":"levelo://app?vid=2bb3393a-bbea-420f-b018-224aeec2ee2e","ios":"levelo://app?vid=2bb3393a-bbea-420f-b018-224aeec2ee2e"},"vehicle_type_id":"4","last_reported":1703164179,"current_range_meters":16400,"station_id":"ce4bh612rcd13ifvqe6g","pricing_plan_id":"free"},{"bike_id":"1c9be19a-a11e-441c-9d22-0e4c22c149f3","system_id":"levelo_inurba_marseille","lat":43.289307,"lon":5.38406,"is_reserved":false,"is_disabled":false,"rental_uris":{"android":"levelo://app?vid=1c9be19a-a11e-441c-9d22-0e4c22c149f3","ios":"levelo://app?vid=1c9be19a-a11e-441c-9d22-0e4c22c149f3"},"vehicle_type_id":"4","last_reported":1703164179,"current_range_meters":16000,"station_id":"ce4bh612rcd13ifvqe6g","pricing_plan_id":"free"},{"bike_id":"97cdd1a4-ce85-4707-b2e2-54a2fab6a6ba","system_id":"levelo_inurba_marseille","lat":43.280784,"lon":5.396622,"is_reserved":false,"is_disabled":false,"rental_uris":{"android":"levelo://app?vid=97cdd1a4-ce85-4707-b2e2-54a2fab6a6ba","ios":"levelo://app?vid=97cdd1a4-ce85-4707-b2e2-54a2fab6a6ba"},"vehicle_type_id":"4","last_reported":1703164179,"current_range_meters":19200,"station_id":"ce4bho12rcd13ifvqh2g","pricing_plan_id":"free"},{"bike_id":"8f64d522-7a38-45fb-b6e6-5b4d6337952b","system_id":"levelo_inurba_marseille","lat":43.29032,"lon":5.3865,"is_reserved":false,"is_disabled":false,"rental_uris":{"android":"levelo://app?vid=8f64d522-7a38-45fb-b6e6-5b4d6337952b","ios":"levelo://app?vid=8f64d522-7a38-45fb-b6e6-5b4d6337952b"},"vehicle_type_id":"4","last_reported":1703164179,"current_range_meters":0,"station_id":"","pricing_plan_id":"free"},{"bike_id":"bfa3ff01-21dd-42ea-af40-0a9df538cb29","system_id":"levelo_inurba_marseille","lat":43.302759,"lon":5.400793,"is_reserved":false,"is_disabled":false,"rental_uris":{"android":"levelo://app?vid=bfa3ff01-21dd-42ea-af40-0a9df538cb29","ios":"levelo://app?vid=bfa3ff01-21dd-42ea-af40-0a9df538cb29"},"vehicle_type_id":"4","last_reported":1703164179,"current_range_meters":26400,"station_id":"ce4bgvh2rcd13ifvqcs0","pricing_plan_id":"free"},{"bike_id":"91cf0d87-4a77-4293-b1fb-b06e2fd29a2f","system_id":"levelo_inurba_marseille","lat":43.302759,"lon":5.400793,"is_reserved":false,"is_disabled":false,"rental_uris":{"android":"levelo://app?vid=91cf0d87-4a77-4293-b1fb-b06e2fd29a2f","ios":"levelo://app?vid=91cf0d87-4a77-4293-b1fb-b06e2fd29a2f"},"vehicle_type_id":"4","last_reported":1703164179,"current_range_meters":26800,"station_id":"ce4bgvh2rcd13ifvqcs0","pricing_plan_id":"free"},{"bike_id":"beb76dd0-3bf0-4829-affc-829759f5ad07","system_id":"levelo_inurba_marseille","lat":43.286039,"lon":5.370679,"is_reserved":false,"is_disabled":false,"rental_uris":{"android":"levelo://app?vid=beb76dd0-3bf0-4829-affc-829759f5ad07","ios":"levelo://app?vid=beb76dd0-3bf0-4829-affc-829759f5ad07"},"vehicle_type_id":"4","last_reported":1703164179,"current_range_meters":30400,"station_id":"ce4bht12rcd13ifvqi60","pricing_plan_id":"free"},{"bike_id":"983ef4bd-15ac-4651-8cde-3bd14abec0b1","system_id":"levelo_inurba_marseille","lat":43.28608,"lon":5.37065,"is_reserved":false,"is_disabled":false,"rental_uris":{"android":"levelo://app?vid=983ef4bd-15ac-4651-8cde-3bd14abec0b1","ios":"levelo://app?vid=983ef4bd-15ac-4651-8cde-3bd14abec0b1"},"vehicle_type_id":"4","last_reported":1703164179,"current_range_meters":1200,"station_id":"ce4bht12rcd13ifvqi60","pricing_plan_id":"free"},{"bike_id":"15b78ea3-4994-4591-bc7d-f370baa7a70f","system_id":"levelo_inurba_marseille","lat":43.29122,"lon":5.39059,"is_reserved":false,"is_disabled":false,"rental_uris":{"android":"levelo://app?vid=15b78ea3-4994-4591-bc7d-f370baa7a70f","ios":"levelo://app?vid=15b78ea3-4994-4591-bc7d-f370baa7a70f"},"vehicle_type_id":"4","last_reported":1703164179,"current_range_meters":25200,"station_id":"","pricing_plan_id":"free"},{"bike_id":"478375b6-629d-460a-85a0-b4cd38b50748","system_id":"levelo_inurba_marseille","lat":43.28616,"lon":5.351,"is_reserved":false,"is_disabled":false,"rental_uris":{"android":"levelo://app?vid=478375b6-629d-460a-85a0-b4cd38b50748","ios":"levelo://app?vid=478375b6-629d-460a-85a0-b4cd38b50748"},"vehicle_type_id":"4","last_reported":1703164179,"current_range_meters":22400,"station_id":"ce4bhch2rcd13ifvqeug","pricing_plan_id":"free"},{"bike_id":"23f1c0ca-6a2a-40bf-9750-46ae705a5358","system_id":"levelo_inurba_marseille","lat":43.28609,"lon":5.35101,"is_reserved":false,"is_disabled":false,"rental_uris":{"android":"levelo://app?vid=23f1c0ca-6a2a-40bf-9750-46ae705a5358","ios":"levelo://app?vid=23f1c0ca-6a2a-40bf-9750-46ae705a5358"},"vehicle_type_id":"4","last_reported":1703164179,"current_range_meters":19200,"station_id":"ce4bhch2rcd13ifvqeug","pricing_plan_id":"free"},{"bike_id":"8538e6dd-dbef-4a5a-a119-9a857fd021ad","system_id":"levelo_inurba_marseille","lat":43.33218,"lon":5.397067,"is_reserved":false,"is_disabled":false,"rental_uris":{"android":"levelo://app?vid=8538e6dd-dbef-4a5a-a119-9a857fd021ad","ios":"levelo://app?vid=8538e6dd-dbef-4a5a-a119-9a857fd021ad"},"vehicle_type_id":"4","last_reported":1703164179,"current_range_meters":0,"station_id":"","pricing_plan_id":"free"},{"bike_id":"16b7deb5-ce74-4a42-8cce-234ee7430794","system_id":"levelo_inurba_marseille","lat":43.28402,"lon":5.37519,"is_reserved":false,"is_disabled":false,"rental_uris":{"android":"levelo://app?vid=16b7deb5-ce74-4a42-8cce-234ee7430794","ios":"levelo://app?vid=16b7deb5-ce74-4a42-8cce-234ee7430794"},"vehicle_type_id":"4","last_reported":1703164179,"current_range_meters":16000,"station_id":"ce4bh412rcd13ifvqds0","pricing_plan_id":"free"},{"bike_id":"2dcb2c56-bf2a-4628-bdca-7b10def68a91","system_id":"levelo_inurba_marseille","lat":43.28399,"lon":5.37525,"is_reserved":false,"is_disabled":false,"rental_uris":{"android":"levelo://app?vid=2dcb2c56-bf2a-4628-bdca-7b10def68a91","ios":"levelo://app?vid=2dcb2c56-bf2a-4628-bdca-7b10def68a91"},"vehicle_type_id":"4","last_reported":1703164179,"current_range_meters":7200,"station_id":"ce4bh412rcd13ifvqds0","pricing_plan_id":"free"},{"bike_id":"fb995b6f-6b4e-459a-b86e-30d31cd51ab3","system_id":"levelo_inurba_marseille","lat":43.286595,"lon":5.386795,"is_reserved":false,"is_disabled":false,"rental_uris":{"android":"levelo://app?vid=fb995b6f-6b4e-459a-b86e-30d31cd51ab3","ios":"levelo://app?vid=fb995b6f-6b4e-459a-b86e-30d31cd51ab3"},"vehicle_type_id":"4","last_reported":1703164179,"current_range_meters":11200,"station_id":"ce4bh492rcd13ifvqdug","pricing_plan_id":"free"},{"bike_id":"c773ddbd-d5dd-49b9-b858-e92b72a13e54","system_id":"levelo_inurba_marseille","lat":43.319179,"lon":5.407725,"is_reserved":false,"is_disabled":false,"rental_uris":{"android":"levelo://app?vid=c773ddbd-d5dd-49b9-b858-e92b72a13e54","ios":"levelo://app?vid=c773ddbd-d5dd-49b9-b858-e92b72a13e54"},"vehicle_type_id":"4","last_reported":1703164179,"current_range_meters":19600,"station_id":"ce4bhq12rcd13ifvqhig","pricing_plan_id":"free"},{"bike_id":"40eae74c-fb79-47ec-9afc-de5176b3ee2d","system_id":"levelo_inurba_marseille","lat":43.319179,"lon":5.407725,"is_reserved":false,"is_disabled":false,"rental_uris":{"android":"levelo://app?vid=40eae74c-fb79-47ec-9afc-de5176b3ee2d","ios":"levelo://app?vid=40eae74c-fb79-47ec-9afc-de5176b3ee2d"},"vehicle_type_id":"4","last_reported":1703164179,"current_range_meters":12800,"station_id":"ce4bhq12rcd13ifvqhig","pricing_plan_id":"free"},{"bike_id":"a4bd4468-e48f-4b19-a1a4-c86f81bd715d","system_id":"levelo_inurba_marseille","lat":43.288501,"lon":5.393087,"is_reserved":false,"is_disabled":false,"rental_uris":{"android":"levelo://app?vid=a4bd4468-e48f-4b19-a1a4-c86f81bd715d","ios":"levelo://app?vid=a4bd4468-e48f-4b19-a1a4-c86f81bd715d"},"vehicle_type_id":"4","last_reported":1703164179,"current_range_meters":20400,"station_id":"ce4bh2p2rcd13ifvqdi0","pricing_plan_id":"free"},{"bike_id":"c79a1781-0923-4fd2-a2d8-56155ba9ed4b","system_id":"levelo_inurba_marseille","lat":43.283494,"lon":5.380945,"is_reserved":false,"is_disabled":false,"rental_uris":{"android":"levelo://app?vid=c79a1781-0923-4fd2-a2d8-56155ba9ed4b","ios":"levelo://app?vid=c79a1781-0923-4fd2-a2d8-56155ba9ed4b"},"vehicle_type_id":"4","last_reported":1703164179,"current_range_meters":17600,"station_id":"ce4bh412rcd13ifvqdr0","pricing_plan_id":"free"},{"bike_id":"0195dd35-f1e4-4010-8045-5963cf0184a3","system_id":"levelo_inurba_marseille","lat":43.283498,"lon":5.380948,"is_reserved":false,"is_disabled":false,"rental_uris":{"android":"levelo://app?vid=0195dd35-f1e4-4010-8045-5963cf0184a3","ios":"levelo://app?vid=0195dd35-f1e4-4010-8045-5963cf0184a3"},"vehicle_type_id":"4","last_reported":1703164179,"current_range_meters":6000,"station_id":"ce4bh412rcd13ifvqdr0","pricing_plan_id":"free"},{"bike_id":"25acf729-0c15-45f0-8053-2c35b0919b50","system_id":"levelo_inurba_marseille","lat":43.284219,"lon":5.3497,"is_reserved":false,"is_disabled":false,"rental_uris":{"android":"levelo://app?vid=25acf729-0c15-45f0-8053-2c35b0919b50","ios":"levelo://app?vid=25acf729-0c15-45f0-8053-2c35b0919b50"},"vehicle_type_id":"4","last_reported":1703164179,"current_range_meters":31200,"station_id":"ce4bhbh2rcd13ifvqepg","pricing_plan_id":"free"},{"bike_id":"d0d30fde-c8ad-40e2-b14e-380b8f6e2410","system_id":"levelo_inurba_marseille","lat":43.284217,"lon":5.349697,"is_reserved":false,"is_disabled":false,"rental_uris":{"android":"levelo://app?vid=d0d30fde-c8ad-40e2-b14e-380b8f6e2410","ios":"levelo://app?vid=d0d30fde-c8ad-40e2-b14e-380b8f6e2410"},"vehicle_type_id":"4","last_reported":1703164179,"current_range_meters":16000,"station_id":"ce4bhbh2rcd13ifvqepg","pricing_plan_id":"free"},{"bike_id":"e68ad7a3-9f73-42da-8e90-59adcc6ccfbd","system_id":"levelo_inurba_marseille","lat":43.284219,"lon":5.3497,"is_reserved":false,"is_disabled":false,"rental_uris":{"android":"levelo://app?vid=e68ad7a3-9f73-42da-8e90-59adcc6ccfbd","ios":"levelo://app?vid=e68ad7a3-9f73-42da-8e90-59adcc6ccfbd"},"vehicle_type_id":"4","last_reported":1703164179,"current_range_meters":31600,"station_id":"ce4bhbh2rcd13ifvqepg","pricing_plan_id":"free"},{"bike_id":"8d4b85a5-25db-4e9d-b995-eb6cb500093b","system_id":"levelo_inurba_marseille","lat":43.284219,"lon":5.3497,"is_reserved":false,"is_disabled":false,"rental_uris":{"android":"levelo://app?vid=8d4b85a5-25db-4e9d-b995-eb6cb500093b","ios":"levelo://app?vid=8d4b85a5-25db-4e9d-b995-eb6cb500093b"},"vehicle_type_id":"4","last_reported":1703164179,"current_range_meters":10400,"station_id":"ce4bhbh2rcd13ifvqepg","pricing_plan_id":"free"},{"bike_id":"9288d875-1c8e-487a-93e8-33ef46564c8b","system_id":"levelo_inurba_marseille","lat":43.284219,"lon":5.3497,"is_reserved":false,"is_disabled":false,"rental_uris":{"android":"levelo://app?vid=9288d875-1c8e-487a-93e8-33ef46564c8b","ios":"levelo://app?vid=9288d875-1c8e-487a-93e8-33ef46564c8b"},"vehicle_type_id":"4","last_reported":1703164179,"current_range_meters":30400,"station_id":"ce4bhbh2rcd13ifvqepg","pricing_plan_id":"free"},{"bike_id":"0f42eedd-bd33-445f-91fc-4e7504a96eb4","system_id":"levelo_inurba_marseille","lat":43.3242,"lon":5.40705,"is_reserved":false,"is_disabled":false,"rental_uris":{"android":"levelo://app?vid=0f42eedd-bd33-445f-91fc-4e7504a96eb4","ios":"levelo://app?vid=0f42eedd-bd33-445f-91fc-4e7504a96eb4"},"vehicle_type_id":"4","last_reported":1703164179,"current_range_meters":17200,"station_id":"","pricing_plan_id":"free"},{"bike_id":"d33d70d6-0a1e-4a44-bfc5-d3da5ecf10ca","system_id":"levelo_inurba_marseille","lat":43.289363,"lon":5.396322,"is_reserved":false,"is_disabled":false,"rental_uris":{"android":"levelo://app?vid=d33d70d6-0a1e-4a44-bfc5-d3da5ecf10ca","ios":"levelo://app?vid=d33d70d6-0a1e-4a44-bfc5-d3da5ecf10ca"},"vehicle_type_id":"4","last_reported":1703164179,"current_range_meters":21600,"station_id":"ce4bh3h2rcd13ifvqdn0","pricing_plan_id":"free"},{"bike_id":"d48c44f4-d1c7-4462-865a-7961e19fcaec","system_id":"levelo_inurba_marseille","lat":43.282924,"lon":5.383991,"is_reserved":false,"is_disabled":false,"rental_uris":{"android":"levelo://app?vid=d48c44f4-d1c7-4462-865a-7961e19fcaec","ios":"levelo://app?vid=d48c44f4-d1c7-4462-865a-7961e19fcaec"},"vehicle_type_id":"4","last_reported":1703164179,"current_range_meters":8000,"station_id":"","pricing_plan_id":"free"},{"bike_id":"ac63d82d-48c4-42cb-bd7d-534716ab763b","system_id":"levelo_inurba_marseille","lat":43.280382,"lon":5.369291,"is_reserved":false,"is_disabled":false,"rental_uris":{"android":"levelo://app?vid=ac63d82d-48c4-42cb-bd7d-534716ab763b","ios":"levelo://app?vid=ac63d82d-48c4-42cb-bd7d-534716ab763b"},"vehicle_type_id":"4","last_reported":1703164179,"current_range_meters":13200,"station_id":"ce4bha12rcd13ifvqef0","pricing_plan_id":"free"},{"bike_id":"0e298bdb-800b-496e-b0fa-cbdcb63a0efc","system_id":"levelo_inurba_marseille","lat":43.28039,"lon":5.369297,"is_reserved":false,"is_disabled":false,"rental_uris":{"android":"levelo://app?vid=0e298bdb-800b-496e-b0fa-cbdcb63a0efc","ios":"levelo://app?vid=0e298bdb-800b-496e-b0fa-cbdcb63a0efc"},"vehicle_type_id":"4","last_reported":1703164179,"current_range_meters":20400,"station_id":"ce4bha12rcd13ifvqef0","pricing_plan_id":"free"},{"bike_id":"b141a72c-24a9-4ea6-9420-4918883cab91","system_id":"levelo_inurba_marseille","lat":43.280382,"lon":5.369291,"is_reserved":false,"is_disabled":false,"rental_uris":{"android":"levelo://app?vid=b141a72c-24a9-4ea6-9420-4918883cab91","ios":"levelo://app?vid=b141a72c-24a9-4ea6-9420-4918883cab91"},"vehicle_type_id":"4","last_reported":1703164179,"current_range_meters":7600,"station_id":"ce4bha12rcd13ifvqef0","pricing_plan_id":"free"},{"bike_id":"7fe7798f-adbc-40e4-86b9-83fa96bf059b","system_id":"levelo_inurba_marseille","lat":43.280382,"lon":5.369291,"is_reserved":false,"is_disabled":false,"rental_uris":{"android":"levelo://app?vid=7fe7798f-adbc-40e4-86b9-83fa96bf059b","ios":"levelo://app?vid=7fe7798f-adbc-40e4-86b9-83fa96bf059b"},"vehicle_type_id":"4","last_reported":1703164179,"current_range_meters":21600,"station_id":"ce4bha12rcd13ifvqef0","pricing_plan_id":"free"},{"bike_id":"7378b976-a635-42a4-b1b6-f32b35e32266","system_id":"levelo_inurba_marseille","lat":43.290412,"lon":5.399633,"is_reserved":false,"is_disabled":false,"rental_uris":{"android":"levelo://app?vid=7378b976-a635-42a4-b1b6-f32b35e32266","ios":"levelo://app?vid=7378b976-a635-42a4-b1b6-f32b35e32266"},"vehicle_type_id":"4","last_reported":1703164179,"current_range_meters":25600,"station_id":"ce4bh392rcd13ifvqdm0","pricing_plan_id":"free"},{"bike_id":"82020004-e992-4e1e-ab47-bc86252748d7","system_id":"levelo_inurba_marseille","lat":43.281044,"lon":5.378308,"is_reserved":false,"is_disabled":false,"rental_uris":{"android":"levelo://app?vid=82020004-e992-4e1e-ab47-bc86252748d7","ios":"levelo://app?vid=82020004-e992-4e1e-ab47-bc86252748d7"},"vehicle_type_id":"4","last_reported":1703164179,"current_range_meters":14800,"station_id":"ce4bha12rcd13ifvqee0","pricing_plan_id":"free"},{"bike_id":"bd357e6e-a2a4-491d-8e20-aac481452c2d","system_id":"levelo_inurba_marseille","lat":43.284462,"lon":5.392121,"is_reserved":false,"is_disabled":false,"rental_uris":{"android":"levelo://app?vid=bd357e6e-a2a4-491d-8e20-aac481452c2d","ios":"levelo://app?vid=bd357e6e-a2a4-491d-8e20-aac481452c2d"},"vehicle_type_id":"4","last_reported":1703164179,"current_range_meters":18000,"station_id":"ce4bhoh2rcd13ifvqh5g","pricing_plan_id":"free"},{"bike_id":"c50f95f9-02bf-42b8-bff8-8bb7d69bb1ce","system_id":"levelo_inurba_marseille","lat":43.304188,"lon":5.412904,"is_reserved":false,"is_disabled":false,"rental_uris":{"android":"levelo://app?vid=c50f95f9-02bf-42b8-bff8-8bb7d69bb1ce","ios":"levelo://app?vid=c50f95f9-02bf-42b8-bff8-8bb7d69bb1ce"},"vehicle_type_id":"4","last_reported":1703164179,"current_range_meters":7600,"station_id":"ce4bhop2rcd13ifvqh8g","pricing_plan_id":"free"},{"bike_id":"adcd56aa-785f-4acc-9fb4-aba9ca0440ab","system_id":"levelo_inurba_marseille","lat":43.304188,"lon":5.412904,"is_reserved":false,"is_disabled":false,"rental_uris":{"android":"levelo://app?vid=adcd56aa-785f-4acc-9fb4-aba9ca0440ab","ios":"levelo://app?vid=adcd56aa-785f-4acc-9fb4-aba9ca0440ab"},"vehicle_type_id":"4","last_reported":1703164179,"current_range_meters":30800,"station_id":"ce4bhop2rcd13ifvqh8g","pricing_plan_id":"free"},{"bike_id":"d2def4a1-645e-4905-95e1-4a2456343f2b","system_id":"levelo_inurba_marseille","lat":43.292571,"lon":5.409107,"is_reserved":false,"is_disabled":false,"rental_uris":{"android":"levelo://app?vid=d2def4a1-645e-4905-95e1-4a2456343f2b","ios":"levelo://app?vid=d2def4a1-645e-4905-95e1-4a2456343f2b"},"vehicle_type_id":"4","last_reported":1703164179,"current_range_meters":29600,"station_id":"ce4bh192rcd13ifvqdc0","pricing_plan_id":"free"},{"bike_id":"2efd2b21-ff08-4c88-8235-0585c2496866","system_id":"levelo_inurba_marseille","lat":43.292569,"lon":5.409107,"is_reserved":false,"is_disabled":false,"rental_uris":{"android":"levelo://app?vid=2efd2b21-ff08-4c88-8235-0585c2496866","ios":"levelo://app?vid=2efd2b21-ff08-4c88-8235-0585c2496866"},"vehicle_type_id":"4","last_reported":1703164179,"current_range_meters":26000,"station_id":"ce4bh192rcd13ifvqdc0","pricing_plan_id":"free"},{"bike_id":"b5ee4127-c76e-4aaa-9a28-5246f644a434","system_id":"levelo_inurba_marseille","lat":43.280784,"lon":5.396622,"is_reserved":false,"is_disabled":false,"rental_uris":{"android":"levelo://app?vid=b5ee4127-c76e-4aaa-9a28-5246f644a434","ios":"levelo://app?vid=b5ee4127-c76e-4aaa-9a28-5246f644a434"},"vehicle_type_id":"4","last_reported":1703164179,"current_range_meters":29200,"station_id":"ce4bho12rcd13ifvqh2g","pricing_plan_id":"free"},{"bike_id":"f4964659-22fd-40d4-b669-f8398cceec2a","system_id":"levelo_inurba_marseille","lat":43.303837,"lon":5.418724,"is_reserved":false,"is_disabled":false,"rental_uris":{"android":"levelo://app?vid=f4964659-22fd-40d4-b669-f8398cceec2a","ios":"levelo://app?vid=f4964659-22fd-40d4-b669-f8398cceec2a"},"vehicle_type_id":"4","last_reported":1703164179,"current_range_meters":17600,"station_id":"ce4bhop2rcd13ifvqh7g","pricing_plan_id":"free"},{"bike_id":"be9ef183-979f-46b8-bd78-d77acf676610","system_id":"levelo_inurba_marseille","lat":43.278401,"lon":5.392152,"is_reserved":false,"is_disabled":false,"rental_uris":{"android":"levelo://app?vid=be9ef183-979f-46b8-bd78-d77acf676610","ios":"levelo://app?vid=be9ef183-979f-46b8-bd78-d77acf676610"},"vehicle_type_id":"4","last_reported":1703164179,"current_range_meters":26000,"station_id":"ce4bhjp2rcd13ifvqga0","pricing_plan_id":"free"},{"bike_id":"e08b7c96-79e5-4077-b55f-738f27113a8b","system_id":"levelo_inurba_marseille","lat":43.278399,"lon":5.392139,"is_reserved":false,"is_disabled":false,"rental_uris":{"android":"levelo://app?vid=e08b7c96-79e5-4077-b55f-738f27113a8b","ios":"levelo://app?vid=e08b7c96-79e5-4077-b55f-738f27113a8b"},"vehicle_type_id":"4","last_reported":1703164179,"current_range_meters":31200,"station_id":"ce4bhjp2rcd13ifvqga0","pricing_plan_id":"free"},{"bike_id":"dd474116-9a35-4e3e-9468-cbbbfe126149","system_id":"levelo_inurba_marseille","lat":43.275625,"lon":5.384392,"is_reserved":false,"is_disabled":false,"rental_uris":{"android":"levelo://app?vid=dd474116-9a35-4e3e-9468-cbbbfe126149","ios":"levelo://app?vid=dd474116-9a35-4e3e-9468-cbbbfe126149"},"vehicle_type_id":"4","last_reported":1703164179,"current_range_meters":20400,"station_id":"ce4bhh92rcd13ifvqfi0","pricing_plan_id":"free"},{"bike_id":"8440783c-07c9-423e-a7fc-7d68df01cf8d","system_id":"levelo_inurba_marseille","lat":43.273613,"lon":5.362705,"is_reserved":false,"is_disabled":false,"rental_uris":{"android":"levelo://app?vid=8440783c-07c9-423e-a7fc-7d68df01cf8d","ios":"levelo://app?vid=8440783c-07c9-423e-a7fc-7d68df01cf8d"},"vehicle_type_id":"4","last_reported":1703164179,"current_range_meters":29600,"station_id":"ce4bhbh2rcd13ifvqeo0","pricing_plan_id":"free"},{"bike_id":"bf0b7df0-b0e7-4a73-badc-61dc2893c385","system_id":"levelo_inurba_marseille","lat":43.275625,"lon":5.384392,"is_reserved":false,"is_disabled":false,"rental_uris":{"android":"levelo://app?vid=bf0b7df0-b0e7-4a73-badc-61dc2893c385","ios":"levelo://app?vid=bf0b7df0-b0e7-4a73-badc-61dc2893c385"},"vehicle_type_id":"4","last_reported":1703164179,"current_range_meters":24400,"station_id":"ce4bhh92rcd13ifvqfi0","pricing_plan_id":"free"},{"bike_id":"b4f19cba-af29-4277-89fb-8e5cea862297","system_id":"levelo_inurba_marseille","lat":43.336134,"lon":5.410341,"is_reserved":false,"is_disabled":false,"rental_uris":{"android":"levelo://app?vid=b4f19cba-af29-4277-89fb-8e5cea862297","ios":"levelo://app?vid=b4f19cba-af29-4277-89fb-8e5cea862297"},"vehicle_type_id":"4","last_reported":1703164179,"current_range_meters":11600,"station_id":"ce4bhqh2rcd13ifvqhmg","pricing_plan_id":"free"},{"bike_id":"3b1be9ba-8516-4e06-84d8-6748b4759b32","system_id":"levelo_inurba_marseille","lat":43.336134,"lon":5.410341,"is_reserved":false,"is_disabled":false,"rental_uris":{"android":"levelo://app?vid=3b1be9ba-8516-4e06-84d8-6748b4759b32","ios":"levelo://app?vid=3b1be9ba-8516-4e06-84d8-6748b4759b32"},"vehicle_type_id":"4","last_reported":1703164179,"current_range_meters":19600,"station_id":"ce4bhqh2rcd13ifvqhmg","pricing_plan_id":"free"},{"bike_id":"0078fc31-b533-44cb-b47c-4aff8b27716d","system_id":"levelo_inurba_marseille","lat":43.27997,"lon":5.4002,"is_reserved":false,"is_disabled":false,"rental_uris":{"android":"levelo://app?vid=0078fc31-b533-44cb-b47c-4aff8b27716d","ios":"levelo://app?vid=0078fc31-b533-44cb-b47c-4aff8b27716d"},"vehicle_type_id":"4","last_reported":1703164179,"current_range_meters":24800,"station_id":"ce4bho92rcd13ifvqh4g","pricing_plan_id":"free"},{"bike_id":"2ccdce10-14f3-49aa-864f-a4af82f9832d","system_id":"levelo_inurba_marseille","lat":43.279952,"lon":5.400085,"is_reserved":false,"is_disabled":false,"rental_uris":{"android":"levelo://app?vid=2ccdce10-14f3-49aa-864f-a4af82f9832d","ios":"levelo://app?vid=2ccdce10-14f3-49aa-864f-a4af82f9832d"},"vehicle_type_id":"4","last_reported":1703164179,"current_range_meters":30800,"station_id":"ce4bho92rcd13ifvqh4g","pricing_plan_id":"free"},{"bike_id":"7ada0439-e02f-43f4-a65c-6cdbad12b2d5","system_id":"levelo_inurba_marseille","lat":43.317121,"lon":5.423936,"is_reserved":false,"is_disabled":false,"rental_uris":{"android":"levelo://app?vid=7ada0439-e02f-43f4-a65c-6cdbad12b2d5","ios":"levelo://app?vid=7ada0439-e02f-43f4-a65c-6cdbad12b2d5"},"vehicle_type_id":"4","last_reported":1703164179,"current_range_meters":23600,"station_id":"ce4bhp92rcd13ifvqhbg","pricing_plan_id":"free"},{"bike_id":"a7ebbe4e-e4b4-4b88-92ae-339f682a95cb","system_id":"levelo_inurba_marseille","lat":43.310785,"lon":5.424305,"is_reserved":false,"is_disabled":false,"rental_uris":{"android":"levelo://app?vid=a7ebbe4e-e4b4-4b88-92ae-339f682a95cb","ios":"levelo://app?vid=a7ebbe4e-e4b4-4b88-92ae-339f682a95cb"},"vehicle_type_id":"4","last_reported":1703164179,"current_range_meters":25200,"station_id":"ce4bhp92rcd13ifvqhag","pricing_plan_id":"free"},{"bike_id":"21f4a169-6e35-4a8e-94ba-dad1b033815c","system_id":"levelo_inurba_marseille","lat":43.310785,"lon":5.424305,"is_reserved":false,"is_disabled":false,"rental_uris":{"android":"levelo://app?vid=21f4a169-6e35-4a8e-94ba-dad1b033815c","ios":"levelo://app?vid=21f4a169-6e35-4a8e-94ba-dad1b033815c"},"vehicle_type_id":"4","last_reported":1703164179,"current_range_meters":1600,"station_id":"ce4bhp92rcd13ifvqhag","pricing_plan_id":"free"},{"bike_id":"f58c2c42-ad0f-4f1a-b565-675f9aaf8436","system_id":"levelo_inurba_marseille","lat":43.274103,"lon":5.394016,"is_reserved":false,"is_disabled":false,"rental_uris":{"android":"levelo://app?vid=f58c2c42-ad0f-4f1a-b565-675f9aaf8436","ios":"levelo://app?vid=f58c2c42-ad0f-4f1a-b565-675f9aaf8436"},"vehicle_type_id":"4","last_reported":1703164179,"current_range_meters":14400,"station_id":"ce4bhdp2rcd13ifvqf20","pricing_plan_id":"free"},{"bike_id":"6d80f056-4912-447a-9ec1-8decbb6b6e40","system_id":"levelo_inurba_marseille","lat":43.304096,"lon":5.425385,"is_reserved":false,"is_disabled":false,"rental_uris":{"android":"levelo://app?vid=6d80f056-4912-447a-9ec1-8decbb6b6e40","ios":"levelo://app?vid=6d80f056-4912-447a-9ec1-8decbb6b6e40"},"vehicle_type_id":"4","last_reported":1703164179,"current_range_meters":15600,"station_id":"ce4bhoh2rcd13ifvqh6g","pricing_plan_id":"free"},{"bike_id":"1fd9990e-87b6-4227-9bc3-c3da7ec2a908","system_id":"levelo_inurba_marseille","lat":43.304096,"lon":5.425385,"is_reserved":false,"is_disabled":false,"rental_uris":{"android":"levelo://app?vid=1fd9990e-87b6-4227-9bc3-c3da7ec2a908","ios":"levelo://app?vid=1fd9990e-87b6-4227-9bc3-c3da7ec2a908"},"vehicle_type_id":"4","last_reported":1703164179,"current_range_meters":25200,"station_id":"ce4bhoh2rcd13ifvqh6g","pricing_plan_id":"free"},{"bike_id":"96484c65-8dd7-4167-a438-a7d837c6b7a7","system_id":"levelo_inurba_marseille","lat":43.295523,"lon":5.422926,"is_reserved":false,"is_disabled":false,"rental_uris":{"android":"levelo://app?vid=96484c65-8dd7-4167-a438-a7d837c6b7a7","ios":"levelo://app?vid=96484c65-8dd7-4167-a438-a7d837c6b7a7"},"vehicle_type_id":"4","last_reported":1703164179,"current_range_meters":31600,"station_id":"ce4bhph2rcd13ifvqhdg","pricing_plan_id":"free"},{"bike_id":"e1bf0a92-1001-45ad-b936-6f06e086a92c","system_id":"levelo_inurba_marseille","lat":43.295511,"lon":5.422926,"is_reserved":false,"is_disabled":false,"rental_uris":{"android":"levelo://app?vid=e1bf0a92-1001-45ad-b936-6f06e086a92c","ios":"levelo://app?vid=e1bf0a92-1001-45ad-b936-6f06e086a92c"},"vehicle_type_id":"4","last_reported":1703164179,"current_range_meters":4400,"station_id":"ce4bhph2rcd13ifvqhdg","pricing_plan_id":"free"},{"bike_id":"5b29fe46-f98b-40e4-8c4c-2a510e7be214","system_id":"levelo_inurba_marseille","lat":43.295511,"lon":5.422926,"is_reserved":false,"is_disabled":false,"rental_uris":{"android":"levelo://app?vid=5b29fe46-f98b-40e4-8c4c-2a510e7be214","ios":"levelo://app?vid=5b29fe46-f98b-40e4-8c4c-2a510e7be214"},"vehicle_type_id":"4","last_reported":1703164179,"current_range_meters":15200,"station_id":"ce4bhph2rcd13ifvqhdg","pricing_plan_id":"free"},{"bike_id":"b820e38f-be0d-4e7b-9fb1-dfc16632fe0d","system_id":"levelo_inurba_marseille","lat":43.295511,"lon":5.422926,"is_reserved":false,"is_disabled":false,"rental_uris":{"android":"levelo://app?vid=b820e38f-be0d-4e7b-9fb1-dfc16632fe0d","ios":"levelo://app?vid=b820e38f-be0d-4e7b-9fb1-dfc16632fe0d"},"vehicle_type_id":"4","last_reported":1703164179,"current_range_meters":25200,"station_id":"ce4bhph2rcd13ifvqhdg","pricing_plan_id":"free"},{"bike_id":"b55db1a0-b820-479b-9929-7610c21584c5","system_id":"levelo_inurba_marseille","lat":43.295511,"lon":5.422926,"is_reserved":false,"is_disabled":false,"rental_uris":{"android":"levelo://app?vid=b55db1a0-b820-479b-9929-7610c21584c5","ios":"levelo://app?vid=b55db1a0-b820-479b-9929-7610c21584c5"},"vehicle_type_id":"4","last_reported":1703164179,"current_range_meters":25600,"station_id":"ce4bhph2rcd13ifvqhdg","pricing_plan_id":"free"},{"bike_id":"c6640060-cd81-49c1-9c3b-b620b8348ace","system_id":"levelo_inurba_marseille","lat":43.278128,"lon":5.407195,"is_reserved":false,"is_disabled":false,"rental_uris":{"android":"levelo://app?vid=c6640060-cd81-49c1-9c3b-b620b8348ace","ios":"levelo://app?vid=c6640060-cd81-49c1-9c3b-b620b8348ace"},"vehicle_type_id":"4","last_reported":1703164179,"current_range_meters":32000,"station_id":"ce4bhnh2rcd13ifvqgtg","pricing_plan_id":"free"},{"bike_id":"eafba763-944c-4624-aba6-3fb16259e2e8","system_id":"levelo_inurba_marseille","lat":43.278128,"lon":5.407195,"is_reserved":false,"is_disabled":false,"rental_uris":{"android":"levelo://app?vid=eafba763-944c-4624-aba6-3fb16259e2e8","ios":"levelo://app?vid=eafba763-944c-4624-aba6-3fb16259e2e8"},"vehicle_type_id":"4","last_reported":1703164179,"current_range_meters":30000,"station_id":"ce4bhnh2rcd13ifvqgtg","pricing_plan_id":"free"},{"bike_id":"c436b347-3bb9-411e-9400-78002e03f53f","system_id":"levelo_inurba_marseille","lat":43.269467,"lon":5.386439,"is_reserved":false,"is_disabled":false,"rental_uris":{"android":"levelo://app?vid=c436b347-3bb9-411e-9400-78002e03f53f","ios":"levelo://app?vid=c436b347-3bb9-411e-9400-78002e03f53f"},"vehicle_type_id":"4","last_reported":1703164179,"current_range_meters":19200,"station_id":"ce4bhh92rcd13ifvqfh0","pricing_plan_id":"free"},{"bike_id":"a9159478-4da7-4dbf-a1c1-62bc5060f4ef","system_id":"levelo_inurba_marseille","lat":43.269467,"lon":5.386439,"is_reserved":false,"is_disabled":false,"rental_uris":{"android":"levelo://app?vid=a9159478-4da7-4dbf-a1c1-62bc5060f4ef","ios":"levelo://app?vid=a9159478-4da7-4dbf-a1c1-62bc5060f4ef"},"vehicle_type_id":"4","last_reported":1703164179,"current_range_meters":20800,"station_id":"ce4bhh92rcd13ifvqfh0","pricing_plan_id":"free"},{"bike_id":"8cd4b8dd-4e13-4dcc-9780-551d6e2edf9b","system_id":"levelo_inurba_marseille","lat":43.269467,"lon":5.386439,"is_reserved":false,"is_disabled":false,"rental_uris":{"android":"levelo://app?vid=8cd4b8dd-4e13-4dcc-9780-551d6e2edf9b","ios":"levelo://app?vid=8cd4b8dd-4e13-4dcc-9780-551d6e2edf9b"},"vehicle_type_id":"4","last_reported":1703164179,"current_range_meters":10400,"station_id":"ce4bhh92rcd13ifvqfh0","pricing_plan_id":"free"},{"bike_id":"4ae79855-15fb-4d8a-8c33-7b692fbf8d7e","system_id":"levelo_inurba_marseille","lat":43.269467,"lon":5.386439,"is_reserved":false,"is_disabled":false,"rental_uris":{"android":"levelo://app?vid=4ae79855-15fb-4d8a-8c33-7b692fbf8d7e","ios":"levelo://app?vid=4ae79855-15fb-4d8a-8c33-7b692fbf8d7e"},"vehicle_type_id":"4","last_reported":1703164179,"current_range_meters":19600,"station_id":"ce4bhh92rcd13ifvqfh0","pricing_plan_id":"free"},{"bike_id":"3316a94b-1034-46b9-9b88-32cf78f5cfb6","system_id":"levelo_inurba_marseille","lat":43.267075,"lon":5.36329,"is_reserved":false,"is_disabled":false,"rental_uris":{"android":"levelo://app?vid=3316a94b-1034-46b9-9b88-32cf78f5cfb6","ios":"levelo://app?vid=3316a94b-1034-46b9-9b88-32cf78f5cfb6"},"vehicle_type_id":"4","last_reported":1703164179,"current_range_meters":9600,"station_id":"ce4bhhh2rcd13ifvqfk0","pricing_plan_id":"free"},{"bike_id":"c18c4ce9-bdc6-44c1-b03a-e8c313296ca4","system_id":"levelo_inurba_marseille","lat":43.269319,"lon":5.389397,"is_reserved":false,"is_disabled":false,"rental_uris":{"android":"levelo://app?vid=c18c4ce9-bdc6-44c1-b03a-e8c313296ca4","ios":"levelo://app?vid=c18c4ce9-bdc6-44c1-b03a-e8c313296ca4"},"vehicle_type_id":"4","last_reported":1703164179,"current_range_meters":13200,"station_id":"ce4bhhh2rcd13ifvqfl0","pricing_plan_id":"free"},{"bike_id":"a50adce9-7e83-49e9-89e2-3ad4dd6bbf5a","system_id":"levelo_inurba_marseille","lat":43.26681,"lon":5.382694,"is_reserved":false,"is_disabled":false,"rental_uris":{"android":"levelo://app?vid=a50adce9-7e83-49e9-89e2-3ad4dd6bbf5a","ios":"levelo://app?vid=a50adce9-7e83-49e9-89e2-3ad4dd6bbf5a"},"vehicle_type_id":"4","last_reported":1703164179,"current_range_meters":24000,"station_id":"ce4bhg92rcd13ifvqf90","pricing_plan_id":"free"},{"bike_id":"9b378276-e9fb-494b-9050-5ae54901aeba","system_id":"levelo_inurba_marseille","lat":43.26681,"lon":5.382694,"is_reserved":false,"is_disabled":false,"rental_uris":{"android":"levelo://app?vid=9b378276-e9fb-494b-9050-5ae54901aeba","ios":"levelo://app?vid=9b378276-e9fb-494b-9050-5ae54901aeba"},"vehicle_type_id":"4","last_reported":1703164179,"current_range_meters":12400,"station_id":"ce4bhg92rcd13ifvqf90","pricing_plan_id":"free"},{"bike_id":"3fabb490-1eca-4163-8e53-bef8dac04080","system_id":"levelo_inurba_marseille","lat":43.26681,"lon":5.382694,"is_reserved":false,"is_disabled":false,"rental_uris":{"android":"levelo://app?vid=3fabb490-1eca-4163-8e53-bef8dac04080","ios":"levelo://app?vid=3fabb490-1eca-4163-8e53-bef8dac04080"},"vehicle_type_id":"4","last_reported":1703164179,"current_range_meters":24400,"station_id":"ce4bhg92rcd13ifvqf90","pricing_plan_id":"free"},{"bike_id":"28409cfa-9604-442b-9a4d-7f70005b036e","system_id":"levelo_inurba_marseille","lat":43.26681,"lon":5.382694,"is_reserved":false,"is_disabled":false,"rental_uris":{"android":"levelo://app?vid=28409cfa-9604-442b-9a4d-7f70005b036e","ios":"levelo://app?vid=28409cfa-9604-442b-9a4d-7f70005b036e"},"vehicle_type_id":"4","last_reported":1703164179,"current_range_meters":30800,"station_id":"ce4bhg92rcd13ifvqf90","pricing_plan_id":"free"},{"bike_id":"8fc52bef-c77b-4ff5-83b2-07112d147534","system_id":"levelo_inurba_marseille","lat":43.26681,"lon":5.382694,"is_reserved":false,"is_disabled":false,"rental_uris":{"android":"levelo://app?vid=8fc52bef-c77b-4ff5-83b2-07112d147534","ios":"levelo://app?vid=8fc52bef-c77b-4ff5-83b2-07112d147534"},"vehicle_type_id":"4","last_reported":1703164179,"current_range_meters":15200,"station_id":"ce4bhg92rcd13ifvqf90","pricing_plan_id":"free"},{"bike_id":"1d92e596-bc07-4aa6-9863-ffafcd369a44","system_id":"levelo_inurba_marseille","lat":43.27996,"lon":5.416624,"is_reserved":false,"is_disabled":false,"rental_uris":{"android":"levelo://app?vid=1d92e596-bc07-4aa6-9863-ffafcd369a44","ios":"levelo://app?vid=1d92e596-bc07-4aa6-9863-ffafcd369a44"},"vehicle_type_id":"4","last_reported":1703164179,"current_range_meters":17200,"station_id":"ce4bho12rcd13ifvqh1g","pricing_plan_id":"free"},{"bike_id":"9a91c593-84eb-47bc-a6eb-531a4db53380","system_id":"levelo_inurba_marseille","lat":43.308051,"lon":5.43527,"is_reserved":false,"is_disabled":false,"rental_uris":{"android":"levelo://app?vid=9a91c593-84eb-47bc-a6eb-531a4db53380","ios":"levelo://app?vid=9a91c593-84eb-47bc-a6eb-531a4db53380"},"vehicle_type_id":"4","last_reported":1703164179,"current_range_meters":8400,"station_id":"ce4bhph2rcd13ifvqheg","pricing_plan_id":"free"},{"bike_id":"ec186e34-f2f2-4dfc-98d7-8df8fcd1a03b","system_id":"levelo_inurba_marseille","lat":43.261782,"lon":5.374515,"is_reserved":false,"is_disabled":false,"rental_uris":{"android":"levelo://app?vid=ec186e34-f2f2-4dfc-98d7-8df8fcd1a03b","ios":"levelo://app?vid=ec186e34-f2f2-4dfc-98d7-8df8fcd1a03b"},"vehicle_type_id":"4","last_reported":1703164179,"current_range_meters":26800,"station_id":"ce4bhgp2rcd13ifvqfc0","pricing_plan_id":"free"},{"bike_id":"5c4fddc0-e44b-478c-ac14-25889450a10a","system_id":"levelo_inurba_marseille","lat":43.271388,"lon":5.409269,"is_reserved":false,"is_disabled":false,"rental_uris":{"android":"levelo://app?vid=5c4fddc0-e44b-478c-ac14-25889450a10a","ios":"levelo://app?vid=5c4fddc0-e44b-478c-ac14-25889450a10a"},"vehicle_type_id":"4","last_reported":1703164179,"current_range_meters":20800,"station_id":"ce4bhl12rcd13ifvqgf0","pricing_plan_id":"free"},{"bike_id":"419893e7-347d-42e4-b465-371c4c127f8c","system_id":"levelo_inurba_marseille","lat":43.267959,"lon":5.402685,"is_reserved":false,"is_disabled":false,"rental_uris":{"android":"levelo://app?vid=419893e7-347d-42e4-b465-371c4c127f8c","ios":"levelo://app?vid=419893e7-347d-42e4-b465-371c4c127f8c"},"vehicle_type_id":"4","last_reported":1703164179,"current_range_meters":29200,"station_id":"ce501612rcd8frsf0b60","pricing_plan_id":"free"},{"bike_id":"28defe0b-621a-46c1-83df-bd6df06e56f2","system_id":"levelo_inurba_marseille","lat":43.267959,"lon":5.402685,"is_reserved":false,"is_disabled":false,"rental_uris":{"android":"levelo://app?vid=28defe0b-621a-46c1-83df-bd6df06e56f2","ios":"levelo://app?vid=28defe0b-621a-46c1-83df-bd6df06e56f2"},"vehicle_type_id":"4","last_reported":1703164179,"current_range_meters":14000,"station_id":"ce501612rcd8frsf0b60","pricing_plan_id":"free"},{"bike_id":"16af9ccb-249c-4045-86a0-92de99567420","system_id":"levelo_inurba_marseille","lat":43.267959,"lon":5.402687,"is_reserved":false,"is_disabled":false,"rental_uris":{"android":"levelo://app?vid=16af9ccb-249c-4045-86a0-92de99567420","ios":"levelo://app?vid=16af9ccb-249c-4045-86a0-92de99567420"},"vehicle_type_id":"4","last_reported":1703164179,"current_range_meters":19600,"station_id":"ce501612rcd8frsf0b60","pricing_plan_id":"free"},{"bike_id":"ae43e19b-0e98-4b60-9dfb-6a3b3be8102b","system_id":"levelo_inurba_marseille","lat":43.2651,"lon":5.39469,"is_reserved":false,"is_disabled":false,"rental_uris":{"android":"levelo://app?vid=ae43e19b-0e98-4b60-9dfb-6a3b3be8102b","ios":"levelo://app?vid=ae43e19b-0e98-4b60-9dfb-6a3b3be8102b"},"vehicle_type_id":"4","last_reported":1703164179,"current_range_meters":22400,"station_id":"ce4bhi12rcd13ifvqfq0","pricing_plan_id":"free"},{"bike_id":"bd28b5cb-98cb-4d05-a55e-5887aadc1636","system_id":"levelo_inurba_marseille","lat":43.298768,"lon":5.43643,"is_reserved":false,"is_disabled":false,"rental_uris":{"android":"levelo://app?vid=bd28b5cb-98cb-4d05-a55e-5887aadc1636","ios":"levelo://app?vid=bd28b5cb-98cb-4d05-a55e-5887aadc1636"},"vehicle_type_id":"4","last_reported":1703164179,"current_range_meters":30400,"station_id":"ce4bhpp2rcd13ifvqhfg","pricing_plan_id":"free"},{"bike_id":"2b7af1fb-dafe-42ce-9d9a-e13c5fbf000c","system_id":"levelo_inurba_marseille","lat":43.281548,"lon":5.42643,"is_reserved":false,"is_disabled":false,"rental_uris":{"android":"levelo://app?vid=2b7af1fb-dafe-42ce-9d9a-e13c5fbf000c","ios":"levelo://app?vid=2b7af1fb-dafe-42ce-9d9a-e13c5fbf000c"},"vehicle_type_id":"4","last_reported":1703164179,"current_range_meters":28800,"station_id":"ce4bhnh2rcd13ifvqgug","pricing_plan_id":"free"},{"bike_id":"7942fcd2-247b-4f07-b81d-f3e0e5c73666","system_id":"levelo_inurba_marseille","lat":43.281548,"lon":5.42643,"is_reserved":false,"is_disabled":false,"rental_uris":{"android":"levelo://app?vid=7942fcd2-247b-4f07-b81d-f3e0e5c73666","ios":"levelo://app?vid=7942fcd2-247b-4f07-b81d-f3e0e5c73666"},"vehicle_type_id":"4","last_reported":1703164179,"current_range_meters":31600,"station_id":"ce4bhnh2rcd13ifvqgug","pricing_plan_id":"free"},{"bike_id":"522b55ee-8a84-4e2c-ba67-00be95d022db","system_id":"levelo_inurba_marseille","lat":43.2607,"lon":5.393983,"is_reserved":false,"is_disabled":false,"rental_uris":{"android":"levelo://app?vid=522b55ee-8a84-4e2c-ba67-00be95d022db","ios":"levelo://app?vid=522b55ee-8a84-4e2c-ba67-00be95d022db"},"vehicle_type_id":"4","last_reported":1703164179,"current_range_meters":10400,"station_id":"ce4bhh92rcd13ifvqfj0","pricing_plan_id":"free"},{"bike_id":"b3801637-fb5e-4798-a48e-b0ac31aa16fd","system_id":"levelo_inurba_marseille","lat":43.275028,"lon":5.424534,"is_reserved":false,"is_disabled":false,"rental_uris":{"android":"levelo://app?vid=b3801637-fb5e-4798-a48e-b0ac31aa16fd","ios":"levelo://app?vid=b3801637-fb5e-4798-a48e-b0ac31aa16fd"},"vehicle_type_id":"4","last_reported":1703164179,"current_range_meters":21200,"station_id":"ce4bhn92rcd13ifvqgrg","pricing_plan_id":"free"},{"bike_id":"02dbce29-749f-4d1d-9049-dce1b30a0938","system_id":"levelo_inurba_marseille","lat":43.275028,"lon":5.424534,"is_reserved":false,"is_disabled":false,"rental_uris":{"android":"levelo://app?vid=02dbce29-749f-4d1d-9049-dce1b30a0938","ios":"levelo://app?vid=02dbce29-749f-4d1d-9049-dce1b30a0938"},"vehicle_type_id":"4","last_reported":1703164179,"current_range_meters":30000,"station_id":"ce4bhn92rcd13ifvqgrg","pricing_plan_id":"free"},{"bike_id":"a756eed1-0596-4292-a7fb-ed1e10de7e2a","system_id":"levelo_inurba_marseille","lat":43.275028,"lon":5.424534,"is_reserved":false,"is_disabled":false,"rental_uris":{"android":"levelo://app?vid=a756eed1-0596-4292-a7fb-ed1e10de7e2a","ios":"levelo://app?vid=a756eed1-0596-4292-a7fb-ed1e10de7e2a"},"vehicle_type_id":"4","last_reported":1703164179,"current_range_meters":0,"station_id":"ce4bhn92rcd13ifvqgrg","pricing_plan_id":"free"},{"bike_id":"f90fa211-a915-4cb2-b309-8e704ac8f4a9","system_id":"levelo_inurba_marseille","lat":43.275028,"lon":5.424534,"is_reserved":false,"is_disabled":false,"rental_uris":{"android":"levelo://app?vid=f90fa211-a915-4cb2-b309-8e704ac8f4a9","ios":"levelo://app?vid=f90fa211-a915-4cb2-b309-8e704ac8f4a9"},"vehicle_type_id":"4","last_reported":1703164179,"current_range_meters":19200,"station_id":"ce4bhn92rcd13ifvqgrg","pricing_plan_id":"free"},{"bike_id":"754e6007-bff3-4338-94b0-69d130eb3d14","system_id":"levelo_inurba_marseille","lat":43.27492,"lon":5.42449,"is_reserved":false,"is_disabled":false,"rental_uris":{"android":"levelo://app?vid=754e6007-bff3-4338-94b0-69d130eb3d14","ios":"levelo://app?vid=754e6007-bff3-4338-94b0-69d130eb3d14"},"vehicle_type_id":"4","last_reported":1703164179,"current_range_meters":18000,"station_id":"ce4bhn92rcd13ifvqgrg","pricing_plan_id":"free"},{"bike_id":"ca337847-851c-429e-ba13-a619aa4cf5f9","system_id":"levelo_inurba_marseille","lat":43.275028,"lon":5.424534,"is_reserved":false,"is_disabled":false,"rental_uris":{"android":"levelo://app?vid=ca337847-851c-429e-ba13-a619aa4cf5f9","ios":"levelo://app?vid=ca337847-851c-429e-ba13-a619aa4cf5f9"},"vehicle_type_id":"4","last_reported":1703164179,"current_range_meters":16400,"station_id":"ce4bhn92rcd13ifvqgrg","pricing_plan_id":"free"},{"bike_id":"04dd24d8-3655-49a6-9905-8a55a84651f4","system_id":"levelo_inurba_marseille","lat":43.27496,"lon":5.42455,"is_reserved":false,"is_disabled":false,"rental_uris":{"android":"levelo://app?vid=04dd24d8-3655-49a6-9905-8a55a84651f4","ios":"levelo://app?vid=04dd24d8-3655-49a6-9905-8a55a84651f4"},"vehicle_type_id":"4","last_reported":1703164179,"current_range_meters":4800,"station_id":"ce4bhn92rcd13ifvqgrg","pricing_plan_id":"free"},{"bike_id":"fcb5238d-712c-489c-9cf0-d1833758fe50","system_id":"levelo_inurba_marseille","lat":43.27492,"lon":5.4246,"is_reserved":false,"is_disabled":false,"rental_uris":{"android":"levelo://app?vid=fcb5238d-712c-489c-9cf0-d1833758fe50","ios":"levelo://app?vid=fcb5238d-712c-489c-9cf0-d1833758fe50"},"vehicle_type_id":"4","last_reported":1703164179,"current_range_meters":19200,"station_id":"ce4bhn92rcd13ifvqgrg","pricing_plan_id":"free"},{"bike_id":"4130e873-8028-4aeb-8fab-f9dbb9b29662","system_id":"levelo_inurba_marseille","lat":43.275028,"lon":5.424534,"is_reserved":false,"is_disabled":false,"rental_uris":{"android":"levelo://app?vid=4130e873-8028-4aeb-8fab-f9dbb9b29662","ios":"levelo://app?vid=4130e873-8028-4aeb-8fab-f9dbb9b29662"},"vehicle_type_id":"4","last_reported":1703164179,"current_range_meters":0,"station_id":"ce4bhn92rcd13ifvqgrg","pricing_plan_id":"free"},{"bike_id":"71e9edf3-ccec-41d1-b976-6b0cb7123a5a","system_id":"levelo_inurba_marseille","lat":43.275028,"lon":5.424534,"is_reserved":false,"is_disabled":false,"rental_uris":{"android":"levelo://app?vid=71e9edf3-ccec-41d1-b976-6b0cb7123a5a","ios":"levelo://app?vid=71e9edf3-ccec-41d1-b976-6b0cb7123a5a"},"vehicle_type_id":"4","last_reported":1703164179,"current_range_meters":9200,"station_id":"ce4bhn92rcd13ifvqgrg","pricing_plan_id":"free"},