{"last_updated":1734383298,"ttl":60,"version":"2.2","data":{"bikes":[{"bike_id":"42c22991-bbb2-4c12-ab0d-47d496460860","system_id":"levelo_inurba_marseille","lat":43.276152,"lon":5.361098,"is_reserved":false,"is_disabled":false,"rental_uris":{"android":"levelo://app?vid=42c22991-bbb2-4c12-ab0d-47d496460860","ios":"levelo://app?vid=42c22991-bbb2-4c12-ab0d-47d496460860"},"vehicle_type_id":"4","last_reported":1734383299,"current_range_meters":16400,"station_id":"ce4bgj92rcd13ifvqbe0","pricing_plan_id":"cebpf4jnsgd1na2vs0mg"},{"bike_id":"3945d924-4864-404c-8dc1-69939c22235c","system_id":"levelo_inurba_marseille","lat":43.32334,"lon":5.40619,"is_reserved":false,"is_disabled":false,"rental_uris":{"android":"levelo://app?vid=3945d924-4864-404c-8dc1-69939c22235c","ios":"levelo://app?vid=3945d924-4864-404c-8dc1-69939c22235c"},"vehicle_type_id":"4","last_reported":1734383299,"current_range_meters":18800,"station_id":"ce4bhq92rcd13ifvqhjg","pricing_plan_id":"cebpf4jnsgd1na2vs0mg"},{"bike_id":"f6454cc5-1690-43a6-92aa-1d6f0da09f29","system_id":"levelo_inurba_marseille","lat":43.31332,"lon":5.39694,"is_reserved":false,"is_disabled":false,"rental_uris":{"android":"levelo://app?vid=f6454cc5-1690-43a6-92aa-1d6f0da09f29","ios":"levelo://app?vid=f6454cc5-1690-43a6-92aa-1d6f0da09f29"},"vehicle_type_id":"4","last_reported":1734383299,"current_range_meters":27600,"station_id":"ce4bgvp2rcd13ifvqcu0","pricing_plan_id":"cebpf4jnsgd1na2vs0mg"},{"bike_id":"5e78b6b4-b455-4515-8bd7-5bcdeef9e23e","system_id":"levelo_inurba_marseille","lat":43.30534,"lon":5.36699,"is_reserved":false,"is_disabled":false,"rental_uris":{"android":"levelo://app?vid=5e78b6b4-b455-4515-8bd7-5bcdeef9e23e","ios":"levelo://app?vid=5e78b6b4-b455-4515-8bd7-5bcdeef9e23e"},"vehicle_type_id":"4","last_reported":1734383299,"current_range_meters":14400,"station_id":"ce4bgrp2rcd13ifvqc9g","pricing_plan_id":"cebpf4jnsgd1na2vs0mg"},{"bike_id":"59cb62bf-fe2f-4679-8485-86bd7fea9f42","system_id":"levelo_inurba_marseille","lat":43.286617,"lon":5.363547,"is_reserved":false,"is_disabled":false,"rental_uris":{"android":"levelo://app?vid=59cb62bf-fe2f-4679-8485-86bd7fea9f42","ios":"levelo://app?vid=59cb62bf-fe2f-4679-8485-86bd7fea9f42"},"vehicle_type_id":"4","last_reported":1734383299,"current_range_meters":35600,"station_id":"ce4bhah2rcd13ifvqej0","pricing_plan_id":"cebpf4jnsgd1na2vs0mg"},{"bike_id":"2f5d94cd-9442-4cc7-9ddb-7c4903b293c4","system_id":"levelo_inurba_marseille","lat":43.24659,"lon":5.38163,"is_reserved":false,"is_disabled":false,"rental_uris":{"android":"levelo://app?vid=2f5d94cd-9442-4cc7-9ddb-7c4903b293c4","ios":"levelo://app?vid=2f5d94cd-9442-4cc7-9ddb-7c4903b293c4"},"vehicle_type_id":"4","last_reported":1734383299,"current_range_meters":18000,"station_id":"ce4bhih2rcd13ifvqfr0","pricing_plan_id":"cebpf4jnsgd1na2vs0mg"},{"bike_id":"0ef6db4d-529f-4d18-a3e2-fe1b03a2423c","system_id":"levelo_inurba_marseille","lat":43.31477,"lon":5.37294,"is_reserved":false,"is_disabled":false,"rental_uris":{"android":"levelo://app?vid=0ef6db4d-529f-4d18-a3e2-fe1b03a2423c","ios":"levelo://app?vid=0ef6db4d-529f-4d18-a3e2-fe1b03a2423c"},"vehicle_type_id":"4","last_reported":1734383299,"current_range_meters":36800,"station_id":"ce4bgt12rcd13ifvqcd0","pricing_plan_id":"cebpf4jnsgd1na2vs0mg"},{"bike_id":"6a542b5e-aa6d-4c02-9462-27580e2b7e4b","system_id":"levelo_inurba_marseille","lat":43.29899,"lon":5.39731,"is_reserved":false,"is_disabled":false,"rental_uris":{"android":"levelo://app?vid=6a542b5e-aa6d-4c02-9462-27580e2b7e4b","ios":"levelo://app?vid=6a542b5e-aa6d-4c02-9462-27580e2b7e4b"},"vehicle_type_id":"4","last_reported":1734383299,"current_range_meters":38800,"station_id":"ce4bh0h2rcd13ifvqd50","pricing_plan_id":"cebpf4jnsgd1na2vs0mg"},{"bike_id":"66c2d464-591d-4cf7-a92e-3040a1b49fea","system_id":"levelo_inurba_marseille","lat":43.286623,"lon":5.363563,"is_reserved":false,"is_disabled":false,"rental_uris":{"android":"levelo://app?vid=66c2d464-591d-4cf7-a92e-3040a1b49fea","ios":"levelo://app?vid=66c2d464-591d-4cf7-a92e-3040a1b49fea"},"vehicle_type_id":"4","last_reported":1734383299,"current_range_meters":38800,"station_id":"ce4bhah2rcd13ifvqej0","pricing_plan_id":"cebpf4jnsgd1na2vs0mg"},{"bike_id":"0e5fa3cd-a913-4061-b0b9-e6b5b6a4b26a","system_id":"levelo_inurba_marseille","lat":43.25092,"lon":5.39521,"is_reserved":false,"is_disabled":false,"rental_uris":{"android":"levelo://app?vid=0e5fa3cd-a913-4061-b0b9-e6b5b6a4b26a","ios":"levelo://app?vid=0e5fa3cd-a913-4061-b0b9-e6b5b6a4b26a"},"vehicle_type_id":"4","last_reported":1734383299,"current_range_meters":24000,"station_id":"ce4bhm12rcd13ifvqgkg","pricing_plan_id":"cebpf4jnsgd1na2vs0mg"},{"bike_id":"ed8635a9-8a62-4be7-9d4b-a4dbff1f7c6d","system_id":"levelo_inurba_marseille","lat":43.28516,"lon":5.38018,"is_reserved":false,"is_disabled":true,"rental_uris":{"android":"levelo://app?vid=ed8635a9-8a62-4be7-9d4b-a4dbff1f7c6d","ios":"levelo://app?vid=ed8635a9-8a62-4be7-9d4b-a4dbff1f7c6d"},"vehicle_type_id":"4","last_reported":1734383299,"current_range_meters":23200,"station_id":"","pricing_plan_id":"cebpf4jnsgd1na2vs0mg"},{"bike_id":"79e08014-78be-4b51-8e47-3248ec87023b","system_id":"levelo_inurba_marseille","lat":43.24661,"lon":5.38162,"is_reserved":false,"is_disabled":false,"rental_uris":{"android":"levelo://app?vid=79e08014-78be-4b51-8e47-3248ec87023b","ios":"levelo://app?vid=79e08014-78be-4b51-8e47-3248ec87023b"},"vehicle_type_id":"4","last_reported":1734383299,"current_range_meters":36800,"station_id":"ce4bhih2rcd13ifvqfr0","pricing_plan_id":"cebpf4jnsgd1na2vs0mg"},{"bike_id":"b1141b56-3e7b-49ed-8c3a-fdb8940f3e60","system_id":"levelo_inurba_marseille","lat":43.30028,"lon":5.37734,"is_reserved":false,"is_disabled":true,"rental_uris":{"android":"levelo://app?vid=b1141b56-3e7b-49ed-8c3a-fdb8940f3e60","ios":"levelo://app?vid=b1141b56-3e7b-49ed-8c3a-fdb8940f3e60"},"vehicle_type_id":"4","last_reported":1734383299,"current_range_meters":9200,"station_id":"","pricing_plan_id":"cebpf4jnsgd1na2vs0mg"},{"bike_id":"1a44d6c7-4ab0-468e-885d-abd5d129c4c1","system_id":"levelo_inurba_marseille","lat":43.2801,"lon":5.40017,"is_reserved":false,"is_disabled":false,"rental_uris":{"android":"levelo://app?vid=1a44d6c7-4ab0-468e-885d-abd5d129c4c1","ios":"levelo://app?vid=1a44d6c7-4ab0-468e-885d-abd5d129c4c1"},"vehicle_type_id":"4","last_reported":1734383299,"current_range_meters":15200,"station_id":"ce4bho92rcd13ifvqh4g","pricing_plan_id":"cebpf4jnsgd1na2vs0mg"},{"bike_id":"f2becf00-bec2-445b-8f2d-7eb79048b5c6","system_id":"levelo_inurba_marseille","lat":43.298712,"lon":5.397338,"is_reserved":false,"is_disabled":false,"rental_uris":{"android":"levelo://app?vid=f2becf00-bec2-445b-8f2d-7eb79048b5c6","ios":"levelo://app?vid=f2becf00-bec2-445b-8f2d-7eb79048b5c6"},"vehicle_type_id":"4","last_reported":1734383299,"current_range_meters":38800,"station_id":"ce4bh0h2rcd13ifvqd50","pricing_plan_id":"cebpf4jnsgd1na2vs0mg"},{"bike_id":"10086f5f-eb94-421a-8247-01c4a38e23de","system_id":"levelo_inurba_marseille","lat":43.26786,"lon":5.39928,"is_reserved":false,"is_disabled":true,"rental_uris":{"android":"levelo://app?vid=10086f5f-eb94-421a-8247-01c4a38e23de","ios":"levelo://app?vid=10086f5f-eb94-421a-8247-01c4a38e23de"},"vehicle_type_id":"4","last_reported":1734383299,"current_range_meters":0,"station_id":"","pricing_plan_id":"cebpf4jnsgd1na2vs0mg"},{"bike_id":"43080d42-6f82-421a-a638-62cb8c5273ca","system_id":"levelo_inurba_marseille","lat":43.25113,"lon":5.40322,"is_reserved":false,"is_disabled":false,"rental_uris":{"android":"levelo://app?vid=43080d42-6f82-421a-a638-62cb8c5273ca","ios":"levelo://app?vid=43080d42-6f82-421a-a638-62cb8c5273ca"},"vehicle_type_id":"4","last_reported":1734383299,"current_range_meters":34800,"station_id":"ce4bhlh2rcd13ifvqgig","pricing_plan_id":"cebpf4jnsgd1na2vs0mg"},{"bike_id":"19b63edb-b49d-48d7-a32f-d786a72a8236","system_id":"levelo_inurba_marseille","lat":43.28517,"lon":5.35062,"is_reserved":false,"is_disabled":false,"rental_uris":{"android":"levelo://app?vid=19b63edb-b49d-48d7-a32f-d786a72a8236","ios":"levelo://app?vid=19b63edb-b49d-48d7-a32f-d786a72a8236"},"vehicle_type_id":"4","last_reported":1734383299,"current_range_meters":32400,"station_id":"","pricing_plan_id":"cebpf4jnsgd1na2vs0mg"},{"bike_id":"2bcb2020-1157-48f1-aa76-65d8d9a083d0","system_id":"levelo_inurba_marseille","lat":43.30599,"lon":5.37213,"is_reserved":false,"is_disabled":false,"rental_uris":{"android":"levelo://app?vid=2bcb2020-1157-48f1-aa76-65d8d9a083d0","ios":"levelo://app?vid=2bcb2020-1157-48f1-aa76-65d8d9a083d0"},"vehicle_type_id":"4","last_reported":1734383299,"current_range_meters":12000,"station_id":"ce4bgqh2rcd13ifvqc4g","pricing_plan_id":"cebpf4jnsgd1na2vs0mg"},{"bike_id":"6b49ebdf-767b-495c-8b00-273a87320406","system_id":"levelo_inurba_marseille","lat":43.30145,"lon":5.39869,"is_reserved":false,"is_disabled":false,"rental_uris":{"android":"levelo://app?vid=6b49ebdf-767b-495c-8b00-273a87320406","ios":"levelo://app?vid=6b49ebdf-767b-495c-8b00-273a87320406"},"vehicle_type_id":"4","last_reported":1734383299,"current_range_meters":10000,"station_id":"ce4bh0h2rcd13ifvqd40","pricing_plan_id":"cebpf4jnsgd1na2vs0mg"},{"bike_id":"82bfb1cc-5635-4d47-bc8e-b9ff0bb37081","system_id":"levelo_inurba_marseille","lat":43.30702,"lon":5.38235,"is_reserved":false,"is_disabled":false,"rental_uris":{"android":"levelo://app?vid=82bfb1cc-5635-4d47-bc8e-b9ff0bb37081","ios":"levelo://app?vid=82bfb1cc-5635-4d47-bc8e-b9ff0bb37081"},"vehicle_type_id":"4","last_reported":1734383299,"current_range_meters":37600,"station_id":"","pricing_plan_id":"cebpf4jnsgd1na2vs0mg"},{"bike_id":"0942ec52-e4c2-4259-b7e5-1369cb3cb0e8","system_id":"levelo_inurba_marseille","lat":43.31712,"lon":5.37749,"is_reserved":false,"is_disabled":false,"rental_uris":{"android":"levelo://app?vid=0942ec52-e4c2-4259-b7e5-1369cb3cb0e8","ios":"levelo://app?vid=0942ec52-e4c2-4259-b7e5-1369cb3cb0e8"},"vehicle_type_id":"4","last_reported":1734383299,"current_range_meters":38000,"station_id":"ce4bgth2rcd13ifvqch0","pricing_plan_id":"cebpf4jnsgd1na2vs0mg"},{"bike_id":"6e68a8b1-0e13-427b-839f-d0db81a56eee","system_id":"levelo_inurba_marseille","lat":43.28944,"lon":5.36387,"is_reserved":false,"is_disabled":false,"rental_uris":{"android":"levelo://app?vid=6e68a8b1-0e13-427b-839f-d0db81a56eee","ios":"levelo://app?vid=6e68a8b1-0e13-427b-839f-d0db81a56eee"},"vehicle_type_id":"4","last_reported":1734383299,"current_range_meters":28000,"station_id":"ce4bhc92rcd13ifvqetg","pricing_plan_id":"cebpf4jnsgd1na2vs0mg"},{"bike_id":"e452912e-43c8-4a44-afb6-a0cd08b90653","system_id":"levelo_inurba_marseille","lat":43.28856,"lon":5.39309,"is_reserved":false,"is_disabled":false,"rental_uris":{"android":"levelo://app?vid=e452912e-43c8-4a44-afb6-a0cd08b90653","ios":"levelo://app?vid=e452912e-43c8-4a44-afb6-a0cd08b90653"},"vehicle_type_id":"4","last_reported":1734383299,"current_range_meters":5600,"station_id":"ce4bh2p2rcd13ifvqdi0","pricing_plan_id":"cebpf4jnsgd1na2vs0mg"},{"bike_id":"491b5c18-99d4-4072-a89f-caaafeb4b981","system_id":"levelo_inurba_marseille","lat":43.30281,"lon":5.40067,"is_reserved":false,"is_disabled":false,"rental_uris":{"android":"levelo://app?vid=491b5c18-99d4-4072-a89f-caaafeb4b981","ios":"levelo://app?vid=491b5c18-99d4-4072-a89f-caaafeb4b981"},"vehicle_type_id":"4","last_reported":1734383299,"current_range_meters":20400,"station_id":"ce4bgvh2rcd13ifvqcs0","pricing_plan_id":"cebpf4jnsgd1na2vs0mg"},{"bike_id":"6cb9fe89-432b-437b-8ac2-83ad2cda73a0","system_id":"levelo_inurba_marseille","lat":43.29255,"lon":5.40913,"is_reserved":false,"is_disabled":true,"rental_uris":{"android":"levelo://app?vid=6cb9fe89-432b-437b-8ac2-83ad2cda73a0","ios":"levelo://app?vid=6cb9fe89-432b-437b-8ac2-83ad2cda73a0"},"vehicle_type_id":"4","last_reported":1734383299,"current_range_meters":38000,"station_id":"ce4bh192rcd13ifvqdc0","pricing_plan_id":"cebpf4jnsgd1na2vs0mg"},{"bike_id":"33ce8a0a-4b91-4cc4-8775-db399ca1726b","system_id":"levelo_inurba_marseille","lat":43.2961,"lon":5.38107,"is_reserved":false,"is_disabled":false,"rental_uris":{"android":"levelo://app?vid=33ce8a0a-4b91-4cc4-8775-db399ca1726b","ios":"levelo://app?vid=33ce8a0a-4b91-4cc4-8775-db399ca1726b"},"vehicle_type_id":"4","last_reported":1734383299,"current_range_meters":36400,"station_id":"ce4bgl12rcd13ifvqbo0","pricing_plan_id":"cebpf4jnsgd1na2vs0mg"},{"bike_id":"b6a3d610-c58e-44ec-a0c2-d8cf03db293a","system_id":"levelo_inurba_marseille","lat":43.27952,"lon":5.41045,"is_reserved":false,"is_disabled":true,"rental_uris":{"android":"levelo://app?vid=b6a3d610-c58e-44ec-a0c2-d8cf03db293a","ios":"levelo://app?vid=b6a3d610-c58e-44ec-a0c2-d8cf03db293a"},"vehicle_type_id":"4","last_reported":1734383299,"current_range_meters":0,"station_id":"ce4bhnp2rcd13ifvqh0g","pricing_plan_id":"cebpf4jnsgd1na2vs0mg"},{"bike_id":"c84b33b2-a956-4f81-a9c5-e575eff8b535","system_id":"levelo_inurba_marseille","lat":43.25511,"lon":5.37674,"is_reserved":false,"is_disabled":false,"rental_uris":{"android":"levelo://app?vid=c84b33b2-a956-4f81-a9c5-e575eff8b535","ios":"levelo://app?vid=c84b33b2-a956-4f81-a9c5-e575eff8b535"},"vehicle_type_id":"4","last_reported":1734383299,"current_range_meters":36400,"station_id":"ce4bhh12rcd13ifvqff0","pricing_plan_id":"cebpf4jnsgd1na2vs0mg"},{"bike_id":"e6029fb1-ca48-4fee-ba7d-8ee528661eb7","system_id":"levelo_inurba_marseille","lat":43.265074,"lon":5.395358,"is_reserved":false,"is_disabled":false,"rental_uris":{"android":"levelo://app?vid=e6029fb1-ca48-4fee-ba7d-8ee528661eb7","ios":"levelo://app?vid=e6029fb1-ca48-4fee-ba7d-8ee528661eb7"},"vehicle_type_id":"4","last_reported":1734383299,"current_range_meters":33200,"station_id":"ce4bhi12rcd13ifvqfq0","pricing_plan_id":"cebpf4jnsgd1na2vs0mg"},{"bike_id":"5c8fbcbe-202d-4d12-b419-30c8ce2cd3d3","system_id":"levelo_inurba_marseille","lat":43.29539,"lon":5.38538,"is_reserved":false,"is_disabled":false,"rental_uris":{"android":"levelo://app?vid=5c8fbcbe-202d-4d12-b419-30c8ce2cd3d3","ios":"levelo://app?vid=5c8fbcbe-202d-4d12-b419-30c8ce2cd3d3"},"vehicle_type_id":"4","last_reported":1734383299,"current_range_meters":36800,"station_id":"ce4bgih2rcd13ifvqba0","pricing_plan_id":"cebpf4jnsgd1na2vs0mg"},{"bike_id":"16dfafce-cede-4e47-9b70-1451781863c1","system_id":"levelo_inurba_marseille","lat":43.29077,"lon":5.37159,"is_reserved":false,"is_disabled":false,"rental_uris":{"android":"levelo://app?vid=16dfafce-cede-4e47-9b70-1451781863c1","ios":"levelo://app?vid=16dfafce-cede-4e47-9b70-1451781863c1"},"vehicle_type_id":"4","last_reported":1734383299,"current_range_meters":17600,"station_id":"ce4bh5p2rcd13ifvqe4g","pricing_plan_id":"cebpf4jnsgd1na2vs0mg"},{"bike_id":"df8d9f60-67d3-4227-99b7-48c256f5c206","system_id":"levelo_inurba_marseille","lat":43.31707,"lon":5.3777,"is_reserved":false,"is_disabled":false,"rental_uris":{"android":"levelo://app?vid=df8d9f60-67d3-4227-99b7-48c256f5c206","ios":"levelo://app?vid=df8d9f60-67d3-4227-99b7-48c256f5c206"},"vehicle_type_id":"4","last_reported":1734383299,"current_range_meters":38000,"station_id":"ce4bgth2rcd13ifvqch0","pricing_plan_id":"cebpf4jnsgd1na2vs0mg"},{"bike_id":"a716bf4a-483b-4082-8d5e-a159c3e6bcca","system_id":"levelo_inurba_marseille","lat":43.299639,"lon":5.413225,"is_reserved":false,"is_disabled":true,"rental_uris":{"android":"levelo://app?vid=a716bf4a-483b-4082-8d5e-a159c3e6bcca","ios":"levelo://app?vid=a716bf4a-483b-4082-8d5e-a159c3e6bcca"},"vehicle_type_id":"4","last_reported":1734383299,"current_range_meters":32800,"station_id":"ce4bhp12rcd13ifvqh9g","pricing_plan_id":"cebpf4jnsgd1na2vs0mg"},{"bike_id":"75979f35-52fb-4ff9-aef4-c293842957ed","system_id":"levelo_inurba_marseille","lat":43.32545,"lon":5.41435,"is_reserved":false,"is_disabled":true,"rental_uris":{"android":"levelo://app?vid=75979f35-52fb-4ff9-aef4-c293842957ed","ios":"levelo://app?vid=75979f35-52fb-4ff9-aef4-c293842957ed"},"vehicle_type_id":"4","last_reported":1734383299,"current_range_meters":36400,"station_id":"ce4bhq12rcd13ifvqhhg","pricing_plan_id":"cebpf4jnsgd1na2vs0mg"},{"bike_id":"434843cf-9364-4dd4-8d3c-6f995f6c8fa3","system_id":"levelo_inurba_marseille","lat":43.23058,"lon":5.35497,"is_reserved":false,"is_disabled":false,"rental_uris":{"android":"levelo://app?vid=434843cf-9364-4dd4-8d3c-6f995f6c8fa3","ios":"levelo://app?vid=434843cf-9364-4dd4-8d3c-6f995f6c8fa3"},"vehicle_type_id":"4","last_reported":1734383299,"current_range_meters":26800,"station_id":"cpo3342slgdg3j2ifvpg","pricing_plan_id":"cebpf4jnsgd1na2vs0mg"},{"bike_id":"01dd261f-922b-4db8-a73b-009ae8f8ee61","system_id":"levelo_inurba_marseille","lat":43.30817,"lon":5.37999,"is_reserved":false,"is_disabled":false,"rental_uris":{"android":"levelo://app?vid=01dd261f-922b-4db8-a73b-009ae8f8ee61","ios":"levelo://app?vid=01dd261f-922b-4db8-a73b-009ae8f8ee61"},"vehicle_type_id":"4","last_reported":1734383299,"current_range_meters":10800,"station_id":"","pricing_plan_id":"cebpf4jnsgd1na2vs0mg"},{"bike_id":"c696cb0c-fbb3-4eb0-ade2-0fbc0071256c","system_id":"levelo_inurba_marseille","lat":43.29026,"lon":5.38635,"is_reserved":false,"is_disabled":false,"rental_uris":{"android":"levelo://app?vid=c696cb0c-fbb3-4eb0-ade2-0fbc0071256c","ios":"levelo://app?vid=c696cb0c-fbb3-4eb0-ade2-0fbc0071256c"},"vehicle_type_id":"4","last_reported":1734383299,"current_range_meters":38000,"station_id":"ce4bh4p2rcd13ifvqe0g","pricing_plan_id":"cebpf4jnsgd1na2vs0mg"},{"bike_id":"ba98bdce-aee7-48db-921f-e5b23de6229a","system_id":"levelo_inurba_marseille","lat":43.33786,"lon":5.42087,"is_reserved":false,"is_disabled":true,"rental_uris":{"android":"levelo://app?vid=ba98bdce-aee7-48db-921f-e5b23de6229a","ios":"levelo://app?vid=ba98bdce-aee7-48db-921f-e5b23de6229a"},"vehicle_type_id":"4","last_reported":1734383299,"current_range_meters":0,"station_id":"","pricing_plan_id":"cebpf4jnsgd1na2vs0mg"},{"bike_id":"9cfc09f0-d43f-48e4-babe-f93a6fdf0d20","system_id":"levelo_inurba_marseille","lat":43.29205,"lon":5.35796,"is_reserved":false,"is_disabled":false,"rental_uris":{"android":"levelo://app?vid=9cfc09f0-d43f-48e4-babe-f93a6fdf0d20","ios":"levelo://app?vid=9cfc09f0-d43f-48e4-babe-f93a6fdf0d20"},"vehicle_type_id":"4","last_reported":1734383299,"current_range_meters":12400,"station_id":"ce4bhb12rcd13ifvqel0","pricing_plan_id":"cebpf4jnsgd1na2vs0mg"},{"bike_id":"4a362138-7fa3-4e22-886c-fe544747f1fc","system_id":"levelo_inurba_marseille","lat":43.28953,"lon":5.36395,"is_reserved":false,"is_disabled":false,"rental_uris":{"android":"levelo://app?vid=4a362138-7fa3-4e22-886c-fe544747f1fc","ios":"levelo://app?vid=4a362138-7fa3-4e22-886c-fe544747f1fc"},"vehicle_type_id":"4","last_reported":1734383299,"current_range_meters":26800,"station_id":"ce4bhc92rcd13ifvqetg","pricing_plan_id":"cebpf4jnsgd1na2vs0mg"},{"bike_id":"003d4e3a-a4f7-4446-a02e-430813fd1656","system_id":"levelo_inurba_marseille","lat":43.29195,"lon":5.39332,"is_reserved":false,"is_disabled":false,"rental_uris":{"android":"levelo://app?vid=003d4e3a-a4f7-4446-a02e-430813fd1656","ios":"levelo://app?vid=003d4e3a-a4f7-4446-a02e-430813fd1656"},"vehicle_type_id":"4","last_reported":1734383299,"current_range_meters":32000,"station_id":"ce4bh192rcd13ifvqdd0","pricing_plan_id":"cebpf4jnsgd1na2vs0mg"},{"bike_id":"e9e7807d-fbf4-40c3-a707-f9babe7d56c2","system_id":"levelo_inurba_marseille","lat":43.28611,"lon":5.37071,"is_reserved":false,"is_disabled":true,"rental_uris":{"android":"levelo://app?vid=e9e7807d-fbf4-40c3-a707-f9babe7d56c2","ios":"levelo://app?vid=e9e7807d-fbf4-40c3-a707-f9babe7d56c2"},"vehicle_type_id":"4","last_reported":1734383299,"current_range_meters":400,"station_id":"","pricing_plan_id":"cebpf4jnsgd1na2vs0mg"},{"bike_id":"8275f4eb-07eb-44a4-8bd8-4036a333488d","system_id":"levelo_inurba_marseille","lat":43.25121,"lon":5.40312,"is_reserved":false,"is_disabled":false,"rental_uris":{"android":"levelo://app?vid=8275f4eb-07eb-44a4-8bd8-4036a333488d","ios":"levelo://app?vid=8275f4eb-07eb-44a4-8bd8-4036a333488d"},"vehicle_type_id":"4","last_reported":1734383299,"current_range_meters":38400,"station_id":"ce4bhlh2rcd13ifvqgig","pricing_plan_id":"cebpf4jnsgd1na2vs0mg"},{"bike_id":"c3e06171-606e-48df-8fdf-8daebe9ad97f","system_id":"levelo_inurba_marseille","lat":43.23189,"lon":5.39993,"is_reserved":false,"is_disabled":false,"rental_uris":{"android":"levelo://app?vid=c3e06171-606e-48df-8fdf-8daebe9ad97f","ios":"levelo://app?vid=c3e06171-606e-48df-8fdf-8daebe9ad97f"},"vehicle_type_id":"4","last_reported":1734383299,"current_range_meters":38800,"station_id":"ce4bhn12rcd13ifvqgqg","pricing_plan_id":"cebpf4jnsgd1na2vs0mg"},{"bike_id":"daa7a7e5-85ea-49fc-9cd3-8caf5d515906","system_id":"levelo_inurba_marseille","lat":43.26674,"lon":5.38273,"is_reserved":false,"is_disabled":false,"rental_uris":{"android":"levelo://app?vid=daa7a7e5-85ea-49fc-9cd3-8caf5d515906","ios":"levelo://app?vid=daa7a7e5-85ea-49fc-9cd3-8caf5d515906"},"vehicle_type_id":"4","last_reported":1734383299,"current_range_meters":38000,"station_id":"ce4bhg92rcd13ifvqf90","pricing_plan_id":"cebpf4jnsgd1na2vs0mg"},{"bike_id":"bd168a6d-5e16-40ad-8fac-b334382e3599","system_id":"levelo_inurba_marseille","lat":43.28672,"lon":5.38667,"is_reserved":false,"is_disabled":false,"rental_uris":{"android":"levelo://app?vid=bd168a6d-5e16-40ad-8fac-b334382e3599","ios":"levelo://app?vid=bd168a6d-5e16-40ad-8fac-b334382e3599"},"vehicle_type_id":"4","last_reported":1734383299,"current_range_meters":38800,"station_id":"ce4bh492rcd13ifvqdug","pricing_plan_id":"cebpf4jnsgd1na2vs0mg"},{"bike_id":"87ee05a6-7bf0-4b2d-98c3-db5d2162d893","system_id":"levelo_inurba_marseille","lat":43.29986,"lon":5.3718,"is_reserved":false,"is_disabled":false,"rental_uris":{"android":"levelo://app?vid=87ee05a6-7bf0-4b2d-98c3-db5d2162d893","ios":"levelo://app?vid=87ee05a6-7bf0-4b2d-98c3-db5d2162d893"},"vehicle_type_id":"4","last_reported":1734383299,"current_range_meters":37600,"station_id":"ce4bgr92rcd13ifvqc7g","pricing_plan_id":"cebpf4jnsgd1na2vs0mg"},{"bike_id":"cc02c1d6-fc9b-48b4-a208-7b79288b938f","system_id":"levelo_inurba_marseille","lat":43.28858,"lon":5.35855,"is_reserved":false,"is_disabled":false,"rental_uris":{"android":"levelo://app?vid=cc02c1d6-fc9b-48b4-a208-7b79288b938f","ios":"levelo://app?vid=cc02c1d6-fc9b-48b4-a208-7b79288b938f"},"vehicle_type_id":"4","last_reported":1734383299,"current_range_meters":36000,"station_id":"ce4bhb12rcd13ifvqem0","pricing_plan_id":"cebpf4jnsgd1na2vs0mg"},{"bike_id":"e4ca665a-4e73-436b-9d10-f2a90d02d397","system_id":"levelo_inurba_marseille","lat":43.29903,"lon":5.43675,"is_reserved":false,"is_disabled":false,"rental_uris":{"android":"levelo://app?vid=e4ca665a-4e73-436b-9d10-f2a90d02d397","ios":"levelo://app?vid=e4ca665a-4e73-436b-9d10-f2a90d02d397"},"vehicle_type_id":"4","last_reported":1734383299,"current_range_meters":9200,"station_id":"ce4bhpp2rcd13ifvqhfg","pricing_plan_id":"cebpf4jnsgd1na2vs0mg"},{"bike_id":"f90a56d8-6b58-4667-b1e0-9be9da1c9d3e","system_id":"levelo_inurba_marseille","lat":43.28935,"lon":5.37913,"is_reserved":false,"is_disabled":true,"rental_uris":{"android":"levelo://app?vid=f90a56d8-6b58-4667-b1e0-9be9da1c9d3e","ios":"levelo://app?vid=f90a56d8-6b58-4667-b1e0-9be9da1c9d3e"},"vehicle_type_id":"4","last_reported":1734383299,"current_range_meters":30400,"station_id":"","pricing_plan_id":"cebpf4jnsgd1na2vs0mg"},{"bike_id":"5f6eb590-8538-4553-9168-c607847a5110","system_id":"levelo_inurba_marseille","lat":43.29293,"lon":5.37143,"is_reserved":false,"is_disabled":false,"rental_uris":{"android":"levelo://app?vid=5f6eb590-8538-4553-9168-c607847a5110","ios":"levelo://app?vid=5f6eb590-8538-4553-9168-c607847a5110"},"vehicle_type_id":"4","last_reported":1734383299,"current_range_meters":36400,"station_id":"ce4bgh92rcd13ifvqb40","pricing_plan_id":"cebpf4jnsgd1na2vs0mg"},{"bike_id":"bdf03904-f577-4e84-9453-639824ad38e3","system_id":"levelo_inurba_marseille","lat":43.29635,"lon":5.40594,"is_reserved":false,"is_disabled":false,"rental_uris":{"android":"levelo://app?vid=bdf03904-f577-4e84-9453-639824ad38e3","ios":"levelo://app?vid=bdf03904-f577-4e84-9453-639824ad38e3"},"vehicle_type_id":"4","last_reported":1734383299,"current_range_meters":24800,"station_id":"ce4bh0h2rcd13ifvqd60","pricing_plan_id":"cebpf4jnsgd1na2vs0mg"},{"bike_id":"0c281ba5-3f42-4962-a4d8-5f995bbb41ad","system_id":"levelo_inurba_marseille","lat":43.29006,"lon":5.35613,"is_reserved":false,"is_disabled":false,"rental_uris":{"android":"levelo://app?vid=0c281ba5-3f42-4962-a4d8-5f995bbb41ad","ios":"levelo://app?vid=0c281ba5-3f42-4962-a4d8-5f995bbb41ad"},"vehicle_type_id":"4","last_reported":1734383299,"current_range_meters":37600,"station_id":"ce4bhb92rcd13ifvqen0","pricing_plan_id":"cebpf4jnsgd1na2vs0mg"},{"bike_id":"e2fa2199-d3dd-47c3-8996-03d11144708e","system_id":"levelo_inurba_marseille","lat":43.33025,"lon":5.39043,"is_reserved":false,"is_disabled":false,"rental_uris":{"android":"levelo://app?vid=e2fa2199-d3dd-47c3-8996-03d11144708e","ios":"levelo://app?vid=e2fa2199-d3dd-47c3-8996-03d11144708e"},"vehicle_type_id":"4","last_reported":1734383299,"current_range_meters":38800,"station_id":"ce4bhr92rcd13ifvqhrg","pricing_plan_id":"cebpf4jnsgd1na2vs0mg"},{"bike_id":"cc236266-b4a4-4242-9542-29d54f50c8e0","system_id":"levelo_inurba_marseille","lat":43.31173,"lon":5.38714,"is_reserved":false,"is_disabled":false,"rental_uris":{"android":"levelo://app?vid=cc236266-b4a4-4242-9542-29d54f50c8e0","ios":"levelo://app?vid=cc236266-b4a4-4242-9542-29d54f50c8e0"},"vehicle_type_id":"4","last_reported":1734383299,"current_range_meters":36800,"station_id":"ce4bgv12rcd13ifvqcp0","pricing_plan_id":"cebpf4jnsgd1na2vs0mg"},{"bike_id":"9d5025cd-fba9-4173-97e1-894d9711e9af","system_id":"levelo_inurba_marseille","lat":43.28665,"lon":5.36352,"is_reserved":false,"is_disabled":false,"rental_uris":{"android":"levelo://app?vid=9d5025cd-fba9-4173-97e1-894d9711e9af","ios":"levelo://app?vid=9d5025cd-fba9-4173-97e1-894d9711e9af"},"vehicle_type_id":"4","last_reported":1734383299,"current_range_meters":29600,"station_id":"ce4bhah2rcd13ifvqej0","pricing_plan_id":"cebpf4jnsgd1na2vs0mg"},{"bike_id":"c3123191-8af3-4905-b6f5-28cd8730b742","system_id":"levelo_inurba_marseille","lat":43.313284,"lon":5.396863,"is_reserved":false,"is_disabled":false,"rental_uris":{"android":"levelo://app?vid=c3123191-8af3-4905-b6f5-28cd8730b742","ios":"levelo://app?vid=c3123191-8af3-4905-b6f5-28cd8730b742"},"vehicle_type_id":"4","last_reported":1734383299,"current_range_meters":32400,"station_id":"ce4bgvp2rcd13ifvqcu0","pricing_plan_id":"cebpf4jnsgd1na2vs0mg"},{"bike_id":"0854f93a-27ef-4312-bd8f-be30bba0059f","system_id":"levelo_inurba_marseille","lat":43.28698,"lon":5.35117,"is_reserved":false,"is_disabled":true,"rental_uris":{"android":"levelo://app?vid=0854f93a-27ef-4312-bd8f-be30bba0059f","ios":"levelo://app?vid=0854f93a-27ef-4312-bd8f-be30bba0059f"},"vehicle_type_id":"4","last_reported":1734383299,"current_range_meters":27200,"station_id":"","pricing_plan_id":"cebpf4jnsgd1na2vs0mg"},{"bike_id":"1d94fcbf-d626-434e-b8ab-055af36da271","system_id":"levelo_inurba_marseille","lat":43.30605,"lon":5.39354,"is_reserved":false,"is_disabled":false,"rental_uris":{"android":"levelo://app?vid=1d94fcbf-d626-434e-b8ab-055af36da271","ios":"levelo://app?vid=1d94fcbf-d626-434e-b8ab-055af36da271"},"vehicle_type_id":"4","last_reported":1734383299,"current_range_meters":38400,"station_id":"ce4bh0p2rcd13ifvqd80","pricing_plan_id":"cebpf4jnsgd1na2vs0mg"},{"bike_id":"b89cace3-fd84-4fd5-b7d4-63c8d0b748f3","system_id":"levelo_inurba_marseille","lat":43.30146,"lon":5.39878,"is_reserved":false,"is_disabled":false,"rental_uris":{"android":"levelo://app?vid=b89cace3-fd84-4fd5-b7d4-63c8d0b748f3","ios":"levelo://app?vid=b89cace3-fd84-4fd5-b7d4-63c8d0b748f3"},"vehicle_type_id":"4","last_reported":1734383299,"current_range_meters":37600,"station_id":"ce4bh0h2rcd13ifvqd40","pricing_plan_id":"cebpf4jnsgd1na2vs0mg"},{"bike_id":"c4270ea9-5ce6-4111-8dc1-8ae345013bb1","system_id":"levelo_inurba_marseille","lat":43.27182,"lon":5.40992,"is_reserved":false,"is_disabled":false,"rental_uris":{"android":"levelo://app?vid=c4270ea9-5ce6-4111-8dc1-8ae345013bb1","ios":"levelo://app?vid=c4270ea9-5ce6-4111-8dc1-8ae345013bb1"},"vehicle_type_id":"4","last_reported":1734383299,"current_range_meters":14800,"station_id":"ce4bhl12rcd13ifvqgf0","pricing_plan_id":"cebpf4jnsgd1na2vs0mg"},{"bike_id":"c0a0c9e6-d71d-42e0-9b1f-2849721da8f4","system_id":"levelo_inurba_marseille","lat":43.27169,"lon":5.40981,"is_reserved":false,"is_disabled":false,"rental_uris":{"android":"levelo://app?vid=c0a0c9e6-d71d-42e0-9b1f-2849721da8f4","ios":"levelo://app?vid=c0a0c9e6-d71d-42e0-9b1f-2849721da8f4"},"vehicle_type_id":"4","last_reported":1734383299,"current_range_meters":23200,"station_id":"ce4bhl12rcd13ifvqgf0","pricing_plan_id":"cebpf4jnsgd1na2vs0mg"},{"bike_id":"4307528f-73ef-4ebb-ab88-bcab69796fe2","system_id":"levelo_inurba_marseille","lat":43.30592,"lon":5.3935,"is_reserved":false,"is_disabled":false,"rental_uris":{"android":"levelo://app?vid=4307528f-73ef-4ebb-ab88-bcab69796fe2","ios":"levelo://app?vid=4307528f-73ef-4ebb-ab88-bcab69796fe2"},"vehicle_type_id":"4","last_reported":1734383299,"current_range_meters":14400,"station_id":"ce4bh0p2rcd13ifvqd80","pricing_plan_id":"cebpf4jnsgd1na2vs0mg"},{"bike_id":"d9f638ef-8ccb-454e-adae-4e085f7e7956","system_id":"levelo_inurba_marseille","lat":43.24387,"lon":5.37052,"is_reserved":false,"is_disabled":false,"rental_uris":{"android":"levelo://app?vid=d9f638ef-8ccb-454e-adae-4e085f7e7956","ios":"levelo://app?vid=d9f638ef-8ccb-454e-adae-4e085f7e7956"},"vehicle_type_id":"4","last_reported":1734383299,"current_range_meters":31200,"station_id":"ce4bhhh2rcd13ifvqfk0","pricing_plan_id":"cebpf4jnsgd1na2vs0mg"},{"bike_id":"332b3da9-15f1-4150-86c9-6ed6f89ec037","system_id":"levelo_inurba_marseille","lat":43.30294,"lon":5.39175,"is_reserved":false,"is_disabled":false,"rental_uris":{"android":"levelo://app?vid=332b3da9-15f1-4150-86c9-6ed6f89ec037","ios":"levelo://app?vid=332b3da9-15f1-4150-86c9-6ed6f89ec037"},"vehicle_type_id":"4","last_reported":1734383299,"current_range_meters":38800,"station_id":"ce4bgkh2rcd13ifvqbk0","pricing_plan_id":"cebpf4jnsgd1na2vs0mg"},{"bike_id":"209bd16c-28da-4aaf-91b3-949cf5d910d0","system_id":"levelo_inurba_marseille","lat":43.2926,"lon":5.3843,"is_reserved":false,"is_disabled":true,"rental_uris":{"android":"levelo://app?vid=209bd16c-28da-4aaf-91b3-949cf5d910d0","ios":"levelo://app?vid=209bd16c-28da-4aaf-91b3-949cf5d910d0"},"vehicle_type_id":"4","last_reported":1734383299,"current_range_meters":23200,"station_id":"ce4bh692rcd13ifvqea0","pricing_plan_id":"cebpf4jnsgd1na2vs0mg"},{"bike_id":"14270be7-87cd-4bad-92bc-7f49cbd5cacd","system_id":"levelo_inurba_marseille","lat":43.2815,"lon":5.4265,"is_reserved":false,"is_disabled":false,"rental_uris":{"android":"levelo://app?vid=14270be7-87cd-4bad-92bc-7f49cbd5cacd","ios":"levelo://app?vid=14270be7-87cd-4bad-92bc-7f49cbd5cacd"},"vehicle_type_id":"4","last_reported":1734383299,"current_range_meters":12400,"station_id":"ce4bhnh2rcd13ifvqgug","pricing_plan_id":"cebpf4jnsgd1na2vs0mg"},{"bike_id":"df54a5ae-50a4-4d43-8e26-b4c7d23b9d25","system_id":"levelo_inurba_marseille","lat":43.29906,"lon":5.39756,"is_reserved":false,"is_disabled":false,"rental_uris":{"android":"levelo://app?vid=df54a5ae-50a4-4d43-8e26-b4c7d23b9d25","ios":"levelo://app?vid=df54a5ae-50a4-4d43-8e26-b4c7d23b9d25"},"vehicle_type_id":"4","last_reported":1734383299,"current_range_meters":36800,"station_id":"","pricing_plan_id":"cebpf4jnsgd1na2vs0mg"},{"bike_id":"7b70bd7c-233a-4d42-9c2b-cff9df18c3b2","system_id":"levelo_inurba_marseille","lat":43.29276,"lon":5.40114,"is_reserved":false,"is_disabled":false,"rental_uris":{"android":"levelo://app?vid=7b70bd7c-233a-4d42-9c2b-cff9df18c3b2","ios":"levelo://app?vid=7b70bd7c-233a-4d42-9c2b-cff9df18c3b2"},"vehicle_type_id":"4","last_reported":1734383299,"current_range_meters":25600,"station_id":"ce4bh312rcd13ifvqdk0","pricing_plan_id":"cebpf4jnsgd1na2vs0mg"},{"bike_id":"6dc12bc7-0b16-482f-a25e-f5332cdc3f10","system_id":"levelo_inurba_marseille","lat":43.32923,"lon":5.38012,"is_reserved":false,"is_disabled":false,"rental_uris":{"android":"levelo://app?vid=6dc12bc7-0b16-482f-a25e-f5332cdc3f10","ios":"levelo://app?vid=6dc12bc7-0b16-482f-a25e-f5332cdc3f10"},"vehicle_type_id":"4","last_reported":1734383299,"current_range_meters":24400,"station_id":"","pricing_plan_id":"cebpf4jnsgd1na2vs0mg"},{"bike_id":"9595ff7a-ff62-488c-b31c-ab18b0cf92a2","system_id":"levelo_inurba_marseille","lat":43.2396,"lon":5.36637,"is_reserved":false,"is_disabled":false,"rental_uris":{"android":"levelo://app?vid=9595ff7a-ff62-488c-b31c-ab18b0cf92a2","ios":"levelo://app?vid=9595ff7a-ff62-488c-b31c-ab18b0cf92a2"},"vehicle_type_id":"4","last_reported":1734383299,"current_range_meters":38800,"station_id":"ce4bhi12rcd13ifvqfp0","pricing_plan_id":"cebpf4jnsgd1na2vs0mg"},{"bike_id":"c34dbfae-d24a-4cc9-a452-f7552365bc01","system_id":"levelo_inurba_marseille","lat":43.29008,"lon":5.35618,"is_reserved":false,"is_disabled":false,"rental_uris":{"android":"levelo://app?vid=c34dbfae-d24a-4cc9-a452-f7552365bc01","ios":"levelo://app?vid=c34dbfae-d24a-4cc9-a452-f7552365bc01"},"vehicle_type_id":"4","last_reported":1734383299,"current_range_meters":36800,"station_id":"ce4bhb92rcd13ifvqen0","pricing_plan_id":"cebpf4jnsgd1na2vs0mg"},{"bike_id":"3fb6596b-b720-4e37-88d1-377c7a736425","system_id":"levelo_inurba_marseille","lat":43.23196,"lon":5.35557,"is_reserved":false,"is_disabled":false,"rental_uris":{"android":"levelo://app?vid=3fb6596b-b720-4e37-88d1-377c7a736425","ios":"levelo://app?vid=3fb6596b-b720-4e37-88d1-377c7a736425"},"vehicle_type_id":"4","last_reported":1734383299,"current_range_meters":39200,"station_id":"ce4bhu92rcd13ifvqi70","pricing_plan_id":"cebpf4jnsgd1na2vs0mg"},{"bike_id":"8914bb17-7251-4066-b905-d58eaff8838d","system_id":"levelo_inurba_marseille","lat":43.27175,"lon":5.40989,"is_reserved":false,"is_disabled":false,"rental_uris":{"android":"levelo://app?vid=8914bb17-7251-4066-b905-d58eaff8838d","ios":"levelo://app?vid=8914bb17-7251-4066-b905-d58eaff8838d"},"vehicle_type_id":"4","last_reported":1734383299,"current_range_meters":28400,"station_id":"ce4bhl12rcd13ifvqgf0","pricing_plan_id":"cebpf4jnsgd1na2vs0mg"},{"bike_id":"8ee62417-ba9c-4b61-84a5-5bd7e2cbee2e","system_id":"levelo_inurba_marseille","lat":43.337444,"lon":5.374475,"is_reserved":false,"is_disabled":true,"rental_uris":{"android":"levelo://app?vid=8ee62417-ba9c-4b61-84a5-5bd7e2cbee2e","ios":"levelo://app?vid=8ee62417-ba9c-4b61-84a5-5bd7e2cbee2e"},"vehicle_type_id":"4","last_reported":1734383299,"current_range_meters":0,"station_id":"","pricing_plan_id":"cebpf4jnsgd1na2vs0mg"},{"bike_id":"20c4d571-f9f9-426e-8c0f-9955d737fd82","system_id":"levelo_inurba_marseille","lat":43.26802,"lon":5.40259,"is_reserved":false,"is_disabled":false,"rental_uris":{"android":"levelo://app?vid=20c4d571-f9f9-426e-8c0f-9955d737fd82","ios":"levelo://app?vid=20c4d571-f9f9-426e-8c0f-9955d737fd82"},"vehicle_type_id":"4","last_reported":1734383299,"current_range_meters":12800,"station_id":"ce501612rcd8frsf0b60","pricing_plan_id":"cebpf4jnsgd1na2vs0mg"},{"bike_id":"d2294c64-af77-450b-b299-fc06315dbf1a","system_id":"levelo_inurba_marseille","lat":43.29308,"lon":5.37184,"is_reserved":false,"is_disabled":true,"rental_uris":{"android":"levelo://app?vid=d2294c64-af77-450b-b299-fc06315dbf1a","ios":"levelo://app?vid=d2294c64-af77-450b-b299-fc06315dbf1a"},"vehicle_type_id":"4","last_reported":1734383299,"current_range_meters":21600,"station_id":"ce4bgh92rcd13ifvqb40","pricing_plan_id":"cebpf4jnsgd1na2vs0mg"},{"bike_id":"efc57f04-4351-4676-97a0-14c3c2859977","system_id":"levelo_inurba_marseille","lat":43.29587,"lon":5.36765,"is_reserved":false,"is_disabled":false,"rental_uris":{"android":"levelo://app?vid=efc57f04-4351-4676-97a0-14c3c2859977","ios":"levelo://app?vid=efc57f04-4351-4676-97a0-14c3c2859977"},"vehicle_type_id":"4","last_reported":1734383299,"current_range_meters":38800,"station_id":"ce4bgph2rcd13ifvqc2g","pricing_plan_id":"cebpf4jnsgd1na2vs0mg"},{"bike_id":"056177a6-f3a6-40fa-80e0-574bf5840c95","system_id":"levelo_inurba_marseille","lat":43.28356,"lon":5.3862,"is_reserved":false,"is_disabled":true,"rental_uris":{"android":"levelo://app?vid=056177a6-f3a6-40fa-80e0-574bf5840c95","ios":"levelo://app?vid=056177a6-f3a6-40fa-80e0-574bf5840c95"},"vehicle_type_id":"4","last_reported":1734383299,"current_range_meters":28400,"station_id":"ce4bh492rcd13ifvqdvg","pricing_plan_id":"cebpf4jnsgd1na2vs0mg"},{"bike_id":"2a03e7a9-e623-43fe-99c0-8c16e6af2b40","system_id":"levelo_inurba_marseille","lat":43.26997,"lon":5.39867,"is_reserved":false,"is_disabled":false,"rental_uris":{"android":"levelo://app?vid=2a03e7a9-e623-43fe-99c0-8c16e6af2b40","ios":"levelo://app?vid=2a03e7a9-e623-43fe-99c0-8c16e6af2b40"},"vehicle_type_id":"4","last_reported":1734383299,"current_range_meters":15200,"station_id":"","pricing_plan_id":"cebpf4jnsgd1na2vs0mg"},{"bike_id":"99a1ad5f-7cf5-4a99-a829-fd14da29489f","system_id":"levelo_inurba_marseille","lat":43.31125,"lon":5.37783,"is_reserved":false,"is_disabled":false,"rental_uris":{"android":"levelo://app?vid=99a1ad5f-7cf5-4a99-a829-fd14da29489f","ios":"levelo://app?vid=99a1ad5f-7cf5-4a99-a829-fd14da29489f"},"vehicle_type_id":"4","last_reported":1734383299,"current_range_meters":28800,"station_id":"ce4bgt92rcd13ifvqcg0","pricing_plan_id":"cebpf4jnsgd1na2vs0mg"},{"bike_id":"b10d48f1-c7ec-4c0f-a97b-b71c2f6a750b","system_id":"levelo_inurba_marseille","lat":43.28938,"lon":5.36401,"is_reserved":false,"is_disabled":false,"rental_uris":{"android":"levelo://app?vid=b10d48f1-c7ec-4c0f-a97b-b71c2f6a750b","ios":"levelo://app?vid=b10d48f1-c7ec-4c0f-a97b-b71c2f6a750b"},"vehicle_type_id":"4","last_reported":1734383299,"current_range_meters":19200,"station_id":"ce4bhc92rcd13ifvqetg","pricing_plan_id":"cebpf4jnsgd1na2vs0mg"},{"bike_id":"d82023e7-5914-44f9-8b97-0992779a3467","system_id":"levelo_inurba_marseille","lat":43.24552,"lon":5.39531,"is_reserved":false,"is_disabled":false,"rental_uris":{"android":"levelo://app?vid=d82023e7-5914-44f9-8b97-0992779a3467","ios":"levelo://app?vid=d82023e7-5914-44f9-8b97-0992779a3467"},"vehicle_type_id":"4","last_reported":1734383299,"current_range_meters":38800,"station_id":"ce4bhlp2rcd13ifvqgjg","pricing_plan_id":"cebpf4jnsgd1na2vs0mg"},{"bike_id":"0e2e421d-cab6-4bab-ab43-0de2daec6dd5","system_id":"levelo_inurba_marseille","lat":43.278805,"lon":5.388003,"is_reserved":false,"is_disabled":true,"rental_uris":{"android":"levelo://app?vid=0e2e421d-cab6-4bab-ab43-0de2daec6dd5","ios":"levelo://app?vid=0e2e421d-cab6-4bab-ab43-0de2daec6dd5"},"vehicle_type_id":"4","last_reported":1734383299,"current_range_meters":0,"station_id":"","pricing_plan_id":"cebpf4jnsgd1na2vs0mg"},{"bike_id":"bf85f0b9-c86c-43a7-bfe7-23af3028a90a","system_id":"levelo_inurba_marseille","lat":43.25579,"lon":5.38238,"is_reserved":false,"is_disabled":false,"rental_uris":{"android":"levelo://app?vid=bf85f0b9-c86c-43a7-bfe7-23af3028a90a","ios":"levelo://app?vid=bf85f0b9-c86c-43a7-bfe7-23af3028a90a"},"vehicle_type_id":"4","last_reported":1734383299,"current_range_meters":32000,"station_id":"ce4bhih2rcd13ifvqfs0","pricing_plan_id":"cebpf4jnsgd1na2vs0mg"},{"bike_id":"25c0c336-834d-421d-b66d-e51c42a0ba97","system_id":"levelo_inurba_marseille","lat":43.30725,"lon":5.36815,"is_reserved":false,"is_disabled":false,"rental_uris":{"android":"levelo://app?vid=25c0c336-834d-421d-b66d-e51c42a0ba97","ios":"levelo://app?vid=25c0c336-834d-421d-b66d-e51c42a0ba97"},"vehicle_type_id":"4","last_reported":1734383299,"current_range_meters":22400,"station_id":"","pricing_plan_id":"cebpf4jnsgd1na2vs0mg"},{"bike_id":"048041f3-0a08-4bb3-967a-efe1acd6593e","system_id":"levelo_inurba_marseille","lat":43.25524,"lon":5.37582,"is_reserved":false,"is_disabled":false,"rental_uris":{"android":"levelo://app?vid=048041f3-0a08-4bb3-967a-efe1acd6593e","ios":"levelo://app?vid=048041f3-0a08-4bb3-967a-efe1acd6593e"},"vehicle_type_id":"4","last_reported":1734383299,"current_range_meters":38800,"station_id":"ce4bhh12rcd13ifvqff0","pricing_plan_id":"cebpf4jnsgd1na2vs0mg"},{"bike_id":"769642ea-8def-4344-aba0-61135444c5d1","system_id":"levelo_inurba_marseille","lat":43.30336,"lon":5.40032,"is_reserved":false,"is_disabled":false,"rental_uris":{"android":"levelo://app?vid=769642ea-8def-4344-aba0-61135444c5d1","ios":"levelo://app?vid=769642ea-8def-4344-aba0-61135444c5d1"},"vehicle_type_id":"4","last_reported":1734383299,"current_range_meters":26800,"station_id":"ce4bgvh2rcd13ifvqcs0","pricing_plan_id":"cebpf4jnsgd1na2vs0mg"},{"bike_id":"54a85025-694f-47a0-8f8f-7005fb77c937","system_id":"levelo_inurba_marseille","lat":43.28082,"lon":5.39648,"is_reserved":false,"is_disabled":false,"rental_uris":{"android":"levelo://app?vid=54a85025-694f-47a0-8f8f-7005fb77c937","ios":"levelo://app?vid=54a85025-694f-47a0-8f8f-7005fb77c937"},"vehicle_type_id":"4","last_reported":1734383299,"current_range_meters":37600,"station_id":"ce4bho12rcd13ifvqh2g","pricing_plan_id":"cebpf4jnsgd1na2vs0mg"},{"bike_id":"d91e2578-e2ed-4931-9142-db3aa779df9b","system_id":"levelo_inurba_marseille","lat":43.27818,"lon":5.392,"is_reserved":false,"is_disabled":false,"rental_uris":{"android":"levelo://app?vid=d91e2578-e2ed-4931-9142-db3aa779df9b","ios":"levelo://app?vid=d91e2578-e2ed-4931-9142-db3aa779df9b"},"vehicle_type_id":"4","last_reported":1734383299,"current_range_meters":25600,"station_id":"ce4bhjp2rcd13ifvqga0","pricing_plan_id":"cebpf4jnsgd1na2vs0mg"},{"bike_id":"584b569e-7298-4afe-b48b-612c38273697","system_id":"levelo_inurba_marseille","lat":43.3107,"lon":5.38347,"is_reserved":false,"is_disabled":true,"rental_uris":{"android":"levelo://app?vid=584b569e-7298-4afe-b48b-612c38273697","ios":"levelo://app?vid=584b569e-7298-4afe-b48b-612c38273697"},"vehicle_type_id":"4","last_reported":1734383299,"current_range_meters":0,"station_id":"ce4bgv92rcd13ifvqcr0","pricing_plan_id":"cebpf4jnsgd1na2vs0mg"},{"bike_id":"6fcca420-7b9a-4500-9580-675e569a2a96","system_id":"levelo_inurba_marseille","lat":43.26556,"lon":5.37306,"is_reserved":false,"is_disabled":false,"rental_uris":{"android":"levelo://app?vid=6fcca420-7b9a-4500-9580-675e569a2a96","ios":"levelo://app?vid=6fcca420-7b9a-4500-9580-675e569a2a96"},"vehicle_type_id":"4","last_reported":1734383299,"current_range_meters":25200,"station_id":"ce4bhg12rcd13ifvqf70","pricing_plan_id":"cebpf4jnsgd1na2vs0mg"},{"bike_id":"120abb77-5811-4e7b-9581-8e972edf37fd","system_id":"levelo_inurba_marseille","lat":43.297826,"lon":5.371039,"is_reserved":false,"is_disabled":true,"rental_uris":{"android":"levelo://app?vid=120abb77-5811-4e7b-9581-8e972edf37fd","ios":"levelo://app?vid=120abb77-5811-4e7b-9581-8e972edf37fd"},"vehicle_type_id":"4","last_reported":1734383299,"current_range_meters":38800,"station_id":"ce4bgop2rcd13ifvqc1g","pricing_plan_id":"cebpf4jnsgd1na2vs0mg"},{"bike_id":"11600c38-dc3d-4aea-88bc-c214298d70f1","system_id":"levelo_inurba_marseille","lat":43.28465,"lon":5.35892,"is_reserved":false,"is_disabled":false,"rental_uris":{"android":"levelo://app?vid=11600c38-dc3d-4aea-88bc-c214298d70f1","ios":"levelo://app?vid=11600c38-dc3d-4aea-88bc-c214298d70f1"},"vehicle_type_id":"4","last_reported":1734383299,"current_range_meters":38000,"station_id":"ce4bhah2rcd13ifvqei0","pricing_plan_id":"cebpf4jnsgd1na2vs0mg"},{"bike_id":"2b15d063-7a3f-4ab1-9a96-79820bd042f5","system_id":"levelo_inurba_marseille","lat":43.30235,"lon":5.40081,"is_reserved":false,"is_disabled":true,"rental_uris":{"android":"levelo://app?vid=2b15d063-7a3f-4ab1-9a96-79820bd042f5","ios":"levelo://app?vid=2b15d063-7a3f-4ab1-9a96-79820bd042f5"},"vehicle_type_id":"4","last_reported":1734383299,"current_range_meters":19600,"station_id":"ce4bgvh2rcd13ifvqcs0","pricing_plan_id":"cebpf4jnsgd1na2vs0mg"},{"bike_id":"bfe5e067-4070-40f8-8cac-6448828a3f77","system_id":"levelo_inurba_marseille","lat":43.29863,"lon":5.39766,"is_reserved":false,"is_disabled":false,"rental_uris":{"android":"levelo://app?vid=bfe5e067-4070-40f8-8cac-6448828a3f77","ios":"levelo://app?vid=bfe5e067-4070-40f8-8cac-6448828a3f77"},"vehicle_type_id":"4","last_reported":1734383299,"current_range_meters":39200,"station_id":"ce4bh0h2rcd13ifvqd50","pricing_plan_id":"cebpf4jnsgd1na2vs0mg"},{"bike_id":"54c11d0c-45a0-42d8-8ca0-d10a61cb44e5","system_id":"levelo_inurba_marseille","lat":43.26561,"lon":5.37306,"is_reserved":false,"is_disabled":false,"rental_uris":{"android":"levelo://app?vid=54c11d0c-45a0-42d8-8ca0-d10a61cb44e5","ios":"levelo://app?vid=54c11d0c-45a0-42d8-8ca0-d10a61cb44e5"},"vehicle_type_id":"4","last_reported":1734383299,"current_range_meters":32400,"station_id":"ce4bhg12rcd13ifvqf70","pricing_plan_id":"cebpf4jnsgd1na2vs0mg"},{"bike_id":"f242655b-7364-45a2-a306-4028b49a3316","system_id":"levelo_inurba_marseille","lat":43.25503,"lon":5.3765,"is_reserved":false,"is_disabled":false,"rental_uris":{"android":"levelo://app?vid=f242655b-7364-45a2-a306-4028b49a3316","ios":"levelo://app?vid=f242655b-7364-45a2-a306-4028b49a3316"},"vehicle_type_id":"4","last_reported":1734383299,"current_range_meters":37600,"station_id":"ce4bhh12rcd13ifvqff0","pricing_plan_id":"cebpf4jnsgd1na2vs0mg"},{"bike_id":"2b0d00ea-e18e-4e2b-9087-38d7d88e3458","system_id":"levelo_inurba_marseille","lat":43.28939,"lon":5.36391,"is_reserved":false,"is_disabled":false,"rental_uris":{"android":"levelo://app?vid=2b0d00ea-e18e-4e2b-9087-38d7d88e3458","ios":"levelo://app?vid=2b0d00ea-e18e-4e2b-9087-38d7d88e3458"},"vehicle_type_id":"4","last_reported":1734383299,"current_range_meters":28800,"station_id":"ce4bhc92rcd13ifvqetg","pricing_plan_id":"cebpf4jnsgd1na2vs0mg"},{"bike_id":"8c7e2759-1761-4283-8484-bda9243b869e","system_id":"levelo_inurba_marseille","lat":43.32486,"lon":5.36573,"is_reserved":false,"is_disabled":false,"rental_uris":{"android":"levelo://app?vid=8c7e2759-1761-4283-8484-bda9243b869e","ios":"levelo://app?vid=8c7e2759-1761-4283-8484-bda9243b869e"},"vehicle_type_id":"4","last_reported":1734383299,"current_range_meters":27200,"station_id":"ce4bhs12rcd13ifvqhvg","pricing_plan_id":"cebpf4jnsgd1na2vs0mg"},{"bike_id":"5e68685b-5a26-4a2c-81cf-c3ecf4f3378f","system_id":"levelo_inurba_marseille","lat":43.28454,"lon":5.35874,"is_reserved":false,"is_disabled":false,"rental_uris":{"android":"levelo://app?vid=5e68685b-5a26-4a2c-81cf-c3ecf4f3378f","ios":"levelo://app?vid=5e68685b-5a26-4a2c-81cf-c3ecf4f3378f"},"vehicle_type_id":"4","last_reported":1734383299,"current_range_meters":32800,"station_id":"ce4bhah2rcd13ifvqei0","pricing_plan_id":"cebpf4jnsgd1na2vs0mg"},{"bike_id":"d61bae2c-3c02-42a0-b633-59a2a43bbcf5","system_id":"levelo_inurba_marseille","lat":43.29879,"lon":5.39736,"is_reserved":false,"is_disabled":false,"rental_uris":{"android":"levelo://app?vid=d61bae2c-3c02-42a0-b633-59a2a43bbcf5","ios":"levelo://app?vid=d61bae2c-3c02-42a0-b633-59a2a43bbcf5"},"vehicle_type_id":"4","last_reported":1734383299,"current_range_meters":39200,"station_id":"ce4bh0h2rcd13ifvqd50","pricing_plan_id":"cebpf4jnsgd1na2vs0mg"},{"bike_id":"cb9d3536-f795-4ddb-81fe-64e7bf6e44b3","system_id":"levelo_inurba_marseille","lat":43.29297,"lon":5.40126,"is_reserved":false,"is_disabled":false,"rental_uris":{"android":"levelo://app?vid=cb9d3536-f795-4ddb-81fe-64e7bf6e44b3","ios":"levelo://app?vid=cb9d3536-f795-4ddb-81fe-64e7bf6e44b3"},"vehicle_type_id":"4","last_reported":1734383299,"current_range_meters":25600,"station_id":"ce4bh312rcd13ifvqdk0","pricing_plan_id":"cebpf4jnsgd1na2vs0mg"},{"bike_id":"d600d5f9-a3e6-4b94-ba8f-df9f8ed10059","system_id":"levelo_inurba_marseille","lat":43.24545,"lon":5.39521,"is_reserved":false,"is_disabled":false,"rental_uris":{"android":"levelo://app?vid=d600d5f9-a3e6-4b94-ba8f-df9f8ed10059","ios":"levelo://app?vid=d600d5f9-a3e6-4b94-ba8f-df9f8ed10059"},"vehicle_type_id":"4","last_reported":1734383299,"current_range_meters":15200,"station_id":"ce4bhlp2rcd13ifvqgjg","pricing_plan_id":"cebpf4jnsgd1na2vs0mg"},{"bike_id":"6bcea96b-2fd2-4aa6-b10c-d89cef8832d2","system_id":"levelo_inurba_marseille","lat":43.29263,"lon":5.40897,"is_reserved":false,"is_disabled":false,"rental_uris":{"android":"levelo://app?vid=6bcea96b-2fd2-4aa6-b10c-d89cef8832d2","ios":"levelo://app?vid=6bcea96b-2fd2-4aa6-b10c-d89cef8832d2"},"vehicle_type_id":"4","last_reported":1734383299,"current_range_meters":38000,"station_id":"ce4bh192rcd13ifvqdc0","pricing_plan_id":"cebpf4jnsgd1na2vs0mg"},{"bike_id":"76ec3642-6b04-4fa3-81b8-996f867e214d","system_id":"levelo_inurba_marseille","lat":43.241749,"lon":5.397017,"is_reserved":false,"is_disabled":true,"rental_uris":{"android":"levelo://app?vid=76ec3642-6b04-4fa3-81b8-996f867e214d","ios":"levelo://app?vid=76ec3642-6b04-4fa3-81b8-996f867e214d"},"vehicle_type_id":"4","last_reported":1734383299,"current_range_meters":16400,"station_id":"ce4bhn12rcd13ifvqgpg","pricing_plan_id":"cebpf4jnsgd1na2vs0mg"},{"bike_id":"b086f938-3dea-4025-a3c6-185d7dca2dfd","system_id":"levelo_inurba_marseille","lat":43.29621,"lon":5.37711,"is_reserved":false,"is_disabled":true,"rental_uris":{"android":"levelo://app?vid=b086f938-3dea-4025-a3c6-185d7dca2dfd","ios":"levelo://app?vid=b086f938-3dea-4025-a3c6-185d7dca2dfd"},"vehicle_type_id":"4","last_reported":1734383299,"current_range_meters":0,"station_id":"ce4bgi92rcd13ifvqb90","pricing_plan_id":"cebpf4jnsgd1na2vs0mg"},{"bike_id":"d97fe5f2-9491-4c9e-bede-890204658da0","system_id":"levelo_inurba_marseille","lat":43.28444,"lon":5.35882,"is_reserved":false,"is_disabled":false,"rental_uris":{"android":"levelo://app?vid=d97fe5f2-9491-4c9e-bede-890204658da0","ios":"levelo://app?vid=d97fe5f2-9491-4c9e-bede-890204658da0"},"vehicle_type_id":"4","last_reported":1734383299,"current_range_meters":38400,"station_id":"ce4bhah2rcd13ifvqei0","pricing_plan_id":"cebpf4jnsgd1na2vs0mg"},{"bike_id":"b38afd42-c0ab-4d89-bb51-653c55809745","system_id":"levelo_inurba_marseille","lat":43.31334,"lon":5.39697,"is_reserved":false,"is_disabled":false,"rental_uris":{"android":"levelo://app?vid=b38afd42-c0ab-4d89-bb51-653c55809745","ios":"levelo://app?vid=b38afd42-c0ab-4d89-bb51-653c55809745"},"vehicle_type_id":"4","last_reported":1734383299,"current_range_meters":39200,"station_id":"ce4bgvp2rcd13ifvqcu0","pricing_plan_id":"cebpf4jnsgd1na2vs0mg"},{"bike_id":"c23cd138-2a8f-4687-846c-ea5d55e0bd33","system_id":"levelo_inurba_marseille","lat":43.30121,"lon":5.39826,"is_reserved":false,"is_disabled":false,"rental_uris":{"android":"levelo://app?vid=c23cd138-2a8f-4687-846c-ea5d55e0bd33","ios":"levelo://app?vid=c23cd138-2a8f-4687-846c-ea5d55e0bd33"},"vehicle_type_id":"4","last_reported":1734383299,"current_range_meters":38800,"station_id":"ce4bh0h2rcd13ifvqd40","pricing_plan_id":"cebpf4jnsgd1na2vs0mg"},{"bike_id":"689314f8-8b91-45a3-a724-ebaceb481789","system_id":"levelo_inurba_marseille","lat":43.28406,"lon":5.37509,"is_reserved":false,"is_disabled":false,"rental_uris":{"android":"levelo://app?vid=689314f8-8b91-45a3-a724-ebaceb481789","ios":"levelo://app?vid=689314f8-8b91-45a3-a724-ebaceb481789"},"vehicle_type_id":"4","last_reported":1734383299,"current_range_meters":22800,"station_id":"ce4bh412rcd13ifvqds0","pricing_plan_id":"cebpf4jnsgd1na2vs0mg"},{"bike_id":"6b2019df-57c6-4717-bb28-99523c4cbdf8","system_id":"levelo_inurba_marseille","lat":43.29531,"lon":5.39035,"is_reserved":false,"is_disabled":true,"rental_uris":{"android":"levelo://app?vid=6b2019df-57c6-4717-bb28-99523c4cbdf8","ios":"levelo://app?vid=6b2019df-57c6-4717-bb28-99523c4cbdf8"},"vehicle_type_id":"4","last_reported":1734383299,"current_range_meters":8400,"station_id":"ce4bh3p2rcd13ifvqdp0","pricing_plan_id":"cebpf4jnsgd1na2vs0mg"},{"bike_id":"6c375720-a2b8-46d9-b3da-42d9eba51f5d","system_id":"levelo_inurba_marseille","lat":43.29037,"lon":5.38611,"is_reserved":false,"is_disabled":false,"rental_uris":{"android":"levelo://app?vid=6c375720-a2b8-46d9-b3da-42d9eba51f5d","ios":"levelo://app?vid=6c375720-a2b8-46d9-b3da-42d9eba51f5d"},"vehicle_type_id":"4","last_reported":1734383299,"current_range_meters":38800,"station_id":"ce4bh4p2rcd13ifvqe0g","pricing_plan_id":"cebpf4jnsgd1na2vs0mg"},{"bike_id":"0ff63b43-e762-4853-8e57-8ec84f36bda7","system_id":"levelo_inurba_marseille","lat":43.3117,"lon":5.38713,"is_reserved":false,"is_disabled":false,"rental_uris":{"android":"levelo://app?vid=0ff63b43-e762-4853-8e57-8ec84f36bda7","ios":"levelo://app?vid=0ff63b43-e762-4853-8e57-8ec84f36bda7"},"vehicle_type_id":"4","last_reported":1734383299,"current_range_meters":33600,"station_id":"ce4bgv12rcd13ifvqcp0","pricing_plan_id":"cebpf4jnsgd1na2vs0mg"},{"bike_id":"730a6134-88d8-47e4-be24-a87eaceaba81","system_id":"levelo_inurba_marseille","lat":43.27916,"lon":5.39542,"is_reserved":false,"is_disabled":false,"rental_uris":{"android":"levelo://app?vid=730a6134-88d8-47e4-be24-a87eaceaba81","ios":"levelo://app?vid=730a6134-88d8-47e4-be24-a87eaceaba81"},"vehicle_type_id":"4","last_reported":1734383299,"current_range_meters":38800,"station_id":"ce4bhf92rcd13ifvqf40","pricing_plan_id":"cebpf4jnsgd1na2vs0mg"},{"bike_id":"bb1c0ef0-184d-4b17-9016-88e561b3d27b","system_id":"levelo_inurba_marseille","lat":43.28615,"lon":5.35099,"is_reserved":false,"is_disabled":true,"rental_uris":{"android":"levelo://app?vid=bb1c0ef0-184d-4b17-9016-88e561b3d27b","ios":"levelo://app?vid=bb1c0ef0-184d-4b17-9016-88e561b3d27b"},"vehicle_type_id":"4","last_reported":1734383299,"current_range_meters":25600,"station_id":"ce4bhch2rcd13ifvqeug","pricing_plan_id":"cebpf4jnsgd1na2vs0mg"},{"bike_id":"63e53b98-acea-4a22-8d02-003944a706e6","system_id":"levelo_inurba_marseille","lat":43.25715,"lon":5.41117,"is_reserved":false,"is_disabled":false,"rental_uris":{"android":"levelo://app?vid=63e53b98-acea-4a22-8d02-003944a706e6","ios":"levelo://app?vid=63e53b98-acea-4a22-8d02-003944a706e6"},"vehicle_type_id":"4","last_reported":1734383299,"current_range_meters":38000,"station_id":"ce4bhkp2rcd13ifvqgd0","pricing_plan_id":"cebpf4jnsgd1na2vs0mg"},{"bike_id":"7464f61b-492b-4f2c-b3c0-c83417d5a111","system_id":"levelo_inurba_marseille","lat":43.31166,"lon":5.38722,"is_reserved":false,"is_disabled":false,"rental_uris":{"android":"levelo://app?vid=7464f61b-492b-4f2c-b3c0-c83417d5a111","ios":"levelo://app?vid=7464f61b-492b-4f2c-b3c0-c83417d5a111"},"vehicle_type_id":"4","last_reported":1734383299,"current_range_meters":11200,"station_id":"ce4bgv12rcd13ifvqcp0","pricing_plan_id":"cebpf4jnsgd1na2vs0mg"},{"bike_id":"44861a73-1a94-4497-ad37-285de7daa1ae","system_id":"levelo_inurba_marseille","lat":43.28041,"lon":5.36936,"is_reserved":false,"is_disabled":false,"rental_uris":{"android":"levelo://app?vid=44861a73-1a94-4497-ad37-285de7daa1ae","ios":"levelo://app?vid=44861a73-1a94-4497-ad37-285de7daa1ae"},"vehicle_type_id":"4","last_reported":1734383299,"current_range_meters":38800,"station_id":"ce4bha12rcd13ifvqef0","pricing_plan_id":"cebpf4jnsgd1na2vs0mg"},{"bike_id":"c5595fd0-fc8e-462b-8984-5c1c92ed35f5","system_id":"levelo_inurba_marseille","lat":43.29553,"lon":5.42305,"is_reserved":false,"is_disabled":true,"rental_uris":{"android":"levelo://app?vid=c5595fd0-fc8e-462b-8984-5c1c92ed35f5","ios":"levelo://app?vid=c5595fd0-fc8e-462b-8984-5c1c92ed35f5"},"vehicle_type_id":"4","last_reported":1734383299,"current_range_meters":0,"station_id":"ce4bhph2rcd13ifvqhdg","pricing_plan_id":"cebpf4jnsgd1na2vs0mg"},{"bike_id":"d17068e4-bff5-4619-b1b5-acf62ffb0fb1","system_id":"levelo_inurba_marseille","lat":43.288428,"lon":5.35857,"is_reserved":false,"is_disabled":false,"rental_uris":{"android":"levelo://app?vid=d17068e4-bff5-4619-b1b5-acf62ffb0fb1","ios":"levelo://app?vid=d17068e4-bff5-4619-b1b5-acf62ffb0fb1"},"vehicle_type_id":"4","last_reported":1734383299,"current_range_meters":30400,"station_id":"ce4bhb12rcd13ifvqem0","pricing_plan_id":"cebpf4jnsgd1na2vs0mg"},{"bike_id":"ebaa68e4-3d1b-47af-9a69-6f7f2246f6e7","system_id":"levelo_inurba_marseille","lat":43.24664,"lon":5.38169,"is_reserved":false,"is_disabled":true,"rental_uris":{"android":"levelo://app?vid=ebaa68e4-3d1b-47af-9a69-6f7f2246f6e7","ios":"levelo://app?vid=ebaa68e4-3d1b-47af-9a69-6f7f2246f6e7"},"vehicle_type_id":"4","last_reported":1734383299,"current_range_meters":38800,"station_id":"ce4bhih2rcd13ifvqfr0","pricing_plan_id":"cebpf4jnsgd1na2vs0mg"},{"bike_id":"16ff838f-1cdb-4ddb-b5eb-dde2105d633a","system_id":"levelo_inurba_marseille","lat":43.26557,"lon":5.37295,"is_reserved":false,"is_disabled":false,"rental_uris":{"android":"levelo://app?vid=16ff838f-1cdb-4ddb-b5eb-dde2105d633a","ios":"levelo://app?vid=16ff838f-1cdb-4ddb-b5eb-dde2105d633a"},"vehicle_type_id":"4","last_reported":1734383299,"current_range_meters":28800,"station_id":"ce4bhg12rcd13ifvqf70","pricing_plan_id":"cebpf4jnsgd1na2vs0mg"},{"bike_id":"1273d0ea-868c-4b40-af39-d859d3abf9f5","system_id":"levelo_inurba_marseille","lat":43.24385,"lon":5.37076,"is_reserved":false,"is_disabled":false,"rental_uris":{"android":"levelo://app?vid=1273d0ea-868c-4b40-af39-d859d3abf9f5","ios":"levelo://app?vid=1273d0ea-868c-4b40-af39-d859d3abf9f5"},"vehicle_type_id":"4","last_reported":1734383299,"current_range_meters":39200,"station_id":"ce4bhhh2rcd13ifvqfk0","pricing_plan_id":"cebpf4jnsgd1na2vs0mg"},{"bike_id":"ed15a02e-1f11-4fab-be7c-ed27688f620c","system_id":"levelo_inurba_marseille","lat":43.31169,"lon":5.38714,"is_reserved":false,"is_disabled":false,"rental_uris":{"android":"levelo://app?vid=ed15a02e-1f11-4fab-be7c-ed27688f620c","ios":"levelo://app?vid=ed15a02e-1f11-4fab-be7c-ed27688f620c"},"vehicle_type_id":"4","last_reported":1734383299,"current_range_meters":23200,"station_id":"ce4bgv12rcd13ifvqcp0","pricing_plan_id":"cebpf4jnsgd1na2vs0mg"},{"bike_id":"8e7c3683-99a9-4188-89c4-858575c3d04c","system_id":"levelo_inurba_marseille","lat":43.27684,"lon":5.38904,"is_reserved":false,"is_disabled":true,"rental_uris":{"android":"levelo://app?vid=8e7c3683-99a9-4188-89c4-858575c3d04c","ios":"levelo://app?vid=8e7c3683-99a9-4188-89c4-858575c3d04c"},"vehicle_type_id":"4","last_reported":1734383299,"current_range_meters":33600,"station_id":"ce4bhi12rcd13ifvqfo0","pricing_plan_id":"cebpf4jnsgd1na2vs0mg"},{"bike_id":"02e4f290-68de-4d8f-a447-50e91094d911","system_id":"levelo_inurba_marseille","lat":43.29019,"lon":5.3862,"is_reserved":false,"is_disabled":false,"rental_uris":{"android":"levelo://app?vid=02e4f290-68de-4d8f-a447-50e91094d911","ios":"levelo://app?vid=02e4f290-68de-4d8f-a447-50e91094d911"},"vehicle_type_id":"4","last_reported":1734383299,"current_range_meters":30800,"station_id":"ce4bh4p2rcd13ifvqe0g","pricing_plan_id":"cebpf4jnsgd1na2vs0mg"},{"bike_id":"b2a6d57f-5052-4d3c-9a8b-5166108f0a2a","system_id":"levelo_inurba_marseille","lat":43.25876,"lon":5.39906,"is_reserved":false,"is_disabled":false,"rental_uris":{"android":"levelo://app?vid=b2a6d57f-5052-4d3c-9a8b-5166108f0a2a","ios":"levelo://app?vid=b2a6d57f-5052-4d3c-9a8b-5166108f0a2a"},"vehicle_type_id":"4","last_reported":1734383299,"current_range_meters":38000,"station_id":"ce4bhl92rcd13ifvqghg","pricing_plan_id":"cebpf4jnsgd1na2vs0mg"},{"bike_id":"4577e3e8-7ec6-4361-8738-81257af38076","system_id":"levelo_inurba_marseille","lat":43.28425,"lon":5.34982,"is_reserved":false,"is_disabled":false,"rental_uris":{"android":"levelo://app?vid=4577e3e8-7ec6-4361-8738-81257af38076","ios":"levelo://app?vid=4577e3e8-7ec6-4361-8738-81257af38076"},"vehicle_type_id":"4","last_reported":1734383299,"current_range_meters":38800,"station_id":"ce4bhbh2rcd13ifvqepg","pricing_plan_id":"cebpf4jnsgd1na2vs0mg"},{"bike_id":"add9ba96-7459-451c-8e6d-baaa8033dc3a","system_id":"levelo_inurba_marseille","lat":43.29794,"lon":5.3934,"is_reserved":false,"is_disabled":false,"rental_uris":{"android":"levelo://app?vid=add9ba96-7459-451c-8e6d-baaa8033dc3a","ios":"levelo://app?vid=add9ba96-7459-451c-8e6d-baaa8033dc3a"},"vehicle_type_id":"4","last_reported":1734383299,"current_range_meters":26000,"station_id":"chh1huq6cuj3fo74tm60","pricing_plan_id":"cebpf4jnsgd1na2vs0mg"},{"bike_id":"aed794a0-7229-469a-a13b-e3b6912de584","system_id":"levelo_inurba_marseille","lat":43.31176,"lon":5.38707,"is_reserved":false,"is_disabled":false,"rental_uris":{"android":"levelo://app?vid=aed794a0-7229-469a-a13b-e3b6912de584","ios":"levelo://app?vid=aed794a0-7229-469a-a13b-e3b6912de584"},"vehicle_type_id":"4","last_reported":1734383299,"current_range_meters":27200,"station_id":"ce4bgv12rcd13ifvqcp0","pricing_plan_id":"cebpf4jnsgd1na2vs0mg"},{"bike_id":"df3c5b33-0731-4d28-883c-1a4af4ad0ec4","system_id":"levelo_inurba_marseille","lat":43.26211,"lon":5.37444,"is_reserved":false,"is_disabled":false,"rental_uris":{"android":"levelo://app?vid=df3c5b33-0731-4d28-883c-1a4af4ad0ec4","ios":"levelo://app?vid=df3c5b33-0731-4d28-883c-1a4af4ad0ec4"},"vehicle_type_id":"4","last_reported":1734383299,"current_range_meters":24000,"station_id":"ce4bhgp2rcd13ifvqfc0","pricing_plan_id":"cebpf4jnsgd1na2vs0mg"},{"bike_id":"fce89ad1-8179-44ba-bc08-912eb64808ee","system_id":"levelo_inurba_marseille","lat":43.28075,"lon":5.39628,"is_reserved":false,"is_disabled":false,"rental_uris":{"android":"levelo://app?vid=fce89ad1-8179-44ba-bc08-912eb64808ee","ios":"levelo://app?vid=fce89ad1-8179-44ba-bc08-912eb64808ee"},"vehicle_type_id":"4","last_reported":1734383299,"current_range_meters":38800,"station_id":"ce4bho12rcd13ifvqh2g","pricing_plan_id":"cebpf4jnsgd1na2vs0mg"},{"bike_id":"d866e701-7bee-4d60-b865-75d9d70ca9ec","system_id":"levelo_inurba_marseille","lat":43.28959,"lon":5.36617,"is_reserved":false,"is_disabled":false,"rental_uris":{"android":"levelo://app?vid=d866e701-7bee-4d60-b865-75d9d70ca9ec","ios":"levelo://app?vid=d866e701-7bee-4d60-b865-75d9d70ca9ec"},"vehicle_type_id":"4","last_reported":1734383299,"current_range_meters":38800,"station_id":"ce4bhap2rcd13ifvqek0","pricing_plan_id":"cebpf4jnsgd1na2vs0mg"},{"bike_id":"634d2e71-146f-4227-9767-7f1beb597766","system_id":"levelo_inurba_marseille","lat":43.29314,"lon":5.41173,"is_reserved":false,"is_disabled":true,"rental_uris":{"android":"levelo://app?vid=634d2e71-146f-4227-9767-7f1beb597766","ios":"levelo://app?vid=634d2e71-146f-4227-9767-7f1beb597766"},"vehicle_type_id":"4","last_reported":1734383299,"current_range_meters":0,"station_id":"","pricing_plan_id":"cebpf4jnsgd1na2vs0mg"},{"bike_id":"22cdc9c4-7a19-4a8e-bb87-e0f99073fc60","system_id":"levelo_inurba_marseille","lat":43.27946,"lon":5.41037,"is_reserved":false,"is_disabled":false,"rental_uris":{"android":"levelo://app?vid=22cdc9c4-7a19-4a8e-bb87-e0f99073fc60","ios":"levelo://app?vid=22cdc9c4-7a19-4a8e-bb87-e0f99073fc60"},"vehicle_type_id":"4","last_reported":1734383299,"current_range_meters":22800,"station_id":"ce4bhnp2rcd13ifvqh0g","pricing_plan_id":"cebpf4jnsgd1na2vs0mg"},{"bike_id":"cbd46a1e-a30c-4edf-bd43-7bd67d2d18c8","system_id":"levelo_inurba_marseille","lat":43.28943,"lon":5.36428,"is_reserved":false,"is_disabled":false,"rental_uris":{"android":"levelo://app?vid=cbd46a1e-a30c-4edf-bd43-7bd67d2d18c8","ios":"levelo://app?vid=cbd46a1e-a30c-4edf-bd43-7bd67d2d18c8"},"vehicle_type_id":"4","last_reported":1734383299,"current_range_meters":38800,"station_id":"ce4bhc92rcd13ifvqetg","pricing_plan_id":"cebpf4jnsgd1na2vs0mg"},{"bike_id":"6afe920d-4000-429a-84e5-416689c1fee2","system_id":"levelo_inurba_marseille","lat":43.28859,"lon":5.35854,"is_reserved":false,"is_disabled":false,"rental_uris":{"android":"levelo://app?vid=6afe920d-4000-429a-84e5-416689c1fee2","ios":"levelo://app?vid=6afe920d-4000-429a-84e5-416689c1fee2"},"vehicle_type_id":"4","last_reported":1734383299,"current_range_meters":38800,"station_id":"ce4bhb12rcd13ifvqem0","pricing_plan_id":"cebpf4jnsgd1na2vs0mg"},{"bike_id":"e14b8748-e4dd-4eba-9e7f-1675e71e7a55","system_id":"levelo_inurba_marseille","lat":43.26808,"lon":5.40284,"is_reserved":false,"is_disabled":false,"rental_uris":{"android":"levelo://app?vid=e14b8748-e4dd-4eba-9e7f-1675e71e7a55","ios":"levelo://app?vid=e14b8748-e4dd-4eba-9e7f-1675e71e7a55"},"vehicle_type_id":"4","last_reported":1734383299,"current_range_meters":38800,"station_id":"ce501612rcd8frsf0b60","pricing_plan_id":"cebpf4jnsgd1na2vs0mg"},{"bike_id":"9f319d58-4e1f-4982-b409-b9dae2c131f9","system_id":"levelo_inurba_marseille","lat":43.2905,"lon":5.35921,"is_reserved":false,"is_disabled":false,"rental_uris":{"android":"levelo://app?vid=9f319d58-4e1f-4982-b409-b9dae2c131f9","ios":"levelo://app?vid=9f319d58-4e1f-4982-b409-b9dae2c131f9"},"vehicle_type_id":"4","last_reported":1734383299,"current_range_meters":32400,"station_id":"ce4bha92rcd13ifvqeg0","pricing_plan_id":"cebpf4jnsgd1na2vs0mg"},{"bike_id":"51d84435-6690-4d85-963e-bbaae1721698","system_id":"levelo_inurba_marseille","lat":43.28942,"lon":5.36409,"is_reserved":false,"is_disabled":false,"rental_uris":{"android":"levelo://app?vid=51d84435-6690-4d85-963e-bbaae1721698","ios":"levelo://app?vid=51d84435-6690-4d85-963e-bbaae1721698"},"vehicle_type_id":"4","last_reported":1734383299,"current_range_meters":38800,"station_id":"ce4bhc92rcd13ifvqetg","pricing_plan_id":"cebpf4jnsgd1na2vs0mg"},{"bike_id":"c843000a-4fd5-4a18-9727-e3757925a685","system_id":"levelo_inurba_marseille","lat":43.30329,"lon":5.40465,"is_reserved":false,"is_disabled":false,"rental_uris":{"android":"levelo://app?vid=c843000a-4fd5-4a18-9727-e3757925a685","ios":"levelo://app?vid=c843000a-4fd5-4a18-9727-e3757925a685"},"vehicle_type_id":"4","last_reported":1734383299,"current_range_meters":36400,"station_id":"ce4bh012rcd13ifvqd10","pricing_plan_id":"cebpf4jnsgd1na2vs0mg"},{"bike_id":"95cb1a12-3d24-4b7c-8cc9-a0c3e83a05b3","system_id":"levelo_inurba_marseille","lat":43.29191,"lon":5.35797,"is_reserved":false,"is_disabled":false,"rental_uris":{"android":"levelo://app?vid=95cb1a12-3d24-4b7c-8cc9-a0c3e83a05b3","ios":"levelo://app?vid=95cb1a12-3d24-4b7c-8cc9-a0c3e83a05b3"},"vehicle_type_id":"4","last_reported":1734383299,"current_range_meters":38800,"station_id":"ce4bhb12rcd13ifvqel0","pricing_plan_id":"cebpf4jnsgd1na2vs0mg"},{"bike_id":"17fd1c3b-23af-4fb5-9435-033e2a988571","system_id":"levelo_inurba_marseille","lat":43.30982,"lon":5.40117,"is_reserved":false,"is_disabled":true,"rental_uris":{"android":"levelo://app?vid=17fd1c3b-23af-4fb5-9435-033e2a988571","ios":"levelo://app?vid=17fd1c3b-23af-4fb5-9435-033e2a988571"},"vehicle_type_id":"4","last_reported":1734383299,"current_range_meters":36400,"station_id":"","pricing_plan_id":"cebpf4jnsgd1na2vs0mg"},{"bike_id":"f6d66852-84b9-4297-b01c-1e15e526bdcb","system_id":"levelo_inurba_marseille","lat":43.3022,"lon":5.39463,"is_reserved":false,"is_disabled":false,"rental_uris":{"android":"levelo://app?vid=f6d66852-84b9-4297-b01c-1e15e526bdcb","ios":"levelo://app?vid=f6d66852-84b9-4297-b01c-1e15e526bdcb"},"vehicle_type_id":"4","last_reported":1734383299,"current_range_meters":38800,"station_id":"ce4bh0p2rcd13ifvqd70","pricing_plan_id":"cebpf4jnsgd1na2vs0mg"},{"bike_id":"56f645d0-d459-4a27-ba9a-c72d2ef792b2","system_id":"levelo_inurba_marseille","lat":43.2845,"lon":5.35885,"is_reserved":false,"is_disabled":false,"rental_uris":{"android":"levelo://app?vid=56f645d0-d459-4a27-ba9a-c72d2ef792b2","ios":"levelo://app?vid=56f645d0-d459-4a27-ba9a-c72d2ef792b2"},"vehicle_type_id":"4","last_reported":1734383299,"current_range_meters":36800,"station_id":"ce4bhah2rcd13ifvqei0","pricing_plan_id":"cebpf4jnsgd1na2vs0mg"},{"bike_id":"2899cf51-986d-421c-aa45-983e3b243f31","system_id":"levelo_inurba_marseille","lat":43.2796,"lon":5.38713,"is_reserved":false,"is_disabled":false,"rental_uris":{"android":"levelo://app?vid=2899cf51-986d-421c-aa45-983e3b243f31","ios":"levelo://app?vid=2899cf51-986d-421c-aa45-983e3b243f31"},"vehicle_type_id":"4","last_reported":1734383299,"current_range_meters":24400,"station_id":"ce4bhg12rcd13ifvqf80","pricing_plan_id":"cebpf4jnsgd1na2vs0mg"},{"bike_id":"d7c1cf73-5ea5-4c2f-a402-88978e03c60a","system_id":"levelo_inurba_marseille","lat":43.29484,"lon":5.3623,"is_reserved":false,"is_disabled":false,"rental_uris":{"android":"levelo://app?vid=d7c1cf73-5ea5-4c2f-a402-88978e03c60a","ios":"levelo://app?vid=d7c1cf73-5ea5-4c2f-a402-88978e03c60a"},"vehicle_type_id":"4","last_reported":1734383299,"current_range_meters":6400,"station_id":"","pricing_plan_id":"cebpf4jnsgd1na2vs0mg"},{"bike_id":"82711b20-7bed-4fec-a4b5-4945e51505d9","system_id":"levelo_inurba_marseille","lat":43.30795,"lon":5.43509,"is_reserved":false,"is_disabled":false,"rental_uris":{"android":"levelo://app?vid=82711b20-7bed-4fec-a4b5-4945e51505d9","ios":"levelo://app?vid=82711b20-7bed-4fec-a4b5-4945e51505d9"},"vehicle_type_id":"4","last_reported":1734383299,"current_range_meters":39200,"station_id":"ce4bhph2rcd13ifvqheg","pricing_plan_id":"cebpf4jnsgd1na2vs0mg"},{"bike_id":"d68a8bfe-a1fe-43aa-94f3-8bfaa3478d06","system_id":"levelo_inurba_marseille","lat":43.265522,"lon":5.372848,"is_reserved":false,"is_disabled":false,"rental_uris":{"android":"levelo://app?vid=d68a8bfe-a1fe-43aa-94f3-8bfaa3478d06","ios":"levelo://app?vid=d68a8bfe-a1fe-43aa-94f3-8bfaa3478d06"},"vehicle_type_id":"4","last_reported":1734383299,"current_range_meters":38800,"station_id":"ce4bhg12rcd13ifvqf70","pricing_plan_id":"cebpf4jnsgd1na2vs0mg"},{"bike_id":"af753a09-83f1-43a5-88f0-0bddd02a5219","system_id":"levelo_inurba_marseille","lat":43.28148,"lon":5.42649,"is_reserved":false,"is_disabled":false,"rental_uris":{"android":"levelo://app?vid=af753a09-83f1-43a5-88f0-0bddd02a5219","ios":"levelo://app?vid=af753a09-83f1-43a5-88f0-0bddd02a5219"},"vehicle_type_id":"4","last_reported":1734383299,"current_range_meters":38800,"station_id":"ce4bhnh2rcd13ifvqgug","pricing_plan_id":"cebpf4jnsgd1na2vs0mg"},{"bike_id":"3f612045-e296-48ea-9750-bbb0e348c818","system_id":"levelo_inurba_marseille","lat":43.29417,"lon":5.38614,"is_reserved":false,"is_disabled":false,"rental_uris":{"android":"levelo://app?vid=3f612045-e296-48ea-9750-bbb0e348c818","ios":"levelo://app?vid=3f612045-e296-48ea-9750-bbb0e348c818"},"vehicle_type_id":"4","last_reported":1734383299,"current_range_meters":26000,"station_id":"ce4bh2h2rcd13ifvqdh0","pricing_plan_id":"cebpf4jnsgd1na2vs0mg"},{"bike_id":"ddefe9f2-23b4-4062-a0ac-7c8a96367f14","system_id":"levelo_inurba_marseille","lat":43.29191,"lon":5.35803,"is_reserved":false,"is_disabled":false,"rental_uris":{"android":"levelo://app?vid=ddefe9f2-23b4-4062-a0ac-7c8a96367f14","ios":"levelo://app?vid=ddefe9f2-23b4-4062-a0ac-7c8a96367f14"},"vehicle_type_id":"4","last_reported":1734383299,"current_range_meters":38800,"station_id":"ce4bhb12rcd13ifvqel0","pricing_plan_id":"cebpf4jnsgd1na2vs0mg"},{"bike_id":"984425b6-d437-4539-8c45-78b211a29814","system_id":"levelo_inurba_marseille","lat":43.29302,"lon":5.37162,"is_reserved":false,"is_disabled":false,"rental_uris":{"android":"levelo://app?vid=984425b6-d437-4539-8c45-78b211a29814","ios":"levelo://app?vid=984425b6-d437-4539-8c45-78b211a29814"},"vehicle_type_id":"4","last_reported":1734383299,"current_range_meters":38000,"station_id":"ce4bgh92rcd13ifvqb40","pricing_plan_id":"cebpf4jnsgd1na2vs0mg"},{"bike_id":"7fb4bdda-c521-4636-bf7d-6a304864609e","system_id":"levelo_inurba_marseille","lat":43.2942,"lon":5.38627,"is_reserved":false,"is_disabled":false,"rental_uris":{"android":"levelo://app?vid=7fb4bdda-c521-4636-bf7d-6a304864609e","ios":"levelo://app?vid=7fb4bdda-c521-4636-bf7d-6a304864609e"},"vehicle_type_id":"4","last_reported":1734383299,"current_range_meters":34000,"station_id":"ce4bh2h2rcd13ifvqdh0","pricing_plan_id":"cebpf4jnsgd1na2vs0mg"},{"bike_id":"f4d9acb8-41a6-4359-b711-935b5a42230c","system_id":"levelo_inurba_marseille","lat":43.30548,"lon":5.36678,"is_reserved":false,"is_disabled":false,"rental_uris":{"android":"levelo://app?vid=f4d9acb8-41a6-4359-b711-935b5a42230c","ios":"levelo://app?vid=f4d9acb8-41a6-4359-b711-935b5a42230c"},"vehicle_type_id":"4","last_reported":1734383299,"current_range_meters":37600,"station_id":"ce4bgrp2rcd13ifvqc9g","pricing_plan_id":"cebpf4jnsgd1na2vs0mg"},{"bike_id":"898ae806-8cfa-41fb-8b3c-a7244e29c29d","system_id":"levelo_inurba_marseille","lat":43.30124,"lon":5.39856,"is_reserved":false,"is_disabled":false,"rental_uris":{"android":"levelo://app?vid=898ae806-8cfa-41fb-8b3c-a7244e29c29d","ios":"levelo://app?vid=898ae806-8cfa-41fb-8b3c-a7244e29c29d"},"vehicle_type_id":"4","last_reported":1734383299,"current_range_meters":37600,"station_id":"ce4bh0h2rcd13ifvqd40","pricing_plan_id":"cebpf4jnsgd1na2vs0mg"},{"bike_id":"5f2be17f-083e-494f-a7a1-4802346cfcb9","system_id":"levelo_inurba_marseille","lat":43.28565,"lon":5.39507,"is_reserved":false,"is_disabled":true,"rental_uris":{"android":"levelo://app?vid=5f2be17f-083e-494f-a7a1-4802346cfcb9","ios":"levelo://app?vid=5f2be17f-083e-494f-a7a1-4802346cfcb9"},"vehicle_type_id":"4","last_reported":1734383299,"current_range_meters":26000,"station_id":"ce4bh292rcd13ifvqdg0","pricing_plan_id":"cebpf4jnsgd1na2vs0mg"},{"bike_id":"d705ef2b-d72b-417f-b321-d9710b5a9281","system_id":"levelo_inurba_marseille","lat":43.24649,"lon":5.38899,"is_reserved":false,"is_disabled":false,"rental_uris":{"android":"levelo://app?vid=d705ef2b-d72b-417f-b321-d9710b5a9281","ios":"levelo://app?vid=d705ef2b-d72b-417f-b321-d9710b5a9281"},"vehicle_type_id":"4","last_reported":1734383299,"current_range_meters":14400,"station_id":"ce4bhg12rcd13ifvqf60","pricing_plan_id":"cebpf4jnsgd1na2vs0mg"},{"bike_id":"d3e29b4b-4386-4f03-a1dd-c7c9a11c63cb","system_id":"levelo_inurba_marseille","lat":43.26063,"lon":5.39395,"is_reserved":false,"is_disabled":false,"rental_uris":{"android":"levelo://app?vid=d3e29b4b-4386-4f03-a1dd-c7c9a11c63cb","ios":"levelo://app?vid=d3e29b4b-4386-4f03-a1dd-c7c9a11c63cb"},"vehicle_type_id":"4","last_reported":1734383299,"current_range_meters":11600,"station_id":"ce4bhh92rcd13ifvqfj0","pricing_plan_id":"cebpf4jnsgd1na2vs0mg"},{"bike_id":"8e1179ae-a1bd-4355-99e8-05c3c8b923db","system_id":"levelo_inurba_marseille","lat":43.31075,"lon":5.38355,"is_reserved":false,"is_disabled":false,"rental_uris":{"android":"levelo://app?vid=8e1179ae-a1bd-4355-99e8-05c3c8b923db","ios":"levelo://app?vid=8e1179ae-a1bd-4355-99e8-05c3c8b923db"},"vehicle_type_id":"4","last_reported":1734383299,"current_range_meters":24800,"station_id":"ce4bgv92rcd13ifvqcr0","pricing_plan_id":"cebpf4jnsgd1na2vs0mg"},{"bike_id":"b080cd93-ae1d-416c-aff0-33280d88921a","system_id":"levelo_inurba_marseille","lat":43.26513,"lon":5.39524,"is_reserved":false,"is_disabled":false,"rental_uris":{"android":"levelo://app?vid=b080cd93-ae1d-416c-aff0-33280d88921a","ios":"levelo://app?vid=b080cd93-ae1d-416c-aff0-33280d88921a"},"vehicle_type_id":"4","last_reported":1734383299,"current_range_meters":34000,"station_id":"ce4bhi12rcd13ifvqfq0","pricing_plan_id":"cebpf4jnsgd1na2vs0mg"},{"bike_id":"318aa57b-1568-4ffc-a05f-60313d3eca7d","system_id":"levelo_inurba_marseille","lat":43.308,"lon":5.43513,"is_reserved":false,"is_disabled":false,"rental_uris":{"android":"levelo://app?vid=318aa57b-1568-4ffc-a05f-60313d3eca7d","ios":"levelo://app?vid=318aa57b-1568-4ffc-a05f-60313d3eca7d"},"vehicle_type_id":"4","last_reported":1734383299,"current_range_meters":39200,"station_id":"ce4bhph2rcd13ifvqheg","pricing_plan_id":"cebpf4jnsgd1na2vs0mg"},{"bike_id":"12a12330-20ea-42cb-85c0-6792b9c51ff2","system_id":"levelo_inurba_marseille","lat":43.25502,"lon":5.37656,"is_reserved":false,"is_disabled":false,"rental_uris":{"android":"levelo://app?vid=12a12330-20ea-42cb-85c0-6792b9c51ff2","ios":"levelo://app?vid=12a12330-20ea-42cb-85c0-6792b9c51ff2"},"vehicle_type_id":"4","last_reported":1734383299,"current_range_meters":38800,"station_id":"ce4bhh12rcd13ifvqff0","pricing_plan_id":"cebpf4jnsgd1na2vs0mg"},{"bike_id":"586ce07a-15e4-4f19-a803-224f9d280bb7","system_id":"levelo_inurba_marseille","lat":43.24389,"lon":5.37059,"is_reserved":false,"is_disabled":false,"rental_uris":{"android":"levelo://app?vid=586ce07a-15e4-4f19-a803-224f9d280bb7","ios":"levelo://app?vid=586ce07a-15e4-4f19-a803-224f9d280bb7"},"vehicle_type_id":"4","last_reported":1734383299,"current_range_meters":38800,"station_id":"ce4bhhh2rcd13ifvqfk0","pricing_plan_id":"cebpf4jnsgd1na2vs0mg"},{"bike_id":"048ede08-1dd8-40d1-8404-3b85f61fc0d5","system_id":"levelo_inurba_marseille","lat":43.29557,"lon":5.423,"is_reserved":false,"is_disabled":false,"rental_uris":{"android":"levelo://app?vid=048ede08-1dd8-40d1-8404-3b85f61fc0d5","ios":"levelo://app?vid=048ede08-1dd8-40d1-8404-3b85f61fc0d5"},"vehicle_type_id":"4","last_reported":1734383299,"current_range_meters":4400,"station_id":"ce4bhph2rcd13ifvqhdg","pricing_plan_id":"cebpf4jnsgd1na2vs0mg"},{"bike_id":"84876f57-9228-4c29-8dc5-7725e669d6fb","system_id":"levelo_inurba_marseille","lat":43.3133,"lon":5.39711,"is_reserved":false,"is_disabled":false,"rental_uris":{"android":"levelo://app?vid=84876f57-9228-4c29-8dc5-7725e669d6fb","ios":"levelo://app?vid=84876f57-9228-4c29-8dc5-7725e669d6fb"},"vehicle_type_id":"4","last_reported":1734383299,"current_range_meters":25600,"station_id":"ce4bgvp2rcd13ifvqcu0","pricing_plan_id":"cebpf4jnsgd1na2vs0mg"},{"bike_id":"f82edaaa-c4d6-43f7-92bd-e4d1b2dbf31e","system_id":"levelo_inurba_marseille","lat":43.26495,"lon":5.39536,"is_reserved":false,"is_disabled":false,"rental_uris":{"android":"levelo://app?vid=f82edaaa-c4d6-43f7-92bd-e4d1b2dbf31e","ios":"levelo://app?vid=f82edaaa-c4d6-43f7-92bd-e4d1b2dbf31e"},"vehicle_type_id":"4","last_reported":1734383299,"current_range_meters":38800,"station_id":"ce4bhi12rcd13ifvqfq0","pricing_plan_id":"cebpf4jnsgd1na2vs0mg"},{"bike_id":"26e4e797-93f6-434c-9aa3-e5da0aef2594","system_id":"levelo_inurba_marseille","lat":43.30091,"lon":5.39084,"is_reserved":false,"is_disabled":false,"rental_uris":{"android":"levelo://app?vid=26e4e797-93f6-434c-9aa3-e5da0aef2594","ios":"levelo://app?vid=26e4e797-93f6-434c-9aa3-e5da0aef2594"},"vehicle_type_id":"4","last_reported":1734383299,"current_range_meters":38800,"station_id":"ce4bh192rcd13ifvqdb0","pricing_plan_id":"cebpf4jnsgd1na2vs0mg"},{"bike_id":"a3ae6ee4-d060-4597-a716-f8c3846f7f84","system_id":"levelo_inurba_marseille","lat":43.28268,"lon":5.35057,"is_reserved":false,"is_disabled":false,"rental_uris":{"android":"levelo://app?vid=a3ae6ee4-d060-4597-a716-f8c3846f7f84","ios":"levelo://app?vid=a3ae6ee4-d060-4597-a716-f8c3846f7f84"},"vehicle_type_id":"4","last_reported":1734383299,"current_range_meters":38400,"station_id":"ce4bhbp2rcd13ifvqerg","pricing_plan_id":"cebpf4jnsgd1na2vs0mg"},{"bike_id":"a5572d10-2ba6-48e2-9296-3c77d287a8b0","system_id":"levelo_inurba_marseille","lat":43.31335,"lon":5.39699,"is_reserved":false,"is_disabled":false,"rental_uris":{"android":"levelo://app?vid=a5572d10-2ba6-48e2-9296-3c77d287a8b0","ios":"levelo://app?vid=a5572d10-2ba6-48e2-9296-3c77d287a8b0"},"vehicle_type_id":"4","last_reported":1734383299,"current_range_meters":8400,"station_id":"ce4bgvp2rcd13ifvqcu0","pricing_plan_id":"cebpf4jnsgd1na2vs0mg"},{"bike_id":"c9b6ceb3-3fe8-4b5f-93cf-b2e0f99bf1b7","system_id":"levelo_inurba_marseille","lat":43.33028,"lon":5.3904,"is_reserved":false,"is_disabled":false,"rental_uris":{"android":"levelo://app?vid=c9b6ceb3-3fe8-4b5f-93cf-b2e0f99bf1b7","ios":"levelo://app?vid=c9b6ceb3-3fe8-4b5f-93cf-b2e0f99bf1b7"},"vehicle_type_id":"4","last_reported":1734383299,"current_range_meters":32800,"station_id":"ce4bhr92rcd13ifvqhrg","pricing_plan_id":"cebpf4jnsgd1na2vs0mg"},{"bike_id":"a939b72a-eb93-48d5-93d2-5b5defdd7d63","system_id":"levelo_inurba_marseille","lat":43.24546,"lon":5.3953,"is_reserved":false,"is_disabled":false,"rental_uris":{"android":"levelo://app?vid=a939b72a-eb93-48d5-93d2-5b5defdd7d63","ios":"levelo://app?vid=a939b72a-eb93-48d5-93d2-5b5defdd7d63"},"vehicle_type_id":"4","last_reported":1734383299,"current_range_meters":11600,"station_id":"ce4bhlp2rcd13ifvqgjg","pricing_plan_id":"cebpf4jnsgd1na2vs0mg"},{"bike_id":"778aabaf-64ec-42e6-952c-da0f771d7dc9","system_id":"levelo_inurba_marseille","lat":43.26548,"lon":5.373,"is_reserved":false,"is_disabled":false,"rental_uris":{"android":"levelo://app?vid=778aabaf-64ec-42e6-952c-da0f771d7dc9","ios":"levelo://app?vid=778aabaf-64ec-42e6-952c-da0f771d7dc9"},"vehicle_type_id":"4","last_reported":1734383299,"current_range_meters":25200,"station_id":"ce4bhg12rcd13ifvqf70","pricing_plan_id":"cebpf4jnsgd1na2vs0mg"},{"bike_id":"f3379db6-4ea4-44b7-bec9-c44fb1a483c8","system_id":"levelo_inurba_marseille","lat":43.24167,"lon":5.39708,"is_reserved":false,"is_disabled":false,"rental_uris":{"android":"levelo://app?vid=f3379db6-4ea4-44b7-bec9-c44fb1a483c8","ios":"levelo://app?vid=f3379db6-4ea4-44b7-bec9-c44fb1a483c8"},"vehicle_type_id":"4","last_reported":1734383299,"current_range_meters":27600,"station_id":"ce4bhn12rcd13ifvqgpg","pricing_plan_id":"cebpf4jnsgd1na2vs0mg"},{"bike_id":"53e42023-e252-4b7f-a9eb-a99e355c181f","system_id":"levelo_inurba_marseille","lat":43.28732,"lon":5.36101,"is_reserved":false,"is_disabled":false,"rental_uris":{"android":"levelo://app?vid=53e42023-e252-4b7f-a9eb-a99e355c181f","ios":"levelo://app?vid=53e42023-e252-4b7f-a9eb-a99e355c181f"},"vehicle_type_id":"4","last_reported":1734383299,"current_range_meters":35200,"station_id":"cki0cbj6b192h4jlfktg","pricing_plan_id":"cebpf4jnsgd1na2vs0mg"},{"bike_id":"b2cc9e4c-5ad4-48f7-9123-e0be8b643885","system_id":"levelo_inurba_marseille","lat":43.28161,"lon":5.42646,"is_reserved":false,"is_disabled":false,"rental_uris":{"android":"levelo://app?vid=b2cc9e4c-5ad4-48f7-9123-e0be8b643885","ios":"levelo://app?vid=b2cc9e4c-5ad4-48f7-9123-e0be8b643885"},"vehicle_type_id":"4","last_reported":1734383299,"current_range_meters":24000,"station_id":"ce4bhnh2rcd13ifvqgug","pricing_plan_id":"cebpf4jnsgd1na2vs0mg"},{"bike_id":"93c5eb91-3fba-4bf2-b5c1-03c9a75bad92","system_id":"levelo_inurba_marseille","lat":43.25083,"lon":5.39526,"is_reserved":false,"is_disabled":false,"rental_uris":{"android":"levelo://app?vid=93c5eb91-3fba-4bf2-b5c1-03c9a75bad92","ios":"levelo://app?vid=93c5eb91-3fba-4bf2-b5c1-03c9a75bad92"},"vehicle_type_id":"4","last_reported":1734383299,"current_range_meters":8800,"station_id":"ce4bhm12rcd13ifvqgkg","pricing_plan_id":"cebpf4jnsgd1na2vs0mg"},{"bike_id":"10092c8b-924f-425c-952b-6ff63a37b0c5","system_id":"levelo_inurba_marseille","lat":43.29521,"lon":5.39404,"is_reserved":false,"is_disabled":false,"rental_uris":{"android":"levelo://app?vid=10092c8b-924f-425c-952b-6ff63a37b0c5","ios":"levelo://app?vid=10092c8b-924f-425c-952b-6ff63a37b0c5"},"vehicle_type_id":"4","last_reported":1734383299,"current_range_meters":38800,"station_id":"ce4bh292rcd13ifvqdf0","pricing_plan_id":"cebpf4jnsgd1na2vs0mg"},{"bike_id":"764dd124-8b6c-4e2e-8283-a78f598ae4cd","system_id":"levelo_inurba_marseille","lat":43.31332,"lon":5.39719,"is_reserved":false,"is_disabled":false,"rental_uris":{"android":"levelo://app?vid=764dd124-8b6c-4e2e-8283-a78f598ae4cd","ios":"levelo://app?vid=764dd124-8b6c-4e2e-8283-a78f598ae4cd"},"vehicle_type_id":"4","last_reported":1734383299,"current_range_meters":38800,"station_id":"ce4bgvp2rcd13ifvqcu0","pricing_plan_id":"cebpf4jnsgd1na2vs0mg"},{"bike_id":"bda38b21-c7e5-4cf3-a915-d2dc62c0831e","system_id":"levelo_inurba_marseille","lat":43.31752,"lon":5.39013,"is_reserved":false,"is_disabled":false,"rental_uris":{"android":"levelo://app?vid=bda38b21-c7e5-4cf3-a915-d2dc62c0831e","ios":"levelo://app?vid=bda38b21-c7e5-4cf3-a915-d2dc62c0831e"},"vehicle_type_id":"4","last_reported":1734383299,"current_range_meters":17600,"station_id":"ce4bhqp2rcd13ifvqhng","pricing_plan_id":"cebpf4jnsgd1na2vs0mg"},{"bike_id":"3c63c370-3e66-4acd-9830-85fcb8908743","system_id":"levelo_inurba_marseille","lat":43.3088,"lon":5.39653,"is_reserved":false,"is_disabled":false,"rental_uris":{"android":"levelo://app?vid=3c63c370-3e66-4acd-9830-85fcb8908743","ios":"levelo://app?vid=3c63c370-3e66-4acd-9830-85fcb8908743"},"vehicle_type_id":"4","last_reported":1734383299,"current_range_meters":33600,"station_id":"ce4bh012rcd13ifvqcv0","pricing_plan_id":"cebpf4jnsgd1na2vs0mg"},{"bike_id":"32bcd328-f7f5-4900-8d76-f3d18c79595c","system_id":"levelo_inurba_marseille","lat":43.24816,"lon":5.37457,"is_reserved":false,"is_disabled":false,"rental_uris":{"android":"levelo://app?vid=32bcd328-f7f5-4900-8d76-f3d18c79595c","ios":"levelo://app?vid=32bcd328-f7f5-4900-8d76-f3d18c79595c"},"vehicle_type_id":"4","last_reported":1734383299,"current_range_meters":38400,"station_id":"ce4bhgh2rcd13ifvqfb0","pricing_plan_id":"cebpf4jnsgd1na2vs0mg"},{"bike_id":"ad3e51cb-df7c-4ce4-b243-f609a121c657","system_id":"levelo_inurba_marseille","lat":43.24169,"lon":5.36389,"is_reserved":false,"is_disabled":false,"rental_uris":{"android":"levelo://app?vid=ad3e51cb-df7c-4ce4-b243-f609a121c657","ios":"levelo://app?vid=ad3e51cb-df7c-4ce4-b243-f609a121c657"},"vehicle_type_id":"4","last_reported":1734383299,"current_range_meters":20000,"station_id":"cpo36qri1sfpv3e86is0","pricing_plan_id":"cebpf4jnsgd1na2vs0mg"},{"bike_id":"1ffd53f7-911f-4c3a-90d1-58c0edae351f","system_id":"levelo_inurba_marseille","lat":43.29528,"lon":5.39036,"is_reserved":false,"is_disabled":false,"rental_uris":{"android":"levelo://app?vid=1ffd53f7-911f-4c3a-90d1-58c0edae351f","ios":"levelo://app?vid=1ffd53f7-911f-4c3a-90d1-58c0edae351f"},"vehicle_type_id":"4","last_reported":1734383299,"current_range_meters":8800,"station_id":"ce4bh3p2rcd13ifvqdp0","pricing_plan_id":"cebpf4jnsgd1na2vs0mg"},{"bike_id":"6c2f8196-548c-49d5-bcb1-35ab07679de5","system_id":"levelo_inurba_marseille","lat":43.31755,"lon":5.39012,"is_reserved":false,"is_disabled":false,"rental_uris":{"android":"levelo://app?vid=6c2f8196-548c-49d5-bcb1-35ab07679de5","ios":"levelo://app?vid=6c2f8196-548c-49d5-bcb1-35ab07679de5"},"vehicle_type_id":"4","last_reported":1734383299,"current_range_meters":34800,"station_id":"ce4bhqp2rcd13ifvqhng","pricing_plan_id":"cebpf4jnsgd1na2vs0mg"},{"bike_id":"c59837dc-8d74-4db1-b183-a5034d718c43","system_id":"levelo_inurba_marseille","lat":43.25866,"lon":5.39897,"is_reserved":false,"is_disabled":false,"rental_uris":{"android":"levelo://app?vid=c59837dc-8d74-4db1-b183-a5034d718c43","ios":"levelo://app?vid=c59837dc-8d74-4db1-b183-a5034d718c43"},"vehicle_type_id":"4","last_reported":1734383299,"current_range_meters":38800,"station_id":"ce4bhl92rcd13ifvqghg","pricing_plan_id":"cebpf4jnsgd1na2vs0mg"},{"bike_id":"6fb001bd-cbfc-4b33-8fbb-908a2824bf04","system_id":"levelo_inurba_marseille","lat":43.25869,"lon":5.39901,"is_reserved":false,"is_disabled":false,"rental_uris":{"android":"levelo://app?vid=6fb001bd-cbfc-4b33-8fbb-908a2824bf04","ios":"levelo://app?vid=6fb001bd-cbfc-4b33-8fbb-908a2824bf04"},"vehicle_type_id":"4","last_reported":1734383299,"current_range_meters":38800,"station_id":"ce4bhl92rcd13ifvqghg","pricing_plan_id":"cebpf4jnsgd1na2vs0mg"},{"bike_id":"c6b0656c-31fe-4a90-9789-c87a1b0ab57b","system_id":"levelo_inurba_marseille","lat":43.24547,"lon":5.3954,"is_reserved":false,"is_disabled":false,"rental_uris":{"android":"levelo://app?vid=c6b0656c-31fe-4a90-9789-c87a1b0ab57b","ios":"levelo://app?vid=c6b0656c-31fe-4a90-9789-c87a1b0ab57b"},"vehicle_type_id":"4","last_reported":1734383299,"current_range_meters":18000,"station_id":"ce4bhlp2rcd13ifvqgjg","pricing_plan_id":"cebpf4jnsgd1na2vs0mg"},{"bike_id":"feec68f8-7e7f-4d17-8aa9-3bb28707fff0","system_id":"levelo_inurba_marseille","lat":43.282794,"lon":5.381214,"is_reserved":false,"is_disabled":false,"rental_uris":{"android":"levelo://app?vid=feec68f8-7e7f-4d17-8aa9-3bb28707fff0","ios":"levelo://app?vid=feec68f8-7e7f-4d17-8aa9-3bb28707fff0"},"vehicle_type_id":"4","last_reported":1734383299,"current_range_meters":36000,"station_id":"ce4bh412rcd13ifvqdr0","pricing_plan_id":"cebpf4jnsgd1na2vs0mg"},{"bike_id":"81391304-b451-4119-80ac-f61ef4862eb2","system_id":"levelo_inurba_marseille","lat":43.337444,"lon":5.374475,"is_reserved":false,"is_disabled":true,"rental_uris":{"android":"levelo://app?vid=81391304-b451-4119-80ac-f61ef4862eb2","ios":"levelo://app?vid=81391304-b451-4119-80ac-f61ef4862eb2"},"vehicle_type_id":"4","last_reported":1734383299,"current_range_meters":0,"station_id":"","pricing_plan_id":"cebpf4jnsgd1na2vs0mg"},{"bike_id":"c790257e-346f-4745-b5e0-3927729d154a","system_id":"levelo_inurba_marseille","lat":43.32645,"lon":5.41002,"is_reserved":false,"is_disabled":false,"rental_uris":{"android":"levelo://app?vid=c790257e-346f-4745-b5e0-3927729d154a","ios":"levelo://app?vid=c790257e-346f-4745-b5e0-3927729d154a"},"vehicle_type_id":"4","last_reported":1734383299,"current_range_meters":16800,"station_id":"ce4bhpp2rcd13ifvqhgg","pricing_plan_id":"cebpf4jnsgd1na2vs0mg"},{"bike_id":"66343f16-c96a-493e-b903-7c265d82cce1","system_id":"levelo_inurba_marseille","lat":43.32487,"lon":5.36594,"is_reserved":false,"is_disabled":false,"rental_uris":{"android":"levelo://app?vid=66343f16-c96a-493e-b903-7c265d82cce1","ios":"levelo://app?vid=66343f16-c96a-493e-b903-7c265d82cce1"},"vehicle_type_id":"4","last_reported":1734383299,"current_range_meters":28000,"station_id":"ce4bhs12rcd13ifvqhvg","pricing_plan_id":"cebpf4jnsgd1na2vs0mg"},{"bike_id":"15f71a9f-864d-48de-9d20-f621cbff105e","system_id":"levelo_inurba_marseille","lat":43.268089,"lon":5.402567,"is_reserved":false,"is_disabled":false,"rental_uris":{"android":"levelo://app?vid=15f71a9f-864d-48de-9d20-f621cbff105e","ios":"levelo://app?vid=15f71a9f-864d-48de-9d20-f621cbff105e"},"vehicle_type_id":"4","last_reported":1734383299,"current_range_meters":36800,"station_id":"ce501612rcd8frsf0b60","pricing_plan_id":"cebpf4jnsgd1na2vs0mg"},{"bike_id":"3cddc501-6cbc-42a1-8fa8-0fb70d8f99d5","system_id":"levelo_inurba_marseille","lat":43.29256,"lon":5.38436,"is_reserved":false,"is_disabled":false,"rental_uris":{"android":"levelo://app?vid=3cddc501-6cbc-42a1-8fa8-0fb70d8f99d5","ios":"levelo://app?vid=3cddc501-6cbc-42a1-8fa8-0fb70d8f99d5"},"vehicle_type_id":"4","last_reported":1734383299,"current_range_meters":28000,"station_id":"ce4bh692rcd13ifvqea0","pricing_plan_id":"cebpf4jnsgd1na2vs0mg"},{"bike_id":"d5accae4-0b7f-4603-8070-ad403bf2e0fe","system_id":"levelo_inurba_marseille","lat":43.28852,"lon":5.35845,"is_reserved":false,"is_disabled":false,"rental_uris":{"android":"levelo://app?vid=d5accae4-0b7f-4603-8070-ad403bf2e0fe","ios":"levelo://app?vid=d5accae4-0b7f-4603-8070-ad403bf2e0fe"},"vehicle_type_id":"4","last_reported":1734383299,"current_range_meters":35600,"station_id":"ce4bhb12rcd13ifvqem0","pricing_plan_id":"cebpf4jnsgd1na2vs0mg"},{"bike_id":"a390918c-ff30-4793-9080-2228d1f7b366","system_id":"levelo_inurba_marseille","lat":43.31883,"lon":5.40732,"is_reserved":false,"is_disabled":false,"rental_uris":{"android":"levelo://app?vid=a390918c-ff30-4793-9080-2228d1f7b366","ios":"levelo://app?vid=a390918c-ff30-4793-9080-2228d1f7b366"},"vehicle_type_id":"4","last_reported":1734383299,"current_range_meters":35200,"station_id":"ce4bhq12rcd13ifvqhig","pricing_plan_id":"cebpf4jnsgd1na2vs0mg"},{"bike_id":"8c92f62c-a171-43fa-a0c9-1ec039481665","system_id":"levelo_inurba_marseille","lat":43.29006,"lon":5.35622,"is_reserved":false,"is_disabled":false,"rental_uris":{"android":"levelo://app?vid=8c92f62c-a171-43fa-a0c9-1ec039481665","ios":"levelo://app?vid=8c92f62c-a171-43fa-a0c9-1ec039481665"},"vehicle_type_id":"4","last_reported":1734383299,"current_range_meters":38000,"station_id":"ce4bhb92rcd13ifvqen0","pricing_plan_id":"cebpf4jnsgd1na2vs0mg"},{"bike_id":"29f246a6-bf44-455d-b9d7-de191a6777e4","system_id":"levelo_inurba_marseille","lat":43.29226,"lon":5.36064,"is_reserved":false,"is_disabled":true,"rental_uris":{"android":"levelo://app?vid=29f246a6-bf44-455d-b9d7-de191a6777e4","ios":"levelo://app?vid=29f246a6-bf44-455d-b9d7-de191a6777e4"},"vehicle_type_id":"4","last_reported":1734383299,"current_range_meters":800,"station_id":"ce4bhbh2rcd13ifvqeqg","pricing_plan_id":"cebpf4jnsgd1na2vs0mg"},{"bike_id":"3485f5ea-e78d-4f3a-89b6-6d406d9ea28d","system_id":"levelo_inurba_marseille","lat":43.28561,"lon":5.39494,"is_reserved":false,"is_disabled":false,"rental_uris":{"android":"levelo://app?vid=3485f5ea-e78d-4f3a-89b6-6d406d9ea28d","ios":"levelo://app?vid=3485f5ea-e78d-4f3a-89b6-6d406d9ea28d"},"vehicle_type_id":"4","last_reported":1734383299,"current_range_meters":25200,"station_id":"ce4bh292rcd13ifvqdg0","pricing_plan_id":"cebpf4jnsgd1na2vs0mg"},{"bike_id":"1591dede-887b-41d4-b3a1-452ef5328a4f","system_id":"levelo_inurba_marseille","lat":43.29552,"lon":5.42276,"is_reserved":false,"is_disabled":false,"rental_uris":{"android":"levelo://app?vid=1591dede-887b-41d4-b3a1-452ef5328a4f","ios":"levelo://app?vid=1591dede-887b-41d4-b3a1-452ef5328a4f"},"vehicle_type_id":"4","last_reported":1734383299,"current_range_meters":38800,"station_id":"ce4bhph2rcd13ifvqhdg","pricing_plan_id":"cebpf4jnsgd1na2vs0mg"},{"bike_id":"6d508ea7-1740-47db-a8c4-e7c1f75d5945","system_id":"levelo_inurba_marseille","lat":43.26949,"lon":5.3863,"is_reserved":false,"is_disabled":true,"rental_uris":{"android":"levelo://app?vid=6d508ea7-1740-47db-a8c4-e7c1f75d5945","ios":"levelo://app?vid=6d508ea7-1740-47db-a8c4-e7c1f75d5945"},"vehicle_type_id":"4","last_reported":1734383299,"current_range_meters":0,"station_id":"ce4bhh92rcd13ifvqfh0","pricing_plan_id":"cebpf4jnsgd1na2vs0mg"},{"bike_id":"477d2549-b022-4827-9d7e-c01d93ff35ae","system_id":"levelo_inurba_marseille","lat":43.27816,"lon":5.4071,"is_reserved":false,"is_disabled":false,"rental_uris":{"android":"levelo://app?vid=477d2549-b022-4827-9d7e-c01d93ff35ae","ios":"levelo://app?vid=477d2549-b022-4827-9d7e-c01d93ff35ae"},"vehicle_type_id":"4","last_reported":1734383299,"current_range_meters":24400,"station_id":"ce4bhnh2rcd13ifvqgtg","pricing_plan_id":"cebpf4jnsgd1na2vs0mg"},{"bike_id":"3f27d279-1803-4c81-af7b-bbf551f71008","system_id":"levelo_inurba_marseille","lat":43.26677,"lon":5.38262,"is_reserved":false,"is_disabled":false,"rental_uris":{"android":"levelo://app?vid=3f27d279-1803-4c81-af7b-bbf551f71008","ios":"levelo://app?vid=3f27d279-1803-4c81-af7b-bbf551f71008"},"vehicle_type_id":"4","last_reported":1734383299,"current_range_meters":35600,"station_id":"ce4bhg92rcd13ifvqf90","pricing_plan_id":"cebpf4jnsgd1na2vs0mg"},{"bike_id":"255752c4-6ba4-46ea-9db8-7dcd75f00362","system_id":"levelo_inurba_marseille","lat":43.2925,"lon":5.3843,"is_reserved":false,"is_disabled":false,"rental_uris":{"android":"levelo://app?vid=255752c4-6ba4-46ea-9db8-7dcd75f00362","ios":"levelo://app?vid=255752c4-6ba4-46ea-9db8-7dcd75f00362"},"vehicle_type_id":"4","last_reported":1734383299,"current_range_meters":33600,"station_id":"ce4bh692rcd13ifvqea0","pricing_plan_id":"cebpf4jnsgd1na2vs0mg"},{"bike_id":"d0574969-6bb2-4b6a-a666-e57816237af8","system_id":"levelo_inurba_marseille","lat":43.28673,"lon":5.38677,"is_reserved":false,"is_disabled":false,"rental_uris":{"android":"levelo://app?vid=d0574969-6bb2-4b6a-a666-e57816237af8","ios":"levelo://app?vid=d0574969-6bb2-4b6a-a666-e57816237af8"},"vehicle_type_id":"4","last_reported":1734383299,"current_range_meters":38800,"station_id":"ce4bh492rcd13ifvqdug","pricing_plan_id":"cebpf4jnsgd1na2vs0mg"},{"bike_id":"7af2ef9a-eb71-4148-a748-b140dab6df51","system_id":"levelo_inurba_marseille","lat":43.26571,"lon":5.39033,"is_reserved":false,"is_disabled":false,"rental_uris":{"android":"levelo://app?vid=7af2ef9a-eb71-4148-a748-b140dab6df51","ios":"levelo://app?vid=7af2ef9a-eb71-4148-a748-b140dab6df51"},"vehicle_type_id":"4","last_reported":1734383299,"current_range_meters":38800,"station_id":"ce4bhe12rcd13ifvqf30","pricing_plan_id":"cebpf4jnsgd1na2vs0mg"},{"bike_id":"26579991-0e4b-445a-93aa-31ab44d1afae","system_id":"levelo_inurba_marseille","lat":43.33616,"lon":5.41035,"is_reserved":false,"is_disabled":true,"rental_uris":{"android":"levelo://app?vid=26579991-0e4b-445a-93aa-31ab44d1afae","ios":"levelo://app?vid=26579991-0e4b-445a-93aa-31ab44d1afae"},"vehicle_type_id":"4","last_reported":1734383299,"current_range_meters":37600,"station_id":"ce4bhqh2rcd13ifvqhmg","pricing_plan_id":"cebpf4jnsgd1na2vs0mg"},{"bike_id":"1c625ce6-6d73-4f27-9bd6-c25955847929","system_id":"levelo_inurba_marseille","lat":43.278107,"lon":5.40704,"is_reserved":false,"is_disabled":false,"rental_uris":{"android":"levelo://app?vid=1c625ce6-6d73-4f27-9bd6-c25955847929","ios":"levelo://app?vid=1c625ce6-6d73-4f27-9bd6-c25955847929"},"vehicle_type_id":"4","last_reported":1734383299,"current_range_meters":34000,"station_id":"ce4bhnh2rcd13ifvqgtg","pricing_plan_id":"cebpf4jnsgd1na2vs0mg"},{"bike_id":"c1f2f608-52c4-4bfc-9fa5-8849aa0a4af5","system_id":"levelo_inurba_marseille","lat":43.27814,"lon":5.40711,"is_reserved":false,"is_disabled":false,"rental_uris":{"android":"levelo://app?vid=c1f2f608-52c4-4bfc-9fa5-8849aa0a4af5","ios":"levelo://app?vid=c1f2f608-52c4-4bfc-9fa5-8849aa0a4af5"},"vehicle_type_id":"4","last_reported":1734383299,"current_range_meters":36400,"station_id":"ce4bhnh2rcd13ifvqgtg","pricing_plan_id":"cebpf4jnsgd1na2vs0mg"},{"bike_id":"dee21283-4521-4c1a-b53d-9510ded6ec60","system_id":"levelo_inurba_marseille","lat":43.23968,"lon":5.36623,"is_reserved":false,"is_disabled":false,"rental_uris":{"android":"levelo://app?vid=dee21283-4521-4c1a-b53d-9510ded6ec60","ios":"levelo://app?vid=dee21283-4521-4c1a-b53d-9510ded6ec60"},"vehicle_type_id":"4","last_reported":1734383299,"current_range_meters":38800,"station_id":"ce4bhi12rcd13ifvqfp0","pricing_plan_id":"cebpf4jnsgd1na2vs0mg"},{"bike_id":"f3b200a5-6a23-406b-a9ec-5ae4da8a9a05","system_id":"levelo_inurba_marseille","lat":43.3011,"lon":5.3907,"is_reserved":false,"is_disabled":false,"rental_uris":{"android":"levelo://app?vid=f3b200a5-6a23-406b-a9ec-5ae4da8a9a05","ios":"levelo://app?vid=f3b200a5-6a23-406b-a9ec-5ae4da8a9a05"},"vehicle_type_id":"4","last_reported":1734383299,"current_range_meters":36000,"station_id":"ce4bh192rcd13ifvqdb0","pricing_plan_id":"cebpf4jnsgd1na2vs0mg"},{"bike_id":"1ecf6bd5-393a-4b8b-823c-a2ba20b02dcd","system_id":"levelo_inurba_marseille","lat":43.28156,"lon":5.42646,"is_reserved":false,"is_disabled":false,"rental_uris":{"android":"levelo://app?vid=1ecf6bd5-393a-4b8b-823c-a2ba20b02dcd","ios":"levelo://app?vid=1ecf6bd5-393a-4b8b-823c-a2ba20b02dcd"},"vehicle_type_id":"4","last_reported":1734383299,"current_range_meters":16400,"station_id":"ce4bhnh2rcd13ifvqgug","pricing_plan_id":"cebpf4jnsgd1na2vs0mg"},{"bike_id":"e6ee4bb2-6f45-4a12-bd0d-9861c46e29dc","system_id":"levelo_inurba_marseille","lat":43.27818,"lon":5.40706,"is_reserved":false,"is_disabled":false,"rental_uris":{"android":"levelo://app?vid=e6ee4bb2-6f45-4a12-bd0d-9861c46e29dc","ios":"levelo://app?vid=e6ee4bb2-6f45-4a12-bd0d-9861c46e29dc"},"vehicle_type_id":"4","last_reported":1734383299,"current_range_meters":32800,"station_id":"ce4bhnh2rcd13ifvqgtg","pricing_plan_id":"cebpf4jnsgd1na2vs0mg"},{"bike_id":"f66ff464-db4b-4a2c-92b3-f0a2d14f5cc4","system_id":"levelo_inurba_marseille","lat":43.2904,"lon":5.37561,"is_reserved":false,"is_disabled":false,"rental_uris":{"android":"levelo://app?vid=f66ff464-db4b-4a2c-92b3-f0a2d14f5cc4","ios":"levelo://app?vid=f66ff464-db4b-4a2c-92b3-f0a2d14f5cc4"},"vehicle_type_id":"4","last_reported":1734383299,"current_range_meters":36400,"station_id":"ce4bh692rcd13ifvqe90","pricing_plan_id":"cebpf4jnsgd1na2vs0mg"},{"bike_id":"63c0c746-60d7-4577-af9a-1ceb0fb39dba","system_id":"levelo_inurba_marseille","lat":43.26804,"lon":5.40264,"is_reserved":false,"is_disabled":false,"rental_uris":{"android":"levelo://app?vid=63c0c746-60d7-4577-af9a-1ceb0fb39dba","ios":"levelo://app?vid=63c0c746-60d7-4577-af9a-1ceb0fb39dba"},"vehicle_type_id":"4","last_reported":1734383299,"current_range_meters":38800,"station_id":"ce501612rcd8frsf0b60","pricing_plan_id":"cebpf4jnsgd1na2vs0mg"},{"bike_id":"09f7713a-9c98-4804-bdcc-00585897b244","system_id":"levelo_inurba_marseille","lat":43.28932,"lon":5.36638,"is_reserved":false,"is_disabled":false,"rental_uris":{"android":"levelo://app?vid=09f7713a-9c98-4804-bdcc-00585897b244","ios":"levelo://app?vid=09f7713a-9c98-4804-bdcc-00585897b244"},"vehicle_type_id":"4","last_reported":1734383299,"current_range_meters":30800,"station_id":"ce4bhap2rcd13ifvqek0","pricing_plan_id":"cebpf4jnsgd1na2vs0mg"},{"bike_id":"fb4b3e1e-cdaa-47a2-827a-6e304699883c","system_id":"levelo_inurba_marseille","lat":43.31722,"lon":5.42397,"is_reserved":false,"is_disabled":false,"rental_uris":{"android":"levelo://app?vid=fb4b3e1e-cdaa-47a2-827a-6e304699883c","ios":"levelo://app?vid=fb4b3e1e-cdaa-47a2-827a-6e304699883c"},"vehicle_type_id":"4","last_reported":1734383299,"current_range_meters":37600,"station_id":"ce4bhp92rcd13ifvqhbg","pricing_plan_id":"cebpf4jnsgd1na2vs0mg"},{"bike_id":"58685cb2-a271-430c-be18-8380f1ddc5f6","system_id":"levelo_inurba_marseille","lat":43.26553,"lon":5.37286,"is_reserved":false,"is_disabled":false,"rental_uris":{"android":"levelo://app?vid=58685cb2-a271-430c-be18-8380f1ddc5f6","ios":"levelo://app?vid=58685cb2-a271-430c-be18-8380f1ddc5f6"},