{"last_updated":1768147979,"ttl":60,"version":"2.2","data":{"bikes":[{"bike_id":"773e4953-c09a-41ff-abeb-a95decd207a5","system_id":"levelo_inurba_marseille","lat":43.26563,"lon":5.37292,"is_reserved":false,"is_disabled":false,"rental_uris":{"android":"levelo://app?vid=773e4953-c09a-41ff-abeb-a95decd207a5","ios":"levelo://app?vid=773e4953-c09a-41ff-abeb-a95decd207a5"},"vehicle_type_id":"4","last_reported":1768147979,"current_range_meters":2800,"station_id":"ce4bhg12rcd13ifvqf70","pricing_plan_id":"cebpf4jnsgd1na2vs0mg"},{"bike_id":"1d4b64b2-4ab7-4606-8aca-fc104d50cd04","system_id":"levelo_inurba_marseille","lat":43.295282,"lon":5.390391,"is_reserved":false,"is_disabled":false,"rental_uris":{"android":"levelo://app?vid=1d4b64b2-4ab7-4606-8aca-fc104d50cd04","ios":"levelo://app?vid=1d4b64b2-4ab7-4606-8aca-fc104d50cd04"},"vehicle_type_id":"4","last_reported":1768147979,"current_range_meters":2800,"station_id":"ce4bh3p2rcd13ifvqdp0","pricing_plan_id":"cebpf4jnsgd1na2vs0mg"},{"bike_id":"31ddb865-11db-4d02-a42e-59f8adbeb38f","system_id":"levelo_inurba_marseille","lat":43.24051,"lon":5.37771,"is_reserved":false,"is_disabled":false,"rental_uris":{"android":"levelo://app?vid=31ddb865-11db-4d02-a42e-59f8adbeb38f","ios":"levelo://app?vid=31ddb865-11db-4d02-a42e-59f8adbeb38f"},"vehicle_type_id":"4","last_reported":1768147979,"current_range_meters":2800,"station_id":"ce4bhnp2rcd13ifvqgvg","pricing_plan_id":"cebpf4jnsgd1na2vs0mg"},{"bike_id":"74077bd0-34d2-4d34-9b69-679923fd798e","system_id":"levelo_inurba_marseille","lat":43.23961,"lon":5.36629,"is_reserved":false,"is_disabled":false,"rental_uris":{"android":"levelo://app?vid=74077bd0-34d2-4d34-9b69-679923fd798e","ios":"levelo://app?vid=74077bd0-34d2-4d34-9b69-679923fd798e"},"vehicle_type_id":"4","last_reported":1768147979,"current_range_meters":2800,"station_id":"ce4bhi12rcd13ifvqfp0","pricing_plan_id":"cebpf4jnsgd1na2vs0mg"},{"bike_id":"344318d5-d37d-415c-a19d-49a3cc55b651","system_id":"levelo_inurba_marseille","lat":43.23193,"lon":5.39967,"is_reserved":false,"is_disabled":false,"rental_uris":{"android":"levelo://app?vid=344318d5-d37d-415c-a19d-49a3cc55b651","ios":"levelo://app?vid=344318d5-d37d-415c-a19d-49a3cc55b651"},"vehicle_type_id":"4","last_reported":1768147979,"current_range_meters":2800,"station_id":"ce4bhn12rcd13ifvqgqg","pricing_plan_id":"cebpf4jnsgd1na2vs0mg"},{"bike_id":"3d3ab340-7df0-45a6-b6bf-f26dee187b81","system_id":"levelo_inurba_marseille","lat":43.25864,"lon":5.39893,"is_reserved":false,"is_disabled":false,"rental_uris":{"android":"levelo://app?vid=3d3ab340-7df0-45a6-b6bf-f26dee187b81","ios":"levelo://app?vid=3d3ab340-7df0-45a6-b6bf-f26dee187b81"},"vehicle_type_id":"4","last_reported":1768147979,"current_range_meters":2800,"station_id":"ce4bhl92rcd13ifvqghg","pricing_plan_id":"cebpf4jnsgd1na2vs0mg"},{"bike_id":"62119b3a-a6bc-4525-9e02-e04e95b480a0","system_id":"levelo_inurba_marseille","lat":43.31172,"lon":5.38708,"is_reserved":false,"is_disabled":false,"rental_uris":{"android":"levelo://app?vid=62119b3a-a6bc-4525-9e02-e04e95b480a0","ios":"levelo://app?vid=62119b3a-a6bc-4525-9e02-e04e95b480a0"},"vehicle_type_id":"4","last_reported":1768147979,"current_range_meters":2800,"station_id":"ce4bgv12rcd13ifvqcp0","pricing_plan_id":"cebpf4jnsgd1na2vs0mg"},{"bike_id":"1d2da464-79bc-4f4a-9df3-99a307867c6a","system_id":"levelo_inurba_marseille","lat":43.283017,"lon":5.352182,"is_reserved":false,"is_disabled":false,"rental_uris":{"android":"levelo://app?vid=1d2da464-79bc-4f4a-9df3-99a307867c6a","ios":"levelo://app?vid=1d2da464-79bc-4f4a-9df3-99a307867c6a"},"vehicle_type_id":"4","last_reported":1768147979,"current_range_meters":2800,"station_id":"","pricing_plan_id":"cebpf4jnsgd1na2vs0mg"},{"bike_id":"15705fcb-fc6a-4f08-9895-a6a73b2606cb","system_id":"levelo_inurba_marseille","lat":43.26074,"lon":5.39428,"is_reserved":false,"is_disabled":false,"rental_uris":{"android":"levelo://app?vid=15705fcb-fc6a-4f08-9895-a6a73b2606cb","ios":"levelo://app?vid=15705fcb-fc6a-4f08-9895-a6a73b2606cb"},"vehicle_type_id":"4","last_reported":1768147979,"current_range_meters":2800,"station_id":"ce4bhh92rcd13ifvqfj0","pricing_plan_id":"cebpf4jnsgd1na2vs0mg"},{"bike_id":"d1b33791-843f-4b3b-bcba-ae103582101a","system_id":"levelo_inurba_marseille","lat":43.28609,"lon":5.398675,"is_reserved":false,"is_disabled":false,"rental_uris":{"android":"levelo://app?vid=d1b33791-843f-4b3b-bcba-ae103582101a","ios":"levelo://app?vid=d1b33791-843f-4b3b-bcba-ae103582101a"},"vehicle_type_id":"4","last_reported":1768147979,"current_range_meters":2800,"station_id":"st_d4a7ka997mjs738ck50g","pricing_plan_id":"cebpf4jnsgd1na2vs0mg"},{"bike_id":"af9b23d8-c595-4762-b731-d52bde034a6a","system_id":"levelo_inurba_marseille","lat":43.26573,"lon":5.39046,"is_reserved":false,"is_disabled":false,"rental_uris":{"android":"levelo://app?vid=af9b23d8-c595-4762-b731-d52bde034a6a","ios":"levelo://app?vid=af9b23d8-c595-4762-b731-d52bde034a6a"},"vehicle_type_id":"4","last_reported":1768147979,"current_range_meters":2800,"station_id":"ce4bhe12rcd13ifvqf30","pricing_plan_id":"cebpf4jnsgd1na2vs0mg"},{"bike_id":"8dbc6796-10ad-485e-bfaa-05f30cae6c7d","system_id":"levelo_inurba_marseille","lat":43.2952,"lon":5.37893,"is_reserved":false,"is_disabled":true,"rental_uris":{"android":"levelo://app?vid=8dbc6796-10ad-485e-bfaa-05f30cae6c7d","ios":"levelo://app?vid=8dbc6796-10ad-485e-bfaa-05f30cae6c7d"},"vehicle_type_id":"4","last_reported":1768147979,"current_range_meters":2800,"station_id":"","pricing_plan_id":"cebpf4jnsgd1na2vs0mg"},{"bike_id":"716eca22-b1d7-4816-8aa3-9bbc5b4dcaf6","system_id":"levelo_inurba_marseille","lat":43.28858,"lon":5.35839,"is_reserved":false,"is_disabled":false,"rental_uris":{"android":"levelo://app?vid=716eca22-b1d7-4816-8aa3-9bbc5b4dcaf6","ios":"levelo://app?vid=716eca22-b1d7-4816-8aa3-9bbc5b4dcaf6"},"vehicle_type_id":"4","last_reported":1768147979,"current_range_meters":3200,"station_id":"ce4bhb12rcd13ifvqem0","pricing_plan_id":"cebpf4jnsgd1na2vs0mg"},{"bike_id":"d29147e9-12b9-49d5-9a41-487e37c613b5","system_id":"levelo_inurba_marseille","lat":43.22565,"lon":5.41633,"is_reserved":false,"is_disabled":false,"rental_uris":{"android":"levelo://app?vid=d29147e9-12b9-49d5-9a41-487e37c613b5","ios":"levelo://app?vid=d29147e9-12b9-49d5-9a41-487e37c613b5"},"vehicle_type_id":"4","last_reported":1768147979,"current_range_meters":3200,"station_id":"st_d2o4gvlbi1j2169b742g","pricing_plan_id":"cebpf4jnsgd1na2vs0mg"},{"bike_id":"bb5861a4-c280-45af-949e-7e242d20004c","system_id":"levelo_inurba_marseille","lat":43.286102,"lon":5.351132,"is_reserved":false,"is_disabled":false,"rental_uris":{"android":"levelo://app?vid=bb5861a4-c280-45af-949e-7e242d20004c","ios":"levelo://app?vid=bb5861a4-c280-45af-949e-7e242d20004c"},"vehicle_type_id":"4","last_reported":1768147979,"current_range_meters":3200,"station_id":"","pricing_plan_id":"cebpf4jnsgd1na2vs0mg"},{"bike_id":"b7a03435-6792-4196-b7db-b3c41aab1e22","system_id":"levelo_inurba_marseille","lat":43.30323,"lon":5.40431,"is_reserved":false,"is_disabled":false,"rental_uris":{"android":"levelo://app?vid=b7a03435-6792-4196-b7db-b3c41aab1e22","ios":"levelo://app?vid=b7a03435-6792-4196-b7db-b3c41aab1e22"},"vehicle_type_id":"4","last_reported":1768147979,"current_range_meters":3200,"station_id":"ce4bh012rcd13ifvqd10","pricing_plan_id":"cebpf4jnsgd1na2vs0mg"},{"bike_id":"5094aeb9-ac3f-47d1-a484-8aeeb36f0571","system_id":"levelo_inurba_marseille","lat":43.27988,"lon":5.4166,"is_reserved":false,"is_disabled":false,"rental_uris":{"android":"levelo://app?vid=5094aeb9-ac3f-47d1-a484-8aeeb36f0571","ios":"levelo://app?vid=5094aeb9-ac3f-47d1-a484-8aeeb36f0571"},"vehicle_type_id":"4","last_reported":1768147979,"current_range_meters":3200,"station_id":"ce4bho12rcd13ifvqh1g","pricing_plan_id":"cebpf4jnsgd1na2vs0mg"},{"bike_id":"b2295231-8d7a-4a3c-8ee1-7dbae04933b0","system_id":"levelo_inurba_marseille","lat":43.26941,"lon":5.40418,"is_reserved":false,"is_disabled":false,"rental_uris":{"android":"levelo://app?vid=b2295231-8d7a-4a3c-8ee1-7dbae04933b0","ios":"levelo://app?vid=b2295231-8d7a-4a3c-8ee1-7dbae04933b0"},"vehicle_type_id":"4","last_reported":1768147979,"current_range_meters":3200,"station_id":"cjm6bp8fraef2m0cb0m0","pricing_plan_id":"cebpf4jnsgd1na2vs0mg"},{"bike_id":"2f94929b-7e6c-4e24-b276-2f585e92f29a","system_id":"levelo_inurba_marseille","lat":43.297576,"lon":5.427726,"is_reserved":false,"is_disabled":true,"rental_uris":{"android":"levelo://app?vid=2f94929b-7e6c-4e24-b276-2f585e92f29a","ios":"levelo://app?vid=2f94929b-7e6c-4e24-b276-2f585e92f29a"},"vehicle_type_id":"4","last_reported":1768147979,"current_range_meters":3200,"station_id":"st_d3md5207bmas73dh9klg","pricing_plan_id":"cebpf4jnsgd1na2vs0mg"},{"bike_id":"7bacb1b8-d414-4ae1-b1b9-375c09195819","system_id":"levelo_inurba_marseille","lat":43.30548,"lon":5.36556,"is_reserved":false,"is_disabled":false,"rental_uris":{"android":"levelo://app?vid=7bacb1b8-d414-4ae1-b1b9-375c09195819","ios":"levelo://app?vid=7bacb1b8-d414-4ae1-b1b9-375c09195819"},"vehicle_type_id":"4","last_reported":1768147979,"current_range_meters":3200,"station_id":"ce4bgs12rcd13ifvqcag","pricing_plan_id":"cebpf4jnsgd1na2vs0mg"},{"bike_id":"e3f8a098-8639-446b-9c17-a55f46262e9c","system_id":"levelo_inurba_marseille","lat":43.25344,"lon":5.42152,"is_reserved":false,"is_disabled":false,"rental_uris":{"android":"levelo://app?vid=e3f8a098-8639-446b-9c17-a55f46262e9c","ios":"levelo://app?vid=e3f8a098-8639-446b-9c17-a55f46262e9c"},"vehicle_type_id":"4","last_reported":1768147979,"current_range_meters":3200,"station_id":"st_d2m65c5bi1j21697t3ng","pricing_plan_id":"cebpf4jnsgd1na2vs0mg"},{"bike_id":"2a619a57-8268-4929-b562-bc0b9dfe87a7","system_id":"levelo_inurba_marseille","lat":43.30555,"lon":5.36542,"is_reserved":false,"is_disabled":false,"rental_uris":{"android":"levelo://app?vid=2a619a57-8268-4929-b562-bc0b9dfe87a7","ios":"levelo://app?vid=2a619a57-8268-4929-b562-bc0b9dfe87a7"},"vehicle_type_id":"4","last_reported":1768147979,"current_range_meters":3200,"station_id":"ce4bgs12rcd13ifvqcag","pricing_plan_id":"cebpf4jnsgd1na2vs0mg"},{"bike_id":"6b9414e2-ab18-418b-8bc1-c3043d3d239b","system_id":"levelo_inurba_marseille","lat":43.260247,"lon":5.37549,"is_reserved":false,"is_disabled":false,"rental_uris":{"android":"levelo://app?vid=6b9414e2-ab18-418b-8bc1-c3043d3d239b","ios":"levelo://app?vid=6b9414e2-ab18-418b-8bc1-c3043d3d239b"},"vehicle_type_id":"4","last_reported":1768147979,"current_range_meters":3200,"station_id":"ce4bhgh2rcd13ifvqfa0","pricing_plan_id":"cebpf4jnsgd1na2vs0mg"},{"bike_id":"0b09aa27-0b01-4b3a-8132-f473500df553","system_id":"levelo_inurba_marseille","lat":43.29029,"lon":5.43969,"is_reserved":false,"is_disabled":false,"rental_uris":{"android":"levelo://app?vid=0b09aa27-0b01-4b3a-8132-f473500df553","ios":"levelo://app?vid=0b09aa27-0b01-4b3a-8132-f473500df553"},"vehicle_type_id":"4","last_reported":1768147979,"current_range_meters":3200,"station_id":"","pricing_plan_id":"cebpf4jnsgd1na2vs0mg"},{"bike_id":"e8c2506f-c484-44be-956f-9290cd222ff7","system_id":"levelo_inurba_marseille","lat":43.25812,"lon":5.39432,"is_reserved":false,"is_disabled":false,"rental_uris":{"android":"levelo://app?vid=e8c2506f-c484-44be-956f-9290cd222ff7","ios":"levelo://app?vid=e8c2506f-c484-44be-956f-9290cd222ff7"},"vehicle_type_id":"4","last_reported":1768147979,"current_range_meters":3200,"station_id":"ce4bhip2rcd13ifvqft0","pricing_plan_id":"cebpf4jnsgd1na2vs0mg"},{"bike_id":"7cbc8ec6-0e93-484e-a331-c252498fc9a9","system_id":"levelo_inurba_marseille","lat":43.29004,"lon":5.35616,"is_reserved":false,"is_disabled":false,"rental_uris":{"android":"levelo://app?vid=7cbc8ec6-0e93-484e-a331-c252498fc9a9","ios":"levelo://app?vid=7cbc8ec6-0e93-484e-a331-c252498fc9a9"},"vehicle_type_id":"4","last_reported":1768147979,"current_range_meters":3200,"station_id":"ce4bhb92rcd13ifvqen0","pricing_plan_id":"cebpf4jnsgd1na2vs0mg"},{"bike_id":"6b468f87-c778-443b-b772-9f7ef9ff4c87","system_id":"levelo_inurba_marseille","lat":43.24384,"lon":5.37058,"is_reserved":false,"is_disabled":false,"rental_uris":{"android":"levelo://app?vid=6b468f87-c778-443b-b772-9f7ef9ff4c87","ios":"levelo://app?vid=6b468f87-c778-443b-b772-9f7ef9ff4c87"},"vehicle_type_id":"4","last_reported":1768147979,"current_range_meters":3200,"station_id":"ce4bhhh2rcd13ifvqfk0","pricing_plan_id":"cebpf4jnsgd1na2vs0mg"},{"bike_id":"8a8507c0-6486-4134-add3-f4aa18173fdf","system_id":"levelo_inurba_marseille","lat":43.29576,"lon":5.36729,"is_reserved":false,"is_disabled":false,"rental_uris":{"android":"levelo://app?vid=8a8507c0-6486-4134-add3-f4aa18173fdf","ios":"levelo://app?vid=8a8507c0-6486-4134-add3-f4aa18173fdf"},"vehicle_type_id":"4","last_reported":1768147979,"current_range_meters":3200,"station_id":"ce4bgph2rcd13ifvqc2g","pricing_plan_id":"cebpf4jnsgd1na2vs0mg"},{"bike_id":"21fd000f-f4ce-4f18-a6a2-88e29d9458f7","system_id":"levelo_inurba_marseille","lat":43.23784,"lon":5.36594,"is_reserved":false,"is_disabled":false,"rental_uris":{"android":"levelo://app?vid=21fd000f-f4ce-4f18-a6a2-88e29d9458f7","ios":"levelo://app?vid=21fd000f-f4ce-4f18-a6a2-88e29d9458f7"},"vehicle_type_id":"4","last_reported":1768147979,"current_range_meters":3200,"station_id":"st_d3nk18o9ro0c73en2l3g","pricing_plan_id":"cebpf4jnsgd1na2vs0mg"},{"bike_id":"dbe9e179-37a7-4bf6-8958-b4f7e3523bb3","system_id":"levelo_inurba_marseille","lat":43.28286,"lon":5.43027,"is_reserved":false,"is_disabled":false,"rental_uris":{"android":"levelo://app?vid=dbe9e179-37a7-4bf6-8958-b4f7e3523bb3","ios":"levelo://app?vid=dbe9e179-37a7-4bf6-8958-b4f7e3523bb3"},"vehicle_type_id":"4","last_reported":1768147979,"current_range_meters":3200,"station_id":"","pricing_plan_id":"cebpf4jnsgd1na2vs0mg"},{"bike_id":"f85383e3-b8cf-4599-acaa-da20e255b7cf","system_id":"levelo_inurba_marseille","lat":43.2835,"lon":5.38629,"is_reserved":false,"is_disabled":false,"rental_uris":{"android":"levelo://app?vid=f85383e3-b8cf-4599-acaa-da20e255b7cf","ios":"levelo://app?vid=f85383e3-b8cf-4599-acaa-da20e255b7cf"},"vehicle_type_id":"4","last_reported":1768147979,"current_range_meters":3200,"station_id":"ce4bh492rcd13ifvqdvg","pricing_plan_id":"cebpf4jnsgd1na2vs0mg"},{"bike_id":"b0705fba-044f-40d4-aa4d-c063a6c8eff7","system_id":"levelo_inurba_marseille","lat":43.29007,"lon":5.35593,"is_reserved":false,"is_disabled":false,"rental_uris":{"android":"levelo://app?vid=b0705fba-044f-40d4-aa4d-c063a6c8eff7","ios":"levelo://app?vid=b0705fba-044f-40d4-aa4d-c063a6c8eff7"},"vehicle_type_id":"4","last_reported":1768147979,"current_range_meters":3200,"station_id":"ce4bhb92rcd13ifvqen0","pricing_plan_id":"cebpf4jnsgd1na2vs0mg"},{"bike_id":"39aa6ac0-3fc2-41c1-873a-4104f4baaa21","system_id":"levelo_inurba_marseille","lat":43.305378,"lon":5.365728,"is_reserved":false,"is_disabled":false,"rental_uris":{"android":"levelo://app?vid=39aa6ac0-3fc2-41c1-873a-4104f4baaa21","ios":"levelo://app?vid=39aa6ac0-3fc2-41c1-873a-4104f4baaa21"},"vehicle_type_id":"4","last_reported":1768147979,"current_range_meters":3600,"station_id":"ce4bgs12rcd13ifvqcag","pricing_plan_id":"cebpf4jnsgd1na2vs0mg"},{"bike_id":"a1dcd8bf-b300-4092-8c84-5204375249a5","system_id":"levelo_inurba_marseille","lat":43.24808,"lon":5.37458,"is_reserved":false,"is_disabled":false,"rental_uris":{"android":"levelo://app?vid=a1dcd8bf-b300-4092-8c84-5204375249a5","ios":"levelo://app?vid=a1dcd8bf-b300-4092-8c84-5204375249a5"},"vehicle_type_id":"4","last_reported":1768147979,"current_range_meters":3600,"station_id":"ce4bhgh2rcd13ifvqfb0","pricing_plan_id":"cebpf4jnsgd1na2vs0mg"},{"bike_id":"611d5909-481c-4108-a2ce-d73d9b8234f6","system_id":"levelo_inurba_marseille","lat":43.261999,"lon":5.374492,"is_reserved":false,"is_disabled":false,"rental_uris":{"android":"levelo://app?vid=611d5909-481c-4108-a2ce-d73d9b8234f6","ios":"levelo://app?vid=611d5909-481c-4108-a2ce-d73d9b8234f6"},"vehicle_type_id":"4","last_reported":1768147979,"current_range_meters":3600,"station_id":"ce4bhgp2rcd13ifvqfc0","pricing_plan_id":"cebpf4jnsgd1na2vs0mg"},{"bike_id":"7b2e1feb-e452-437c-bf2c-529398956fa8","system_id":"levelo_inurba_marseille","lat":43.27329,"lon":5.39099,"is_reserved":false,"is_disabled":false,"rental_uris":{"android":"levelo://app?vid=7b2e1feb-e452-437c-bf2c-529398956fa8","ios":"levelo://app?vid=7b2e1feb-e452-437c-bf2c-529398956fa8"},"vehicle_type_id":"4","last_reported":1768147979,"current_range_meters":3600,"station_id":"ce4bhgp2rcd13ifvqfe0","pricing_plan_id":"cebpf4jnsgd1na2vs0mg"},{"bike_id":"a0538f88-10de-4f01-8f83-3a7145dbe748","system_id":"levelo_inurba_marseille","lat":43.26032,"lon":5.37553,"is_reserved":false,"is_disabled":false,"rental_uris":{"android":"levelo://app?vid=a0538f88-10de-4f01-8f83-3a7145dbe748","ios":"levelo://app?vid=a0538f88-10de-4f01-8f83-3a7145dbe748"},"vehicle_type_id":"4","last_reported":1768147979,"current_range_meters":3600,"station_id":"ce4bhgh2rcd13ifvqfa0","pricing_plan_id":"cebpf4jnsgd1na2vs0mg"},{"bike_id":"60da192e-f3d2-490a-b0e7-92d34eddd641","system_id":"levelo_inurba_marseille","lat":43.279583,"lon":5.387533,"is_reserved":false,"is_disabled":false,"rental_uris":{"android":"levelo://app?vid=60da192e-f3d2-490a-b0e7-92d34eddd641","ios":"levelo://app?vid=60da192e-f3d2-490a-b0e7-92d34eddd641"},"vehicle_type_id":"4","last_reported":1768147979,"current_range_meters":3600,"station_id":"ce4bhg12rcd13ifvqf80","pricing_plan_id":"cebpf4jnsgd1na2vs0mg"},{"bike_id":"f7ae39af-15a6-483f-8a31-40c06ee14e2d","system_id":"levelo_inurba_marseille","lat":43.30883,"lon":5.3963,"is_reserved":false,"is_disabled":false,"rental_uris":{"android":"levelo://app?vid=f7ae39af-15a6-483f-8a31-40c06ee14e2d","ios":"levelo://app?vid=f7ae39af-15a6-483f-8a31-40c06ee14e2d"},"vehicle_type_id":"4","last_reported":1768147979,"current_range_meters":3600,"station_id":"ce4bh012rcd13ifvqcv0","pricing_plan_id":"cebpf4jnsgd1na2vs0mg"},{"bike_id":"e8661126-8573-4545-9562-310222088f42","system_id":"levelo_inurba_marseille","lat":43.23779,"lon":5.36626,"is_reserved":false,"is_disabled":false,"rental_uris":{"android":"levelo://app?vid=e8661126-8573-4545-9562-310222088f42","ios":"levelo://app?vid=e8661126-8573-4545-9562-310222088f42"},"vehicle_type_id":"4","last_reported":1768147979,"current_range_meters":3600,"station_id":"st_d3nk18o9ro0c73en2l3g","pricing_plan_id":"cebpf4jnsgd1na2vs0mg"},{"bike_id":"a8a755ea-548b-49a0-bd73-f17e9c9cf360","system_id":"levelo_inurba_marseille","lat":43.286102,"lon":5.351111,"is_reserved":false,"is_disabled":false,"rental_uris":{"android":"levelo://app?vid=a8a755ea-548b-49a0-bd73-f17e9c9cf360","ios":"levelo://app?vid=a8a755ea-548b-49a0-bd73-f17e9c9cf360"},"vehicle_type_id":"4","last_reported":1768147979,"current_range_meters":3600,"station_id":"ce4bhch2rcd13ifvqeug","pricing_plan_id":"cebpf4jnsgd1na2vs0mg"},{"bike_id":"62ab8297-a2f1-43d0-993c-49e977254497","system_id":"levelo_inurba_marseille","lat":43.28681,"lon":5.38655,"is_reserved":false,"is_disabled":false,"rental_uris":{"android":"levelo://app?vid=62ab8297-a2f1-43d0-993c-49e977254497","ios":"levelo://app?vid=62ab8297-a2f1-43d0-993c-49e977254497"},"vehicle_type_id":"4","last_reported":1768147979,"current_range_meters":3600,"station_id":"ce4bh492rcd13ifvqdug","pricing_plan_id":"cebpf4jnsgd1na2vs0mg"},{"bike_id":"d26f4054-daa5-4936-9c27-6bfc7457f4e6","system_id":"levelo_inurba_marseille","lat":43.28838,"lon":5.35833,"is_reserved":false,"is_disabled":false,"rental_uris":{"android":"levelo://app?vid=d26f4054-daa5-4936-9c27-6bfc7457f4e6","ios":"levelo://app?vid=d26f4054-daa5-4936-9c27-6bfc7457f4e6"},"vehicle_type_id":"4","last_reported":1768147979,"current_range_meters":3600,"station_id":"ce4bhb12rcd13ifvqem0","pricing_plan_id":"cebpf4jnsgd1na2vs0mg"},{"bike_id":"3298400b-a581-435c-aa7d-6c0aebe8e78f","system_id":"levelo_inurba_marseille","lat":43.32479,"lon":5.36561,"is_reserved":false,"is_disabled":false,"rental_uris":{"android":"levelo://app?vid=3298400b-a581-435c-aa7d-6c0aebe8e78f","ios":"levelo://app?vid=3298400b-a581-435c-aa7d-6c0aebe8e78f"},"vehicle_type_id":"4","last_reported":1768147979,"current_range_meters":4000,"station_id":"ce4bhs12rcd13ifvqhvg","pricing_plan_id":"cebpf4jnsgd1na2vs0mg"},{"bike_id":"55b9f7bf-f636-4d95-87ce-c4cb6a492fdf","system_id":"levelo_inurba_marseille","lat":43.24641,"lon":5.38869,"is_reserved":false,"is_disabled":false,"rental_uris":{"android":"levelo://app?vid=55b9f7bf-f636-4d95-87ce-c4cb6a492fdf","ios":"levelo://app?vid=55b9f7bf-f636-4d95-87ce-c4cb6a492fdf"},"vehicle_type_id":"4","last_reported":1768147979,"current_range_meters":4000,"station_id":"ce4bhg12rcd13ifvqf60","pricing_plan_id":"cebpf4jnsgd1na2vs0mg"},{"bike_id":"f8075f9d-b8a7-4230-8aa6-7f7f95cc5413","system_id":"levelo_inurba_marseille","lat":43.28213,"lon":5.39063,"is_reserved":false,"is_disabled":true,"rental_uris":{"android":"levelo://app?vid=f8075f9d-b8a7-4230-8aa6-7f7f95cc5413","ios":"levelo://app?vid=f8075f9d-b8a7-4230-8aa6-7f7f95cc5413"},"vehicle_type_id":"4","last_reported":1768147979,"current_range_meters":4000,"station_id":"ce4bhn92rcd13ifvqgsg","pricing_plan_id":"cebpf4jnsgd1na2vs0mg"},{"bike_id":"73aa8b26-ad51-4672-82b0-eabd4ddaa3c3","system_id":"levelo_inurba_marseille","lat":43.288563,"lon":5.358204,"is_reserved":false,"is_disabled":false,"rental_uris":{"android":"levelo://app?vid=73aa8b26-ad51-4672-82b0-eabd4ddaa3c3","ios":"levelo://app?vid=73aa8b26-ad51-4672-82b0-eabd4ddaa3c3"},"vehicle_type_id":"4","last_reported":1768147979,"current_range_meters":4000,"station_id":"ce4bhb12rcd13ifvqem0","pricing_plan_id":"cebpf4jnsgd1na2vs0mg"},{"bike_id":"ff43ef99-a2e3-42cb-a87f-e919c3749872","system_id":"levelo_inurba_marseille","lat":43.29717,"lon":5.41478,"is_reserved":false,"is_disabled":false,"rental_uris":{"android":"levelo://app?vid=ff43ef99-a2e3-42cb-a87f-e919c3749872","ios":"levelo://app?vid=ff43ef99-a2e3-42cb-a87f-e919c3749872"},"vehicle_type_id":"4","last_reported":1768147979,"current_range_meters":4000,"station_id":"","pricing_plan_id":"cebpf4jnsgd1na2vs0mg"},{"bike_id":"499b63c7-d47c-4bda-89d6-56b8c0a94a03","system_id":"levelo_inurba_marseille","lat":43.31656,"lon":5.43052,"is_reserved":false,"is_disabled":false,"rental_uris":{"android":"levelo://app?vid=499b63c7-d47c-4bda-89d6-56b8c0a94a03","ios":"levelo://app?vid=499b63c7-d47c-4bda-89d6-56b8c0a94a03"},"vehicle_type_id":"4","last_reported":1768147979,"current_range_meters":4000,"station_id":"","pricing_plan_id":"cebpf4jnsgd1na2vs0mg"},{"bike_id":"9695ced4-9069-43de-9381-414e38a96d05","system_id":"levelo_inurba_marseille","lat":43.30051,"lon":5.37165,"is_reserved":false,"is_disabled":false,"rental_uris":{"android":"levelo://app?vid=9695ced4-9069-43de-9381-414e38a96d05","ios":"levelo://app?vid=9695ced4-9069-43de-9381-414e38a96d05"},"vehicle_type_id":"4","last_reported":1768147979,"current_range_meters":4000,"station_id":"","pricing_plan_id":"cebpf4jnsgd1na2vs0mg"},{"bike_id":"7f391882-abdd-4a67-9c14-bc81f5c2dbfb","system_id":"levelo_inurba_marseille","lat":43.2407,"lon":5.37748,"is_reserved":false,"is_disabled":false,"rental_uris":{"android":"levelo://app?vid=7f391882-abdd-4a67-9c14-bc81f5c2dbfb","ios":"levelo://app?vid=7f391882-abdd-4a67-9c14-bc81f5c2dbfb"},"vehicle_type_id":"4","last_reported":1768147979,"current_range_meters":4000,"station_id":"ce4bhnp2rcd13ifvqgvg","pricing_plan_id":"cebpf4jnsgd1na2vs0mg"},{"bike_id":"aefca2db-1c09-451a-999f-2ac9a8ff95a2","system_id":"levelo_inurba_marseille","lat":43.3013,"lon":5.39859,"is_reserved":false,"is_disabled":false,"rental_uris":{"android":"levelo://app?vid=aefca2db-1c09-451a-999f-2ac9a8ff95a2","ios":"levelo://app?vid=aefca2db-1c09-451a-999f-2ac9a8ff95a2"},"vehicle_type_id":"4","last_reported":1768147979,"current_range_meters":4000,"station_id":"ce4bh0h2rcd13ifvqd40","pricing_plan_id":"cebpf4jnsgd1na2vs0mg"},{"bike_id":"1b3bfb24-a9b3-432e-a377-81ff67edd865","system_id":"levelo_inurba_marseille","lat":43.2446,"lon":5.42552,"is_reserved":false,"is_disabled":false,"rental_uris":{"android":"levelo://app?vid=1b3bfb24-a9b3-432e-a377-81ff67edd865","ios":"levelo://app?vid=1b3bfb24-a9b3-432e-a377-81ff67edd865"},"vehicle_type_id":"4","last_reported":1768147979,"current_range_meters":4000,"station_id":"st_d4a3vfp97mjs738cd8kg","pricing_plan_id":"cebpf4jnsgd1na2vs0mg"},{"bike_id":"7c6e8543-32df-4a27-bc11-b68f55311974","system_id":"levelo_inurba_marseille","lat":43.284771,"lon":5.484072,"is_reserved":false,"is_disabled":false,"rental_uris":{"android":"levelo://app?vid=7c6e8543-32df-4a27-bc11-b68f55311974","ios":"levelo://app?vid=7c6e8543-32df-4a27-bc11-b68f55311974"},"vehicle_type_id":"4","last_reported":1768147979,"current_range_meters":4000,"station_id":"","pricing_plan_id":"cebpf4jnsgd1na2vs0mg"},{"bike_id":"c7c2fb25-2812-4554-a688-8c1334dc293c","system_id":"levelo_inurba_marseille","lat":43.33359,"lon":5.41124,"is_reserved":false,"is_disabled":false,"rental_uris":{"android":"levelo://app?vid=c7c2fb25-2812-4554-a688-8c1334dc293c","ios":"levelo://app?vid=c7c2fb25-2812-4554-a688-8c1334dc293c"},"vehicle_type_id":"4","last_reported":1768147979,"current_range_meters":4000,"station_id":"","pricing_plan_id":"cebpf4jnsgd1na2vs0mg"},{"bike_id":"00b29d03-83c6-49e3-8d75-efbe052139d9","system_id":"levelo_inurba_marseille","lat":43.29614,"lon":5.37718,"is_reserved":false,"is_disabled":false,"rental_uris":{"android":"levelo://app?vid=00b29d03-83c6-49e3-8d75-efbe052139d9","ios":"levelo://app?vid=00b29d03-83c6-49e3-8d75-efbe052139d9"},"vehicle_type_id":"4","last_reported":1768147979,"current_range_meters":4000,"station_id":"ce4bgi92rcd13ifvqb90","pricing_plan_id":"cebpf4jnsgd1na2vs0mg"},{"bike_id":"16e3fedb-ca09-4c48-89c8-9b7e653afc1d","system_id":"levelo_inurba_marseille","lat":43.21197,"lon":5.35065,"is_reserved":false,"is_disabled":false,"rental_uris":{"android":"levelo://app?vid=16e3fedb-ca09-4c48-89c8-9b7e653afc1d","ios":"levelo://app?vid=16e3fedb-ca09-4c48-89c8-9b7e653afc1d"},"vehicle_type_id":"4","last_reported":1768147979,"current_range_meters":4000,"station_id":"st_cvj6sg6p6f1abm77japg","pricing_plan_id":"cebpf4jnsgd1na2vs0mg"},{"bike_id":"3a7d4bf0-4f04-4cf8-b966-90e49b6d003c","system_id":"levelo_inurba_marseille","lat":43.265696,"lon":5.390213,"is_reserved":false,"is_disabled":false,"rental_uris":{"android":"levelo://app?vid=3a7d4bf0-4f04-4cf8-b966-90e49b6d003c","ios":"levelo://app?vid=3a7d4bf0-4f04-4cf8-b966-90e49b6d003c"},"vehicle_type_id":"4","last_reported":1768147979,"current_range_meters":4400,"station_id":"ce4bhe12rcd13ifvqf30","pricing_plan_id":"cebpf4jnsgd1na2vs0mg"},{"bike_id":"520f905b-9190-4407-aa69-8696aaa8c86e","system_id":"levelo_inurba_marseille","lat":43.29762,"lon":5.37082,"is_reserved":false,"is_disabled":false,"rental_uris":{"android":"levelo://app?vid=520f905b-9190-4407-aa69-8696aaa8c86e","ios":"levelo://app?vid=520f905b-9190-4407-aa69-8696aaa8c86e"},"vehicle_type_id":"4","last_reported":1768147979,"current_range_meters":4400,"station_id":"ce4bgop2rcd13ifvqc1g","pricing_plan_id":"cebpf4jnsgd1na2vs0mg"},{"bike_id":"82ea0eff-fcdd-49ac-8b94-8e49ceef320f","system_id":"levelo_inurba_marseille","lat":43.26218,"lon":5.37462,"is_reserved":false,"is_disabled":false,"rental_uris":{"android":"levelo://app?vid=82ea0eff-fcdd-49ac-8b94-8e49ceef320f","ios":"levelo://app?vid=82ea0eff-fcdd-49ac-8b94-8e49ceef320f"},"vehicle_type_id":"4","last_reported":1768147979,"current_range_meters":4400,"station_id":"ce4bhgp2rcd13ifvqfc0","pricing_plan_id":"cebpf4jnsgd1na2vs0mg"},{"bike_id":"d047f3e6-5232-4d8a-a716-cf93d04ed4b1","system_id":"levelo_inurba_marseille","lat":43.27171,"lon":5.41002,"is_reserved":false,"is_disabled":false,"rental_uris":{"android":"levelo://app?vid=d047f3e6-5232-4d8a-a716-cf93d04ed4b1","ios":"levelo://app?vid=d047f3e6-5232-4d8a-a716-cf93d04ed4b1"},"vehicle_type_id":"4","last_reported":1768147979,"current_range_meters":4400,"station_id":"ce4bhl12rcd13ifvqgf0","pricing_plan_id":"cebpf4jnsgd1na2vs0mg"},{"bike_id":"444fd89e-e4a2-491f-bbaa-31557ce1fe2f","system_id":"levelo_inurba_marseille","lat":43.28655,"lon":5.36349,"is_reserved":false,"is_disabled":false,"rental_uris":{"android":"levelo://app?vid=444fd89e-e4a2-491f-bbaa-31557ce1fe2f","ios":"levelo://app?vid=444fd89e-e4a2-491f-bbaa-31557ce1fe2f"},"vehicle_type_id":"4","last_reported":1768147979,"current_range_meters":4400,"station_id":"ce4bhah2rcd13ifvqej0","pricing_plan_id":"cebpf4jnsgd1na2vs0mg"},{"bike_id":"6074d460-8355-43c9-ad00-28e850a7492f","system_id":"levelo_inurba_marseille","lat":43.28863,"lon":5.42515,"is_reserved":false,"is_disabled":false,"rental_uris":{"android":"levelo://app?vid=6074d460-8355-43c9-ad00-28e850a7492f","ios":"levelo://app?vid=6074d460-8355-43c9-ad00-28e850a7492f"},"vehicle_type_id":"4","last_reported":1768147979,"current_range_meters":4400,"station_id":"st_d3b462108ojc7389ooeg","pricing_plan_id":"cebpf4jnsgd1na2vs0mg"},{"bike_id":"3a944ff1-8f80-4b3a-87d1-40b3f03c9b0c","system_id":"levelo_inurba_marseille","lat":43.31093,"lon":5.38634,"is_reserved":false,"is_disabled":false,"rental_uris":{"android":"levelo://app?vid=3a944ff1-8f80-4b3a-87d1-40b3f03c9b0c","ios":"levelo://app?vid=3a944ff1-8f80-4b3a-87d1-40b3f03c9b0c"},"vehicle_type_id":"4","last_reported":1768147979,"current_range_meters":4400,"station_id":"","pricing_plan_id":"cebpf4jnsgd1na2vs0mg"},{"bike_id":"6aacd113-da9a-4b31-b618-a51b999f3937","system_id":"levelo_inurba_marseille","lat":43.26195,"lon":5.37444,"is_reserved":false,"is_disabled":false,"rental_uris":{"android":"levelo://app?vid=6aacd113-da9a-4b31-b618-a51b999f3937","ios":"levelo://app?vid=6aacd113-da9a-4b31-b618-a51b999f3937"},"vehicle_type_id":"4","last_reported":1768147979,"current_range_meters":4400,"station_id":"ce4bhgp2rcd13ifvqfc0","pricing_plan_id":"cebpf4jnsgd1na2vs0mg"},{"bike_id":"a20e324f-461e-49f1-9758-c1dce453e58f","system_id":"levelo_inurba_marseille","lat":43.22942,"lon":5.35372,"is_reserved":false,"is_disabled":false,"rental_uris":{"android":"levelo://app?vid=a20e324f-461e-49f1-9758-c1dce453e58f","ios":"levelo://app?vid=a20e324f-461e-49f1-9758-c1dce453e58f"},"vehicle_type_id":"4","last_reported":1768147979,"current_range_meters":4400,"station_id":"cpo3532slgdg3j2ikp40","pricing_plan_id":"cebpf4jnsgd1na2vs0mg"},{"bike_id":"7d830b5d-9ecf-4784-ac40-38317f2e4419","system_id":"levelo_inurba_marseille","lat":43.27605,"lon":5.36118,"is_reserved":false,"is_disabled":false,"rental_uris":{"android":"levelo://app?vid=7d830b5d-9ecf-4784-ac40-38317f2e4419","ios":"levelo://app?vid=7d830b5d-9ecf-4784-ac40-38317f2e4419"},"vehicle_type_id":"4","last_reported":1768147979,"current_range_meters":4400,"station_id":"ce4bgj92rcd13ifvqbe0","pricing_plan_id":"cebpf4jnsgd1na2vs0mg"},{"bike_id":"c7c7fbe4-26ef-4dcf-8f81-a3674c0e5989","system_id":"levelo_inurba_marseille","lat":43.24681,"lon":5.3813,"is_reserved":false,"is_disabled":false,"rental_uris":{"android":"levelo://app?vid=c7c7fbe4-26ef-4dcf-8f81-a3674c0e5989","ios":"levelo://app?vid=c7c7fbe4-26ef-4dcf-8f81-a3674c0e5989"},"vehicle_type_id":"4","last_reported":1768147979,"current_range_meters":4400,"station_id":"ce4bhih2rcd13ifvqfr0","pricing_plan_id":"cebpf4jnsgd1na2vs0mg"},{"bike_id":"63449c6f-1d9d-409a-8231-4295bcad5e5c","system_id":"levelo_inurba_marseille","lat":43.22924,"lon":5.35375,"is_reserved":false,"is_disabled":false,"rental_uris":{"android":"levelo://app?vid=63449c6f-1d9d-409a-8231-4295bcad5e5c","ios":"levelo://app?vid=63449c6f-1d9d-409a-8231-4295bcad5e5c"},"vehicle_type_id":"4","last_reported":1768147979,"current_range_meters":4400,"station_id":"cpo3532slgdg3j2ikp40","pricing_plan_id":"cebpf4jnsgd1na2vs0mg"},{"bike_id":"a2cbe1b6-513a-4fb3-92e4-6a53dcb07592","system_id":"levelo_inurba_marseille","lat":43.29221,"lon":5.36063,"is_reserved":false,"is_disabled":false,"rental_uris":{"android":"levelo://app?vid=a2cbe1b6-513a-4fb3-92e4-6a53dcb07592","ios":"levelo://app?vid=a2cbe1b6-513a-4fb3-92e4-6a53dcb07592"},"vehicle_type_id":"4","last_reported":1768147979,"current_range_meters":4400,"station_id":"ce4bhbh2rcd13ifvqeqg","pricing_plan_id":"cebpf4jnsgd1na2vs0mg"},{"bike_id":"a815540b-72e6-4e6f-b923-e273e879b5e8","system_id":"levelo_inurba_marseille","lat":43.25572,"lon":5.38217,"is_reserved":false,"is_disabled":false,"rental_uris":{"android":"levelo://app?vid=a815540b-72e6-4e6f-b923-e273e879b5e8","ios":"levelo://app?vid=a815540b-72e6-4e6f-b923-e273e879b5e8"},"vehicle_type_id":"4","last_reported":1768147979,"current_range_meters":4800,"station_id":"ce4bhih2rcd13ifvqfs0","pricing_plan_id":"cebpf4jnsgd1na2vs0mg"},{"bike_id":"e7e6cb92-4ba6-4878-a96f-e087afdbdbc0","system_id":"levelo_inurba_marseille","lat":43.229282,"lon":5.353808,"is_reserved":false,"is_disabled":false,"rental_uris":{"android":"levelo://app?vid=e7e6cb92-4ba6-4878-a96f-e087afdbdbc0","ios":"levelo://app?vid=e7e6cb92-4ba6-4878-a96f-e087afdbdbc0"},"vehicle_type_id":"4","last_reported":1768147979,"current_range_meters":4800,"station_id":"cpo3532slgdg3j2ikp40","pricing_plan_id":"cebpf4jnsgd1na2vs0mg"},{"bike_id":"de025d8b-9701-499a-99d0-5a88bfb4d63f","system_id":"levelo_inurba_marseille","lat":43.25579,"lon":5.38244,"is_reserved":false,"is_disabled":false,"rental_uris":{"android":"levelo://app?vid=de025d8b-9701-499a-99d0-5a88bfb4d63f","ios":"levelo://app?vid=de025d8b-9701-499a-99d0-5a88bfb4d63f"},"vehicle_type_id":"4","last_reported":1768147979,"current_range_meters":4800,"station_id":"ce4bhih2rcd13ifvqfs0","pricing_plan_id":"cebpf4jnsgd1na2vs0mg"},{"bike_id":"604f78fd-36d7-4821-843f-e68feb228a98","system_id":"levelo_inurba_marseille","lat":43.241607,"lon":5.364217,"is_reserved":false,"is_disabled":false,"rental_uris":{"android":"levelo://app?vid=604f78fd-36d7-4821-843f-e68feb228a98","ios":"levelo://app?vid=604f78fd-36d7-4821-843f-e68feb228a98"},"vehicle_type_id":"4","last_reported":1768147979,"current_range_meters":4800,"station_id":"cpo36qri1sfpv3e86is0","pricing_plan_id":"cebpf4jnsgd1na2vs0mg"},{"bike_id":"eb9845c8-e891-4e99-a6c2-e6e55c385ee1","system_id":"levelo_inurba_marseille","lat":43.30887,"lon":5.3719,"is_reserved":false,"is_disabled":false,"rental_uris":{"android":"levelo://app?vid=eb9845c8-e891-4e99-a6c2-e6e55c385ee1","ios":"levelo://app?vid=eb9845c8-e891-4e99-a6c2-e6e55c385ee1"},"vehicle_type_id":"4","last_reported":1768147979,"current_range_meters":4800,"station_id":"ce4bguh2rcd13ifvqckg","pricing_plan_id":"cebpf4jnsgd1na2vs0mg"},{"bike_id":"31e53656-e739-4be9-a074-127a7ee373ba","system_id":"levelo_inurba_marseille","lat":43.27377,"lon":5.36254,"is_reserved":false,"is_disabled":false,"rental_uris":{"android":"levelo://app?vid=31e53656-e739-4be9-a074-127a7ee373ba","ios":"levelo://app?vid=31e53656-e739-4be9-a074-127a7ee373ba"},"vehicle_type_id":"4","last_reported":1768147979,"current_range_meters":4800,"station_id":"ce4bhbh2rcd13ifvqeo0","pricing_plan_id":"cebpf4jnsgd1na2vs0mg"},{"bike_id":"202b9ed5-8993-43b0-b2e5-5a58a7060431","system_id":"levelo_inurba_marseille","lat":43.28082,"lon":5.39656,"is_reserved":false,"is_disabled":false,"rental_uris":{"android":"levelo://app?vid=202b9ed5-8993-43b0-b2e5-5a58a7060431","ios":"levelo://app?vid=202b9ed5-8993-43b0-b2e5-5a58a7060431"},"vehicle_type_id":"4","last_reported":1768147979,"current_range_meters":4800,"station_id":"ce4bho12rcd13ifvqh2g","pricing_plan_id":"cebpf4jnsgd1na2vs0mg"},{"bike_id":"ee66d2db-c17a-4b2a-83f9-37da596d1de5","system_id":"levelo_inurba_marseille","lat":43.24156,"lon":5.364,"is_reserved":false,"is_disabled":false,"rental_uris":{"android":"levelo://app?vid=ee66d2db-c17a-4b2a-83f9-37da596d1de5","ios":"levelo://app?vid=ee66d2db-c17a-4b2a-83f9-37da596d1de5"},"vehicle_type_id":"4","last_reported":1768147979,"current_range_meters":4800,"station_id":"cpo36qri1sfpv3e86is0","pricing_plan_id":"cebpf4jnsgd1na2vs0mg"},{"bike_id":"60601c7c-b8ea-4332-808e-49bd5553a3c9","system_id":"levelo_inurba_marseille","lat":43.28478,"lon":5.38409,"is_reserved":false,"is_disabled":false,"rental_uris":{"android":"levelo://app?vid=60601c7c-b8ea-4332-808e-49bd5553a3c9","ios":"levelo://app?vid=60601c7c-b8ea-4332-808e-49bd5553a3c9"},"vehicle_type_id":"4","last_reported":1768147979,"current_range_meters":4800,"station_id":"ce4bh512rcd13ifvqe3g","pricing_plan_id":"cebpf4jnsgd1na2vs0mg"},{"bike_id":"0c4ecb86-47b8-4efa-b100-4abd6fc5fb3e","system_id":"levelo_inurba_marseille","lat":43.24808,"lon":5.3744,"is_reserved":false,"is_disabled":false,"rental_uris":{"android":"levelo://app?vid=0c4ecb86-47b8-4efa-b100-4abd6fc5fb3e","ios":"levelo://app?vid=0c4ecb86-47b8-4efa-b100-4abd6fc5fb3e"},"vehicle_type_id":"4","last_reported":1768147979,"current_range_meters":4800,"station_id":"ce4bhgh2rcd13ifvqfb0","pricing_plan_id":"cebpf4jnsgd1na2vs0mg"},{"bike_id":"7e6126ce-7626-46d1-bb85-8260cfe0aa03","system_id":"levelo_inurba_marseille","lat":43.296229,"lon":5.405916,"is_reserved":false,"is_disabled":false,"rental_uris":{"android":"levelo://app?vid=7e6126ce-7626-46d1-bb85-8260cfe0aa03","ios":"levelo://app?vid=7e6126ce-7626-46d1-bb85-8260cfe0aa03"},"vehicle_type_id":"4","last_reported":1768147979,"current_range_meters":4800,"station_id":"ce4bh0h2rcd13ifvqd60","pricing_plan_id":"cebpf4jnsgd1na2vs0mg"},{"bike_id":"15acaff8-889e-4081-ae54-8b8658492504","system_id":"levelo_inurba_marseille","lat":43.31411,"lon":5.40344,"is_reserved":false,"is_disabled":false,"rental_uris":{"android":"levelo://app?vid=15acaff8-889e-4081-ae54-8b8658492504","ios":"levelo://app?vid=15acaff8-889e-4081-ae54-8b8658492504"},"vehicle_type_id":"4","last_reported":1768147979,"current_range_meters":4800,"station_id":"","pricing_plan_id":"cebpf4jnsgd1na2vs0mg"},{"bike_id":"21f2137c-178c-4a13-87c4-5d3f3db886f2","system_id":"levelo_inurba_marseille","lat":43.24479,"lon":5.42533,"is_reserved":false,"is_disabled":false,"rental_uris":{"android":"levelo://app?vid=21f2137c-178c-4a13-87c4-5d3f3db886f2","ios":"levelo://app?vid=21f2137c-178c-4a13-87c4-5d3f3db886f2"},"vehicle_type_id":"4","last_reported":1768147979,"current_range_meters":4800,"station_id":"st_d4a3vfp97mjs738cd8kg","pricing_plan_id":"cebpf4jnsgd1na2vs0mg"},{"bike_id":"76c56556-7167-43bf-84cb-a1722980305f","system_id":"levelo_inurba_marseille","lat":43.29847,"lon":5.36286,"is_reserved":false,"is_disabled":false,"rental_uris":{"android":"levelo://app?vid=76c56556-7167-43bf-84cb-a1722980305f","ios":"levelo://app?vid=76c56556-7167-43bf-84cb-a1722980305f"},"vehicle_type_id":"4","last_reported":1768147979,"current_range_meters":4800,"station_id":"ce4bgpp2rcd13ifvqc3g","pricing_plan_id":"cebpf4jnsgd1na2vs0mg"},{"bike_id":"6ed24c70-5929-4c23-8871-b5aa38f16bd3","system_id":"levelo_inurba_marseille","lat":43.24692,"lon":5.38119,"is_reserved":false,"is_disabled":false,"rental_uris":{"android":"levelo://app?vid=6ed24c70-5929-4c23-8871-b5aa38f16bd3","ios":"levelo://app?vid=6ed24c70-5929-4c23-8871-b5aa38f16bd3"},"vehicle_type_id":"4","last_reported":1768147979,"current_range_meters":4800,"station_id":"","pricing_plan_id":"cebpf4jnsgd1na2vs0mg"},{"bike_id":"322f64c6-4889-44d8-a39d-433dab459dec","system_id":"levelo_inurba_marseille","lat":43.28609,"lon":5.35107,"is_reserved":false,"is_disabled":false,"rental_uris":{"android":"levelo://app?vid=322f64c6-4889-44d8-a39d-433dab459dec","ios":"levelo://app?vid=322f64c6-4889-44d8-a39d-433dab459dec"},"vehicle_type_id":"4","last_reported":1768147979,"current_range_meters":4800,"station_id":"ce4bhch2rcd13ifvqeug","pricing_plan_id":"cebpf4jnsgd1na2vs0mg"},{"bike_id":"c46739cb-8652-48d3-972f-9096dc83781a","system_id":"levelo_inurba_marseille","lat":43.2319,"lon":5.35562,"is_reserved":false,"is_disabled":false,"rental_uris":{"android":"levelo://app?vid=c46739cb-8652-48d3-972f-9096dc83781a","ios":"levelo://app?vid=c46739cb-8652-48d3-972f-9096dc83781a"},"vehicle_type_id":"4","last_reported":1768147979,"current_range_meters":5600,"station_id":"ce4bhu92rcd13ifvqi70","pricing_plan_id":"cebpf4jnsgd1na2vs0mg"},{"bike_id":"402e8575-08b0-4985-9df8-08f4df6e013e","system_id":"levelo_inurba_marseille","lat":43.28612,"lon":5.37054,"is_reserved":false,"is_disabled":false,"rental_uris":{"android":"levelo://app?vid=402e8575-08b0-4985-9df8-08f4df6e013e","ios":"levelo://app?vid=402e8575-08b0-4985-9df8-08f4df6e013e"},"vehicle_type_id":"4","last_reported":1768147979,"current_range_meters":5600,"station_id":"ce4bht12rcd13ifvqi60","pricing_plan_id":"cebpf4jnsgd1na2vs0mg"},{"bike_id":"16c0960c-9de7-4b37-a0c4-1bf60f2af40d","system_id":"levelo_inurba_marseille","lat":43.28418,"lon":5.34972,"is_reserved":false,"is_disabled":false,"rental_uris":{"android":"levelo://app?vid=16c0960c-9de7-4b37-a0c4-1bf60f2af40d","ios":"levelo://app?vid=16c0960c-9de7-4b37-a0c4-1bf60f2af40d"},"vehicle_type_id":"4","last_reported":1768147979,"current_range_meters":5600,"station_id":"ce4bhbh2rcd13ifvqepg","pricing_plan_id":"cebpf4jnsgd1na2vs0mg"},{"bike_id":"1a57bf80-d95f-4df4-85ec-7a70570ac48b","system_id":"levelo_inurba_marseille","lat":43.28949,"lon":5.36376,"is_reserved":false,"is_disabled":false,"rental_uris":{"android":"levelo://app?vid=1a57bf80-d95f-4df4-85ec-7a70570ac48b","ios":"levelo://app?vid=1a57bf80-d95f-4df4-85ec-7a70570ac48b"},"vehicle_type_id":"4","last_reported":1768147979,"current_range_meters":5600,"station_id":"ce4bhc92rcd13ifvqetg","pricing_plan_id":"cebpf4jnsgd1na2vs0mg"},{"bike_id":"37285173-7629-4cca-86c4-ad83064b32f4","system_id":"levelo_inurba_marseille","lat":43.26547,"lon":5.37298,"is_reserved":false,"is_disabled":false,"rental_uris":{"android":"levelo://app?vid=37285173-7629-4cca-86c4-ad83064b32f4","ios":"levelo://app?vid=37285173-7629-4cca-86c4-ad83064b32f4"},"vehicle_type_id":"4","last_reported":1768147979,"current_range_meters":5600,"station_id":"ce4bhg12rcd13ifvqf70","pricing_plan_id":"cebpf4jnsgd1na2vs0mg"},{"bike_id":"937eaf44-6d62-4c5c-959b-f6586d2b8682","system_id":"levelo_inurba_marseille","lat":43.30118,"lon":5.37418,"is_reserved":false,"is_disabled":false,"rental_uris":{"android":"levelo://app?vid=937eaf44-6d62-4c5c-959b-f6586d2b8682","ios":"levelo://app?vid=937eaf44-6d62-4c5c-959b-f6586d2b8682"},"vehicle_type_id":"4","last_reported":1768147979,"current_range_meters":5600,"station_id":"ce4bgs92rcd13ifvqcc0","pricing_plan_id":"cebpf4jnsgd1na2vs0mg"},{"bike_id":"d9642f00-39df-43b1-bfea-2265d23758b8","system_id":"levelo_inurba_marseille","lat":43.278748,"lon":5.392051,"is_reserved":false,"is_disabled":false,"rental_uris":{"android":"levelo://app?vid=d9642f00-39df-43b1-bfea-2265d23758b8","ios":"levelo://app?vid=d9642f00-39df-43b1-bfea-2265d23758b8"},"vehicle_type_id":"4","last_reported":1768147979,"current_range_meters":5600,"station_id":"ce4bhjp2rcd13ifvqga0","pricing_plan_id":"cebpf4jnsgd1na2vs0mg"},{"bike_id":"6fdf77f4-df4a-4c49-9e87-7104cf455c2b","system_id":"levelo_inurba_marseille","lat":43.31322,"lon":5.38665,"is_reserved":false,"is_disabled":true,"rental_uris":{"android":"levelo://app?vid=6fdf77f4-df4a-4c49-9e87-7104cf455c2b","ios":"levelo://app?vid=6fdf77f4-df4a-4c49-9e87-7104cf455c2b"},"vehicle_type_id":"4","last_reported":1768147979,"current_range_meters":5600,"station_id":"ce4bgt92rcd13ifvqcf0","pricing_plan_id":"cebpf4jnsgd1na2vs0mg"},{"bike_id":"f29bcdd1-b142-420c-9a19-02897faadde8","system_id":"levelo_inurba_marseille","lat":43.2867,"lon":5.3635,"is_reserved":false,"is_disabled":false,"rental_uris":{"android":"levelo://app?vid=f29bcdd1-b142-420c-9a19-02897faadde8","ios":"levelo://app?vid=f29bcdd1-b142-420c-9a19-02897faadde8"},"vehicle_type_id":"4","last_reported":1768147979,"current_range_meters":5600,"station_id":"ce4bhah2rcd13ifvqej0","pricing_plan_id":"cebpf4jnsgd1na2vs0mg"},{"bike_id":"26201a0e-2fa7-46bf-adb4-65d194f95ff4","system_id":"levelo_inurba_marseille","lat":43.28696,"lon":5.37382,"is_reserved":false,"is_disabled":true,"rental_uris":{"android":"levelo://app?vid=26201a0e-2fa7-46bf-adb4-65d194f95ff4","ios":"levelo://app?vid=26201a0e-2fa7-46bf-adb4-65d194f95ff4"},"vehicle_type_id":"4","last_reported":1768147979,"current_range_meters":5600,"station_id":"ce4bh3p2rcd13ifvqdq0","pricing_plan_id":"cebpf4jnsgd1na2vs0mg"},{"bike_id":"13a9c239-15d3-4470-9e4f-ae229b9c026f","system_id":"levelo_inurba_marseille","lat":43.21156,"lon":5.35094,"is_reserved":false,"is_disabled":true,"rental_uris":{"android":"levelo://app?vid=13a9c239-15d3-4470-9e4f-ae229b9c026f","ios":"levelo://app?vid=13a9c239-15d3-4470-9e4f-ae229b9c026f"},"vehicle_type_id":"4","last_reported":1768147979,"current_range_meters":5600,"station_id":"st_cvj6sg6p6f1abm77japg","pricing_plan_id":"cebpf4jnsgd1na2vs0mg"},{"bike_id":"74519d9e-3614-4e16-98cc-7030665d7740","system_id":"levelo_inurba_marseille","lat":43.29169,"lon":5.37151,"is_reserved":false,"is_disabled":false,"rental_uris":{"android":"levelo://app?vid=74519d9e-3614-4e16-98cc-7030665d7740","ios":"levelo://app?vid=74519d9e-3614-4e16-98cc-7030665d7740"},"vehicle_type_id":"4","last_reported":1768147979,"current_range_meters":5600,"station_id":"ce4bha92rcd13ifvqeh0","pricing_plan_id":"cebpf4jnsgd1na2vs0mg"},{"bike_id":"0737c10a-d287-45c3-a7cb-fc329a4255fd","system_id":"levelo_inurba_marseille","lat":43.21744,"lon":5.346196,"is_reserved":false,"is_disabled":false,"rental_uris":{"android":"levelo://app?vid=0737c10a-d287-45c3-a7cb-fc329a4255fd","ios":"levelo://app?vid=0737c10a-d287-45c3-a7cb-fc329a4255fd"},"vehicle_type_id":"4","last_reported":1768147979,"current_range_meters":5600,"station_id":"ce4bgkh2rcd13ifvqbl0","pricing_plan_id":"cebpf4jnsgd1na2vs0mg"},{"bike_id":"57bb93f3-4af4-4aa9-b9e4-53258fdc1131","system_id":"levelo_inurba_marseille","lat":43.28923,"lon":5.38381,"is_reserved":false,"is_disabled":false,"rental_uris":{"android":"levelo://app?vid=57bb93f3-4af4-4aa9-b9e4-53258fdc1131","ios":"levelo://app?vid=57bb93f3-4af4-4aa9-b9e4-53258fdc1131"},"vehicle_type_id":"4","last_reported":1768147979,"current_range_meters":5600,"station_id":"ce4bh612rcd13ifvqe6g","pricing_plan_id":"cebpf4jnsgd1na2vs0mg"},{"bike_id":"b555239d-2168-4ba9-bdf4-8b711ca32acb","system_id":"levelo_inurba_marseille","lat":43.28469,"lon":5.48397,"is_reserved":false,"is_disabled":false,"rental_uris":{"android":"levelo://app?vid=b555239d-2168-4ba9-bdf4-8b711ca32acb","ios":"levelo://app?vid=b555239d-2168-4ba9-bdf4-8b711ca32acb"},"vehicle_type_id":"4","last_reported":1768147979,"current_range_meters":5600,"station_id":"","pricing_plan_id":"cebpf4jnsgd1na2vs0mg"},{"bike_id":"9e9276e3-a8ca-4969-8c04-47f68072c26e","system_id":"levelo_inurba_marseille","lat":43.22537,"lon":5.34832,"is_reserved":false,"is_disabled":false,"rental_uris":{"android":"levelo://app?vid=9e9276e3-a8ca-4969-8c04-47f68072c26e","ios":"levelo://app?vid=9e9276e3-a8ca-4969-8c04-47f68072c26e"},"vehicle_type_id":"4","last_reported":1768147979,"current_range_meters":5600,"station_id":"","pricing_plan_id":"cebpf4jnsgd1na2vs0mg"},{"bike_id":"1e5349c9-1961-45c6-b629-396680afa24e","system_id":"levelo_inurba_marseille","lat":43.23205,"lon":5.35531,"is_reserved":false,"is_disabled":false,"rental_uris":{"android":"levelo://app?vid=1e5349c9-1961-45c6-b629-396680afa24e","ios":"levelo://app?vid=1e5349c9-1961-45c6-b629-396680afa24e"},"vehicle_type_id":"4","last_reported":1768147979,"current_range_meters":5600,"station_id":"ce4bhu92rcd13ifvqi70","pricing_plan_id":"cebpf4jnsgd1na2vs0mg"},{"bike_id":"9bcfcb12-cfff-4931-a8f3-f7d245a2d2e7","system_id":"levelo_inurba_marseille","lat":43.29222,"lon":5.36274,"is_reserved":false,"is_disabled":false,"rental_uris":{"android":"levelo://app?vid=9bcfcb12-cfff-4931-a8f3-f7d245a2d2e7","ios":"levelo://app?vid=9bcfcb12-cfff-4931-a8f3-f7d245a2d2e7"},"vehicle_type_id":"4","last_reported":1768147979,"current_range_meters":5600,"station_id":"","pricing_plan_id":"cebpf4jnsgd1na2vs0mg"},{"bike_id":"a086ce0c-3cff-47d2-ac7e-009ad7c5e69f","system_id":"levelo_inurba_marseille","lat":43.24075,"lon":5.37763,"is_reserved":false,"is_disabled":false,"rental_uris":{"android":"levelo://app?vid=a086ce0c-3cff-47d2-ac7e-009ad7c5e69f","ios":"levelo://app?vid=a086ce0c-3cff-47d2-ac7e-009ad7c5e69f"},"vehicle_type_id":"4","last_reported":1768147979,"current_range_meters":6000,"station_id":"ce4bhnp2rcd13ifvqgvg","pricing_plan_id":"cebpf4jnsgd1na2vs0mg"},{"bike_id":"3632ea8b-40de-4396-b94a-0af04633fa3b","system_id":"levelo_inurba_marseille","lat":43.2654,"lon":5.37292,"is_reserved":false,"is_disabled":false,"rental_uris":{"android":"levelo://app?vid=3632ea8b-40de-4396-b94a-0af04633fa3b","ios":"levelo://app?vid=3632ea8b-40de-4396-b94a-0af04633fa3b"},"vehicle_type_id":"4","last_reported":1768147979,"current_range_meters":6000,"station_id":"ce4bhg12rcd13ifvqf70","pricing_plan_id":"cebpf4jnsgd1na2vs0mg"},{"bike_id":"63fdfcde-c194-4554-84ef-d1d69c79a723","system_id":"levelo_inurba_marseille","lat":43.28996,"lon":5.35613,"is_reserved":false,"is_disabled":false,"rental_uris":{"android":"levelo://app?vid=63fdfcde-c194-4554-84ef-d1d69c79a723","ios":"levelo://app?vid=63fdfcde-c194-4554-84ef-d1d69c79a723"},"vehicle_type_id":"4","last_reported":1768147979,"current_range_meters":6000,"station_id":"ce4bhb92rcd13ifvqen0","pricing_plan_id":"cebpf4jnsgd1na2vs0mg"},{"bike_id":"8f35020a-c4bc-4faa-affb-87baa8489631","system_id":"levelo_inurba_marseille","lat":43.29054,"lon":5.359144,"is_reserved":false,"is_disabled":false,"rental_uris":{"android":"levelo://app?vid=8f35020a-c4bc-4faa-affb-87baa8489631","ios":"levelo://app?vid=8f35020a-c4bc-4faa-affb-87baa8489631"},"vehicle_type_id":"4","last_reported":1768147979,"current_range_meters":6000,"station_id":"ce4bha92rcd13ifvqeg0","pricing_plan_id":"cebpf4jnsgd1na2vs0mg"},{"bike_id":"ae427873-2ce0-47ee-826b-d04d8e4f867a","system_id":"levelo_inurba_marseille","lat":43.30139,"lon":5.43106,"is_reserved":false,"is_disabled":false,"rental_uris":{"android":"levelo://app?vid=ae427873-2ce0-47ee-826b-d04d8e4f867a","ios":"levelo://app?vid=ae427873-2ce0-47ee-826b-d04d8e4f867a"},"vehicle_type_id":"4","last_reported":1768147979,"current_range_meters":6000,"station_id":"st_d3js3co5814s73ftftug","pricing_plan_id":"cebpf4jnsgd1na2vs0mg"},{"bike_id":"9e546458-c3a8-4e35-9b2b-b0910317fcfc","system_id":"levelo_inurba_marseille","lat":43.22927,"lon":5.35381,"is_reserved":false,"is_disabled":false,"rental_uris":{"android":"levelo://app?vid=9e546458-c3a8-4e35-9b2b-b0910317fcfc","ios":"levelo://app?vid=9e546458-c3a8-4e35-9b2b-b0910317fcfc"},"vehicle_type_id":"4","last_reported":1768147979,"current_range_meters":6000,"station_id":"cpo3532slgdg3j2ikp40","pricing_plan_id":"cebpf4jnsgd1na2vs0mg"},{"bike_id":"ccbe76d3-bc0d-49c4-ae83-7ec33ebf6571","system_id":"levelo_inurba_marseille","lat":43.22573,"lon":5.41643,"is_reserved":false,"is_disabled":false,"rental_uris":{"android":"levelo://app?vid=ccbe76d3-bc0d-49c4-ae83-7ec33ebf6571","ios":"levelo://app?vid=ccbe76d3-bc0d-49c4-ae83-7ec33ebf6571"},"vehicle_type_id":"4","last_reported":1768147979,"current_range_meters":6000,"station_id":"st_d2o4gvlbi1j2169b742g","pricing_plan_id":"cebpf4jnsgd1na2vs0mg"},{"bike_id":"077c8981-bea2-4e23-9f90-a06cf25901d0","system_id":"levelo_inurba_marseille","lat":43.29585,"lon":5.38041,"is_reserved":false,"is_disabled":false,"rental_uris":{"android":"levelo://app?vid=077c8981-bea2-4e23-9f90-a06cf25901d0","ios":"levelo://app?vid=077c8981-bea2-4e23-9f90-a06cf25901d0"},"vehicle_type_id":"4","last_reported":1768147979,"current_range_meters":6000,"station_id":"","pricing_plan_id":"cebpf4jnsgd1na2vs0mg"},{"bike_id":"7cca4833-a43a-4d14-b280-53bd50948efd","system_id":"levelo_inurba_marseille","lat":43.269373,"lon":5.402544,"is_reserved":false,"is_disabled":false,"rental_uris":{"android":"levelo://app?vid=7cca4833-a43a-4d14-b280-53bd50948efd","ios":"levelo://app?vid=7cca4833-a43a-4d14-b280-53bd50948efd"},"vehicle_type_id":"4","last_reported":1768147979,"current_range_meters":6000,"station_id":"","pricing_plan_id":"cebpf4jnsgd1na2vs0mg"},{"bike_id":"41690a41-55a6-4d8f-8a4a-b426d1573d58","system_id":"levelo_inurba_marseille","lat":43.2397,"lon":5.36617,"is_reserved":false,"is_disabled":false,"rental_uris":{"android":"levelo://app?vid=41690a41-55a6-4d8f-8a4a-b426d1573d58","ios":"levelo://app?vid=41690a41-55a6-4d8f-8a4a-b426d1573d58"},"vehicle_type_id":"4","last_reported":1768147979,"current_range_meters":6000,"station_id":"ce4bhi12rcd13ifvqfp0","pricing_plan_id":"cebpf4jnsgd1na2vs0mg"},{"bike_id":"239a18cd-6c0d-43fb-8897-a3f843c7752a","system_id":"levelo_inurba_marseille","lat":43.248064,"lon":5.374555,"is_reserved":false,"is_disabled":false,"rental_uris":{"android":"levelo://app?vid=239a18cd-6c0d-43fb-8897-a3f843c7752a","ios":"levelo://app?vid=239a18cd-6c0d-43fb-8897-a3f843c7752a"},"vehicle_type_id":"4","last_reported":1768147979,"current_range_meters":6000,"station_id":"ce4bhgh2rcd13ifvqfb0","pricing_plan_id":"cebpf4jnsgd1na2vs0mg"},{"bike_id":"f4a60f1b-2920-4fb8-8f42-1eaeaa00e372","system_id":"levelo_inurba_marseille","lat":43.30124,"lon":5.43118,"is_reserved":false,"is_disabled":false,"rental_uris":{"android":"levelo://app?vid=f4a60f1b-2920-4fb8-8f42-1eaeaa00e372","ios":"levelo://app?vid=f4a60f1b-2920-4fb8-8f42-1eaeaa00e372"},"vehicle_type_id":"4","last_reported":1768147979,"current_range_meters":6000,"station_id":"st_d3js3co5814s73ftftug","pricing_plan_id":"cebpf4jnsgd1na2vs0mg"},{"bike_id":"69db0ffc-6870-4d4a-840e-d0c8f02a8535","system_id":"levelo_inurba_marseille","lat":43.29723,"lon":5.37685,"is_reserved":false,"is_disabled":false,"rental_uris":{"android":"levelo://app?vid=69db0ffc-6870-4d4a-840e-d0c8f02a8535","ios":"levelo://app?vid=69db0ffc-6870-4d4a-840e-d0c8f02a8535"},"vehicle_type_id":"4","last_reported":1768147979,"current_range_meters":6000,"station_id":"ce4bgkh2rcd13ifvqbl0","pricing_plan_id":"cebpf4jnsgd1na2vs0mg"},{"bike_id":"17f66319-ac3b-44f3-9f86-4da99c24d4a6","system_id":"levelo_inurba_marseille","lat":43.26034,"lon":5.37559,"is_reserved":false,"is_disabled":false,"rental_uris":{"android":"levelo://app?vid=17f66319-ac3b-44f3-9f86-4da99c24d4a6","ios":"levelo://app?vid=17f66319-ac3b-44f3-9f86-4da99c24d4a6"},"vehicle_type_id":"4","last_reported":1768147979,"current_range_meters":6000,"station_id":"ce4bhgh2rcd13ifvqfa0","pricing_plan_id":"cebpf4jnsgd1na2vs0mg"},{"bike_id":"bec1bdf7-8c3e-466a-9564-9717af11359e","system_id":"levelo_inurba_marseille","lat":43.2464,"lon":5.38152,"is_reserved":false,"is_disabled":true,"rental_uris":{"android":"levelo://app?vid=bec1bdf7-8c3e-466a-9564-9717af11359e","ios":"levelo://app?vid=bec1bdf7-8c3e-466a-9564-9717af11359e"},"vehicle_type_id":"4","last_reported":1768147979,"current_range_meters":6000,"station_id":"ce4bhih2rcd13ifvqfr0","pricing_plan_id":"cebpf4jnsgd1na2vs0mg"},{"bike_id":"5c19822a-c497-4f67-8777-6169bef66dc3","system_id":"levelo_inurba_marseille","lat":43.225332,"lon":5.348298,"is_reserved":false,"is_disabled":false,"rental_uris":{"android":"levelo://app?vid=5c19822a-c497-4f67-8777-6169bef66dc3","ios":"levelo://app?vid=5c19822a-c497-4f67-8777-6169bef66dc3"},"vehicle_type_id":"4","last_reported":1768147979,"current_range_meters":6000,"station_id":"","pricing_plan_id":"cebpf4jnsgd1na2vs0mg"},{"bike_id":"5bc7ff2b-e7bf-48b3-a943-69925151068e","system_id":"levelo_inurba_marseille","lat":43.28427,"lon":5.34977,"is_reserved":false,"is_disabled":false,"rental_uris":{"android":"levelo://app?vid=5bc7ff2b-e7bf-48b3-a943-69925151068e","ios":"levelo://app?vid=5bc7ff2b-e7bf-48b3-a943-69925151068e"},"vehicle_type_id":"4","last_reported":1768147979,"current_range_meters":6000,"station_id":"ce4bhbh2rcd13ifvqepg","pricing_plan_id":"cebpf4jnsgd1na2vs0mg"},{"bike_id":"78190b18-d4f6-4583-b796-9b44806d2811","system_id":"levelo_inurba_marseille","lat":43.28473,"lon":5.48403,"is_reserved":false,"is_disabled":false,"rental_uris":{"android":"levelo://app?vid=78190b18-d4f6-4583-b796-9b44806d2811","ios":"levelo://app?vid=78190b18-d4f6-4583-b796-9b44806d2811"},"vehicle_type_id":"4","last_reported":1768147979,"current_range_meters":6000,"station_id":"","pricing_plan_id":"cebpf4jnsgd1na2vs0mg"},{"bike_id":"2891f521-d2a3-414a-9fd9-db001a5d9fcb","system_id":"levelo_inurba_marseille","lat":43.286047,"lon":5.39869,"is_reserved":false,"is_disabled":false,"rental_uris":{"android":"levelo://app?vid=2891f521-d2a3-414a-9fd9-db001a5d9fcb","ios":"levelo://app?vid=2891f521-d2a3-414a-9fd9-db001a5d9fcb"},"vehicle_type_id":"4","last_reported":1768147979,"current_range_meters":6000,"station_id":"st_d4a7ka997mjs738ck50g","pricing_plan_id":"cebpf4jnsgd1na2vs0mg"},{"bike_id":"65ad97e6-aef1-40d9-8756-ec2d6c923c46","system_id":"levelo_inurba_marseille","lat":43.22916,"lon":5.35403,"is_reserved":false,"is_disabled":false,"rental_uris":{"android":"levelo://app?vid=65ad97e6-aef1-40d9-8756-ec2d6c923c46","ios":"levelo://app?vid=65ad97e6-aef1-40d9-8756-ec2d6c923c46"},"vehicle_type_id":"4","last_reported":1768147979,"current_range_meters":6000,"station_id":"cpo3532slgdg3j2ikp40","pricing_plan_id":"cebpf4jnsgd1na2vs0mg"},{"bike_id":"9227257d-26df-4311-bdb9-080324817f5d","system_id":"levelo_inurba_marseille","lat":43.2175,"lon":5.34584,"is_reserved":false,"is_disabled":true,"rental_uris":{"android":"levelo://app?vid=9227257d-26df-4311-bdb9-080324817f5d","ios":"levelo://app?vid=9227257d-26df-4311-bdb9-080324817f5d"},"vehicle_type_id":"4","last_reported":1768147979,"current_range_meters":6000,"station_id":"st_cvj6r9ubvosntc0bgbag","pricing_plan_id":"cebpf4jnsgd1na2vs0mg"},{"bike_id":"21b36af9-5980-4af9-95e8-5ecd52aecbcb","system_id":"levelo_inurba_marseille","lat":43.25338,"lon":5.42167,"is_reserved":false,"is_disabled":false,"rental_uris":{"android":"levelo://app?vid=21b36af9-5980-4af9-95e8-5ecd52aecbcb","ios":"levelo://app?vid=21b36af9-5980-4af9-95e8-5ecd52aecbcb"},"vehicle_type_id":"4","last_reported":1768147979,"current_range_meters":6000,"station_id":"st_d2m65c5bi1j21697t3ng","pricing_plan_id":"cebpf4jnsgd1na2vs0mg"},{"bike_id":"fa4bb0d8-ba68-465b-864b-6be18ff84a1b","system_id":"levelo_inurba_marseille","lat":43.23189,"lon":5.3556,"is_reserved":false,"is_disabled":false,"rental_uris":{"android":"levelo://app?vid=fa4bb0d8-ba68-465b-864b-6be18ff84a1b","ios":"levelo://app?vid=fa4bb0d8-ba68-465b-864b-6be18ff84a1b"},"vehicle_type_id":"4","last_reported":1768147979,"current_range_meters":6000,"station_id":"ce4bhu92rcd13ifvqi70","pricing_plan_id":"cebpf4jnsgd1na2vs0mg"},{"bike_id":"d01cbaf4-4f71-47f8-877a-c178b0fccc8f","system_id":"levelo_inurba_marseille","lat":43.28072,"lon":5.39656,"is_reserved":false,"is_disabled":false,"rental_uris":{"android":"levelo://app?vid=d01cbaf4-4f71-47f8-877a-c178b0fccc8f","ios":"levelo://app?vid=d01cbaf4-4f71-47f8-877a-c178b0fccc8f"},"vehicle_type_id":"4","last_reported":1768147979,"current_range_meters":6000,"station_id":"ce4bho12rcd13ifvqh2g","pricing_plan_id":"cebpf4jnsgd1na2vs0mg"},{"bike_id":"8065108a-430a-44f3-84fa-f743d9d89a9b","system_id":"levelo_inurba_marseille","lat":43.323631,"lon":5.367605,"is_reserved":false,"is_disabled":false,"rental_uris":{"android":"levelo://app?vid=8065108a-430a-44f3-84fa-f743d9d89a9b","ios":"levelo://app?vid=8065108a-430a-44f3-84fa-f743d9d89a9b"},"vehicle_type_id":"4","last_reported":1768147979,"current_range_meters":6000,"station_id":"","pricing_plan_id":"cebpf4jnsgd1na2vs0mg"},{"bike_id":"e876e459-3938-47d2-92d0-5e33c7feada7","system_id":"levelo_inurba_marseille","lat":43.297886,"lon":5.393329,"is_reserved":false,"is_disabled":false,"rental_uris":{"android":"levelo://app?vid=e876e459-3938-47d2-92d0-5e33c7feada7","ios":"levelo://app?vid=e876e459-3938-47d2-92d0-5e33c7feada7"},"vehicle_type_id":"4","last_reported":1768147979,"current_range_meters":6000,"station_id":"chh1huq6cuj3fo74tm60","pricing_plan_id":"cebpf4jnsgd1na2vs0mg"},{"bike_id":"be8576a8-995a-45d7-bc62-cb26c280bb04","system_id":"levelo_inurba_marseille","lat":43.23217,"lon":5.35556,"is_reserved":false,"is_disabled":false,"rental_uris":{"android":"levelo://app?vid=be8576a8-995a-45d7-bc62-cb26c280bb04","ios":"levelo://app?vid=be8576a8-995a-45d7-bc62-cb26c280bb04"},"vehicle_type_id":"4","last_reported":1768147979,"current_range_meters":6000,"station_id":"ce4bhu92rcd13ifvqi70","pricing_plan_id":"cebpf4jnsgd1na2vs0mg"},{"bike_id":"04c30e8c-643d-458e-92a6-8b6052ba1ff4","system_id":"levelo_inurba_marseille","lat":43.24948,"lon":5.40485,"is_reserved":false,"is_disabled":false,"rental_uris":{"android":"levelo://app?vid=04c30e8c-643d-458e-92a6-8b6052ba1ff4","ios":"levelo://app?vid=04c30e8c-643d-458e-92a6-8b6052ba1ff4"},"vehicle_type_id":"4","last_reported":1768147979,"current_range_meters":6000,"station_id":"st_d2ngiaodas8pm72gd1h0","pricing_plan_id":"cebpf4jnsgd1na2vs0mg"},{"bike_id":"7a2b1e2b-1f85-429f-9e31-eaf2f3b7d4a5","system_id":"levelo_inurba_marseille","lat":43.262074,"lon":5.37927,"is_reserved":false,"is_disabled":true,"rental_uris":{"android":"levelo://app?vid=7a2b1e2b-1f85-429f-9e31-eaf2f3b7d4a5","ios":"levelo://app?vid=7a2b1e2b-1f85-429f-9e31-eaf2f3b7d4a5"},"vehicle_type_id":"4","last_reported":1768147979,"current_range_meters":6400,"station_id":"","pricing_plan_id":"cebpf4jnsgd1na2vs0mg"},{"bike_id":"252022da-26ee-4d7f-abc8-1b488b81c896","system_id":"levelo_inurba_marseille","lat":43.30231,"lon":5.371,"is_reserved":false,"is_disabled":false,"rental_uris":{"android":"levelo://app?vid=252022da-26ee-4d7f-abc8-1b488b81c896","ios":"levelo://app?vid=252022da-26ee-4d7f-abc8-1b488b81c896"},"vehicle_type_id":"4","last_reported":1768147979,"current_range_meters":6400,"station_id":"","pricing_plan_id":"cebpf4jnsgd1na2vs0mg"},{"bike_id":"2f7f8ed0-abfd-41e3-bc34-9299a62bf687","system_id":"levelo_inurba_marseille","lat":43.24117,"lon":5.37778,"is_reserved":false,"is_disabled":false,"rental_uris":{"android":"levelo://app?vid=2f7f8ed0-abfd-41e3-bc34-9299a62bf687","ios":"levelo://app?vid=2f7f8ed0-abfd-41e3-bc34-9299a62bf687"},"vehicle_type_id":"4","last_reported":1768147979,"current_range_meters":6400,"station_id":"ce4bhnp2rcd13ifvqgvg","pricing_plan_id":"cebpf4jnsgd1na2vs0mg"},{"bike_id":"162a9a5f-4324-42e6-8411-4d4d4116471c","system_id":"levelo_inurba_marseille","lat":43.28715,"lon":5.37932,"is_reserved":false,"is_disabled":false,"rental_uris":{"android":"levelo://app?vid=162a9a5f-4324-42e6-8411-4d4d4116471c","ios":"levelo://app?vid=162a9a5f-4324-42e6-8411-4d4d4116471c"},"vehicle_type_id":"4","last_reported":1768147979,"current_range_meters":6400,"station_id":"ce4bh9p2rcd13ifvqec0","pricing_plan_id":"cebpf4jnsgd1na2vs0mg"},{"bike_id":"ca35d045-2c1b-44bb-b957-8f4166968359","system_id":"levelo_inurba_marseille","lat":43.26049,"lon":5.39405,"is_reserved":false,"is_disabled":false,"rental_uris":{"android":"levelo://app?vid=ca35d045-2c1b-44bb-b957-8f4166968359","ios":"levelo://app?vid=ca35d045-2c1b-44bb-b957-8f4166968359"},"vehicle_type_id":"4","last_reported":1768147979,"current_range_meters":6400,"station_id":"ce4bhh92rcd13ifvqfj0","pricing_plan_id":"cebpf4jnsgd1na2vs0mg"},{"bike_id":"37bd4b6c-36f7-4252-8309-2d9f8727a5fe","system_id":"levelo_inurba_marseille","lat":43.29914,"lon":5.37477,"is_reserved":false,"is_disabled":false,"rental_uris":{"android":"levelo://app?vid=37bd4b6c-36f7-4252-8309-2d9f8727a5fe","ios":"levelo://app?vid=37bd4b6c-36f7-4252-8309-2d9f8727a5fe"},"vehicle_type_id":"4","last_reported":1768147979,"current_range_meters":6400,"station_id":"ce4bgjh2rcd13ifvqbg0","pricing_plan_id":"cebpf4jnsgd1na2vs0mg"},{"bike_id":"7485a8d2-8c44-49e7-b993-a5423be07997","system_id":"levelo_inurba_marseille","lat":43.30569,"lon":5.36523,"is_reserved":false,"is_disabled":false,"rental_uris":{"android":"levelo://app?vid=7485a8d2-8c44-49e7-b993-a5423be07997","ios":"levelo://app?vid=7485a8d2-8c44-49e7-b993-a5423be07997"},"vehicle_type_id":"4","last_reported":1768147979,"current_range_meters":6400,"station_id":"ce4bgs12rcd13ifvqcag","pricing_plan_id":"cebpf4jnsgd1na2vs0mg"},{"bike_id":"10b06b52-b9d8-49fd-9373-4da8a32198a5","system_id":"levelo_inurba_marseille","lat":43.28155,"lon":5.42643,"is_reserved":false,"is_disabled":false,"rental_uris":{"android":"levelo://app?vid=10b06b52-b9d8-49fd-9373-4da8a32198a5","ios":"levelo://app?vid=10b06b52-b9d8-49fd-9373-4da8a32198a5"},"vehicle_type_id":"4","last_reported":1768147979,"current_range_meters":6400,"station_id":"ce4bhnh2rcd13ifvqgug","pricing_plan_id":"cebpf4jnsgd1na2vs0mg"},{"bike_id":"4ad6c3b4-e4f5-40a8-80cf-012ab506a9bb","system_id":"levelo_inurba_marseille","lat":43.29894,"lon":5.43661,"is_reserved":false,"is_disabled":false,"rental_uris":{"android":"levelo://app?vid=4ad6c3b4-e4f5-40a8-80cf-012ab506a9bb","ios":"levelo://app?vid=4ad6c3b4-e4f5-40a8-80cf-012ab506a9bb"},"vehicle_type_id":"4","last_reported":1768147979,"current_range_meters":6400,"station_id":"ce4bhpp2rcd13ifvqhfg","pricing_plan_id":"cebpf4jnsgd1na2vs0mg"},{"bike_id":"bb2344d8-a1ee-4d35-a630-9f7958cde331","system_id":"levelo_inurba_marseille","lat":43.25572,"lon":5.38239,"is_reserved":false,"is_disabled":true,"rental_uris":{"android":"levelo://app?vid=bb2344d8-a1ee-4d35-a630-9f7958cde331","ios":"levelo://app?vid=bb2344d8-a1ee-4d35-a630-9f7958cde331"},"vehicle_type_id":"4","last_reported":1768147979,"current_range_meters":6400,"station_id":"ce4bhih2rcd13ifvqfs0","pricing_plan_id":"cebpf4jnsgd1na2vs0mg"},{"bike_id":"5aa482e6-221b-4498-a6a2-fec31f16d788","system_id":"levelo_inurba_marseille","lat":43.28481,"lon":5.484,"is_reserved":false,"is_disabled":false,"rental_uris":{"android":"levelo://app?vid=5aa482e6-221b-4498-a6a2-fec31f16d788","ios":"levelo://app?vid=5aa482e6-221b-4498-a6a2-fec31f16d788"},"vehicle_type_id":"4","last_reported":1768147979,"current_range_meters":6400,"station_id":"","pricing_plan_id":"cebpf4jnsgd1na2vs0mg"},{"bike_id":"cc64d7c9-51a8-4fef-957a-77b530bb6e3a","system_id":"levelo_inurba_marseille","lat":43.28477,"lon":5.384,"is_reserved":false,"is_disabled":false,"rental_uris":{"android":"levelo://app?vid=cc64d7c9-51a8-4fef-957a-77b530bb6e3a","ios":"levelo://app?vid=cc64d7c9-51a8-4fef-957a-77b530bb6e3a"},"vehicle_type_id":"4","last_reported":1768147979,"current_range_meters":6400,"station_id":"ce4bh512rcd13ifvqe3g","pricing_plan_id":"cebpf4jnsgd1na2vs0mg"},{"bike_id":"87d5c75a-ce16-46ad-a6dd-f7088e8ac2aa","system_id":"levelo_inurba_marseille","lat":43.258602,"lon":5.399013,"is_reserved":false,"is_disabled":false,"rental_uris":{"android":"levelo://app?vid=87d5c75a-ce16-46ad-a6dd-f7088e8ac2aa","ios":"levelo://app?vid=87d5c75a-ce16-46ad-a6dd-f7088e8ac2aa"},"vehicle_type_id":"4","last_reported":1768147979,"current_range_meters":6400,"station_id":"ce4bhl92rcd13ifvqghg","pricing_plan_id":"cebpf4jnsgd1na2vs0mg"},{"bike_id":"8a7ee903-e4c0-4637-b8c6-905f7f6393e5","system_id":"levelo_inurba_marseille","lat":43.24173,"lon":5.364,"is_reserved":false,"is_disabled":false,"rental_uris":{"android":"levelo://app?vid=8a7ee903-e4c0-4637-b8c6-905f7f6393e5","ios":"levelo://app?vid=8a7ee903-e4c0-4637-b8c6-905f7f6393e5"},"vehicle_type_id":"4","last_reported":1768147979,"current_range_meters":6400,"station_id":"cpo36qri1sfpv3e86is0","pricing_plan_id":"cebpf4jnsgd1na2vs0mg"},{"bike_id":"e6f34154-a48e-49f3-9790-37e1b4a4c491","system_id":"levelo_inurba_marseille","lat":43.30041,"lon":5.38192,"is_reserved":false,"is_disabled":false,"rental_uris":{"android":"levelo://app?vid=e6f34154-a48e-49f3-9790-37e1b4a4c491","ios":"levelo://app?vid=e6f34154-a48e-49f3-9790-37e1b4a4c491"},"vehicle_type_id":"4","last_reported":1768147979,"current_range_meters":6400,"station_id":"","pricing_plan_id":"cebpf4jnsgd1na2vs0mg"},{"bike_id":"45d8ca9c-83b5-46fa-abec-3dfc830de414","system_id":"levelo_inurba_marseille","lat":43.27997,"lon":5.39994,"is_reserved":false,"is_disabled":false,"rental_uris":{"android":"levelo://app?vid=45d8ca9c-83b5-46fa-abec-3dfc830de414","ios":"levelo://app?vid=45d8ca9c-83b5-46fa-abec-3dfc830de414"},"vehicle_type_id":"4","last_reported":1768147979,"current_range_meters":6400,"station_id":"ce4bho92rcd13ifvqh4g","pricing_plan_id":"cebpf4jnsgd1na2vs0mg"},{"bike_id":"016decb5-a4fe-4d88-a583-364244f3b740","system_id":"levelo_inurba_marseille","lat":43.28612,"lon":5.35105,"is_reserved":false,"is_disabled":false,"rental_uris":{"android":"levelo://app?vid=016decb5-a4fe-4d88-a583-364244f3b740","ios":"levelo://app?vid=016decb5-a4fe-4d88-a583-364244f3b740"},"vehicle_type_id":"4","last_reported":1768147979,"current_range_meters":6400,"station_id":"ce4bhch2rcd13ifvqeug","pricing_plan_id":"cebpf4jnsgd1na2vs0mg"},{"bike_id":"5ae46213-526f-49bc-859d-bd77a6272ad3","system_id":"levelo_inurba_marseille","lat":43.23187,"lon":5.39998,"is_reserved":false,"is_disabled":true,"rental_uris":{"android":"levelo://app?vid=5ae46213-526f-49bc-859d-bd77a6272ad3","ios":"levelo://app?vid=5ae46213-526f-49bc-859d-bd77a6272ad3"},"vehicle_type_id":"4","last_reported":1768147979,"current_range_meters":6800,"station_id":"ce4bhn12rcd13ifvqgqg","pricing_plan_id":"cebpf4jnsgd1na2vs0mg"},{"bike_id":"b1372eab-0c68-4b21-aac9-1ec7d86e7629","system_id":"levelo_inurba_marseille","lat":43.31064,"lon":5.38354,"is_reserved":false,"is_disabled":false,"rental_uris":{"android":"levelo://app?vid=b1372eab-0c68-4b21-aac9-1ec7d86e7629","ios":"levelo://app?vid=b1372eab-0c68-4b21-aac9-1ec7d86e7629"},"vehicle_type_id":"4","last_reported":1768147979,"current_range_meters":6800,"station_id":"ce4bgv92rcd13ifvqcr0","pricing_plan_id":"cebpf4jnsgd1na2vs0mg"},{"bike_id":"ce505927-afd7-4e27-b399-53268ca3a199","system_id":"levelo_inurba_marseille","lat":43.24069,"lon":5.37763,"is_reserved":false,"is_disabled":false,"rental_uris":{"android":"levelo://app?vid=ce505927-afd7-4e27-b399-53268ca3a199","ios":"levelo://app?vid=ce505927-afd7-4e27-b399-53268ca3a199"},"vehicle_type_id":"4","last_reported":1768147979,"current_range_meters":6800,"station_id":"ce4bhnp2rcd13ifvqgvg","pricing_plan_id":"cebpf4jnsgd1na2vs0mg"},{"bike_id":"44dd5646-a585-4abe-b024-79a475dceb03","system_id":"levelo_inurba_marseille","lat":43.27372,"lon":5.36253,"is_reserved":false,"is_disabled":false,"rental_uris":{"android":"levelo://app?vid=44dd5646-a585-4abe-b024-79a475dceb03","ios":"levelo://app?vid=44dd5646-a585-4abe-b024-79a475dceb03"},"vehicle_type_id":"4","last_reported":1768147979,"current_range_meters":6800,"station_id":"ce4bhbh2rcd13ifvqeo0","pricing_plan_id":"cebpf4jnsgd1na2vs0mg"},{"bike_id":"2e00dc9d-8fca-4c53-9c49-436b3c531ac4","system_id":"levelo_inurba_marseille","lat":43.24804,"lon":5.37455,"is_reserved":false,"is_disabled":false,"rental_uris":{"android":"levelo://app?vid=2e00dc9d-8fca-4c53-9c49-436b3c531ac4","ios":"levelo://app?vid=2e00dc9d-8fca-4c53-9c49-436b3c531ac4"},"vehicle_type_id":"4","last_reported":1768147979,"current_range_meters":6800,"station_id":"ce4bhgh2rcd13ifvqfb0","pricing_plan_id":"cebpf4jnsgd1na2vs0mg"},{"bike_id":"3d9ca8f9-ac9d-41f8-ad50-df6291e7a4c4","system_id":"levelo_inurba_marseille","lat":43.23196,"lon":5.355516,"is_reserved":false,"is_disabled":false,"rental_uris":{"android":"levelo://app?vid=3d9ca8f9-ac9d-41f8-ad50-df6291e7a4c4","ios":"levelo://app?vid=3d9ca8f9-ac9d-41f8-ad50-df6291e7a4c4"},"vehicle_type_id":"4","last_reported":1768147979,"current_range_meters":6800,"station_id":"ce4bhu92rcd13ifvqi70","pricing_plan_id":"cebpf4jnsgd1na2vs0mg"},{"bike_id":"a91695ee-af8f-4e73-8e7f-a8deb13a52eb","system_id":"levelo_inurba_marseille","lat":43.27998,"lon":5.40016,"is_reserved":false,"is_disabled":false,"rental_uris":{"android":"levelo://app?vid=a91695ee-af8f-4e73-8e7f-a8deb13a52eb","ios":"levelo://app?vid=a91695ee-af8f-4e73-8e7f-a8deb13a52eb"},"vehicle_type_id":"4","last_reported":1768147979,"current_range_meters":6800,"station_id":"ce4bho92rcd13ifvqh4g","pricing_plan_id":"cebpf4jnsgd1na2vs0mg"},{"bike_id":"1f38f0a0-9d5e-4cb4-93c5-d4ef43fbf00e","system_id":"levelo_inurba_marseille","lat":43.306086,"lon":5.371372,"is_reserved":false,"is_disabled":false,"rental_uris":{"android":"levelo://app?vid=1f38f0a0-9d5e-4cb4-93c5-d4ef43fbf00e","ios":"levelo://app?vid=1f38f0a0-9d5e-4cb4-93c5-d4ef43fbf00e"},"vehicle_type_id":"4","last_reported":1768147979,"current_range_meters":6800,"station_id":"","pricing_plan_id":"cebpf4jnsgd1na2vs0mg"},{"bike_id":"f0ebc8c2-e687-4bde-b3f8-6d500df6884a","system_id":"levelo_inurba_marseille","lat":43.29891,"lon":5.43645,"is_reserved":false,"is_disabled":false,"rental_uris":{"android":"levelo://app?vid=f0ebc8c2-e687-4bde-b3f8-6d500df6884a","ios":"levelo://app?vid=f0ebc8c2-e687-4bde-b3f8-6d500df6884a"},"vehicle_type_id":"4","last_reported":1768147979,"current_range_meters":6800,"station_id":"ce4bhpp2rcd13ifvqhfg","pricing_plan_id":"cebpf4jnsgd1na2vs0mg"},{"bike_id":"2bbac75b-b725-44b5-b9cb-b8e39bea2819","system_id":"levelo_inurba_marseille","lat":43.293123,"lon":5.369918,"is_reserved":false,"is_disabled":true,"rental_uris":{"android":"levelo://app?vid=2bbac75b-b725-44b5-b9cb-b8e39bea2819","ios":"levelo://app?vid=2bbac75b-b725-44b5-b9cb-b8e39bea2819"},"vehicle_type_id":"4","last_reported":1768147979,"current_range_meters":6800,"station_id":"","pricing_plan_id":"cebpf4jnsgd1na2vs0mg"},{"bike_id":"6f4243d7-a899-45df-9f36-5a28e263a49a","system_id":"levelo_inurba_marseille","lat":43.244713,"lon":5.425396,"is_reserved":false,"is_disabled":false,"rental_uris":{"android":"levelo://app?vid=6f4243d7-a899-45df-9f36-5a28e263a49a","ios":"levelo://app?vid=6f4243d7-a899-45df-9f36-5a28e263a49a"},"vehicle_type_id":"4","last_reported":1768147979,"current_range_meters":6800,"station_id":"st_d4a3vfp97mjs738cd8kg","pricing_plan_id":"cebpf4jnsgd1na2vs0mg"},{"bike_id":"bf8f82f3-f732-45b1-920b-e47288c4d4e8","system_id":"levelo_inurba_marseille","lat":43.28466,"lon":5.38434,"is_reserved":false,"is_disabled":false,"rental_uris":{"android":"levelo://app?vid=bf8f82f3-f732-45b1-920b-e47288c4d4e8","ios":"levelo://app?vid=bf8f82f3-f732-45b1-920b-e47288c4d4e8"},"vehicle_type_id":"4","last_reported":1768147979,"current_range_meters":6800,"station_id":"ce4bh512rcd13ifvqe3g","pricing_plan_id":"cebpf4jnsgd1na2vs0mg"},{"bike_id":"4c3558f2-faf6-43e6-a593-3aae3d520ba3","system_id":"levelo_inurba_marseille","lat":43.30319,"lon":5.36908,"is_reserved":false,"is_disabled":false,"rental_uris":{"android":"levelo://app?vid=4c3558f2-faf6-43e6-a593-3aae3d520ba3","ios":"levelo://app?vid=4c3558f2-faf6-43e6-a593-3aae3d520ba3"},"vehicle_type_id":"4","last_reported":1768147979,"current_range_meters":6800,"station_id":"ce4bgqh2rcd13ifvqc5g","pricing_plan_id":"cebpf4jnsgd1na2vs0mg"},{"bike_id":"5a828171-37e3-4937-8eaa-03dcee500f40","system_id":"levelo_inurba_marseille","lat":43.22562,"lon":5.41619,"is_reserved":false,"is_disabled":false,"rental_uris":{"android":"levelo://app?vid=5a828171-37e3-4937-8eaa-03dcee500f40","ios":"levelo://app?vid=5a828171-37e3-4937-8eaa-03dcee500f40"},"vehicle_type_id":"4","last_reported":1768147979,"current_range_meters":6800,"station_id":"st_d2o4gvlbi1j2169b742g","pricing_plan_id":"cebpf4jnsgd1na2vs0mg"},{"bike_id":"8f97d907-0afa-48c9-9def-458ed100166b","system_id":"levelo_inurba_marseille","lat":43.28869,"lon":5.42521,"is_reserved":false,"is_disabled":false,"rental_uris":{"android":"levelo://app?vid=8f97d907-0afa-48c9-9def-458ed100166b","ios":"levelo://app?vid=8f97d907-0afa-48c9-9def-458ed100166b"},"vehicle_type_id":"4","last_reported":1768147979,"current_range_meters":6800,"station_id":"st_d3b462108ojc7389ooeg","pricing_plan_id":"cebpf4jnsgd1na2vs0mg"},{"bike_id":"551e9f37-b525-4909-9e6e-0277dfd85b6b","system_id":"levelo_inurba_marseille","lat":43.22561,"lon":5.4163,"is_reserved":false,"is_disabled":false,"rental_uris":{"android":"levelo://app?vid=551e9f37-b525-4909-9e6e-0277dfd85b6b","ios":"levelo://app?vid=551e9f37-b525-4909-9e6e-0277dfd85b6b"},"vehicle_type_id":"4","last_reported":1768147979,"current_range_meters":6800,"station_id":"st_d2o4gvlbi1j2169b742g","pricing_plan_id":"cebpf4jnsgd1na2vs0mg"},{"bike_id":"dc23bc69-9b99-4e3d-bfa0-45bd84a5010a","system_id":"levelo_inurba_marseille","lat":43.29003,"lon":5.3561,"is_reserved":false,"is_disabled":false,"rental_uris":{"android":"levelo://app?vid=dc23bc69-9b99-4e3d-bfa0-45bd84a5010a","ios":"levelo://app?vid=dc23bc69-9b99-4e3d-bfa0-45bd84a5010a"},"vehicle_type_id":"4","last_reported":1768147979,"current_range_meters":6800,"station_id":"ce4bhb92rcd13ifvqen0","pricing_plan_id":"cebpf4jnsgd1na2vs0mg"},{"bike_id":"e3a8a999-00cc-4726-813a-483610778c4b","system_id":"levelo_inurba_marseille","lat":43.23183,"lon":5.39983,"is_reserved":false,"is_disabled":false,"rental_uris":{"android":"levelo://app?vid=e3a8a999-00cc-4726-813a-483610778c4b","ios":"levelo://app?vid=e3a8a999-00cc-4726-813a-483610778c4b"},"vehicle_type_id":"4","last_reported":1768147979,"current_range_meters":6800,"station_id":"ce4bhn12rcd13ifvqgqg","pricing_plan_id":"cebpf4jnsgd1na2vs0mg"},{"bike_id":"77ebb402-c310-4819-a3c5-7760e39e1d8f","system_id":"levelo_inurba_marseille","lat":43.28865,"lon":5.39844,"is_reserved":false,"is_disabled":false,"rental_uris":{"android":"levelo://app?vid=77ebb402-c310-4819-a3c5-7760e39e1d8f","ios":"levelo://app?vid=77ebb402-c310-4819-a3c5-7760e39e1d8f"},"vehicle_type_id":"4","last_reported":1768147979,"current_range_meters":6800,"station_id":"","pricing_plan_id":"cebpf4jnsgd1na2vs0mg"},{"bike_id":"eeb26acb-1d46-4265-81cb-1f74d63a588c","system_id":"levelo_inurba_marseille","lat":43.28223,"lon":5.39071,"is_reserved":false,"is_disabled":false,"rental_uris":{"android":"levelo://app?vid=eeb26acb-1d46-4265-81cb-1f74d63a588c","ios":"levelo://app?vid=eeb26acb-1d46-4265-81cb-1f74d63a588c"},"vehicle_type_id":"4","last_reported":1768147979,"current_range_meters":6800,"station_id":"ce4bhn92rcd13ifvqgsg","pricing_plan_id":"cebpf4jnsgd1na2vs0mg"},{"bike_id":"6869894f-67a0-4b58-8bae-911192c83f2f","system_id":"levelo_inurba_marseille","lat":43.318739,"lon":5.400005,"is_reserved":false,"is_disabled":false,"rental_uris":{"android":"levelo://app?vid=6869894f-67a0-4b58-8bae-911192c83f2f","ios":"levelo://app?vid=6869894f-67a0-4b58-8bae-911192c83f2f"},"vehicle_type_id":"4","last_reported":1768147979,"current_range_meters":6800,"station_id":"","pricing_plan_id":"cebpf4jnsgd1na2vs0mg"},{"bike_id":"e49af81c-e8de-4a56-b879-6b8572625819","system_id":"levelo_inurba_marseille","lat":43.28459,"lon":5.34971,"is_reserved":false,"is_disabled":false,"rental_uris":{"android":"levelo://app?vid=e49af81c-e8de-4a56-b879-6b8572625819","ios":"levelo://app?vid=e49af81c-e8de-4a56-b879-6b8572625819"},"vehicle_type_id":"4","last_reported":1768147979,"current_range_meters":6800,"station_id":"ce4bhbh2rcd13ifvqepg","pricing_plan_id":"cebpf4jnsgd1na2vs0mg"},{"bike_id":"784bade9-de85-4c9f-99c1-e1f7d025a70e","system_id":"levelo_inurba_marseille","lat":43.22587,"lon":5.41554,"is_reserved":false,"is_disabled":false,"rental_uris":{"android":"levelo://app?vid=784bade9-de85-4c9f-99c1-e1f7d025a70e","ios":"levelo://app?vid=784bade9-de85-4c9f-99c1-e1f7d025a70e"},"vehicle_type_id":"4","last_reported":1768147979,"current_range_meters":7200,"station_id":"","pricing_plan_id":"cebpf4jnsgd1na2vs0mg"},{"bike_id":"f71d23bb-0817-4575-bf00-a7284c6a3bb5","system_id":"levelo_inurba_marseille","lat":43.29481,"lon":5.43304,"is_reserved":false,"is_disabled":false,"rental_uris":{"android":"levelo://app?vid=f71d23bb-0817-4575-bf00-a7284c6a3bb5","ios":"levelo://app?vid=f71d23bb-0817-4575-bf00-a7284c6a3bb5"},"vehicle_type_id":"4","last_reported":1768147979,"current_range_meters":7200,"station_id":"st_d3j5ugp08ojc73fj9d10","pricing_plan_id":"cebpf4jnsgd1na2vs0mg"},{"bike_id":"ce168850-ad18-4118-b8c3-4df4ab978171","system_id":"levelo_inurba_marseille","lat":43.2954,"lon":5.3854,"is_reserved":false,"is_disabled":false,"rental_uris":{"android":"levelo://app?vid=ce168850-ad18-4118-b8c3-4df4ab978171","ios":"levelo://app?vid=ce168850-ad18-4118-b8c3-4df4ab978171"},"vehicle_type_id":"4","last_reported":1768147979,"current_range_meters":7200,"station_id":"ce4bgih2rcd13ifvqba0","pricing_plan_id":"cebpf4jnsgd1na2vs0mg"},{"bike_id":"7628e7a5-7b21-4849-a067-eb70db95c2b6","system_id":"levelo_inurba_marseille","lat":43.29895,"lon":5.43669,"is_reserved":false,"is_disabled":false,"rental_uris":{"android":"levelo://app?vid=7628e7a5-7b21-4849-a067-eb70db95c2b6","ios":"levelo://app?vid=7628e7a5-7b21-4849-a067-eb70db95c2b6"},"vehicle_type_id":"4","last_reported":1768147979,"current_range_meters":7200,"station_id":"ce4bhpp2rcd13ifvqhfg","pricing_plan_id":"cebpf4jnsgd1na2vs0mg"},{"bike_id":"947ce4af-bec6-4b27-9e63-ce65682eb248","system_id":"levelo_inurba_marseille","lat":43.32343,"lon":5.36759,"is_reserved":false,"is_disabled":false,"rental_uris":{"android":"levelo://app?vid=947ce4af-bec6-4b27-9e63-ce65682eb248","ios":"levelo://app?vid=947ce4af-bec6-4b27-9e63-ce65682eb248"},"vehicle_type_id":"4","last_reported":1768147979,"current_range_meters":7200,"station_id":"ce4bhsh2rcd13ifvqi2g","pricing_plan_id":"cebpf4jnsgd1na2vs0mg"},{"bike_id":"4bb0d39c-53f9-41fa-85e4-2bccc60ee9cf","system_id":"levelo_inurba_marseille","lat":43.31992,"lon":5.38156,"is_reserved":false,"is_disabled":false,"rental_uris":{"android":"levelo://app?vid=4bb0d39c-53f9-41fa-85e4-2bccc60ee9cf","ios":"levelo://app?vid=4bb0d39c-53f9-41fa-85e4-2bccc60ee9cf"},"vehicle_type_id":"4","last_reported":1768147979,"current_range_meters":7200,"station_id":"ce4bhr12rcd13ifvqhpg","pricing_plan_id":"cebpf4jnsgd1na2vs0mg"},{"bike_id":"01755f55-961f-40b3-9e23-e95349abd649","system_id":"levelo_inurba_marseille","lat":43.26055,"lon":5.39394,"is_reserved":false,"is_disabled":false,"rental_uris":{"android":"levelo://app?vid=01755f55-961f-40b3-9e23-e95349abd649","ios":"levelo://app?vid=01755f55-961f-40b3-9e23-e95349abd649"},"vehicle_type_id":"4","last_reported":1768147979,"current_range_meters":7200,"station_id":"ce4bhh92rcd13ifvqfj0","pricing_plan_id":"cebpf4jnsgd1na2vs0mg"},{"bike_id":"2b75c922-9612-4798-89cf-9ab819b7fee0","system_id":"levelo_inurba_marseille","lat":43.27326,"lon":5.39087,"is_reserved":false,"is_disabled":false,"rental_uris":{"android":"levelo://app?vid=2b75c922-9612-4798-89cf-9ab819b7fee0","ios":"levelo://app?vid=2b75c922-9612-4798-89cf-9ab819b7fee0"},"vehicle_type_id":"4","last_reported":1768147979,"current_range_meters":7200,"station_id":"ce4bhgp2rcd13ifvqfe0","pricing_plan_id":"cebpf4jnsgd1na2vs0mg"},{"bike_id":"9970f978-d332-4998-b118-01bc35c6b403","system_id":"levelo_inurba_marseille","lat":43.25566,"lon":5.38227,"is_reserved":false,"is_disabled":false,"rental_uris":{"android":"levelo://app?vid=9970f978-d332-4998-b118-01bc35c6b403","ios":"levelo://app?vid=9970f978-d332-4998-b118-01bc35c6b403"},"vehicle_type_id":"4","last_reported":1768147979,"current_range_meters":7200,"station_id":"ce4bhih2rcd13ifvqfs0","pricing_plan_id":"cebpf4jnsgd1na2vs0mg"},{"bike_id":"f1738cae-b37c-436c-93e9-f046d263b6fa","system_id":"levelo_inurba_marseille","lat":43.225301,"lon":5.348359,"is_reserved":false,"is_disabled":false,"rental_uris":{"android":"levelo://app?vid=f1738cae-b37c-436c-93e9-f046d263b6fa","ios":"levelo://app?vid=f1738cae-b37c-436c-93e9-f046d263b6fa"},"vehicle_type_id":"4","last_reported":1768147979,"current_range_meters":7200,"station_id":"","pricing_plan_id":"cebpf4jnsgd1na2vs0mg"},{"bike_id":"8d3f99e8-e0d3-4ac2-bf02-cbd27ce4a64f","system_id":"levelo_inurba_marseille","lat":43.28624,"lon":5.35104,"is_reserved":false,"is_disabled":false,"rental_uris":{"android":"levelo://app?vid=8d3f99e8-e0d3-4ac2-bf02-cbd27ce4a64f","ios":"levelo://app?vid=8d3f99e8-e0d3-4ac2-bf02-cbd27ce4a64f"},"vehicle_type_id":"4","last_reported":1768147979,"current_range_meters":7200,"station_id":"ce4bhch2rcd13ifvqeug","pricing_plan_id":"cebpf4jnsgd1na2vs0mg"},{"bike_id":"c2b1b533-3637-4ed8-8a12-27ee7ae5b825","system_id":"levelo_inurba_marseille","lat":43.29005,"lon":5.356,"is_reserved":false,"is_disabled":false,"rental_uris":{"android":"levelo://app?vid=c2b1b533-3637-4ed8-8a12-27ee7ae5b825","ios":"levelo://app?vid=c2b1b533-3637-4ed8-8a12-27ee7ae5b825"},"vehicle_type_id":"4","last_reported":1768147979,"current_range_meters":7200,"station_id":"ce4bhb92rcd13ifvqen0","pricing_plan_id":"cebpf4jnsgd1na2vs0mg"},{"bike_id":"d62f9e36-0176-47ea-b04e-e25d60615654","system_id":"levelo_inurba_marseille","lat":43.26485,"lon":5.39545,"is_reserved":false,"is_disabled":false,"rental_uris":{"android":"levelo://app?vid=d62f9e36-0176-47ea-b04e-e25d60615654","ios":"levelo://app?vid=d62f9e36-0176-47ea-b04e-e25d60615654"},"vehicle_type_id":"4","last_reported":1768147979,"current_range_meters":7200,"station_id":"ce4bhi12rcd13ifvqfq0","pricing_plan_id":"cebpf4jnsgd1na2vs0mg"},{"bike_id":"c72dfa06-f246-4eb4-a47f-cc812e4e69c1","system_id":"levelo_inurba_marseille","lat":43.23961,"lon":5.36625,"is_reserved":false,"is_disabled":false,"rental_uris":{"android":"levelo://app?vid=c72dfa06-f246-4eb4-a47f-cc812e4e69c1","ios":"levelo://app?vid=c72dfa06-f246-4eb4-a47f-cc812e4e69c1"},"vehicle_type_id":"4","last_reported":1768147979,"current_range_meters":7200,"station_id":"ce4bhi12rcd13ifvqfp0","pricing_plan_id":"cebpf4jnsgd1na2vs0mg"},{"bike_id":"c253fa61-8fed-462f-a5ce-20493a3a0b3d","system_id":"levelo_inurba_marseille","lat":43.27897,"lon":5.37991,"is_reserved":false,"is_disabled":false,"rental_uris":{"android":"levelo://app?vid=c253fa61-8fed-462f-a5ce-20493a3a0b3d","ios":"levelo://app?vid=c253fa61-8fed-462f-a5ce-20493a3a0b3d"},"vehicle_type_id":"4","last_reported":1768147979,"current_range_meters":7200,"station_id":"ce4bhf92rcd13ifvqf50","pricing_plan_id":"cebpf4jnsgd1na2vs0mg"},{"bike_id":"4c7b2ffd-ccb0-48ab-a409-0108095ad067","system_id":"levelo_inurba_marseille","lat":43.23195,"lon":5.39972,"is_reserved":false,"is_disabled":true,"rental_uris":{"android":"levelo://app?vid=4c7b2ffd-ccb0-48ab-a409-0108095ad067","ios":"levelo://app?vid=4c7b2ffd-ccb0-48ab-a409-0108095ad067"},"vehicle_type_id":"4","last_reported":1768147979,"current_range_meters":7200,"station_id":"ce4bhn12rcd13ifvqgqg","pricing_plan_id":"cebpf4jnsgd1na2vs0mg"},{"bike_id":"edd0b1e1-8c8d-4f25-a2be-11b368b57a1a","system_id":"levelo_inurba_marseille","lat":43.22945,"lon":5.35375,"is_reserved":false,"is_disabled":false,"rental_uris":{"android":"levelo://app?vid=edd0b1e1-8c8d-4f25-a2be-11b368b57a1a","ios":"levelo://app?vid=edd0b1e1-8c8d-4f25-a2be-11b368b57a1a"},"vehicle_type_id":"4","last_reported":1768147979,"current_range_meters":7200,"station_id":"cpo3532slgdg3j2ikp40","pricing_plan_id":"cebpf4jnsgd1na2vs0mg"},{"bike_id":"c59f5a79-013e-434e-937e-1cdde0b23ac2","system_id":"levelo_inurba_marseille","lat":43.25333,"lon":5.42177,"is_reserved":false,"is_disabled":false,"rental_uris":{"android":"levelo://app?vid=c59f5a79-013e-434e-937e-1cdde0b23ac2","ios":"levelo://app?vid=c59f5a79-013e-434e-937e-1cdde0b23ac2"},"vehicle_type_id":"4","last_reported":1768147979,"current_range_meters":7200,"station_id":"st_d2m65c5bi1j21697t3ng","pricing_plan_id":"cebpf4jnsgd1na2vs0mg"},{"bike_id":"7728a9a9-b122-4ae6-b166-222fcfbd1a21","system_id":"levelo_inurba_marseille","lat":43.30256,"lon":5.40068,"is_reserved":false,"is_disabled":false,"rental_uris":{"android":"levelo://app?vid=7728a9a9-b122-4ae6-b166-222fcfbd1a21","ios":"levelo://app?vid=7728a9a9-b122-4ae6-b166-222fcfbd1a21"},"vehicle_type_id":"4","last_reported":1768147979,"current_range_meters":7200,"station_id":"ce4bgvh2rcd13ifvqcs0","pricing_plan_id":"cebpf4jnsgd1na2vs0mg"},{"bike_id":"5eb236d0-c732-47a3-b4ae-bebb81ae84fb","system_id":"levelo_inurba_marseille","lat":43.30863,"lon":5.40586,"is_reserved":false,"is_disabled":false,"rental_uris":{"android":"levelo://app?vid=5eb236d0-c732-47a3-b4ae-bebb81ae84fb","ios":"levelo://app?vid=5eb236d0-c732-47a3-b4ae-bebb81ae84fb"},"vehicle_type_id":"4","last_reported":1768147979,"current_range_meters":8000,"station_id":"","pricing_plan_id":"cebpf4jnsgd1na2vs0mg"},{"bike_id":"20de3ddf-3cfd-42ef-81e0-029c9589c76b","system_id":"levelo_inurba_marseille","lat":43.31567,"lon":5.38755,"is_reserved":false,"is_disabled":false,"rental_uris":{"android":"levelo://app?vid=20de3ddf-3cfd-42ef-81e0-029c9589c76b","ios":"levelo://app?vid=20de3ddf-3cfd-42ef-81e0-029c9589c76b"},"vehicle_type_id":"4","last_reported":1768147979,"current_range_meters":8000,"station_id":"","pricing_plan_id":"cebpf4jnsgd1na2vs0mg"},{"bike_id":"b5e622b0-5126-4c46-aea7-514865fdad46","system_id":"levelo_inurba_marseille","lat":43.225,"lon":5.34836,"is_reserved":false,"is_disabled":false,"rental_uris":{"android":"levelo://app?vid=b5e622b0-5126-4c46-aea7-514865fdad46","ios":"levelo://app?vid=b5e622b0-5126-4c46-aea7-514865fdad46"},"vehicle_type_id":"4","last_reported":1768147979,"current_range_meters":8000,"station_id":"st_cvj5dfep6f1abm77gieg","pricing_plan_id":"cebpf4jnsgd1na2vs0mg"},{"bike_id":"ed8b1e0c-466c-45ea-a324-897647f6b251","system_id":"levelo_inurba_marseille","lat":43.23797,"lon":5.36606,"is_reserved":false,"is_disabled":false,"rental_uris":{"android":"levelo://app?vid=ed8b1e0c-466c-45ea-a324-897647f6b251","ios":"levelo://app?vid=ed8b1e0c-466c-45ea-a324-897647f6b251"},"vehicle_type_id":"4","last_reported":1768147979,"current_range_meters":8000,"station_id":"st_d3nk18o9ro0c73en2l3g","pricing_plan_id":"cebpf4jnsgd1na2vs0mg"},{"bike_id":"439a61d5-d051-40af-9b0f-2926884e52eb","system_id":"levelo_inurba_marseille","lat":43.30723,"lon":5.40995,"is_reserved":false,"is_disabled":false,"rental_uris":{"android":"levelo://app?vid=439a61d5-d051-40af-9b0f-2926884e52eb","ios":"levelo://app?vid=439a61d5-d051-40af-9b0f-2926884e52eb"},"vehicle_type_id":"4","last_reported":1768147979,"current_range_meters":8000,"station_id":"","pricing_plan_id":"cebpf4jnsgd1na2vs0mg"},{"bike_id":"fa978f85-8fd8-4bcd-bd90-2c68404c4c9c","system_id":"levelo_inurba_marseille","lat":43.28532,"lon":5.44101,"is_reserved":false,"is_disabled":false,"rental_uris":{"android":"levelo://app?vid=fa978f85-8fd8-4bcd-bd90-2c68404c4c9c","ios":"levelo://app?vid=fa978f85-8fd8-4bcd-bd90-2c68404c4c9c"},"vehicle_type_id":"4","last_reported":1768147979,"current_range_meters":8000,"station_id":"st_d3j3df2ikq2c7380ej80","pricing_plan_id":"cebpf4jnsgd1na2vs0mg"},{"bike_id":"dfd48d63-e5d1-4425-97d5-a11fee772bb6","system_id":"levelo_inurba_marseille","lat":43.25572,"lon":5.38248,"is_reserved":false,"is_disabled":false,"rental_uris":{"android":"levelo://app?vid=dfd48d63-e5d1-4425-97d5-a11fee772bb6","ios":"levelo://app?vid=dfd48d63-e5d1-4425-97d5-a11fee772bb6"},"vehicle_type_id":"4","last_reported":1768147979,"current_range_meters":8000,"station_id":"ce4bhih2rcd13ifvqfs0","pricing_plan_id":"cebpf4jnsgd1na2vs0mg"},{"bike_id":"244b7538-163d-454d-823f-8b1f8b0c67c5","system_id":"levelo_inurba_marseille","lat":43.29448,"lon":5.39756,"is_reserved":false,"is_disabled":true,"rental_uris":{"android":"levelo://app?vid=244b7538-163d-454d-823f-8b1f8b0c67c5","ios":"levelo://app?vid=244b7538-163d-454d-823f-8b1f8b0c67c5"},"vehicle_type_id":"4","last_reported":1768147979,"current_range_meters":8000,"station_id":"ce4bh3h2rcd13ifvqdo0","pricing_plan_id":"cebpf4jnsgd1na2vs0mg"},{"bike_id":"cfa9d431-0c3a-47b2-bafd-95922015c415","system_id":"levelo_inurba_marseille","lat":43.31855,"lon":5.37735,"is_reserved":false,"is_disabled":false,"rental_uris":{"android":"levelo://app?vid=cfa9d431-0c3a-47b2-bafd-95922015c415","ios":"levelo://app?vid=cfa9d431-0c3a-47b2-bafd-95922015c415"},"vehicle_type_id":"4","last_reported":1768147979,"current_range_meters":8000,"station_id":"","pricing_plan_id":"cebpf4jnsgd1na2vs0mg"},{"bike_id":"53285794-c62b-442b-9e6a-233ce6590272","system_id":"levelo_inurba_marseille","lat":43.245826,"lon":5.374825,"is_reserved":false,"is_disabled":false,"rental_uris":{"android":"levelo://app?vid=53285794-c62b-442b-9e6a-233ce6590272","ios":"levelo://app?vid=53285794-c62b-442b-9e6a-233ce6590272"},"vehicle_type_id":"4","last_reported":1768147979,"current_range_meters":8000,"station_id":"","pricing_plan_id":"cebpf4jnsgd1na2vs0mg"},{"bike_id":"d9c321c1-bd42-4a0f-bd8a-d741d0e507f0","system_id":"levelo_inurba_marseille","lat":43.24165,"lon":5.36406,"is_reserved":false,"is_disabled":false,"rental_uris":{"android":"levelo://app?vid=d9c321c1-bd42-4a0f-bd8a-d741d0e507f0","ios":"levelo://app?vid=d9c321c1-bd42-4a0f-bd8a-d741d0e507f0"},"vehicle_type_id":"4","last_reported":1768147979,"current_range_meters":8000,"station_id":"cpo36qri1sfpv3e86is0","pricing_plan_id":"cebpf4jnsgd1na2vs0mg"},{"bike_id":"426a012b-ae01-4b92-aec8-2e75d13277b3","system_id":"levelo_inurba_marseille","lat":43.27367,"lon":5.36256,"is_reserved":false,"is_disabled":false,"rental_uris":{"android":"levelo://app?vid=426a012b-ae01-4b92-aec8-2e75d13277b3","ios":"levelo://app?vid=426a012b-ae01-4b92-aec8-2e75d13277b3"},"vehicle_type_id":"4","last_reported":1768147979,"current_range_meters":8000,"station_id":"ce4bhbh2rcd13ifvqeo0","pricing_plan_id":"cebpf4jnsgd1na2vs0mg"},{"bike_id":"0fee359e-fd0a-419a-8bad-68dfffe61373","system_id":"levelo_inurba_marseille","lat":43.32535,"lon":5.40677,"is_reserved":false,"is_disabled":false,"rental_uris":{"android":"levelo://app?vid=0fee359e-fd0a-419a-8bad-68dfffe61373","ios":"levelo://app?vid=0fee359e-fd0a-419a-8bad-68dfffe61373"},"vehicle_type_id":"4","last_reported":1768147979,"current_range_meters":8000,"station_id":"","pricing_plan_id":"cebpf4jnsgd1na2vs0mg"},{"bike_id":"abb5c0e1-568c-4e32-96f0-ab5e4883373c","system_id":"levelo_inurba_marseille","lat":43.26593,"lon":5.37275,"is_reserved":false,"is_disabled":false,"rental_uris":{"android":"levelo://app?vid=abb5c0e1-568c-4e32-96f0-ab5e4883373c","ios":"levelo://app?vid=abb5c0e1-568c-4e32-96f0-ab5e4883373c"},"vehicle_type_id":"4","last_reported":1768147979,"current_range_meters":8000,"station_id":"ce4bhg12rcd13ifvqf70","pricing_plan_id":"cebpf4jnsgd1na2vs0mg"},{"bike_id":"7391bea9-cf28-4483-bef1-ec64b236fa58","system_id":"levelo_inurba_marseille","lat":43.22934,"lon":5.35377,"is_reserved":false,"is_disabled":false,"rental_uris":{"android":"levelo://app?vid=7391bea9-cf28-4483-bef1-ec64b236fa58","ios":"levelo://app?vid=7391bea9-cf28-4483-bef1-ec64b236fa58"},"vehicle_type_id":"4","last_reported":1768147979,"current_range_meters":8400,"station_id":"cpo3532slgdg3j2ikp40","pricing_plan_id":"cebpf4jnsgd1na2vs0mg"},{"bike_id":"5959aa29-05e9-4f9f-9557-c51d778d874a","system_id":"levelo_inurba_marseille","lat":43.30536,"lon":5.36698,"is_reserved":false,"is_disabled":false,"rental_uris":{"android":"levelo://app?vid=5959aa29-05e9-4f9f-9557-c51d778d874a","ios":"levelo://app?vid=5959aa29-05e9-4f9f-9557-c51d778d874a"},"vehicle_type_id":"4","last_reported":1768147979,"current_range_meters":8400,"station_id":"ce4bgrp2rcd13ifvqc9g","pricing_plan_id":"cebpf4jnsgd1na2vs0mg"},{"bike_id":"d5278341-885b-4e9a-a951-ac55e4ace68f","system_id":"levelo_inurba_marseille","lat":43.29003,"lon":5.356162,"is_reserved":false,"is_disabled":false,"rental_uris":{"android":"levelo://app?vid=d5278341-885b-4e9a-a951-ac55e4ace68f","ios":"levelo://app?vid=d5278341-885b-4e9a-a951-ac55e4ace68f"},"vehicle_type_id":"4","last_reported":1768147979,"current_range_meters":8400,"station_id":"ce4bhb92rcd13ifvqen0","pricing_plan_id":"cebpf4jnsgd1na2vs0mg"},{"bike_id":"c7aa20f8-983d-45fa-8f15-bc3b76c15f97","system_id":"levelo_inurba_marseille","lat":43.32347,"lon":5.37039,"is_reserved":false,"is_disabled":false,"rental_uris":{"android":"levelo://app?vid=c7aa20f8-983d-45fa-8f15-bc3b76c15f97","ios":"levelo://app?vid=c7aa20f8-983d-45fa-8f15-bc3b76c15f97"},"vehicle_type_id":"4","last_reported":1768147979,"current_range_meters":8400,"station_id":"","pricing_plan_id":"cebpf4jnsgd1na2vs0mg"},{"bike_id":"c0e1b22c-9e67-43eb-b8e9-683099f38799","system_id":"levelo_inurba_marseille","lat":43.287129,"lon":5.379393,"is_reserved":false,"is_disabled":false,"rental_uris":{"android":"levelo://app?vid=c0e1b22c-9e67-43eb-b8e9-683099f38799","ios":"levelo://app?vid=c0e1b22c-9e67-43eb-b8e9-683099f38799"},"vehicle_type_id":"4","last_reported":1768147979,"current_range_meters":8400,"station_id":"ce4bh9p2rcd13ifvqec0","pricing_plan_id":"cebpf4jnsgd1na2vs0mg"},{"bike_id":"a9643177-8d0d-4088-8bf1-848629983930","system_id":"levelo_inurba_marseille","lat":43.26548,"lon":5.37298,"is_reserved":false,"is_disabled":false,"rental_uris":{"android":"levelo://app?vid=a9643177-8d0d-4088-8bf1-848629983930","ios":"levelo://app?vid=a9643177-8d0d-4088-8bf1-848629983930"},"vehicle_type_id":"4","last_reported":1768147979,"current_range_meters":8400,"station_id":"ce4bhg12rcd13ifvqf70","pricing_plan_id":"cebpf4jnsgd1na2vs0mg"},{"bike_id":"38a5a6be-7a66-462f-bfdd-a381aa75e6d3","system_id":"levelo_inurba_marseille","lat":43.286577,"lon":5.38664,"is_reserved":false,"is_disabled":true,"rental_uris":{"android":"levelo://app?vid=38a5a6be-7a66-462f-bfdd-a381aa75e6d3","ios":"levelo://app?vid=38a5a6be-7a66-462f-bfdd-a381aa75e6d3"},"vehicle_type_id":"4","last_reported":1768147979,"current_range_meters":8400,"station_id":"ce4bh492rcd13ifvqdug","pricing_plan_id":"cebpf4jnsgd1na2vs0mg"},{"bike_id":"e48607cd-b2f5-4b5a-9c6c-86ffe0a63554","system_id":"levelo_inurba_marseille","lat":43.24387,"lon":5.37067,"is_reserved":false,"is_disabled":false,"rental_uris":{"android":"levelo://app?vid=e48607cd-b2f5-4b5a-9c6c-86ffe0a63554","ios":"levelo://app?vid=e48607cd-b2f5-4b5a-9c6c-86ffe0a63554"},"vehicle_type_id":"4","last_reported":1768147979,"current_range_meters":8400,"station_id":"ce4bhhh2rcd13ifvqfk0","pricing_plan_id":"cebpf4jnsgd1na2vs0mg"},{"bike_id":"9c173f65-91f3-47a8-a35c-26d1383b7476","system_id":"levelo_inurba_marseille","lat":43.24544,"lon":5.39523,"is_reserved":false,"is_disabled":false,"rental_uris":{"android":"levelo://app?vid=9c173f65-91f3-47a8-a35c-26d1383b7476","ios":"levelo://app?vid=9c173f65-91f3-47a8-a35c-26d1383b7476"},"vehicle_type_id":"4","last_reported":1768147979,"current_range_meters":8400,"station_id":"ce4bhlp2rcd13ifvqgjg","pricing_plan_id":"cebpf4jnsgd1na2vs0mg"},{"bike_id":"097b1db9-7cfb-4c5a-94d5-72ec3ba5c8b3","system_id":"levelo_inurba_marseille","lat":43.28005,"lon":5.40899,"is_reserved":false,"is_disabled":false,"rental_uris":{"android":"levelo://app?vid=097b1db9-7cfb-4c5a-94d5-72ec3ba5c8b3","ios":"levelo://app?vid=097b1db9-7cfb-4c5a-94d5-72ec3ba5c8b3"},"vehicle_type_id":"4","last_reported":1768147979,"current_range_meters":8400,"station_id":"","pricing_plan_id":"cebpf4jnsgd1na2vs0mg"},{"bike_id":"ed2cd03a-66bb-4e81-9432-86bceab963be","system_id":"levelo_inurba_marseille","lat":43.22562,"lon":5.41629,"is_reserved":false,"is_disabled":false,"rental_uris":{"android":"levelo://app?vid=ed2cd03a-66bb-4e81-9432-86bceab963be","ios":"levelo://app?vid=ed2cd03a-66bb-4e81-9432-86bceab963be"},"vehicle_type_id":"4","last_reported":1768147979,"current_range_meters":8400,"station_id":"st_d2o4gvlbi1j2169b742g","pricing_plan_id":"cebpf4jnsgd1na2vs0mg"},{"bike_id":"015f8676-f909-47d2-934a-ebb059fb76f4","system_id":"levelo_inurba_marseille","lat":43.2721,"lon":5.39196,"is_reserved":false,"is_disabled":false,"rental_uris":{"android":"levelo://app?vid=015f8676-f909-47d2-934a-ebb059fb76f4","ios":"levelo://app?vid=015f8676-f909-47d2-934a-ebb059fb76f4"},"vehicle_type_id":"4","last_reported":1768147979,"current_range_meters":8400,"station_id":"ce4bhhp2rcd13ifvqfm0","pricing_plan_id":"cebpf4jnsgd1na2vs0mg"},{"bike_id":"c1cecde7-aea5-4ec7-9e3f-d3a8c8706ce1","system_id":"levelo_inurba_marseille","lat":43.292851,"lon":5.406159,"is_reserved":false,"is_disabled":false,"rental_uris":{"android":"levelo://app?vid=c1cecde7-aea5-4ec7-9e3f-d3a8c8706ce1","ios":"levelo://app?vid=c1cecde7-aea5-4ec7-9e3f-d3a8c8706ce1"},"vehicle_type_id":"4","last_reported":1768147979,"current_range_meters":8400,"station_id":"ce4bh192rcd13ifvqdc0","pricing_plan_id":"cebpf4jnsgd1na2vs0mg"},{"bike_id":"5bc98532-9bc6-437b-aabf-29eed8dfa3d8","system_id":"levelo_inurba_marseille","lat":43.2902,"lon":5.35583,"is_reserved":false,"is_disabled":false,"rental_uris":{"android":"levelo://app?vid=5bc98532-9bc6-437b-aabf-29eed8dfa3d8","ios":"levelo://app?vid=5bc98532-9bc6-437b-aabf-29eed8dfa3d8"},"vehicle_type_id":"4","last_reported":1768147979,"current_range_meters":8400,"station_id":"ce4bhb92rcd13ifvqen0","pricing_plan_id":"cebpf4jnsgd1na2vs0mg"},{"bike_id":"1e14c178-241f-4ea6-bc7b-a2fe870fa61e","system_id":"levelo_inurba_marseille","lat":43.28265,"lon":5.35074,"is_reserved":false,"is_disabled":false,"rental_uris":{"android":"levelo://app?vid=1e14c178-241f-4ea6-bc7b-a2fe870fa61e","ios":"levelo://app?vid=1e14c178-241f-4ea6-bc7b-a2fe870fa61e"},"vehicle_type_id":"4","last_reported":1768147979,"current_range_meters":8400,"station_id":"ce4bhbp2rcd13ifvqerg","pricing_plan_id":"cebpf4jnsgd1na2vs0mg"},{"bike_id":"ddca8b76-308e-4bd5-893c-d3fca5b2f318","system_id":"levelo_inurba_marseille","lat":43.28238,"lon":5.40283,"is_reserved":false,"is_disabled":false,"rental_uris":{"android":"levelo://app?vid=ddca8b76-308e-4bd5-893c-d3fca5b2f318","ios":"levelo://app?vid=ddca8b76-308e-4bd5-893c-d3fca5b2f318"},"vehicle_type_id":"4","last_reported":1768147979,"current_range_meters":8400,"station_id":"","pricing_plan_id":"cebpf4jnsgd1na2vs0mg"},{"bike_id":"d8755b01-f3a4-45d0-9782-07d7ef00b236","system_id":"levelo_inurba_marseille","lat":43.28039,"lon":5.4166,"is_reserved":false,"is_disabled":false,"rental_uris":{"android":"levelo://app?vid=d8755b01-f3a4-45d0-9782-07d7ef00b236","ios":"levelo://app?vid=d8755b01-f3a4-45d0-9782-07d7ef00b236"},