{"last_updated":1745507444,"ttl":60,"version":"2.2","data":{"bikes":[{"bike_id":"4dc5bad0-6f72-45b3-879f-158ae59d88c2","system_id":"levelo_inurba_marseille","lat":43.29404,"lon":5.38633,"is_reserved":false,"is_disabled":false,"rental_uris":{"android":"levelo://app?vid=4dc5bad0-6f72-45b3-879f-158ae59d88c2","ios":"levelo://app?vid=4dc5bad0-6f72-45b3-879f-158ae59d88c2"},"vehicle_type_id":"4","last_reported":1745507444,"current_range_meters":2800,"station_id":"ce4bh2h2rcd13ifvqdh0","pricing_plan_id":"cebpf4jnsgd1na2vs0mg"},{"bike_id":"160e234c-66b8-4bd4-8536-6f2805a08d32","system_id":"levelo_inurba_marseille","lat":43.26809,"lon":5.40268,"is_reserved":false,"is_disabled":false,"rental_uris":{"android":"levelo://app?vid=160e234c-66b8-4bd4-8536-6f2805a08d32","ios":"levelo://app?vid=160e234c-66b8-4bd4-8536-6f2805a08d32"},"vehicle_type_id":"4","last_reported":1745507444,"current_range_meters":2800,"station_id":"ce501612rcd8frsf0b60","pricing_plan_id":"cebpf4jnsgd1na2vs0mg"},{"bike_id":"3769916f-959e-4b5a-8da6-42f3868c34ab","system_id":"levelo_inurba_marseille","lat":43.28363,"lon":5.38624,"is_reserved":false,"is_disabled":false,"rental_uris":{"android":"levelo://app?vid=3769916f-959e-4b5a-8da6-42f3868c34ab","ios":"levelo://app?vid=3769916f-959e-4b5a-8da6-42f3868c34ab"},"vehicle_type_id":"4","last_reported":1745507444,"current_range_meters":3200,"station_id":"ce4bh492rcd13ifvqdvg","pricing_plan_id":"cebpf4jnsgd1na2vs0mg"},{"bike_id":"43aa10c0-61f2-4103-8c75-576d5c4c304b","system_id":"levelo_inurba_marseille","lat":43.29425,"lon":5.38633,"is_reserved":false,"is_disabled":false,"rental_uris":{"android":"levelo://app?vid=43aa10c0-61f2-4103-8c75-576d5c4c304b","ios":"levelo://app?vid=43aa10c0-61f2-4103-8c75-576d5c4c304b"},"vehicle_type_id":"4","last_reported":1745507444,"current_range_meters":3200,"station_id":"ce4bh2h2rcd13ifvqdh0","pricing_plan_id":"cebpf4jnsgd1na2vs0mg"},{"bike_id":"a854d39c-9477-44e1-ad98-e8e784d26224","system_id":"levelo_inurba_marseille","lat":43.28944,"lon":5.36633,"is_reserved":false,"is_disabled":false,"rental_uris":{"android":"levelo://app?vid=a854d39c-9477-44e1-ad98-e8e784d26224","ios":"levelo://app?vid=a854d39c-9477-44e1-ad98-e8e784d26224"},"vehicle_type_id":"4","last_reported":1745507444,"current_range_meters":3600,"station_id":"ce4bhap2rcd13ifvqek0","pricing_plan_id":"cebpf4jnsgd1na2vs0mg"},{"bike_id":"369cfec2-98d8-41c5-9afa-9221749a3ed0","system_id":"levelo_inurba_marseille","lat":43.26944,"lon":5.40244,"is_reserved":false,"is_disabled":false,"rental_uris":{"android":"levelo://app?vid=369cfec2-98d8-41c5-9afa-9221749a3ed0","ios":"levelo://app?vid=369cfec2-98d8-41c5-9afa-9221749a3ed0"},"vehicle_type_id":"4","last_reported":1745507444,"current_range_meters":3600,"station_id":"cjm6bp8fraef2m0cb0m0","pricing_plan_id":"cebpf4jnsgd1na2vs0mg"},{"bike_id":"efe82f60-be94-4684-8c69-9a9ee644fd22","system_id":"levelo_inurba_marseille","lat":43.29527,"lon":5.39045,"is_reserved":false,"is_disabled":false,"rental_uris":{"android":"levelo://app?vid=efe82f60-be94-4684-8c69-9a9ee644fd22","ios":"levelo://app?vid=efe82f60-be94-4684-8c69-9a9ee644fd22"},"vehicle_type_id":"4","last_reported":1745507444,"current_range_meters":3600,"station_id":"ce4bh3p2rcd13ifvqdp0","pricing_plan_id":"cebpf4jnsgd1na2vs0mg"},{"bike_id":"9091e7bf-a2f4-4972-982f-814caba13bec","system_id":"levelo_inurba_marseille","lat":43.29909,"lon":5.381554,"is_reserved":false,"is_disabled":false,"rental_uris":{"android":"levelo://app?vid=9091e7bf-a2f4-4972-982f-814caba13bec","ios":"levelo://app?vid=9091e7bf-a2f4-4972-982f-814caba13bec"},"vehicle_type_id":"4","last_reported":1745507444,"current_range_meters":3600,"station_id":"ce4bgj12rcd13ifvqbc0","pricing_plan_id":"cebpf4jnsgd1na2vs0mg"},{"bike_id":"d1372620-5c96-4c51-8e54-7d12f59e3d45","system_id":"levelo_inurba_marseille","lat":43.29041,"lon":5.38146,"is_reserved":false,"is_disabled":false,"rental_uris":{"android":"levelo://app?vid=d1372620-5c96-4c51-8e54-7d12f59e3d45","ios":"levelo://app?vid=d1372620-5c96-4c51-8e54-7d12f59e3d45"},"vehicle_type_id":"4","last_reported":1745507444,"current_range_meters":4000,"station_id":"ce4bh4p2rcd13ifvqe1g","pricing_plan_id":"cebpf4jnsgd1na2vs0mg"},{"bike_id":"545d5528-ef39-4ba6-8cac-17bcbfc12b8d","system_id":"levelo_inurba_marseille","lat":43.28686,"lon":5.38679,"is_reserved":false,"is_disabled":false,"rental_uris":{"android":"levelo://app?vid=545d5528-ef39-4ba6-8cac-17bcbfc12b8d","ios":"levelo://app?vid=545d5528-ef39-4ba6-8cac-17bcbfc12b8d"},"vehicle_type_id":"4","last_reported":1745507444,"current_range_meters":4000,"station_id":"ce4bh492rcd13ifvqdug","pricing_plan_id":"cebpf4jnsgd1na2vs0mg"},{"bike_id":"692e8f9b-af5f-4162-8701-3d49ca708289","system_id":"levelo_inurba_marseille","lat":43.2926,"lon":5.38448,"is_reserved":false,"is_disabled":false,"rental_uris":{"android":"levelo://app?vid=692e8f9b-af5f-4162-8701-3d49ca708289","ios":"levelo://app?vid=692e8f9b-af5f-4162-8701-3d49ca708289"},"vehicle_type_id":"4","last_reported":1745507444,"current_range_meters":4000,"station_id":"ce4bh692rcd13ifvqea0","pricing_plan_id":"cebpf4jnsgd1na2vs0mg"},{"bike_id":"ed5e2e18-64d0-491a-970a-f052a5fea769","system_id":"levelo_inurba_marseille","lat":43.23192,"lon":5.39972,"is_reserved":false,"is_disabled":false,"rental_uris":{"android":"levelo://app?vid=ed5e2e18-64d0-491a-970a-f052a5fea769","ios":"levelo://app?vid=ed5e2e18-64d0-491a-970a-f052a5fea769"},"vehicle_type_id":"4","last_reported":1745507444,"current_range_meters":4000,"station_id":"ce4bhn12rcd13ifvqgqg","pricing_plan_id":"cebpf4jnsgd1na2vs0mg"},{"bike_id":"714a597c-5f5f-4bf9-98c4-b6911cd1cea2","system_id":"levelo_inurba_marseille","lat":43.29528,"lon":5.39023,"is_reserved":false,"is_disabled":false,"rental_uris":{"android":"levelo://app?vid=714a597c-5f5f-4bf9-98c4-b6911cd1cea2","ios":"levelo://app?vid=714a597c-5f5f-4bf9-98c4-b6911cd1cea2"},"vehicle_type_id":"4","last_reported":1745507444,"current_range_meters":4000,"station_id":"ce4bh3p2rcd13ifvqdp0","pricing_plan_id":"cebpf4jnsgd1na2vs0mg"},{"bike_id":"088dee19-f4e0-4a00-ae18-c556e777dae2","system_id":"levelo_inurba_marseille","lat":43.30251,"lon":5.40055,"is_reserved":false,"is_disabled":false,"rental_uris":{"android":"levelo://app?vid=088dee19-f4e0-4a00-ae18-c556e777dae2","ios":"levelo://app?vid=088dee19-f4e0-4a00-ae18-c556e777dae2"},"vehicle_type_id":"4","last_reported":1745507444,"current_range_meters":4400,"station_id":"ce4bgvh2rcd13ifvqcs0","pricing_plan_id":"cebpf4jnsgd1na2vs0mg"},{"bike_id":"d47a9a2c-8217-4ad4-b189-2b861d063d1a","system_id":"levelo_inurba_marseille","lat":43.29312,"lon":5.37163,"is_reserved":false,"is_disabled":false,"rental_uris":{"android":"levelo://app?vid=d47a9a2c-8217-4ad4-b189-2b861d063d1a","ios":"levelo://app?vid=d47a9a2c-8217-4ad4-b189-2b861d063d1a"},"vehicle_type_id":"4","last_reported":1745507444,"current_range_meters":4400,"station_id":"ce4bgh92rcd13ifvqb40","pricing_plan_id":"cebpf4jnsgd1na2vs0mg"},{"bike_id":"4b22a469-5d69-4a1f-b16b-9b00d3946d63","system_id":"levelo_inurba_marseille","lat":43.32059,"lon":5.41544,"is_reserved":false,"is_disabled":false,"rental_uris":{"android":"levelo://app?vid=4b22a469-5d69-4a1f-b16b-9b00d3946d63","ios":"levelo://app?vid=4b22a469-5d69-4a1f-b16b-9b00d3946d63"},"vehicle_type_id":"4","last_reported":1745507444,"current_range_meters":4800,"station_id":"ce4bhq92rcd13ifvqhkg","pricing_plan_id":"cebpf4jnsgd1na2vs0mg"},{"bike_id":"5f05be63-6b36-4401-88ff-bbd1529a427c","system_id":"levelo_inurba_marseille","lat":43.28407,"lon":5.37515,"is_reserved":false,"is_disabled":false,"rental_uris":{"android":"levelo://app?vid=5f05be63-6b36-4401-88ff-bbd1529a427c","ios":"levelo://app?vid=5f05be63-6b36-4401-88ff-bbd1529a427c"},"vehicle_type_id":"4","last_reported":1745507444,"current_range_meters":5600,"station_id":"ce4bh412rcd13ifvqds0","pricing_plan_id":"cebpf4jnsgd1na2vs0mg"},{"bike_id":"4c2e3e55-a595-45a9-a883-9820667da910","system_id":"levelo_inurba_marseille","lat":43.2603,"lon":5.37538,"is_reserved":false,"is_disabled":false,"rental_uris":{"android":"levelo://app?vid=4c2e3e55-a595-45a9-a883-9820667da910","ios":"levelo://app?vid=4c2e3e55-a595-45a9-a883-9820667da910"},"vehicle_type_id":"4","last_reported":1745507444,"current_range_meters":6000,"station_id":"ce4bhgh2rcd13ifvqfa0","pricing_plan_id":"cebpf4jnsgd1na2vs0mg"},{"bike_id":"7b4c9115-e9af-4794-9edb-0c4276543806","system_id":"levelo_inurba_marseille","lat":43.28718,"lon":5.39981,"is_reserved":false,"is_disabled":false,"rental_uris":{"android":"levelo://app?vid=7b4c9115-e9af-4794-9edb-0c4276543806","ios":"levelo://app?vid=7b4c9115-e9af-4794-9edb-0c4276543806"},"vehicle_type_id":"4","last_reported":1745507444,"current_range_meters":6000,"station_id":"ce4bho92rcd13ifvqh3g","pricing_plan_id":"cebpf4jnsgd1na2vs0mg"},{"bike_id":"b734b4f3-44ea-4f4e-b9ac-b2ef23c17f6f","system_id":"levelo_inurba_marseille","lat":43.27312,"lon":5.39074,"is_reserved":false,"is_disabled":false,"rental_uris":{"android":"levelo://app?vid=b734b4f3-44ea-4f4e-b9ac-b2ef23c17f6f","ios":"levelo://app?vid=b734b4f3-44ea-4f4e-b9ac-b2ef23c17f6f"},"vehicle_type_id":"4","last_reported":1745507444,"current_range_meters":4400,"station_id":"ce4bhgp2rcd13ifvqfe0","pricing_plan_id":"cebpf4jnsgd1na2vs0mg"},{"bike_id":"4cc62379-f5d7-42ef-8424-8ce13630ca82","system_id":"levelo_inurba_marseille","lat":43.30635,"lon":5.37223,"is_reserved":false,"is_disabled":false,"rental_uris":{"android":"levelo://app?vid=4cc62379-f5d7-42ef-8424-8ce13630ca82","ios":"levelo://app?vid=4cc62379-f5d7-42ef-8424-8ce13630ca82"},"vehicle_type_id":"4","last_reported":1745507444,"current_range_meters":6000,"station_id":"ce4bgqh2rcd13ifvqc4g","pricing_plan_id":"cebpf4jnsgd1na2vs0mg"},{"bike_id":"da70d61b-208e-4f5a-8136-fdac79841f35","system_id":"levelo_inurba_marseille","lat":43.28033,"lon":5.36971,"is_reserved":false,"is_disabled":false,"rental_uris":{"android":"levelo://app?vid=da70d61b-208e-4f5a-8136-fdac79841f35","ios":"levelo://app?vid=da70d61b-208e-4f5a-8136-fdac79841f35"},"vehicle_type_id":"4","last_reported":1745507444,"current_range_meters":6400,"station_id":"ce4bha12rcd13ifvqef0","pricing_plan_id":"cebpf4jnsgd1na2vs0mg"},{"bike_id":"72a16c64-a93f-4fe1-8604-8f59dba04b8e","system_id":"levelo_inurba_marseille","lat":43.29021,"lon":5.38641,"is_reserved":false,"is_disabled":false,"rental_uris":{"android":"levelo://app?vid=72a16c64-a93f-4fe1-8604-8f59dba04b8e","ios":"levelo://app?vid=72a16c64-a93f-4fe1-8604-8f59dba04b8e"},"vehicle_type_id":"4","last_reported":1745507444,"current_range_meters":6400,"station_id":"ce4bh4p2rcd13ifvqe0g","pricing_plan_id":"cebpf4jnsgd1na2vs0mg"},{"bike_id":"6fd7ae01-ef88-4ccb-bd6a-85e7828b6d18","system_id":"levelo_inurba_marseille","lat":43.23189,"lon":5.39984,"is_reserved":false,"is_disabled":false,"rental_uris":{"android":"levelo://app?vid=6fd7ae01-ef88-4ccb-bd6a-85e7828b6d18","ios":"levelo://app?vid=6fd7ae01-ef88-4ccb-bd6a-85e7828b6d18"},"vehicle_type_id":"4","last_reported":1745507444,"current_range_meters":6400,"station_id":"ce4bhn12rcd13ifvqgqg","pricing_plan_id":"cebpf4jnsgd1na2vs0mg"},{"bike_id":"ead16d2e-798c-42f7-81e2-8f77feeb1002","system_id":"levelo_inurba_marseille","lat":43.28938,"lon":5.39632,"is_reserved":false,"is_disabled":false,"rental_uris":{"android":"levelo://app?vid=ead16d2e-798c-42f7-81e2-8f77feeb1002","ios":"levelo://app?vid=ead16d2e-798c-42f7-81e2-8f77feeb1002"},"vehicle_type_id":"4","last_reported":1745507444,"current_range_meters":6800,"station_id":"ce4bhnh2rcd13ifvqgug","pricing_plan_id":"cebpf4jnsgd1na2vs0mg"},{"bike_id":"eb772212-defc-4543-ad57-fa606af571fb","system_id":"levelo_inurba_marseille","lat":43.272089,"lon":5.391843,"is_reserved":false,"is_disabled":false,"rental_uris":{"android":"levelo://app?vid=eb772212-defc-4543-ad57-fa606af571fb","ios":"levelo://app?vid=eb772212-defc-4543-ad57-fa606af571fb"},"vehicle_type_id":"4","last_reported":1745507444,"current_range_meters":11600,"station_id":"ce4bhn12rcd13ifvqgqg","pricing_plan_id":"cebpf4jnsgd1na2vs0mg"},{"bike_id":"389081e5-a59f-4bb8-ae5b-d14b07648eda","system_id":"levelo_inurba_marseille","lat":43.25114,"lon":5.40318,"is_reserved":false,"is_disabled":true,"rental_uris":{"android":"levelo://app?vid=389081e5-a59f-4bb8-ae5b-d14b07648eda","ios":"levelo://app?vid=389081e5-a59f-4bb8-ae5b-d14b07648eda"},"vehicle_type_id":"4","last_reported":1745507444,"current_range_meters":6800,"station_id":"ce4bhlh2rcd13ifvqgig","pricing_plan_id":"cebpf4jnsgd1na2vs0mg"},{"bike_id":"30704823-7a9c-4b12-af5d-93db18bfd3b9","system_id":"levelo_inurba_marseille","lat":43.28842,"lon":5.39943,"is_reserved":false,"is_disabled":false,"rental_uris":{"android":"levelo://app?vid=30704823-7a9c-4b12-af5d-93db18bfd3b9","ios":"levelo://app?vid=30704823-7a9c-4b12-af5d-93db18bfd3b9"},"vehicle_type_id":"4","last_reported":1745507444,"current_range_meters":6800,"station_id":"","pricing_plan_id":"cebpf4jnsgd1na2vs0mg"},{"bike_id":"8372e0de-51cf-4f56-96dc-11b7e58ce55e","system_id":"levelo_inurba_marseille","lat":43.30358,"lon":5.41878,"is_reserved":false,"is_disabled":false,"rental_uris":{"android":"levelo://app?vid=8372e0de-51cf-4f56-96dc-11b7e58ce55e","ios":"levelo://app?vid=8372e0de-51cf-4f56-96dc-11b7e58ce55e"},"vehicle_type_id":"4","last_reported":1745507444,"current_range_meters":6400,"station_id":"ce4bhop2rcd13ifvqh7g","pricing_plan_id":"cebpf4jnsgd1na2vs0mg"},{"bike_id":"eda2b86c-a067-4eff-ac2c-c6bc6be6befe","system_id":"levelo_inurba_marseille","lat":43.25126,"lon":5.40319,"is_reserved":false,"is_disabled":false,"rental_uris":{"android":"levelo://app?vid=eda2b86c-a067-4eff-ac2c-c6bc6be6befe","ios":"levelo://app?vid=eda2b86c-a067-4eff-ac2c-c6bc6be6befe"},"vehicle_type_id":"4","last_reported":1745507444,"current_range_meters":7200,"station_id":"ce4bhlh2rcd13ifvqgig","pricing_plan_id":"cebpf4jnsgd1na2vs0mg"},{"bike_id":"1e02dac3-3830-4aba-9187-c28948fe9bed","system_id":"levelo_inurba_marseille","lat":43.27922,"lon":5.39576,"is_reserved":false,"is_disabled":false,"rental_uris":{"android":"levelo://app?vid=1e02dac3-3830-4aba-9187-c28948fe9bed","ios":"levelo://app?vid=1e02dac3-3830-4aba-9187-c28948fe9bed"},"vehicle_type_id":"4","last_reported":1745507444,"current_range_meters":7200,"station_id":"ce4bhf92rcd13ifvqf40","pricing_plan_id":"cebpf4jnsgd1na2vs0mg"},{"bike_id":"1ef9133c-1f64-4eb5-8eb5-f2b365db2d5a","system_id":"levelo_inurba_marseille","lat":43.27916,"lon":5.39576,"is_reserved":false,"is_disabled":false,"rental_uris":{"android":"levelo://app?vid=1ef9133c-1f64-4eb5-8eb5-f2b365db2d5a","ios":"levelo://app?vid=1ef9133c-1f64-4eb5-8eb5-f2b365db2d5a"},"vehicle_type_id":"4","last_reported":1745507444,"current_range_meters":7200,"station_id":"ce4bhf92rcd13ifvqf40","pricing_plan_id":"cebpf4jnsgd1na2vs0mg"},{"bike_id":"4a74080b-4bba-444f-9c5f-c4f9a166cb1d","system_id":"levelo_inurba_marseille","lat":43.28415,"lon":5.34989,"is_reserved":false,"is_disabled":false,"rental_uris":{"android":"levelo://app?vid=4a74080b-4bba-444f-9c5f-c4f9a166cb1d","ios":"levelo://app?vid=4a74080b-4bba-444f-9c5f-c4f9a166cb1d"},"vehicle_type_id":"4","last_reported":1745507444,"current_range_meters":7200,"station_id":"ce4bhbh2rcd13ifvqepg","pricing_plan_id":"cebpf4jnsgd1na2vs0mg"},{"bike_id":"d62f9a6f-a0c0-403e-9837-3a222a65b793","system_id":"levelo_inurba_marseille","lat":43.28265,"lon":5.35064,"is_reserved":false,"is_disabled":false,"rental_uris":{"android":"levelo://app?vid=d62f9a6f-a0c0-403e-9837-3a222a65b793","ios":"levelo://app?vid=d62f9a6f-a0c0-403e-9837-3a222a65b793"},"vehicle_type_id":"4","last_reported":1745507444,"current_range_meters":7200,"station_id":"ce4bhbp2rcd13ifvqerg","pricing_plan_id":"cebpf4jnsgd1na2vs0mg"},{"bike_id":"3905158a-b67f-45ea-87d5-19b4ff594035","system_id":"levelo_inurba_marseille","lat":43.29966,"lon":5.37167,"is_reserved":false,"is_disabled":false,"rental_uris":{"android":"levelo://app?vid=3905158a-b67f-45ea-87d5-19b4ff594035","ios":"levelo://app?vid=3905158a-b67f-45ea-87d5-19b4ff594035"},"vehicle_type_id":"4","last_reported":1745507444,"current_range_meters":8800,"station_id":"ce4bgr92rcd13ifvqc7g","pricing_plan_id":"cebpf4jnsgd1na2vs0mg"},{"bike_id":"8ac63296-eba7-4e9a-ada1-670d10c92517","system_id":"levelo_inurba_marseille","lat":43.30728,"lon":5.424552,"is_reserved":false,"is_disabled":false,"rental_uris":{"android":"levelo://app?vid=8ac63296-eba7-4e9a-ada1-670d10c92517","ios":"levelo://app?vid=8ac63296-eba7-4e9a-ada1-670d10c92517"},"vehicle_type_id":"4","last_reported":1745507444,"current_range_meters":5600,"station_id":"ce4bho12rcd13ifvqh2g","pricing_plan_id":"cebpf4jnsgd1na2vs0mg"},{"bike_id":"92c3b340-d069-4f1c-b55b-44c52f19597b","system_id":"levelo_inurba_marseille","lat":43.282502,"lon":5.377846,"is_reserved":false,"is_disabled":false,"rental_uris":{"android":"levelo://app?vid=92c3b340-d069-4f1c-b55b-44c52f19597b","ios":"levelo://app?vid=92c3b340-d069-4f1c-b55b-44c52f19597b"},"vehicle_type_id":"4","last_reported":1745507444,"current_range_meters":8000,"station_id":"","pricing_plan_id":"cebpf4jnsgd1na2vs0mg"},{"bike_id":"5280b347-25ac-4c1f-9796-3b09d6f7ce1e","system_id":"levelo_inurba_marseille","lat":43.28074,"lon":5.39647,"is_reserved":false,"is_disabled":false,"rental_uris":{"android":"levelo://app?vid=5280b347-25ac-4c1f-9796-3b09d6f7ce1e","ios":"levelo://app?vid=5280b347-25ac-4c1f-9796-3b09d6f7ce1e"},"vehicle_type_id":"4","last_reported":1745507444,"current_range_meters":8000,"station_id":"ce4bho12rcd13ifvqh2g","pricing_plan_id":"cebpf4jnsgd1na2vs0mg"},{"bike_id":"798c0ec0-03c7-43a9-8532-260e6843a0a8","system_id":"levelo_inurba_marseille","lat":43.31071,"lon":5.38366,"is_reserved":false,"is_disabled":false,"rental_uris":{"android":"levelo://app?vid=798c0ec0-03c7-43a9-8532-260e6843a0a8","ios":"levelo://app?vid=798c0ec0-03c7-43a9-8532-260e6843a0a8"},"vehicle_type_id":"4","last_reported":1745507444,"current_range_meters":8000,"station_id":"ce4bgv92rcd13ifvqcr0","pricing_plan_id":"cebpf4jnsgd1na2vs0mg"},{"bike_id":"93f56a1e-1b7b-4bf3-a25a-dad93907d054","system_id":"levelo_inurba_marseille","lat":43.29974,"lon":5.37175,"is_reserved":false,"is_disabled":false,"rental_uris":{"android":"levelo://app?vid=93f56a1e-1b7b-4bf3-a25a-dad93907d054","ios":"levelo://app?vid=93f56a1e-1b7b-4bf3-a25a-dad93907d054"},"vehicle_type_id":"4","last_reported":1745507444,"current_range_meters":8000,"station_id":"ce4bgr92rcd13ifvqc7g","pricing_plan_id":"cebpf4jnsgd1na2vs0mg"},{"bike_id":"937443e7-d5e0-4bd3-9679-8f8cd620e77f","system_id":"levelo_inurba_marseille","lat":43.28258,"lon":5.35065,"is_reserved":false,"is_disabled":false,"rental_uris":{"android":"levelo://app?vid=937443e7-d5e0-4bd3-9679-8f8cd620e77f","ios":"levelo://app?vid=937443e7-d5e0-4bd3-9679-8f8cd620e77f"},"vehicle_type_id":"4","last_reported":1745507444,"current_range_meters":8000,"station_id":"ce4bhbp2rcd13ifvqerg","pricing_plan_id":"cebpf4jnsgd1na2vs0mg"},{"bike_id":"096f1ccd-a58c-4cd1-b0fd-0991a6e148b1","system_id":"levelo_inurba_marseille","lat":43.23186,"lon":5.39982,"is_reserved":false,"is_disabled":false,"rental_uris":{"android":"levelo://app?vid=096f1ccd-a58c-4cd1-b0fd-0991a6e148b1","ios":"levelo://app?vid=096f1ccd-a58c-4cd1-b0fd-0991a6e148b1"},"vehicle_type_id":"4","last_reported":1745507444,"current_range_meters":8000,"station_id":"ce4bhn12rcd13ifvqgqg","pricing_plan_id":"cebpf4jnsgd1na2vs0mg"},{"bike_id":"6444801a-2181-4ea0-afa1-376d55dfeadc","system_id":"levelo_inurba_marseille","lat":43.26031,"lon":5.37548,"is_reserved":false,"is_disabled":false,"rental_uris":{"android":"levelo://app?vid=6444801a-2181-4ea0-afa1-376d55dfeadc","ios":"levelo://app?vid=6444801a-2181-4ea0-afa1-376d55dfeadc"},"vehicle_type_id":"4","last_reported":1745507444,"current_range_meters":8400,"station_id":"ce4bhgh2rcd13ifvqfa0","pricing_plan_id":"cebpf4jnsgd1na2vs0mg"},{"bike_id":"0ab48169-0c8e-44cb-9dc3-3c388bc8c73b","system_id":"levelo_inurba_marseille","lat":43.28264,"lon":5.35066,"is_reserved":false,"is_disabled":false,"rental_uris":{"android":"levelo://app?vid=0ab48169-0c8e-44cb-9dc3-3c388bc8c73b","ios":"levelo://app?vid=0ab48169-0c8e-44cb-9dc3-3c388bc8c73b"},"vehicle_type_id":"4","last_reported":1745507444,"current_range_meters":6800,"station_id":"ce4bhbp2rcd13ifvqerg","pricing_plan_id":"cebpf4jnsgd1na2vs0mg"},{"bike_id":"7f33073a-22e9-406e-a0fc-98e2f7ac7a85","system_id":"levelo_inurba_marseille","lat":43.28614,"lon":5.35109,"is_reserved":false,"is_disabled":false,"rental_uris":{"android":"levelo://app?vid=7f33073a-22e9-406e-a0fc-98e2f7ac7a85","ios":"levelo://app?vid=7f33073a-22e9-406e-a0fc-98e2f7ac7a85"},"vehicle_type_id":"4","last_reported":1745507444,"current_range_meters":8400,"station_id":"ce4bhch2rcd13ifvqeug","pricing_plan_id":"cebpf4jnsgd1na2vs0mg"},{"bike_id":"2d40906f-a06d-4fb8-8cba-bd51e85d7fb3","system_id":"levelo_inurba_marseille","lat":43.29512,"lon":5.39037,"is_reserved":false,"is_disabled":false,"rental_uris":{"android":"levelo://app?vid=2d40906f-a06d-4fb8-8cba-bd51e85d7fb3","ios":"levelo://app?vid=2d40906f-a06d-4fb8-8cba-bd51e85d7fb3"},"vehicle_type_id":"4","last_reported":1745507444,"current_range_meters":8400,"station_id":"ce4bh3p2rcd13ifvqdp0","pricing_plan_id":"cebpf4jnsgd1na2vs0mg"},{"bike_id":"e2325aa3-1b51-43d6-9c21-b9db5df3c8a5","system_id":"levelo_inurba_marseille","lat":43.327181,"lon":5.365231,"is_reserved":false,"is_disabled":false,"rental_uris":{"android":"levelo://app?vid=e2325aa3-1b51-43d6-9c21-b9db5df3c8a5","ios":"levelo://app?vid=e2325aa3-1b51-43d6-9c21-b9db5df3c8a5"},"vehicle_type_id":"4","last_reported":1745507444,"current_range_meters":8400,"station_id":"ce4bhs12rcd13ifvqhvg","pricing_plan_id":"cebpf4jnsgd1na2vs0mg"},{"bike_id":"f7cb47bf-edab-445e-88de-4022a40118a0","system_id":"levelo_inurba_marseille","lat":43.30414,"lon":5.41283,"is_reserved":false,"is_disabled":false,"rental_uris":{"android":"levelo://app?vid=f7cb47bf-edab-445e-88de-4022a40118a0","ios":"levelo://app?vid=f7cb47bf-edab-445e-88de-4022a40118a0"},"vehicle_type_id":"4","last_reported":1745507444,"current_range_meters":8400,"station_id":"ce4bhop2rcd13ifvqh8g","pricing_plan_id":"cebpf4jnsgd1na2vs0mg"},{"bike_id":"8764c801-9cd2-4e78-bbfe-a229706ee676","system_id":"levelo_inurba_marseille","lat":43.29874,"lon":5.38913,"is_reserved":false,"is_disabled":true,"rental_uris":{"android":"levelo://app?vid=8764c801-9cd2-4e78-bbfe-a229706ee676","ios":"levelo://app?vid=8764c801-9cd2-4e78-bbfe-a229706ee676"},"vehicle_type_id":"4","last_reported":1745507444,"current_range_meters":8400,"station_id":"ce4bh392rcd13ifvqdl0","pricing_plan_id":"cebpf4jnsgd1na2vs0mg"},{"bike_id":"4ea9a9c4-6955-44a4-8ccc-a69fbb167ab1","system_id":"levelo_inurba_marseille","lat":43.26557,"lon":5.37291,"is_reserved":false,"is_disabled":false,"rental_uris":{"android":"levelo://app?vid=4ea9a9c4-6955-44a4-8ccc-a69fbb167ab1","ios":"levelo://app?vid=4ea9a9c4-6955-44a4-8ccc-a69fbb167ab1"},"vehicle_type_id":"4","last_reported":1745507444,"current_range_meters":8400,"station_id":"ce4bhg12rcd13ifvqf70","pricing_plan_id":"cebpf4jnsgd1na2vs0mg"},{"bike_id":"c7d8eb5c-3939-44c3-808b-7b87d2aed25f","system_id":"levelo_inurba_marseille","lat":43.2871,"lon":5.39989,"is_reserved":false,"is_disabled":false,"rental_uris":{"android":"levelo://app?vid=c7d8eb5c-3939-44c3-808b-7b87d2aed25f","ios":"levelo://app?vid=c7d8eb5c-3939-44c3-808b-7b87d2aed25f"},"vehicle_type_id":"4","last_reported":1745507444,"current_range_meters":8800,"station_id":"ce4bho92rcd13ifvqh3g","pricing_plan_id":"cebpf4jnsgd1na2vs0mg"},{"bike_id":"3212a892-6b50-487e-8c88-0b7d1f0c585a","system_id":"levelo_inurba_marseille","lat":43.25111,"lon":5.4032,"is_reserved":false,"is_disabled":false,"rental_uris":{"android":"levelo://app?vid=3212a892-6b50-487e-8c88-0b7d1f0c585a","ios":"levelo://app?vid=3212a892-6b50-487e-8c88-0b7d1f0c585a"},"vehicle_type_id":"4","last_reported":1745507444,"current_range_meters":8800,"station_id":"ce4bhlh2rcd13ifvqgig","pricing_plan_id":"cebpf4jnsgd1na2vs0mg"},{"bike_id":"f742e759-6e98-4553-96e1-e1964ee51b8f","system_id":"levelo_inurba_marseille","lat":43.30793,"lon":5.43528,"is_reserved":false,"is_disabled":false,"rental_uris":{"android":"levelo://app?vid=f742e759-6e98-4553-96e1-e1964ee51b8f","ios":"levelo://app?vid=f742e759-6e98-4553-96e1-e1964ee51b8f"},"vehicle_type_id":"4","last_reported":1745507444,"current_range_meters":8800,"station_id":"ce4bhph2rcd13ifvqheg","pricing_plan_id":"cebpf4jnsgd1na2vs0mg"},{"bike_id":"a008f1ff-620c-4136-b82e-a1a04d36a6b4","system_id":"levelo_inurba_marseille","lat":43.29046,"lon":5.36492,"is_reserved":false,"is_disabled":false,"rental_uris":{"android":"levelo://app?vid=a008f1ff-620c-4136-b82e-a1a04d36a6b4","ios":"levelo://app?vid=a008f1ff-620c-4136-b82e-a1a04d36a6b4"},"vehicle_type_id":"4","last_reported":1745507444,"current_range_meters":9200,"station_id":"","pricing_plan_id":"cebpf4jnsgd1na2vs0mg"},{"bike_id":"0fcda528-fe2b-4793-b6ac-ce16fbdf6f82","system_id":"levelo_inurba_marseille","lat":43.25609,"lon":5.38251,"is_reserved":false,"is_disabled":false,"rental_uris":{"android":"levelo://app?vid=0fcda528-fe2b-4793-b6ac-ce16fbdf6f82","ios":"levelo://app?vid=0fcda528-fe2b-4793-b6ac-ce16fbdf6f82"},"vehicle_type_id":"4","last_reported":1745507444,"current_range_meters":8800,"station_id":"ce4bhih2rcd13ifvqfs0","pricing_plan_id":"cebpf4jnsgd1na2vs0mg"},{"bike_id":"17735294-3d7e-43b1-8a66-2885426421db","system_id":"levelo_inurba_marseille","lat":43.23159,"lon":5.43715,"is_reserved":false,"is_disabled":false,"rental_uris":{"android":"levelo://app?vid=17735294-3d7e-43b1-8a66-2885426421db","ios":"levelo://app?vid=17735294-3d7e-43b1-8a66-2885426421db"},"vehicle_type_id":"4","last_reported":1745507444,"current_range_meters":9200,"station_id":"ce4bhmp2rcd13ifvqgog","pricing_plan_id":"cebpf4jnsgd1na2vs0mg"},{"bike_id":"7e9d26b8-b748-4e10-b3e2-977d9fd05087","system_id":"levelo_inurba_marseille","lat":43.33037,"lon":5.36685,"is_reserved":false,"is_disabled":true,"rental_uris":{"android":"levelo://app?vid=7e9d26b8-b748-4e10-b3e2-977d9fd05087","ios":"levelo://app?vid=7e9d26b8-b748-4e10-b3e2-977d9fd05087"},"vehicle_type_id":"4","last_reported":1745507444,"current_range_meters":9200,"station_id":"","pricing_plan_id":"cebpf4jnsgd1na2vs0mg"},{"bike_id":"a6008712-3f70-4b98-9760-202675902234","system_id":"levelo_inurba_marseille","lat":43.29635,"lon":5.40606,"is_reserved":false,"is_disabled":false,"rental_uris":{"android":"levelo://app?vid=a6008712-3f70-4b98-9760-202675902234","ios":"levelo://app?vid=a6008712-3f70-4b98-9760-202675902234"},"vehicle_type_id":"4","last_reported":1745507444,"current_range_meters":9200,"station_id":"ce4bh0h2rcd13ifvqd60","pricing_plan_id":"cebpf4jnsgd1na2vs0mg"},{"bike_id":"c6285271-aa84-4cf5-a381-86fc2506dc86","system_id":"levelo_inurba_marseille","lat":43.26034,"lon":5.37549,"is_reserved":false,"is_disabled":false,"rental_uris":{"android":"levelo://app?vid=c6285271-aa84-4cf5-a381-86fc2506dc86","ios":"levelo://app?vid=c6285271-aa84-4cf5-a381-86fc2506dc86"},"vehicle_type_id":"4","last_reported":1745507444,"current_range_meters":9200,"station_id":"ce4bhgh2rcd13ifvqfa0","pricing_plan_id":"cebpf4jnsgd1na2vs0mg"},{"bike_id":"b4261cc6-7b87-4e6c-ba1d-4915cf3fb52d","system_id":"levelo_inurba_marseille","lat":43.32341,"lon":5.40619,"is_reserved":false,"is_disabled":false,"rental_uris":{"android":"levelo://app?vid=b4261cc6-7b87-4e6c-ba1d-4915cf3fb52d","ios":"levelo://app?vid=b4261cc6-7b87-4e6c-ba1d-4915cf3fb52d"},"vehicle_type_id":"4","last_reported":1745507444,"current_range_meters":9600,"station_id":"ce4bhq92rcd13ifvqhjg","pricing_plan_id":"cebpf4jnsgd1na2vs0mg"},{"bike_id":"860293f2-27fe-4f9c-b5c3-d42426b100e7","system_id":"levelo_inurba_marseille","lat":43.28618,"lon":5.35103,"is_reserved":false,"is_disabled":false,"rental_uris":{"android":"levelo://app?vid=860293f2-27fe-4f9c-b5c3-d42426b100e7","ios":"levelo://app?vid=860293f2-27fe-4f9c-b5c3-d42426b100e7"},"vehicle_type_id":"4","last_reported":1745507444,"current_range_meters":9600,"station_id":"ce4bhch2rcd13ifvqeug","pricing_plan_id":"cebpf4jnsgd1na2vs0mg"},{"bike_id":"2b12610b-2f98-45a1-8028-020a76988247","system_id":"levelo_inurba_marseille","lat":43.29009,"lon":5.35614,"is_reserved":false,"is_disabled":false,"rental_uris":{"android":"levelo://app?vid=2b12610b-2f98-45a1-8028-020a76988247","ios":"levelo://app?vid=2b12610b-2f98-45a1-8028-020a76988247"},"vehicle_type_id":"4","last_reported":1745507444,"current_range_meters":9600,"station_id":"ce4bhb92rcd13ifvqen0","pricing_plan_id":"cebpf4jnsgd1na2vs0mg"},{"bike_id":"e851d8e1-a5ae-4251-8613-16fa4cb15c1b","system_id":"levelo_inurba_marseille","lat":43.28157,"lon":5.42641,"is_reserved":false,"is_disabled":false,"rental_uris":{"android":"levelo://app?vid=e851d8e1-a5ae-4251-8613-16fa4cb15c1b","ios":"levelo://app?vid=e851d8e1-a5ae-4251-8613-16fa4cb15c1b"},"vehicle_type_id":"4","last_reported":1745507444,"current_range_meters":9600,"station_id":"ce4bhnh2rcd13ifvqgug","pricing_plan_id":"cebpf4jnsgd1na2vs0mg"},{"bike_id":"56cb6688-937f-44ed-b473-927406cc0230","system_id":"levelo_inurba_marseille","lat":43.24656,"lon":5.38892,"is_reserved":false,"is_disabled":false,"rental_uris":{"android":"levelo://app?vid=56cb6688-937f-44ed-b473-927406cc0230","ios":"levelo://app?vid=56cb6688-937f-44ed-b473-927406cc0230"},"vehicle_type_id":"4","last_reported":1745507444,"current_range_meters":9600,"station_id":"ce4bhg12rcd13ifvqf60","pricing_plan_id":"cebpf4jnsgd1na2vs0mg"},{"bike_id":"67b9b70f-68e0-48b9-ab3a-83578fdc2060","system_id":"levelo_inurba_marseille","lat":43.334369,"lon":5.400081,"is_reserved":false,"is_disabled":false,"rental_uris":{"android":"levelo://app?vid=67b9b70f-68e0-48b9-ab3a-83578fdc2060","ios":"levelo://app?vid=67b9b70f-68e0-48b9-ab3a-83578fdc2060"},"vehicle_type_id":"4","last_reported":1745507444,"current_range_meters":10000,"station_id":"ce4bhr92rcd13ifvqhrg","pricing_plan_id":"cebpf4jnsgd1na2vs0mg"},{"bike_id":"2ff02ee5-bde3-4b85-b63c-95240609d29f","system_id":"levelo_inurba_marseille","lat":43.330198,"lon":5.390365,"is_reserved":false,"is_disabled":false,"rental_uris":{"android":"levelo://app?vid=2ff02ee5-bde3-4b85-b63c-95240609d29f","ios":"levelo://app?vid=2ff02ee5-bde3-4b85-b63c-95240609d29f"},"vehicle_type_id":"4","last_reported":1745507444,"current_range_meters":12400,"station_id":"ce4bhr92rcd13ifvqhrg","pricing_plan_id":"cebpf4jnsgd1na2vs0mg"},{"bike_id":"143609be-3f05-4acd-9ae4-7ee5db6929fc","system_id":"levelo_inurba_marseille","lat":43.295354,"lon":5.38535,"is_reserved":false,"is_disabled":false,"rental_uris":{"android":"levelo://app?vid=143609be-3f05-4acd-9ae4-7ee5db6929fc","ios":"levelo://app?vid=143609be-3f05-4acd-9ae4-7ee5db6929fc"},"vehicle_type_id":"4","last_reported":1745507444,"current_range_meters":10800,"station_id":"ce4bgih2rcd13ifvqba0","pricing_plan_id":"cebpf4jnsgd1na2vs0mg"},{"bike_id":"11ce02ec-5de1-4d28-b35b-b9d2498a4135","system_id":"levelo_inurba_marseille","lat":43.23062,"lon":5.35519,"is_reserved":false,"is_disabled":false,"rental_uris":{"android":"levelo://app?vid=11ce02ec-5de1-4d28-b35b-b9d2498a4135","ios":"levelo://app?vid=11ce02ec-5de1-4d28-b35b-b9d2498a4135"},"vehicle_type_id":"4","last_reported":1745507444,"current_range_meters":10800,"station_id":"cpo3342slgdg3j2ifvpg","pricing_plan_id":"cebpf4jnsgd1na2vs0mg"},{"bike_id":"12d148de-2fea-4473-8f1a-fefc3cd21a1d","system_id":"levelo_inurba_marseille","lat":43.28942,"lon":5.39631,"is_reserved":false,"is_disabled":false,"rental_uris":{"android":"levelo://app?vid=12d148de-2fea-4473-8f1a-fefc3cd21a1d","ios":"levelo://app?vid=12d148de-2fea-4473-8f1a-fefc3cd21a1d"},"vehicle_type_id":"4","last_reported":1745507444,"current_range_meters":10800,"station_id":"ce4bh3h2rcd13ifvqdn0","pricing_plan_id":"cebpf4jnsgd1na2vs0mg"},{"bike_id":"46374c49-3adc-4c5a-8966-e00f056c0d57","system_id":"levelo_inurba_marseille","lat":43.27846,"lon":5.35442,"is_reserved":false,"is_disabled":false,"rental_uris":{"android":"levelo://app?vid=46374c49-3adc-4c5a-8966-e00f056c0d57","ios":"levelo://app?vid=46374c49-3adc-4c5a-8966-e00f056c0d57"},"vehicle_type_id":"4","last_reported":1745507444,"current_range_meters":11200,"station_id":"","pricing_plan_id":"cebpf4jnsgd1na2vs0mg"},{"bike_id":"be5e58a9-7f56-4b08-b6be-fbd16fd90ace","system_id":"levelo_inurba_marseille","lat":43.26557,"lon":5.37284,"is_reserved":false,"is_disabled":false,"rental_uris":{"android":"levelo://app?vid=be5e58a9-7f56-4b08-b6be-fbd16fd90ace","ios":"levelo://app?vid=be5e58a9-7f56-4b08-b6be-fbd16fd90ace"},"vehicle_type_id":"4","last_reported":1745507444,"current_range_meters":11200,"station_id":"ce4bhg12rcd13ifvqf70","pricing_plan_id":"cebpf4jnsgd1na2vs0mg"},{"bike_id":"110cdefe-c73b-498f-a4c1-d6a2f5b2eecc","system_id":"levelo_inurba_marseille","lat":43.26029,"lon":5.37545,"is_reserved":false,"is_disabled":false,"rental_uris":{"android":"levelo://app?vid=110cdefe-c73b-498f-a4c1-d6a2f5b2eecc","ios":"levelo://app?vid=110cdefe-c73b-498f-a4c1-d6a2f5b2eecc"},"vehicle_type_id":"4","last_reported":1745507444,"current_range_meters":11200,"station_id":"ce4bhgh2rcd13ifvqfa0","pricing_plan_id":"cebpf4jnsgd1na2vs0mg"},{"bike_id":"d3fce0c5-e160-4a32-b70b-53233ccd1d57","system_id":"levelo_inurba_marseille","lat":43.28705,"lon":5.39979,"is_reserved":false,"is_disabled":false,"rental_uris":{"android":"levelo://app?vid=d3fce0c5-e160-4a32-b70b-53233ccd1d57","ios":"levelo://app?vid=d3fce0c5-e160-4a32-b70b-53233ccd1d57"},"vehicle_type_id":"4","last_reported":1745507444,"current_range_meters":11200,"station_id":"ce4bho92rcd13ifvqh3g","pricing_plan_id":"cebpf4jnsgd1na2vs0mg"},{"bike_id":"36800020-aa52-470c-b3c1-226a582de042","system_id":"levelo_inurba_marseille","lat":43.32333,"lon":5.40621,"is_reserved":false,"is_disabled":false,"rental_uris":{"android":"levelo://app?vid=36800020-aa52-470c-b3c1-226a582de042","ios":"levelo://app?vid=36800020-aa52-470c-b3c1-226a582de042"},"vehicle_type_id":"4","last_reported":1745507444,"current_range_meters":11200,"station_id":"ce4bhq92rcd13ifvqhjg","pricing_plan_id":"cebpf4jnsgd1na2vs0mg"},{"bike_id":"94d08cf8-a871-4be1-91dc-86dea2dadf38","system_id":"levelo_inurba_marseille","lat":43.29107,"lon":5.38138,"is_reserved":false,"is_disabled":false,"rental_uris":{"android":"levelo://app?vid=94d08cf8-a871-4be1-91dc-86dea2dadf38","ios":"levelo://app?vid=94d08cf8-a871-4be1-91dc-86dea2dadf38"},"vehicle_type_id":"4","last_reported":1745507444,"current_range_meters":11200,"station_id":"ce4bh512rcd13ifvqe2g","pricing_plan_id":"cebpf4jnsgd1na2vs0mg"},{"bike_id":"f5f06066-a1c7-44ce-94f6-3eba6afb714a","system_id":"levelo_inurba_marseille","lat":43.2917,"lon":5.37145,"is_reserved":false,"is_disabled":false,"rental_uris":{"android":"levelo://app?vid=f5f06066-a1c7-44ce-94f6-3eba6afb714a","ios":"levelo://app?vid=f5f06066-a1c7-44ce-94f6-3eba6afb714a"},"vehicle_type_id":"4","last_reported":1745507444,"current_range_meters":11200,"station_id":"ce4bha92rcd13ifvqeh0","pricing_plan_id":"cebpf4jnsgd1na2vs0mg"},{"bike_id":"490037fc-9295-4e3f-b019-ac101f1155bf","system_id":"levelo_inurba_marseille","lat":43.28475,"lon":5.38415,"is_reserved":false,"is_disabled":false,"rental_uris":{"android":"levelo://app?vid=490037fc-9295-4e3f-b019-ac101f1155bf","ios":"levelo://app?vid=490037fc-9295-4e3f-b019-ac101f1155bf"},"vehicle_type_id":"4","last_reported":1745507444,"current_range_meters":11600,"station_id":"ce4bh512rcd13ifvqe3g","pricing_plan_id":"cebpf4jnsgd1na2vs0mg"},{"bike_id":"762289d9-52a1-43ee-ae2f-2dd4f1ea2a12","system_id":"levelo_inurba_marseille","lat":43.29534,"lon":5.38536,"is_reserved":false,"is_disabled":false,"rental_uris":{"android":"levelo://app?vid=762289d9-52a1-43ee-ae2f-2dd4f1ea2a12","ios":"levelo://app?vid=762289d9-52a1-43ee-ae2f-2dd4f1ea2a12"},"vehicle_type_id":"4","last_reported":1745507444,"current_range_meters":12000,"station_id":"ce4bgih2rcd13ifvqba0","pricing_plan_id":"cebpf4jnsgd1na2vs0mg"},{"bike_id":"05894c39-666d-4b37-9d8a-e04a216c74ea","system_id":"levelo_inurba_marseille","lat":43.25122,"lon":5.40315,"is_reserved":false,"is_disabled":false,"rental_uris":{"android":"levelo://app?vid=05894c39-666d-4b37-9d8a-e04a216c74ea","ios":"levelo://app?vid=05894c39-666d-4b37-9d8a-e04a216c74ea"},"vehicle_type_id":"4","last_reported":1745507444,"current_range_meters":11600,"station_id":"ce4bhlh2rcd13ifvqgig","pricing_plan_id":"cebpf4jnsgd1na2vs0mg"},{"bike_id":"97f8610b-214a-4cfe-9441-07b6b5d209d3","system_id":"levelo_inurba_marseille","lat":43.27656,"lon":5.39496,"is_reserved":false,"is_disabled":false,"rental_uris":{"android":"levelo://app?vid=97f8610b-214a-4cfe-9441-07b6b5d209d3","ios":"levelo://app?vid=97f8610b-214a-4cfe-9441-07b6b5d209d3"},"vehicle_type_id":"4","last_reported":1745507444,"current_range_meters":12000,"station_id":"ce4bhi12rcd13ifvqfo0","pricing_plan_id":"cebpf4jnsgd1na2vs0mg"},{"bike_id":"1359ef9b-03d4-4b84-8527-095b3b1f4afe","system_id":"levelo_inurba_marseille","lat":43.26062,"lon":5.39399,"is_reserved":false,"is_disabled":false,"rental_uris":{"android":"levelo://app?vid=1359ef9b-03d4-4b84-8527-095b3b1f4afe","ios":"levelo://app?vid=1359ef9b-03d4-4b84-8527-095b3b1f4afe"},"vehicle_type_id":"4","last_reported":1745507444,"current_range_meters":11600,"station_id":"ce4bhh92rcd13ifvqfj0","pricing_plan_id":"cebpf4jnsgd1na2vs0mg"},{"bike_id":"ac099bbc-ee4b-4e70-ab7d-84836188f80c","system_id":"levelo_inurba_marseille","lat":43.30225,"lon":5.39467,"is_reserved":false,"is_disabled":false,"rental_uris":{"android":"levelo://app?vid=ac099bbc-ee4b-4e70-ab7d-84836188f80c","ios":"levelo://app?vid=ac099bbc-ee4b-4e70-ab7d-84836188f80c"},"vehicle_type_id":"4","last_reported":1745507444,"current_range_meters":12400,"station_id":"ce4bh0p2rcd13ifvqd70","pricing_plan_id":"cebpf4jnsgd1na2vs0mg"},{"bike_id":"e8eb2ea7-ca4b-49b9-9577-bd689a43a55d","system_id":"levelo_inurba_marseille","lat":43.29534,"lon":5.38542,"is_reserved":false,"is_disabled":false,"rental_uris":{"android":"levelo://app?vid=e8eb2ea7-ca4b-49b9-9577-bd689a43a55d","ios":"levelo://app?vid=e8eb2ea7-ca4b-49b9-9577-bd689a43a55d"},"vehicle_type_id":"4","last_reported":1745507444,"current_range_meters":12400,"station_id":"ce4bgih2rcd13ifvqba0","pricing_plan_id":"cebpf4jnsgd1na2vs0mg"},{"bike_id":"d4a8fafa-88a7-48bf-b5a7-839e5bc03db8","system_id":"levelo_inurba_marseille","lat":43.25014,"lon":5.38917,"is_reserved":false,"is_disabled":true,"rental_uris":{"android":"levelo://app?vid=d4a8fafa-88a7-48bf-b5a7-839e5bc03db8","ios":"levelo://app?vid=d4a8fafa-88a7-48bf-b5a7-839e5bc03db8"},"vehicle_type_id":"4","last_reported":1745507444,"current_range_meters":12400,"station_id":"ce4bhgp2rcd13ifvqfd0","pricing_plan_id":"cebpf4jnsgd1na2vs0mg"},{"bike_id":"4cc0aa00-90b3-453e-91fe-b5f96e85de86","system_id":"levelo_inurba_marseille","lat":43.30784,"lon":5.37639,"is_reserved":false,"is_disabled":false,"rental_uris":{"android":"levelo://app?vid=4cc0aa00-90b3-453e-91fe-b5f96e85de86","ios":"levelo://app?vid=4cc0aa00-90b3-453e-91fe-b5f96e85de86"},"vehicle_type_id":"4","last_reported":1745507444,"current_range_meters":12800,"station_id":"ce4bgv92rcd13ifvqcq0","pricing_plan_id":"cebpf4jnsgd1na2vs0mg"},{"bike_id":"3ee10399-286a-41bd-9812-a0d2067b5430","system_id":"levelo_inurba_marseille","lat":43.28707,"lon":5.4001,"is_reserved":false,"is_disabled":false,"rental_uris":{"android":"levelo://app?vid=3ee10399-286a-41bd-9812-a0d2067b5430","ios":"levelo://app?vid=3ee10399-286a-41bd-9812-a0d2067b5430"},"vehicle_type_id":"4","last_reported":1745507444,"current_range_meters":12800,"station_id":"ce4bho92rcd13ifvqh3g","pricing_plan_id":"cebpf4jnsgd1na2vs0mg"},{"bike_id":"7a5225a5-6573-4c93-b2c3-493a26ddce70","system_id":"levelo_inurba_marseille","lat":43.3237,"lon":5.38884,"is_reserved":false,"is_disabled":false,"rental_uris":{"android":"levelo://app?vid=7a5225a5-6573-4c93-b2c3-493a26ddce70","ios":"levelo://app?vid=7a5225a5-6573-4c93-b2c3-493a26ddce70"},"vehicle_type_id":"4","last_reported":1745507444,"current_range_meters":12800,"station_id":"ce4bhqp2rcd13ifvqhog","pricing_plan_id":"cebpf4jnsgd1na2vs0mg"},{"bike_id":"50808817-9442-49e9-a97b-74ca5b9663d2","system_id":"levelo_inurba_marseille","lat":43.27618,"lon":5.36103,"is_reserved":false,"is_disabled":false,"rental_uris":{"android":"levelo://app?vid=50808817-9442-49e9-a97b-74ca5b9663d2","ios":"levelo://app?vid=50808817-9442-49e9-a97b-74ca5b9663d2"},"vehicle_type_id":"4","last_reported":1745507444,"current_range_meters":13600,"station_id":"ce4bgj92rcd13ifvqbe0","pricing_plan_id":"cebpf4jnsgd1na2vs0mg"},{"bike_id":"811d225c-e6f8-4e46-be6b-bbba87f82930","system_id":"levelo_inurba_marseille","lat":43.29525,"lon":5.385428,"is_reserved":false,"is_disabled":false,"rental_uris":{"android":"levelo://app?vid=811d225c-e6f8-4e46-be6b-bbba87f82930","ios":"levelo://app?vid=811d225c-e6f8-4e46-be6b-bbba87f82930"},"vehicle_type_id":"4","last_reported":1745507444,"current_range_meters":13600,"station_id":"ce4bgih2rcd13ifvqba0","pricing_plan_id":"cebpf4jnsgd1na2vs0mg"},{"bike_id":"0498c404-4065-4d09-8332-8c3982753c09","system_id":"levelo_inurba_marseille","lat":43.29273,"lon":5.36844,"is_reserved":false,"is_disabled":false,"rental_uris":{"android":"levelo://app?vid=0498c404-4065-4d09-8332-8c3982753c09","ios":"levelo://app?vid=0498c404-4065-4d09-8332-8c3982753c09"},"vehicle_type_id":"4","last_reported":1745507444,"current_range_meters":13600,"station_id":"ce4bhbp2rcd13ifvqesg","pricing_plan_id":"cebpf4jnsgd1na2vs0mg"},{"bike_id":"f0a2658b-e614-40bc-b559-23a54339cee0","system_id":"levelo_inurba_marseille","lat":43.299577,"lon":5.384813,"is_reserved":false,"is_disabled":false,"rental_uris":{"android":"levelo://app?vid=f0a2658b-e614-40bc-b559-23a54339cee0","ios":"levelo://app?vid=f0a2658b-e614-40bc-b559-23a54339cee0"},"vehicle_type_id":"4","last_reported":1745507444,"current_range_meters":13600,"station_id":"ce4bgv92rcd13ifvqcq0","pricing_plan_id":"cebpf4jnsgd1na2vs0mg"},{"bike_id":"ba2c2ceb-dd56-40f4-acdc-20a3994bccd6","system_id":"levelo_inurba_marseille","lat":43.28455,"lon":5.35888,"is_reserved":false,"is_disabled":false,"rental_uris":{"android":"levelo://app?vid=ba2c2ceb-dd56-40f4-acdc-20a3994bccd6","ios":"levelo://app?vid=ba2c2ceb-dd56-40f4-acdc-20a3994bccd6"},"vehicle_type_id":"4","last_reported":1745507444,"current_range_meters":13600,"station_id":"ce4bhah2rcd13ifvqei0","pricing_plan_id":"cebpf4jnsgd1na2vs0mg"},{"bike_id":"63ddaa45-eb56-4672-a76a-2b79270cbc8a","system_id":"levelo_inurba_marseille","lat":43.26556,"lon":5.37279,"is_reserved":false,"is_disabled":false,"rental_uris":{"android":"levelo://app?vid=63ddaa45-eb56-4672-a76a-2b79270cbc8a","ios":"levelo://app?vid=63ddaa45-eb56-4672-a76a-2b79270cbc8a"},"vehicle_type_id":"4","last_reported":1745507444,"current_range_meters":14000,"station_id":"ce4bhg12rcd13ifvqf70","pricing_plan_id":"cebpf4jnsgd1na2vs0mg"},{"bike_id":"625a46d9-cd18-4763-b06d-c11d6c817c8c","system_id":"levelo_inurba_marseille","lat":43.28413,"lon":5.3752,"is_reserved":false,"is_disabled":false,"rental_uris":{"android":"levelo://app?vid=625a46d9-cd18-4763-b06d-c11d6c817c8c","ios":"levelo://app?vid=625a46d9-cd18-4763-b06d-c11d6c817c8c"},"vehicle_type_id":"4","last_reported":1745507444,"current_range_meters":14000,"station_id":"ce4bh412rcd13ifvqds0","pricing_plan_id":"cebpf4jnsgd1na2vs0mg"},{"bike_id":"b940bdf2-742d-48e4-9490-5ec9e6e9c7a7","system_id":"levelo_inurba_marseille","lat":43.29019,"lon":5.3663,"is_reserved":false,"is_disabled":false,"rental_uris":{"android":"levelo://app?vid=b940bdf2-742d-48e4-9490-5ec9e6e9c7a7","ios":"levelo://app?vid=b940bdf2-742d-48e4-9490-5ec9e6e9c7a7"},"vehicle_type_id":"4","last_reported":1745507444,"current_range_meters":15200,"station_id":"","pricing_plan_id":"cebpf4jnsgd1na2vs0mg"},{"bike_id":"3a41a14b-b60d-411c-aa4a-3b7d3df773ad","system_id":"levelo_inurba_marseille","lat":43.30213,"lon":5.36606,"is_reserved":false,"is_disabled":true,"rental_uris":{"android":"levelo://app?vid=3a41a14b-b60d-411c-aa4a-3b7d3df773ad","ios":"levelo://app?vid=3a41a14b-b60d-411c-aa4a-3b7d3df773ad"},"vehicle_type_id":"4","last_reported":1745507444,"current_range_meters":14000,"station_id":"ce4bgrh2rcd13ifvqc8g","pricing_plan_id":"cebpf4jnsgd1na2vs0mg"},{"bike_id":"8d48a2cb-5610-4bac-9c76-218dba2e1955","system_id":"levelo_inurba_marseille","lat":43.2826,"lon":5.3508,"is_reserved":false,"is_disabled":false,"rental_uris":{"android":"levelo://app?vid=8d48a2cb-5610-4bac-9c76-218dba2e1955","ios":"levelo://app?vid=8d48a2cb-5610-4bac-9c76-218dba2e1955"},"vehicle_type_id":"4","last_reported":1745507444,"current_range_meters":14000,"station_id":"ce4bhbp2rcd13ifvqerg","pricing_plan_id":"cebpf4jnsgd1na2vs0mg"},{"bike_id":"fa8a552a-d2d3-4e8d-8d8e-02bdba037836","system_id":"levelo_inurba_marseille","lat":43.230679,"lon":5.354903,"is_reserved":false,"is_disabled":false,"rental_uris":{"android":"levelo://app?vid=fa8a552a-d2d3-4e8d-8d8e-02bdba037836","ios":"levelo://app?vid=fa8a552a-d2d3-4e8d-8d8e-02bdba037836"},"vehicle_type_id":"4","last_reported":1745507444,"current_range_meters":14000,"station_id":"cpo3342slgdg3j2ifvpg","pricing_plan_id":"cebpf4jnsgd1na2vs0mg"},{"bike_id":"6c07701a-8c9d-42b3-88f5-7017a41eecdf","system_id":"levelo_inurba_marseille","lat":43.29517,"lon":5.39028,"is_reserved":false,"is_disabled":false,"rental_uris":{"android":"levelo://app?vid=6c07701a-8c9d-42b3-88f5-7017a41eecdf","ios":"levelo://app?vid=6c07701a-8c9d-42b3-88f5-7017a41eecdf"},"vehicle_type_id":"4","last_reported":1745507444,"current_range_meters":14400,"station_id":"ce4bh3p2rcd13ifvqdp0","pricing_plan_id":"cebpf4jnsgd1na2vs0mg"},{"bike_id":"0497e9fe-3858-431d-864c-28a9f7c796ec","system_id":"levelo_inurba_marseille","lat":43.28447,"lon":5.39174,"is_reserved":false,"is_disabled":false,"rental_uris":{"android":"levelo://app?vid=0497e9fe-3858-431d-864c-28a9f7c796ec","ios":"levelo://app?vid=0497e9fe-3858-431d-864c-28a9f7c796ec"},"vehicle_type_id":"4","last_reported":1745507444,"current_range_meters":14400,"station_id":"ce4bhoh2rcd13ifvqh5g","pricing_plan_id":"cebpf4jnsgd1na2vs0mg"},{"bike_id":"4dc988ed-8ee9-46eb-bdf9-99a0528c2b34","system_id":"levelo_inurba_marseille","lat":43.2827,"lon":5.35077,"is_reserved":false,"is_disabled":false,"rental_uris":{"android":"levelo://app?vid=4dc988ed-8ee9-46eb-bdf9-99a0528c2b34","ios":"levelo://app?vid=4dc988ed-8ee9-46eb-bdf9-99a0528c2b34"},"vehicle_type_id":"4","last_reported":1745507444,"current_range_meters":14400,"station_id":"ce4bhbp2rcd13ifvqerg","pricing_plan_id":"cebpf4jnsgd1na2vs0mg"},{"bike_id":"0c7b7ebc-1187-4e54-a44e-92ec51c70ce8","system_id":"levelo_inurba_marseille","lat":43.24074,"lon":5.3776,"is_reserved":false,"is_disabled":false,"rental_uris":{"android":"levelo://app?vid=0c7b7ebc-1187-4e54-a44e-92ec51c70ce8","ios":"levelo://app?vid=0c7b7ebc-1187-4e54-a44e-92ec51c70ce8"},"vehicle_type_id":"4","last_reported":1745507444,"current_range_meters":14400,"station_id":"ce4bhnp2rcd13ifvqgvg","pricing_plan_id":"cebpf4jnsgd1na2vs0mg"},{"bike_id":"cf103708-3b9e-4db5-a66c-f007b4eb9238","system_id":"levelo_inurba_marseille","lat":43.29535,"lon":5.38538,"is_reserved":false,"is_disabled":false,"rental_uris":{"android":"levelo://app?vid=cf103708-3b9e-4db5-a66c-f007b4eb9238","ios":"levelo://app?vid=cf103708-3b9e-4db5-a66c-f007b4eb9238"},"vehicle_type_id":"4","last_reported":1745507444,"current_range_meters":14400,"station_id":"ce4bgih2rcd13ifvqba0","pricing_plan_id":"cebpf4jnsgd1na2vs0mg"},{"bike_id":"63c6e1d9-fd41-4a61-bca6-62baffe81d2f","system_id":"levelo_inurba_marseille","lat":43.23182,"lon":5.4375,"is_reserved":false,"is_disabled":false,"rental_uris":{"android":"levelo://app?vid=63c6e1d9-fd41-4a61-bca6-62baffe81d2f","ios":"levelo://app?vid=63c6e1d9-fd41-4a61-bca6-62baffe81d2f"},"vehicle_type_id":"4","last_reported":1745507444,"current_range_meters":14400,"station_id":"ce4bhmp2rcd13ifvqgog","pricing_plan_id":"cebpf4jnsgd1na2vs0mg"},{"bike_id":"05aa4b40-4db1-4e96-8e13-56d2174dd405","system_id":"levelo_inurba_marseille","lat":43.30418,"lon":5.4128,"is_reserved":false,"is_disabled":false,"rental_uris":{"android":"levelo://app?vid=05aa4b40-4db1-4e96-8e13-56d2174dd405","ios":"levelo://app?vid=05aa4b40-4db1-4e96-8e13-56d2174dd405"},"vehicle_type_id":"4","last_reported":1745507444,"current_range_meters":14800,"station_id":"ce4bhop2rcd13ifvqh8g","pricing_plan_id":"cebpf4jnsgd1na2vs0mg"},{"bike_id":"c9246a15-9fcf-407a-b950-8955cc04db90","system_id":"levelo_inurba_marseille","lat":43.28571,"lon":5.39496,"is_reserved":false,"is_disabled":false,"rental_uris":{"android":"levelo://app?vid=c9246a15-9fcf-407a-b950-8955cc04db90","ios":"levelo://app?vid=c9246a15-9fcf-407a-b950-8955cc04db90"},"vehicle_type_id":"4","last_reported":1745507444,"current_range_meters":14800,"station_id":"ce4bh292rcd13ifvqdg0","pricing_plan_id":"cebpf4jnsgd1na2vs0mg"},{"bike_id":"46398b22-f265-41d8-9053-bbc994f48b91","system_id":"levelo_inurba_marseille","lat":43.29541,"lon":5.38544,"is_reserved":false,"is_disabled":false,"rental_uris":{"android":"levelo://app?vid=46398b22-f265-41d8-9053-bbc994f48b91","ios":"levelo://app?vid=46398b22-f265-41d8-9053-bbc994f48b91"},"vehicle_type_id":"4","last_reported":1745507444,"current_range_meters":14800,"station_id":"ce4bgih2rcd13ifvqba0","pricing_plan_id":"cebpf4jnsgd1na2vs0mg"},{"bike_id":"85747643-cc6b-4476-9d11-2be1e2c25b73","system_id":"levelo_inurba_marseille","lat":43.29264,"lon":5.40897,"is_reserved":false,"is_disabled":false,"rental_uris":{"android":"levelo://app?vid=85747643-cc6b-4476-9d11-2be1e2c25b73","ios":"levelo://app?vid=85747643-cc6b-4476-9d11-2be1e2c25b73"},"vehicle_type_id":"4","last_reported":1745507444,"current_range_meters":15200,"station_id":"ce4bh192rcd13ifvqdc0","pricing_plan_id":"cebpf4jnsgd1na2vs0mg"},{"bike_id":"88cdea91-0c3b-4515-8d83-58c227cbd791","system_id":"levelo_inurba_marseille","lat":43.26035,"lon":5.37545,"is_reserved":false,"is_disabled":false,"rental_uris":{"android":"levelo://app?vid=88cdea91-0c3b-4515-8d83-58c227cbd791","ios":"levelo://app?vid=88cdea91-0c3b-4515-8d83-58c227cbd791"},"vehicle_type_id":"4","last_reported":1745507444,"current_range_meters":15200,"station_id":"ce4bhgh2rcd13ifvqfa0","pricing_plan_id":"cebpf4jnsgd1na2vs0mg"},{"bike_id":"609fa64e-69c9-4028-9eeb-0ea1b7f62085","system_id":"levelo_inurba_marseille","lat":43.28918,"lon":5.38395,"is_reserved":false,"is_disabled":false,"rental_uris":{"android":"levelo://app?vid=609fa64e-69c9-4028-9eeb-0ea1b7f62085","ios":"levelo://app?vid=609fa64e-69c9-4028-9eeb-0ea1b7f62085"},"vehicle_type_id":"4","last_reported":1745507444,"current_range_meters":14800,"station_id":"ce4bh612rcd13ifvqe6g","pricing_plan_id":"cebpf4jnsgd1na2vs0mg"},{"bike_id":"09f60935-e660-458e-82b8-aecf220a8fa7","system_id":"levelo_inurba_marseille","lat":43.29561,"lon":5.39973,"is_reserved":false,"is_disabled":false,"rental_uris":{"android":"levelo://app?vid=09f60935-e660-458e-82b8-aecf220a8fa7","ios":"levelo://app?vid=09f60935-e660-458e-82b8-aecf220a8fa7"},"vehicle_type_id":"4","last_reported":1745507444,"current_range_meters":15200,"station_id":"ce4bh312rcd13ifvqdj0","pricing_plan_id":"cebpf4jnsgd1na2vs0mg"},{"bike_id":"cd906bce-52be-45be-8f08-cdeb623de131","system_id":"levelo_inurba_marseille","lat":43.28209,"lon":5.40398,"is_reserved":false,"is_disabled":false,"rental_uris":{"android":"levelo://app?vid=cd906bce-52be-45be-8f08-cdeb623de131","ios":"levelo://app?vid=cd906bce-52be-45be-8f08-cdeb623de131"},"vehicle_type_id":"4","last_reported":1745507444,"current_range_meters":16000,"station_id":"","pricing_plan_id":"cebpf4jnsgd1na2vs0mg"},{"bike_id":"7412c111-bb77-442f-9a75-1a134515e251","system_id":"levelo_inurba_marseille","lat":43.24166,"lon":5.364,"is_reserved":false,"is_disabled":false,"rental_uris":{"android":"levelo://app?vid=7412c111-bb77-442f-9a75-1a134515e251","ios":"levelo://app?vid=7412c111-bb77-442f-9a75-1a134515e251"},"vehicle_type_id":"4","last_reported":1745507444,"current_range_meters":16000,"station_id":"cpo36qri1sfpv3e86is0","pricing_plan_id":"cebpf4jnsgd1na2vs0mg"},{"bike_id":"cb144c05-6a01-4000-be7b-b746e03c0ede","system_id":"levelo_inurba_marseille","lat":43.29575,"lon":5.39979,"is_reserved":false,"is_disabled":false,"rental_uris":{"android":"levelo://app?vid=cb144c05-6a01-4000-be7b-b746e03c0ede","ios":"levelo://app?vid=cb144c05-6a01-4000-be7b-b746e03c0ede"},"vehicle_type_id":"4","last_reported":1745507444,"current_range_meters":16000,"station_id":"ce4bh312rcd13ifvqdj0","pricing_plan_id":"cebpf4jnsgd1na2vs0mg"},{"bike_id":"28c10575-6662-49ed-95b4-da3e25c50a2f","system_id":"levelo_inurba_marseille","lat":43.29419,"lon":5.38629,"is_reserved":false,"is_disabled":false,"rental_uris":{"android":"levelo://app?vid=28c10575-6662-49ed-95b4-da3e25c50a2f","ios":"levelo://app?vid=28c10575-6662-49ed-95b4-da3e25c50a2f"},"vehicle_type_id":"4","last_reported":1745507444,"current_range_meters":16000,"station_id":"ce4bh2h2rcd13ifvqdh0","pricing_plan_id":"cebpf4jnsgd1na2vs0mg"},{"bike_id":"0d12125f-84b9-4497-b944-34ccd34015c3","system_id":"levelo_inurba_marseille","lat":43.31768,"lon":5.38993,"is_reserved":false,"is_disabled":false,"rental_uris":{"android":"levelo://app?vid=0d12125f-84b9-4497-b944-34ccd34015c3","ios":"levelo://app?vid=0d12125f-84b9-4497-b944-34ccd34015c3"},"vehicle_type_id":"4","last_reported":1745507444,"current_range_meters":16000,"station_id":"ce4bhqp2rcd13ifvqhng","pricing_plan_id":"cebpf4jnsgd1na2vs0mg"},{"bike_id":"cebfb69e-e7bf-48cd-b924-26ee0522c644","system_id":"levelo_inurba_marseille","lat":43.304238,"lon":5.388987,"is_reserved":false,"is_disabled":false,"rental_uris":{"android":"levelo://app?vid=cebfb69e-e7bf-48cd-b924-26ee0522c644","ios":"levelo://app?vid=cebfb69e-e7bf-48cd-b924-26ee0522c644"},"vehicle_type_id":"4","last_reported":1745507444,"current_range_meters":16400,"station_id":"","pricing_plan_id":"cebpf4jnsgd1na2vs0mg"},{"bike_id":"6a8ce0d7-44c9-4192-a61a-a9f45ca222d9","system_id":"levelo_inurba_marseille","lat":43.29808,"lon":5.40396,"is_reserved":false,"is_disabled":false,"rental_uris":{"android":"levelo://app?vid=6a8ce0d7-44c9-4192-a61a-a9f45ca222d9","ios":"levelo://app?vid=6a8ce0d7-44c9-4192-a61a-a9f45ca222d9"},"vehicle_type_id":"4","last_reported":1745507444,"current_range_meters":16400,"station_id":"ce4bh112rcd13ifvqd90","pricing_plan_id":"cebpf4jnsgd1na2vs0mg"},{"bike_id":"e82d22a2-8183-4f18-84f2-77ae41842597","system_id":"levelo_inurba_marseille","lat":43.28619,"lon":5.35102,"is_reserved":false,"is_disabled":false,"rental_uris":{"android":"levelo://app?vid=e82d22a2-8183-4f18-84f2-77ae41842597","ios":"levelo://app?vid=e82d22a2-8183-4f18-84f2-77ae41842597"},"vehicle_type_id":"4","last_reported":1745507444,"current_range_meters":16400,"station_id":"ce4bhch2rcd13ifvqeug","pricing_plan_id":"cebpf4jnsgd1na2vs0mg"},{"bike_id":"0ab4acae-08a5-4dae-9606-513acd13fa91","system_id":"levelo_inurba_marseille","lat":43.22936,"lon":5.35375,"is_reserved":false,"is_disabled":false,"rental_uris":{"android":"levelo://app?vid=0ab4acae-08a5-4dae-9606-513acd13fa91","ios":"levelo://app?vid=0ab4acae-08a5-4dae-9606-513acd13fa91"},"vehicle_type_id":"4","last_reported":1745507444,"current_range_meters":16400,"station_id":"cpo3532slgdg3j2ikp40","pricing_plan_id":"cebpf4jnsgd1na2vs0mg"},{"bike_id":"270ab974-530b-4aaf-a3d6-d34e8a13dbd6","system_id":"levelo_inurba_marseille","lat":43.280387,"lon":5.369479,"is_reserved":false,"is_disabled":false,"rental_uris":{"android":"levelo://app?vid=270ab974-530b-4aaf-a3d6-d34e8a13dbd6","ios":"levelo://app?vid=270ab974-530b-4aaf-a3d6-d34e8a13dbd6"},"vehicle_type_id":"4","last_reported":1745507444,"current_range_meters":16000,"station_id":"ce4bha12rcd13ifvqef0","pricing_plan_id":"cebpf4jnsgd1na2vs0mg"},{"bike_id":"27f806a5-874c-4e03-9c21-cc4e97526a65","system_id":"levelo_inurba_marseille","lat":43.30144,"lon":5.39862,"is_reserved":false,"is_disabled":false,"rental_uris":{"android":"levelo://app?vid=27f806a5-874c-4e03-9c21-cc4e97526a65","ios":"levelo://app?vid=27f806a5-874c-4e03-9c21-cc4e97526a65"},"vehicle_type_id":"4","last_reported":1745507444,"current_range_meters":14800,"station_id":"ce4bh0h2rcd13ifvqd40","pricing_plan_id":"cebpf4jnsgd1na2vs0mg"},{"bike_id":"21d6dfda-1f1e-40b5-a34f-4655caea0f83","system_id":"levelo_inurba_marseille","lat":43.23153,"lon":5.43711,"is_reserved":false,"is_disabled":false,"rental_uris":{"android":"levelo://app?vid=21d6dfda-1f1e-40b5-a34f-4655caea0f83","ios":"levelo://app?vid=21d6dfda-1f1e-40b5-a34f-4655caea0f83"},"vehicle_type_id":"4","last_reported":1745507444,"current_range_meters":16400,"station_id":"ce4bhmp2rcd13ifvqgog","pricing_plan_id":"cebpf4jnsgd1na2vs0mg"},{"bike_id":"8703ba8d-e2cd-4de9-bef1-0e4b24bdd597","system_id":"levelo_inurba_marseille","lat":43.28935,"lon":5.36638,"is_reserved":false,"is_disabled":false,"rental_uris":{"android":"levelo://app?vid=8703ba8d-e2cd-4de9-bef1-0e4b24bdd597","ios":"levelo://app?vid=8703ba8d-e2cd-4de9-bef1-0e4b24bdd597"},"vehicle_type_id":"4","last_reported":1745507444,"current_range_meters":16800,"station_id":"ce4bhap2rcd13ifvqek0","pricing_plan_id":"cebpf4jnsgd1na2vs0mg"},{"bike_id":"a294e112-9a60-4a60-83fa-aa3acbb20a21","system_id":"levelo_inurba_marseille","lat":43.28565,"lon":5.39492,"is_reserved":false,"is_disabled":false,"rental_uris":{"android":"levelo://app?vid=a294e112-9a60-4a60-83fa-aa3acbb20a21","ios":"levelo://app?vid=a294e112-9a60-4a60-83fa-aa3acbb20a21"},"vehicle_type_id":"4","last_reported":1745507444,"current_range_meters":16800,"station_id":"ce4bh292rcd13ifvqdg0","pricing_plan_id":"cebpf4jnsgd1na2vs0mg"},{"bike_id":"7f457c53-eb3e-4dbd-8478-b653450712fc","system_id":"levelo_inurba_marseille","lat":43.25119,"lon":5.4033,"is_reserved":false,"is_disabled":false,"rental_uris":{"android":"levelo://app?vid=7f457c53-eb3e-4dbd-8478-b653450712fc","ios":"levelo://app?vid=7f457c53-eb3e-4dbd-8478-b653450712fc"},"vehicle_type_id":"4","last_reported":1745507444,"current_range_meters":16800,"station_id":"ce4bhlh2rcd13ifvqgig","pricing_plan_id":"cebpf4jnsgd1na2vs0mg"},{"bike_id":"43d12544-61aa-42d9-91cf-0aadefbf9b79","system_id":"levelo_inurba_marseille","lat":43.25497,"lon":5.37649,"is_reserved":false,"is_disabled":false,"rental_uris":{"android":"levelo://app?vid=43d12544-61aa-42d9-91cf-0aadefbf9b79","ios":"levelo://app?vid=43d12544-61aa-42d9-91cf-0aadefbf9b79"},"vehicle_type_id":"4","last_reported":1745507444,"current_range_meters":16400,"station_id":"ce4bhh12rcd13ifvqff0","pricing_plan_id":"cebpf4jnsgd1na2vs0mg"},{"bike_id":"e308bf0e-e6a0-4343-b535-0c8d6541e7f9","system_id":"levelo_inurba_marseille","lat":43.29803,"lon":5.38108,"is_reserved":false,"is_disabled":false,"rental_uris":{"android":"levelo://app?vid=e308bf0e-e6a0-4343-b535-0c8d6541e7f9","ios":"levelo://app?vid=e308bf0e-e6a0-4343-b535-0c8d6541e7f9"},"vehicle_type_id":"4","last_reported":1745507444,"current_range_meters":16800,"station_id":"ce4bgip2rcd13ifvqbb0","pricing_plan_id":"cebpf4jnsgd1na2vs0mg"},{"bike_id":"d2551370-740b-4767-bbbc-c02161e12ec3","system_id":"levelo_inurba_marseille","lat":43.324795,"lon":5.365503,"is_reserved":false,"is_disabled":false,"rental_uris":{"android":"levelo://app?vid=d2551370-740b-4767-bbbc-c02161e12ec3","ios":"levelo://app?vid=d2551370-740b-4767-bbbc-c02161e12ec3"},"vehicle_type_id":"4","last_reported":1745507444,"current_range_meters":17200,"station_id":"ce4bhs12rcd13ifvqhvg","pricing_plan_id":"cebpf4jnsgd1na2vs0mg"},{"bike_id":"75c54774-60c3-4a5a-9d9a-e318535acfa8","system_id":"levelo_inurba_marseille","lat":43.28431,"lon":5.34966,"is_reserved":false,"is_disabled":false,"rental_uris":{"android":"levelo://app?vid=75c54774-60c3-4a5a-9d9a-e318535acfa8","ios":"levelo://app?vid=75c54774-60c3-4a5a-9d9a-e318535acfa8"},"vehicle_type_id":"4","last_reported":1745507444,"current_range_meters":17200,"station_id":"ce4bhbh2rcd13ifvqepg","pricing_plan_id":"cebpf4jnsgd1na2vs0mg"},{"bike_id":"5c8dde23-03af-4ec7-8c64-b6a7b95cfa5a","system_id":"levelo_inurba_marseille","lat":43.33722,"lon":5.39179,"is_reserved":false,"is_disabled":false,"rental_uris":{"android":"levelo://app?vid=5c8dde23-03af-4ec7-8c64-b6a7b95cfa5a","ios":"levelo://app?vid=5c8dde23-03af-4ec7-8c64-b6a7b95cfa5a"},"vehicle_type_id":"4","last_reported":1745507444,"current_range_meters":17200,"station_id":"ce4bhr92rcd13ifvqhsg","pricing_plan_id":"cebpf4jnsgd1na2vs0mg"},{"bike_id":"1a993118-ed3c-4326-ac7a-e78b7b153add","system_id":"levelo_inurba_marseille","lat":43.25111,"lon":5.40362,"is_reserved":false,"is_disabled":false,"rental_uris":{"android":"levelo://app?vid=1a993118-ed3c-4326-ac7a-e78b7b153add","ios":"levelo://app?vid=1a993118-ed3c-4326-ac7a-e78b7b153add"},"vehicle_type_id":"4","last_reported":1745507444,"current_range_meters":17200,"station_id":"ce4bhlh2rcd13ifvqgig","pricing_plan_id":"cebpf4jnsgd1na2vs0mg"},{"bike_id":"a2888d7f-ac0f-44b3-83c1-7403a11cc923","system_id":"levelo_inurba_marseille","lat":43.254712,"lon":5.382173,"is_reserved":false,"is_disabled":false,"rental_uris":{"android":"levelo://app?vid=a2888d7f-ac0f-44b3-83c1-7403a11cc923","ios":"levelo://app?vid=a2888d7f-ac0f-44b3-83c1-7403a11cc923"},"vehicle_type_id":"4","last_reported":1745507444,"current_range_meters":19600,"station_id":"ce4bhm12rcd13ifvqgkg","pricing_plan_id":"cebpf4jnsgd1na2vs0mg"},{"bike_id":"79b836b6-e19b-4e39-bf18-ac4ca8d339bd","system_id":"levelo_inurba_marseille","lat":43.28697,"lon":5.39985,"is_reserved":false,"is_disabled":false,"rental_uris":{"android":"levelo://app?vid=79b836b6-e19b-4e39-bf18-ac4ca8d339bd","ios":"levelo://app?vid=79b836b6-e19b-4e39-bf18-ac4ca8d339bd"},"vehicle_type_id":"4","last_reported":1745507444,"current_range_meters":17600,"station_id":"ce4bho92rcd13ifvqh3g","pricing_plan_id":"cebpf4jnsgd1na2vs0mg"},{"bike_id":"72678edf-2c1a-4cf0-876d-5fea18878fbb","system_id":"levelo_inurba_marseille","lat":43.279173,"lon":5.395745,"is_reserved":false,"is_disabled":false,"rental_uris":{"android":"levelo://app?vid=72678edf-2c1a-4cf0-876d-5fea18878fbb","ios":"levelo://app?vid=72678edf-2c1a-4cf0-876d-5fea18878fbb"},"vehicle_type_id":"4","last_reported":1745507444,"current_range_meters":17600,"station_id":"ce4bhf92rcd13ifvqf40","pricing_plan_id":"cebpf4jnsgd1na2vs0mg"},{"bike_id":"e2dcabcf-64d8-4394-bb9a-ff877bee611a","system_id":"levelo_inurba_marseille","lat":43.32024,"lon":5.4154,"is_reserved":false,"is_disabled":false,"rental_uris":{"android":"levelo://app?vid=e2dcabcf-64d8-4394-bb9a-ff877bee611a","ios":"levelo://app?vid=e2dcabcf-64d8-4394-bb9a-ff877bee611a"},"vehicle_type_id":"4","last_reported":1745507444,"current_range_meters":17600,"station_id":"ce4bhq92rcd13ifvqhkg","pricing_plan_id":"cebpf4jnsgd1na2vs0mg"},{"bike_id":"f1ce2559-57f9-4c87-a107-5a6d41a9adcb","system_id":"levelo_inurba_marseille","lat":43.26211,"lon":5.3792,"is_reserved":false,"is_disabled":false,"rental_uris":{"android":"levelo://app?vid=f1ce2559-57f9-4c87-a107-5a6d41a9adcb","ios":"levelo://app?vid=f1ce2559-57f9-4c87-a107-5a6d41a9adcb"},"vehicle_type_id":"4","last_reported":1745507444,"current_range_meters":17200,"station_id":"ce4bhjp2rcd13ifvqg90","pricing_plan_id":"cebpf4jnsgd1na2vs0mg"},{"bike_id":"7597f9f7-581e-4aa1-9ea0-a72928416a0e","system_id":"levelo_inurba_marseille","lat":43.30309,"lon":5.39212,"is_reserved":false,"is_disabled":true,"rental_uris":{"android":"levelo://app?vid=7597f9f7-581e-4aa1-9ea0-a72928416a0e","ios":"levelo://app?vid=7597f9f7-581e-4aa1-9ea0-a72928416a0e"},"vehicle_type_id":"4","last_reported":1745507444,"current_range_meters":18000,"station_id":"ce4bgkh2rcd13ifvqbk0","pricing_plan_id":"cebpf4jnsgd1na2vs0mg"},{"bike_id":"f577c520-0907-4453-975b-4f68ddb3f606","system_id":"levelo_inurba_marseille","lat":43.28451,"lon":5.34985,"is_reserved":false,"is_disabled":false,"rental_uris":{"android":"levelo://app?vid=f577c520-0907-4453-975b-4f68ddb3f606","ios":"levelo://app?vid=f577c520-0907-4453-975b-4f68ddb3f606"},"vehicle_type_id":"4","last_reported":1745507444,"current_range_meters":18000,"station_id":"ce4bhbh2rcd13ifvqepg","pricing_plan_id":"cebpf4jnsgd1na2vs0mg"},{"bike_id":"14f75fbd-1037-48bd-898a-54c463b28df6","system_id":"levelo_inurba_marseille","lat":43.295832,"lon":5.377993,"is_reserved":false,"is_disabled":false,"rental_uris":{"android":"levelo://app?vid=14f75fbd-1037-48bd-898a-54c463b28df6","ios":"levelo://app?vid=14f75fbd-1037-48bd-898a-54c463b28df6"},"vehicle_type_id":"4","last_reported":1745507444,"current_range_meters":18800,"station_id":"ce4bgi92rcd13ifvqb90","pricing_plan_id":"cebpf4jnsgd1na2vs0mg"},{"bike_id":"df0cf926-5c73-4292-8b5c-ec14b16b1171","system_id":"levelo_inurba_marseille","lat":43.28266,"lon":5.35072,"is_reserved":false,"is_disabled":false,"rental_uris":{"android":"levelo://app?vid=df0cf926-5c73-4292-8b5c-ec14b16b1171","ios":"levelo://app?vid=df0cf926-5c73-4292-8b5c-ec14b16b1171"},"vehicle_type_id":"4","last_reported":1745507444,"current_range_meters":18000,"station_id":"ce4bhbp2rcd13ifvqerg","pricing_plan_id":"cebpf4jnsgd1na2vs0mg"},{"bike_id":"d517b521-37c1-4380-9600-6e69fd78877b","system_id":"levelo_inurba_marseille","lat":43.21217,"lon":5.34987,"is_reserved":false,"is_disabled":false,"rental_uris":{"android":"levelo://app?vid=d517b521-37c1-4380-9600-6e69fd78877b","ios":"levelo://app?vid=d517b521-37c1-4380-9600-6e69fd78877b"},"vehicle_type_id":"4","last_reported":1745507444,"current_range_meters":18000,"station_id":"","pricing_plan_id":"cebpf4jnsgd1na2vs0mg"},{"bike_id":"4d2beb57-71cc-463b-af16-d0ebe4be478b","system_id":"levelo_inurba_marseille","lat":43.26841,"lon":5.40376,"is_reserved":false,"is_disabled":false,"rental_uris":{"android":"levelo://app?vid=4d2beb57-71cc-463b-af16-d0ebe4be478b","ios":"levelo://app?vid=4d2beb57-71cc-463b-af16-d0ebe4be478b"},"vehicle_type_id":"4","last_reported":1745507444,"current_range_meters":18000,"station_id":"","pricing_plan_id":"cebpf4jnsgd1na2vs0mg"},{"bike_id":"a73c2dae-fa10-4ab2-b716-3e6a2a69155f","system_id":"levelo_inurba_marseille","lat":43.309491,"lon":5.390251,"is_reserved":false,"is_disabled":false,"rental_uris":{"android":"levelo://app?vid=a73c2dae-fa10-4ab2-b716-3e6a2a69155f","ios":"levelo://app?vid=a73c2dae-fa10-4ab2-b716-3e6a2a69155f"},"vehicle_type_id":"4","last_reported":1745507444,"current_range_meters":18000,"station_id":"ce4bgn12rcd13ifvqbt0","pricing_plan_id":"cebpf4jnsgd1na2vs0mg"},{"bike_id":"b060a5cb-7521-4f42-826a-df832facd15e","system_id":"levelo_inurba_marseille","lat":43.28406,"lon":5.35022,"is_reserved":false,"is_disabled":false,"rental_uris":{"android":"levelo://app?vid=b060a5cb-7521-4f42-826a-df832facd15e","ios":"levelo://app?vid=b060a5cb-7521-4f42-826a-df832facd15e"},"vehicle_type_id":"4","last_reported":1745507444,"current_range_meters":18000,"station_id":"ce4bhbh2rcd13ifvqepg","pricing_plan_id":"cebpf4jnsgd1na2vs0mg"},{"bike_id":"c55ba926-b684-439b-b648-451df48b3d19","system_id":"levelo_inurba_marseille","lat":43.28455,"lon":5.35886,"is_reserved":false,"is_disabled":false,"rental_uris":{"android":"levelo://app?vid=c55ba926-b684-439b-b648-451df48b3d19","ios":"levelo://app?vid=c55ba926-b684-439b-b648-451df48b3d19"},"vehicle_type_id":"4","last_reported":1745507444,"current_range_meters":18800,"station_id":"ce4bhah2rcd13ifvqei0","pricing_plan_id":"cebpf4jnsgd1na2vs0mg"},{"bike_id":"8cd89945-3452-402d-b186-42ab94aa749d","system_id":"levelo_inurba_marseille","lat":43.29228,"lon":5.36083,"is_reserved":false,"is_disabled":true,"rental_uris":{"android":"levelo://app?vid=8cd89945-3452-402d-b186-42ab94aa749d","ios":"levelo://app?vid=8cd89945-3452-402d-b186-42ab94aa749d"},"vehicle_type_id":"4","last_reported":1745507444,"current_range_meters":18800,"station_id":"ce4bhbh2rcd13ifvqeqg","pricing_plan_id":"cebpf4jnsgd1na2vs0mg"},{"bike_id":"4c8587c5-994b-45cb-946f-1c2d4dabd454","system_id":"levelo_inurba_marseille","lat":43.28615,"lon":5.35086,"is_reserved":false,"is_disabled":false,"rental_uris":{"android":"levelo://app?vid=4c8587c5-994b-45cb-946f-1c2d4dabd454","ios":"levelo://app?vid=4c8587c5-994b-45cb-946f-1c2d4dabd454"},"vehicle_type_id":"4","last_reported":1745507444,"current_range_meters":18800,"station_id":"ce4bhch2rcd13ifvqeug","pricing_plan_id":"cebpf4jnsgd1na2vs0mg"},{"bike_id":"a5b8234e-4deb-4a63-a3d2-1c868c02fbeb","system_id":"levelo_inurba_marseille","lat":43.25498,"lon":5.37648,"is_reserved":false,"is_disabled":false,"rental_uris":{"android":"levelo://app?vid=a5b8234e-4deb-4a63-a3d2-1c868c02fbeb","ios":"levelo://app?vid=a5b8234e-4deb-4a63-a3d2-1c868c02fbeb"},"vehicle_type_id":"4","last_reported":1745507444,"current_range_meters":18800,"station_id":"ce4bhh12rcd13ifvqff0","pricing_plan_id":"cebpf4jnsgd1na2vs0mg"},{"bike_id":"2b43f57e-53f4-43b7-b142-a3803d4893c5","system_id":"levelo_inurba_marseille","lat":43.31071,"lon":5.38354,"is_reserved":false,"is_disabled":false,"rental_uris":{"android":"levelo://app?vid=2b43f57e-53f4-43b7-b142-a3803d4893c5","ios":"levelo://app?vid=2b43f57e-53f4-43b7-b142-a3803d4893c5"},"vehicle_type_id":"4","last_reported":1745507444,"current_range_meters":18800,"station_id":"ce4bgv92rcd13ifvqcr0","pricing_plan_id":"cebpf4jnsgd1na2vs0mg"},{"bike_id":"0bfff189-ec6a-4439-b345-e9dd168ab867","system_id":"levelo_inurba_marseille","lat":43.33773,"lon":5.39177,"is_reserved":false,"is_disabled":false,"rental_uris":{"android":"levelo://app?vid=0bfff189-ec6a-4439-b345-e9dd168ab867","ios":"levelo://app?vid=0bfff189-ec6a-4439-b345-e9dd168ab867"},"vehicle_type_id":"4","last_reported":1745507444,"current_range_meters":18800,"station_id":"","pricing_plan_id":"cebpf4jnsgd1na2vs0mg"},{"bike_id":"713e340d-4155-4de4-a5a1-7868887bc224","system_id":"levelo_inurba_marseille","lat":43.22924,"lon":5.35375,"is_reserved":false,"is_disabled":true,"rental_uris":{"android":"levelo://app?vid=713e340d-4155-4de4-a5a1-7868887bc224","ios":"levelo://app?vid=713e340d-4155-4de4-a5a1-7868887bc224"},"vehicle_type_id":"4","last_reported":1745507444,"current_range_meters":19200,"station_id":"cpo3532slgdg3j2ikp40","pricing_plan_id":"cebpf4jnsgd1na2vs0mg"},{"bike_id":"8c54707d-0394-48aa-b0b3-303fc5979d44","system_id":"levelo_inurba_marseille","lat":43.25002,"lon":5.38936,"is_reserved":false,"is_disabled":false,"rental_uris":{"android":"levelo://app?vid=8c54707d-0394-48aa-b0b3-303fc5979d44","ios":"levelo://app?vid=8c54707d-0394-48aa-b0b3-303fc5979d44"},"vehicle_type_id":"4","last_reported":1745507444,"current_range_meters":19200,"station_id":"ce4bhgp2rcd13ifvqfd0","pricing_plan_id":"cebpf4jnsgd1na2vs0mg"},{"bike_id":"92985d1b-174e-4cc8-81d4-f9a72f3e1f33","system_id":"levelo_inurba_marseille","lat":43.29627,"lon":5.40607,"is_reserved":false,"is_disabled":false,"rental_uris":{"android":"levelo://app?vid=92985d1b-174e-4cc8-81d4-f9a72f3e1f33","ios":"levelo://app?vid=92985d1b-174e-4cc8-81d4-f9a72f3e1f33"},"vehicle_type_id":"4","last_reported":1745507444,"current_range_meters":19200,"station_id":"ce4bh0h2rcd13ifvqd60","pricing_plan_id":"cebpf4jnsgd1na2vs0mg"},{"bike_id":"70ef5671-c61d-42d3-9906-d1f522e68da0","system_id":"levelo_inurba_marseille","lat":43.32337,"lon":5.40618,"is_reserved":false,"is_disabled":false,"rental_uris":{"android":"levelo://app?vid=70ef5671-c61d-42d3-9906-d1f522e68da0","ios":"levelo://app?vid=70ef5671-c61d-42d3-9906-d1f522e68da0"},"vehicle_type_id":"4","last_reported":1745507444,"current_range_meters":19200,"station_id":"ce4bhq92rcd13ifvqhjg","pricing_plan_id":"cebpf4jnsgd1na2vs0mg"},{"bike_id":"807c8b62-6216-4bda-99a3-548fce3b9a2b","system_id":"levelo_inurba_marseille","lat":43.2931,"lon":5.37177,"is_reserved":false,"is_disabled":false,"rental_uris":{"android":"levelo://app?vid=807c8b62-6216-4bda-99a3-548fce3b9a2b","ios":"levelo://app?vid=807c8b62-6216-4bda-99a3-548fce3b9a2b"},"vehicle_type_id":"4","last_reported":1745507444,"current_range_meters":19200,"station_id":"ce4bgh92rcd13ifvqb40","pricing_plan_id":"cebpf4jnsgd1na2vs0mg"},{"bike_id":"36ca4e27-d229-4de0-83b0-47ad0298a352","system_id":"levelo_inurba_marseille","lat":43.26031,"lon":5.37544,"is_reserved":false,"is_disabled":false,"rental_uris":{"android":"levelo://app?vid=36ca4e27-d229-4de0-83b0-47ad0298a352","ios":"levelo://app?vid=36ca4e27-d229-4de0-83b0-47ad0298a352"},"vehicle_type_id":"4","last_reported":1745507444,"current_range_meters":19200,"station_id":"ce4bhgh2rcd13ifvqfa0","pricing_plan_id":"cebpf4jnsgd1na2vs0mg"},{"bike_id":"9a1c0be7-bd1a-4081-ab84-3ef05258b407","system_id":"levelo_inurba_marseille","lat":43.22952,"lon":5.35404,"is_reserved":false,"is_disabled":false,"rental_uris":{"android":"levelo://app?vid=9a1c0be7-bd1a-4081-ab84-3ef05258b407","ios":"levelo://app?vid=9a1c0be7-bd1a-4081-ab84-3ef05258b407"},"vehicle_type_id":"4","last_reported":1745507444,"current_range_meters":19200,"station_id":"cpo3532slgdg3j2ikp40","pricing_plan_id":"cebpf4jnsgd1na2vs0mg"},{"bike_id":"0993b9a0-ef53-4546-ac77-b6585b8f8005","system_id":"levelo_inurba_marseille","lat":43.302,"lon":5.36628,"is_reserved":false,"is_disabled":false,"rental_uris":{"android":"levelo://app?vid=0993b9a0-ef53-4546-ac77-b6585b8f8005","ios":"levelo://app?vid=0993b9a0-ef53-4546-ac77-b6585b8f8005"},"vehicle_type_id":"4","last_reported":1745507444,"current_range_meters":19200,"station_id":"ce4bgrh2rcd13ifvqc8g","pricing_plan_id":"cebpf4jnsgd1na2vs0mg"},{"bike_id":"a9784e4d-72f3-45a0-bc5c-6a48517d28d6","system_id":"levelo_inurba_marseille","lat":43.3303,"lon":5.39013,"is_reserved":false,"is_disabled":false,"rental_uris":{"android":"levelo://app?vid=a9784e4d-72f3-45a0-bc5c-6a48517d28d6","ios":"levelo://app?vid=a9784e4d-72f3-45a0-bc5c-6a48517d28d6"},"vehicle_type_id":"4","last_reported":1745507444,"current_range_meters":19200,"station_id":"ce4bhr92rcd13ifvqhrg","pricing_plan_id":"cebpf4jnsgd1na2vs0mg"},{"bike_id":"d397d313-9717-498f-8739-92fea3ee7111","system_id":"levelo_inurba_marseille","lat":43.29537,"lon":5.38541,"is_reserved":false,"is_disabled":false,"rental_uris":{"android":"levelo://app?vid=d397d313-9717-498f-8739-92fea3ee7111","ios":"levelo://app?vid=d397d313-9717-498f-8739-92fea3ee7111"},"vehicle_type_id":"4","last_reported":1745507444,"current_range_meters":18800,"station_id":"ce4bgih2rcd13ifvqba0","pricing_plan_id":"cebpf4jnsgd1na2vs0mg"},{"bike_id":"0622495d-08b5-476f-ac9d-e359e81ffd70","system_id":"levelo_inurba_marseille","lat":43.29421,"lon":5.38625,"is_reserved":false,"is_disabled":false,"rental_uris":{"android":"levelo://app?vid=0622495d-08b5-476f-ac9d-e359e81ffd70","ios":"levelo://app?vid=0622495d-08b5-476f-ac9d-e359e81ffd70"},"vehicle_type_id":"4","last_reported":1745507444,"current_range_meters":17600,"station_id":"ce4bh2h2rcd13ifvqdh0","pricing_plan_id":"cebpf4jnsgd1na2vs0mg"},{"bike_id":"a8164429-95d2-47e8-8f91-d373070496a3","system_id":"levelo_inurba_marseille","lat":43.28274,"lon":5.35067,"is_reserved":false,"is_disabled":false,"rental_uris":{"android":"levelo://app?vid=a8164429-95d2-47e8-8f91-d373070496a3","ios":"levelo://app?vid=a8164429-95d2-47e8-8f91-d373070496a3"},"vehicle_type_id":"4","last_reported":1745507444,"current_range_meters":19200,"station_id":"ce4bhbp2rcd13ifvqerg","pricing_plan_id":"cebpf4jnsgd1na2vs0mg"},{"bike_id":"a4cbc569-bdc1-4229-9bae-a4f3f06320e5","system_id":"levelo_inurba_marseille","lat":43.28719,"lon":5.36088,"is_reserved":false,"is_disabled":false,"rental_uris":{"android":"levelo://app?vid=a4cbc569-bdc1-4229-9bae-a4f3f06320e5","ios":"levelo://app?vid=a4cbc569-bdc1-4229-9bae-a4f3f06320e5"},"vehicle_type_id":"4","last_reported":1745507444,"current_range_meters":19200,"station_id":"cki0cbj6b192h4jlfktg","pricing_plan_id":"cebpf4jnsgd1na2vs0mg"},{"bike_id":"0760f03c-f1c1-4b1c-b5e5-69e2abe0a657","system_id":"levelo_inurba_marseille","lat":43.31698,"lon":5.37791,"is_reserved":false,"is_disabled":false,"rental_uris":{"android":"levelo://app?vid=0760f03c-f1c1-4b1c-b5e5-69e2abe0a657","ios":"levelo://app?vid=0760f03c-f1c1-4b1c-b5e5-69e2abe0a657"},"vehicle_type_id":"4","last_reported":1745507444,"current_range_meters":19200,"station_id":"ce4bgth2rcd13ifvqch0","pricing_plan_id":"cebpf4jnsgd1na2vs0mg"},{"bike_id":"6ab6d7b2-3290-448f-84a4-8ebdbe70ab9b","system_id":"levelo_inurba_marseille","lat":43.26561,"lon":5.3732,"is_reserved":false,"is_disabled":false,"rental_uris":{"android":"levelo://app?vid=6ab6d7b2-3290-448f-84a4-8ebdbe70ab9b","ios":"levelo://app?vid=6ab6d7b2-3290-448f-84a4-8ebdbe70ab9b"},"vehicle_type_id":"4","last_reported":1745507444,"current_range_meters":19200,"station_id":"ce4bhg12rcd13ifvqf70","pricing_plan_id":"cebpf4jnsgd1na2vs0mg"},{"bike_id":"dd612fb6-c7ed-47fb-bdfb-5c6c9dfd318a","system_id":"levelo_inurba_marseille","lat":43.28105,"lon":5.37838,"is_reserved":false,"is_disabled":false,"rental_uris":{"android":"levelo://app?vid=dd612fb6-c7ed-47fb-bdfb-5c6c9dfd318a","ios":"levelo://app?vid=dd612fb6-c7ed-47fb-bdfb-5c6c9dfd318a"},"vehicle_type_id":"4","last_reported":1745507444,"current_range_meters":19600,"station_id":"ce4bha12rcd13ifvqee0","pricing_plan_id":"cebpf4jnsgd1na2vs0mg"},{"bike_id":"8d2efc95-694f-445a-b640-143344917cbb","system_id":"levelo_inurba_marseille","lat":43.28428,"lon":5.34985,"is_reserved":false,"is_disabled":false,"rental_uris":{"android":"levelo://app?vid=8d2efc95-694f-445a-b640-143344917cbb","ios":"levelo://app?vid=8d2efc95-694f-445a-b640-143344917cbb"},"vehicle_type_id":"4","last_reported":1745507444,"current_range_meters":19600,"station_id":"ce4bhbh2rcd13ifvqepg","pricing_plan_id":"cebpf4jnsgd1na2vs0mg"},{"bike_id":"e94fc851-224e-4006-ac7c-425edb08c1c8","system_id":"levelo_inurba_marseille","lat":43.278327,"lon":5.392129,"is_reserved":false,"is_disabled":false,"rental_uris":{"android":"levelo://app?vid=e94fc851-224e-4006-ac7c-425edb08c1c8","ios":"levelo://app?vid=e94fc851-224e-4006-ac7c-425edb08c1c8"},"vehicle_type_id":"4","last_reported":1745507444,"current_range_meters":19600,"station_id":"ce4bhjp2rcd13ifvqga0","pricing_plan_id":"cebpf4jnsgd1na2vs0mg"},{"bike_id":"9ebec2c2-e4e2-4e72-8800-6cc2a0c85f32","system_id":"levelo_inurba_marseille","lat":43.32573,"lon":5.39427,"is_reserved":false,"is_disabled":false,"rental_uris":{"android":"levelo://app?vid=9ebec2c2-e4e2-4e72-8800-6cc2a0c85f32","ios":"levelo://app?vid=9ebec2c2-e4e2-4e72-8800-6cc2a0c85f32"},"vehicle_type_id":"4","last_reported":1745507444,"current_range_meters":19600,"station_id":"","pricing_plan_id":"cebpf4jnsgd1na2vs0mg"},{"bike_id":"a83b6dac-3607-467d-a9c6-55ec2a1862b9","system_id":"levelo_inurba_marseille","lat":43.30361,"lon":5.41864,"is_reserved":false,"is_disabled":false,"rental_uris":{"android":"levelo://app?vid=a83b6dac-3607-467d-a9c6-55ec2a1862b9","ios":"levelo://app?vid=a83b6dac-3607-467d-a9c6-55ec2a1862b9"},"vehicle_type_id":"4","last_reported":1745507444,"current_range_meters":19600,"station_id":"ce4bhop2rcd13ifvqh7g","pricing_plan_id":"cebpf4jnsgd1na2vs0mg"},{"bike_id":"306013d2-f8b5-4955-8dea-1bdbfcc81daf","system_id":"levelo_inurba_marseille","lat":43.2923,"lon":5.36062,"is_reserved":false,"is_disabled":false,"rental_uris":{"android":"levelo://app?vid=306013d2-f8b5-4955-8dea-1bdbfcc81daf","ios":"levelo://app?vid=306013d2-f8b5-4955-8dea-1bdbfcc81daf"},"vehicle_type_id":"4","last_reported":1745507444,"current_range_meters":19600,"station_id":"ce4bhbh2rcd13ifvqeqg","pricing_plan_id":"cebpf4jnsgd1na2vs0mg"},{"bike_id":"21023ffa-cc31-4484-9f97-82609e00847f","system_id":"levelo_inurba_marseille","lat":43.28426,"lon":5.35002,"is_reserved":false,"is_disabled":false,"rental_uris":{"android":"levelo://app?vid=21023ffa-cc31-4484-9f97-82609e00847f","ios":"levelo://app?vid=21023ffa-cc31-4484-9f97-82609e00847f"},"vehicle_type_id":"4","last_reported":1745507444,"current_range_meters":19600,"station_id":"ce4bhbh2rcd13ifvqepg","pricing_plan_id":"cebpf4jnsgd1na2vs0mg"},{"bike_id":"a9534af2-c56c-49eb-aabc-c55128336cd2","system_id":"levelo_inurba_marseille","lat":43.29846,"lon":5.36284,"is_reserved":false,"is_disabled":false,"rental_uris":{"android":"levelo://app?vid=a9534af2-c56c-49eb-aabc-c55128336cd2","ios":"levelo://app?vid=a9534af2-c56c-49eb-aabc-c55128336cd2"},"vehicle_type_id":"4","last_reported":1745507444,"current_range_meters":19600,"station_id":"ce4bgpp2rcd13ifvqc3g","pricing_plan_id":"cebpf4jnsgd1na2vs0mg"},{"bike_id":"28c655a4-6907-4d6b-b598-69019c264ec2","system_id":"levelo_inurba_marseille","lat":43.337444,"lon":5.374475,"is_reserved":false,"is_disabled":false,"rental_uris":{"android":"levelo://app?vid=28c655a4-6907-4d6b-b598-69019c264ec2","ios":"levelo://app?vid=28c655a4-6907-4d6b-b598-69019c264ec2"},"vehicle_type_id":"4","last_reported":1745507444,"current_range_meters":20000,"station_id":"","pricing_plan_id":"cebpf4jnsgd1na2vs0mg"},{"bike_id":"3decf576-c210-48eb-a79c-0116e14090ee","system_id":"levelo_inurba_marseille","lat":43.25824,"lon":5.39436,"is_reserved":false,"is_disabled":false,"rental_uris":{"android":"levelo://app?vid=3decf576-c210-48eb-a79c-0116e14090ee","ios":"levelo://app?vid=3decf576-c210-48eb-a79c-0116e14090ee"},"vehicle_type_id":"4","last_reported":1745507444,"current_range_meters":20000,"station_id":"ce4bhip2rcd13ifvqft0","pricing_plan_id":"cebpf4jnsgd1na2vs0mg"},{"bike_id":"9956abbc-fdd6-4bf9-b695-6732da8857de","system_id":"levelo_inurba_marseille","lat":43.29174,"lon":5.37164,"is_reserved":false,"is_disabled":false,"rental_uris":{"android":"levelo://app?vid=9956abbc-fdd6-4bf9-b695-6732da8857de","ios":"levelo://app?vid=9956abbc-fdd6-4bf9-b695-6732da8857de"},"vehicle_type_id":"4","last_reported":1745507444,"current_range_meters":20000,"station_id":"","pricing_plan_id":"cebpf4jnsgd1na2vs0mg"},{"bike_id":"83ac9049-d098-4d92-8945-5867ae36ac3b","system_id":"levelo_inurba_marseille","lat":43.32657,"lon":5.40994,"is_reserved":false,"is_disabled":false,"rental_uris":{"android":"levelo://app?vid=83ac9049-d098-4d92-8945-5867ae36ac3b","ios":"levelo://app?vid=83ac9049-d098-4d92-8945-5867ae36ac3b"},"vehicle_type_id":"4","last_reported":1745507444,"current_range_meters":20000,"station_id":"ce4bhpp2rcd13ifvqhgg","pricing_plan_id":"cebpf4jnsgd1na2vs0mg"},{"bike_id":"25c3e919-a227-4f46-9b6a-55bb7466da8a","system_id":"levelo_inurba_marseille","lat":43.2558,"lon":5.3824,"is_reserved":false,"is_disabled":false,"rental_uris":{"android":"levelo://app?vid=25c3e919-a227-4f46-9b6a-55bb7466da8a","ios":"levelo://app?vid=25c3e919-a227-4f46-9b6a-55bb7466da8a"},"vehicle_type_id":"4","last_reported":1745507444,"current_range_meters":20000,"station_id":"ce4bhih2rcd13ifvqfs0","pricing_plan_id":"cebpf4jnsgd1na2vs0mg"},{"bike_id":"50e5a7f0-99a8-4ab4-a85d-d39b0c715d6c","system_id":"levelo_inurba_marseille","lat":43.28462,"lon":5.35882,"is_reserved":false,"is_disabled":false,"rental_uris":{"android":"levelo://app?vid=50e5a7f0-99a8-4ab4-a85d-d39b0c715d6c","ios":"levelo://app?vid=50e5a7f0-99a8-4ab4-a85d-d39b0c715d6c"},"vehicle_type_id":"4","last_reported":1745507444,"current_range_meters":20000,"station_id":"ce4bhah2rcd13ifvqei0","pricing_plan_id":"cebpf4jnsgd1na2vs0mg"},{"bike_id":"98f5f8cf-8294-458e-9cd7-57e92d7f5749","system_id":"levelo_inurba_marseille","lat":43.30107,"lon":5.39091,"is_reserved":false,"is_disabled":false,"rental_uris":{"android":"levelo://app?vid=98f5f8cf-8294-458e-9cd7-57e92d7f5749","ios":"levelo://app?vid=98f5f8cf-8294-458e-9cd7-57e92d7f5749"},"vehicle_type_id":"4","last_reported":1745507444,"current_range_meters":20000,"station_id":"ce4bh192rcd13ifvqdb0","pricing_plan_id":"cebpf4jnsgd1na2vs0mg"},{"bike_id":"fe0b2788-ff1f-400e-88e3-cc28ef95bf21","system_id":"levelo_inurba_marseille","lat":43.23155,"lon":5.43742,"is_reserved":false,"is_disabled":false,"rental_uris":{"android":"levelo://app?vid=fe0b2788-ff1f-400e-88e3-cc28ef95bf21","ios":"levelo://app?vid=fe0b2788-ff1f-400e-88e3-cc28ef95bf21"},"vehicle_type_id":"4","last_reported":1745507444,"current_range_meters":19600,"station_id":"ce4bhmp2rcd13ifvqgog","pricing_plan_id":"cebpf4jnsgd1na2vs0mg"},{"bike_id":"e6bd335f-2061-430a-a060-7778e4a1c8a4","system_id":"levelo_inurba_marseille","lat":43.26562,"lon":5.37288,"is_reserved":false,"is_disabled":false,"rental_uris":{"android":"levelo://app?vid=e6bd335f-2061-430a-a060-7778e4a1c8a4","ios":"levelo://app?vid=e6bd335f-2061-430a-a060-7778e4a1c8a4"},"vehicle_type_id":"4","last_reported":1745507444,"current_range_meters":20400,"station_id":"ce4bhg12rcd13ifvqf70","pricing_plan_id":"cebpf4jnsgd1na2vs0mg"},{"bike_id":"ffd463e1-09c5-4907-aa6e-a954e016ff09","system_id":"levelo_inurba_marseille","lat":43.2587,"lon":5.39894,"is_reserved":false,"is_disabled":false,"rental_uris":{"android":"levelo://app?vid=ffd463e1-09c5-4907-aa6e-a954e016ff09","ios":"levelo://app?vid=ffd463e1-09c5-4907-aa6e-a954e016ff09"},"vehicle_type_id":"4","last_reported":1745507444,"current_range_meters":20000,"station_id":"ce4bhl92rcd13ifvqghg","pricing_plan_id":"cebpf4jnsgd1na2vs0mg"},{"bike_id":"b4543a36-eb59-4e5c-ae3e-e1993173fc16","system_id":"levelo_inurba_marseille","lat":43.29852,"lon":5.36281,"is_reserved":false,"is_disabled":false,"rental_uris":{"android":"levelo://app?vid=b4543a36-eb59-4e5c-ae3e-e1993173fc16","ios":"levelo://app?vid=b4543a36-eb59-4e5c-ae3e-e1993173fc16"},"vehicle_type_id":"4","last_reported":1745507444,"current_range_meters":20000,"station_id":"ce4bgpp2rcd13ifvqc3g","pricing_plan_id":"cebpf4jnsgd1na2vs0mg"},{"bike_id":"7d7b4552-caae-4918-bd61-48ca7160d176","system_id":"levelo_inurba_marseille","lat":43.30791,"lon":5.37639,"is_reserved":false,"is_disabled":false,"rental_uris":{"android":"levelo://app?vid=7d7b4552-caae-4918-bd61-48ca7160d176","ios":"levelo://app?vid=7d7b4552-caae-4918-bd61-48ca7160d176"},"vehicle_type_id":"4","last_reported":1745507444,"current_range_meters":20400,"station_id":"ce4bgv92rcd13ifvqcq0","pricing_plan_id":"cebpf4jnsgd1na2vs0mg"},{"bike_id":"8977a72e-85c1-4a01-9ad8-f75fc952bddc","system_id":"levelo_inurba_marseille","lat":43.293311,"lon":5.371439,"is_reserved":false,"is_disabled":false,"rental_uris":{"android":"levelo://app?vid=8977a72e-85c1-4a01-9ad8-f75fc952bddc","ios":"levelo://app?vid=8977a72e-85c1-4a01-9ad8-f75fc952bddc"},"vehicle_type_id":"4","last_reported":1745507444,"current_range_meters":20400,"station_id":"ce4bhbp2rcd13ifvqerg","pricing_plan_id":"cebpf4jnsgd1na2vs0mg"},{"bike_id":"829e6027-c98c-4052-9336-7fe801b0bc22","system_id":"levelo_inurba_marseille","lat":43.23208,"lon":5.4372,"is_reserved":false,"is_disabled":true,"rental_uris":{"android":"levelo://app?vid=829e6027-c98c-4052-9336-7fe801b0bc22","ios":"levelo://app?vid=829e6027-c98c-4052-9336-7fe801b0bc22"},"vehicle_type_id":"4","last_reported":1745507444,"current_range_meters":20400,"station_id":"","pricing_plan_id":"cebpf4jnsgd1na2vs0mg"},{"bike_id":"ead44704-ee62-499a-a7f6-6e3806514416","system_id":"levelo_inurba_marseille","lat":43.28615,"lon":5.35097,"is_reserved":false,"is_disabled":false,"rental_uris":{"android":"levelo://app?vid=ead44704-ee62-499a-a7f6-6e3806514416","ios":"levelo://app?vid=ead44704-ee62-499a-a7f6-6e3806514416"},"vehicle_type_id":"4","last_reported":1745507444,"current_range_meters":20400,"station_id":"ce4bhch2rcd13ifvqeug","pricing_plan_id":"cebpf4jnsgd1na2vs0mg"},{"bike_id":"d12d2088-aefb-4d46-a88f-8b202f12ca2c","system_id":"levelo_inurba_marseille","lat":43.25582,"lon":5.38243,"is_reserved":false,"is_disabled":false,"rental_uris":{"android":"levelo://app?vid=d12d2088-aefb-4d46-a88f-8b202f12ca2c","ios":"levelo://app?vid=d12d2088-aefb-4d46-a88f-8b202f12ca2c"},"vehicle_type_id":"4","last_reported":1745507444,"current_range_meters":20400,"station_id":"ce4bhih2rcd13ifvqfs0","pricing_plan_id":"cebpf4jnsgd1na2vs0mg"},{"bike_id":"ee5ced45-abe7-4180-84c9-32370e3e38b9","system_id":"levelo_inurba_marseille","lat":43.28276,"lon":5.35093,"is_reserved":false,"is_disabled":false,"rental_uris":{"android":"levelo://app?vid=ee5ced45-abe7-4180-84c9-32370e3e38b9","ios":"levelo://app?vid=ee5ced45-abe7-4180-84c9-32370e3e38b9"},"vehicle_type_id":"4","last_reported":1745507444,"current_range_meters":20400,"station_id":"ce4bhbp2rcd13ifvqerg","pricing_plan_id":"cebpf4jnsgd1na2vs0mg"},{"bike_id":"987d7900-bb2a-45cb-bed7-6d69f6fd4fa3","system_id":"levelo_inurba_marseille","lat":43.284876,"lon":5.38443,"is_reserved":false,"is_disabled":false,"rental_uris":{"android":"levelo://app?vid=987d7900-bb2a-45cb-bed7-6d69f6fd4fa3","ios":"levelo://app?vid=987d7900-bb2a-45cb-bed7-6d69f6fd4fa3"},"vehicle_type_id":"4","last_reported":1745507444,"current_range_meters":20400,"station_id":"ce4bh512rcd13ifvqe3g","pricing_plan_id":"cebpf4jnsgd1na2vs0mg"},{"bike_id":"91627ccc-a900-45c2-8479-3a89c7edb57c","system_id":"levelo_inurba_marseille","lat":43.29416,"lon":5.38621,"is_reserved":false,"is_disabled":false,"rental_uris":{"android":"levelo://app?vid=91627ccc-a900-45c2-8479-3a89c7edb57c","ios":"levelo://app?vid=91627ccc-a900-45c2-8479-3a89c7edb57c"},"vehicle_type_id":"4","last_reported":1745507444,"current_range_meters":20400,"station_id":"ce4bh2h2rcd13ifvqdh0","pricing_plan_id":"cebpf4jnsgd1na2vs0mg"},{"bike_id":"47da6bc0-b723-435b-83e9-d887fe159327","system_id":"levelo_inurba_marseille","lat":43.26027,"lon":5.37545,"is_reserved":false,"is_disabled":false,"rental_uris":{"android":"levelo://app?vid=47da6bc0-b723-435b-83e9-d887fe159327","ios":"levelo://app?vid=47da6bc0-b723-435b-83e9-d887fe159327"},"vehicle_type_id":"4","last_reported":1745507444,"current_range_meters":20400,"station_id":"ce4bhgh2rcd13ifvqfa0","pricing_plan_id":"cebpf4jnsgd1na2vs0mg"},{"bike_id":"02f9e6c4-a45a-433c-a71d-8a3b8a99fc1d","system_id":"levelo_inurba_marseille","lat":43.30789,"lon":5.43524,"is_reserved":false,"is_disabled":false,"rental_uris":{"android":"levelo://app?vid=02f9e6c4-a45a-433c-a71d-8a3b8a99fc1d","ios":"levelo://app?vid=02f9e6c4-a45a-433c-a71d-8a3b8a99fc1d"},"vehicle_type_id":"4","last_reported":1745507444,"current_range_meters":20400,"station_id":"ce4bhph2rcd13ifvqheg","pricing_plan_id":"cebpf4jnsgd1na2vs0mg"},{"bike_id":"d4eff854-6edb-49e3-a917-cdc9287a70a9","system_id":"levelo_inurba_marseille","lat":43.2942,"lon":5.38628,"is_reserved":false,"is_disabled":false,"rental_uris":{"android":"levelo://app?vid=d4eff854-6edb-49e3-a917-cdc9287a70a9","ios":"levelo://app?vid=d4eff854-6edb-49e3-a917-cdc9287a70a9"},"vehicle_type_id":"4","last_reported":1745507444,"current_range_meters":20400,"station_id":"ce4bh2h2rcd13ifvqdh0","pricing_plan_id":"cebpf4jnsgd1na2vs0mg"},{"bike_id":"e09e2232-097c-4690-a22f-c6914b41c62d","system_id":"levelo_inurba_marseille","lat":43.29278,"lon":5.38454,"is_reserved":false,"is_disabled":false,"rental_uris":{"android":"levelo://app?vid=e09e2232-097c-4690-a22f-c6914b41c62d","ios":"levelo://app?vid=e09e2232-097c-4690-a22f-c6914b41c62d"},"vehicle_type_id":"4","last_reported":1745507444,"current_range_meters":20400,"station_id":"ce4bh692rcd13ifvqea0","pricing_plan_id":"cebpf4jnsgd1na2vs0mg"},{"bike_id":"d8c09e5d-f7a6-43c6-97cd-0e3563308452","system_id":"levelo_inurba_marseille","lat":43.30581,"lon":5.3656,"is_reserved":false,"is_disabled":false,"rental_uris":{"android":"levelo://app?vid=d8c09e5d-f7a6-43c6-97cd-0e3563308452","ios":"levelo://app?vid=d8c09e5d-f7a6-43c6-97cd-0e3563308452"},"vehicle_type_id":"4","last_reported":1745507444,"current_range_meters":20400,"station_id":"ce4bgs12rcd13ifvqcag","pricing_plan_id":"cebpf4jnsgd1na2vs0mg"},{"bike_id":"0a14fdf2-2f2f-4bbf-95a3-89dc7e24db14","system_id":"levelo_inurba_marseille","lat":43.28262,"lon":5.35081,"is_reserved":false,"is_disabled":false,"rental_uris":{"android":"levelo://app?vid=0a14fdf2-2f2f-4bbf-95a3-89dc7e24db14","ios":"levelo://app?vid=0a14fdf2-2f2f-4bbf-95a3-89dc7e24db14"},"vehicle_type_id":"4","last_reported":1745507444,"current_range_meters":20800,"station_id":"ce4bhbp2rcd13ifvqerg","pricing_plan_id":"cebpf4jnsgd1na2vs0mg"},{"bike_id":"718167d4-751c-4692-87d9-8cbd566e14d2","system_id":"levelo_inurba_marseille","lat":43.297176,"lon":5.366137,"is_reserved":false,"is_disabled":false,"rental_uris":{"android":"levelo://app?vid=718167d4-751c-4692-87d9-8cbd566e14d2","ios":"levelo://app?vid=718167d4-751c-4692-87d9-8cbd566e14d2"},"vehicle_type_id":"4","last_reported":1745507444,"current_range_meters":20800,"station_id":"ce4bgn12rcd13ifvqbt0","pricing_plan_id":"cebpf4jnsgd1na2vs0mg"},{"bike_id":"3f4b96ff-c02f-4d59-a74f-71f62f18f0d3","system_id":"levelo_inurba_marseille","lat":43.281,"lon":5.37837,"is_reserved":false,"is_disabled":false,"rental_uris":{"android":"levelo://app?vid=3f4b96ff-c02f-4d59-a74f-71f62f18f0d3","ios":"levelo://app?vid=3f4b96ff-c02f-4d59-a74f-71f62f18f0d3"},"vehicle_type_id":"4","last_reported":1745507444,"current_range_meters":21600,"station_id":"ce4bha12rcd13ifvqee0","pricing_plan_id":"cebpf4jnsgd1na2vs0mg"},{"bike_id":"b7b393f0-b786-42df-989c-4a6cb72210f4","system_id":"levelo_inurba_marseille","lat":43.32372,"lon":5.36805,"is_reserved":false,"is_disabled":false,"rental_uris":{"android":"levelo://app?vid=b7b393f0-b786-42df-989c-4a6cb72210f4","ios":"levelo://app?vid=b7b393f0-b786-42df-989c-4a6cb72210f4"},"vehicle_type_id":"4","last_reported":1745507444,"current_range_meters":21600,"station_id":"ce4bhsh2rcd13ifvqi2g","pricing_plan_id":"cebpf4jnsgd1na2vs0mg"},{"bike_id":"765219bb-31b9-4904-a9b4-e89d06404fe7","system_id":"levelo_inurba_marseille","lat":43.29205,"lon":5.39327,"is_reserved":false,"is_disabled":false,"rental_uris":{"android":"levelo://app?vid=765219bb-31b9-4904-a9b4-e89d06404fe7","ios":"levelo://app?vid=765219bb-31b9-4904-a9b4-e89d06404fe7"},"vehicle_type_id":"4","last_reported":1745507444,"current_range_meters":20800,"station_id":"ce4bh192rcd13ifvqdd0","pricing_plan_id":"cebpf4jnsgd1na2vs0mg"},{"bike_id":"183bb44a-cd53-46d9-99be-6e047a2595e3","system_id":"levelo_inurba_marseille","lat":43.28434,"lon":5.3499,"is_reserved":false,"is_disabled":false,"rental_uris":{"android":"levelo://app?vid=183bb44a-cd53-46d9-99be-6e047a2595e3","ios":"levelo://app?vid=183bb44a-cd53-46d9-99be-6e047a2595e3"},"vehicle_type_id":"4","last_reported":1745507444,"current_range_meters":21600,"station_id":"ce4bhbh2rcd13ifvqepg","pricing_plan_id":"cebpf4jnsgd1na2vs0mg"},{"bike_id":"ff6f3e12-ff2b-40d2-b53f-1e063a90e6b2","system_id":"levelo_inurba_marseille","lat":43.27346,"lon":5.39121,"is_reserved":false,"is_disabled":false,"rental_uris":{"android":"levelo://app?vid=ff6f3e12-ff2b-40d2-b53f-1e063a90e6b2","ios":"levelo://app?vid=ff6f3e12-ff2b-40d2-b53f-1e063a90e6b2"},"vehicle_type_id":"4","last_reported":1745507444,"current_range_meters":21600,"station_id":"","pricing_plan_id":"cebpf4jnsgd1na2vs0mg"},{"bike_id":"5c8001ef-c531-490f-b793-cd3ce7ffc3a8","system_id":"levelo_inurba_marseille","lat":43.33026,"lon":5.39066,"is_reserved":false,"is_disabled":false,"rental_uris":{"android":"levelo://app?vid=5c8001ef-c531-490f-b793-cd3ce7ffc3a8","ios":"levelo://app?vid=5c8001ef-c531-490f-b793-cd3ce7ffc3a8"},"vehicle_type_id":"4","last_reported":1745507444,"current_range_meters":21600,"station_id":"ce4bhr92rcd13ifvqhrg","pricing_plan_id":"cebpf4jnsgd1na2vs0mg"},{"bike_id":"e691d2c8-4c90-4c42-90ca-e9a8cac50317","system_id":"levelo_inurba_marseille","lat":43.27991,"lon":5.40014,"is_reserved":false,"is_disabled":false,"rental_uris":{"android":"levelo://app?vid=e691d2c8-4c90-4c42-90ca-e9a8cac50317","ios":"levelo://app?vid=e691d2c8-4c90-4c42-90ca-e9a8cac50317"},"vehicle_type_id":"4","last_reported":1745507444,"current_range_meters":21600,"station_id":"ce4bho92rcd13ifvqh4g","pricing_plan_id":"cebpf4jnsgd1na2vs0mg"},{"bike_id":"ef00c763-fdab-4d8e-9137-b2c64e8d28db","system_id":"levelo_inurba_marseille","lat":43.26551,"lon":5.37299,"is_reserved":false,"is_disabled":false,"rental_uris":{"android":"levelo://app?vid=ef00c763-fdab-4d8e-9137-b2c64e8d28db","ios":"levelo://app?vid=ef00c763-fdab-4d8e-9137-b2c64e8d28db"},"vehicle_type_id":"4","last_reported":1745507444,"current_range_meters":22000,"station_id":"ce4bhg12rcd13ifvqf70","pricing_plan_id":"cebpf4jnsgd1na2vs0mg"},{"bike_id":"853d3a2f-605d-43d8-9c08-6fbc91222c3e","system_id":"levelo_inurba_marseille","lat":43.28725,"lon":5.37394,"is_reserved":false,"is_disabled":false,"rental_uris":{"android":"levelo://app?vid=853d3a2f-605d-43d8-9c08-6fbc91222c3e","ios":"levelo://app?vid=853d3a2f-605d-43d8-9c08-6fbc91222c3e"},"vehicle_type_id":"4","last_reported":1745507444,"current_range_meters":22000,"station_id":"ce4bh3p2rcd13ifvqdq0","pricing_plan_id":"cebpf4jnsgd1na2vs0mg"},{"bike_id":"cca02057-be85-4dbc-b033-ab10e8d969fc","system_id":"levelo_inurba_marseille","lat":43.21183,"lon":5.35094,"is_reserved":false,"is_disabled":false,"rental_uris":{"android":"levelo://app?vid=cca02057-be85-4dbc-b033-ab10e8d969fc","ios":"levelo://app?vid=cca02057-be85-4dbc-b033-ab10e8d969fc"},"vehicle_type_id":"4","last_reported":1745507444,"current_range_meters":22000,"station_id":"st_cvj6sg6p6f1abm77japg","pricing_plan_id":"cebpf4jnsgd1na2vs0mg"},{"bike_id":"e9b40b8c-aa8b-493b-9704-ac204b4fdb74","system_id":"levelo_inurba_marseille","lat":43.22532,"lon":5.34783,"is_reserved":false,"is_disabled":false,"rental_uris":{"android":"levelo://app?vid=e9b40b8c-aa8b-493b-9704-ac204b4fdb74","ios":"levelo://app?vid=e9b40b8c-aa8b-493b-9704-ac204b4fdb74"},"vehicle_type_id":"4","last_reported":1745507444,"current_range_meters":22400,"station_id":"st_cvj5dfep6f1abm77gieg","pricing_plan_id":"cebpf4jnsgd1na2vs0mg"},{"bike_id":"32d5e172-8e40-4731-b23a-ee369592d9e3","system_id":"levelo_inurba_marseille","lat":43.29042,"lon":5.36449,"is_reserved":false,"is_disabled":false,"rental_uris":{"android":"levelo://app?vid=32d5e172-8e40-4731-b23a-ee369592d9e3","ios":"levelo://app?vid=32d5e172-8e40-4731-b23a-ee369592d9e3"},"vehicle_type_id":"4","last_reported":1745507444,"current_range_meters":22400,"station_id":"","pricing_plan_id":"cebpf4jnsgd1na2vs0mg"},{"bike_id":"7269da80-93c7-401d-b3cc-bd5d3ba0c7ed","system_id":"levelo_inurba_marseille","lat":43.27386,"lon":5.36264,"is_reserved":false,"is_disabled":false,"rental_uris":{"android":"levelo://app?vid=7269da80-93c7-401d-b3cc-bd5d3ba0c7ed","ios":"levelo://app?vid=7269da80-93c7-401d-b3cc-bd5d3ba0c7ed"},"vehicle_type_id":"4","last_reported":1745507444,"current_range_meters":22400,"station_id":"ce4bhbh2rcd13ifvqeo0","pricing_plan_id":"cebpf4jnsgd1na2vs0mg"},{"bike_id":"6b9f8d6e-ebf0-4523-a6db-702f8f34cf81","system_id":"levelo_inurba_marseille","lat":43.27208,"lon":5.3915,"is_reserved":false,"is_disabled":false,"rental_uris":{"android":"levelo://app?vid=6b9f8d6e-ebf0-4523-a6db-702f8f34cf81","ios":"levelo://app?vid=6b9f8d6e-ebf0-4523-a6db-702f8f34cf81"},"vehicle_type_id":"4","last_reported":1745507444,"current_range_meters":22400,"station_id":"ce4bhhp2rcd13ifvqfm0","pricing_plan_id":"cebpf4jnsgd1na2vs0mg"},{"bike_id":"8262c6d3-07b7-4b29-92a4-aa36a0fd3a41","system_id":"levelo_inurba_marseille","lat":43.29539,"lon":5.38546,"is_reserved":false,"is_disabled":false,"rental_uris":{"android":"levelo://app?vid=8262c6d3-07b7-4b29-92a4-aa36a0fd3a41","ios":"levelo://app?vid=8262c6d3-07b7-4b29-92a4-aa36a0fd3a41"},"vehicle_type_id":"4","last_reported":1745507444,"current_range_meters":22800,"station_id":"ce4bgih2rcd13ifvqba0","pricing_plan_id":"cebpf4jnsgd1na2vs0mg"},{"bike_id":"2ac3fcb1-546d-4b01-af08-476302bebf89","system_id":"levelo_inurba_marseille","lat":43.26559,"lon":5.37283,"is_reserved":false,"is_disabled":false,"rental_uris":{"android":"levelo://app?vid=2ac3fcb1-546d-4b01-af08-476302bebf89","ios":"levelo://app?vid=2ac3fcb1-546d-4b01-af08-476302bebf89"},"vehicle_type_id":"4","last_reported":1745507444,"current_range_meters":22800,"station_id":"ce4bhg12rcd13ifvqf70","pricing_plan_id":"cebpf4jnsgd1na2vs0mg"},{"bike_id":"14a40030-80f5-4863-ba8f-ea4647db273e","system_id":"levelo_inurba_marseille","lat":43.29278,"lon":5.36845,"is_reserved":false,"is_disabled":false,"rental_uris":{"android":"levelo://app?vid=14a40030-80f5-4863-ba8f-ea4647db273e","ios":"levelo://app?vid=14a40030-80f5-4863-ba8f-ea4647db273e"},"vehicle_type_id":"4","last_reported":1745507444,"current_range_meters":22800,"station_id":"ce4bhbp2rcd13ifvqesg","pricing_plan_id":"cebpf4jnsgd1na2vs0mg"},{"bike_id":"2a783690-c2f8-456b-87ab-1a7f1ad564a3","system_id":"levelo_inurba_marseille","lat":43.28261,"lon":5.35079,"is_reserved":false,"is_disabled":false,"rental_uris":{"android":"levelo://app?vid=2a783690-c2f8-456b-87ab-1a7f1ad564a3","ios":"levelo://app?vid=2a783690-c2f8-456b-87ab-1a7f1ad564a3"},"vehicle_type_id":"4","last_reported":1745507444,"current_range_meters":22800,"station_id":"ce4bhbp2rcd13ifvqerg","pricing_plan_id":"cebpf4jnsgd1na2vs0mg"},{"bike_id":"7ee35cc3-2db3-48ed-8fd0-3f76ef98e1cc","system_id":"levelo_inurba_marseille","lat":43.260306,"lon":5.375472,"is_reserved":false,"is_disabled":false,"rental_uris":{"android":"levelo://app?vid=7ee35cc3-2db3-48ed-8fd0-3f76ef98e1cc","ios":"levelo://app?vid=7ee35cc3-2db3-48ed-8fd0-3f76ef98e1cc"},"vehicle_type_id":"4","last_reported":1745507444,"current_range_meters":22800,"station_id":"ce4bhgh2rcd13ifvqfa0","pricing_plan_id":"cebpf4jnsgd1na2vs0mg"},