{"last_updated":1746292081,"ttl":60,"version":"2.2","data":{"bikes":[{"bike_id":"587033e8-9114-4237-990e-deafe4f5ad79","system_id":"levelo_inurba_marseille","lat":43.24252,"lon":5.3705,"is_reserved":false,"is_disabled":true,"rental_uris":{"android":"levelo://app?vid=587033e8-9114-4237-990e-deafe4f5ad79","ios":"levelo://app?vid=587033e8-9114-4237-990e-deafe4f5ad79"},"vehicle_type_id":"4","last_reported":1746292082,"current_range_meters":0,"station_id":"","pricing_plan_id":"cebpf4jnsgd1na2vs0mg"},{"bike_id":"569e7c9b-5795-4a8d-9f35-8a5fca9defba","system_id":"levelo_inurba_marseille","lat":43.23173,"lon":5.39993,"is_reserved":false,"is_disabled":true,"rental_uris":{"android":"levelo://app?vid=569e7c9b-5795-4a8d-9f35-8a5fca9defba","ios":"levelo://app?vid=569e7c9b-5795-4a8d-9f35-8a5fca9defba"},"vehicle_type_id":"4","last_reported":1746292082,"current_range_meters":0,"station_id":"","pricing_plan_id":"cebpf4jnsgd1na2vs0mg"},{"bike_id":"f35a4c3e-288c-46e6-a156-ce98b822e31c","system_id":"levelo_inurba_marseille","lat":43.26603,"lon":5.39398,"is_reserved":false,"is_disabled":true,"rental_uris":{"android":"levelo://app?vid=f35a4c3e-288c-46e6-a156-ce98b822e31c","ios":"levelo://app?vid=f35a4c3e-288c-46e6-a156-ce98b822e31c"},"vehicle_type_id":"4","last_reported":1746292082,"current_range_meters":0,"station_id":"","pricing_plan_id":"cebpf4jnsgd1na2vs0mg"},{"bike_id":"76394e56-78cb-4fb5-944f-1216f0402e56","system_id":"levelo_inurba_marseille","lat":43.24233,"lon":5.3971,"is_reserved":false,"is_disabled":true,"rental_uris":{"android":"levelo://app?vid=76394e56-78cb-4fb5-944f-1216f0402e56","ios":"levelo://app?vid=76394e56-78cb-4fb5-944f-1216f0402e56"},"vehicle_type_id":"4","last_reported":1746292082,"current_range_meters":0,"station_id":"","pricing_plan_id":"cebpf4jnsgd1na2vs0mg"},{"bike_id":"27c926f4-2e8c-4fe5-8d0a-ce234b43b164","system_id":"levelo_inurba_marseille","lat":43.27876,"lon":5.38808,"is_reserved":false,"is_disabled":true,"rental_uris":{"android":"levelo://app?vid=27c926f4-2e8c-4fe5-8d0a-ce234b43b164","ios":"levelo://app?vid=27c926f4-2e8c-4fe5-8d0a-ce234b43b164"},"vehicle_type_id":"4","last_reported":1746292082,"current_range_meters":0,"station_id":"","pricing_plan_id":"cebpf4jnsgd1na2vs0mg"},{"bike_id":"7f770ba9-2e48-47c9-8bb4-942855273bad","system_id":"levelo_inurba_marseille","lat":43.25322,"lon":5.42391,"is_reserved":false,"is_disabled":true,"rental_uris":{"android":"levelo://app?vid=7f770ba9-2e48-47c9-8bb4-942855273bad","ios":"levelo://app?vid=7f770ba9-2e48-47c9-8bb4-942855273bad"},"vehicle_type_id":"4","last_reported":1746292082,"current_range_meters":0,"station_id":"","pricing_plan_id":"cebpf4jnsgd1na2vs0mg"},{"bike_id":"8df37787-a611-4ce6-9e65-032cb168f59b","system_id":"levelo_inurba_marseille","lat":43.21208,"lon":5.35081,"is_reserved":false,"is_disabled":true,"rental_uris":{"android":"levelo://app?vid=8df37787-a611-4ce6-9e65-032cb168f59b","ios":"levelo://app?vid=8df37787-a611-4ce6-9e65-032cb168f59b"},"vehicle_type_id":"4","last_reported":1746292082,"current_range_meters":0,"station_id":"","pricing_plan_id":"cebpf4jnsgd1na2vs0mg"},{"bike_id":"e93b949e-1738-47f2-ad13-8f512df2ffaf","system_id":"levelo_inurba_marseille","lat":43.28137,"lon":5.44354,"is_reserved":false,"is_disabled":true,"rental_uris":{"android":"levelo://app?vid=e93b949e-1738-47f2-ad13-8f512df2ffaf","ios":"levelo://app?vid=e93b949e-1738-47f2-ad13-8f512df2ffaf"},"vehicle_type_id":"4","last_reported":1746292082,"current_range_meters":0,"station_id":"","pricing_plan_id":"cebpf4jnsgd1na2vs0mg"},{"bike_id":"eaa331a0-47cb-4dfe-baf7-4281761642d9","system_id":"levelo_inurba_marseille","lat":43.31121,"lon":5.37767,"is_reserved":false,"is_disabled":true,"rental_uris":{"android":"levelo://app?vid=eaa331a0-47cb-4dfe-baf7-4281761642d9","ios":"levelo://app?vid=eaa331a0-47cb-4dfe-baf7-4281761642d9"},"vehicle_type_id":"4","last_reported":1746292082,"current_range_meters":0,"station_id":"ce4bgt92rcd13ifvqcg0","pricing_plan_id":"cebpf4jnsgd1na2vs0mg"},{"bike_id":"ce9abda1-9ff0-41ce-8b8f-d850474309ef","system_id":"levelo_inurba_marseille","lat":43.29021,"lon":5.39975,"is_reserved":false,"is_disabled":true,"rental_uris":{"android":"levelo://app?vid=ce9abda1-9ff0-41ce-8b8f-d850474309ef","ios":"levelo://app?vid=ce9abda1-9ff0-41ce-8b8f-d850474309ef"},"vehicle_type_id":"4","last_reported":1746292082,"current_range_meters":0,"station_id":"ce4bh392rcd13ifvqdm0","pricing_plan_id":"cebpf4jnsgd1na2vs0mg"},{"bike_id":"fd4973cc-31ee-4972-85d4-95f3463e9377","system_id":"levelo_inurba_marseille","lat":43.28365,"lon":5.38634,"is_reserved":false,"is_disabled":true,"rental_uris":{"android":"levelo://app?vid=fd4973cc-31ee-4972-85d4-95f3463e9377","ios":"levelo://app?vid=fd4973cc-31ee-4972-85d4-95f3463e9377"},"vehicle_type_id":"4","last_reported":1746292082,"current_range_meters":0,"station_id":"ce4bh492rcd13ifvqdvg","pricing_plan_id":"cebpf4jnsgd1na2vs0mg"},{"bike_id":"4313e6fc-4d39-4fd2-a7b2-652c6efbe2b4","system_id":"levelo_inurba_marseille","lat":43.29231,"lon":5.36073,"is_reserved":false,"is_disabled":true,"rental_uris":{"android":"levelo://app?vid=4313e6fc-4d39-4fd2-a7b2-652c6efbe2b4","ios":"levelo://app?vid=4313e6fc-4d39-4fd2-a7b2-652c6efbe2b4"},"vehicle_type_id":"4","last_reported":1746292082,"current_range_meters":0,"station_id":"ce4bhbh2rcd13ifvqeqg","pricing_plan_id":"cebpf4jnsgd1na2vs0mg"},{"bike_id":"6030c403-786a-4e20-be5b-12dd8b384519","system_id":"levelo_inurba_marseille","lat":43.292755,"lon":5.368427,"is_reserved":false,"is_disabled":true,"rental_uris":{"android":"levelo://app?vid=6030c403-786a-4e20-be5b-12dd8b384519","ios":"levelo://app?vid=6030c403-786a-4e20-be5b-12dd8b384519"},"vehicle_type_id":"4","last_reported":1746292082,"current_range_meters":0,"station_id":"ce4bhbp2rcd13ifvqesg","pricing_plan_id":"cebpf4jnsgd1na2vs0mg"},{"bike_id":"53140cb3-50ed-4cf0-93a8-a731064a7bf9","system_id":"levelo_inurba_marseille","lat":43.26554,"lon":5.37287,"is_reserved":false,"is_disabled":true,"rental_uris":{"android":"levelo://app?vid=53140cb3-50ed-4cf0-93a8-a731064a7bf9","ios":"levelo://app?vid=53140cb3-50ed-4cf0-93a8-a731064a7bf9"},"vehicle_type_id":"4","last_reported":1746292082,"current_range_meters":0,"station_id":"ce4bhg12rcd13ifvqf70","pricing_plan_id":"cebpf4jnsgd1na2vs0mg"},{"bike_id":"50c5f120-5e44-4dd0-86e5-a684f805ebfb","system_id":"levelo_inurba_marseille","lat":43.26678,"lon":5.38265,"is_reserved":false,"is_disabled":true,"rental_uris":{"android":"levelo://app?vid=50c5f120-5e44-4dd0-86e5-a684f805ebfb","ios":"levelo://app?vid=50c5f120-5e44-4dd0-86e5-a684f805ebfb"},"vehicle_type_id":"4","last_reported":1746292082,"current_range_meters":0,"station_id":"ce4bhg92rcd13ifvqf90","pricing_plan_id":"cebpf4jnsgd1na2vs0mg"},{"bike_id":"3ca3010a-151a-498b-9dec-d673b91d4efb","system_id":"levelo_inurba_marseille","lat":43.26683,"lon":5.38274,"is_reserved":false,"is_disabled":true,"rental_uris":{"android":"levelo://app?vid=3ca3010a-151a-498b-9dec-d673b91d4efb","ios":"levelo://app?vid=3ca3010a-151a-498b-9dec-d673b91d4efb"},"vehicle_type_id":"4","last_reported":1746292082,"current_range_meters":0,"station_id":"ce4bhg92rcd13ifvqf90","pricing_plan_id":"cebpf4jnsgd1na2vs0mg"},{"bike_id":"d0d9d7c2-2079-406d-a89d-35874a5a41d8","system_id":"levelo_inurba_marseille","lat":43.26688,"lon":5.38276,"is_reserved":false,"is_disabled":true,"rental_uris":{"android":"levelo://app?vid=d0d9d7c2-2079-406d-a89d-35874a5a41d8","ios":"levelo://app?vid=d0d9d7c2-2079-406d-a89d-35874a5a41d8"},"vehicle_type_id":"4","last_reported":1746292082,"current_range_meters":0,"station_id":"ce4bhg92rcd13ifvqf90","pricing_plan_id":"cebpf4jnsgd1na2vs0mg"},{"bike_id":"3586773f-b0f3-472a-8682-74030a58c9c7","system_id":"levelo_inurba_marseille","lat":43.26211,"lon":5.37438,"is_reserved":false,"is_disabled":true,"rental_uris":{"android":"levelo://app?vid=3586773f-b0f3-472a-8682-74030a58c9c7","ios":"levelo://app?vid=3586773f-b0f3-472a-8682-74030a58c9c7"},"vehicle_type_id":"4","last_reported":1746292082,"current_range_meters":0,"station_id":"ce4bhgp2rcd13ifvqfc0","pricing_plan_id":"cebpf4jnsgd1na2vs0mg"},{"bike_id":"57b09e54-ff00-4977-9421-103b1a408083","system_id":"levelo_inurba_marseille","lat":43.27314,"lon":5.3908,"is_reserved":false,"is_disabled":true,"rental_uris":{"android":"levelo://app?vid=57b09e54-ff00-4977-9421-103b1a408083","ios":"levelo://app?vid=57b09e54-ff00-4977-9421-103b1a408083"},"vehicle_type_id":"4","last_reported":1746292082,"current_range_meters":0,"station_id":"ce4bhgp2rcd13ifvqfe0","pricing_plan_id":"cebpf4jnsgd1na2vs0mg"},{"bike_id":"2d2fa6f3-69a7-40c6-9fe0-3d9cc26a2f04","system_id":"levelo_inurba_marseille","lat":43.26945,"lon":5.38656,"is_reserved":false,"is_disabled":true,"rental_uris":{"android":"levelo://app?vid=2d2fa6f3-69a7-40c6-9fe0-3d9cc26a2f04","ios":"levelo://app?vid=2d2fa6f3-69a7-40c6-9fe0-3d9cc26a2f04"},"vehicle_type_id":"4","last_reported":1746292082,"current_range_meters":0,"station_id":"ce4bhh92rcd13ifvqfh0","pricing_plan_id":"cebpf4jnsgd1na2vs0mg"},{"bike_id":"b9c16e01-d5da-4c07-b8b6-df3bf30ba0f7","system_id":"levelo_inurba_marseille","lat":43.24385,"lon":5.37066,"is_reserved":false,"is_disabled":true,"rental_uris":{"android":"levelo://app?vid=b9c16e01-d5da-4c07-b8b6-df3bf30ba0f7","ios":"levelo://app?vid=b9c16e01-d5da-4c07-b8b6-df3bf30ba0f7"},"vehicle_type_id":"4","last_reported":1746292082,"current_range_meters":0,"station_id":"ce4bhhh2rcd13ifvqfk0","pricing_plan_id":"cebpf4jnsgd1na2vs0mg"},{"bike_id":"0ab14a73-ffb0-4256-a790-173a2fc58965","system_id":"levelo_inurba_marseille","lat":43.24387,"lon":5.37068,"is_reserved":false,"is_disabled":true,"rental_uris":{"android":"levelo://app?vid=0ab14a73-ffb0-4256-a790-173a2fc58965","ios":"levelo://app?vid=0ab14a73-ffb0-4256-a790-173a2fc58965"},"vehicle_type_id":"4","last_reported":1746292082,"current_range_meters":0,"station_id":"ce4bhhh2rcd13ifvqfk0","pricing_plan_id":"cebpf4jnsgd1na2vs0mg"},{"bike_id":"ab9311c9-7fb8-47c8-babb-af88067002b2","system_id":"levelo_inurba_marseille","lat":43.27212,"lon":5.39193,"is_reserved":false,"is_disabled":true,"rental_uris":{"android":"levelo://app?vid=ab9311c9-7fb8-47c8-babb-af88067002b2","ios":"levelo://app?vid=ab9311c9-7fb8-47c8-babb-af88067002b2"},"vehicle_type_id":"4","last_reported":1746292082,"current_range_meters":0,"station_id":"ce4bhhp2rcd13ifvqfm0","pricing_plan_id":"cebpf4jnsgd1na2vs0mg"},{"bike_id":"c8af331d-fb7d-448b-b43e-eaaca1fbe129","system_id":"levelo_inurba_marseille","lat":43.23966,"lon":5.36665,"is_reserved":false,"is_disabled":true,"rental_uris":{"android":"levelo://app?vid=c8af331d-fb7d-448b-b43e-eaaca1fbe129","ios":"levelo://app?vid=c8af331d-fb7d-448b-b43e-eaaca1fbe129"},"vehicle_type_id":"4","last_reported":1746292082,"current_range_meters":0,"station_id":"ce4bhi12rcd13ifvqfp0","pricing_plan_id":"cebpf4jnsgd1na2vs0mg"},{"bike_id":"dc3c0932-8473-4eee-bedf-a6f126df2042","system_id":"levelo_inurba_marseille","lat":43.246677,"lon":5.38138,"is_reserved":false,"is_disabled":true,"rental_uris":{"android":"levelo://app?vid=dc3c0932-8473-4eee-bedf-a6f126df2042","ios":"levelo://app?vid=dc3c0932-8473-4eee-bedf-a6f126df2042"},"vehicle_type_id":"4","last_reported":1746292082,"current_range_meters":0,"station_id":"ce4bhih2rcd13ifvqfr0","pricing_plan_id":"cebpf4jnsgd1na2vs0mg"},{"bike_id":"b3aebea0-cb91-4032-a74f-8bfa46d58da0","system_id":"levelo_inurba_marseille","lat":43.26232,"lon":5.40448,"is_reserved":false,"is_disabled":true,"rental_uris":{"android":"levelo://app?vid=b3aebea0-cb91-4032-a74f-8bfa46d58da0","ios":"levelo://app?vid=b3aebea0-cb91-4032-a74f-8bfa46d58da0"},"vehicle_type_id":"4","last_reported":1746292082,"current_range_meters":0,"station_id":"ce4bhmh2rcd13ifvqgmg","pricing_plan_id":"cebpf4jnsgd1na2vs0mg"},{"bike_id":"7bc6ab14-7e4f-4d33-b982-58e5380c96bc","system_id":"levelo_inurba_marseille","lat":43.24182,"lon":5.39713,"is_reserved":false,"is_disabled":true,"rental_uris":{"android":"levelo://app?vid=7bc6ab14-7e4f-4d33-b982-58e5380c96bc","ios":"levelo://app?vid=7bc6ab14-7e4f-4d33-b982-58e5380c96bc"},"vehicle_type_id":"4","last_reported":1746292082,"current_range_meters":0,"station_id":"ce4bhn12rcd13ifvqgpg","pricing_plan_id":"cebpf4jnsgd1na2vs0mg"},{"bike_id":"a52e25a5-e5d7-460d-980a-34b930231439","system_id":"levelo_inurba_marseille","lat":43.335656,"lon":5.410337,"is_reserved":false,"is_disabled":true,"rental_uris":{"android":"levelo://app?vid=a52e25a5-e5d7-460d-980a-34b930231439","ios":"levelo://app?vid=a52e25a5-e5d7-460d-980a-34b930231439"},"vehicle_type_id":"4","last_reported":1746292082,"current_range_meters":0,"station_id":"ce4bhqh2rcd13ifvqhmg","pricing_plan_id":"cebpf4jnsgd1na2vs0mg"},{"bike_id":"f7c23ccb-dc4e-438d-9d29-2a4ddf13bf21","system_id":"levelo_inurba_marseille","lat":43.229411,"lon":5.353617,"is_reserved":false,"is_disabled":false,"rental_uris":{"android":"levelo://app?vid=f7c23ccb-dc4e-438d-9d29-2a4ddf13bf21","ios":"levelo://app?vid=f7c23ccb-dc4e-438d-9d29-2a4ddf13bf21"},"vehicle_type_id":"4","last_reported":1746292082,"current_range_meters":0,"station_id":"cpo3532slgdg3j2ikp40","pricing_plan_id":"cebpf4jnsgd1na2vs0mg"},{"bike_id":"8b5735ff-ea3e-4a85-b08e-71fcf6e5f408","system_id":"levelo_inurba_marseille","lat":43.28004,"lon":5.38814,"is_reserved":false,"is_disabled":true,"rental_uris":{"android":"levelo://app?vid=8b5735ff-ea3e-4a85-b08e-71fcf6e5f408","ios":"levelo://app?vid=8b5735ff-ea3e-4a85-b08e-71fcf6e5f408"},"vehicle_type_id":"4","last_reported":1746292082,"current_range_meters":400,"station_id":"","pricing_plan_id":"cebpf4jnsgd1na2vs0mg"},{"bike_id":"9497c20d-df29-4a32-85a6-fb586659486d","system_id":"levelo_inurba_marseille","lat":43.29322,"lon":5.37187,"is_reserved":false,"is_disabled":true,"rental_uris":{"android":"levelo://app?vid=9497c20d-df29-4a32-85a6-fb586659486d","ios":"levelo://app?vid=9497c20d-df29-4a32-85a6-fb586659486d"},"vehicle_type_id":"4","last_reported":1746292082,"current_range_meters":400,"station_id":"ce4bgh92rcd13ifvqb40","pricing_plan_id":"cebpf4jnsgd1na2vs0mg"},{"bike_id":"a54ae612-9601-4d2a-8057-652eed6a8d5e","system_id":"levelo_inurba_marseille","lat":43.31691,"lon":5.40456,"is_reserved":false,"is_disabled":true,"rental_uris":{"android":"levelo://app?vid=a54ae612-9601-4d2a-8057-652eed6a8d5e","ios":"levelo://app?vid=a54ae612-9601-4d2a-8057-652eed6a8d5e"},"vehicle_type_id":"4","last_reported":1746292082,"current_range_meters":400,"station_id":"ce4bh012rcd13ifvqd00","pricing_plan_id":"cebpf4jnsgd1na2vs0mg"},{"bike_id":"c3ef8462-5b44-4d58-860d-09ad7bb28bbb","system_id":"levelo_inurba_marseille","lat":43.28266,"lon":5.35068,"is_reserved":false,"is_disabled":true,"rental_uris":{"android":"levelo://app?vid=c3ef8462-5b44-4d58-860d-09ad7bb28bbb","ios":"levelo://app?vid=c3ef8462-5b44-4d58-860d-09ad7bb28bbb"},"vehicle_type_id":"4","last_reported":1746292082,"current_range_meters":400,"station_id":"ce4bhbp2rcd13ifvqerg","pricing_plan_id":"cebpf4jnsgd1na2vs0mg"},{"bike_id":"f87ff6f0-a17f-405b-9246-31f7c599db0f","system_id":"levelo_inurba_marseille","lat":43.26566,"lon":5.39013,"is_reserved":false,"is_disabled":true,"rental_uris":{"android":"levelo://app?vid=f87ff6f0-a17f-405b-9246-31f7c599db0f","ios":"levelo://app?vid=f87ff6f0-a17f-405b-9246-31f7c599db0f"},"vehicle_type_id":"4","last_reported":1746292082,"current_range_meters":400,"station_id":"ce4bhe12rcd13ifvqf30","pricing_plan_id":"cebpf4jnsgd1na2vs0mg"},{"bike_id":"6f99828e-0193-4067-9111-6aa670da39da","system_id":"levelo_inurba_marseille","lat":43.27959,"lon":5.38755,"is_reserved":false,"is_disabled":true,"rental_uris":{"android":"levelo://app?vid=6f99828e-0193-4067-9111-6aa670da39da","ios":"levelo://app?vid=6f99828e-0193-4067-9111-6aa670da39da"},"vehicle_type_id":"4","last_reported":1746292082,"current_range_meters":400,"station_id":"ce4bhg12rcd13ifvqf80","pricing_plan_id":"cebpf4jnsgd1na2vs0mg"},{"bike_id":"7f0dbaaa-6907-4799-bd33-6f893db4bd45","system_id":"levelo_inurba_marseille","lat":43.27923,"lon":5.38736,"is_reserved":false,"is_disabled":true,"rental_uris":{"android":"levelo://app?vid=7f0dbaaa-6907-4799-bd33-6f893db4bd45","ios":"levelo://app?vid=7f0dbaaa-6907-4799-bd33-6f893db4bd45"},"vehicle_type_id":"4","last_reported":1746292082,"current_range_meters":400,"station_id":"ce4bhg12rcd13ifvqf80","pricing_plan_id":"cebpf4jnsgd1na2vs0mg"},{"bike_id":"afccd1cf-927f-4b9a-a7be-8a9d262a137b","system_id":"levelo_inurba_marseille","lat":43.279,"lon":5.380097,"is_reserved":false,"is_disabled":true,"rental_uris":{"android":"levelo://app?vid=afccd1cf-927f-4b9a-a7be-8a9d262a137b","ios":"levelo://app?vid=afccd1cf-927f-4b9a-a7be-8a9d262a137b"},"vehicle_type_id":"4","last_reported":1746292082,"current_range_meters":800,"station_id":"ce4bhf92rcd13ifvqf50","pricing_plan_id":"cebpf4jnsgd1na2vs0mg"},{"bike_id":"3e6d4490-8892-403e-8da7-c6a8b174b7b9","system_id":"levelo_inurba_marseille","lat":43.248108,"lon":5.374521,"is_reserved":false,"is_disabled":true,"rental_uris":{"android":"levelo://app?vid=3e6d4490-8892-403e-8da7-c6a8b174b7b9","ios":"levelo://app?vid=3e6d4490-8892-403e-8da7-c6a8b174b7b9"},"vehicle_type_id":"4","last_reported":1746292082,"current_range_meters":800,"station_id":"ce4bhgh2rcd13ifvqfb0","pricing_plan_id":"cebpf4jnsgd1na2vs0mg"},{"bike_id":"61c09dff-ef62-4e7a-af36-d93bbe68cc03","system_id":"levelo_inurba_marseille","lat":43.31325,"lon":5.39702,"is_reserved":false,"is_disabled":true,"rental_uris":{"android":"levelo://app?vid=61c09dff-ef62-4e7a-af36-d93bbe68cc03","ios":"levelo://app?vid=61c09dff-ef62-4e7a-af36-d93bbe68cc03"},"vehicle_type_id":"4","last_reported":1746292082,"current_range_meters":1200,"station_id":"ce4bgvp2rcd13ifvqcu0","pricing_plan_id":"cebpf4jnsgd1na2vs0mg"},{"bike_id":"e5d91167-eea1-4b0b-82df-1dcffa378978","system_id":"levelo_inurba_marseille","lat":43.29032,"lon":5.39967,"is_reserved":false,"is_disabled":true,"rental_uris":{"android":"levelo://app?vid=e5d91167-eea1-4b0b-82df-1dcffa378978","ios":"levelo://app?vid=e5d91167-eea1-4b0b-82df-1dcffa378978"},"vehicle_type_id":"4","last_reported":1746292082,"current_range_meters":1200,"station_id":"ce4bh392rcd13ifvqdm0","pricing_plan_id":"cebpf4jnsgd1na2vs0mg"},{"bike_id":"9bd5d69d-c63b-49f3-9943-0eb8444d0be3","system_id":"levelo_inurba_marseille","lat":43.2656,"lon":5.39026,"is_reserved":false,"is_disabled":true,"rental_uris":{"android":"levelo://app?vid=9bd5d69d-c63b-49f3-9943-0eb8444d0be3","ios":"levelo://app?vid=9bd5d69d-c63b-49f3-9943-0eb8444d0be3"},"vehicle_type_id":"4","last_reported":1746292082,"current_range_meters":1200,"station_id":"ce4bhe12rcd13ifvqf30","pricing_plan_id":"cebpf4jnsgd1na2vs0mg"},{"bike_id":"5dd057ba-e56b-4ebe-8f33-73a812dc6139","system_id":"levelo_inurba_marseille","lat":43.24809,"lon":5.3746,"is_reserved":false,"is_disabled":true,"rental_uris":{"android":"levelo://app?vid=5dd057ba-e56b-4ebe-8f33-73a812dc6139","ios":"levelo://app?vid=5dd057ba-e56b-4ebe-8f33-73a812dc6139"},"vehicle_type_id":"4","last_reported":1746292082,"current_range_meters":1200,"station_id":"ce4bhgh2rcd13ifvqfb0","pricing_plan_id":"cebpf4jnsgd1na2vs0mg"},{"bike_id":"3276c8e9-086f-4b2a-aed1-e4ccbc4dc673","system_id":"levelo_inurba_marseille","lat":43.24807,"lon":5.37459,"is_reserved":false,"is_disabled":true,"rental_uris":{"android":"levelo://app?vid=3276c8e9-086f-4b2a-aed1-e4ccbc4dc673","ios":"levelo://app?vid=3276c8e9-086f-4b2a-aed1-e4ccbc4dc673"},"vehicle_type_id":"4","last_reported":1746292082,"current_range_meters":1200,"station_id":"ce4bhgh2rcd13ifvqfb0","pricing_plan_id":"cebpf4jnsgd1na2vs0mg"},{"bike_id":"deb9df1a-4d94-4572-85f7-64fca1d5a7fc","system_id":"levelo_inurba_marseille","lat":43.2549,"lon":5.37657,"is_reserved":false,"is_disabled":true,"rental_uris":{"android":"levelo://app?vid=deb9df1a-4d94-4572-85f7-64fca1d5a7fc","ios":"levelo://app?vid=deb9df1a-4d94-4572-85f7-64fca1d5a7fc"},"vehicle_type_id":"4","last_reported":1746292082,"current_range_meters":1200,"station_id":"ce4bhh12rcd13ifvqff0","pricing_plan_id":"cebpf4jnsgd1na2vs0mg"},{"bike_id":"d55c8237-2304-4efd-993e-dc727f0f1b6a","system_id":"levelo_inurba_marseille","lat":43.2251,"lon":5.34807,"is_reserved":false,"is_disabled":true,"rental_uris":{"android":"levelo://app?vid=d55c8237-2304-4efd-993e-dc727f0f1b6a","ios":"levelo://app?vid=d55c8237-2304-4efd-993e-dc727f0f1b6a"},"vehicle_type_id":"4","last_reported":1746292082,"current_range_meters":1200,"station_id":"st_cvj5dfep6f1abm77gieg","pricing_plan_id":"cebpf4jnsgd1na2vs0mg"},{"bike_id":"61d166aa-cddb-4dec-88f5-3589276023e3","system_id":"levelo_inurba_marseille","lat":43.24387,"lon":5.37061,"is_reserved":false,"is_disabled":true,"rental_uris":{"android":"levelo://app?vid=61d166aa-cddb-4dec-88f5-3589276023e3","ios":"levelo://app?vid=61d166aa-cddb-4dec-88f5-3589276023e3"},"vehicle_type_id":"4","last_reported":1746292082,"current_range_meters":1600,"station_id":"ce4bhhh2rcd13ifvqfk0","pricing_plan_id":"cebpf4jnsgd1na2vs0mg"},{"bike_id":"3aa8f361-a759-4622-86fa-c89f01d21d24","system_id":"levelo_inurba_marseille","lat":43.29547,"lon":5.42304,"is_reserved":false,"is_disabled":true,"rental_uris":{"android":"levelo://app?vid=3aa8f361-a759-4622-86fa-c89f01d21d24","ios":"levelo://app?vid=3aa8f361-a759-4622-86fa-c89f01d21d24"},"vehicle_type_id":"4","last_reported":1746292082,"current_range_meters":1600,"station_id":"ce4bhph2rcd13ifvqhdg","pricing_plan_id":"cebpf4jnsgd1na2vs0mg"},{"bike_id":"e17d9f80-62da-4783-b89f-6b44c1b83195","system_id":"levelo_inurba_marseille","lat":43.32555,"lon":5.41464,"is_reserved":false,"is_disabled":true,"rental_uris":{"android":"levelo://app?vid=e17d9f80-62da-4783-b89f-6b44c1b83195","ios":"levelo://app?vid=e17d9f80-62da-4783-b89f-6b44c1b83195"},"vehicle_type_id":"4","last_reported":1746292082,"current_range_meters":1600,"station_id":"ce4bhq12rcd13ifvqhhg","pricing_plan_id":"cebpf4jnsgd1na2vs0mg"},{"bike_id":"ff56c2c7-24d4-4c15-a18a-c1c9d681c87f","system_id":"levelo_inurba_marseille","lat":43.27978,"lon":5.36433,"is_reserved":false,"is_disabled":true,"rental_uris":{"android":"levelo://app?vid=ff56c2c7-24d4-4c15-a18a-c1c9d681c87f","ios":"levelo://app?vid=ff56c2c7-24d4-4c15-a18a-c1c9d681c87f"},"vehicle_type_id":"4","last_reported":1746292082,"current_range_meters":2000,"station_id":"","pricing_plan_id":"cebpf4jnsgd1na2vs0mg"},{"bike_id":"2be6c5ac-db75-4c9d-95c6-9c66882f14b8","system_id":"levelo_inurba_marseille","lat":43.278985,"lon":5.362984,"is_reserved":false,"is_disabled":true,"rental_uris":{"android":"levelo://app?vid=2be6c5ac-db75-4c9d-95c6-9c66882f14b8","ios":"levelo://app?vid=2be6c5ac-db75-4c9d-95c6-9c66882f14b8"},"vehicle_type_id":"4","last_reported":1746292082,"current_range_meters":2000,"station_id":"","pricing_plan_id":"cebpf4jnsgd1na2vs0mg"},{"bike_id":"727d4d5a-675e-4851-bf52-4f372a8a2373","system_id":"levelo_inurba_marseille","lat":43.229329,"lon":5.353735,"is_reserved":false,"is_disabled":false,"rental_uris":{"android":"levelo://app?vid=727d4d5a-675e-4851-bf52-4f372a8a2373","ios":"levelo://app?vid=727d4d5a-675e-4851-bf52-4f372a8a2373"},"vehicle_type_id":"4","last_reported":1746292082,"current_range_meters":2000,"station_id":"cpo3532slgdg3j2ikp40","pricing_plan_id":"cebpf4jnsgd1na2vs0mg"},{"bike_id":"2d87f24b-bb92-4f5a-9c64-611905425c8d","system_id":"levelo_inurba_marseille","lat":43.23667,"lon":5.39143,"is_reserved":false,"is_disabled":false,"rental_uris":{"android":"levelo://app?vid=2d87f24b-bb92-4f5a-9c64-611905425c8d","ios":"levelo://app?vid=2d87f24b-bb92-4f5a-9c64-611905425c8d"},"vehicle_type_id":"4","last_reported":1746292082,"current_range_meters":2800,"station_id":"","pricing_plan_id":"cebpf4jnsgd1na2vs0mg"},{"bike_id":"f73daf93-45c7-48c0-a61a-2d28ac89db8d","system_id":"levelo_inurba_marseille","lat":43.3392,"lon":5.42073,"is_reserved":false,"is_disabled":false,"rental_uris":{"android":"levelo://app?vid=f73daf93-45c7-48c0-a61a-2d28ac89db8d","ios":"levelo://app?vid=f73daf93-45c7-48c0-a61a-2d28ac89db8d"},"vehicle_type_id":"4","last_reported":1746292082,"current_range_meters":2800,"station_id":"","pricing_plan_id":"cebpf4jnsgd1na2vs0mg"},{"bike_id":"2148f30e-c538-49df-a58d-ad5d4290e5e9","system_id":"levelo_inurba_marseille","lat":43.30935,"lon":5.4014,"is_reserved":false,"is_disabled":false,"rental_uris":{"android":"levelo://app?vid=2148f30e-c538-49df-a58d-ad5d4290e5e9","ios":"levelo://app?vid=2148f30e-c538-49df-a58d-ad5d4290e5e9"},"vehicle_type_id":"4","last_reported":1746292082,"current_range_meters":2800,"station_id":"ce4bgvp2rcd13ifvqct0","pricing_plan_id":"cebpf4jnsgd1na2vs0mg"},{"bike_id":"23b283ae-5204-4ae5-b4af-a309f9471ccb","system_id":"levelo_inurba_marseille","lat":43.28479,"lon":5.38417,"is_reserved":false,"is_disabled":false,"rental_uris":{"android":"levelo://app?vid=23b283ae-5204-4ae5-b4af-a309f9471ccb","ios":"levelo://app?vid=23b283ae-5204-4ae5-b4af-a309f9471ccb"},"vehicle_type_id":"4","last_reported":1746292082,"current_range_meters":2800,"station_id":"ce4bh512rcd13ifvqe3g","pricing_plan_id":"cebpf4jnsgd1na2vs0mg"},{"bike_id":"b40940dc-76c1-4c26-92ef-39758ccceb58","system_id":"levelo_inurba_marseille","lat":43.29009,"lon":5.35619,"is_reserved":false,"is_disabled":false,"rental_uris":{"android":"levelo://app?vid=b40940dc-76c1-4c26-92ef-39758ccceb58","ios":"levelo://app?vid=b40940dc-76c1-4c26-92ef-39758ccceb58"},"vehicle_type_id":"4","last_reported":1746292082,"current_range_meters":2800,"station_id":"ce4bhb92rcd13ifvqen0","pricing_plan_id":"cebpf4jnsgd1na2vs0mg"},{"bike_id":"6c2d9dea-a963-48ef-a2c3-3b7589a5f5e1","system_id":"levelo_inurba_marseille","lat":43.24074,"lon":5.3776,"is_reserved":false,"is_disabled":false,"rental_uris":{"android":"levelo://app?vid=6c2d9dea-a963-48ef-a2c3-3b7589a5f5e1","ios":"levelo://app?vid=6c2d9dea-a963-48ef-a2c3-3b7589a5f5e1"},"vehicle_type_id":"4","last_reported":1746292082,"current_range_meters":2800,"station_id":"ce4bhnp2rcd13ifvqgvg","pricing_plan_id":"cebpf4jnsgd1na2vs0mg"},{"bike_id":"e0d914dc-d704-46fd-9fc0-00453ecddbd3","system_id":"levelo_inurba_marseille","lat":43.296234,"lon":5.37712,"is_reserved":false,"is_disabled":false,"rental_uris":{"android":"levelo://app?vid=e0d914dc-d704-46fd-9fc0-00453ecddbd3","ios":"levelo://app?vid=e0d914dc-d704-46fd-9fc0-00453ecddbd3"},"vehicle_type_id":"4","last_reported":1746292082,"current_range_meters":3200,"station_id":"ce4bgi92rcd13ifvqb90","pricing_plan_id":"cebpf4jnsgd1na2vs0mg"},{"bike_id":"207dc81b-6862-422f-a2e0-3a8bb3566f4e","system_id":"levelo_inurba_marseille","lat":43.28262,"lon":5.35062,"is_reserved":false,"is_disabled":false,"rental_uris":{"android":"levelo://app?vid=207dc81b-6862-422f-a2e0-3a8bb3566f4e","ios":"levelo://app?vid=207dc81b-6862-422f-a2e0-3a8bb3566f4e"},"vehicle_type_id":"4","last_reported":1746292082,"current_range_meters":3200,"station_id":"ce4bhbp2rcd13ifvqerg","pricing_plan_id":"cebpf4jnsgd1na2vs0mg"},{"bike_id":"7971fe93-5f1d-4a59-8508-b415e64fcb18","system_id":"levelo_inurba_marseille","lat":43.3098,"lon":5.37415,"is_reserved":false,"is_disabled":false,"rental_uris":{"android":"levelo://app?vid=7971fe93-5f1d-4a59-8508-b415e64fcb18","ios":"levelo://app?vid=7971fe93-5f1d-4a59-8508-b415e64fcb18"},"vehicle_type_id":"4","last_reported":1746292082,"current_range_meters":3600,"station_id":"","pricing_plan_id":"cebpf4jnsgd1na2vs0mg"},{"bike_id":"3db370a8-de2f-4aa9-a8f8-dd5b6c39d1da","system_id":"levelo_inurba_marseille","lat":43.28472,"lon":5.38407,"is_reserved":false,"is_disabled":false,"rental_uris":{"android":"levelo://app?vid=3db370a8-de2f-4aa9-a8f8-dd5b6c39d1da","ios":"levelo://app?vid=3db370a8-de2f-4aa9-a8f8-dd5b6c39d1da"},"vehicle_type_id":"4","last_reported":1746292082,"current_range_meters":3600,"station_id":"ce4bh512rcd13ifvqe3g","pricing_plan_id":"cebpf4jnsgd1na2vs0mg"},{"bike_id":"d935cf57-4bad-4859-9008-f99023164d2b","system_id":"levelo_inurba_marseille","lat":43.28154,"lon":5.42642,"is_reserved":false,"is_disabled":false,"rental_uris":{"android":"levelo://app?vid=d935cf57-4bad-4859-9008-f99023164d2b","ios":"levelo://app?vid=d935cf57-4bad-4859-9008-f99023164d2b"},"vehicle_type_id":"4","last_reported":1746292082,"current_range_meters":3600,"station_id":"ce4bhnh2rcd13ifvqgug","pricing_plan_id":"cebpf4jnsgd1na2vs0mg"},{"bike_id":"d84c1583-df2f-4f17-bae4-b6e52e5df700","system_id":"levelo_inurba_marseille","lat":43.312211,"lon":5.368618,"is_reserved":false,"is_disabled":false,"rental_uris":{"android":"levelo://app?vid=d84c1583-df2f-4f17-bae4-b6e52e5df700","ios":"levelo://app?vid=d84c1583-df2f-4f17-bae4-b6e52e5df700"},"vehicle_type_id":"4","last_reported":1746292082,"current_range_meters":4000,"station_id":"ce4bgl92rcd13ifvqbq0","pricing_plan_id":"cebpf4jnsgd1na2vs0mg"},{"bike_id":"1b416633-0ecb-46a4-9815-58e8723e7235","system_id":"levelo_inurba_marseille","lat":43.28273,"lon":5.35061,"is_reserved":false,"is_disabled":false,"rental_uris":{"android":"levelo://app?vid=1b416633-0ecb-46a4-9815-58e8723e7235","ios":"levelo://app?vid=1b416633-0ecb-46a4-9815-58e8723e7235"},"vehicle_type_id":"4","last_reported":1746292082,"current_range_meters":4000,"station_id":"ce4bhbp2rcd13ifvqerg","pricing_plan_id":"cebpf4jnsgd1na2vs0mg"},{"bike_id":"7eec8826-3715-497a-b870-8308042a5e73","system_id":"levelo_inurba_marseille","lat":43.26784,"lon":5.39417,"is_reserved":false,"is_disabled":false,"rental_uris":{"android":"levelo://app?vid=7eec8826-3715-497a-b870-8308042a5e73","ios":"levelo://app?vid=7eec8826-3715-497a-b870-8308042a5e73"},"vehicle_type_id":"4","last_reported":1746292082,"current_range_meters":4000,"station_id":"ce4bhh12rcd13ifvqfg0","pricing_plan_id":"cebpf4jnsgd1na2vs0mg"},{"bike_id":"d314cc64-a4e6-46f7-b33e-9bea61a44ed2","system_id":"levelo_inurba_marseille","lat":43.27808,"lon":5.40708,"is_reserved":false,"is_disabled":false,"rental_uris":{"android":"levelo://app?vid=d314cc64-a4e6-46f7-b33e-9bea61a44ed2","ios":"levelo://app?vid=d314cc64-a4e6-46f7-b33e-9bea61a44ed2"},"vehicle_type_id":"4","last_reported":1746292082,"current_range_meters":4000,"station_id":"ce4bhnh2rcd13ifvqgtg","pricing_plan_id":"cebpf4jnsgd1na2vs0mg"},{"bike_id":"6837f59f-183d-40b7-9bdc-8777705754c0","system_id":"levelo_inurba_marseille","lat":43.26059,"lon":5.39397,"is_reserved":false,"is_disabled":false,"rental_uris":{"android":"levelo://app?vid=6837f59f-183d-40b7-9bdc-8777705754c0","ios":"levelo://app?vid=6837f59f-183d-40b7-9bdc-8777705754c0"},"vehicle_type_id":"4","last_reported":1746292082,"current_range_meters":4400,"station_id":"ce4bhh92rcd13ifvqfj0","pricing_plan_id":"cebpf4jnsgd1na2vs0mg"},{"bike_id":"19652082-117f-4aad-ab81-b123da093307","system_id":"levelo_inurba_marseille","lat":43.25115,"lon":5.40316,"is_reserved":false,"is_disabled":false,"rental_uris":{"android":"levelo://app?vid=19652082-117f-4aad-ab81-b123da093307","ios":"levelo://app?vid=19652082-117f-4aad-ab81-b123da093307"},"vehicle_type_id":"4","last_reported":1746292082,"current_range_meters":4800,"station_id":"ce4bhlh2rcd13ifvqgig","pricing_plan_id":"cebpf4jnsgd1na2vs0mg"},{"bike_id":"39d83911-e17e-4776-b8f2-6450602c8696","system_id":"levelo_inurba_marseille","lat":43.29896,"lon":5.43662,"is_reserved":false,"is_disabled":false,"rental_uris":{"android":"levelo://app?vid=39d83911-e17e-4776-b8f2-6450602c8696","ios":"levelo://app?vid=39d83911-e17e-4776-b8f2-6450602c8696"},"vehicle_type_id":"4","last_reported":1746292082,"current_range_meters":4800,"station_id":"ce4bhpp2rcd13ifvqhfg","pricing_plan_id":"cebpf4jnsgd1na2vs0mg"},{"bike_id":"7c3efffb-05f6-42b5-91cd-baa68e225089","system_id":"levelo_inurba_marseille","lat":43.30891,"lon":5.37291,"is_reserved":false,"is_disabled":false,"rental_uris":{"android":"levelo://app?vid=7c3efffb-05f6-42b5-91cd-baa68e225089","ios":"levelo://app?vid=7c3efffb-05f6-42b5-91cd-baa68e225089"},"vehicle_type_id":"4","last_reported":1746292082,"current_range_meters":5600,"station_id":"","pricing_plan_id":"cebpf4jnsgd1na2vs0mg"},{"bike_id":"04da24b2-e786-4452-afcd-a0405035617b","system_id":"levelo_inurba_marseille","lat":43.25493,"lon":5.37649,"is_reserved":false,"is_disabled":false,"rental_uris":{"android":"levelo://app?vid=04da24b2-e786-4452-afcd-a0405035617b","ios":"levelo://app?vid=04da24b2-e786-4452-afcd-a0405035617b"},"vehicle_type_id":"4","last_reported":1746292082,"current_range_meters":5600,"station_id":"ce4bhh12rcd13ifvqff0","pricing_plan_id":"cebpf4jnsgd1na2vs0mg"},{"bike_id":"a2408f06-8f28-4dbe-b6b1-8f9176106a1b","system_id":"levelo_inurba_marseille","lat":43.28079,"lon":5.39657,"is_reserved":false,"is_disabled":false,"rental_uris":{"android":"levelo://app?vid=a2408f06-8f28-4dbe-b6b1-8f9176106a1b","ios":"levelo://app?vid=a2408f06-8f28-4dbe-b6b1-8f9176106a1b"},"vehicle_type_id":"4","last_reported":1746292082,"current_range_meters":6000,"station_id":"ce4bho12rcd13ifvqh2g","pricing_plan_id":"cebpf4jnsgd1na2vs0mg"},{"bike_id":"4bd5cff5-5eb6-4272-aefb-9e2616f0a1e8","system_id":"levelo_inurba_marseille","lat":43.28697,"lon":5.3739,"is_reserved":false,"is_disabled":false,"rental_uris":{"android":"levelo://app?vid=4bd5cff5-5eb6-4272-aefb-9e2616f0a1e8","ios":"levelo://app?vid=4bd5cff5-5eb6-4272-aefb-9e2616f0a1e8"},"vehicle_type_id":"4","last_reported":1746292082,"current_range_meters":6400,"station_id":"ce4bh3p2rcd13ifvqdq0","pricing_plan_id":"cebpf4jnsgd1na2vs0mg"},{"bike_id":"9e90a535-2e40-49d3-9ff6-fecfbc01d88e","system_id":"levelo_inurba_marseille","lat":43.28715,"lon":5.37931,"is_reserved":false,"is_disabled":false,"rental_uris":{"android":"levelo://app?vid=9e90a535-2e40-49d3-9ff6-fecfbc01d88e","ios":"levelo://app?vid=9e90a535-2e40-49d3-9ff6-fecfbc01d88e"},"vehicle_type_id":"4","last_reported":1746292082,"current_range_meters":6400,"station_id":"ce4bh9p2rcd13ifvqec0","pricing_plan_id":"cebpf4jnsgd1na2vs0mg"},{"bike_id":"62b6a680-5f99-465a-98b6-0efe3ef83813","system_id":"levelo_inurba_marseille","lat":43.23202,"lon":5.35575,"is_reserved":false,"is_disabled":false,"rental_uris":{"android":"levelo://app?vid=62b6a680-5f99-465a-98b6-0efe3ef83813","ios":"levelo://app?vid=62b6a680-5f99-465a-98b6-0efe3ef83813"},"vehicle_type_id":"4","last_reported":1746292082,"current_range_meters":6400,"station_id":"ce4bhu92rcd13ifvqi70","pricing_plan_id":"cebpf4jnsgd1na2vs0mg"},{"bike_id":"000680cf-eb00-4f3f-b2e1-6f1f75efd0e5","system_id":"levelo_inurba_marseille","lat":43.31921,"lon":5.37145,"is_reserved":false,"is_disabled":false,"rental_uris":{"android":"levelo://app?vid=000680cf-eb00-4f3f-b2e1-6f1f75efd0e5","ios":"levelo://app?vid=000680cf-eb00-4f3f-b2e1-6f1f75efd0e5"},"vehicle_type_id":"4","last_reported":1746292082,"current_range_meters":6800,"station_id":"","pricing_plan_id":"cebpf4jnsgd1na2vs0mg"},{"bike_id":"25c59db8-6802-4979-80c5-27ea3b9f3f10","system_id":"levelo_inurba_marseille","lat":43.30135,"lon":5.38781,"is_reserved":false,"is_disabled":false,"rental_uris":{"android":"levelo://app?vid=25c59db8-6802-4979-80c5-27ea3b9f3f10","ios":"levelo://app?vid=25c59db8-6802-4979-80c5-27ea3b9f3f10"},"vehicle_type_id":"4","last_reported":1746292082,"current_range_meters":6800,"station_id":"ce4bghh2rcd13ifvqb60","pricing_plan_id":"cebpf4jnsgd1na2vs0mg"},{"bike_id":"bc51d3e2-e5b0-443c-82d9-84d60753a505","system_id":"levelo_inurba_marseille","lat":43.24803,"lon":5.37454,"is_reserved":false,"is_disabled":false,"rental_uris":{"android":"levelo://app?vid=bc51d3e2-e5b0-443c-82d9-84d60753a505","ios":"levelo://app?vid=bc51d3e2-e5b0-443c-82d9-84d60753a505"},"vehicle_type_id":"4","last_reported":1746292082,"current_range_meters":6800,"station_id":"ce4bhgh2rcd13ifvqfb0","pricing_plan_id":"cebpf4jnsgd1na2vs0mg"},{"bike_id":"23d31913-5aa9-415e-8466-031734edfacd","system_id":"levelo_inurba_marseille","lat":43.26213,"lon":5.37438,"is_reserved":false,"is_disabled":false,"rental_uris":{"android":"levelo://app?vid=23d31913-5aa9-415e-8466-031734edfacd","ios":"levelo://app?vid=23d31913-5aa9-415e-8466-031734edfacd"},"vehicle_type_id":"4","last_reported":1746292082,"current_range_meters":6800,"station_id":"ce4bhgp2rcd13ifvqfc0","pricing_plan_id":"cebpf4jnsgd1na2vs0mg"},{"bike_id":"3f936479-e3e5-4598-aed5-e742cb53a753","system_id":"levelo_inurba_marseille","lat":43.24388,"lon":5.37066,"is_reserved":false,"is_disabled":false,"rental_uris":{"android":"levelo://app?vid=3f936479-e3e5-4598-aed5-e742cb53a753","ios":"levelo://app?vid=3f936479-e3e5-4598-aed5-e742cb53a753"},"vehicle_type_id":"4","last_reported":1746292082,"current_range_meters":6800,"station_id":"ce4bhhh2rcd13ifvqfk0","pricing_plan_id":"cebpf4jnsgd1na2vs0mg"},{"bike_id":"b6fcc368-d669-4a30-a903-3eed1f7d337b","system_id":"levelo_inurba_marseille","lat":43.32222,"lon":5.37606,"is_reserved":false,"is_disabled":false,"rental_uris":{"android":"levelo://app?vid=b6fcc368-d669-4a30-a903-3eed1f7d337b","ios":"levelo://app?vid=b6fcc368-d669-4a30-a903-3eed1f7d337b"},"vehicle_type_id":"4","last_reported":1746292082,"current_range_meters":7200,"station_id":"","pricing_plan_id":"cebpf4jnsgd1na2vs0mg"},{"bike_id":"4283e5a9-2ac1-4689-850c-a11a14042a45","system_id":"levelo_inurba_marseille","lat":43.30126,"lon":5.39882,"is_reserved":false,"is_disabled":false,"rental_uris":{"android":"levelo://app?vid=4283e5a9-2ac1-4689-850c-a11a14042a45","ios":"levelo://app?vid=4283e5a9-2ac1-4689-850c-a11a14042a45"},"vehicle_type_id":"4","last_reported":1746292082,"current_range_meters":7200,"station_id":"ce4bh0h2rcd13ifvqd40","pricing_plan_id":"cebpf4jnsgd1na2vs0mg"},{"bike_id":"01ae3dd9-5d9a-49d4-916c-9c61da590b7e","system_id":"levelo_inurba_marseille","lat":43.284076,"lon":5.375049,"is_reserved":false,"is_disabled":false,"rental_uris":{"android":"levelo://app?vid=01ae3dd9-5d9a-49d4-916c-9c61da590b7e","ios":"levelo://app?vid=01ae3dd9-5d9a-49d4-916c-9c61da590b7e"},"vehicle_type_id":"4","last_reported":1746292082,"current_range_meters":7200,"station_id":"ce4bh412rcd13ifvqds0","pricing_plan_id":"cebpf4jnsgd1na2vs0mg"},{"bike_id":"61ef1331-56b9-48b8-9831-016b54a7d76e","system_id":"levelo_inurba_marseille","lat":43.260435,"lon":5.37538,"is_reserved":false,"is_disabled":false,"rental_uris":{"android":"levelo://app?vid=61ef1331-56b9-48b8-9831-016b54a7d76e","ios":"levelo://app?vid=61ef1331-56b9-48b8-9831-016b54a7d76e"},"vehicle_type_id":"4","last_reported":1746292082,"current_range_meters":7200,"station_id":"ce4bhgh2rcd13ifvqfa0","pricing_plan_id":"cebpf4jnsgd1na2vs0mg"},{"bike_id":"51900178-50f0-47b3-94f6-452e3ee783c8","system_id":"levelo_inurba_marseille","lat":43.29897,"lon":5.43671,"is_reserved":false,"is_disabled":false,"rental_uris":{"android":"levelo://app?vid=51900178-50f0-47b3-94f6-452e3ee783c8","ios":"levelo://app?vid=51900178-50f0-47b3-94f6-452e3ee783c8"},"vehicle_type_id":"4","last_reported":1746292082,"current_range_meters":7200,"station_id":"ce4bhpp2rcd13ifvqhfg","pricing_plan_id":"cebpf4jnsgd1na2vs0mg"},{"bike_id":"a9a798d4-6d3d-4c94-bfaf-1a25128a47c8","system_id":"levelo_inurba_marseille","lat":43.22939,"lon":5.35387,"is_reserved":false,"is_disabled":false,"rental_uris":{"android":"levelo://app?vid=a9a798d4-6d3d-4c94-bfaf-1a25128a47c8","ios":"levelo://app?vid=a9a798d4-6d3d-4c94-bfaf-1a25128a47c8"},"vehicle_type_id":"4","last_reported":1746292082,"current_range_meters":7200,"station_id":"cpo3532slgdg3j2ikp40","pricing_plan_id":"cebpf4jnsgd1na2vs0mg"},{"bike_id":"7575df68-19a2-4d90-b154-9fc2427a96b0","system_id":"levelo_inurba_marseille","lat":43.318177,"lon":5.373813,"is_reserved":false,"is_disabled":false,"rental_uris":{"android":"levelo://app?vid=7575df68-19a2-4d90-b154-9fc2427a96b0","ios":"levelo://app?vid=7575df68-19a2-4d90-b154-9fc2427a96b0"},"vehicle_type_id":"4","last_reported":1746292082,"current_range_meters":8000,"station_id":"","pricing_plan_id":"cebpf4jnsgd1na2vs0mg"},{"bike_id":"e3462c87-87c9-4837-a441-3715569adec9","system_id":"levelo_inurba_marseille","lat":43.28411,"lon":5.34997,"is_reserved":false,"is_disabled":false,"rental_uris":{"android":"levelo://app?vid=e3462c87-87c9-4837-a441-3715569adec9","ios":"levelo://app?vid=e3462c87-87c9-4837-a441-3715569adec9"},"vehicle_type_id":"4","last_reported":1746292082,"current_range_meters":8000,"station_id":"ce4bhbh2rcd13ifvqepg","pricing_plan_id":"cebpf4jnsgd1na2vs0mg"},{"bike_id":"b439a1b7-5b23-4bad-b4ff-41d88e52c14c","system_id":"levelo_inurba_marseille","lat":43.29279,"lon":5.36842,"is_reserved":false,"is_disabled":false,"rental_uris":{"android":"levelo://app?vid=b439a1b7-5b23-4bad-b4ff-41d88e52c14c","ios":"levelo://app?vid=b439a1b7-5b23-4bad-b4ff-41d88e52c14c"},"vehicle_type_id":"4","last_reported":1746292082,"current_range_meters":8000,"station_id":"ce4bhbp2rcd13ifvqesg","pricing_plan_id":"cebpf4jnsgd1na2vs0mg"},{"bike_id":"db721641-4571-4f50-bcd4-7b9f98305bbf","system_id":"levelo_inurba_marseille","lat":43.24803,"lon":5.37455,"is_reserved":false,"is_disabled":false,"rental_uris":{"android":"levelo://app?vid=db721641-4571-4f50-bcd4-7b9f98305bbf","ios":"levelo://app?vid=db721641-4571-4f50-bcd4-7b9f98305bbf"},"vehicle_type_id":"4","last_reported":1746292082,"current_range_meters":8000,"station_id":"ce4bhgh2rcd13ifvqfb0","pricing_plan_id":"cebpf4jnsgd1na2vs0mg"},{"bike_id":"53e81874-bcc4-4662-af46-13d83c9b3a29","system_id":"levelo_inurba_marseille","lat":43.26196,"lon":5.37457,"is_reserved":false,"is_disabled":false,"rental_uris":{"android":"levelo://app?vid=53e81874-bcc4-4662-af46-13d83c9b3a29","ios":"levelo://app?vid=53e81874-bcc4-4662-af46-13d83c9b3a29"},"vehicle_type_id":"4","last_reported":1746292082,"current_range_meters":8000,"station_id":"ce4bhgp2rcd13ifvqfc0","pricing_plan_id":"cebpf4jnsgd1na2vs0mg"},{"bike_id":"1317efd3-8dcd-4a65-965d-768283f34b6e","system_id":"levelo_inurba_marseille","lat":43.24678,"lon":5.38162,"is_reserved":false,"is_disabled":false,"rental_uris":{"android":"levelo://app?vid=1317efd3-8dcd-4a65-965d-768283f34b6e","ios":"levelo://app?vid=1317efd3-8dcd-4a65-965d-768283f34b6e"},"vehicle_type_id":"4","last_reported":1746292082,"current_range_meters":8000,"station_id":"ce4bhih2rcd13ifvqfr0","pricing_plan_id":"cebpf4jnsgd1na2vs0mg"},{"bike_id":"82375ec0-2f52-4056-9953-6530521b0dca","system_id":"levelo_inurba_marseille","lat":43.23192,"lon":5.35552,"is_reserved":false,"is_disabled":false,"rental_uris":{"android":"levelo://app?vid=82375ec0-2f52-4056-9953-6530521b0dca","ios":"levelo://app?vid=82375ec0-2f52-4056-9953-6530521b0dca"},"vehicle_type_id":"4","last_reported":1746292082,"current_range_meters":8000,"station_id":"ce4bhu92rcd13ifvqi70","pricing_plan_id":"cebpf4jnsgd1na2vs0mg"},{"bike_id":"20ccbdaf-8a76-4cd4-87af-fb59c08e81dc","system_id":"levelo_inurba_marseille","lat":43.23213,"lon":5.35554,"is_reserved":false,"is_disabled":false,"rental_uris":{"android":"levelo://app?vid=20ccbdaf-8a76-4cd4-87af-fb59c08e81dc","ios":"levelo://app?vid=20ccbdaf-8a76-4cd4-87af-fb59c08e81dc"},"vehicle_type_id":"4","last_reported":1746292082,"current_range_meters":8000,"station_id":"ce4bhu92rcd13ifvqi70","pricing_plan_id":"cebpf4jnsgd1na2vs0mg"},{"bike_id":"29046bbb-df30-4c93-8b23-06bc8fd7fde0","system_id":"levelo_inurba_marseille","lat":43.28723,"lon":5.36088,"is_reserved":false,"is_disabled":false,"rental_uris":{"android":"levelo://app?vid=29046bbb-df30-4c93-8b23-06bc8fd7fde0","ios":"levelo://app?vid=29046bbb-df30-4c93-8b23-06bc8fd7fde0"},"vehicle_type_id":"4","last_reported":1746292082,"current_range_meters":8000,"station_id":"cki0cbj6b192h4jlfktg","pricing_plan_id":"cebpf4jnsgd1na2vs0mg"},{"bike_id":"8e9a0350-97c0-42cb-a31a-966feaced4a0","system_id":"levelo_inurba_marseille","lat":43.31355,"lon":5.38503,"is_reserved":false,"is_disabled":false,"rental_uris":{"android":"levelo://app?vid=8e9a0350-97c0-42cb-a31a-966feaced4a0","ios":"levelo://app?vid=8e9a0350-97c0-42cb-a31a-966feaced4a0"},"vehicle_type_id":"4","last_reported":1746292082,"current_range_meters":8400,"station_id":"ce4bgt92rcd13ifvqcf0","pricing_plan_id":"cebpf4jnsgd1na2vs0mg"},{"bike_id":"9414bd96-8e7a-438b-84f8-a495f22c74c4","system_id":"levelo_inurba_marseille","lat":43.25501,"lon":5.3765,"is_reserved":false,"is_disabled":false,"rental_uris":{"android":"levelo://app?vid=9414bd96-8e7a-438b-84f8-a495f22c74c4","ios":"levelo://app?vid=9414bd96-8e7a-438b-84f8-a495f22c74c4"},"vehicle_type_id":"4","last_reported":1746292082,"current_range_meters":8400,"station_id":"ce4bhh12rcd13ifvqff0","pricing_plan_id":"cebpf4jnsgd1na2vs0mg"},{"bike_id":"76cfdc90-024a-4d4c-95bd-420fb979903a","system_id":"levelo_inurba_marseille","lat":43.27997,"lon":5.40009,"is_reserved":false,"is_disabled":false,"rental_uris":{"android":"levelo://app?vid=76cfdc90-024a-4d4c-95bd-420fb979903a","ios":"levelo://app?vid=76cfdc90-024a-4d4c-95bd-420fb979903a"},"vehicle_type_id":"4","last_reported":1746292082,"current_range_meters":8400,"station_id":"ce4bho92rcd13ifvqh4g","pricing_plan_id":"cebpf4jnsgd1na2vs0mg"},{"bike_id":"0a442724-dec0-41c1-8f44-c2a11110d362","system_id":"levelo_inurba_marseille","lat":43.22934,"lon":5.35379,"is_reserved":false,"is_disabled":false,"rental_uris":{"android":"levelo://app?vid=0a442724-dec0-41c1-8f44-c2a11110d362","ios":"levelo://app?vid=0a442724-dec0-41c1-8f44-c2a11110d362"},"vehicle_type_id":"4","last_reported":1746292082,"current_range_meters":8400,"station_id":"cpo3532slgdg3j2ikp40","pricing_plan_id":"cebpf4jnsgd1na2vs0mg"},{"bike_id":"a6f9ab22-4d42-4460-a49b-1d97b2df2659","system_id":"levelo_inurba_marseille","lat":43.28424,"lon":5.37508,"is_reserved":false,"is_disabled":false,"rental_uris":{"android":"levelo://app?vid=a6f9ab22-4d42-4460-a49b-1d97b2df2659","ios":"levelo://app?vid=a6f9ab22-4d42-4460-a49b-1d97b2df2659"},"vehicle_type_id":"4","last_reported":1746292082,"current_range_meters":8800,"station_id":"ce4bh412rcd13ifvqds0","pricing_plan_id":"cebpf4jnsgd1na2vs0mg"},{"bike_id":"e27ce41e-d31e-4411-a762-387f29d91877","system_id":"levelo_inurba_marseille","lat":43.29594,"lon":5.4229,"is_reserved":false,"is_disabled":false,"rental_uris":{"android":"levelo://app?vid=e27ce41e-d31e-4411-a762-387f29d91877","ios":"levelo://app?vid=e27ce41e-d31e-4411-a762-387f29d91877"},"vehicle_type_id":"4","last_reported":1746292082,"current_range_meters":8800,"station_id":"ce4bhph2rcd13ifvqhdg","pricing_plan_id":"cebpf4jnsgd1na2vs0mg"},{"bike_id":"a692b93c-2a7d-4710-96ea-d7d12706d8b4","system_id":"levelo_inurba_marseille","lat":43.22931,"lon":5.3537,"is_reserved":false,"is_disabled":false,"rental_uris":{"android":"levelo://app?vid=a692b93c-2a7d-4710-96ea-d7d12706d8b4","ios":"levelo://app?vid=a692b93c-2a7d-4710-96ea-d7d12706d8b4"},"vehicle_type_id":"4","last_reported":1746292082,"current_range_meters":8800,"station_id":"cpo3532slgdg3j2ikp40","pricing_plan_id":"cebpf4jnsgd1na2vs0mg"},{"bike_id":"570b486c-50df-4f1f-97df-caa86c0d419e","system_id":"levelo_inurba_marseille","lat":43.33743,"lon":5.35589,"is_reserved":false,"is_disabled":false,"rental_uris":{"android":"levelo://app?vid=570b486c-50df-4f1f-97df-caa86c0d419e","ios":"levelo://app?vid=570b486c-50df-4f1f-97df-caa86c0d419e"},"vehicle_type_id":"4","last_reported":1746292082,"current_range_meters":9200,"station_id":"","pricing_plan_id":"cebpf4jnsgd1na2vs0mg"},{"bike_id":"615af8d2-8e13-41d8-b3fc-da535c79b67b","system_id":"levelo_inurba_marseille","lat":43.31359,"lon":5.38489,"is_reserved":false,"is_disabled":false,"rental_uris":{"android":"levelo://app?vid=615af8d2-8e13-41d8-b3fc-da535c79b67b","ios":"levelo://app?vid=615af8d2-8e13-41d8-b3fc-da535c79b67b"},"vehicle_type_id":"4","last_reported":1746292082,"current_range_meters":9200,"station_id":"ce4bgt92rcd13ifvqcf0","pricing_plan_id":"cebpf4jnsgd1na2vs0mg"},{"bike_id":"ef69e7cc-37df-4e66-bd4f-a85ef9d1ea7e","system_id":"levelo_inurba_marseille","lat":43.27484,"lon":5.42445,"is_reserved":false,"is_disabled":false,"rental_uris":{"android":"levelo://app?vid=ef69e7cc-37df-4e66-bd4f-a85ef9d1ea7e","ios":"levelo://app?vid=ef69e7cc-37df-4e66-bd4f-a85ef9d1ea7e"},"vehicle_type_id":"4","last_reported":1746292082,"current_range_meters":9200,"station_id":"ce4bhn92rcd13ifvqgrg","pricing_plan_id":"cebpf4jnsgd1na2vs0mg"},{"bike_id":"dfb3396e-96f5-457c-af11-f6f27dad33e9","system_id":"levelo_inurba_marseille","lat":43.27198,"lon":5.3651,"is_reserved":false,"is_disabled":false,"rental_uris":{"android":"levelo://app?vid=dfb3396e-96f5-457c-af11-f6f27dad33e9","ios":"levelo://app?vid=dfb3396e-96f5-457c-af11-f6f27dad33e9"},"vehicle_type_id":"4","last_reported":1746292082,"current_range_meters":9600,"station_id":"","pricing_plan_id":"cebpf4jnsgd1na2vs0mg"},{"bike_id":"07dd4d6f-d264-4e0e-a216-a64419e78ce6","system_id":"levelo_inurba_marseille","lat":43.29482,"lon":5.43392,"is_reserved":false,"is_disabled":false,"rental_uris":{"android":"levelo://app?vid=07dd4d6f-d264-4e0e-a216-a64419e78ce6","ios":"levelo://app?vid=07dd4d6f-d264-4e0e-a216-a64419e78ce6"},"vehicle_type_id":"4","last_reported":1746292082,"current_range_meters":9600,"station_id":"","pricing_plan_id":"cebpf4jnsgd1na2vs0mg"},{"bike_id":"8df6e310-0880-40a9-a691-cd475dfa3928","system_id":"levelo_inurba_marseille","lat":43.285917,"lon":5.442603,"is_reserved":false,"is_disabled":false,"rental_uris":{"android":"levelo://app?vid=8df6e310-0880-40a9-a691-cd475dfa3928","ios":"levelo://app?vid=8df6e310-0880-40a9-a691-cd475dfa3928"},"vehicle_type_id":"4","last_reported":1746292082,"current_range_meters":9600,"station_id":"","pricing_plan_id":"cebpf4jnsgd1na2vs0mg"},{"bike_id":"ad828b08-f3f7-46a0-a82a-32210b12f881","system_id":"levelo_inurba_marseille","lat":43.30309,"lon":5.36874,"is_reserved":false,"is_disabled":false,"rental_uris":{"android":"levelo://app?vid=ad828b08-f3f7-46a0-a82a-32210b12f881","ios":"levelo://app?vid=ad828b08-f3f7-46a0-a82a-32210b12f881"},"vehicle_type_id":"4","last_reported":1746292082,"current_range_meters":9600,"station_id":"ce4bgqh2rcd13ifvqc5g","pricing_plan_id":"cebpf4jnsgd1na2vs0mg"},{"bike_id":"bad33b4e-f007-4e6b-a54d-c952367d581b","system_id":"levelo_inurba_marseille","lat":43.24385,"lon":5.37093,"is_reserved":false,"is_disabled":false,"rental_uris":{"android":"levelo://app?vid=bad33b4e-f007-4e6b-a54d-c952367d581b","ios":"levelo://app?vid=bad33b4e-f007-4e6b-a54d-c952367d581b"},"vehicle_type_id":"4","last_reported":1746292082,"current_range_meters":9600,"station_id":"ce4bhhh2rcd13ifvqfk0","pricing_plan_id":"cebpf4jnsgd1na2vs0mg"},{"bike_id":"051e58b4-36bb-451e-a971-ac9317a04c14","system_id":"levelo_inurba_marseille","lat":43.24376,"lon":5.37058,"is_reserved":false,"is_disabled":false,"rental_uris":{"android":"levelo://app?vid=051e58b4-36bb-451e-a971-ac9317a04c14","ios":"levelo://app?vid=051e58b4-36bb-451e-a971-ac9317a04c14"},"vehicle_type_id":"4","last_reported":1746292082,"current_range_meters":9600,"station_id":"ce4bhhh2rcd13ifvqfk0","pricing_plan_id":"cebpf4jnsgd1na2vs0mg"},{"bike_id":"b29a814a-613a-43bc-8f4b-7173bb2a1a75","system_id":"levelo_inurba_marseille","lat":43.24388,"lon":5.370613,"is_reserved":false,"is_disabled":false,"rental_uris":{"android":"levelo://app?vid=b29a814a-613a-43bc-8f4b-7173bb2a1a75","ios":"levelo://app?vid=b29a814a-613a-43bc-8f4b-7173bb2a1a75"},"vehicle_type_id":"4","last_reported":1746292082,"current_range_meters":10000,"station_id":"ce4bhhh2rcd13ifvqfk0","pricing_plan_id":"cebpf4jnsgd1na2vs0mg"},{"bike_id":"cbc9bb6e-58cf-4201-bdd6-8391d8af34ed","system_id":"levelo_inurba_marseille","lat":43.24388,"lon":5.37059,"is_reserved":false,"is_disabled":false,"rental_uris":{"android":"levelo://app?vid=cbc9bb6e-58cf-4201-bdd6-8391d8af34ed","ios":"levelo://app?vid=cbc9bb6e-58cf-4201-bdd6-8391d8af34ed"},"vehicle_type_id":"4","last_reported":1746292082,"current_range_meters":10000,"station_id":"ce4bhhh2rcd13ifvqfk0","pricing_plan_id":"cebpf4jnsgd1na2vs0mg"},{"bike_id":"f1ffd2b9-91e9-4bf5-a319-6e95940b0de6","system_id":"levelo_inurba_marseille","lat":43.29576,"lon":5.42291,"is_reserved":false,"is_disabled":false,"rental_uris":{"android":"levelo://app?vid=f1ffd2b9-91e9-4bf5-a319-6e95940b0de6","ios":"levelo://app?vid=f1ffd2b9-91e9-4bf5-a319-6e95940b0de6"},"vehicle_type_id":"4","last_reported":1746292082,"current_range_meters":10000,"station_id":"ce4bhph2rcd13ifvqhdg","pricing_plan_id":"cebpf4jnsgd1na2vs0mg"},{"bike_id":"3a6c1c4a-dd80-4e9d-9632-aaca59f6d0aa","system_id":"levelo_inurba_marseille","lat":43.32376,"lon":5.38892,"is_reserved":false,"is_disabled":false,"rental_uris":{"android":"levelo://app?vid=3a6c1c4a-dd80-4e9d-9632-aaca59f6d0aa","ios":"levelo://app?vid=3a6c1c4a-dd80-4e9d-9632-aaca59f6d0aa"},"vehicle_type_id":"4","last_reported":1746292082,"current_range_meters":10000,"station_id":"ce4bhqp2rcd13ifvqhog","pricing_plan_id":"cebpf4jnsgd1na2vs0mg"},{"bike_id":"707453b4-c291-4859-8bfd-abb3c537e6f7","system_id":"levelo_inurba_marseille","lat":43.25498,"lon":5.37646,"is_reserved":false,"is_disabled":false,"rental_uris":{"android":"levelo://app?vid=707453b4-c291-4859-8bfd-abb3c537e6f7","ios":"levelo://app?vid=707453b4-c291-4859-8bfd-abb3c537e6f7"},"vehicle_type_id":"4","last_reported":1746292082,"current_range_meters":10800,"station_id":"ce4bhh12rcd13ifvqff0","pricing_plan_id":"cebpf4jnsgd1na2vs0mg"},{"bike_id":"ef8c7beb-837e-4ee7-8395-7519a3b848c6","system_id":"levelo_inurba_marseille","lat":43.26954,"lon":5.38636,"is_reserved":false,"is_disabled":false,"rental_uris":{"android":"levelo://app?vid=ef8c7beb-837e-4ee7-8395-7519a3b848c6","ios":"levelo://app?vid=ef8c7beb-837e-4ee7-8395-7519a3b848c6"},"vehicle_type_id":"4","last_reported":1746292082,"current_range_meters":10800,"station_id":"ce4bhh92rcd13ifvqfh0","pricing_plan_id":"cebpf4jnsgd1na2vs0mg"},{"bike_id":"28b8babb-e145-495e-99b3-057fb00ba174","system_id":"levelo_inurba_marseille","lat":43.23064,"lon":5.35498,"is_reserved":false,"is_disabled":false,"rental_uris":{"android":"levelo://app?vid=28b8babb-e145-495e-99b3-057fb00ba174","ios":"levelo://app?vid=28b8babb-e145-495e-99b3-057fb00ba174"},"vehicle_type_id":"4","last_reported":1746292082,"current_range_meters":10800,"station_id":"cpo3342slgdg3j2ifvpg","pricing_plan_id":"cebpf4jnsgd1na2vs0mg"},{"bike_id":"6ae9068b-8534-47e2-832a-cb0e5255371d","system_id":"levelo_inurba_marseille","lat":43.337444,"lon":5.374475,"is_reserved":false,"is_disabled":false,"rental_uris":{"android":"levelo://app?vid=6ae9068b-8534-47e2-832a-cb0e5255371d","ios":"levelo://app?vid=6ae9068b-8534-47e2-832a-cb0e5255371d"},"vehicle_type_id":"4","last_reported":1746292082,"current_range_meters":11200,"station_id":"ce4bgvp2rcd13ifvqct0","pricing_plan_id":"cebpf4jnsgd1na2vs0mg"},{"bike_id":"58374f5a-2326-416f-8606-f51b3c385dce","system_id":"levelo_inurba_marseille","lat":43.28346,"lon":5.38096,"is_reserved":false,"is_disabled":false,"rental_uris":{"android":"levelo://app?vid=58374f5a-2326-416f-8606-f51b3c385dce","ios":"levelo://app?vid=58374f5a-2326-416f-8606-f51b3c385dce"},"vehicle_type_id":"4","last_reported":1746292082,"current_range_meters":11200,"station_id":"ce4bh412rcd13ifvqdr0","pricing_plan_id":"cebpf4jnsgd1na2vs0mg"},{"bike_id":"a8af436f-b656-4752-9baa-06640bfb2701","system_id":"levelo_inurba_marseille","lat":43.29932,"lon":5.41327,"is_reserved":false,"is_disabled":false,"rental_uris":{"android":"levelo://app?vid=a8af436f-b656-4752-9baa-06640bfb2701","ios":"levelo://app?vid=a8af436f-b656-4752-9baa-06640bfb2701"},"vehicle_type_id":"4","last_reported":1746292082,"current_range_meters":11200,"station_id":"ce4bhp12rcd13ifvqh9g","pricing_plan_id":"cebpf4jnsgd1na2vs0mg"},{"bike_id":"fd2c3c67-23a6-4380-b7ca-8f23c8f78921","system_id":"levelo_inurba_marseille","lat":43.3237,"lon":5.3676,"is_reserved":false,"is_disabled":false,"rental_uris":{"android":"levelo://app?vid=fd2c3c67-23a6-4380-b7ca-8f23c8f78921","ios":"levelo://app?vid=fd2c3c67-23a6-4380-b7ca-8f23c8f78921"},"vehicle_type_id":"4","last_reported":1746292082,"current_range_meters":11200,"station_id":"ce4bhsh2rcd13ifvqi2g","pricing_plan_id":"cebpf4jnsgd1na2vs0mg"},{"bike_id":"8e27b1fc-4915-4c80-97f0-3fe6d932294e","system_id":"levelo_inurba_marseille","lat":43.231921,"lon":5.355467,"is_reserved":false,"is_disabled":false,"rental_uris":{"android":"levelo://app?vid=8e27b1fc-4915-4c80-97f0-3fe6d932294e","ios":"levelo://app?vid=8e27b1fc-4915-4c80-97f0-3fe6d932294e"},"vehicle_type_id":"4","last_reported":1746292082,"current_range_meters":11200,"station_id":"ce4bhu92rcd13ifvqi70","pricing_plan_id":"cebpf4jnsgd1na2vs0mg"},{"bike_id":"482f00aa-c3ee-446b-8f24-a1d4dffa2e19","system_id":"levelo_inurba_marseille","lat":43.29855,"lon":5.37687,"is_reserved":false,"is_disabled":false,"rental_uris":{"android":"levelo://app?vid=482f00aa-c3ee-446b-8f24-a1d4dffa2e19","ios":"levelo://app?vid=482f00aa-c3ee-446b-8f24-a1d4dffa2e19"},"vehicle_type_id":"4","last_reported":1746292082,"current_range_meters":11600,"station_id":"","pricing_plan_id":"cebpf4jnsgd1na2vs0mg"},{"bike_id":"c21baa80-5358-4c88-b5f0-054d430ed0c3","system_id":"levelo_inurba_marseille","lat":43.28364,"lon":5.38637,"is_reserved":false,"is_disabled":false,"rental_uris":{"android":"levelo://app?vid=c21baa80-5358-4c88-b5f0-054d430ed0c3","ios":"levelo://app?vid=c21baa80-5358-4c88-b5f0-054d430ed0c3"},"vehicle_type_id":"4","last_reported":1746292082,"current_range_meters":11600,"station_id":"ce4bh492rcd13ifvqdvg","pricing_plan_id":"cebpf4jnsgd1na2vs0mg"},{"bike_id":"91e50020-cb95-44d1-9560-c0197f0aa5e2","system_id":"levelo_inurba_marseille","lat":43.248055,"lon":5.374544,"is_reserved":false,"is_disabled":false,"rental_uris":{"android":"levelo://app?vid=91e50020-cb95-44d1-9560-c0197f0aa5e2","ios":"levelo://app?vid=91e50020-cb95-44d1-9560-c0197f0aa5e2"},"vehicle_type_id":"4","last_reported":1746292082,"current_range_meters":11600,"station_id":"ce4bhgh2rcd13ifvqfb0","pricing_plan_id":"cebpf4jnsgd1na2vs0mg"},{"bike_id":"7c326993-e5bf-4c74-a3c2-940024760c00","system_id":"levelo_inurba_marseille","lat":43.295056,"lon":5.376032,"is_reserved":false,"is_disabled":false,"rental_uris":{"android":"levelo://app?vid=7c326993-e5bf-4c74-a3c2-940024760c00","ios":"levelo://app?vid=7c326993-e5bf-4c74-a3c2-940024760c00"},"vehicle_type_id":"4","last_reported":1746292082,"current_range_meters":12000,"station_id":"ce4bgh92rcd13ifvqb50","pricing_plan_id":"cebpf4jnsgd1na2vs0mg"},{"bike_id":"111e770f-f11c-4364-af3d-8b249cf8c7b4","system_id":"levelo_inurba_marseille","lat":43.2481,"lon":5.37459,"is_reserved":false,"is_disabled":false,"rental_uris":{"android":"levelo://app?vid=111e770f-f11c-4364-af3d-8b249cf8c7b4","ios":"levelo://app?vid=111e770f-f11c-4364-af3d-8b249cf8c7b4"},"vehicle_type_id":"4","last_reported":1746292082,"current_range_meters":12000,"station_id":"ce4bhgh2rcd13ifvqfb0","pricing_plan_id":"cebpf4jnsgd1na2vs0mg"},{"bike_id":"d11ad4ed-5483-4abb-b8ae-c4e0f73880b4","system_id":"levelo_inurba_marseille","lat":43.317127,"lon":5.43721,"is_reserved":false,"is_disabled":false,"rental_uris":{"android":"levelo://app?vid=d11ad4ed-5483-4abb-b8ae-c4e0f73880b4","ios":"levelo://app?vid=d11ad4ed-5483-4abb-b8ae-c4e0f73880b4"},"vehicle_type_id":"4","last_reported":1746292082,"current_range_meters":12000,"station_id":"ce4bhp92rcd13ifvqhcg","pricing_plan_id":"cebpf4jnsgd1na2vs0mg"},{"bike_id":"003131c0-c682-4cb4-8d6e-6f6e60ecd6cb","system_id":"levelo_inurba_marseille","lat":43.286119,"lon":5.370644,"is_reserved":false,"is_disabled":false,"rental_uris":{"android":"levelo://app?vid=003131c0-c682-4cb4-8d6e-6f6e60ecd6cb","ios":"levelo://app?vid=003131c0-c682-4cb4-8d6e-6f6e60ecd6cb"},"vehicle_type_id":"4","last_reported":1746292082,"current_range_meters":12400,"station_id":"","pricing_plan_id":"cebpf4jnsgd1na2vs0mg"},{"bike_id":"aedf206f-89f3-4f30-9da6-56fb7ff8915b","system_id":"levelo_inurba_marseille","lat":43.28127,"lon":5.40368,"is_reserved":false,"is_disabled":false,"rental_uris":{"android":"levelo://app?vid=aedf206f-89f3-4f30-9da6-56fb7ff8915b","ios":"levelo://app?vid=aedf206f-89f3-4f30-9da6-56fb7ff8915b"},"vehicle_type_id":"4","last_reported":1746292082,"current_range_meters":13600,"station_id":"","pricing_plan_id":"cebpf4jnsgd1na2vs0mg"},{"bike_id":"4c304fd3-48ab-44cb-9347-998d36466e09","system_id":"levelo_inurba_marseille","lat":43.31846,"lon":5.37357,"is_reserved":false,"is_disabled":false,"rental_uris":{"android":"levelo://app?vid=4c304fd3-48ab-44cb-9347-998d36466e09","ios":"levelo://app?vid=4c304fd3-48ab-44cb-9347-998d36466e09"},"vehicle_type_id":"4","last_reported":1746292082,"current_range_meters":13600,"station_id":"","pricing_plan_id":"cebpf4jnsgd1na2vs0mg"},{"bike_id":"9f3fe661-f7ca-4818-86a9-ef9704cafb0e","system_id":"levelo_inurba_marseille","lat":43.29261,"lon":5.3843,"is_reserved":false,"is_disabled":false,"rental_uris":{"android":"levelo://app?vid=9f3fe661-f7ca-4818-86a9-ef9704cafb0e","ios":"levelo://app?vid=9f3fe661-f7ca-4818-86a9-ef9704cafb0e"},"vehicle_type_id":"4","last_reported":1746292082,"current_range_meters":13600,"station_id":"ce4bh692rcd13ifvqea0","pricing_plan_id":"cebpf4jnsgd1na2vs0mg"},{"bike_id":"e14f0e0b-57ce-42d5-80f6-e3d891b564d1","system_id":"levelo_inurba_marseille","lat":43.27066,"lon":5.42278,"is_reserved":false,"is_disabled":false,"rental_uris":{"android":"levelo://app?vid=e14f0e0b-57ce-42d5-80f6-e3d891b564d1","ios":"levelo://app?vid=e14f0e0b-57ce-42d5-80f6-e3d891b564d1"},"vehicle_type_id":"4","last_reported":1746292082,"current_range_meters":13600,"station_id":"ce4bhk92rcd13ifvqgb0","pricing_plan_id":"cebpf4jnsgd1na2vs0mg"},{"bike_id":"ed164eae-db5a-4541-b1d5-f6006bff9a90","system_id":"levelo_inurba_marseille","lat":43.25718,"lon":5.41113,"is_reserved":false,"is_disabled":false,"rental_uris":{"android":"levelo://app?vid=ed164eae-db5a-4541-b1d5-f6006bff9a90","ios":"levelo://app?vid=ed164eae-db5a-4541-b1d5-f6006bff9a90"},"vehicle_type_id":"4","last_reported":1746292082,"current_range_meters":13600,"station_id":"ce4bhkp2rcd13ifvqgd0","pricing_plan_id":"cebpf4jnsgd1na2vs0mg"},{"bike_id":"24cc82ac-cb19-4e51-8103-cfd4c34c0b6d","system_id":"levelo_inurba_marseille","lat":43.30738,"lon":5.42447,"is_reserved":false,"is_disabled":false,"rental_uris":{"android":"levelo://app?vid=24cc82ac-cb19-4e51-8103-cfd4c34c0b6d","ios":"levelo://app?vid=24cc82ac-cb19-4e51-8103-cfd4c34c0b6d"},"vehicle_type_id":"4","last_reported":1746292082,"current_range_meters":13600,"station_id":"st_cvj6ca6bvosntc0bfgr0","pricing_plan_id":"cebpf4jnsgd1na2vs0mg"},{"bike_id":"fb80c1da-d845-467b-9c3b-2f591f4d56ae","system_id":"levelo_inurba_marseille","lat":43.323406,"lon":5.37422,"is_reserved":false,"is_disabled":false,"rental_uris":{"android":"levelo://app?vid=fb80c1da-d845-467b-9c3b-2f591f4d56ae","ios":"levelo://app?vid=fb80c1da-d845-467b-9c3b-2f591f4d56ae"},"vehicle_type_id":"4","last_reported":1746292082,"current_range_meters":14000,"station_id":"","pricing_plan_id":"cebpf4jnsgd1na2vs0mg"},{"bike_id":"8745b5e1-d496-4b8a-99df-67d306862ac1","system_id":"levelo_inurba_marseille","lat":43.28442,"lon":5.39189,"is_reserved":false,"is_disabled":false,"rental_uris":{"android":"levelo://app?vid=8745b5e1-d496-4b8a-99df-67d306862ac1","ios":"levelo://app?vid=8745b5e1-d496-4b8a-99df-67d306862ac1"},"vehicle_type_id":"4","last_reported":1746292082,"current_range_meters":14000,"station_id":"ce4bhoh2rcd13ifvqh5g","pricing_plan_id":"cebpf4jnsgd1na2vs0mg"},{"bike_id":"7392d17e-815c-4a9e-b4e9-6b01c34335a8","system_id":"levelo_inurba_marseille","lat":43.30889,"lon":5.39661,"is_reserved":false,"is_disabled":false,"rental_uris":{"android":"levelo://app?vid=7392d17e-815c-4a9e-b4e9-6b01c34335a8","ios":"levelo://app?vid=7392d17e-815c-4a9e-b4e9-6b01c34335a8"},"vehicle_type_id":"4","last_reported":1746292082,"current_range_meters":14400,"station_id":"ce4bh012rcd13ifvqcv0","pricing_plan_id":"cebpf4jnsgd1na2vs0mg"},{"bike_id":"41885cc9-175f-443d-bcf3-b6a41841460a","system_id":"levelo_inurba_marseille","lat":43.24806,"lon":5.37454,"is_reserved":false,"is_disabled":false,"rental_uris":{"android":"levelo://app?vid=41885cc9-175f-443d-bcf3-b6a41841460a","ios":"levelo://app?vid=41885cc9-175f-443d-bcf3-b6a41841460a"},"vehicle_type_id":"4","last_reported":1746292082,"current_range_meters":14400,"station_id":"ce4bhgh2rcd13ifvqfb0","pricing_plan_id":"cebpf4jnsgd1na2vs0mg"},{"bike_id":"ad2b5cf8-97db-4503-987e-d1c43875d4d5","system_id":"levelo_inurba_marseille","lat":43.28408,"lon":5.34979,"is_reserved":false,"is_disabled":false,"rental_uris":{"android":"levelo://app?vid=ad2b5cf8-97db-4503-987e-d1c43875d4d5","ios":"levelo://app?vid=ad2b5cf8-97db-4503-987e-d1c43875d4d5"},"vehicle_type_id":"4","last_reported":1746292082,"current_range_meters":14800,"station_id":"ce4bhbh2rcd13ifvqepg","pricing_plan_id":"cebpf4jnsgd1na2vs0mg"},{"bike_id":"457deb00-4881-4c1b-a2f8-06db1f645573","system_id":"levelo_inurba_marseille","lat":43.24804,"lon":5.37456,"is_reserved":false,"is_disabled":false,"rental_uris":{"android":"levelo://app?vid=457deb00-4881-4c1b-a2f8-06db1f645573","ios":"levelo://app?vid=457deb00-4881-4c1b-a2f8-06db1f645573"},"vehicle_type_id":"4","last_reported":1746292082,"current_range_meters":14800,"station_id":"ce4bhgh2rcd13ifvqfb0","pricing_plan_id":"cebpf4jnsgd1na2vs0mg"},{"bike_id":"137940ec-429b-4f71-a9e6-68ab74c90b29","system_id":"levelo_inurba_marseille","lat":43.25856,"lon":5.39923,"is_reserved":false,"is_disabled":false,"rental_uris":{"android":"levelo://app?vid=137940ec-429b-4f71-a9e6-68ab74c90b29","ios":"levelo://app?vid=137940ec-429b-4f71-a9e6-68ab74c90b29"},"vehicle_type_id":"4","last_reported":1746292082,"current_range_meters":14800,"station_id":"ce4bhl92rcd13ifvqghg","pricing_plan_id":"cebpf4jnsgd1na2vs0mg"},{"bike_id":"e7061e18-ac4e-46b7-92e8-430d3604c3dd","system_id":"levelo_inurba_marseille","lat":43.23229,"lon":5.3555,"is_reserved":false,"is_disabled":false,"rental_uris":{"android":"levelo://app?vid=e7061e18-ac4e-46b7-92e8-430d3604c3dd","ios":"levelo://app?vid=e7061e18-ac4e-46b7-92e8-430d3604c3dd"},"vehicle_type_id":"4","last_reported":1746292082,"current_range_meters":14800,"station_id":"ce4bhu92rcd13ifvqi70","pricing_plan_id":"cebpf4jnsgd1na2vs0mg"},{"bike_id":"97343e8a-4ce2-44f0-b696-1020ae302f20","system_id":"levelo_inurba_marseille","lat":43.281617,"lon":5.42644,"is_reserved":false,"is_disabled":false,"rental_uris":{"android":"levelo://app?vid=97343e8a-4ce2-44f0-b696-1020ae302f20","ios":"levelo://app?vid=97343e8a-4ce2-44f0-b696-1020ae302f20"},"vehicle_type_id":"4","last_reported":1746292082,"current_range_meters":15200,"station_id":"ce4bhnh2rcd13ifvqgug","pricing_plan_id":"cebpf4jnsgd1na2vs0mg"},{"bike_id":"7c68fce1-71fb-4aad-ada3-b5d3941ff19f","system_id":"levelo_inurba_marseille","lat":43.29574,"lon":5.39973,"is_reserved":false,"is_disabled":false,"rental_uris":{"android":"levelo://app?vid=7c68fce1-71fb-4aad-ada3-b5d3941ff19f","ios":"levelo://app?vid=7c68fce1-71fb-4aad-ada3-b5d3941ff19f"},"vehicle_type_id":"4","last_reported":1746292082,"current_range_meters":16000,"station_id":"ce4bh312rcd13ifvqdj0","pricing_plan_id":"cebpf4jnsgd1na2vs0mg"},{"bike_id":"b35ac81f-9162-4cdc-96bf-5c638a3c5800","system_id":"levelo_inurba_marseille","lat":43.297583,"lon":5.427089,"is_reserved":false,"is_disabled":false,"rental_uris":{"android":"levelo://app?vid=b35ac81f-9162-4cdc-96bf-5c638a3c5800","ios":"levelo://app?vid=b35ac81f-9162-4cdc-96bf-5c638a3c5800"},"vehicle_type_id":"4","last_reported":1746292082,"current_range_meters":16400,"station_id":"ce4bhph2rcd13ifvqhdg","pricing_plan_id":"cebpf4jnsgd1na2vs0mg"},{"bike_id":"a3bc2359-39e4-4d03-aa5e-8ffa409341e2","system_id":"levelo_inurba_marseille","lat":43.298963,"lon":5.436711,"is_reserved":false,"is_disabled":false,"rental_uris":{"android":"levelo://app?vid=a3bc2359-39e4-4d03-aa5e-8ffa409341e2","ios":"levelo://app?vid=a3bc2359-39e4-4d03-aa5e-8ffa409341e2"},"vehicle_type_id":"4","last_reported":1746292082,"current_range_meters":16400,"station_id":"ce4bhpp2rcd13ifvqhfg","pricing_plan_id":"cebpf4jnsgd1na2vs0mg"},{"bike_id":"b51e8583-0fb2-49ca-9c11-9dbce28dfa5d","system_id":"levelo_inurba_marseille","lat":43.2319,"lon":5.35557,"is_reserved":false,"is_disabled":false,"rental_uris":{"android":"levelo://app?vid=b51e8583-0fb2-49ca-9c11-9dbce28dfa5d","ios":"levelo://app?vid=b51e8583-0fb2-49ca-9c11-9dbce28dfa5d"},"vehicle_type_id":"4","last_reported":1746292082,"current_range_meters":16400,"station_id":"ce4bhu92rcd13ifvqi70","pricing_plan_id":"cebpf4jnsgd1na2vs0mg"},{"bike_id":"43580de2-2781-4103-8514-2bfafc9158a6","system_id":"levelo_inurba_marseille","lat":43.24167,"lon":5.36381,"is_reserved":false,"is_disabled":false,"rental_uris":{"android":"levelo://app?vid=43580de2-2781-4103-8514-2bfafc9158a6","ios":"levelo://app?vid=43580de2-2781-4103-8514-2bfafc9158a6"},"vehicle_type_id":"4","last_reported":1746292082,"current_range_meters":16400,"station_id":"cpo36qri1sfpv3e86is0","pricing_plan_id":"cebpf4jnsgd1na2vs0mg"},{"bike_id":"11f6ee4e-7498-4abc-8d0d-f73cacf3cca2","system_id":"levelo_inurba_marseille","lat":43.31264,"lon":5.40156,"is_reserved":false,"is_disabled":false,"rental_uris":{"android":"levelo://app?vid=11f6ee4e-7498-4abc-8d0d-f73cacf3cca2","ios":"levelo://app?vid=11f6ee4e-7498-4abc-8d0d-f73cacf3cca2"},"vehicle_type_id":"4","last_reported":1746292082,"current_range_meters":16800,"station_id":"ce4bh092rcd13ifvqd30","pricing_plan_id":"cebpf4jnsgd1na2vs0mg"},{"bike_id":"efd81572-6c53-467a-a944-259ecc96e087","system_id":"levelo_inurba_marseille","lat":43.32117,"lon":5.41596,"is_reserved":false,"is_disabled":false,"rental_uris":{"android":"levelo://app?vid=efd81572-6c53-467a-a944-259ecc96e087","ios":"levelo://app?vid=efd81572-6c53-467a-a944-259ecc96e087"},"vehicle_type_id":"4","last_reported":1746292082,"current_range_meters":16800,"station_id":"ce4bhq92rcd13ifvqhkg","pricing_plan_id":"cebpf4jnsgd1na2vs0mg"},{"bike_id":"c8e16fcb-5510-4723-b6e7-2aa49c1b3b8d","system_id":"levelo_inurba_marseille","lat":43.31966,"lon":5.37048,"is_reserved":false,"is_disabled":false,"rental_uris":{"android":"levelo://app?vid=c8e16fcb-5510-4723-b6e7-2aa49c1b3b8d","ios":"levelo://app?vid=c8e16fcb-5510-4723-b6e7-2aa49c1b3b8d"},"vehicle_type_id":"4","last_reported":1746292082,"current_range_meters":17200,"station_id":"","pricing_plan_id":"cebpf4jnsgd1na2vs0mg"},{"bike_id":"cecad457-8765-44a6-b13b-46c7935e01a3","system_id":"levelo_inurba_marseille","lat":43.27618,"lon":5.36103,"is_reserved":false,"is_disabled":false,"rental_uris":{"android":"levelo://app?vid=cecad457-8765-44a6-b13b-46c7935e01a3","ios":"levelo://app?vid=cecad457-8765-44a6-b13b-46c7935e01a3"},"vehicle_type_id":"4","last_reported":1746292082,"current_range_meters":17200,"station_id":"ce4bgj92rcd13ifvqbe0","pricing_plan_id":"cebpf4jnsgd1na2vs0mg"},{"bike_id":"5143ce13-2df0-4726-8d98-6c8d933897a7","system_id":"levelo_inurba_marseille","lat":43.28435,"lon":5.34991,"is_reserved":false,"is_disabled":false,"rental_uris":{"android":"levelo://app?vid=5143ce13-2df0-4726-8d98-6c8d933897a7","ios":"levelo://app?vid=5143ce13-2df0-4726-8d98-6c8d933897a7"},"vehicle_type_id":"4","last_reported":1746292082,"current_range_meters":17200,"station_id":"ce4bhbh2rcd13ifvqepg","pricing_plan_id":"cebpf4jnsgd1na2vs0mg"},{"bike_id":"5c2f8558-b21d-42d6-8a73-60b023dcfb6d","system_id":"levelo_inurba_marseille","lat":43.26564,"lon":5.39019,"is_reserved":false,"is_disabled":false,"rental_uris":{"android":"levelo://app?vid=5c2f8558-b21d-42d6-8a73-60b023dcfb6d","ios":"levelo://app?vid=5c2f8558-b21d-42d6-8a73-60b023dcfb6d"},"vehicle_type_id":"4","last_reported":1746292082,"current_range_meters":17200,"station_id":"ce4bhe12rcd13ifvqf30","pricing_plan_id":"cebpf4jnsgd1na2vs0mg"},{"bike_id":"2da43092-83ee-4088-b094-ae07195e1ccc","system_id":"levelo_inurba_marseille","lat":43.31637,"lon":5.423924,"is_reserved":false,"is_disabled":false,"rental_uris":{"android":"levelo://app?vid=2da43092-83ee-4088-b094-ae07195e1ccc","ios":"levelo://app?vid=2da43092-83ee-4088-b094-ae07195e1ccc"},"vehicle_type_id":"4","last_reported":1746292082,"current_range_meters":17200,"station_id":"ce4bhp92rcd13ifvqhbg","pricing_plan_id":"cebpf4jnsgd1na2vs0mg"},{"bike_id":"b44f9884-ad91-4c4f-8556-0c40c7f3c478","system_id":"levelo_inurba_marseille","lat":43.23174,"lon":5.35546,"is_reserved":false,"is_disabled":false,"rental_uris":{"android":"levelo://app?vid=b44f9884-ad91-4c4f-8556-0c40c7f3c478","ios":"levelo://app?vid=b44f9884-ad91-4c4f-8556-0c40c7f3c478"},"vehicle_type_id":"4","last_reported":1746292082,"current_range_meters":17200,"station_id":"ce4bhu92rcd13ifvqi70","pricing_plan_id":"cebpf4jnsgd1na2vs0mg"},{"bike_id":"23bddf3f-3683-43d8-96ac-258b0292ec1a","system_id":"levelo_inurba_marseille","lat":43.28412,"lon":5.34983,"is_reserved":false,"is_disabled":false,"rental_uris":{"android":"levelo://app?vid=23bddf3f-3683-43d8-96ac-258b0292ec1a","ios":"levelo://app?vid=23bddf3f-3683-43d8-96ac-258b0292ec1a"},"vehicle_type_id":"4","last_reported":1746292082,"current_range_meters":17600,"station_id":"ce4bhbh2rcd13ifvqepg","pricing_plan_id":"cebpf4jnsgd1na2vs0mg"},{"bike_id":"db6c49da-c670-4836-ab86-4f084393b9a1","system_id":"levelo_inurba_marseille","lat":43.27071,"lon":5.42278,"is_reserved":false,"is_disabled":false,"rental_uris":{"android":"levelo://app?vid=db6c49da-c670-4836-ab86-4f084393b9a1","ios":"levelo://app?vid=db6c49da-c670-4836-ab86-4f084393b9a1"},"vehicle_type_id":"4","last_reported":1746292082,"current_range_meters":17600,"station_id":"ce4bhk92rcd13ifvqgb0","pricing_plan_id":"cebpf4jnsgd1na2vs0mg"},{"bike_id":"3cfe8f65-b62c-4123-a3ff-5194ce80bce9","system_id":"levelo_inurba_marseille","lat":43.27991,"lon":5.416623,"is_reserved":false,"is_disabled":false,"rental_uris":{"android":"levelo://app?vid=3cfe8f65-b62c-4123-a3ff-5194ce80bce9","ios":"levelo://app?vid=3cfe8f65-b62c-4123-a3ff-5194ce80bce9"},"vehicle_type_id":"4","last_reported":1746292082,"current_range_meters":17600,"station_id":"ce4bho12rcd13ifvqh1g","pricing_plan_id":"cebpf4jnsgd1na2vs0mg"},{"bike_id":"9311d46e-85c6-4bb6-9685-91abbb5d4d0b","system_id":"levelo_inurba_marseille","lat":43.32364,"lon":5.38887,"is_reserved":false,"is_disabled":false,"rental_uris":{"android":"levelo://app?vid=9311d46e-85c6-4bb6-9685-91abbb5d4d0b","ios":"levelo://app?vid=9311d46e-85c6-4bb6-9685-91abbb5d4d0b"},"vehicle_type_id":"4","last_reported":1746292082,"current_range_meters":17600,"station_id":"ce4bhqp2rcd13ifvqhog","pricing_plan_id":"cebpf4jnsgd1na2vs0mg"},{"bike_id":"29fae378-2ee6-4b82-83d1-c7f2f0b8f0e9","system_id":"levelo_inurba_marseille","lat":43.29792,"lon":5.38106,"is_reserved":false,"is_disabled":false,"rental_uris":{"android":"levelo://app?vid=29fae378-2ee6-4b82-83d1-c7f2f0b8f0e9","ios":"levelo://app?vid=29fae378-2ee6-4b82-83d1-c7f2f0b8f0e9"},"vehicle_type_id":"4","last_reported":1746292082,"current_range_meters":18000,"station_id":"ce4bgip2rcd13ifvqbb0","pricing_plan_id":"cebpf4jnsgd1na2vs0mg"},{"bike_id":"e0eb2257-89c1-4851-bec9-ef9639111322","system_id":"levelo_inurba_marseille","lat":43.29989,"lon":5.37215,"is_reserved":false,"is_disabled":false,"rental_uris":{"android":"levelo://app?vid=e0eb2257-89c1-4851-bec9-ef9639111322","ios":"levelo://app?vid=e0eb2257-89c1-4851-bec9-ef9639111322"},"vehicle_type_id":"4","last_reported":1746292082,"current_range_meters":18000,"station_id":"ce4bgr92rcd13ifvqc7g","pricing_plan_id":"cebpf4jnsgd1na2vs0mg"},{"bike_id":"50caf8cf-330f-4055-bec1-2de4b439365f","system_id":"levelo_inurba_marseille","lat":43.2804,"lon":5.36946,"is_reserved":false,"is_disabled":false,"rental_uris":{"android":"levelo://app?vid=50caf8cf-330f-4055-bec1-2de4b439365f","ios":"levelo://app?vid=50caf8cf-330f-4055-bec1-2de4b439365f"},"vehicle_type_id":"4","last_reported":1746292082,"current_range_meters":18000,"station_id":"ce4bha12rcd13ifvqef0","pricing_plan_id":"cebpf4jnsgd1na2vs0mg"},{"bike_id":"29f63439-78e8-4f8e-ab5f-de44b69c41f8","system_id":"levelo_inurba_marseille","lat":43.22939,"lon":5.35377,"is_reserved":false,"is_disabled":false,"rental_uris":{"android":"levelo://app?vid=29f63439-78e8-4f8e-ab5f-de44b69c41f8","ios":"levelo://app?vid=29f63439-78e8-4f8e-ab5f-de44b69c41f8"},"vehicle_type_id":"4","last_reported":1746292082,"current_range_meters":18000,"station_id":"cpo3532slgdg3j2ikp40","pricing_plan_id":"cebpf4jnsgd1na2vs0mg"},{"bike_id":"435fe5b4-0445-4bdc-984c-ccfaa92bfe45","system_id":"levelo_inurba_marseille","lat":43.27059,"lon":5.42288,"is_reserved":false,"is_disabled":false,"rental_uris":{"android":"levelo://app?vid=435fe5b4-0445-4bdc-984c-ccfaa92bfe45","ios":"levelo://app?vid=435fe5b4-0445-4bdc-984c-ccfaa92bfe45"},"vehicle_type_id":"4","last_reported":1746292082,"current_range_meters":18800,"station_id":"ce4bhk92rcd13ifvqgb0","pricing_plan_id":"cebpf4jnsgd1na2vs0mg"},{"bike_id":"b1a89860-ad8b-4c44-bc06-964bf76b4354","system_id":"levelo_inurba_marseille","lat":43.29959,"lon":5.41309,"is_reserved":false,"is_disabled":false,"rental_uris":{"android":"levelo://app?vid=b1a89860-ad8b-4c44-bc06-964bf76b4354","ios":"levelo://app?vid=b1a89860-ad8b-4c44-bc06-964bf76b4354"},"vehicle_type_id":"4","last_reported":1746292082,"current_range_meters":18800,"station_id":"ce4bhp12rcd13ifvqh9g","pricing_plan_id":"cebpf4jnsgd1na2vs0mg"},{"bike_id":"ac33d6ff-248a-4d8b-b9cc-5ce6164a8602","system_id":"levelo_inurba_marseille","lat":43.29263,"lon":5.37608,"is_reserved":false,"is_disabled":false,"rental_uris":{"android":"levelo://app?vid=ac33d6ff-248a-4d8b-b9cc-5ce6164a8602","ios":"levelo://app?vid=ac33d6ff-248a-4d8b-b9cc-5ce6164a8602"},"vehicle_type_id":"4","last_reported":1746292082,"current_range_meters":19200,"station_id":"ce4bgi12rcd13ifvqb80","pricing_plan_id":"cebpf4jnsgd1na2vs0mg"},{"bike_id":"2b857b85-f7ef-47c4-bd9e-1e10fb0917a7","system_id":"levelo_inurba_marseille","lat":43.29433,"lon":5.39746,"is_reserved":false,"is_disabled":false,"rental_uris":{"android":"levelo://app?vid=2b857b85-f7ef-47c4-bd9e-1e10fb0917a7","ios":"levelo://app?vid=2b857b85-f7ef-47c4-bd9e-1e10fb0917a7"},"vehicle_type_id":"4","last_reported":1746292082,"current_range_meters":19200,"station_id":"ce4bh3h2rcd13ifvqdo0","pricing_plan_id":"cebpf4jnsgd1na2vs0mg"},{"bike_id":"8d7c317f-c197-4507-ba07-202234c84c96","system_id":"levelo_inurba_marseille","lat":43.28979,"lon":5.3783,"is_reserved":false,"is_disabled":false,"rental_uris":{"android":"levelo://app?vid=8d7c317f-c197-4507-ba07-202234c84c96","ios":"levelo://app?vid=8d7c317f-c197-4507-ba07-202234c84c96"},"vehicle_type_id":"4","last_reported":1746292082,"current_range_meters":19200,"station_id":"ce4bh9p2rcd13ifvqed0","pricing_plan_id":"cebpf4jnsgd1na2vs0mg"},{"bike_id":"82ccf922-988c-480f-ab99-e8cc8738561f","system_id":"levelo_inurba_marseille","lat":43.27916,"lon":5.39579,"is_reserved":false,"is_disabled":false,"rental_uris":{"android":"levelo://app?vid=82ccf922-988c-480f-ab99-e8cc8738561f","ios":"levelo://app?vid=82ccf922-988c-480f-ab99-e8cc8738561f"},"vehicle_type_id":"4","last_reported":1746292082,"current_range_meters":19600,"station_id":"ce4bhf92rcd13ifvqf40","pricing_plan_id":"cebpf4jnsgd1na2vs0mg"},{"bike_id":"43f220ab-0408-46b3-abe5-60437ce3bc1e","system_id":"levelo_inurba_marseille","lat":43.23204,"lon":5.35568,"is_reserved":false,"is_disabled":false,"rental_uris":{"android":"levelo://app?vid=43f220ab-0408-46b3-abe5-60437ce3bc1e","ios":"levelo://app?vid=43f220ab-0408-46b3-abe5-60437ce3bc1e"},"vehicle_type_id":"4","last_reported":1746292082,"current_range_meters":19600,"station_id":"ce4bhu92rcd13ifvqi70","pricing_plan_id":"cebpf4jnsgd1na2vs0mg"},{"bike_id":"bc31a730-22b5-4417-9d7e-0c5b8ab6af3d","system_id":"levelo_inurba_marseille","lat":43.31713,"lon":5.4371,"is_reserved":false,"is_disabled":false,"rental_uris":{"android":"levelo://app?vid=bc31a730-22b5-4417-9d7e-0c5b8ab6af3d","ios":"levelo://app?vid=bc31a730-22b5-4417-9d7e-0c5b8ab6af3d"},"vehicle_type_id":"4","last_reported":1746292082,"current_range_meters":20000,"station_id":"ce4bhp92rcd13ifvqhcg","pricing_plan_id":"cebpf4jnsgd1na2vs0mg"},{"bike_id":"bceb0439-68e2-48cb-86fe-43dd4098ff5c","system_id":"levelo_inurba_marseille","lat":43.31751,"lon":5.39018,"is_reserved":false,"is_disabled":false,"rental_uris":{"android":"levelo://app?vid=bceb0439-68e2-48cb-86fe-43dd4098ff5c","ios":"levelo://app?vid=bceb0439-68e2-48cb-86fe-43dd4098ff5c"},"vehicle_type_id":"4","last_reported":1746292082,"current_range_meters":20000,"station_id":"ce4bhqp2rcd13ifvqhng","pricing_plan_id":"cebpf4jnsgd1na2vs0mg"},{"bike_id":"d80c6b9a-a52f-4c75-bfd6-7a184807d30f","system_id":"levelo_inurba_marseille","lat":43.29043,"lon":5.35921,"is_reserved":false,"is_disabled":false,"rental_uris":{"android":"levelo://app?vid=d80c6b9a-a52f-4c75-bfd6-7a184807d30f","ios":"levelo://app?vid=d80c6b9a-a52f-4c75-bfd6-7a184807d30f"},"vehicle_type_id":"4","last_reported":1746292082,"current_range_meters":20400,"station_id":"ce4bha92rcd13ifvqeg0","pricing_plan_id":"cebpf4jnsgd1na2vs0mg"},{"bike_id":"003fb450-9ce3-4006-abcc-e278dc667d44","system_id":"levelo_inurba_marseille","lat":43.29005,"lon":5.35612,"is_reserved":false,"is_disabled":false,"rental_uris":{"android":"levelo://app?vid=003fb450-9ce3-4006-abcc-e278dc667d44","ios":"levelo://app?vid=003fb450-9ce3-4006-abcc-e278dc667d44"},"vehicle_type_id":"4","last_reported":1746292082,"current_range_meters":20400,"station_id":"ce4bhb92rcd13ifvqen0","pricing_plan_id":"cebpf4jnsgd1na2vs0mg"},{"bike_id":"8cb6de71-63db-4b39-a496-3758f9927de2","system_id":"levelo_inurba_marseille","lat":43.28421,"lon":5.34988,"is_reserved":false,"is_disabled":false,"rental_uris":{"android":"levelo://app?vid=8cb6de71-63db-4b39-a496-3758f9927de2","ios":"levelo://app?vid=8cb6de71-63db-4b39-a496-3758f9927de2"},"vehicle_type_id":"4","last_reported":1746292082,"current_range_meters":20400,"station_id":"ce4bhbh2rcd13ifvqepg","pricing_plan_id":"cebpf4jnsgd1na2vs0mg"},{"bike_id":"7bbfad19-0042-42f2-8f46-0d6c625d3235","system_id":"levelo_inurba_marseille","lat":43.28258,"lon":5.35065,"is_reserved":false,"is_disabled":false,"rental_uris":{"android":"levelo://app?vid=7bbfad19-0042-42f2-8f46-0d6c625d3235","ios":"levelo://app?vid=7bbfad19-0042-42f2-8f46-0d6c625d3235"},"vehicle_type_id":"4","last_reported":1746292082,"current_range_meters":20400,"station_id":"ce4bhbp2rcd13ifvqerg","pricing_plan_id":"cebpf4jnsgd1na2vs0mg"},{"bike_id":"d192124d-4f77-4e6b-9ce6-25e35abb4f22","system_id":"levelo_inurba_marseille","lat":43.24382,"lon":5.3708,"is_reserved":false,"is_disabled":false,"rental_uris":{"android":"levelo://app?vid=d192124d-4f77-4e6b-9ce6-25e35abb4f22","ios":"levelo://app?vid=d192124d-4f77-4e6b-9ce6-25e35abb4f22"},"vehicle_type_id":"4","last_reported":1746292082,"current_range_meters":20400,"station_id":"ce4bhhh2rcd13ifvqfk0","pricing_plan_id":"cebpf4jnsgd1na2vs0mg"},{"bike_id":"29f06628-d8f0-4bdf-beb6-1d980ac4244a","system_id":"levelo_inurba_marseille","lat":43.24054,"lon":5.37757,"is_reserved":false,"is_disabled":false,"rental_uris":{"android":"levelo://app?vid=29f06628-d8f0-4bdf-beb6-1d980ac4244a","ios":"levelo://app?vid=29f06628-d8f0-4bdf-beb6-1d980ac4244a"},"vehicle_type_id":"4","last_reported":1746292082,"current_range_meters":20400,"station_id":"ce4bhnp2rcd13ifvqgvg","pricing_plan_id":"cebpf4jnsgd1na2vs0mg"},{"bike_id":"7586e44d-7a6d-4c4b-be6b-f298da912858","system_id":"levelo_inurba_marseille","lat":43.284424,"lon":5.391909,"is_reserved":false,"is_disabled":false,"rental_uris":{"android":"levelo://app?vid=7586e44d-7a6d-4c4b-be6b-f298da912858","ios":"levelo://app?vid=7586e44d-7a6d-4c4b-be6b-f298da912858"},"vehicle_type_id":"4","last_reported":1746292082,"current_range_meters":20400,"station_id":"ce4bhoh2rcd13ifvqh5g","pricing_plan_id":"cebpf4jnsgd1na2vs0mg"},{"bike_id":"a65fd9fe-7875-4c29-a528-ef09d63467a7","system_id":"levelo_inurba_marseille","lat":43.23074,"lon":5.35482,"is_reserved":false,"is_disabled":false,"rental_uris":{"android":"levelo://app?vid=a65fd9fe-7875-4c29-a528-ef09d63467a7","ios":"levelo://app?vid=a65fd9fe-7875-4c29-a528-ef09d63467a7"},"vehicle_type_id":"4","last_reported":1746292082,"current_range_meters":20400,"station_id":"cpo3342slgdg3j2ifvpg","pricing_plan_id":"cebpf4jnsgd1na2vs0mg"},{"bike_id":"6735d246-8a52-409c-9292-cb137729f9cb","system_id":"levelo_inurba_marseille","lat":43.22931,"lon":5.35384,"is_reserved":false,"is_disabled":false,"rental_uris":{"android":"levelo://app?vid=6735d246-8a52-409c-9292-cb137729f9cb","ios":"levelo://app?vid=6735d246-8a52-409c-9292-cb137729f9cb"},"vehicle_type_id":"4","last_reported":1746292082,"current_range_meters":20400,"station_id":"cpo3532slgdg3j2ikp40","pricing_plan_id":"cebpf4jnsgd1na2vs0mg"},{"bike_id":"6be1ce4c-463b-4947-9d95-b0a503658a67","system_id":"levelo_inurba_marseille","lat":43.29415,"lon":5.38622,"is_reserved":false,"is_disabled":false,"rental_uris":{"android":"levelo://app?vid=6be1ce4c-463b-4947-9d95-b0a503658a67","ios":"levelo://app?vid=6be1ce4c-463b-4947-9d95-b0a503658a67"},"vehicle_type_id":"4","last_reported":1746292082,"current_range_meters":20800,"station_id":"ce4bh2h2rcd13ifvqdh0","pricing_plan_id":"cebpf4jnsgd1na2vs0mg"},{"bike_id":"e8dc9c2a-3681-462b-8c9a-7de43dcdda60","system_id":"levelo_inurba_marseille","lat":43.287,"lon":5.37384,"is_reserved":false,"is_disabled":false,"rental_uris":{"android":"levelo://app?vid=e8dc9c2a-3681-462b-8c9a-7de43dcdda60","ios":"levelo://app?vid=e8dc9c2a-3681-462b-8c9a-7de43dcdda60"},"vehicle_type_id":"4","last_reported":1746292082,"current_range_meters":21600,"station_id":"ce4bh3p2rcd13ifvqdq0","pricing_plan_id":"cebpf4jnsgd1na2vs0mg"},{"bike_id":"2688fd45-2749-4e0c-bd7b-ed378b8c66a6","system_id":"levelo_inurba_marseille","lat":43.25583,"lon":5.38227,"is_reserved":false,"is_disabled":false,"rental_uris":{"android":"levelo://app?vid=2688fd45-2749-4e0c-bd7b-ed378b8c66a6","ios":"levelo://app?vid=2688fd45-2749-4e0c-bd7b-ed378b8c66a6"},"vehicle_type_id":"4","last_reported":1746292082,"current_range_meters":21600,"station_id":"ce4bhih2rcd13ifvqfs0","pricing_plan_id":"cebpf4jnsgd1na2vs0mg"},{"bike_id":"2f2e2422-0ca9-4635-8561-f770e540dc91","system_id":"levelo_inurba_marseille","lat":43.29198,"lon":5.39354,"is_reserved":false,"is_disabled":false,"rental_uris":{"android":"levelo://app?vid=2f2e2422-0ca9-4635-8561-f770e540dc91","ios":"levelo://app?vid=2f2e2422-0ca9-4635-8561-f770e540dc91"},"vehicle_type_id":"4","last_reported":1746292082,"current_range_meters":22000,"station_id":"","pricing_plan_id":"cebpf4jnsgd1na2vs0mg"},{"bike_id":"6ecea253-1f92-47e6-b792-6fd5d9a364ee","system_id":"levelo_inurba_marseille","lat":43.29796,"lon":5.38107,"is_reserved":false,"is_disabled":false,"rental_uris":{"android":"levelo://app?vid=6ecea253-1f92-47e6-b792-6fd5d9a364ee","ios":"levelo://app?vid=6ecea253-1f92-47e6-b792-6fd5d9a364ee"},"vehicle_type_id":"4","last_reported":1746292082,"current_range_meters":22000,"station_id":"ce4bgip2rcd13ifvqbb0","pricing_plan_id":"cebpf4jnsgd1na2vs0mg"},{"bike_id":"a426df38-52d3-4b32-9df2-d7688776cc2a","system_id":"levelo_inurba_marseille","lat":43.2804,"lon":5.36949,"is_reserved":false,"is_disabled":false,"rental_uris":{"android":"levelo://app?vid=a426df38-52d3-4b32-9df2-d7688776cc2a","ios":"levelo://app?vid=a426df38-52d3-4b32-9df2-d7688776cc2a"},"vehicle_type_id":"4","last_reported":1746292082,"current_range_meters":22000,"station_id":"ce4bha12rcd13ifvqef0","pricing_plan_id":"cebpf4jnsgd1na2vs0mg"},{"bike_id":"115eebb5-63e6-4487-983b-e7c9911ecc76","system_id":"levelo_inurba_marseille","lat":43.24806,"lon":5.37457,"is_reserved":false,"is_disabled":false,"rental_uris":{"android":"levelo://app?vid=115eebb5-63e6-4487-983b-e7c9911ecc76","ios":"levelo://app?vid=115eebb5-63e6-4487-983b-e7c9911ecc76"},"vehicle_type_id":"4","last_reported":1746292082,"current_range_meters":22000,"station_id":"ce4bhgh2rcd13ifvqfb0","pricing_plan_id":"cebpf4jnsgd1na2vs0mg"},{"bike_id":"58bd9ba8-440a-4ef9-9721-a060535e6955","system_id":"levelo_inurba_marseille","lat":43.24059,"lon":5.37746,"is_reserved":false,"is_disabled":false,"rental_uris":{"android":"levelo://app?vid=58bd9ba8-440a-4ef9-9721-a060535e6955","ios":"levelo://app?vid=58bd9ba8-440a-4ef9-9721-a060535e6955"},"vehicle_type_id":"4","last_reported":1746292082,"current_range_meters":22000,"station_id":"ce4bhnp2rcd13ifvqgvg","pricing_plan_id":"cebpf4jnsgd1na2vs0mg"},{"bike_id":"09267dcf-b248-4623-99cb-33b6255125c3","system_id":"levelo_inurba_marseille","lat":43.22935,"lon":5.353807,"is_reserved":false,"is_disabled":false,"rental_uris":{"android":"levelo://app?vid=09267dcf-b248-4623-99cb-33b6255125c3","ios":"levelo://app?vid=09267dcf-b248-4623-99cb-33b6255125c3"},"vehicle_type_id":"4","last_reported":1746292082,"current_range_meters":22000,"station_id":"cpo3532slgdg3j2ikp40","pricing_plan_id":"cebpf4jnsgd1na2vs0mg"},{"bike_id":"8ce74acc-977b-48c0-99fc-51b70fe45d65","system_id":"levelo_inurba_marseille","lat":43.284693,"lon":5.384158,"is_reserved":false,"is_disabled":false,"rental_uris":{"android":"levelo://app?vid=8ce74acc-977b-48c0-99fc-51b70fe45d65","ios":"levelo://app?vid=8ce74acc-977b-48c0-99fc-51b70fe45d65"},"vehicle_type_id":"4","last_reported":1746292082,"current_range_meters":22400,"station_id":"ce4bh512rcd13ifvqe3g","pricing_plan_id":"cebpf4jnsgd1na2vs0mg"},{"bike_id":"b678287b-5c4c-4aa2-9e8a-dcbbcaba476e","system_id":"levelo_inurba_marseille","lat":43.28036,"lon":5.36948,"is_reserved":false,"is_disabled":false,"rental_uris":{"android":"levelo://app?vid=b678287b-5c4c-4aa2-9e8a-dcbbcaba476e","ios":"levelo://app?vid=b678287b-5c4c-4aa2-9e8a-dcbbcaba476e"},"vehicle_type_id":"4","last_reported":1746292082,"current_range_meters":22400,"station_id":"ce4bha12rcd13ifvqef0","pricing_plan_id":"cebpf4jnsgd1na2vs0mg"},{"bike_id":"5a2e7511-70fa-4f50-aed5-285adf8b306e","system_id":"levelo_inurba_marseille","lat":43.28417,"lon":5.34999,"is_reserved":false,"is_disabled":false,"rental_uris":{"android":"levelo://app?vid=5a2e7511-70fa-4f50-aed5-285adf8b306e","ios":"levelo://app?vid=5a2e7511-70fa-4f50-aed5-285adf8b306e"},"vehicle_type_id":"4","last_reported":1746292082,"current_range_meters":22400,"station_id":"ce4bhbh2rcd13ifvqepg","pricing_plan_id":"cebpf4jnsgd1na2vs0mg"},{"bike_id":"fa039a04-d770-4559-a8e9-94351309aac0","system_id":"levelo_inurba_marseille","lat":43.28411,"lon":5.34984,"is_reserved":false,"is_disabled":false,"rental_uris":{"android":"levelo://app?vid=fa039a04-d770-4559-a8e9-94351309aac0","ios":"levelo://app?vid=fa039a04-d770-4559-a8e9-94351309aac0"},"vehicle_type_id":"4","last_reported":1746292082,"current_range_meters":22800,"station_id":"ce4bhbh2rcd13ifvqepg","pricing_plan_id":"cebpf4jnsgd1na2vs0mg"},{"bike_id":"013ce4f2-230a-4390-b0e4-09f896cf8d46","system_id":"levelo_inurba_marseille","lat":43.24804,"lon":5.37456,"is_reserved":false,"is_disabled":false,"rental_uris":{"android":"levelo://app?vid=013ce4f2-230a-4390-b0e4-09f896cf8d46","ios":"levelo://app?vid=013ce4f2-230a-4390-b0e4-09f896cf8d46"},"vehicle_type_id":"4","last_reported":1746292082,"current_range_meters":22800,"station_id":"ce4bhgh2rcd13ifvqfb0","pricing_plan_id":"cebpf4jnsgd1na2vs0mg"},{"bike_id":"85a730b5-c28f-4c6c-8e3f-734b4281147b","system_id":"levelo_inurba_marseille","lat":43.31515,"lon":5.38937,"is_reserved":false,"is_disabled":false,"rental_uris":{"android":"levelo://app?vid=85a730b5-c28f-4c6c-8e3f-734b4281147b","ios":"levelo://app?vid=85a730b5-c28f-4c6c-8e3f-734b4281147b"},"vehicle_type_id":"4","last_reported":1746292082,"current_range_meters":23200,"station_id":"","pricing_plan_id":"cebpf4jnsgd1na2vs0mg"},{"bike_id":"8da84dd2-e014-4855-a78e-1add9f802061","system_id":"levelo_inurba_marseille","lat":43.27994,"lon":5.41664,"is_reserved":false,"is_disabled":false,"rental_uris":{"android":"levelo://app?vid=8da84dd2-e014-4855-a78e-1add9f802061","ios":"levelo://app?vid=8da84dd2-e014-4855-a78e-1add9f802061"},"vehicle_type_id":"4","last_reported":1746292082,"current_range_meters":23200,"station_id":"ce4bho12rcd13ifvqh1g","pricing_plan_id":"cebpf4jnsgd1na2vs0mg"},{"bike_id":"50b1d9f5-d7f5-4774-98a9-dfe6be5d1f4d","system_id":"levelo_inurba_marseille","lat":43.3013,"lon":5.38787,"is_reserved":false,"is_disabled":false,"rental_uris":{"android":"levelo://app?vid=50b1d9f5-d7f5-4774-98a9-dfe6be5d1f4d","ios":"levelo://app?vid=50b1d9f5-d7f5-4774-98a9-dfe6be5d1f4d"},"vehicle_type_id":"4","last_reported":1746292082,"current_range_meters":24000,"station_id":"ce4bghh2rcd13ifvqb60","pricing_plan_id":"cebpf4jnsgd1na2vs0mg"},{"bike_id":"d59f3e9a-e8a8-47ed-bf5a-065b08c092d1","system_id":"levelo_inurba_marseille","lat":43.28262,"lon":5.35065,"is_reserved":false,"is_disabled":false,"rental_uris":{"android":"levelo://app?vid=d59f3e9a-e8a8-47ed-bf5a-065b08c092d1","ios":"levelo://app?vid=d59f3e9a-e8a8-47ed-bf5a-065b08c092d1"},"vehicle_type_id":"4","last_reported":1746292082,"current_range_meters":24000,"station_id":"ce4bhbp2rcd13ifvqerg","pricing_plan_id":"cebpf4jnsgd1na2vs0mg"},{"bike_id":"4e188edf-76b5-4965-b67d-1f6fb9f708ba","system_id":"levelo_inurba_marseille","lat":43.28393,"lon":5.35029,"is_reserved":false,"is_disabled":false,"rental_uris":{"android":"levelo://app?vid=4e188edf-76b5-4965-b67d-1f6fb9f708ba","ios":"levelo://app?vid=4e188edf-76b5-4965-b67d-1f6fb9f708ba"},"vehicle_type_id":"4","last_reported":1746292082,"current_range_meters":24400,"station_id":"","pricing_plan_id":"cebpf4jnsgd1na2vs0mg"},{"bike_id":"8c4d428c-9fad-446c-89df-e27b796239ae","system_id":"levelo_inurba_marseille","lat":43.284043,"lon":5.375008,"is_reserved":false,"is_disabled":false,"rental_uris":{"android":"levelo://app?vid=8c4d428c-9fad-446c-89df-e27b796239ae","ios":"levelo://app?vid=8c4d428c-9fad-446c-89df-e27b796239ae"},"vehicle_type_id":"4","last_reported":1746292082,"current_range_meters":24400,"station_id":"ce4bh412rcd13ifvqds0","pricing_plan_id":"cebpf4jnsgd1na2vs0mg"},{"bike_id":"f9c06284-82e5-425c-845f-ee46f6fc71e0","system_id":"levelo_inurba_marseille","lat":43.28105,"lon":5.37837,"is_reserved":false,"is_disabled":false,"rental_uris":{"android":"levelo://app?vid=f9c06284-82e5-425c-845f-ee46f6fc71e0","ios":"levelo://app?vid=f9c06284-82e5-425c-845f-ee46f6fc71e0"},"vehicle_type_id":"4","last_reported":1746292082,"current_range_meters":24800,"station_id":"ce4bha12rcd13ifvqee0","pricing_plan_id":"cebpf4jnsgd1na2vs0mg"},{"bike_id":"48d9ed1a-51cc-4bd5-bea9-a6d4d12ff93c","system_id":"levelo_inurba_marseille","lat":43.281011,"lon":5.378269,"is_reserved":false,"is_disabled":false,"rental_uris":{"android":"levelo://app?vid=48d9ed1a-51cc-4bd5-bea9-a6d4d12ff93c","ios":"levelo://app?vid=48d9ed1a-51cc-4bd5-bea9-a6d4d12ff93c"},"vehicle_type_id":"4","last_reported":1746292082,"current_range_meters":24800,"station_id":"ce4bha12rcd13ifvqee0","pricing_plan_id":"cebpf4jnsgd1na2vs0mg"},{"bike_id":"15e45c53-0637-49a5-b593-7612bf1e5135","system_id":"levelo_inurba_marseille","lat":43.25719,"lon":5.41098,"is_reserved":false,"is_disabled":false,"rental_uris":{"android":"levelo://app?vid=15e45c53-0637-49a5-b593-7612bf1e5135","ios":"levelo://app?vid=15e45c53-0637-49a5-b593-7612bf1e5135"},"vehicle_type_id":"4","last_reported":1746292082,"current_range_meters":24800,"station_id":"ce4bhkp2rcd13ifvqgd0","pricing_plan_id":"cebpf4jnsgd1na2vs0mg"},{"bike_id":"f34c9a02-8595-448b-9b8f-966261bd5301","system_id":"levelo_inurba_marseille","lat":43.31082,"lon":5.42426,"is_reserved":false,"is_disabled":false,"rental_uris":{"android":"levelo://app?vid=f34c9a02-8595-448b-9b8f-966261bd5301","ios":"levelo://app?vid=f34c9a02-8595-448b-9b8f-966261bd5301"},"vehicle_type_id":"4","last_reported":1746292082,"current_range_meters":24800,"station_id":"ce4bhp92rcd13ifvqhag","pricing_plan_id":"cebpf4jnsgd1na2vs0mg"},{"bike_id":"feefefcf-3a2e-460e-8b83-9bb73b46bade","system_id":"levelo_inurba_marseille","lat":43.24164,"lon":5.36392,"is_reserved":false,"is_disabled":false,"rental_uris":{"android":"levelo://app?vid=feefefcf-3a2e-460e-8b83-9bb73b46bade","ios":"levelo://app?vid=feefefcf-3a2e-460e-8b83-9bb73b46bade"},"vehicle_type_id":"4","last_reported":1746292082,"current_range_meters":24800,"station_id":"cpo36qri1sfpv3e86is0","pricing_plan_id":"cebpf4jnsgd1na2vs0mg"},{"bike_id":"63d6e5b4-4c4d-4862-8446-e8dd481cae17","system_id":"levelo_inurba_marseille","lat":43.225235,"lon":5.348372,"is_reserved":false,"is_disabled":false,"rental_uris":{"android":"levelo://app?vid=63d6e5b4-4c4d-4862-8446-e8dd481cae17","ios":"levelo://app?vid=63d6e5b4-4c4d-4862-8446-e8dd481cae17"},"vehicle_type_id":"4","last_reported":1746292082,"current_range_meters":25200,"station_id":"","pricing_plan_id":"cebpf4jnsgd1na2vs0mg"},{"bike_id":"2dce38cf-a8d4-49cd-9fcf-ef494d90a125","system_id":"levelo_inurba_marseille","lat":43.27146,"lon":5.36367,"is_reserved":false,"is_disabled":false,"rental_uris":{"android":"levelo://app?vid=2dce38cf-a8d4-49cd-9fcf-ef494d90a125","ios":"levelo://app?vid=2dce38cf-a8d4-49cd-9fcf-ef494d90a125"},"vehicle_type_id":"4","last_reported":1746292082,"current_range_meters":25200,"station_id":"","pricing_plan_id":"cebpf4jnsgd1na2vs0mg"},{"bike_id":"54c02da5-f512-4597-b834-2db9ab6ad663","system_id":"levelo_inurba_marseille","lat":43.28406,"lon":5.34994,"is_reserved":false,"is_disabled":false,"rental_uris":{"android":"levelo://app?vid=54c02da5-f512-4597-b834-2db9ab6ad663","ios":"levelo://app?vid=54c02da5-f512-4597-b834-2db9ab6ad663"},"vehicle_type_id":"4","last_reported":1746292082,"current_range_meters":25200,"station_id":"ce4bhbh2rcd13ifvqepg","pricing_plan_id":"cebpf4jnsgd1na2vs0mg"},{"bike_id":"b7c4565d-600b-47b6-acf5-47cbe54c6cbf","system_id":"levelo_inurba_marseille","lat":43.28262,"lon":5.35056,"is_reserved":false,"is_disabled":false,"rental_uris":{"android":"levelo://app?vid=b7c4565d-600b-47b6-acf5-47cbe54c6cbf","ios":"levelo://app?vid=b7c4565d-600b-47b6-acf5-47cbe54c6cbf"},"vehicle_type_id":"4","last_reported":1746292082,"current_range_meters":25200,"station_id":"ce4bhbp2rcd13ifvqerg","pricing_plan_id":"cebpf4jnsgd1na2vs0mg"},{"bike_id":"73adfee3-ae56-46e3-b454-85c43742d1b3","system_id":"levelo_inurba_marseille","lat":43.28148,"lon":5.42639,"is_reserved":false,"is_disabled":false,"rental_uris":{"android":"levelo://app?vid=73adfee3-ae56-46e3-b454-85c43742d1b3","ios":"levelo://app?vid=73adfee3-ae56-46e3-b454-85c43742d1b3"},"vehicle_type_id":"4","last_reported":1746292082,"current_range_meters":25200,"station_id":"ce4bhnh2rcd13ifvqgug","pricing_plan_id":"cebpf4jnsgd1na2vs0mg"},{"bike_id":"0adbbbc7-cafc-4889-aa77-d2ec61062c64","system_id":"levelo_inurba_marseille","lat":43.27936,"lon":5.41043,"is_reserved":false,"is_disabled":false,"rental_uris":{"android":"levelo://app?vid=0adbbbc7-cafc-4889-aa77-d2ec61062c64","ios":"levelo://app?vid=0adbbbc7-cafc-4889-aa77-d2ec61062c64"},"vehicle_type_id":"4","last_reported":1746292082,"current_range_meters":25200,"station_id":"ce4bhnp2rcd13ifvqh0g","pricing_plan_id":"cebpf4jnsgd1na2vs0mg"},{"bike_id":"4f0d398f-7e4b-43cf-962c-5bd613d3c695","system_id":"levelo_inurba_marseille","lat":43.22522,"lon":5.34796,"is_reserved":false,"is_disabled":false,"rental_uris":{"android":"levelo://app?vid=4f0d398f-7e4b-43cf-962c-5bd613d3c695","ios":"levelo://app?vid=4f0d398f-7e4b-43cf-962c-5bd613d3c695"},"vehicle_type_id":"4","last_reported":1746292082,"current_range_meters":25200,"station_id":"st_cvj5dfep6f1abm77gieg","pricing_plan_id":"cebpf4jnsgd1na2vs0mg"},{"bike_id":"408f7524-2d0b-4f21-8c80-887330f9f919","system_id":"levelo_inurba_marseille","lat":43.29694,"lon":5.3727,"is_reserved":false,"is_disabled":false,"rental_uris":{"android":"levelo://app?vid=408f7524-2d0b-4f21-8c80-887330f9f919","ios":"levelo://app?vid=408f7524-2d0b-4f21-8c80-887330f9f919"},"vehicle_type_id":"4","last_reported":1746292082,"current_range_meters":26000,"station_id":"ce4bgk12rcd13ifvqbj0","pricing_plan_id":"cebpf4jnsgd1na2vs0mg"},{"bike_id":"6b94631b-a1d7-4191-9cb5-d4642bbf1cb1","system_id":"levelo_inurba_marseille","lat":43.28454,"lon":5.35005,"is_reserved":false,"is_disabled":false,"rental_uris":{"android":"levelo://app?vid=6b94631b-a1d7-4191-9cb5-d4642bbf1cb1","ios":"levelo://app?vid=6b94631b-a1d7-4191-9cb5-d4642bbf1cb1"},"vehicle_type_id":"4","last_reported":1746292082,"current_range_meters":26000,"station_id":"ce4bhbh2rcd13ifvqepg","pricing_plan_id":"cebpf4jnsgd1na2vs0mg"},{"bike_id":"4a30ce01-cec6-4e15-8553-c4ae4820b16c","system_id":"levelo_inurba_marseille","lat":43.26678,"lon":5.3826,"is_reserved":false,"is_disabled":false,"rental_uris":{"android":"levelo://app?vid=4a30ce01-cec6-4e15-8553-c4ae4820b16c","ios":"levelo://app?vid=4a30ce01-cec6-4e15-8553-c4ae4820b16c"},"vehicle_type_id":"4","last_reported":1746292082,"current_range_meters":26000,"station_id":"ce4bhg92rcd13ifvqf90","pricing_plan_id":"cebpf4jnsgd1na2vs0mg"},{"bike_id":"c0682d36-5891-4772-8a3b-056a663518fe","system_id":"levelo_inurba_marseille","lat":43.26199,"lon":5.37932,"is_reserved":false,"is_disabled":false,"rental_uris":{"android":"levelo://app?vid=c0682d36-5891-4772-8a3b-056a663518fe","ios":"levelo://app?vid=c0682d36-5891-4772-8a3b-056a663518fe"},"vehicle_type_id":"4","last_reported":1746292082,"current_range_meters":26000,"station_id":"ce4bhjp2rcd13ifvqg90","pricing_plan_id":"cebpf4jnsgd1na2vs0mg"},