{"last_updated":1701904044,"ttl":30,"version":"2.2","data":{"bikes":[{"bike_id":"95a72856-b144-4ba4-b3c0-44001845a1c0","system_id":"levelo_inurba_marseille","lat":43.312239,"lon":5.368562,"is_reserved":false,"is_disabled":false,"rental_uris":{"android":"levelo://app?vid=95a72856-b144-4ba4-b3c0-44001845a1c0","ios":"levelo://app?vid=95a72856-b144-4ba4-b3c0-44001845a1c0"},"vehicle_type_id":"4","last_reported":1701904044,"current_range_meters":13200,"station_id":"ce4bgl92rcd13ifvqbq0","pricing_plan_id":"free"},{"bike_id":"0e60bf5b-58b5-4676-a52e-43e40b43a4ab","system_id":"levelo_inurba_marseille","lat":43.314811,"lon":5.373103,"is_reserved":false,"is_disabled":false,"rental_uris":{"android":"levelo://app?vid=0e60bf5b-58b5-4676-a52e-43e40b43a4ab","ios":"levelo://app?vid=0e60bf5b-58b5-4676-a52e-43e40b43a4ab"},"vehicle_type_id":"4","last_reported":1701904044,"current_range_meters":27600,"station_id":"ce4bgt12rcd13ifvqcd0","pricing_plan_id":"free"},{"bike_id":"99f77ac4-742a-4558-97fe-049e01ca37ae","system_id":"levelo_inurba_marseille","lat":43.309039,"lon":5.371797,"is_reserved":false,"is_disabled":false,"rental_uris":{"android":"levelo://app?vid=99f77ac4-742a-4558-97fe-049e01ca37ae","ios":"levelo://app?vid=99f77ac4-742a-4558-97fe-049e01ca37ae"},"vehicle_type_id":"4","last_reported":1701904044,"current_range_meters":9200,"station_id":"ce4bguh2rcd13ifvqckg","pricing_plan_id":"free"},{"bike_id":"b9e4ed01-0dbb-47ca-9f39-08ddd24f6b11","system_id":"levelo_inurba_marseille","lat":43.309039,"lon":5.371797,"is_reserved":false,"is_disabled":false,"rental_uris":{"android":"levelo://app?vid=b9e4ed01-0dbb-47ca-9f39-08ddd24f6b11","ios":"levelo://app?vid=b9e4ed01-0dbb-47ca-9f39-08ddd24f6b11"},"vehicle_type_id":"4","last_reported":1701904044,"current_range_meters":31200,"station_id":"ce4bguh2rcd13ifvqckg","pricing_plan_id":"free"},{"bike_id":"d4fd12af-ddd4-412c-a4bf-75a9b0b444fa","system_id":"levelo_inurba_marseille","lat":43.305989,"lon":5.37225,"is_reserved":false,"is_disabled":false,"rental_uris":{"android":"levelo://app?vid=d4fd12af-ddd4-412c-a4bf-75a9b0b444fa","ios":"levelo://app?vid=d4fd12af-ddd4-412c-a4bf-75a9b0b444fa"},"vehicle_type_id":"4","last_reported":1701904044,"current_range_meters":15600,"station_id":"ce4bgqh2rcd13ifvqc4g","pricing_plan_id":"free"},{"bike_id":"c4b8f64f-03ae-4e8b-8048-8e0c93b90bec","system_id":"levelo_inurba_marseille","lat":43.305989,"lon":5.37225,"is_reserved":false,"is_disabled":false,"rental_uris":{"android":"levelo://app?vid=c4b8f64f-03ae-4e8b-8048-8e0c93b90bec","ios":"levelo://app?vid=c4b8f64f-03ae-4e8b-8048-8e0c93b90bec"},"vehicle_type_id":"4","last_reported":1701904044,"current_range_meters":12400,"station_id":"ce4bgqh2rcd13ifvqc4g","pricing_plan_id":"free"},{"bike_id":"98d34160-44bd-4c77-8a70-c6f24aa03e8e","system_id":"levelo_inurba_marseille","lat":43.307945,"lon":5.376487,"is_reserved":false,"is_disabled":false,"rental_uris":{"android":"levelo://app?vid=98d34160-44bd-4c77-8a70-c6f24aa03e8e","ios":"levelo://app?vid=98d34160-44bd-4c77-8a70-c6f24aa03e8e"},"vehicle_type_id":"4","last_reported":1701904044,"current_range_meters":23600,"station_id":"ce4bgv92rcd13ifvqcq0","pricing_plan_id":"free"},{"bike_id":"4acc24d5-4cd8-4014-b332-c13fda0162ea","system_id":"levelo_inurba_marseille","lat":43.307945,"lon":5.376487,"is_reserved":false,"is_disabled":false,"rental_uris":{"android":"levelo://app?vid=4acc24d5-4cd8-4014-b332-c13fda0162ea","ios":"levelo://app?vid=4acc24d5-4cd8-4014-b332-c13fda0162ea"},"vehicle_type_id":"4","last_reported":1701904044,"current_range_meters":30400,"station_id":"ce4bgv92rcd13ifvqcq0","pricing_plan_id":"free"},{"bike_id":"24ca9868-e967-4e96-bb61-283e00cfa2fb","system_id":"levelo_inurba_marseille","lat":43.317075,"lon":5.377367,"is_reserved":false,"is_disabled":false,"rental_uris":{"android":"levelo://app?vid=24ca9868-e967-4e96-bb61-283e00cfa2fb","ios":"levelo://app?vid=24ca9868-e967-4e96-bb61-283e00cfa2fb"},"vehicle_type_id":"4","last_reported":1701904044,"current_range_meters":17200,"station_id":"ce4bgth2rcd13ifvqch0","pricing_plan_id":"free"},{"bike_id":"adf146c5-e4e1-4668-9a33-042940925130","system_id":"levelo_inurba_marseille","lat":43.31351,"lon":5.37909,"is_reserved":false,"is_disabled":false,"rental_uris":{"android":"levelo://app?vid=adf146c5-e4e1-4668-9a33-042940925130","ios":"levelo://app?vid=adf146c5-e4e1-4668-9a33-042940925130"},"vehicle_type_id":"4","last_reported":1701904044,"current_range_meters":4800,"station_id":"","pricing_plan_id":"free"},{"bike_id":"1ea60f58-75f7-4484-b705-1156df4b02ad","system_id":"levelo_inurba_marseille","lat":43.302835,"lon":5.37339,"is_reserved":false,"is_disabled":false,"rental_uris":{"android":"levelo://app?vid=1ea60f58-75f7-4484-b705-1156df4b02ad","ios":"levelo://app?vid=1ea60f58-75f7-4484-b705-1156df4b02ad"},"vehicle_type_id":"4","last_reported":1701904044,"current_range_meters":7200,"station_id":"","pricing_plan_id":"free"},{"bike_id":"96fea6f2-e4f7-434a-8455-a23e8cff55e0","system_id":"levelo_inurba_marseille","lat":43.30808,"lon":5.38137,"is_reserved":false,"is_disabled":false,"rental_uris":{"android":"levelo://app?vid=96fea6f2-e4f7-434a-8455-a23e8cff55e0","ios":"levelo://app?vid=96fea6f2-e4f7-434a-8455-a23e8cff55e0"},"vehicle_type_id":"4","last_reported":1701904044,"current_range_meters":19200,"station_id":"ce4bgt12rcd13ifvqce0","pricing_plan_id":"free"},{"bike_id":"ef06e618-5d81-46a8-9e67-e09cfa024fed","system_id":"levelo_inurba_marseille","lat":43.308005,"lon":5.38149,"is_reserved":false,"is_disabled":false,"rental_uris":{"android":"levelo://app?vid=ef06e618-5d81-46a8-9e67-e09cfa024fed","ios":"levelo://app?vid=ef06e618-5d81-46a8-9e67-e09cfa024fed"},"vehicle_type_id":"4","last_reported":1701904044,"current_range_meters":22000,"station_id":"ce4bgt12rcd13ifvqce0","pricing_plan_id":"free"},{"bike_id":"88bc9434-2a81-4b96-9a56-98c10b349f69","system_id":"levelo_inurba_marseille","lat":43.30801,"lon":5.38164,"is_reserved":false,"is_disabled":false,"rental_uris":{"android":"levelo://app?vid=88bc9434-2a81-4b96-9a56-98c10b349f69","ios":"levelo://app?vid=88bc9434-2a81-4b96-9a56-98c10b349f69"},"vehicle_type_id":"4","last_reported":1701904044,"current_range_meters":23600,"station_id":"ce4bgt12rcd13ifvqce0","pricing_plan_id":"free"},{"bike_id":"c58a2089-b67f-42c5-ac7a-21fc01aff172","system_id":"levelo_inurba_marseille","lat":43.3166,"lon":5.38233,"is_reserved":false,"is_disabled":false,"rental_uris":{"android":"levelo://app?vid=c58a2089-b67f-42c5-ac7a-21fc01aff172","ios":"levelo://app?vid=c58a2089-b67f-42c5-ac7a-21fc01aff172"},"vehicle_type_id":"4","last_reported":1701904044,"current_range_meters":3600,"station_id":"","pricing_plan_id":"free"},{"bike_id":"869cc380-7af1-4035-869d-ad2afc9490bb","system_id":"levelo_inurba_marseille","lat":43.304539,"lon":5.379082,"is_reserved":false,"is_disabled":false,"rental_uris":{"android":"levelo://app?vid=869cc380-7af1-4035-869d-ad2afc9490bb","ios":"levelo://app?vid=869cc380-7af1-4035-869d-ad2afc9490bb"},"vehicle_type_id":"4","last_reported":1701904044,"current_range_meters":9600,"station_id":"ce4bgup2rcd13ifvqcn0","pricing_plan_id":"free"},{"bike_id":"e6a7946c-a7d5-4369-b254-577b631c8d1a","system_id":"levelo_inurba_marseille","lat":43.31719,"lon":5.38246,"is_reserved":false,"is_disabled":false,"rental_uris":{"android":"levelo://app?vid=e6a7946c-a7d5-4369-b254-577b631c8d1a","ios":"levelo://app?vid=e6a7946c-a7d5-4369-b254-577b631c8d1a"},"vehicle_type_id":"4","last_reported":1701904044,"current_range_meters":25600,"station_id":"","pricing_plan_id":"free"},{"bike_id":"44b639d4-c394-49b2-9e18-6098ae373bd6","system_id":"levelo_inurba_marseille","lat":43.31928,"lon":5.38125,"is_reserved":false,"is_disabled":false,"rental_uris":{"android":"levelo://app?vid=44b639d4-c394-49b2-9e18-6098ae373bd6","ios":"levelo://app?vid=44b639d4-c394-49b2-9e18-6098ae373bd6"},"vehicle_type_id":"4","last_reported":1701904044,"current_range_meters":30000,"station_id":"","pricing_plan_id":"free"},{"bike_id":"6f1a7f4d-a1d9-47fc-8be2-19cb7f99daaf","system_id":"levelo_inurba_marseille","lat":43.319935,"lon":5.381699,"is_reserved":false,"is_disabled":false,"rental_uris":{"android":"levelo://app?vid=6f1a7f4d-a1d9-47fc-8be2-19cb7f99daaf","ios":"levelo://app?vid=6f1a7f4d-a1d9-47fc-8be2-19cb7f99daaf"},"vehicle_type_id":"4","last_reported":1701904044,"current_range_meters":24400,"station_id":"ce4bhr12rcd13ifvqhpg","pricing_plan_id":"free"},{"bike_id":"9ee0ef7a-8d9c-4d78-8ae5-64e12b708d26","system_id":"levelo_inurba_marseille","lat":43.319997,"lon":5.381594,"is_reserved":false,"is_disabled":false,"rental_uris":{"android":"levelo://app?vid=9ee0ef7a-8d9c-4d78-8ae5-64e12b708d26","ios":"levelo://app?vid=9ee0ef7a-8d9c-4d78-8ae5-64e12b708d26"},"vehicle_type_id":"4","last_reported":1701904044,"current_range_meters":0,"station_id":"ce4bhr12rcd13ifvqhpg","pricing_plan_id":"free"},{"bike_id":"d4031a9d-8ccd-4e84-af74-7c6aea106ce1","system_id":"levelo_inurba_marseille","lat":43.299724,"lon":5.371829,"is_reserved":false,"is_disabled":false,"rental_uris":{"android":"levelo://app?vid=d4031a9d-8ccd-4e84-af74-7c6aea106ce1","ios":"levelo://app?vid=d4031a9d-8ccd-4e84-af74-7c6aea106ce1"},"vehicle_type_id":"4","last_reported":1701904044,"current_range_meters":25600,"station_id":"ce4bgr92rcd13ifvqc7g","pricing_plan_id":"free"},{"bike_id":"216d3697-4409-45cd-84a6-8aa7404af504","system_id":"levelo_inurba_marseille","lat":43.305364,"lon":5.384119,"is_reserved":false,"is_disabled":false,"rental_uris":{"android":"levelo://app?vid=216d3697-4409-45cd-84a6-8aa7404af504","ios":"levelo://app?vid=216d3697-4409-45cd-84a6-8aa7404af504"},"vehicle_type_id":"4","last_reported":1701904044,"current_range_meters":13600,"station_id":"ce4bgg92rcd13ifvqb30","pricing_plan_id":"free"},{"bike_id":"c2991ac8-e5cb-40aa-a94c-e334151ac96e","system_id":"levelo_inurba_marseille","lat":43.299243,"lon":5.37481,"is_reserved":false,"is_disabled":false,"rental_uris":{"android":"levelo://app?vid=c2991ac8-e5cb-40aa-a94c-e334151ac96e","ios":"levelo://app?vid=c2991ac8-e5cb-40aa-a94c-e334151ac96e"},"vehicle_type_id":"4","last_reported":1701904044,"current_range_meters":7200,"station_id":"ce4bgjh2rcd13ifvqbg0","pricing_plan_id":"free"},{"bike_id":"ee444d31-7a6e-41a9-852f-390743db0182","system_id":"levelo_inurba_marseille","lat":43.311722,"lon":5.387247,"is_reserved":false,"is_disabled":false,"rental_uris":{"android":"levelo://app?vid=ee444d31-7a6e-41a9-852f-390743db0182","ios":"levelo://app?vid=ee444d31-7a6e-41a9-852f-390743db0182"},"vehicle_type_id":"4","last_reported":1701904044,"current_range_meters":4400,"station_id":"ce4bgv12rcd13ifvqcp0","pricing_plan_id":"free"},{"bike_id":"c06bcb74-9491-4073-a043-23725a2ed7dd","system_id":"levelo_inurba_marseille","lat":43.311722,"lon":5.387247,"is_reserved":false,"is_disabled":false,"rental_uris":{"android":"levelo://app?vid=c06bcb74-9491-4073-a043-23725a2ed7dd","ios":"levelo://app?vid=c06bcb74-9491-4073-a043-23725a2ed7dd"},"vehicle_type_id":"4","last_reported":1701904044,"current_range_meters":1200,"station_id":"ce4bgv12rcd13ifvqcp0","pricing_plan_id":"free"},{"bike_id":"bb00e9cf-e217-4cbc-a3fc-aca8f7715fed","system_id":"levelo_inurba_marseille","lat":43.311722,"lon":5.387247,"is_reserved":false,"is_disabled":false,"rental_uris":{"android":"levelo://app?vid=bb00e9cf-e217-4cbc-a3fc-aca8f7715fed","ios":"levelo://app?vid=bb00e9cf-e217-4cbc-a3fc-aca8f7715fed"},"vehicle_type_id":"4","last_reported":1701904044,"current_range_meters":6000,"station_id":"ce4bgv12rcd13ifvqcp0","pricing_plan_id":"free"},{"bike_id":"11c849a2-1a44-4b85-b8c6-c5a9285dc076","system_id":"levelo_inurba_marseille","lat":43.311722,"lon":5.387247,"is_reserved":false,"is_disabled":false,"rental_uris":{"android":"levelo://app?vid=11c849a2-1a44-4b85-b8c6-c5a9285dc076","ios":"levelo://app?vid=11c849a2-1a44-4b85-b8c6-c5a9285dc076"},"vehicle_type_id":"4","last_reported":1701904044,"current_range_meters":13200,"station_id":"ce4bgv12rcd13ifvqcp0","pricing_plan_id":"free"},{"bike_id":"01a5f12b-ea60-4b50-b51b-7141b2ef8953","system_id":"levelo_inurba_marseille","lat":43.311722,"lon":5.387247,"is_reserved":false,"is_disabled":false,"rental_uris":{"android":"levelo://app?vid=01a5f12b-ea60-4b50-b51b-7141b2ef8953","ios":"levelo://app?vid=01a5f12b-ea60-4b50-b51b-7141b2ef8953"},"vehicle_type_id":"4","last_reported":1701904044,"current_range_meters":31600,"station_id":"ce4bgv12rcd13ifvqcp0","pricing_plan_id":"free"},{"bike_id":"dcfcce41-8840-4a9c-b046-ec8f2f9d33dc","system_id":"levelo_inurba_marseille","lat":43.311722,"lon":5.387247,"is_reserved":false,"is_disabled":false,"rental_uris":{"android":"levelo://app?vid=dcfcce41-8840-4a9c-b046-ec8f2f9d33dc","ios":"levelo://app?vid=dcfcce41-8840-4a9c-b046-ec8f2f9d33dc"},"vehicle_type_id":"4","last_reported":1701904044,"current_range_meters":27200,"station_id":"ce4bgv12rcd13ifvqcp0","pricing_plan_id":"free"},{"bike_id":"8ea517ed-5872-41be-94ed-15f3d4055839","system_id":"levelo_inurba_marseille","lat":43.311722,"lon":5.387247,"is_reserved":false,"is_disabled":false,"rental_uris":{"android":"levelo://app?vid=8ea517ed-5872-41be-94ed-15f3d4055839","ios":"levelo://app?vid=8ea517ed-5872-41be-94ed-15f3d4055839"},"vehicle_type_id":"4","last_reported":1701904044,"current_range_meters":6800,"station_id":"ce4bgv12rcd13ifvqcp0","pricing_plan_id":"free"},{"bike_id":"cf9cac76-eb44-4109-ae11-c2c37f059853","system_id":"levelo_inurba_marseille","lat":43.311722,"lon":5.387247,"is_reserved":false,"is_disabled":false,"rental_uris":{"android":"levelo://app?vid=cf9cac76-eb44-4109-ae11-c2c37f059853","ios":"levelo://app?vid=cf9cac76-eb44-4109-ae11-c2c37f059853"},"vehicle_type_id":"4","last_reported":1701904044,"current_range_meters":14400,"station_id":"ce4bgv12rcd13ifvqcp0","pricing_plan_id":"free"},{"bike_id":"ccd2930a-694b-4f68-b635-18c1f22abb51","system_id":"levelo_inurba_marseille","lat":43.322872,"lon":5.382756,"is_reserved":false,"is_disabled":false,"rental_uris":{"android":"levelo://app?vid=ccd2930a-694b-4f68-b635-18c1f22abb51","ios":"levelo://app?vid=ccd2930a-694b-4f68-b635-18c1f22abb51"},"vehicle_type_id":"4","last_reported":1701904044,"current_range_meters":31600,"station_id":"ce4bhr12rcd13ifvqhqg","pricing_plan_id":"free"},{"bike_id":"e162cb92-ec88-4378-922d-c24222956199","system_id":"levelo_inurba_marseille","lat":43.322872,"lon":5.382756,"is_reserved":false,"is_disabled":false,"rental_uris":{"android":"levelo://app?vid=e162cb92-ec88-4378-922d-c24222956199","ios":"levelo://app?vid=e162cb92-ec88-4378-922d-c24222956199"},"vehicle_type_id":"4","last_reported":1701904044,"current_range_meters":25200,"station_id":"ce4bhr12rcd13ifvqhqg","pricing_plan_id":"free"},{"bike_id":"55ccc96c-fa12-43da-ace3-cf5d15fb5429","system_id":"levelo_inurba_marseille","lat":43.298218,"lon":5.374416,"is_reserved":false,"is_disabled":false,"rental_uris":{"android":"levelo://app?vid=55ccc96c-fa12-43da-ace3-cf5d15fb5429","ios":"levelo://app?vid=55ccc96c-fa12-43da-ace3-cf5d15fb5429"},"vehicle_type_id":"4","last_reported":1701904044,"current_range_meters":12000,"station_id":"","pricing_plan_id":"free"},{"bike_id":"2424b203-2bfa-46d0-8b7b-b616d11edac6","system_id":"levelo_inurba_marseille","lat":43.32851,"lon":5.36241,"is_reserved":false,"is_disabled":false,"rental_uris":{"android":"levelo://app?vid=2424b203-2bfa-46d0-8b7b-b616d11edac6","ios":"levelo://app?vid=2424b203-2bfa-46d0-8b7b-b616d11edac6"},"vehicle_type_id":"4","last_reported":1701904044,"current_range_meters":7200,"station_id":"","pricing_plan_id":"free"},{"bike_id":"94007754-7055-4e9f-884b-a69ad1a23f33","system_id":"levelo_inurba_marseille","lat":43.29889,"lon":5.37823,"is_reserved":false,"is_disabled":false,"rental_uris":{"android":"levelo://app?vid=94007754-7055-4e9f-884b-a69ad1a23f33","ios":"levelo://app?vid=94007754-7055-4e9f-884b-a69ad1a23f33"},"vehicle_type_id":"4","last_reported":1701904044,"current_range_meters":21600,"station_id":"","pricing_plan_id":"free"},{"bike_id":"92dc65d6-6823-4de3-93d4-056f738f090c","system_id":"levelo_inurba_marseille","lat":43.316538,"lon":5.38954,"is_reserved":false,"is_disabled":false,"rental_uris":{"android":"levelo://app?vid=92dc65d6-6823-4de3-93d4-056f738f090c","ios":"levelo://app?vid=92dc65d6-6823-4de3-93d4-056f738f090c"},"vehicle_type_id":"4","last_reported":1701904044,"current_range_meters":7600,"station_id":"","pricing_plan_id":"free"},{"bike_id":"b57e00ed-d800-4fa2-a560-ed9f3677da15","system_id":"levelo_inurba_marseille","lat":43.29573,"lon":5.367355,"is_reserved":false,"is_disabled":false,"rental_uris":{"android":"levelo://app?vid=b57e00ed-d800-4fa2-a560-ed9f3677da15","ios":"levelo://app?vid=b57e00ed-d800-4fa2-a560-ed9f3677da15"},"vehicle_type_id":"4","last_reported":1701904044,"current_range_meters":25200,"station_id":"ce4bgph2rcd13ifvqc2g","pricing_plan_id":"free"},{"bike_id":"369b4531-05e2-4fb5-8b95-4d48b3fdadc1","system_id":"levelo_inurba_marseille","lat":43.309589,"lon":5.390258,"is_reserved":false,"is_disabled":false,"rental_uris":{"android":"levelo://app?vid=369b4531-05e2-4fb5-8b95-4d48b3fdadc1","ios":"levelo://app?vid=369b4531-05e2-4fb5-8b95-4d48b3fdadc1"},"vehicle_type_id":"4","last_reported":1701904044,"current_range_meters":10000,"station_id":"ce4bgup2rcd13ifvqco0","pricing_plan_id":"free"},{"bike_id":"b8123667-3923-419d-a9cf-5a453fd5da91","system_id":"levelo_inurba_marseille","lat":43.317557,"lon":5.390173,"is_reserved":false,"is_disabled":false,"rental_uris":{"android":"levelo://app?vid=b8123667-3923-419d-a9cf-5a453fd5da91","ios":"levelo://app?vid=b8123667-3923-419d-a9cf-5a453fd5da91"},"vehicle_type_id":"4","last_reported":1701904044,"current_range_meters":28400,"station_id":"ce4bhqp2rcd13ifvqhng","pricing_plan_id":"free"},{"bike_id":"7e5f8713-e356-4b61-8554-cdd9444e51ee","system_id":"levelo_inurba_marseille","lat":43.317557,"lon":5.390173,"is_reserved":false,"is_disabled":false,"rental_uris":{"android":"levelo://app?vid=7e5f8713-e356-4b61-8554-cdd9444e51ee","ios":"levelo://app?vid=7e5f8713-e356-4b61-8554-cdd9444e51ee"},"vehicle_type_id":"4","last_reported":1701904044,"current_range_meters":4000,"station_id":"ce4bhqp2rcd13ifvqhng","pricing_plan_id":"free"},{"bike_id":"12daa09a-f553-48e2-8ccb-f63937d96b85","system_id":"levelo_inurba_marseille","lat":43.31755,"lon":5.39012,"is_reserved":false,"is_disabled":false,"rental_uris":{"android":"levelo://app?vid=12daa09a-f553-48e2-8ccb-f63937d96b85","ios":"levelo://app?vid=12daa09a-f553-48e2-8ccb-f63937d96b85"},"vehicle_type_id":"4","last_reported":1701904044,"current_range_meters":26000,"station_id":"ce4bhqp2rcd13ifvqhng","pricing_plan_id":"free"},{"bike_id":"72714644-a730-462a-b220-6837667c5de6","system_id":"levelo_inurba_marseille","lat":43.31761,"lon":5.39014,"is_reserved":false,"is_disabled":false,"rental_uris":{"android":"levelo://app?vid=72714644-a730-462a-b220-6837667c5de6","ios":"levelo://app?vid=72714644-a730-462a-b220-6837667c5de6"},"vehicle_type_id":"4","last_reported":1701904044,"current_range_meters":18400,"station_id":"","pricing_plan_id":"free"},{"bike_id":"204a9fbb-891c-4391-a8fc-33da3f6cf344","system_id":"levelo_inurba_marseille","lat":43.317557,"lon":5.390173,"is_reserved":false,"is_disabled":false,"rental_uris":{"android":"levelo://app?vid=204a9fbb-891c-4391-a8fc-33da3f6cf344","ios":"levelo://app?vid=204a9fbb-891c-4391-a8fc-33da3f6cf344"},"vehicle_type_id":"4","last_reported":1701904044,"current_range_meters":23200,"station_id":"ce4bhqp2rcd13ifvqhng","pricing_plan_id":"free"},{"bike_id":"f209c709-5bf9-43ad-beaa-22e67660778d","system_id":"levelo_inurba_marseille","lat":43.304274,"lon":5.388873,"is_reserved":false,"is_disabled":false,"rental_uris":{"android":"levelo://app?vid=f209c709-5bf9-43ad-beaa-22e67660778d","ios":"levelo://app?vid=f209c709-5bf9-43ad-beaa-22e67660778d"},"vehicle_type_id":"4","last_reported":1701904044,"current_range_meters":15200,"station_id":"ce4bgk12rcd13ifvqbi0","pricing_plan_id":"free"},{"bike_id":"155016d2-5b09-4e03-9c50-d97d19aa6790","system_id":"levelo_inurba_marseille","lat":43.304274,"lon":5.388873,"is_reserved":false,"is_disabled":false,"rental_uris":{"android":"levelo://app?vid=155016d2-5b09-4e03-9c50-d97d19aa6790","ios":"levelo://app?vid=155016d2-5b09-4e03-9c50-d97d19aa6790"},"vehicle_type_id":"4","last_reported":1701904044,"current_range_meters":18000,"station_id":"ce4bgk12rcd13ifvqbi0","pricing_plan_id":"free"},{"bike_id":"e5c73fcb-0823-40a4-9805-74e44abd14f0","system_id":"levelo_inurba_marseille","lat":43.304278,"lon":5.388868,"is_reserved":false,"is_disabled":false,"rental_uris":{"android":"levelo://app?vid=e5c73fcb-0823-40a4-9805-74e44abd14f0","ios":"levelo://app?vid=e5c73fcb-0823-40a4-9805-74e44abd14f0"},"vehicle_type_id":"4","last_reported":1701904044,"current_range_meters":10800,"station_id":"ce4bgk12rcd13ifvqbi0","pricing_plan_id":"free"},{"bike_id":"c1b4cae9-c19f-46cf-a4c4-eb04452f98b6","system_id":"levelo_inurba_marseille","lat":43.29615,"lon":5.376877,"is_reserved":false,"is_disabled":false,"rental_uris":{"android":"levelo://app?vid=c1b4cae9-c19f-46cf-a4c4-eb04452f98b6","ios":"levelo://app?vid=c1b4cae9-c19f-46cf-a4c4-eb04452f98b6"},"vehicle_type_id":"4","last_reported":1701904044,"current_range_meters":20000,"station_id":"ce4bgi92rcd13ifvqb90","pricing_plan_id":"free"},{"bike_id":"b57b1b48-b6cd-4662-8954-887c52261018","system_id":"levelo_inurba_marseille","lat":43.29981,"lon":5.38482,"is_reserved":false,"is_disabled":false,"rental_uris":{"android":"levelo://app?vid=b57b1b48-b6cd-4662-8954-887c52261018","ios":"levelo://app?vid=b57b1b48-b6cd-4662-8954-887c52261018"},"vehicle_type_id":"4","last_reported":1701904044,"current_range_meters":0,"station_id":"ce4bgj92rcd13ifvqbd0","pricing_plan_id":"free"},{"bike_id":"9de1a80e-a5a6-4b70-9a80-3d9a37cc8846","system_id":"levelo_inurba_marseille","lat":43.330974,"lon":5.373105,"is_reserved":false,"is_disabled":false,"rental_uris":{"android":"levelo://app?vid=9de1a80e-a5a6-4b70-9a80-3d9a37cc8846","ios":"levelo://app?vid=9de1a80e-a5a6-4b70-9a80-3d9a37cc8846"},"vehicle_type_id":"4","last_reported":1701904044,"current_range_meters":28800,"station_id":"","pricing_plan_id":"free"},{"bike_id":"1cc17343-b5de-4b16-966d-05f8473003fb","system_id":"levelo_inurba_marseille","lat":43.32364,"lon":5.38883,"is_reserved":false,"is_disabled":false,"rental_uris":{"android":"levelo://app?vid=1cc17343-b5de-4b16-966d-05f8473003fb","ios":"levelo://app?vid=1cc17343-b5de-4b16-966d-05f8473003fb"},"vehicle_type_id":"4","last_reported":1701904044,"current_range_meters":10000,"station_id":"ce4bhqp2rcd13ifvqhog","pricing_plan_id":"free"},{"bike_id":"40e7cff0-3140-4ff1-ae53-e5ea4a1cf258","system_id":"levelo_inurba_marseille","lat":43.303002,"lon":5.392142,"is_reserved":false,"is_disabled":false,"rental_uris":{"android":"levelo://app?vid=40e7cff0-3140-4ff1-ae53-e5ea4a1cf258","ios":"levelo://app?vid=40e7cff0-3140-4ff1-ae53-e5ea4a1cf258"},"vehicle_type_id":"4","last_reported":1701904044,"current_range_meters":400,"station_id":"ce4bgkh2rcd13ifvqbk0","pricing_plan_id":"free"},{"bike_id":"2c1986b2-b7c2-4af7-b67a-7bd61b44dc85","system_id":"levelo_inurba_marseille","lat":43.29258,"lon":5.377133,"is_reserved":false,"is_disabled":false,"rental_uris":{"android":"levelo://app?vid=2c1986b2-b7c2-4af7-b67a-7bd61b44dc85","ios":"levelo://app?vid=2c1986b2-b7c2-4af7-b67a-7bd61b44dc85"},"vehicle_type_id":"4","last_reported":1701904044,"current_range_meters":0,"station_id":"","pricing_plan_id":"free"},{"bike_id":"71e143cf-8f35-4955-ba9e-f55a48217a9f","system_id":"levelo_inurba_marseille","lat":43.309038,"lon":5.396546,"is_reserved":false,"is_disabled":false,"rental_uris":{"android":"levelo://app?vid=71e143cf-8f35-4955-ba9e-f55a48217a9f","ios":"levelo://app?vid=71e143cf-8f35-4955-ba9e-f55a48217a9f"},"vehicle_type_id":"4","last_reported":1701904044,"current_range_meters":12000,"station_id":"ce4bh012rcd13ifvqcv0","pricing_plan_id":"free"},{"bike_id":"d2d89dde-48b1-40bb-8057-f941e18505ac","system_id":"levelo_inurba_marseille","lat":43.29193,"lon":5.35809,"is_reserved":false,"is_disabled":false,"rental_uris":{"android":"levelo://app?vid=d2d89dde-48b1-40bb-8057-f941e18505ac","ios":"levelo://app?vid=d2d89dde-48b1-40bb-8057-f941e18505ac"},"vehicle_type_id":"4","last_reported":1701904044,"current_range_meters":10800,"station_id":"ce4bhb12rcd13ifvqel0","pricing_plan_id":"free"},{"bike_id":"c0d3a541-72de-4a98-bde6-d3ea1c1aca90","system_id":"levelo_inurba_marseille","lat":43.309038,"lon":5.396546,"is_reserved":false,"is_disabled":false,"rental_uris":{"android":"levelo://app?vid=c0d3a541-72de-4a98-bde6-d3ea1c1aca90","ios":"levelo://app?vid=c0d3a541-72de-4a98-bde6-d3ea1c1aca90"},"vehicle_type_id":"4","last_reported":1701904044,"current_range_meters":800,"station_id":"ce4bh012rcd13ifvqcv0","pricing_plan_id":"free"},{"bike_id":"f933def7-c07d-45b0-8542-d8994d9378d8","system_id":"levelo_inurba_marseille","lat":43.313291,"lon":5.396838,"is_reserved":false,"is_disabled":false,"rental_uris":{"android":"levelo://app?vid=f933def7-c07d-45b0-8542-d8994d9378d8","ios":"levelo://app?vid=f933def7-c07d-45b0-8542-d8994d9378d8"},"vehicle_type_id":"4","last_reported":1701904044,"current_range_meters":400,"station_id":"ce4bgvp2rcd13ifvqcu0","pricing_plan_id":"free"},{"bike_id":"530918f1-7646-4030-9bad-e5eb049e9ca1","system_id":"levelo_inurba_marseille","lat":43.309038,"lon":5.396546,"is_reserved":false,"is_disabled":false,"rental_uris":{"android":"levelo://app?vid=530918f1-7646-4030-9bad-e5eb049e9ca1","ios":"levelo://app?vid=530918f1-7646-4030-9bad-e5eb049e9ca1"},"vehicle_type_id":"4","last_reported":1701904044,"current_range_meters":400,"station_id":"ce4bh012rcd13ifvqcv0","pricing_plan_id":"free"},{"bike_id":"2ff15245-8040-41b1-b1c5-c4fa1fcd89e7","system_id":"levelo_inurba_marseille","lat":43.309038,"lon":5.396546,"is_reserved":false,"is_disabled":false,"rental_uris":{"android":"levelo://app?vid=2ff15245-8040-41b1-b1c5-c4fa1fcd89e7","ios":"levelo://app?vid=2ff15245-8040-41b1-b1c5-c4fa1fcd89e7"},"vehicle_type_id":"4","last_reported":1701904044,"current_range_meters":2800,"station_id":"ce4bh012rcd13ifvqcv0","pricing_plan_id":"free"},{"bike_id":"3ea4acfa-23a8-4914-bd74-468143f6eacc","system_id":"levelo_inurba_marseille","lat":43.309038,"lon":5.396546,"is_reserved":false,"is_disabled":false,"rental_uris":{"android":"levelo://app?vid=3ea4acfa-23a8-4914-bd74-468143f6eacc","ios":"levelo://app?vid=3ea4acfa-23a8-4914-bd74-468143f6eacc"},"vehicle_type_id":"4","last_reported":1701904044,"current_range_meters":12800,"station_id":"ce4bh012rcd13ifvqcv0","pricing_plan_id":"free"},{"bike_id":"31bfb267-e273-46b3-b757-8342584a9719","system_id":"levelo_inurba_marseille","lat":43.309038,"lon":5.396546,"is_reserved":false,"is_disabled":false,"rental_uris":{"android":"levelo://app?vid=31bfb267-e273-46b3-b757-8342584a9719","ios":"levelo://app?vid=31bfb267-e273-46b3-b757-8342584a9719"},"vehicle_type_id":"4","last_reported":1701904044,"current_range_meters":22400,"station_id":"ce4bh012rcd13ifvqcv0","pricing_plan_id":"free"},{"bike_id":"a99b4782-3ffd-4889-9edd-cdd8e50ecfcf","system_id":"levelo_inurba_marseille","lat":43.309038,"lon":5.396546,"is_reserved":false,"is_disabled":false,"rental_uris":{"android":"levelo://app?vid=a99b4782-3ffd-4889-9edd-cdd8e50ecfcf","ios":"levelo://app?vid=a99b4782-3ffd-4889-9edd-cdd8e50ecfcf"},"vehicle_type_id":"4","last_reported":1701904044,"current_range_meters":8800,"station_id":"ce4bh012rcd13ifvqcv0","pricing_plan_id":"free"},{"bike_id":"3ab9c098-072f-48e6-be50-2c61b91f0031","system_id":"levelo_inurba_marseille","lat":43.309047,"lon":5.396551,"is_reserved":false,"is_disabled":false,"rental_uris":{"android":"levelo://app?vid=3ab9c098-072f-48e6-be50-2c61b91f0031","ios":"levelo://app?vid=3ab9c098-072f-48e6-be50-2c61b91f0031"},"vehicle_type_id":"4","last_reported":1701904044,"current_range_meters":8400,"station_id":"ce4bh012rcd13ifvqcv0","pricing_plan_id":"free"},{"bike_id":"b24a53f6-e261-4de5-bb40-019976a8a819","system_id":"levelo_inurba_marseille","lat":43.302008,"lon":5.394694,"is_reserved":false,"is_disabled":false,"rental_uris":{"android":"levelo://app?vid=b24a53f6-e261-4de5-bb40-019976a8a819","ios":"levelo://app?vid=b24a53f6-e261-4de5-bb40-019976a8a819"},"vehicle_type_id":"4","last_reported":1701904044,"current_range_meters":1600,"station_id":"ce4bh0p2rcd13ifvqd70","pricing_plan_id":"free"},{"bike_id":"a02a1b20-1fb1-4951-988a-77389649024d","system_id":"levelo_inurba_marseille","lat":43.289259,"lon":5.366364,"is_reserved":false,"is_disabled":false,"rental_uris":{"android":"levelo://app?vid=a02a1b20-1fb1-4951-988a-77389649024d","ios":"levelo://app?vid=a02a1b20-1fb1-4951-988a-77389649024d"},"vehicle_type_id":"4","last_reported":1701904044,"current_range_meters":22000,"station_id":"","pricing_plan_id":"free"},{"bike_id":"7694faf1-50fc-4578-8bf3-6a30af62990f","system_id":"levelo_inurba_marseille","lat":43.304296,"lon":5.397513,"is_reserved":false,"is_disabled":false,"rental_uris":{"android":"levelo://app?vid=7694faf1-50fc-4578-8bf3-6a30af62990f","ios":"levelo://app?vid=7694faf1-50fc-4578-8bf3-6a30af62990f"},"vehicle_type_id":"4","last_reported":1701904044,"current_range_meters":17600,"station_id":"ce4bh092rcd13ifvqd20","pricing_plan_id":"free"},{"bike_id":"ed9fffe7-e850-4088-bc8d-642d21a2e13a","system_id":"levelo_inurba_marseille","lat":43.29191,"lon":5.38297,"is_reserved":false,"is_disabled":false,"rental_uris":{"android":"levelo://app?vid=ed9fffe7-e850-4088-bc8d-642d21a2e13a","ios":"levelo://app?vid=ed9fffe7-e850-4088-bc8d-642d21a2e13a"},"vehicle_type_id":"4","last_reported":1701904044,"current_range_meters":0,"station_id":"","pricing_plan_id":"free"},{"bike_id":"eff298e0-514b-4314-a764-6d770936c6d1","system_id":"levelo_inurba_marseille","lat":43.31275,"lon":5.40168,"is_reserved":false,"is_disabled":false,"rental_uris":{"android":"levelo://app?vid=eff298e0-514b-4314-a764-6d770936c6d1","ios":"levelo://app?vid=eff298e0-514b-4314-a764-6d770936c6d1"},"vehicle_type_id":"4","last_reported":1701904044,"current_range_meters":27600,"station_id":"ce4bh092rcd13ifvqd30","pricing_plan_id":"free"},{"bike_id":"f7224b8b-3e32-4276-9b73-3461904cc10a","system_id":"levelo_inurba_marseille","lat":43.306412,"lon":5.401035,"is_reserved":false,"is_disabled":false,"rental_uris":{"android":"levelo://app?vid=f7224b8b-3e32-4276-9b73-3461904cc10a","ios":"levelo://app?vid=f7224b8b-3e32-4276-9b73-3461904cc10a"},"vehicle_type_id":"4","last_reported":1701904044,"current_range_meters":21200,"station_id":"ce4bh112rcd13ifvqda0","pricing_plan_id":"free"},{"bike_id":"3dcc588a-3007-4d42-8cd2-6bb0abb7cb8c","system_id":"levelo_inurba_marseille","lat":43.309371,"lon":5.401449,"is_reserved":false,"is_disabled":false,"rental_uris":{"android":"levelo://app?vid=3dcc588a-3007-4d42-8cd2-6bb0abb7cb8c","ios":"levelo://app?vid=3dcc588a-3007-4d42-8cd2-6bb0abb7cb8c"},"vehicle_type_id":"4","last_reported":1701904044,"current_range_meters":0,"station_id":"ce4bgvp2rcd13ifvqct0","pricing_plan_id":"free"},{"bike_id":"5705037c-6484-47e4-b109-070f30cf73e4","system_id":"levelo_inurba_marseille","lat":43.306412,"lon":5.401035,"is_reserved":false,"is_disabled":false,"rental_uris":{"android":"levelo://app?vid=5705037c-6484-47e4-b109-070f30cf73e4","ios":"levelo://app?vid=5705037c-6484-47e4-b109-070f30cf73e4"},"vehicle_type_id":"4","last_reported":1701904044,"current_range_meters":4400,"station_id":"ce4bh112rcd13ifvqda0","pricing_plan_id":"free"},{"bike_id":"17f47e68-f1b5-4bf3-9d26-06557f4b0f60","system_id":"levelo_inurba_marseille","lat":43.28724,"lon":5.36109,"is_reserved":false,"is_disabled":false,"rental_uris":{"android":"levelo://app?vid=17f47e68-f1b5-4bf3-9d26-06557f4b0f60","ios":"levelo://app?vid=17f47e68-f1b5-4bf3-9d26-06557f4b0f60"},"vehicle_type_id":"4","last_reported":1701904044,"current_range_meters":21200,"station_id":"cki0cbj6b192h4jlfktg","pricing_plan_id":"free"},{"bike_id":"9ad1b85b-8021-4766-ba02-49178e086ddc","system_id":"levelo_inurba_marseille","lat":43.28724,"lon":5.36095,"is_reserved":false,"is_disabled":false,"rental_uris":{"android":"levelo://app?vid=9ad1b85b-8021-4766-ba02-49178e086ddc","ios":"levelo://app?vid=9ad1b85b-8021-4766-ba02-49178e086ddc"},"vehicle_type_id":"4","last_reported":1701904044,"current_range_meters":28400,"station_id":"cki0cbj6b192h4jlfktg","pricing_plan_id":"free"},{"bike_id":"6ead57f0-aa9a-4218-9c66-30d84855cd62","system_id":"levelo_inurba_marseille","lat":43.28727,"lon":5.36078,"is_reserved":false,"is_disabled":false,"rental_uris":{"android":"levelo://app?vid=6ead57f0-aa9a-4218-9c66-30d84855cd62","ios":"levelo://app?vid=6ead57f0-aa9a-4218-9c66-30d84855cd62"},"vehicle_type_id":"4","last_reported":1701904044,"current_range_meters":5600,"station_id":"cki0cbj6b192h4jlfktg","pricing_plan_id":"free"},{"bike_id":"eaa8eee0-ef06-4052-9c04-b437504309f5","system_id":"levelo_inurba_marseille","lat":43.28727,"lon":5.36078,"is_reserved":false,"is_disabled":false,"rental_uris":{"android":"levelo://app?vid=eaa8eee0-ef06-4052-9c04-b437504309f5","ios":"levelo://app?vid=eaa8eee0-ef06-4052-9c04-b437504309f5"},"vehicle_type_id":"4","last_reported":1701904044,"current_range_meters":20800,"station_id":"cki0cbj6b192h4jlfktg","pricing_plan_id":"free"},{"bike_id":"3657cf0c-f0cd-4d37-a238-d5332d360445","system_id":"levelo_inurba_marseille","lat":43.28722,"lon":5.36088,"is_reserved":false,"is_disabled":false,"rental_uris":{"android":"levelo://app?vid=3657cf0c-f0cd-4d37-a238-d5332d360445","ios":"levelo://app?vid=3657cf0c-f0cd-4d37-a238-d5332d360445"},"vehicle_type_id":"4","last_reported":1701904044,"current_range_meters":6800,"station_id":"cki0cbj6b192h4jlfktg","pricing_plan_id":"free"},{"bike_id":"8596a015-b2c8-4aba-adbb-f8eb98703da7","system_id":"levelo_inurba_marseille","lat":43.28727,"lon":5.36078,"is_reserved":false,"is_disabled":false,"rental_uris":{"android":"levelo://app?vid=8596a015-b2c8-4aba-adbb-f8eb98703da7","ios":"levelo://app?vid=8596a015-b2c8-4aba-adbb-f8eb98703da7"},"vehicle_type_id":"4","last_reported":1701904044,"current_range_meters":13600,"station_id":"cki0cbj6b192h4jlfktg","pricing_plan_id":"free"},{"bike_id":"f64b745e-188b-4266-abdf-0b1745b340c0","system_id":"levelo_inurba_marseille","lat":43.286591,"lon":5.363346,"is_reserved":false,"is_disabled":false,"rental_uris":{"android":"levelo://app?vid=f64b745e-188b-4266-abdf-0b1745b340c0","ios":"levelo://app?vid=f64b745e-188b-4266-abdf-0b1745b340c0"},"vehicle_type_id":"4","last_reported":1701904044,"current_range_meters":31200,"station_id":"ce4bhah2rcd13ifvqej0","pricing_plan_id":"free"},{"bike_id":"444f597b-4b94-49d6-90a1-5eae9d75a96d","system_id":"levelo_inurba_marseille","lat":43.289307,"lon":5.38406,"is_reserved":false,"is_disabled":false,"rental_uris":{"android":"levelo://app?vid=444f597b-4b94-49d6-90a1-5eae9d75a96d","ios":"levelo://app?vid=444f597b-4b94-49d6-90a1-5eae9d75a96d"},"vehicle_type_id":"4","last_reported":1701904044,"current_range_meters":24800,"station_id":"ce4bh612rcd13ifvqe6g","pricing_plan_id":"free"},{"bike_id":"ffde9f58-7706-4610-a0b9-1d5663454de2","system_id":"levelo_inurba_marseille","lat":43.298681,"lon":5.397225,"is_reserved":false,"is_disabled":false,"rental_uris":{"android":"levelo://app?vid=ffde9f58-7706-4610-a0b9-1d5663454de2","ios":"levelo://app?vid=ffde9f58-7706-4610-a0b9-1d5663454de2"},"vehicle_type_id":"4","last_reported":1701904044,"current_range_meters":18800,"station_id":"ce4bh0h2rcd13ifvqd50","pricing_plan_id":"free"},{"bike_id":"9ebe6c9d-6dd6-4e37-9112-fe78d5d7269f","system_id":"levelo_inurba_marseille","lat":43.302759,"lon":5.400793,"is_reserved":false,"is_disabled":false,"rental_uris":{"android":"levelo://app?vid=9ebe6c9d-6dd6-4e37-9112-fe78d5d7269f","ios":"levelo://app?vid=9ebe6c9d-6dd6-4e37-9112-fe78d5d7269f"},"vehicle_type_id":"4","last_reported":1701904044,"current_range_meters":13600,"station_id":"ce4bgvh2rcd13ifvqcs0","pricing_plan_id":"free"},{"bike_id":"60abf675-1e2c-4787-a65b-a7b39cc20168","system_id":"levelo_inurba_marseille","lat":43.302759,"lon":5.400793,"is_reserved":false,"is_disabled":false,"rental_uris":{"android":"levelo://app?vid=60abf675-1e2c-4787-a65b-a7b39cc20168","ios":"levelo://app?vid=60abf675-1e2c-4787-a65b-a7b39cc20168"},"vehicle_type_id":"4","last_reported":1701904044,"current_range_meters":4400,"station_id":"ce4bgvh2rcd13ifvqcs0","pricing_plan_id":"free"},{"bike_id":"613f7055-3372-4031-8fe4-46fdbc2015c8","system_id":"levelo_inurba_marseille","lat":43.302759,"lon":5.400793,"is_reserved":false,"is_disabled":false,"rental_uris":{"android":"levelo://app?vid=613f7055-3372-4031-8fe4-46fdbc2015c8","ios":"levelo://app?vid=613f7055-3372-4031-8fe4-46fdbc2015c8"},"vehicle_type_id":"4","last_reported":1701904044,"current_range_meters":29600,"station_id":"ce4bgvh2rcd13ifvqcs0","pricing_plan_id":"free"},{"bike_id":"92a24054-0a7c-4baa-91b4-d16d24e86aee","system_id":"levelo_inurba_marseille","lat":43.286039,"lon":5.370679,"is_reserved":false,"is_disabled":false,"rental_uris":{"android":"levelo://app?vid=92a24054-0a7c-4baa-91b4-d16d24e86aee","ios":"levelo://app?vid=92a24054-0a7c-4baa-91b4-d16d24e86aee"},"vehicle_type_id":"4","last_reported":1701904044,"current_range_meters":30000,"station_id":"ce4bht12rcd13ifvqi60","pricing_plan_id":"free"},{"bike_id":"a86cb40d-13c6-46dc-a047-607f347e5381","system_id":"levelo_inurba_marseille","lat":43.286039,"lon":5.370679,"is_reserved":false,"is_disabled":false,"rental_uris":{"android":"levelo://app?vid=a86cb40d-13c6-46dc-a047-607f347e5381","ios":"levelo://app?vid=a86cb40d-13c6-46dc-a047-607f347e5381"},"vehicle_type_id":"4","last_reported":1701904044,"current_range_meters":11200,"station_id":"ce4bht12rcd13ifvqi60","pricing_plan_id":"free"},{"bike_id":"ede95bf3-2e98-4d3f-a256-b751c5939a46","system_id":"levelo_inurba_marseille","lat":43.286039,"lon":5.370679,"is_reserved":false,"is_disabled":false,"rental_uris":{"android":"levelo://app?vid=ede95bf3-2e98-4d3f-a256-b751c5939a46","ios":"levelo://app?vid=ede95bf3-2e98-4d3f-a256-b751c5939a46"},"vehicle_type_id":"4","last_reported":1701904044,"current_range_meters":6000,"station_id":"ce4bht12rcd13ifvqi60","pricing_plan_id":"free"},{"bike_id":"84c495eb-8940-4b80-b644-0bc4d00f3ced","system_id":"levelo_inurba_marseille","lat":43.287184,"lon":5.37937,"is_reserved":false,"is_disabled":false,"rental_uris":{"android":"levelo://app?vid=84c495eb-8940-4b80-b644-0bc4d00f3ced","ios":"levelo://app?vid=84c495eb-8940-4b80-b644-0bc4d00f3ced"},"vehicle_type_id":"4","last_reported":1701904044,"current_range_meters":26000,"station_id":"ce4bh9p2rcd13ifvqec0","pricing_plan_id":"free"},{"bike_id":"60b73708-fa5e-473d-a213-67ba6eae7e47","system_id":"levelo_inurba_marseille","lat":43.293427,"lon":5.394383,"is_reserved":false,"is_disabled":false,"rental_uris":{"android":"levelo://app?vid=60b73708-fa5e-473d-a213-67ba6eae7e47","ios":"levelo://app?vid=60b73708-fa5e-473d-a213-67ba6eae7e47"},"vehicle_type_id":"4","last_reported":1701904044,"current_range_meters":28400,"station_id":"","pricing_plan_id":"free"},{"bike_id":"ccdae9c5-5c0f-4676-8a88-1e9bbdd060f3","system_id":"levelo_inurba_marseille","lat":43.284637,"lon":5.358884,"is_reserved":false,"is_disabled":false,"rental_uris":{"android":"levelo://app?vid=ccdae9c5-5c0f-4676-8a88-1e9bbdd060f3","ios":"levelo://app?vid=ccdae9c5-5c0f-4676-8a88-1e9bbdd060f3"},"vehicle_type_id":"4","last_reported":1701904044,"current_range_meters":5200,"station_id":"ce4bhah2rcd13ifvqei0","pricing_plan_id":"free"},{"bike_id":"f1842cd2-c611-4096-b602-04d1230575ea","system_id":"levelo_inurba_marseille","lat":43.28462,"lon":5.35894,"is_reserved":false,"is_disabled":false,"rental_uris":{"android":"levelo://app?vid=f1842cd2-c611-4096-b602-04d1230575ea","ios":"levelo://app?vid=f1842cd2-c611-4096-b602-04d1230575ea"},"vehicle_type_id":"4","last_reported":1701904044,"current_range_meters":2000,"station_id":"ce4bhah2rcd13ifvqei0","pricing_plan_id":"free"},{"bike_id":"c020c09e-8573-4c96-9f39-dc69c0fa533e","system_id":"levelo_inurba_marseille","lat":43.28462,"lon":5.35892,"is_reserved":false,"is_disabled":false,"rental_uris":{"android":"levelo://app?vid=c020c09e-8573-4c96-9f39-dc69c0fa533e","ios":"levelo://app?vid=c020c09e-8573-4c96-9f39-dc69c0fa533e"},"vehicle_type_id":"4","last_reported":1701904044,"current_range_meters":27600,"station_id":"ce4bhah2rcd13ifvqei0","pricing_plan_id":"free"},{"bike_id":"2988633b-0c6e-4adc-add1-4e0366a3f69f","system_id":"levelo_inurba_marseille","lat":43.284616,"lon":5.358905,"is_reserved":false,"is_disabled":false,"rental_uris":{"android":"levelo://app?vid=2988633b-0c6e-4adc-add1-4e0366a3f69f","ios":"levelo://app?vid=2988633b-0c6e-4adc-add1-4e0366a3f69f"},"vehicle_type_id":"4","last_reported":1701904044,"current_range_meters":15600,"station_id":"ce4bhah2rcd13ifvqei0","pricing_plan_id":"free"},{"bike_id":"6beba19d-cb34-4268-af60-841e4c9c684e","system_id":"levelo_inurba_marseille","lat":43.28461,"lon":5.35888,"is_reserved":false,"is_disabled":false,"rental_uris":{"android":"levelo://app?vid=6beba19d-cb34-4268-af60-841e4c9c684e","ios":"levelo://app?vid=6beba19d-cb34-4268-af60-841e4c9c684e"},"vehicle_type_id":"4","last_reported":1701904044,"current_range_meters":400,"station_id":"ce4bhah2rcd13ifvqei0","pricing_plan_id":"free"},{"bike_id":"d7916f79-aa61-4cd5-9e24-834c5f8e301f","system_id":"levelo_inurba_marseille","lat":43.28461,"lon":5.35886,"is_reserved":false,"is_disabled":false,"rental_uris":{"android":"levelo://app?vid=d7916f79-aa61-4cd5-9e24-834c5f8e301f","ios":"levelo://app?vid=d7916f79-aa61-4cd5-9e24-834c5f8e301f"},"vehicle_type_id":"4","last_reported":1701904044,"current_range_meters":8800,"station_id":"ce4bhah2rcd13ifvqei0","pricing_plan_id":"free"},{"bike_id":"a1eacbb0-e518-47e2-96d9-68694f77b745","system_id":"levelo_inurba_marseille","lat":43.2846,"lon":5.35888,"is_reserved":false,"is_disabled":false,"rental_uris":{"android":"levelo://app?vid=a1eacbb0-e518-47e2-96d9-68694f77b745","ios":"levelo://app?vid=a1eacbb0-e518-47e2-96d9-68694f77b745"},"vehicle_type_id":"4","last_reported":1701904044,"current_range_meters":1600,"station_id":"ce4bhah2rcd13ifvqei0","pricing_plan_id":"free"},{"bike_id":"6f996cfe-a100-40c6-9673-d39ab5cc6db3","system_id":"levelo_inurba_marseille","lat":43.284534,"lon":5.358662,"is_reserved":false,"is_disabled":false,"rental_uris":{"android":"levelo://app?vid=6f996cfe-a100-40c6-9673-d39ab5cc6db3","ios":"levelo://app?vid=6f996cfe-a100-40c6-9673-d39ab5cc6db3"},"vehicle_type_id":"4","last_reported":1701904044,"current_range_meters":4800,"station_id":"ce4bhah2rcd13ifvqei0","pricing_plan_id":"free"},{"bike_id":"64ea78ca-c5d0-44e6-b617-62a12ffd7dc5","system_id":"levelo_inurba_marseille","lat":43.284534,"lon":5.358662,"is_reserved":false,"is_disabled":false,"rental_uris":{"android":"levelo://app?vid=64ea78ca-c5d0-44e6-b617-62a12ffd7dc5","ios":"levelo://app?vid=64ea78ca-c5d0-44e6-b617-62a12ffd7dc5"},"vehicle_type_id":"4","last_reported":1701904044,"current_range_meters":28000,"station_id":"ce4bhah2rcd13ifvqei0","pricing_plan_id":"free"},{"bike_id":"46e40643-a63e-4be4-96f6-90e92af93835","system_id":"levelo_inurba_marseille","lat":43.28455,"lon":5.35897,"is_reserved":false,"is_disabled":false,"rental_uris":{"android":"levelo://app?vid=46e40643-a63e-4be4-96f6-90e92af93835","ios":"levelo://app?vid=46e40643-a63e-4be4-96f6-90e92af93835"},"vehicle_type_id":"4","last_reported":1701904044,"current_range_meters":30800,"station_id":"ce4bhah2rcd13ifvqei0","pricing_plan_id":"free"},{"bike_id":"66b1a3de-80f6-4076-bf4b-48ac0240c26d","system_id":"levelo_inurba_marseille","lat":43.291911,"lon":5.394294,"is_reserved":false,"is_disabled":false,"rental_uris":{"android":"levelo://app?vid=66b1a3de-80f6-4076-bf4b-48ac0240c26d","ios":"levelo://app?vid=66b1a3de-80f6-4076-bf4b-48ac0240c26d"},"vehicle_type_id":"4","last_reported":1701904044,"current_range_meters":19600,"station_id":"","pricing_plan_id":"free"},{"bike_id":"3895e7dd-a468-4f5d-a3a1-0c0a5d66654a","system_id":"levelo_inurba_marseille","lat":43.294314,"lon":5.397498,"is_reserved":false,"is_disabled":false,"rental_uris":{"android":"levelo://app?vid=3895e7dd-a468-4f5d-a3a1-0c0a5d66654a","ios":"levelo://app?vid=3895e7dd-a468-4f5d-a3a1-0c0a5d66654a"},"vehicle_type_id":"4","last_reported":1701904044,"current_range_meters":12000,"station_id":"ce4bh3h2rcd13ifvqdo0","pricing_plan_id":"free"},{"bike_id":"44abf257-c116-4cc8-b342-3e7eb23898c4","system_id":"levelo_inurba_marseille","lat":43.283998,"lon":5.375062,"is_reserved":false,"is_disabled":false,"rental_uris":{"android":"levelo://app?vid=44abf257-c116-4cc8-b342-3e7eb23898c4","ios":"levelo://app?vid=44abf257-c116-4cc8-b342-3e7eb23898c4"},"vehicle_type_id":"4","last_reported":1701904044,"current_range_meters":0,"station_id":"ce4bh412rcd13ifvqds0","pricing_plan_id":"free"},{"bike_id":"2576c6ce-ebab-4f9b-8b0e-6e02832ea67b","system_id":"levelo_inurba_marseille","lat":43.283998,"lon":5.375062,"is_reserved":false,"is_disabled":false,"rental_uris":{"android":"levelo://app?vid=2576c6ce-ebab-4f9b-8b0e-6e02832ea67b","ios":"levelo://app?vid=2576c6ce-ebab-4f9b-8b0e-6e02832ea67b"},"vehicle_type_id":"4","last_reported":1701904044,"current_range_meters":31200,"station_id":"ce4bh412rcd13ifvqds0","pricing_plan_id":"free"},{"bike_id":"f4bbc8fe-bef9-4eae-9def-a26adf40b807","system_id":"levelo_inurba_marseille","lat":43.283998,"lon":5.375062,"is_reserved":false,"is_disabled":false,"rental_uris":{"android":"levelo://app?vid=f4bbc8fe-bef9-4eae-9def-a26adf40b807","ios":"levelo://app?vid=f4bbc8fe-bef9-4eae-9def-a26adf40b807"},"vehicle_type_id":"4","last_reported":1701904044,"current_range_meters":19600,"station_id":"ce4bh412rcd13ifvqds0","pricing_plan_id":"free"},{"bike_id":"e9b77d4d-b9f4-463d-888e-26753bcb0c85","system_id":"levelo_inurba_marseille","lat":43.319179,"lon":5.407725,"is_reserved":false,"is_disabled":false,"rental_uris":{"android":"levelo://app?vid=e9b77d4d-b9f4-463d-888e-26753bcb0c85","ios":"levelo://app?vid=e9b77d4d-b9f4-463d-888e-26753bcb0c85"},"vehicle_type_id":"4","last_reported":1701904044,"current_range_meters":26000,"station_id":"ce4bhq12rcd13ifvqhig","pricing_plan_id":"free"},{"bike_id":"ac0c9bb0-9247-431c-8662-76c3db088299","system_id":"levelo_inurba_marseille","lat":43.301117,"lon":5.398795,"is_reserved":false,"is_disabled":false,"rental_uris":{"android":"levelo://app?vid=ac0c9bb0-9247-431c-8662-76c3db088299","ios":"levelo://app?vid=ac0c9bb0-9247-431c-8662-76c3db088299"},"vehicle_type_id":"4","last_reported":1701904044,"current_range_meters":12000,"station_id":"ce4bh0h2rcd13ifvqd40","pricing_plan_id":"free"},{"bike_id":"caad947b-171d-4367-9652-0bec735b5d7a","system_id":"levelo_inurba_marseille","lat":43.33717,"lon":5.391857,"is_reserved":false,"is_disabled":false,"rental_uris":{"android":"levelo://app?vid=caad947b-171d-4367-9652-0bec735b5d7a","ios":"levelo://app?vid=caad947b-171d-4367-9652-0bec735b5d7a"},"vehicle_type_id":"4","last_reported":1701904044,"current_range_meters":24400,"station_id":"ce4bhr92rcd13ifvqhsg","pricing_plan_id":"free"},{"bike_id":"63b092bc-3f11-4175-8a4b-45af16ffaa7c","system_id":"levelo_inurba_marseille","lat":43.284787,"lon":5.384116,"is_reserved":false,"is_disabled":false,"rental_uris":{"android":"levelo://app?vid=63b092bc-3f11-4175-8a4b-45af16ffaa7c","ios":"levelo://app?vid=63b092bc-3f11-4175-8a4b-45af16ffaa7c"},"vehicle_type_id":"4","last_reported":1701904044,"current_range_meters":9600,"station_id":"ce4bh512rcd13ifvqe3g","pricing_plan_id":"free"},{"bike_id":"901848e6-4df7-4061-a9f1-deae3e57a41f","system_id":"levelo_inurba_marseille","lat":43.288501,"lon":5.393087,"is_reserved":false,"is_disabled":false,"rental_uris":{"android":"levelo://app?vid=901848e6-4df7-4061-a9f1-deae3e57a41f","ios":"levelo://app?vid=901848e6-4df7-4061-a9f1-deae3e57a41f"},"vehicle_type_id":"4","last_reported":1701904044,"current_range_meters":29200,"station_id":"ce4bh2p2rcd13ifvqdi0","pricing_plan_id":"free"},{"bike_id":"1bc0bf51-f3e0-4277-a074-5cbd274022e0","system_id":"levelo_inurba_marseille","lat":43.283494,"lon":5.380945,"is_reserved":false,"is_disabled":false,"rental_uris":{"android":"levelo://app?vid=1bc0bf51-f3e0-4277-a074-5cbd274022e0","ios":"levelo://app?vid=1bc0bf51-f3e0-4277-a074-5cbd274022e0"},"vehicle_type_id":"4","last_reported":1701904044,"current_range_meters":21200,"station_id":"ce4bh412rcd13ifvqdr0","pricing_plan_id":"free"},{"bike_id":"ac86ca37-eaeb-4e9c-aa8b-9ab1d03931e1","system_id":"levelo_inurba_marseille","lat":43.284219,"lon":5.3497,"is_reserved":false,"is_disabled":false,"rental_uris":{"android":"levelo://app?vid=ac86ca37-eaeb-4e9c-aa8b-9ab1d03931e1","ios":"levelo://app?vid=ac86ca37-eaeb-4e9c-aa8b-9ab1d03931e1"},"vehicle_type_id":"4","last_reported":1701904044,"current_range_meters":22800,"station_id":"ce4bhbh2rcd13ifvqepg","pricing_plan_id":"free"},{"bike_id":"62fd1763-2eb4-46c1-a4f4-c979520883eb","system_id":"levelo_inurba_marseille","lat":43.282754,"lon":5.350519,"is_reserved":false,"is_disabled":false,"rental_uris":{"android":"levelo://app?vid=62fd1763-2eb4-46c1-a4f4-c979520883eb","ios":"levelo://app?vid=62fd1763-2eb4-46c1-a4f4-c979520883eb"},"vehicle_type_id":"4","last_reported":1701904044,"current_range_meters":30800,"station_id":"ce4bhbp2rcd13ifvqerg","pricing_plan_id":"free"},{"bike_id":"e1230d8e-64ba-4a9b-a36d-c891e93fe59f","system_id":"levelo_inurba_marseille","lat":43.283502,"lon":5.386471,"is_reserved":false,"is_disabled":false,"rental_uris":{"android":"levelo://app?vid=e1230d8e-64ba-4a9b-a36d-c891e93fe59f","ios":"levelo://app?vid=e1230d8e-64ba-4a9b-a36d-c891e93fe59f"},"vehicle_type_id":"4","last_reported":1701904044,"current_range_meters":18000,"station_id":"ce4bh492rcd13ifvqdvg","pricing_plan_id":"free"},{"bike_id":"b3c5c04a-7292-4f85-ad6c-4100d9d66833","system_id":"levelo_inurba_marseille","lat":43.28039,"lon":5.369297,"is_reserved":false,"is_disabled":false,"rental_uris":{"android":"levelo://app?vid=b3c5c04a-7292-4f85-ad6c-4100d9d66833","ios":"levelo://app?vid=b3c5c04a-7292-4f85-ad6c-4100d9d66833"},"vehicle_type_id":"4","last_reported":1701904044,"current_range_meters":26800,"station_id":"ce4bha12rcd13ifvqef0","pricing_plan_id":"free"},{"bike_id":"4f7d340a-e50e-4cd7-bd77-b81973c3683c","system_id":"levelo_inurba_marseille","lat":43.280382,"lon":5.369291,"is_reserved":false,"is_disabled":false,"rental_uris":{"android":"levelo://app?vid=4f7d340a-e50e-4cd7-bd77-b81973c3683c","ios":"levelo://app?vid=4f7d340a-e50e-4cd7-bd77-b81973c3683c"},"vehicle_type_id":"4","last_reported":1701904044,"current_range_meters":26400,"station_id":"ce4bha12rcd13ifvqef0","pricing_plan_id":"free"},{"bike_id":"bab6d3bd-a973-43c5-84cc-69dd6aeb5d42","system_id":"levelo_inurba_marseille","lat":43.281044,"lon":5.378308,"is_reserved":false,"is_disabled":false,"rental_uris":{"android":"levelo://app?vid=bab6d3bd-a973-43c5-84cc-69dd6aeb5d42","ios":"levelo://app?vid=bab6d3bd-a973-43c5-84cc-69dd6aeb5d42"},"vehicle_type_id":"4","last_reported":1701904044,"current_range_meters":18400,"station_id":"ce4bha12rcd13ifvqee0","pricing_plan_id":"free"},{"bike_id":"f1635050-7dff-4973-8f21-08c293f86b86","system_id":"levelo_inurba_marseille","lat":43.296263,"lon":5.40601,"is_reserved":false,"is_disabled":false,"rental_uris":{"android":"levelo://app?vid=f1635050-7dff-4973-8f21-08c293f86b86","ios":"levelo://app?vid=f1635050-7dff-4973-8f21-08c293f86b86"},"vehicle_type_id":"4","last_reported":1701904044,"current_range_meters":3600,"station_id":"ce4bh0h2rcd13ifvqd60","pricing_plan_id":"free"},{"bike_id":"2ea8fa98-bfa6-4ae3-977d-00cd43b5e97e","system_id":"levelo_inurba_marseille","lat":43.296263,"lon":5.40601,"is_reserved":false,"is_disabled":false,"rental_uris":{"android":"levelo://app?vid=2ea8fa98-bfa6-4ae3-977d-00cd43b5e97e","ios":"levelo://app?vid=2ea8fa98-bfa6-4ae3-977d-00cd43b5e97e"},"vehicle_type_id":"4","last_reported":1701904044,"current_range_meters":31200,"station_id":"ce4bh0h2rcd13ifvqd60","pricing_plan_id":"free"},{"bike_id":"6bdf36a9-2c89-482d-9e1a-ddfa23dcf49d","system_id":"levelo_inurba_marseille","lat":43.281044,"lon":5.378308,"is_reserved":false,"is_disabled":false,"rental_uris":{"android":"levelo://app?vid=6bdf36a9-2c89-482d-9e1a-ddfa23dcf49d","ios":"levelo://app?vid=6bdf36a9-2c89-482d-9e1a-ddfa23dcf49d"},"vehicle_type_id":"4","last_reported":1701904044,"current_range_meters":24000,"station_id":"ce4bha12rcd13ifvqee0","pricing_plan_id":"free"},{"bike_id":"f2d499b8-6e62-451e-820f-5edacdec98ee","system_id":"levelo_inurba_marseille","lat":43.31669,"lon":5.41269,"is_reserved":false,"is_disabled":false,"rental_uris":{"android":"levelo://app?vid=f2d499b8-6e62-451e-820f-5edacdec98ee","ios":"levelo://app?vid=f2d499b8-6e62-451e-820f-5edacdec98ee"},"vehicle_type_id":"4","last_reported":1701904044,"current_range_meters":20400,"station_id":"","pricing_plan_id":"free"},{"bike_id":"62796d0c-8473-458d-9e3f-963fbf512c4e","system_id":"levelo_inurba_marseille","lat":43.284462,"lon":5.392121,"is_reserved":false,"is_disabled":false,"rental_uris":{"android":"levelo://app?vid=62796d0c-8473-458d-9e3f-963fbf512c4e","ios":"levelo://app?vid=62796d0c-8473-458d-9e3f-963fbf512c4e"},"vehicle_type_id":"4","last_reported":1701904044,"current_range_meters":28800,"station_id":"ce4bhoh2rcd13ifvqh5g","pricing_plan_id":"free"},{"bike_id":"245b52c8-06b7-4693-be63-dd6a8b8680f8","system_id":"levelo_inurba_marseille","lat":43.308012,"lon":5.381511,"is_reserved":false,"is_disabled":false,"rental_uris":{"android":"levelo://app?vid=245b52c8-06b7-4693-be63-dd6a8b8680f8","ios":"levelo://app?vid=245b52c8-06b7-4693-be63-dd6a8b8680f8"},"vehicle_type_id":"4","last_reported":1701904044,"current_range_meters":26000,"station_id":"ce4bgt12rcd13ifvqce0","pricing_plan_id":"free"},{"bike_id":"a706b46a-6c77-46a6-85f8-57dfa3075c39","system_id":"levelo_inurba_marseille","lat":43.304188,"lon":5.412904,"is_reserved":false,"is_disabled":false,"rental_uris":{"android":"levelo://app?vid=a706b46a-6c77-46a6-85f8-57dfa3075c39","ios":"levelo://app?vid=a706b46a-6c77-46a6-85f8-57dfa3075c39"},"vehicle_type_id":"4","last_reported":1701904044,"current_range_meters":16000,"station_id":"ce4bhop2rcd13ifvqh8g","pricing_plan_id":"free"},{"bike_id":"6f6cc9b5-4ba7-4d66-8246-0e9fc3580966","system_id":"levelo_inurba_marseille","lat":43.279087,"lon":5.380114,"is_reserved":false,"is_disabled":false,"rental_uris":{"android":"levelo://app?vid=6f6cc9b5-4ba7-4d66-8246-0e9fc3580966","ios":"levelo://app?vid=6f6cc9b5-4ba7-4d66-8246-0e9fc3580966"},"vehicle_type_id":"4","last_reported":1701904044,"current_range_meters":29600,"station_id":"ce4bhf92rcd13ifvqf50","pricing_plan_id":"free"},{"bike_id":"b11eea43-0e68-435f-b37e-a4504a17a46b","system_id":"levelo_inurba_marseille","lat":43.287154,"lon":5.399979,"is_reserved":false,"is_disabled":false,"rental_uris":{"android":"levelo://app?vid=b11eea43-0e68-435f-b37e-a4504a17a46b","ios":"levelo://app?vid=b11eea43-0e68-435f-b37e-a4504a17a46b"},"vehicle_type_id":"4","last_reported":1701904044,"current_range_meters":800,"station_id":"ce4bho92rcd13ifvqh3g","pricing_plan_id":"free"},{"bike_id":"b545f1d4-cfa8-4cfe-ad50-e7e8a04ebd5a","system_id":"levelo_inurba_marseille","lat":43.287154,"lon":5.399979,"is_reserved":false,"is_disabled":false,"rental_uris":{"android":"levelo://app?vid=b545f1d4-cfa8-4cfe-ad50-e7e8a04ebd5a","ios":"levelo://app?vid=b545f1d4-cfa8-4cfe-ad50-e7e8a04ebd5a"},"vehicle_type_id":"4","last_reported":1701904044,"current_range_meters":0,"station_id":"ce4bho92rcd13ifvqh3g","pricing_plan_id":"free"},{"bike_id":"4f17654d-8ee0-4814-a99e-25f07073e980","system_id":"levelo_inurba_marseille","lat":43.279742,"lon":5.38744,"is_reserved":false,"is_disabled":false,"rental_uris":{"android":"levelo://app?vid=4f17654d-8ee0-4814-a99e-25f07073e980","ios":"levelo://app?vid=4f17654d-8ee0-4814-a99e-25f07073e980"},"vehicle_type_id":"4","last_reported":1701904044,"current_range_meters":5600,"station_id":"ce4bhg12rcd13ifvqf80","pricing_plan_id":"free"},{"bike_id":"2bdbb45f-980a-454b-b602-18f1a16b8a94","system_id":"levelo_inurba_marseille","lat":43.292571,"lon":5.409107,"is_reserved":false,"is_disabled":false,"rental_uris":{"android":"levelo://app?vid=2bdbb45f-980a-454b-b602-18f1a16b8a94","ios":"levelo://app?vid=2bdbb45f-980a-454b-b602-18f1a16b8a94"},"vehicle_type_id":"4","last_reported":1701904044,"current_range_meters":23600,"station_id":"ce4bh192rcd13ifvqdc0","pricing_plan_id":"free"},{"bike_id":"b8539d55-207b-414c-99bb-be259990a08c","system_id":"levelo_inurba_marseille","lat":43.292571,"lon":5.409107,"is_reserved":false,"is_disabled":false,"rental_uris":{"android":"levelo://app?vid=b8539d55-207b-414c-99bb-be259990a08c","ios":"levelo://app?vid=b8539d55-207b-414c-99bb-be259990a08c"},"vehicle_type_id":"4","last_reported":1701904044,"current_range_meters":4800,"station_id":"ce4bh192rcd13ifvqdc0","pricing_plan_id":"free"},{"bike_id":"cf3a12f4-9b00-4a46-9725-ae3071bdf618","system_id":"levelo_inurba_marseille","lat":43.292571,"lon":5.409107,"is_reserved":false,"is_disabled":false,"rental_uris":{"android":"levelo://app?vid=cf3a12f4-9b00-4a46-9725-ae3071bdf618","ios":"levelo://app?vid=cf3a12f4-9b00-4a46-9725-ae3071bdf618"},"vehicle_type_id":"4","last_reported":1701904044,"current_range_meters":25600,"station_id":"ce4bh192rcd13ifvqdc0","pricing_plan_id":"free"},{"bike_id":"92a7427e-9e77-4370-8208-3ac926692000","system_id":"levelo_inurba_marseille","lat":43.292571,"lon":5.409107,"is_reserved":false,"is_disabled":false,"rental_uris":{"android":"levelo://app?vid=92a7427e-9e77-4370-8208-3ac926692000","ios":"levelo://app?vid=92a7427e-9e77-4370-8208-3ac926692000"},"vehicle_type_id":"4","last_reported":1701904044,"current_range_meters":27600,"station_id":"ce4bh192rcd13ifvqdc0","pricing_plan_id":"free"},{"bike_id":"9627cd81-489b-45b1-8f06-cdad1494f1e2","system_id":"levelo_inurba_marseille","lat":43.281724,"lon":5.396164,"is_reserved":false,"is_disabled":false,"rental_uris":{"android":"levelo://app?vid=9627cd81-489b-45b1-8f06-cdad1494f1e2","ios":"levelo://app?vid=9627cd81-489b-45b1-8f06-cdad1494f1e2"},"vehicle_type_id":"4","last_reported":1701904044,"current_range_meters":5200,"station_id":"","pricing_plan_id":"free"},{"bike_id":"293d069b-5156-4efb-8473-dd0ae12fdf19","system_id":"levelo_inurba_marseille","lat":43.303837,"lon":5.418724,"is_reserved":false,"is_disabled":false,"rental_uris":{"android":"levelo://app?vid=293d069b-5156-4efb-8473-dd0ae12fdf19","ios":"levelo://app?vid=293d069b-5156-4efb-8473-dd0ae12fdf19"},"vehicle_type_id":"4","last_reported":1701904044,"current_range_meters":28800,"station_id":"ce4bhop2rcd13ifvqh7g","pricing_plan_id":"free"},{"bike_id":"70b021f4-5a28-4d1d-bb7f-e2b2d2e1ced8","system_id":"levelo_inurba_marseille","lat":43.275625,"lon":5.384392,"is_reserved":false,"is_disabled":false,"rental_uris":{"android":"levelo://app?vid=70b021f4-5a28-4d1d-bb7f-e2b2d2e1ced8","ios":"levelo://app?vid=70b021f4-5a28-4d1d-bb7f-e2b2d2e1ced8"},"vehicle_type_id":"4","last_reported":1701904044,"current_range_meters":15200,"station_id":"ce4bhh92rcd13ifvqfi0","pricing_plan_id":"free"},{"bike_id":"5e801468-5412-4bca-a271-fb5358ebcf80","system_id":"levelo_inurba_marseille","lat":43.278747,"lon":5.394926,"is_reserved":false,"is_disabled":false,"rental_uris":{"android":"levelo://app?vid=5e801468-5412-4bca-a271-fb5358ebcf80","ios":"levelo://app?vid=5e801468-5412-4bca-a271-fb5358ebcf80"},"vehicle_type_id":"4","last_reported":1701904044,"current_range_meters":15600,"station_id":"","pricing_plan_id":"free"},{"bike_id":"283b1518-47c4-4c7a-aece-e76435d9d17e","system_id":"levelo_inurba_marseille","lat":43.27622,"lon":5.39483,"is_reserved":false,"is_disabled":false,"rental_uris":{"android":"levelo://app?vid=283b1518-47c4-4c7a-aece-e76435d9d17e","ios":"levelo://app?vid=283b1518-47c4-4c7a-aece-e76435d9d17e"},"vehicle_type_id":"4","last_reported":1701904044,"current_range_meters":7200,"station_id":"","pricing_plan_id":"free"},{"bike_id":"f2c1ec06-4350-463a-a1a1-617c2a0167c6","system_id":"levelo_inurba_marseille","lat":43.30408,"lon":5.425381,"is_reserved":false,"is_disabled":false,"rental_uris":{"android":"levelo://app?vid=f2c1ec06-4350-463a-a1a1-617c2a0167c6","ios":"levelo://app?vid=f2c1ec06-4350-463a-a1a1-617c2a0167c6"},"vehicle_type_id":"4","last_reported":1701904044,"current_range_meters":2800,"station_id":"ce4bhoh2rcd13ifvqh6g","pricing_plan_id":"free"},{"bike_id":"77e2df1b-d75a-48fe-a6ad-744dfbe91f1d","system_id":"levelo_inurba_marseille","lat":43.27214,"lon":5.3925,"is_reserved":false,"is_disabled":false,"rental_uris":{"android":"levelo://app?vid=77e2df1b-d75a-48fe-a6ad-744dfbe91f1d","ios":"levelo://app?vid=77e2df1b-d75a-48fe-a6ad-744dfbe91f1d"},"vehicle_type_id":"4","last_reported":1701904044,"current_range_meters":11600,"station_id":"","pricing_plan_id":"free"},{"bike_id":"1dfdc0ad-53b6-4710-abcd-390cd4a4a5da","system_id":"levelo_inurba_marseille","lat":43.278128,"lon":5.407195,"is_reserved":false,"is_disabled":false,"rental_uris":{"android":"levelo://app?vid=1dfdc0ad-53b6-4710-abcd-390cd4a4a5da","ios":"levelo://app?vid=1dfdc0ad-53b6-4710-abcd-390cd4a4a5da"},"vehicle_type_id":"4","last_reported":1701904044,"current_range_meters":26000,"station_id":"ce4bhnh2rcd13ifvqgtg","pricing_plan_id":"free"},{"bike_id":"281f59dc-3c3a-443e-a97a-facd2486ffdf","system_id":"levelo_inurba_marseille","lat":43.278128,"lon":5.407195,"is_reserved":false,"is_disabled":false,"rental_uris":{"android":"levelo://app?vid=281f59dc-3c3a-443e-a97a-facd2486ffdf","ios":"levelo://app?vid=281f59dc-3c3a-443e-a97a-facd2486ffdf"},"vehicle_type_id":"4","last_reported":1701904044,"current_range_meters":14000,"station_id":"ce4bhnh2rcd13ifvqgtg","pricing_plan_id":"free"},{"bike_id":"256cc113-cdaa-4a56-9959-8ccdb9f14a83","system_id":"levelo_inurba_marseille","lat":43.278128,"lon":5.407195,"is_reserved":false,"is_disabled":false,"rental_uris":{"android":"levelo://app?vid=256cc113-cdaa-4a56-9959-8ccdb9f14a83","ios":"levelo://app?vid=256cc113-cdaa-4a56-9959-8ccdb9f14a83"},"vehicle_type_id":"4","last_reported":1701904044,"current_range_meters":30400,"station_id":"ce4bhnh2rcd13ifvqgtg","pricing_plan_id":"free"},{"bike_id":"3b81c4b6-c08e-4ead-95a0-ce66e9cbde45","system_id":"levelo_inurba_marseille","lat":43.278128,"lon":5.407195,"is_reserved":false,"is_disabled":false,"rental_uris":{"android":"levelo://app?vid=3b81c4b6-c08e-4ead-95a0-ce66e9cbde45","ios":"levelo://app?vid=3b81c4b6-c08e-4ead-95a0-ce66e9cbde45"},"vehicle_type_id":"4","last_reported":1701904044,"current_range_meters":17200,"station_id":"ce4bhnh2rcd13ifvqgtg","pricing_plan_id":"free"},{"bike_id":"f4ca9bad-97af-42f9-9861-96437cb5aa0f","system_id":"levelo_inurba_marseille","lat":43.265714,"lon":5.372891,"is_reserved":false,"is_disabled":false,"rental_uris":{"android":"levelo://app?vid=f4ca9bad-97af-42f9-9861-96437cb5aa0f","ios":"levelo://app?vid=f4ca9bad-97af-42f9-9861-96437cb5aa0f"},"vehicle_type_id":"4","last_reported":1701904044,"current_range_meters":10800,"station_id":"ce4bhg12rcd13ifvqf70","pricing_plan_id":"free"},{"bike_id":"efa1b603-a00e-42d7-a8a4-d4bc93abeb1e","system_id":"levelo_inurba_marseille","lat":43.27996,"lon":5.416624,"is_reserved":false,"is_disabled":false,"rental_uris":{"android":"levelo://app?vid=efa1b603-a00e-42d7-a8a4-d4bc93abeb1e","ios":"levelo://app?vid=efa1b603-a00e-42d7-a8a4-d4bc93abeb1e"},"vehicle_type_id":"4","last_reported":1701904044,"current_range_meters":5600,"station_id":"ce4bho12rcd13ifvqh1g","pricing_plan_id":"free"},{"bike_id":"dc566e04-1c9d-42e0-810b-60aba8e163e6","system_id":"levelo_inurba_marseille","lat":43.27996,"lon":5.416624,"is_reserved":false,"is_disabled":false,"rental_uris":{"android":"levelo://app?vid=dc566e04-1c9d-42e0-810b-60aba8e163e6","ios":"levelo://app?vid=dc566e04-1c9d-42e0-810b-60aba8e163e6"},"vehicle_type_id":"4","last_reported":1701904044,"current_range_meters":4800,"station_id":"ce4bho12rcd13ifvqh1g","pricing_plan_id":"free"},{"bike_id":"5c62f0fe-2a68-4f0e-8c5e-1c3be35b64ff","system_id":"levelo_inurba_marseille","lat":43.292744,"lon":5.428422,"is_reserved":false,"is_disabled":false,"rental_uris":{"android":"levelo://app?vid=5c62f0fe-2a68-4f0e-8c5e-1c3be35b64ff","ios":"levelo://app?vid=5c62f0fe-2a68-4f0e-8c5e-1c3be35b64ff"},"vehicle_type_id":"4","last_reported":1701904044,"current_range_meters":18800,"station_id":"","pricing_plan_id":"free"},{"bike_id":"cd38049e-62e9-4bae-a254-740120e3a00d","system_id":"levelo_inurba_marseille","lat":43.26945,"lon":5.40241,"is_reserved":false,"is_disabled":false,"rental_uris":{"android":"levelo://app?vid=cd38049e-62e9-4bae-a254-740120e3a00d","ios":"levelo://app?vid=cd38049e-62e9-4bae-a254-740120e3a00d"},"vehicle_type_id":"4","last_reported":1701904044,"current_range_meters":0,"station_id":"cjm6bp8fraef2m0cb0m0","pricing_plan_id":"free"},{"bike_id":"48f81e3e-a7dd-4877-817e-7111f073daf1","system_id":"levelo_inurba_marseille","lat":43.317104,"lon":5.436818,"is_reserved":false,"is_disabled":false,"rental_uris":{"android":"levelo://app?vid=48f81e3e-a7dd-4877-817e-7111f073daf1","ios":"levelo://app?vid=48f81e3e-a7dd-4877-817e-7111f073daf1"},"vehicle_type_id":"4","last_reported":1701904044,"current_range_meters":3600,"station_id":"ce4bhp92rcd13ifvqhcg","pricing_plan_id":"free"},{"bike_id":"bf58fee8-dca1-4d87-bbbb-9a3f7035f1b0","system_id":"levelo_inurba_marseille","lat":43.317104,"lon":5.436818,"is_reserved":false,"is_disabled":false,"rental_uris":{"android":"levelo://app?vid=bf58fee8-dca1-4d87-bbbb-9a3f7035f1b0","ios":"levelo://app?vid=bf58fee8-dca1-4d87-bbbb-9a3f7035f1b0"},"vehicle_type_id":"4","last_reported":1701904044,"current_range_meters":31200,"station_id":"ce4bhp92rcd13ifvqhcg","pricing_plan_id":"free"},{"bike_id":"4b3f757d-47e2-4866-a0bd-c2406fb45b9a","system_id":"levelo_inurba_marseille","lat":43.317104,"lon":5.436818,"is_reserved":false,"is_disabled":false,"rental_uris":{"android":"levelo://app?vid=4b3f757d-47e2-4866-a0bd-c2406fb45b9a","ios":"levelo://app?vid=4b3f757d-47e2-4866-a0bd-c2406fb45b9a"},"vehicle_type_id":"4","last_reported":1701904044,"current_range_meters":2000,"station_id":"ce4bhp92rcd13ifvqhcg","pricing_plan_id":"free"},{"bike_id":"5fd364e5-7a26-4b70-b9fa-6055999db597","system_id":"levelo_inurba_marseille","lat":43.26202,"lon":5.379299,"is_reserved":false,"is_disabled":false,"rental_uris":{"android":"levelo://app?vid=5fd364e5-7a26-4b70-b9fa-6055999db597","ios":"levelo://app?vid=5fd364e5-7a26-4b70-b9fa-6055999db597"},"vehicle_type_id":"4","last_reported":1701904044,"current_range_meters":23600,"station_id":"ce4bhjp2rcd13ifvqg90","pricing_plan_id":"free"},{"bike_id":"6fdf9bc6-0abc-4e03-bd67-4978093fb4f7","system_id":"levelo_inurba_marseille","lat":43.26202,"lon":5.379299,"is_reserved":false,"is_disabled":false,"rental_uris":{"android":"levelo://app?vid=6fdf9bc6-0abc-4e03-bd67-4978093fb4f7","ios":"levelo://app?vid=6fdf9bc6-0abc-4e03-bd67-4978093fb4f7"},"vehicle_type_id":"4","last_reported":1701904044,"current_range_meters":30000,"station_id":"ce4bhjp2rcd13ifvqg90","pricing_plan_id":"free"},{"bike_id":"c240149f-81a1-434b-9a49-eed71c478725","system_id":"levelo_inurba_marseille","lat":43.298768,"lon":5.43643,"is_reserved":false,"is_disabled":false,"rental_uris":{"android":"levelo://app?vid=c240149f-81a1-434b-9a49-eed71c478725","ios":"levelo://app?vid=c240149f-81a1-434b-9a49-eed71c478725"},"vehicle_type_id":"4","last_reported":1701904044,"current_range_meters":400,"station_id":"ce4bhpp2rcd13ifvqhfg","pricing_plan_id":"free"},{"bike_id":"15516f19-6688-4602-81b1-7032ebea46f1","system_id":"levelo_inurba_marseille","lat":43.298768,"lon":5.43643,"is_reserved":false,"is_disabled":false,"rental_uris":{"android":"levelo://app?vid=15516f19-6688-4602-81b1-7032ebea46f1","ios":"levelo://app?vid=15516f19-6688-4602-81b1-7032ebea46f1"},"vehicle_type_id":"4","last_reported":1701904044,"current_range_meters":6000,"station_id":"ce4bhpp2rcd13ifvqhfg","pricing_plan_id":"free"},{"bike_id":"80af4581-c051-42c9-9e6a-9a4302dcf950","system_id":"levelo_inurba_marseille","lat":43.298768,"lon":5.43643,"is_reserved":false,"is_disabled":false,"rental_uris":{"android":"levelo://app?vid=80af4581-c051-42c9-9e6a-9a4302dcf950","ios":"levelo://app?vid=80af4581-c051-42c9-9e6a-9a4302dcf950"},"vehicle_type_id":"4","last_reported":1701904044,"current_range_meters":10000,"station_id":"ce4bhpp2rcd13ifvqhfg","pricing_plan_id":"free"},{"bike_id":"4f68f183-a711-4386-a731-e8ea8e2f115e","system_id":"levelo_inurba_marseille","lat":43.298768,"lon":5.43643,"is_reserved":false,"is_disabled":false,"rental_uris":{"android":"levelo://app?vid=4f68f183-a711-4386-a731-e8ea8e2f115e","ios":"levelo://app?vid=4f68f183-a711-4386-a731-e8ea8e2f115e"},"vehicle_type_id":"4","last_reported":1701904044,"current_range_meters":26400,"station_id":"ce4bhpp2rcd13ifvqhfg","pricing_plan_id":"free"},{"bike_id":"8c066ef0-8e33-4692-81e9-53a96288cf19","system_id":"levelo_inurba_marseille","lat":43.298768,"lon":5.43643,"is_reserved":false,"is_disabled":false,"rental_uris":{"android":"levelo://app?vid=8c066ef0-8e33-4692-81e9-53a96288cf19","ios":"levelo://app?vid=8c066ef0-8e33-4692-81e9-53a96288cf19"},"vehicle_type_id":"4","last_reported":1701904044,"current_range_meters":31200,"station_id":"ce4bhpp2rcd13ifvqhfg","pricing_plan_id":"free"},{"bike_id":"c5b130b6-e387-4d1f-9edc-1fc25dae90ef","system_id":"levelo_inurba_marseille","lat":43.281548,"lon":5.42643,"is_reserved":false,"is_disabled":false,"rental_uris":{"android":"levelo://app?vid=c5b130b6-e387-4d1f-9edc-1fc25dae90ef","ios":"levelo://app?vid=c5b130b6-e387-4d1f-9edc-1fc25dae90ef"},"vehicle_type_id":"4","last_reported":1701904044,"current_range_meters":28800,"station_id":"ce4bhnh2rcd13ifvqgug","pricing_plan_id":"free"},{"bike_id":"d56d3917-457b-48f5-a8e5-88ba6c73cc8e","system_id":"levelo_inurba_marseille","lat":43.281548,"lon":5.42643,"is_reserved":false,"is_disabled":false,"rental_uris":{"android":"levelo://app?vid=d56d3917-457b-48f5-a8e5-88ba6c73cc8e","ios":"levelo://app?vid=d56d3917-457b-48f5-a8e5-88ba6c73cc8e"},"vehicle_type_id":"4","last_reported":1701904044,"current_range_meters":26000,"station_id":"ce4bhnh2rcd13ifvqgug","pricing_plan_id":"free"},{"bike_id":"421a3f3d-70b1-4e02-bc60-441b9fbaae8c","system_id":"levelo_inurba_marseille","lat":43.255756,"lon":5.382303,"is_reserved":false,"is_disabled":false,"rental_uris":{"android":"levelo://app?vid=421a3f3d-70b1-4e02-bc60-441b9fbaae8c","ios":"levelo://app?vid=421a3f3d-70b1-4e02-bc60-441b9fbaae8c"},"vehicle_type_id":"4","last_reported":1701904044,"current_range_meters":0,"station_id":"ce4bhih2rcd13ifvqfs0","pricing_plan_id":"free"},{"bike_id":"44ef2fe9-8da5-4814-bc28-744b4683f2b4","system_id":"levelo_inurba_marseille","lat":43.255756,"lon":5.382303,"is_reserved":false,"is_disabled":false,"rental_uris":{"android":"levelo://app?vid=44ef2fe9-8da5-4814-bc28-744b4683f2b4","ios":"levelo://app?vid=44ef2fe9-8da5-4814-bc28-744b4683f2b4"},"vehicle_type_id":"4","last_reported":1701904044,"current_range_meters":2800,"station_id":"ce4bhih2rcd13ifvqfs0","pricing_plan_id":"free"},{"bike_id":"92351523-5da1-44da-b46c-ccdfa2958641","system_id":"levelo_inurba_marseille","lat":43.254933,"lon":5.376464,"is_reserved":false,"is_disabled":false,"rental_uris":{"android":"levelo://app?vid=92351523-5da1-44da-b46c-ccdfa2958641","ios":"levelo://app?vid=92351523-5da1-44da-b46c-ccdfa2958641"},"vehicle_type_id":"4","last_reported":1701904044,"current_range_meters":29600,"station_id":"ce4bhh12rcd13ifvqff0","pricing_plan_id":"free"},{"bike_id":"df19f8ce-a63c-44d7-949a-ae58af8f4993","system_id":"levelo_inurba_marseille","lat":43.270721,"lon":5.422764,"is_reserved":false,"is_disabled":false,"rental_uris":{"android":"levelo://app?vid=df19f8ce-a63c-44d7-949a-ae58af8f4993","ios":"levelo://app?vid=df19f8ce-a63c-44d7-949a-ae58af8f4993"},"vehicle_type_id":"4","last_reported":1701904044,"current_range_meters":26000,"station_id":"ce4bhk92rcd13ifvqgb0","pricing_plan_id":"free"},{"bike_id":"00f46b74-f70a-4815-b152-6bf5cc0ef103","system_id":"levelo_inurba_marseille","lat":43.270721,"lon":5.422764,"is_reserved":false,"is_disabled":false,"rental_uris":{"android":"levelo://app?vid=00f46b74-f70a-4815-b152-6bf5cc0ef103","ios":"levelo://app?vid=00f46b74-f70a-4815-b152-6bf5cc0ef103"},"vehicle_type_id":"4","last_reported":1701904044,"current_range_meters":26800,"station_id":"ce4bhk92rcd13ifvqgb0","pricing_plan_id":"free"},{"bike_id":"a74a30c0-3c62-4d5c-bd50-80c35ef7eb2f","system_id":"levelo_inurba_marseille","lat":43.257079,"lon":5.411051,"is_reserved":false,"is_disabled":false,"rental_uris":{"android":"levelo://app?vid=a74a30c0-3c62-4d5c-bd50-80c35ef7eb2f","ios":"levelo://app?vid=a74a30c0-3c62-4d5c-bd50-80c35ef7eb2f"},"vehicle_type_id":"4","last_reported":1701904044,"current_range_meters":25600,"station_id":"ce4bhkp2rcd13ifvqgd0","pricing_plan_id":"free"},{"bike_id":"beadb13e-80b5-46d8-b310-e6facf21a411","system_id":"levelo_inurba_marseille","lat":43.257079,"lon":5.411051,"is_reserved":false,"is_disabled":false,"rental_uris":{"android":"levelo://app?vid=beadb13e-80b5-46d8-b310-e6facf21a411","ios":"levelo://app?vid=beadb13e-80b5-46d8-b310-e6facf21a411"},"vehicle_type_id":"4","last_reported":1701904044,"current_range_meters":4000,"station_id":"ce4bhkp2rcd13ifvqgd0","pricing_plan_id":"free"},{"bike_id":"e1602fb7-dbb0-489c-961b-9627ea130fc4","system_id":"levelo_inurba_marseille","lat":43.25719,"lon":5.41111,"is_reserved":false,"is_disabled":false,"rental_uris":{"android":"levelo://app?vid=e1602fb7-dbb0-489c-961b-9627ea130fc4","ios":"levelo://app?vid=e1602fb7-dbb0-489c-961b-9627ea130fc4"},"vehicle_type_id":"4","last_reported":1701904044,"current_range_meters":4000,"station_id":"ce4bhkp2rcd13ifvqgd0","pricing_plan_id":"free"},{"bike_id":"228935ec-d580-4f70-bd33-231817a60e9b","system_id":"levelo_inurba_marseille","lat":43.257079,"lon":5.411051,"is_reserved":false,"is_disabled":false,"rental_uris":{"android":"levelo://app?vid=228935ec-d580-4f70-bd33-231817a60e9b","ios":"levelo://app?vid=228935ec-d580-4f70-bd33-231817a60e9b"},"vehicle_type_id":"4","last_reported":1701904044,"current_range_meters":10800,"station_id":"ce4bhkp2rcd13ifvqgd0","pricing_plan_id":"free"},{"bike_id":"46c122df-37ab-4053-ad9f-fdecd031d3be","system_id":"levelo_inurba_marseille","lat":43.250009,"lon":5.389195,"is_reserved":false,"is_disabled":false,"rental_uris":{"android":"levelo://app?vid=46c122df-37ab-4053-ad9f-fdecd031d3be","ios":"levelo://app?vid=46c122df-37ab-4053-ad9f-fdecd031d3be"},"vehicle_type_id":"4","last_reported":1701904044,"current_range_meters":27200,"station_id":"ce4bhgp2rcd13ifvqfd0","pricing_plan_id":"free"},{"bike_id":"d827fb2b-5523-4a0e-88bf-55caf9c71e30","system_id":"levelo_inurba_marseille","lat":43.2479,"lon":5.374457,"is_reserved":false,"is_disabled":false,"rental_uris":{"android":"levelo://app?vid=d827fb2b-5523-4a0e-88bf-55caf9c71e30","ios":"levelo://app?vid=d827fb2b-5523-4a0e-88bf-55caf9c71e30"},"vehicle_type_id":"4","last_reported":1701904044,"current_range_meters":17200,"station_id":"ce4bhgh2rcd13ifvqfb0","pricing_plan_id":"free"},{"bike_id":"db11096c-b1d2-4210-baf2-f4812df6a1c7","system_id":"levelo_inurba_marseille","lat":43.250966,"lon":5.395186,"is_reserved":false,"is_disabled":false,"rental_uris":{"android":"levelo://app?vid=db11096c-b1d2-4210-baf2-f4812df6a1c7","ios":"levelo://app?vid=db11096c-b1d2-4210-baf2-f4812df6a1c7"},"vehicle_type_id":"4","last_reported":1701904044,"current_range_meters":26400,"station_id":"ce4bhm12rcd13ifvqgkg","pricing_plan_id":"free"},{"bike_id":"87e63fb2-9eea-45a0-b55f-48653831e492","system_id":"levelo_inurba_marseille","lat":43.250966,"lon":5.395186,"is_reserved":false,"is_disabled":false,"rental_uris":{"android":"levelo://app?vid=87e63fb2-9eea-45a0-b55f-48653831e492","ios":"levelo://app?vid=87e63fb2-9eea-45a0-b55f-48653831e492"},"vehicle_type_id":"4","last_reported":1701904044,"current_range_meters":25600,"station_id":"ce4bhm12rcd13ifvqgkg","pricing_plan_id":"free"},{"bike_id":"ad60c98b-1966-4e4d-a4f8-6b3eb9eb0eec","system_id":"levelo_inurba_marseille","lat":43.24693,"lon":5.382096,"is_reserved":false,"is_disabled":false,"rental_uris":{"android":"levelo://app?vid=ad60c98b-1966-4e4d-a4f8-6b3eb9eb0eec","ios":"levelo://app?vid=ad60c98b-1966-4e4d-a4f8-6b3eb9eb0eec"},"vehicle_type_id":"4","last_reported":1701904044,"current_range_meters":25600,"station_id":"ce4bhih2rcd13ifvqfr0","pricing_plan_id":"free"},{"bike_id":"8dbd72b1-00b6-48ce-8048-535bbb38f720","system_id":"levelo_inurba_marseille","lat":43.24665,"lon":5.38152,"is_reserved":false,"is_disabled":false,"rental_uris":{"android":"levelo://app?vid=8dbd72b1-00b6-48ce-8048-535bbb38f720","ios":"levelo://app?vid=8dbd72b1-00b6-48ce-8048-535bbb38f720"},"vehicle_type_id":"4","last_reported":1701904044,"current_range_meters":3200,"station_id":"ce4bhih2rcd13ifvqfr0","pricing_plan_id":"free"},{"bike_id":"e661c713-745e-4a28-84f9-6eff0339d5e1","system_id":"levelo_inurba_marseille","lat":43.246467,"lon":5.388984,"is_reserved":false,"is_disabled":false,"rental_uris":{"android":"levelo://app?vid=e661c713-745e-4a28-84f9-6eff0339d5e1","ios":"levelo://app?vid=e661c713-745e-4a28-84f9-6eff0339d5e1"},"vehicle_type_id":"4","last_reported":1701904044,"current_range_meters":14000,"station_id":"ce4bhg12rcd13ifvqf60","pricing_plan_id":"free"},{"bike_id":"57e11f93-757d-4afe-8ec8-7ec2944178b2","system_id":"levelo_inurba_marseille","lat":43.24393,"lon":5.3706,"is_reserved":false,"is_disabled":false,"rental_uris":{"android":"levelo://app?vid=57e11f93-757d-4afe-8ec8-7ec2944178b2","ios":"levelo://app?vid=57e11f93-757d-4afe-8ec8-7ec2944178b2"},"vehicle_type_id":"4","last_reported":1701904044,"current_range_meters":30000,"station_id":"ce4bhhh2rcd13ifvqfk0","pricing_plan_id":"free"},{"bike_id":"cc9a7c1b-5b42-4665-b29b-4c33fa547673","system_id":"levelo_inurba_marseille","lat":43.24547,"lon":5.39521,"is_reserved":false,"is_disabled":false,"rental_uris":{"android":"levelo://app?vid=cc9a7c1b-5b42-4665-b29b-4c33fa547673","ios":"levelo://app?vid=cc9a7c1b-5b42-4665-b29b-4c33fa547673"},"vehicle_type_id":"4","last_reported":1701904044,"current_range_meters":2800,"station_id":"ce4bhlp2rcd13ifvqgjg","pricing_plan_id":"free"},{"bike_id":"5697a5f4-97e0-441f-8313-e9484ec89946","system_id":"levelo_inurba_marseille","lat":43.240623,"lon":5.377642,"is_reserved":false,"is_disabled":false,"rental_uris":{"android":"levelo://app?vid=5697a5f4-97e0-441f-8313-e9484ec89946","ios":"levelo://app?vid=5697a5f4-97e0-441f-8313-e9484ec89946"},"vehicle_type_id":"4","last_reported":1701904044,"current_range_meters":31200,"station_id":"ce4bhnp2rcd13ifvqgvg","pricing_plan_id":"free"},{"bike_id":"84e829fc-eba9-4944-a506-08941978bb99","system_id":"levelo_inurba_marseille","lat":43.240623,"lon":5.377642,"is_reserved":false,"is_disabled":false,"rental_uris":{"android":"levelo://app?vid=84e829fc-eba9-4944-a506-08941978bb99","ios":"levelo://app?vid=84e829fc-eba9-4944-a506-08941978bb99"},"vehicle_type_id":"4","last_reported":1701904044,"current_range_meters":13600,"station_id":"ce4bhnp2rcd13ifvqgvg","pricing_plan_id":"free"},{"bike_id":"356b32b3-0b93-4f2f-b6f8-7a0dfba25754","system_id":"levelo_inurba_marseille","lat":43.240623,"lon":5.377642,"is_reserved":false,"is_disabled":false,"rental_uris":{"android":"levelo://app?vid=356b32b3-0b93-4f2f-b6f8-7a0dfba25754","ios":"levelo://app?vid=356b32b3-0b93-4f2f-b6f8-7a0dfba25754"},"vehicle_type_id":"4","last_reported":1701904044,"current_range_meters":28000,"station_id":"ce4bhnp2rcd13ifvqgvg","pricing_plan_id":"free"},{"bike_id":"4c5727f7-b671-44b6-a1c6-91259152df74","system_id":"levelo_inurba_marseille","lat":43.240623,"lon":5.377642,"is_reserved":false,"is_disabled":false,"rental_uris":{"android":"levelo://app?vid=4c5727f7-b671-44b6-a1c6-91259152df74","ios":"levelo://app?vid=4c5727f7-b671-44b6-a1c6-91259152df74"},"vehicle_type_id":"4","last_reported":1701904044,"current_range_meters":22400,"station_id":"ce4bhnp2rcd13ifvqgvg","pricing_plan_id":"free"},{"bike_id":"eaa278ad-09c3-4f75-9832-35635dbae429","system_id":"levelo_inurba_marseille","lat":43.240623,"lon":5.377642,"is_reserved":false,"is_disabled":false,"rental_uris":{"android":"levelo://app?vid=eaa278ad-09c3-4f75-9832-35635dbae429","ios":"levelo://app?vid=eaa278ad-09c3-4f75-9832-35635dbae429"},"vehicle_type_id":"4","last_reported":1701904044,"current_range_meters":19200,"station_id":"ce4bhnp2rcd13ifvqgvg","pricing_plan_id":"free"},{"bike_id":"c25ad63e-2142-4235-90aa-2d2f8f94eb04","system_id":"levelo_inurba_marseille","lat":43.239588,"lon":5.366238,"is_reserved":false,"is_disabled":false,"rental_uris":{"android":"levelo://app?vid=c25ad63e-2142-4235-90aa-2d2f8f94eb04","ios":"levelo://app?vid=c25ad63e-2142-4235-90aa-2d2f8f94eb04"},"vehicle_type_id":"4","last_reported":1701904044,"current_range_meters":23600,"station_id":"ce4bhi12rcd13ifvqfp0","pricing_plan_id":"free"},{"bike_id":"fa962fdf-4c86-46f6-a3e6-d8218c3bc51a","system_id":"levelo_inurba_marseille","lat":43.23961,"lon":5.36628,"is_reserved":false,"is_disabled":false,"rental_uris":{"android":"levelo://app?vid=fa962fdf-4c86-46f6-a3e6-d8218c3bc51a","ios":"levelo://app?vid=fa962fdf-4c86-46f6-a3e6-d8218c3bc51a"},"vehicle_type_id":"4","last_reported":1701904044,"current_range_meters":0,"station_id":"ce4bhi12rcd13ifvqfp0","pricing_plan_id":"free"},{"bike_id":"cb96efd0-e7c3-401d-b6c3-706d1d2ec2bc","system_id":"levelo_inurba_marseille","lat":43.2396,"lon":5.36643,"is_reserved":false,"is_disabled":false,"rental_uris":{"android":"levelo://app?vid=cb96efd0-e7c3-401d-b6c3-706d1d2ec2bc","ios":"levelo://app?vid=cb96efd0-e7c3-401d-b6c3-706d1d2ec2bc"},"vehicle_type_id":"4","last_reported":1701904044,"current_range_meters":0,"station_id":"ce4bhi12rcd13ifvqfp0","pricing_plan_id":"free"},{"bike_id":"bf500768-3452-4ed8-986e-9bf0ce06cb33","system_id":"levelo_inurba_marseille","lat":43.231897,"lon":5.399768,"is_reserved":false,"is_disabled":false,"rental_uris":{"android":"levelo://app?vid=bf500768-3452-4ed8-986e-9bf0ce06cb33","ios":"levelo://app?vid=bf500768-3452-4ed8-986e-9bf0ce06cb33"},"vehicle_type_id":"4","last_reported":1701904044,"current_range_meters":9200,"station_id":"ce4bhn12rcd13ifvqgqg","pricing_plan_id":"free"},{"bike_id":"b95bd059-db79-4290-bca3-5a38eb6a8b00","system_id":"levelo_inurba_marseille","lat":43.231836,"lon":5.399764,"is_reserved":false,"is_disabled":false,"rental_uris":{"android":"levelo://app?vid=b95bd059-db79-4290-bca3-5a38eb6a8b00","ios":"levelo://app?vid=b95bd059-db79-4290-bca3-5a38eb6a8b00"},"vehicle_type_id":"4","last_reported":1701904044,"current_range_meters":15200,"station_id":"ce4bhn12rcd13ifvqgqg","pricing_plan_id":"free"},{"bike_id":"2a73e8fa-c92c-487d-afb8-ed18138423a5","system_id":"levelo_inurba_marseille","lat":43.231794,"lon":5.400052,"is_reserved":false,"is_disabled":false,"rental_uris":{"android":"levelo://app?vid=2a73e8fa-c92c-487d-afb8-ed18138423a5","ios":"levelo://app?vid=2a73e8fa-c92c-487d-afb8-ed18138423a5"},"vehicle_type_id":"4","last_reported":1701904044,"current_range_meters":30400,"station_id":"ce4bhn12rcd13ifvqgqg","pricing_plan_id":"free"},{"bike_id":"023b30f1-8736-4b1e-856e-dc8342404aa7","system_id":"levelo_inurba_marseille","lat":43.231793,"lon":5.400044,"is_reserved":false,"is_disabled":false,"rental_uris":{"android":"levelo://app?vid=023b30f1-8736-4b1e-856e-dc8342404aa7","ios":"levelo://app?vid=023b30f1-8736-4b1e-856e-dc8342404aa7"},"vehicle_type_id":"4","last_reported":1701904044,"current_range_meters":16000,"station_id":"ce4bhn12rcd13ifvqgqg","pricing_plan_id":"free"},{"bike_id":"63586df6-c3dd-49f9-b202-bec4699c47fb","system_id":"levelo_inurba_marseille","lat":43.231793,"lon":5.400044,"is_reserved":false,"is_disabled":false,"rental_uris":{"android":"levelo://app?vid=63586df6-c3dd-49f9-b202-bec4699c47fb","ios":"levelo://app?vid=63586df6-c3dd-49f9-b202-bec4699c47fb"},"vehicle_type_id":"4","last_reported":1701904044,"current_range_meters":10000,"station_id":"ce4bhn12rcd13ifvqgqg","pricing_plan_id":"free"},{"bike_id":"c585371d-774a-418b-8733-b9524d911113","system_id":"levelo_inurba_marseille","lat":43.231562,"lon":5.436933,"is_reserved":false,"is_disabled":false,"rental_uris":{"android":"levelo://app?vid=c585371d-774a-418b-8733-b9524d911113","ios":"levelo://app?vid=c585371d-774a-418b-8733-b9524d911113"},"vehicle_type_id":"4","last_reported":1701904044,"current_range_meters":17200,"station_id":"ce4bhmp2rcd13ifvqgog","pricing_plan_id":"free"},{"bike_id":"32b30606-14b9-41e6-a49f-da3543c8206c","system_id":"levelo_inurba_marseille","lat":43.231562,"lon":5.436933,"is_reserved":false,"is_disabled":false,"rental_uris":{"android":"levelo://app?vid=32b30606-14b9-41e6-a49f-da3543c8206c","ios":"levelo://app?vid=32b30606-14b9-41e6-a49f-da3543c8206c"},"vehicle_type_id":"4","last_reported":1701904044,"current_range_meters":27200,"station_id":"ce4bhmp2rcd13ifvqgog","pricing_plan_id":"free"},{"bike_id":"58123e06-d55b-449c-a2fc-e1b20834e853","system_id":"levelo_inurba_marseille","lat":43.23154,"lon":5.43711,"is_reserved":false,"is_disabled":false,"rental_uris":{"android":"levelo://app?vid=58123e06-d55b-449c-a2fc-e1b20834e853","ios":"levelo://app?vid=58123e06-d55b-449c-a2fc-e1b20834e853"},"vehicle_type_id":"4","last_reported":1701904044,"current_range_meters":6000,"station_id":"ce4bhmp2rcd13ifvqgog","pricing_plan_id":"free"},{"bike_id":"dafb76d3-48a3-4e10-8abe-6207ac6827bf","system_id":"levelo_inurba_marseille","lat":43.231562,"lon":5.436933,"is_reserved":false,"is_disabled":false,"rental_uris":{"android":"levelo://app?vid=dafb76d3-48a3-4e10-8abe-6207ac6827bf","ios":"levelo://app?vid=dafb76d3-48a3-4e10-8abe-6207ac6827bf"},"vehicle_type_id":"4","last_reported":1701904044,"current_range_meters":15600,"station_id":"ce4bhmp2rcd13ifvqgog","pricing_plan_id":"free"}]}}