{"last_updated":1739711584,"ttl":60,"version":"2.2","data":{"bikes":[{"bike_id":"f42c99f6-4bbb-49c3-a982-8524669695b0","system_id":"levelo_inurba_marseille","lat":43.30168,"lon":5.38074,"is_reserved":false,"is_disabled":false,"rental_uris":{"android":"levelo://app?vid=f42c99f6-4bbb-49c3-a982-8524669695b0","ios":"levelo://app?vid=f42c99f6-4bbb-49c3-a982-8524669695b0"},"vehicle_type_id":"4","last_reported":1739711584,"current_range_meters":35200,"station_id":"ce4bgjp2rcd13ifvqbh0","pricing_plan_id":"cebpf4jnsgd1na2vs0mg"},{"bike_id":"5a7b9fda-fcf7-4f0d-b371-842def3cdff7","system_id":"levelo_inurba_marseille","lat":43.29287,"lon":5.401337,"is_reserved":false,"is_disabled":true,"rental_uris":{"android":"levelo://app?vid=5a7b9fda-fcf7-4f0d-b371-842def3cdff7","ios":"levelo://app?vid=5a7b9fda-fcf7-4f0d-b371-842def3cdff7"},"vehicle_type_id":"4","last_reported":1739711584,"current_range_meters":33200,"station_id":"ce4bh312rcd13ifvqdk0","pricing_plan_id":"cebpf4jnsgd1na2vs0mg"},{"bike_id":"314ecb77-8b90-4fdb-aaf3-bbba8b437b8a","system_id":"levelo_inurba_marseille","lat":43.29088,"lon":5.37973,"is_reserved":false,"is_disabled":false,"rental_uris":{"android":"levelo://app?vid=314ecb77-8b90-4fdb-aaf3-bbba8b437b8a","ios":"levelo://app?vid=314ecb77-8b90-4fdb-aaf3-bbba8b437b8a"},"vehicle_type_id":"4","last_reported":1739711584,"current_range_meters":3600,"station_id":"","pricing_plan_id":"cebpf4jnsgd1na2vs0mg"},{"bike_id":"efbacfb4-9d7b-4937-b5da-a8e56007df88","system_id":"levelo_inurba_marseille","lat":43.29634,"lon":5.40615,"is_reserved":false,"is_disabled":false,"rental_uris":{"android":"levelo://app?vid=efbacfb4-9d7b-4937-b5da-a8e56007df88","ios":"levelo://app?vid=efbacfb4-9d7b-4937-b5da-a8e56007df88"},"vehicle_type_id":"4","last_reported":1739711584,"current_range_meters":38800,"station_id":"ce4bh0h2rcd13ifvqd60","pricing_plan_id":"cebpf4jnsgd1na2vs0mg"},{"bike_id":"4f45f8e9-0c7b-4084-8dd3-4de8e3df7577","system_id":"levelo_inurba_marseille","lat":43.2512,"lon":5.40334,"is_reserved":false,"is_disabled":false,"rental_uris":{"android":"levelo://app?vid=4f45f8e9-0c7b-4084-8dd3-4de8e3df7577","ios":"levelo://app?vid=4f45f8e9-0c7b-4084-8dd3-4de8e3df7577"},"vehicle_type_id":"4","last_reported":1739711584,"current_range_meters":38800,"station_id":"ce4bhlh2rcd13ifvqgig","pricing_plan_id":"cebpf4jnsgd1na2vs0mg"},{"bike_id":"160afe3d-4b0d-40e8-a17b-6d93ea1d19e6","system_id":"levelo_inurba_marseille","lat":43.24404,"lon":5.37062,"is_reserved":false,"is_disabled":false,"rental_uris":{"android":"levelo://app?vid=160afe3d-4b0d-40e8-a17b-6d93ea1d19e6","ios":"levelo://app?vid=160afe3d-4b0d-40e8-a17b-6d93ea1d19e6"},"vehicle_type_id":"4","last_reported":1739711584,"current_range_meters":30000,"station_id":"ce4bhhh2rcd13ifvqfk0","pricing_plan_id":"cebpf4jnsgd1na2vs0mg"},{"bike_id":"ff426081-3726-4b6c-aa9f-0d0db0cbc7e6","system_id":"levelo_inurba_marseille","lat":43.28035,"lon":5.36913,"is_reserved":false,"is_disabled":false,"rental_uris":{"android":"levelo://app?vid=ff426081-3726-4b6c-aa9f-0d0db0cbc7e6","ios":"levelo://app?vid=ff426081-3726-4b6c-aa9f-0d0db0cbc7e6"},"vehicle_type_id":"4","last_reported":1739711584,"current_range_meters":38800,"station_id":"ce4bha12rcd13ifvqef0","pricing_plan_id":"cebpf4jnsgd1na2vs0mg"},{"bike_id":"58558eec-a927-4202-aa3d-c8ad7d804276","system_id":"levelo_inurba_marseille","lat":43.33013,"lon":5.39015,"is_reserved":false,"is_disabled":false,"rental_uris":{"android":"levelo://app?vid=58558eec-a927-4202-aa3d-c8ad7d804276","ios":"levelo://app?vid=58558eec-a927-4202-aa3d-c8ad7d804276"},"vehicle_type_id":"4","last_reported":1739711584,"current_range_meters":38800,"station_id":"ce4bhr92rcd13ifvqhrg","pricing_plan_id":"cebpf4jnsgd1na2vs0mg"},{"bike_id":"b2b69db9-a41c-4d37-b7e5-2536d9067581","system_id":"levelo_inurba_marseille","lat":43.27923,"lon":5.38016,"is_reserved":false,"is_disabled":false,"rental_uris":{"android":"levelo://app?vid=b2b69db9-a41c-4d37-b7e5-2536d9067581","ios":"levelo://app?vid=b2b69db9-a41c-4d37-b7e5-2536d9067581"},"vehicle_type_id":"4","last_reported":1739711584,"current_range_meters":24800,"station_id":"ce4bhf92rcd13ifvqf50","pricing_plan_id":"cebpf4jnsgd1na2vs0mg"},{"bike_id":"745f3525-a508-4bd3-877b-72a768da71e0","system_id":"levelo_inurba_marseille","lat":43.27687,"lon":5.38872,"is_reserved":false,"is_disabled":false,"rental_uris":{"android":"levelo://app?vid=745f3525-a508-4bd3-877b-72a768da71e0","ios":"levelo://app?vid=745f3525-a508-4bd3-877b-72a768da71e0"},"vehicle_type_id":"4","last_reported":1739711584,"current_range_meters":38000,"station_id":"ce4bhi12rcd13ifvqfo0","pricing_plan_id":"cebpf4jnsgd1na2vs0mg"},{"bike_id":"32d6e2c8-b7c0-424f-96d4-4eaf3080e6c9","system_id":"levelo_inurba_marseille","lat":43.28611,"lon":5.35099,"is_reserved":false,"is_disabled":false,"rental_uris":{"android":"levelo://app?vid=32d6e2c8-b7c0-424f-96d4-4eaf3080e6c9","ios":"levelo://app?vid=32d6e2c8-b7c0-424f-96d4-4eaf3080e6c9"},"vehicle_type_id":"4","last_reported":1739711584,"current_range_meters":38000,"station_id":"ce4bhch2rcd13ifvqeug","pricing_plan_id":"cebpf4jnsgd1na2vs0mg"},{"bike_id":"c7322498-81a4-46c8-b4c9-ec796bfac1e6","system_id":"levelo_inurba_marseille","lat":43.24168,"lon":5.364,"is_reserved":false,"is_disabled":false,"rental_uris":{"android":"levelo://app?vid=c7322498-81a4-46c8-b4c9-ec796bfac1e6","ios":"levelo://app?vid=c7322498-81a4-46c8-b4c9-ec796bfac1e6"},"vehicle_type_id":"4","last_reported":1739711584,"current_range_meters":36000,"station_id":"cpo36qri1sfpv3e86is0","pricing_plan_id":"cebpf4jnsgd1na2vs0mg"},{"bike_id":"fb97ad5d-8f1a-4a02-a261-31307c09725d","system_id":"levelo_inurba_marseille","lat":43.27618,"lon":5.36107,"is_reserved":false,"is_disabled":false,"rental_uris":{"android":"levelo://app?vid=fb97ad5d-8f1a-4a02-a261-31307c09725d","ios":"levelo://app?vid=fb97ad5d-8f1a-4a02-a261-31307c09725d"},"vehicle_type_id":"4","last_reported":1739711584,"current_range_meters":38400,"station_id":"ce4bgj92rcd13ifvqbe0","pricing_plan_id":"cebpf4jnsgd1na2vs0mg"},{"bike_id":"0594397e-5b4a-4bc1-9dae-734c570709eb","system_id":"levelo_inurba_marseille","lat":43.27819,"lon":5.40697,"is_reserved":false,"is_disabled":false,"rental_uris":{"android":"levelo://app?vid=0594397e-5b4a-4bc1-9dae-734c570709eb","ios":"levelo://app?vid=0594397e-5b4a-4bc1-9dae-734c570709eb"},"vehicle_type_id":"4","last_reported":1739711584,"current_range_meters":5600,"station_id":"ce4bhnh2rcd13ifvqgtg","pricing_plan_id":"cebpf4jnsgd1na2vs0mg"},{"bike_id":"6b46b3fa-7a7e-466f-9d4c-d836a124c472","system_id":"levelo_inurba_marseille","lat":43.26952,"lon":5.38638,"is_reserved":false,"is_disabled":false,"rental_uris":{"android":"levelo://app?vid=6b46b3fa-7a7e-466f-9d4c-d836a124c472","ios":"levelo://app?vid=6b46b3fa-7a7e-466f-9d4c-d836a124c472"},"vehicle_type_id":"4","last_reported":1739711584,"current_range_meters":36800,"station_id":"ce4bhh92rcd13ifvqfh0","pricing_plan_id":"cebpf4jnsgd1na2vs0mg"},{"bike_id":"b0519195-e8c7-4045-9666-3fecb3b30c82","system_id":"levelo_inurba_marseille","lat":43.34146,"lon":5.40899,"is_reserved":false,"is_disabled":false,"rental_uris":{"android":"levelo://app?vid=b0519195-e8c7-4045-9666-3fecb3b30c82","ios":"levelo://app?vid=b0519195-e8c7-4045-9666-3fecb3b30c82"},"vehicle_type_id":"4","last_reported":1739711584,"current_range_meters":38800,"station_id":"ce4bhqh2rcd13ifvqhlg","pricing_plan_id":"cebpf4jnsgd1na2vs0mg"},{"bike_id":"b34c6303-752a-46a1-93ad-ddbc991e20b6","system_id":"levelo_inurba_marseille","lat":43.23073,"lon":5.35502,"is_reserved":false,"is_disabled":false,"rental_uris":{"android":"levelo://app?vid=b34c6303-752a-46a1-93ad-ddbc991e20b6","ios":"levelo://app?vid=b34c6303-752a-46a1-93ad-ddbc991e20b6"},"vehicle_type_id":"4","last_reported":1739711584,"current_range_meters":34000,"station_id":"cpo3342slgdg3j2ifvpg","pricing_plan_id":"cebpf4jnsgd1na2vs0mg"},{"bike_id":"f7abcf74-16eb-4369-b6b8-ac0e795f9129","system_id":"levelo_inurba_marseille","lat":43.28173,"lon":5.4268,"is_reserved":false,"is_disabled":false,"rental_uris":{"android":"levelo://app?vid=f7abcf74-16eb-4369-b6b8-ac0e795f9129","ios":"levelo://app?vid=f7abcf74-16eb-4369-b6b8-ac0e795f9129"},"vehicle_type_id":"4","last_reported":1739711584,"current_range_meters":28000,"station_id":"ce4bhnh2rcd13ifvqgug","pricing_plan_id":"cebpf4jnsgd1na2vs0mg"},{"bike_id":"58f90898-7499-443b-a458-e2c59058430b","system_id":"levelo_inurba_marseille","lat":43.24079,"lon":5.37751,"is_reserved":false,"is_disabled":false,"rental_uris":{"android":"levelo://app?vid=58f90898-7499-443b-a458-e2c59058430b","ios":"levelo://app?vid=58f90898-7499-443b-a458-e2c59058430b"},"vehicle_type_id":"4","last_reported":1739711584,"current_range_meters":38800,"station_id":"ce4bhnp2rcd13ifvqgvg","pricing_plan_id":"cebpf4jnsgd1na2vs0mg"},{"bike_id":"bed4de35-ef09-4f9f-a13d-845fdf520d58","system_id":"levelo_inurba_marseille","lat":43.27482,"lon":5.41525,"is_reserved":false,"is_disabled":false,"rental_uris":{"android":"levelo://app?vid=bed4de35-ef09-4f9f-a13d-845fdf520d58","ios":"levelo://app?vid=bed4de35-ef09-4f9f-a13d-845fdf520d58"},"vehicle_type_id":"4","last_reported":1739711584,"current_range_meters":8400,"station_id":"","pricing_plan_id":"cebpf4jnsgd1na2vs0mg"},{"bike_id":"2821d2ff-3fc8-480e-81a3-1928b04e4a1d","system_id":"levelo_inurba_marseille","lat":43.3145,"lon":5.37381,"is_reserved":false,"is_disabled":false,"rental_uris":{"android":"levelo://app?vid=2821d2ff-3fc8-480e-81a3-1928b04e4a1d","ios":"levelo://app?vid=2821d2ff-3fc8-480e-81a3-1928b04e4a1d"},"vehicle_type_id":"4","last_reported":1739711584,"current_range_meters":6400,"station_id":"","pricing_plan_id":"cebpf4jnsgd1na2vs0mg"},{"bike_id":"fd5cebe6-4288-4379-bbb8-1e48a9a687ea","system_id":"levelo_inurba_marseille","lat":43.27948,"lon":5.41038,"is_reserved":false,"is_disabled":false,"rental_uris":{"android":"levelo://app?vid=fd5cebe6-4288-4379-bbb8-1e48a9a687ea","ios":"levelo://app?vid=fd5cebe6-4288-4379-bbb8-1e48a9a687ea"},"vehicle_type_id":"4","last_reported":1739711584,"current_range_meters":13600,"station_id":"ce4bhnp2rcd13ifvqh0g","pricing_plan_id":"cebpf4jnsgd1na2vs0mg"},{"bike_id":"d4ee7366-55c8-409d-b5f1-6fe34cde5452","system_id":"levelo_inurba_marseille","lat":43.31179,"lon":5.38714,"is_reserved":false,"is_disabled":false,"rental_uris":{"android":"levelo://app?vid=d4ee7366-55c8-409d-b5f1-6fe34cde5452","ios":"levelo://app?vid=d4ee7366-55c8-409d-b5f1-6fe34cde5452"},"vehicle_type_id":"4","last_reported":1739711584,"current_range_meters":38800,"station_id":"ce4bgv12rcd13ifvqcp0","pricing_plan_id":"cebpf4jnsgd1na2vs0mg"},{"bike_id":"2fc48410-0590-4898-94c2-33854b60c1f7","system_id":"levelo_inurba_marseille","lat":43.2694,"lon":5.40252,"is_reserved":false,"is_disabled":false,"rental_uris":{"android":"levelo://app?vid=2fc48410-0590-4898-94c2-33854b60c1f7","ios":"levelo://app?vid=2fc48410-0590-4898-94c2-33854b60c1f7"},"vehicle_type_id":"4","last_reported":1739711584,"current_range_meters":9200,"station_id":"cjm6bp8fraef2m0cb0m0","pricing_plan_id":"cebpf4jnsgd1na2vs0mg"},{"bike_id":"940ffad1-8d03-466c-a361-1bdb8859eb0e","system_id":"levelo_inurba_marseille","lat":43.28626,"lon":5.35098,"is_reserved":false,"is_disabled":true,"rental_uris":{"android":"levelo://app?vid=940ffad1-8d03-466c-a361-1bdb8859eb0e","ios":"levelo://app?vid=940ffad1-8d03-466c-a361-1bdb8859eb0e"},"vehicle_type_id":"4","last_reported":1739711584,"current_range_meters":0,"station_id":"ce4bhch2rcd13ifvqeug","pricing_plan_id":"cebpf4jnsgd1na2vs0mg"},{"bike_id":"71ee7552-6225-4f21-8301-72c964ebec2d","system_id":"levelo_inurba_marseille","lat":43.2667,"lon":5.38251,"is_reserved":false,"is_disabled":true,"rental_uris":{"android":"levelo://app?vid=71ee7552-6225-4f21-8301-72c964ebec2d","ios":"levelo://app?vid=71ee7552-6225-4f21-8301-72c964ebec2d"},"vehicle_type_id":"4","last_reported":1739711584,"current_range_meters":4000,"station_id":"ce4bhg92rcd13ifvqf90","pricing_plan_id":"cebpf4jnsgd1na2vs0mg"},{"bike_id":"91e20a00-0a61-4c4d-ac1e-de492ad0d12a","system_id":"levelo_inurba_marseille","lat":43.29498,"lon":5.37506,"is_reserved":false,"is_disabled":true,"rental_uris":{"android":"levelo://app?vid=91e20a00-0a61-4c4d-ac1e-de492ad0d12a","ios":"levelo://app?vid=91e20a00-0a61-4c4d-ac1e-de492ad0d12a"},"vehicle_type_id":"4","last_reported":1739711584,"current_range_meters":22400,"station_id":"ce4bgkp2rcd13ifvqbmg","pricing_plan_id":"cebpf4jnsgd1na2vs0mg"},{"bike_id":"86a75285-7243-40ee-925b-d20bf72a6a49","system_id":"levelo_inurba_marseille","lat":43.29834,"lon":5.36261,"is_reserved":false,"is_disabled":false,"rental_uris":{"android":"levelo://app?vid=86a75285-7243-40ee-925b-d20bf72a6a49","ios":"levelo://app?vid=86a75285-7243-40ee-925b-d20bf72a6a49"},"vehicle_type_id":"4","last_reported":1739711584,"current_range_meters":38800,"station_id":"ce4bgpp2rcd13ifvqc3g","pricing_plan_id":"cebpf4jnsgd1na2vs0mg"},{"bike_id":"1f0657bb-7196-41de-84fc-c834bbf90b28","system_id":"levelo_inurba_marseille","lat":43.28079,"lon":5.39662,"is_reserved":false,"is_disabled":true,"rental_uris":{"android":"levelo://app?vid=1f0657bb-7196-41de-84fc-c834bbf90b28","ios":"levelo://app?vid=1f0657bb-7196-41de-84fc-c834bbf90b28"},"vehicle_type_id":"4","last_reported":1739711584,"current_range_meters":38800,"station_id":"ce4bho12rcd13ifvqh2g","pricing_plan_id":"cebpf4jnsgd1na2vs0mg"},{"bike_id":"4085957e-a34f-48ec-8023-d0e7a9e56b71","system_id":"levelo_inurba_marseille","lat":43.23056,"lon":5.35481,"is_reserved":false,"is_disabled":false,"rental_uris":{"android":"levelo://app?vid=4085957e-a34f-48ec-8023-d0e7a9e56b71","ios":"levelo://app?vid=4085957e-a34f-48ec-8023-d0e7a9e56b71"},"vehicle_type_id":"4","last_reported":1739711584,"current_range_meters":37600,"station_id":"cpo3342slgdg3j2ifvpg","pricing_plan_id":"cebpf4jnsgd1na2vs0mg"},{"bike_id":"fff65fd9-0a1b-49b8-b6af-92e0cc313ada","system_id":"levelo_inurba_marseille","lat":43.28271,"lon":5.35066,"is_reserved":false,"is_disabled":false,"rental_uris":{"android":"levelo://app?vid=fff65fd9-0a1b-49b8-b6af-92e0cc313ada","ios":"levelo://app?vid=fff65fd9-0a1b-49b8-b6af-92e0cc313ada"},"vehicle_type_id":"4","last_reported":1739711584,"current_range_meters":36000,"station_id":"ce4bhbp2rcd13ifvqerg","pricing_plan_id":"cebpf4jnsgd1na2vs0mg"},{"bike_id":"14061be2-6133-48fd-8a00-b0008fb4aa68","system_id":"levelo_inurba_marseille","lat":43.30139,"lon":5.37412,"is_reserved":false,"is_disabled":false,"rental_uris":{"android":"levelo://app?vid=14061be2-6133-48fd-8a00-b0008fb4aa68","ios":"levelo://app?vid=14061be2-6133-48fd-8a00-b0008fb4aa68"},"vehicle_type_id":"4","last_reported":1739711584,"current_range_meters":39200,"station_id":"ce4bgs92rcd13ifvqcc0","pricing_plan_id":"cebpf4jnsgd1na2vs0mg"},{"bike_id":"8172451f-620b-4bb8-91b1-1e4678991019","system_id":"levelo_inurba_marseille","lat":43.28143,"lon":5.42619,"is_reserved":false,"is_disabled":false,"rental_uris":{"android":"levelo://app?vid=8172451f-620b-4bb8-91b1-1e4678991019","ios":"levelo://app?vid=8172451f-620b-4bb8-91b1-1e4678991019"},"vehicle_type_id":"4","last_reported":1739711584,"current_range_meters":37600,"station_id":"ce4bhnh2rcd13ifvqgug","pricing_plan_id":"cebpf4jnsgd1na2vs0mg"},{"bike_id":"c70d1c16-966f-4038-86d7-256316bf95ad","system_id":"levelo_inurba_marseille","lat":43.26445,"lon":5.39445,"is_reserved":false,"is_disabled":false,"rental_uris":{"android":"levelo://app?vid=c70d1c16-966f-4038-86d7-256316bf95ad","ios":"levelo://app?vid=c70d1c16-966f-4038-86d7-256316bf95ad"},"vehicle_type_id":"4","last_reported":1739711584,"current_range_meters":39200,"station_id":"ce4bhi12rcd13ifvqfq0","pricing_plan_id":"cebpf4jnsgd1na2vs0mg"},{"bike_id":"b4501870-b8ed-41e7-9c02-cfe959070884","system_id":"levelo_inurba_marseille","lat":43.24073,"lon":5.37758,"is_reserved":false,"is_disabled":false,"rental_uris":{"android":"levelo://app?vid=b4501870-b8ed-41e7-9c02-cfe959070884","ios":"levelo://app?vid=b4501870-b8ed-41e7-9c02-cfe959070884"},"vehicle_type_id":"4","last_reported":1739711584,"current_range_meters":28000,"station_id":"ce4bhnp2rcd13ifvqgvg","pricing_plan_id":"cebpf4jnsgd1na2vs0mg"},{"bike_id":"fc95593c-8708-42f6-b772-cc1ed2ac9136","system_id":"levelo_inurba_marseille","lat":43.31305,"lon":5.39621,"is_reserved":false,"is_disabled":false,"rental_uris":{"android":"levelo://app?vid=fc95593c-8708-42f6-b772-cc1ed2ac9136","ios":"levelo://app?vid=fc95593c-8708-42f6-b772-cc1ed2ac9136"},"vehicle_type_id":"4","last_reported":1739711584,"current_range_meters":29600,"station_id":"","pricing_plan_id":"cebpf4jnsgd1na2vs0mg"},{"bike_id":"f92e748a-9f9b-4e54-8084-07e33515f3d5","system_id":"levelo_inurba_marseille","lat":43.27071,"lon":5.39347,"is_reserved":false,"is_disabled":true,"rental_uris":{"android":"levelo://app?vid=f92e748a-9f9b-4e54-8084-07e33515f3d5","ios":"levelo://app?vid=f92e748a-9f9b-4e54-8084-07e33515f3d5"},"vehicle_type_id":"4","last_reported":1739711584,"current_range_meters":0,"station_id":"","pricing_plan_id":"cebpf4jnsgd1na2vs0mg"},{"bike_id":"3ac6818e-1ef6-4d16-b8a9-4acf2de1e5be","system_id":"levelo_inurba_marseille","lat":43.28405,"lon":5.37512,"is_reserved":false,"is_disabled":false,"rental_uris":{"android":"levelo://app?vid=3ac6818e-1ef6-4d16-b8a9-4acf2de1e5be","ios":"levelo://app?vid=3ac6818e-1ef6-4d16-b8a9-4acf2de1e5be"},"vehicle_type_id":"4","last_reported":1739711584,"current_range_meters":6800,"station_id":"ce4bh412rcd13ifvqds0","pricing_plan_id":"cebpf4jnsgd1na2vs0mg"},{"bike_id":"61ec3990-f400-41c2-8c38-bad2baef6327","system_id":"levelo_inurba_marseille","lat":43.24801,"lon":5.37453,"is_reserved":false,"is_disabled":false,"rental_uris":{"android":"levelo://app?vid=61ec3990-f400-41c2-8c38-bad2baef6327","ios":"levelo://app?vid=61ec3990-f400-41c2-8c38-bad2baef6327"},"vehicle_type_id":"4","last_reported":1739711584,"current_range_meters":38400,"station_id":"ce4bhgh2rcd13ifvqfb0","pricing_plan_id":"cebpf4jnsgd1na2vs0mg"},{"bike_id":"5fc0931d-4e49-4a7e-a479-ab038840c9e5","system_id":"levelo_inurba_marseille","lat":43.28934,"lon":5.36393,"is_reserved":false,"is_disabled":false,"rental_uris":{"android":"levelo://app?vid=5fc0931d-4e49-4a7e-a479-ab038840c9e5","ios":"levelo://app?vid=5fc0931d-4e49-4a7e-a479-ab038840c9e5"},"vehicle_type_id":"4","last_reported":1739711584,"current_range_meters":28000,"station_id":"ce4bhc92rcd13ifvqetg","pricing_plan_id":"cebpf4jnsgd1na2vs0mg"},{"bike_id":"60709dda-5daa-4497-a2c0-8ea194aab9be","system_id":"levelo_inurba_marseille","lat":43.299228,"lon":5.374861,"is_reserved":false,"is_disabled":false,"rental_uris":{"android":"levelo://app?vid=60709dda-5daa-4497-a2c0-8ea194aab9be","ios":"levelo://app?vid=60709dda-5daa-4497-a2c0-8ea194aab9be"},"vehicle_type_id":"4","last_reported":1739711584,"current_range_meters":27600,"station_id":"ce4bgjh2rcd13ifvqbg0","pricing_plan_id":"cebpf4jnsgd1na2vs0mg"},{"bike_id":"3e239668-a1b8-4b22-be76-179a31a986bd","system_id":"levelo_inurba_marseille","lat":43.23157,"lon":5.43718,"is_reserved":false,"is_disabled":false,"rental_uris":{"android":"levelo://app?vid=3e239668-a1b8-4b22-be76-179a31a986bd","ios":"levelo://app?vid=3e239668-a1b8-4b22-be76-179a31a986bd"},"vehicle_type_id":"4","last_reported":1739711584,"current_range_meters":38800,"station_id":"ce4bhmp2rcd13ifvqgog","pricing_plan_id":"cebpf4jnsgd1na2vs0mg"},{"bike_id":"542db65b-4c63-46f9-87df-aed33986fb69","system_id":"levelo_inurba_marseille","lat":43.30679,"lon":5.4008,"is_reserved":false,"is_disabled":false,"rental_uris":{"android":"levelo://app?vid=542db65b-4c63-46f9-87df-aed33986fb69","ios":"levelo://app?vid=542db65b-4c63-46f9-87df-aed33986fb69"},"vehicle_type_id":"4","last_reported":1739711584,"current_range_meters":6000,"station_id":"ce4bh112rcd13ifvqda0","pricing_plan_id":"cebpf4jnsgd1na2vs0mg"},{"bike_id":"9cf8e6d9-67b8-441b-8ab4-08ef8560d2b0","system_id":"levelo_inurba_marseille","lat":43.33514,"lon":5.35585,"is_reserved":false,"is_disabled":true,"rental_uris":{"android":"levelo://app?vid=9cf8e6d9-67b8-441b-8ab4-08ef8560d2b0","ios":"levelo://app?vid=9cf8e6d9-67b8-441b-8ab4-08ef8560d2b0"},"vehicle_type_id":"4","last_reported":1739711584,"current_range_meters":0,"station_id":"","pricing_plan_id":"cebpf4jnsgd1na2vs0mg"},{"bike_id":"5b3947fb-aac5-4b95-8d58-7d020ddc5523","system_id":"levelo_inurba_marseille","lat":43.29027,"lon":5.38138,"is_reserved":false,"is_disabled":false,"rental_uris":{"android":"levelo://app?vid=5b3947fb-aac5-4b95-8d58-7d020ddc5523","ios":"levelo://app?vid=5b3947fb-aac5-4b95-8d58-7d020ddc5523"},"vehicle_type_id":"4","last_reported":1739711584,"current_range_meters":36800,"station_id":"ce4bh4p2rcd13ifvqe1g","pricing_plan_id":"cebpf4jnsgd1na2vs0mg"},{"bike_id":"0c02c842-4f61-4404-a07d-57e5e1b07bc3","system_id":"levelo_inurba_marseille","lat":43.25949,"lon":5.41364,"is_reserved":false,"is_disabled":false,"rental_uris":{"android":"levelo://app?vid=0c02c842-4f61-4404-a07d-57e5e1b07bc3","ios":"levelo://app?vid=0c02c842-4f61-4404-a07d-57e5e1b07bc3"},"vehicle_type_id":"4","last_reported":1739711584,"current_range_meters":23200,"station_id":"","pricing_plan_id":"cebpf4jnsgd1na2vs0mg"},{"bike_id":"1b61f379-a116-493f-897c-3b57931c5f78","system_id":"levelo_inurba_marseille","lat":43.273778,"lon":5.362529,"is_reserved":false,"is_disabled":false,"rental_uris":{"android":"levelo://app?vid=1b61f379-a116-493f-897c-3b57931c5f78","ios":"levelo://app?vid=1b61f379-a116-493f-897c-3b57931c5f78"},"vehicle_type_id":"4","last_reported":1739711584,"current_range_meters":19600,"station_id":"ce4bhbh2rcd13ifvqeo0","pricing_plan_id":"cebpf4jnsgd1na2vs0mg"},{"bike_id":"aad5f3a6-30bd-4356-b6cd-5a426da569eb","system_id":"levelo_inurba_marseille","lat":43.2864,"lon":5.36997,"is_reserved":false,"is_disabled":false,"rental_uris":{"android":"levelo://app?vid=aad5f3a6-30bd-4356-b6cd-5a426da569eb","ios":"levelo://app?vid=aad5f3a6-30bd-4356-b6cd-5a426da569eb"},"vehicle_type_id":"4","last_reported":1739711584,"current_range_meters":32400,"station_id":"ce4bht12rcd13ifvqi60","pricing_plan_id":"cebpf4jnsgd1na2vs0mg"},{"bike_id":"a47a49ff-3d8c-459e-91ff-bddc8c1b5078","system_id":"levelo_inurba_marseille","lat":43.29565,"lon":5.39953,"is_reserved":false,"is_disabled":false,"rental_uris":{"android":"levelo://app?vid=a47a49ff-3d8c-459e-91ff-bddc8c1b5078","ios":"levelo://app?vid=a47a49ff-3d8c-459e-91ff-bddc8c1b5078"},"vehicle_type_id":"4","last_reported":1739711584,"current_range_meters":38000,"station_id":"ce4bh312rcd13ifvqdj0","pricing_plan_id":"cebpf4jnsgd1na2vs0mg"},{"bike_id":"b9fe6f39-188a-4771-8adc-27a57052762e","system_id":"levelo_inurba_marseille","lat":43.26786,"lon":5.39409,"is_reserved":false,"is_disabled":false,"rental_uris":{"android":"levelo://app?vid=b9fe6f39-188a-4771-8adc-27a57052762e","ios":"levelo://app?vid=b9fe6f39-188a-4771-8adc-27a57052762e"},"vehicle_type_id":"4","last_reported":1739711584,"current_range_meters":35600,"station_id":"ce4bhh12rcd13ifvqfg0","pricing_plan_id":"cebpf4jnsgd1na2vs0mg"},{"bike_id":"540bf5a8-5786-4431-b160-b1b1e0ba365f","system_id":"levelo_inurba_marseille","lat":43.29952,"lon":5.40029,"is_reserved":false,"is_disabled":false,"rental_uris":{"android":"levelo://app?vid=540bf5a8-5786-4431-b160-b1b1e0ba365f","ios":"levelo://app?vid=540bf5a8-5786-4431-b160-b1b1e0ba365f"},"vehicle_type_id":"4","last_reported":1739711584,"current_range_meters":36400,"station_id":"","pricing_plan_id":"cebpf4jnsgd1na2vs0mg"},{"bike_id":"d2e398e5-b6e8-4962-8f7a-de3b77492e56","system_id":"levelo_inurba_marseille","lat":43.29614,"lon":5.37727,"is_reserved":false,"is_disabled":false,"rental_uris":{"android":"levelo://app?vid=d2e398e5-b6e8-4962-8f7a-de3b77492e56","ios":"levelo://app?vid=d2e398e5-b6e8-4962-8f7a-de3b77492e56"},"vehicle_type_id":"4","last_reported":1739711584,"current_range_meters":27600,"station_id":"ce4bgi92rcd13ifvqb90","pricing_plan_id":"cebpf4jnsgd1na2vs0mg"},{"bike_id":"51ab7186-5043-4bed-baca-73708608a302","system_id":"levelo_inurba_marseille","lat":43.29584,"lon":5.37026,"is_reserved":false,"is_disabled":true,"rental_uris":{"android":"levelo://app?vid=51ab7186-5043-4bed-baca-73708608a302","ios":"levelo://app?vid=51ab7186-5043-4bed-baca-73708608a302"},"vehicle_type_id":"4","last_reported":1739711584,"current_range_meters":0,"station_id":"","pricing_plan_id":"cebpf4jnsgd1na2vs0mg"},{"bike_id":"1e7332ed-c01d-44f8-b228-8ce90d46bed3","system_id":"levelo_inurba_marseille","lat":43.29563,"lon":5.37514,"is_reserved":false,"is_disabled":false,"rental_uris":{"android":"levelo://app?vid=1e7332ed-c01d-44f8-b228-8ce90d46bed3","ios":"levelo://app?vid=1e7332ed-c01d-44f8-b228-8ce90d46bed3"},"vehicle_type_id":"4","last_reported":1739711584,"current_range_meters":38400,"station_id":"ce4bgh92rcd13ifvqb50","pricing_plan_id":"cebpf4jnsgd1na2vs0mg"},{"bike_id":"9fdb08b8-1ceb-474a-abf2-04c699884b4a","system_id":"levelo_inurba_marseille","lat":43.23179,"lon":5.35552,"is_reserved":false,"is_disabled":false,"rental_uris":{"android":"levelo://app?vid=9fdb08b8-1ceb-474a-abf2-04c699884b4a","ios":"levelo://app?vid=9fdb08b8-1ceb-474a-abf2-04c699884b4a"},"vehicle_type_id":"4","last_reported":1739711584,"current_range_meters":36800,"station_id":"ce4bhu92rcd13ifvqi70","pricing_plan_id":"cebpf4jnsgd1na2vs0mg"},{"bike_id":"485502f3-3b80-4687-aac8-10dc57118684","system_id":"levelo_inurba_marseille","lat":43.26209,"lon":5.40458,"is_reserved":false,"is_disabled":false,"rental_uris":{"android":"levelo://app?vid=485502f3-3b80-4687-aac8-10dc57118684","ios":"levelo://app?vid=485502f3-3b80-4687-aac8-10dc57118684"},"vehicle_type_id":"4","last_reported":1739711584,"current_range_meters":9600,"station_id":"ce4bhmh2rcd13ifvqgmg","pricing_plan_id":"cebpf4jnsgd1na2vs0mg"},{"bike_id":"a063d2e3-89be-4b9c-80e2-cbe786bf430f","system_id":"levelo_inurba_marseille","lat":43.3096,"lon":5.39093,"is_reserved":false,"is_disabled":false,"rental_uris":{"android":"levelo://app?vid=a063d2e3-89be-4b9c-80e2-cbe786bf430f","ios":"levelo://app?vid=a063d2e3-89be-4b9c-80e2-cbe786bf430f"},"vehicle_type_id":"4","last_reported":1739711584,"current_range_meters":39200,"station_id":"","pricing_plan_id":"cebpf4jnsgd1na2vs0mg"},{"bike_id":"9c2b77e8-bae1-455e-8815-4989d9f32bed","system_id":"levelo_inurba_marseille","lat":43.27619,"lon":5.36103,"is_reserved":false,"is_disabled":false,"rental_uris":{"android":"levelo://app?vid=9c2b77e8-bae1-455e-8815-4989d9f32bed","ios":"levelo://app?vid=9c2b77e8-bae1-455e-8815-4989d9f32bed"},"vehicle_type_id":"4","last_reported":1739711584,"current_range_meters":6000,"station_id":"ce4bgj92rcd13ifvqbe0","pricing_plan_id":"cebpf4jnsgd1na2vs0mg"},{"bike_id":"bda6743b-c516-4a32-869d-e95d5efdde5b","system_id":"levelo_inurba_marseille","lat":43.28496,"lon":5.37264,"is_reserved":false,"is_disabled":false,"rental_uris":{"android":"levelo://app?vid=bda6743b-c516-4a32-869d-e95d5efdde5b","ios":"levelo://app?vid=bda6743b-c516-4a32-869d-e95d5efdde5b"},"vehicle_type_id":"4","last_reported":1739711584,"current_range_meters":27600,"station_id":"ce4bht12rcd13ifvqi60","pricing_plan_id":"cebpf4jnsgd1na2vs0mg"},{"bike_id":"2d744cd1-8083-459a-b942-57bd28387959","system_id":"levelo_inurba_marseille","lat":43.25567,"lon":5.38233,"is_reserved":false,"is_disabled":false,"rental_uris":{"android":"levelo://app?vid=2d744cd1-8083-459a-b942-57bd28387959","ios":"levelo://app?vid=2d744cd1-8083-459a-b942-57bd28387959"},"vehicle_type_id":"4","last_reported":1739711584,"current_range_meters":20800,"station_id":"ce4bhih2rcd13ifvqfs0","pricing_plan_id":"cebpf4jnsgd1na2vs0mg"},{"bike_id":"c40e2cb9-b89c-4dbd-956b-535ef79f1d37","system_id":"levelo_inurba_marseille","lat":43.24803,"lon":5.37453,"is_reserved":false,"is_disabled":false,"rental_uris":{"android":"levelo://app?vid=c40e2cb9-b89c-4dbd-956b-535ef79f1d37","ios":"levelo://app?vid=c40e2cb9-b89c-4dbd-956b-535ef79f1d37"},"vehicle_type_id":"4","last_reported":1739711584,"current_range_meters":18800,"station_id":"ce4bhgh2rcd13ifvqfb0","pricing_plan_id":"cebpf4jnsgd1na2vs0mg"},{"bike_id":"621aa48b-6d99-46c4-b886-2c6eb903854e","system_id":"levelo_inurba_marseille","lat":43.29282,"lon":5.36843,"is_reserved":false,"is_disabled":true,"rental_uris":{"android":"levelo://app?vid=621aa48b-6d99-46c4-b886-2c6eb903854e","ios":"levelo://app?vid=621aa48b-6d99-46c4-b886-2c6eb903854e"},"vehicle_type_id":"4","last_reported":1739711584,"current_range_meters":28400,"station_id":"ce4bhbp2rcd13ifvqesg","pricing_plan_id":"cebpf4jnsgd1na2vs0mg"},{"bike_id":"79ddea8d-7181-4d4a-b11c-4b8194521374","system_id":"levelo_inurba_marseille","lat":43.25825,"lon":5.39426,"is_reserved":false,"is_disabled":false,"rental_uris":{"android":"levelo://app?vid=79ddea8d-7181-4d4a-b11c-4b8194521374","ios":"levelo://app?vid=79ddea8d-7181-4d4a-b11c-4b8194521374"},"vehicle_type_id":"4","last_reported":1739711584,"current_range_meters":28000,"station_id":"ce4bhip2rcd13ifvqft0","pricing_plan_id":"cebpf4jnsgd1na2vs0mg"},{"bike_id":"6494546c-3623-47f8-8fe9-200642155877","system_id":"levelo_inurba_marseille","lat":43.32656,"lon":5.40987,"is_reserved":false,"is_disabled":false,"rental_uris":{"android":"levelo://app?vid=6494546c-3623-47f8-8fe9-200642155877","ios":"levelo://app?vid=6494546c-3623-47f8-8fe9-200642155877"},"vehicle_type_id":"4","last_reported":1739711584,"current_range_meters":38800,"station_id":"ce4bhpp2rcd13ifvqhgg","pricing_plan_id":"cebpf4jnsgd1na2vs0mg"},{"bike_id":"8ea8a511-fb9d-427a-9d43-0669507fa2be","system_id":"levelo_inurba_marseille","lat":43.32473,"lon":5.36571,"is_reserved":false,"is_disabled":false,"rental_uris":{"android":"levelo://app?vid=8ea8a511-fb9d-427a-9d43-0669507fa2be","ios":"levelo://app?vid=8ea8a511-fb9d-427a-9d43-0669507fa2be"},"vehicle_type_id":"4","last_reported":1739711584,"current_range_meters":38800,"station_id":"ce4bhs12rcd13ifvqhvg","pricing_plan_id":"cebpf4jnsgd1na2vs0mg"},{"bike_id":"4afd05b5-41e1-4012-b907-304d88773920","system_id":"levelo_inurba_marseille","lat":43.23961,"lon":5.36631,"is_reserved":false,"is_disabled":false,"rental_uris":{"android":"levelo://app?vid=4afd05b5-41e1-4012-b907-304d88773920","ios":"levelo://app?vid=4afd05b5-41e1-4012-b907-304d88773920"},"vehicle_type_id":"4","last_reported":1739711584,"current_range_meters":36400,"station_id":"ce4bhi12rcd13ifvqfp0","pricing_plan_id":"cebpf4jnsgd1na2vs0mg"},{"bike_id":"af02ac68-734a-4337-a76f-2d6f15936fdf","system_id":"levelo_inurba_marseille","lat":43.28171,"lon":5.42628,"is_reserved":false,"is_disabled":false,"rental_uris":{"android":"levelo://app?vid=af02ac68-734a-4337-a76f-2d6f15936fdf","ios":"levelo://app?vid=af02ac68-734a-4337-a76f-2d6f15936fdf"},"vehicle_type_id":"4","last_reported":1739711584,"current_range_meters":36800,"station_id":"ce4bhnh2rcd13ifvqgug","pricing_plan_id":"cebpf4jnsgd1na2vs0mg"},{"bike_id":"5868ad6d-00da-4949-9883-01a45fe79ae4","system_id":"levelo_inurba_marseille","lat":43.26208,"lon":5.37443,"is_reserved":false,"is_disabled":false,"rental_uris":{"android":"levelo://app?vid=5868ad6d-00da-4949-9883-01a45fe79ae4","ios":"levelo://app?vid=5868ad6d-00da-4949-9883-01a45fe79ae4"},"vehicle_type_id":"4","last_reported":1739711584,"current_range_meters":22400,"station_id":"ce4bhgp2rcd13ifvqfc0","pricing_plan_id":"cebpf4jnsgd1na2vs0mg"},{"bike_id":"ce69f08a-f654-416f-a0c8-3b25f918be1f","system_id":"levelo_inurba_marseille","lat":43.28282,"lon":5.35078,"is_reserved":false,"is_disabled":false,"rental_uris":{"android":"levelo://app?vid=ce69f08a-f654-416f-a0c8-3b25f918be1f","ios":"levelo://app?vid=ce69f08a-f654-416f-a0c8-3b25f918be1f"},"vehicle_type_id":"4","last_reported":1739711584,"current_range_meters":24400,"station_id":"ce4bhbp2rcd13ifvqerg","pricing_plan_id":"cebpf4jnsgd1na2vs0mg"},{"bike_id":"c4ab0cbe-309c-426f-a83e-3575d7011fde","system_id":"levelo_inurba_marseille","lat":43.31375,"lon":5.38491,"is_reserved":false,"is_disabled":false,"rental_uris":{"android":"levelo://app?vid=c4ab0cbe-309c-426f-a83e-3575d7011fde","ios":"levelo://app?vid=c4ab0cbe-309c-426f-a83e-3575d7011fde"},"vehicle_type_id":"4","last_reported":1739711584,"current_range_meters":29600,"station_id":"ce4bgt92rcd13ifvqcf0","pricing_plan_id":"cebpf4jnsgd1na2vs0mg"},{"bike_id":"e52b32d0-9301-4304-87e7-f1655032e994","system_id":"levelo_inurba_marseille","lat":43.3055,"lon":5.38432,"is_reserved":false,"is_disabled":false,"rental_uris":{"android":"levelo://app?vid=e52b32d0-9301-4304-87e7-f1655032e994","ios":"levelo://app?vid=e52b32d0-9301-4304-87e7-f1655032e994"},"vehicle_type_id":"4","last_reported":1739711584,"current_range_meters":38800,"station_id":"ce4bgg92rcd13ifvqb30","pricing_plan_id":"cebpf4jnsgd1na2vs0mg"},{"bike_id":"3ce3dae2-ed5f-43cb-bad9-b317ce2471d9","system_id":"levelo_inurba_marseille","lat":43.24824,"lon":5.37464,"is_reserved":false,"is_disabled":false,"rental_uris":{"android":"levelo://app?vid=3ce3dae2-ed5f-43cb-bad9-b317ce2471d9","ios":"levelo://app?vid=3ce3dae2-ed5f-43cb-bad9-b317ce2471d9"},"vehicle_type_id":"4","last_reported":1739711584,"current_range_meters":37600,"station_id":"ce4bhgh2rcd13ifvqfb0","pricing_plan_id":"cebpf4jnsgd1na2vs0mg"},{"bike_id":"397f7144-3e20-4f61-9149-2720265fc375","system_id":"levelo_inurba_marseille","lat":43.24066,"lon":5.37746,"is_reserved":false,"is_disabled":false,"rental_uris":{"android":"levelo://app?vid=397f7144-3e20-4f61-9149-2720265fc375","ios":"levelo://app?vid=397f7144-3e20-4f61-9149-2720265fc375"},"vehicle_type_id":"4","last_reported":1739711584,"current_range_meters":35200,"station_id":"ce4bhnp2rcd13ifvqgvg","pricing_plan_id":"cebpf4jnsgd1na2vs0mg"},{"bike_id":"de329d6a-c6ff-4db1-a0db-786159e14c74","system_id":"levelo_inurba_marseille","lat":43.30564,"lon":5.36543,"is_reserved":false,"is_disabled":false,"rental_uris":{"android":"levelo://app?vid=de329d6a-c6ff-4db1-a0db-786159e14c74","ios":"levelo://app?vid=de329d6a-c6ff-4db1-a0db-786159e14c74"},"vehicle_type_id":"4","last_reported":1739711584,"current_range_meters":27200,"station_id":"ce4bgs12rcd13ifvqcag","pricing_plan_id":"cebpf4jnsgd1na2vs0mg"},{"bike_id":"391408fa-4661-4fa3-8f76-e7bcc0045315","system_id":"levelo_inurba_marseille","lat":43.28172,"lon":5.42649,"is_reserved":false,"is_disabled":false,"rental_uris":{"android":"levelo://app?vid=391408fa-4661-4fa3-8f76-e7bcc0045315","ios":"levelo://app?vid=391408fa-4661-4fa3-8f76-e7bcc0045315"},"vehicle_type_id":"4","last_reported":1739711584,"current_range_meters":38000,"station_id":"ce4bhnh2rcd13ifvqgug","pricing_plan_id":"cebpf4jnsgd1na2vs0mg"},{"bike_id":"9acdfb9e-14d5-45e5-a3f2-7e2a2aa09557","system_id":"levelo_inurba_marseille","lat":43.29239,"lon":5.36057,"is_reserved":false,"is_disabled":false,"rental_uris":{"android":"levelo://app?vid=9acdfb9e-14d5-45e5-a3f2-7e2a2aa09557","ios":"levelo://app?vid=9acdfb9e-14d5-45e5-a3f2-7e2a2aa09557"},"vehicle_type_id":"4","last_reported":1739711584,"current_range_meters":12800,"station_id":"ce4bhbh2rcd13ifvqeqg","pricing_plan_id":"cebpf4jnsgd1na2vs0mg"},{"bike_id":"9d7c84b1-5e85-40b5-9214-0ea5f354ecac","system_id":"levelo_inurba_marseille","lat":43.28618,"lon":5.38456,"is_reserved":false,"is_disabled":false,"rental_uris":{"android":"levelo://app?vid=9d7c84b1-5e85-40b5-9214-0ea5f354ecac","ios":"levelo://app?vid=9d7c84b1-5e85-40b5-9214-0ea5f354ecac"},"vehicle_type_id":"4","last_reported":1739711584,"current_range_meters":10000,"station_id":"","pricing_plan_id":"cebpf4jnsgd1na2vs0mg"},{"bike_id":"2014e79f-7327-42d7-b672-2877d12e5010","system_id":"levelo_inurba_marseille","lat":43.24389,"lon":5.37062,"is_reserved":false,"is_disabled":false,"rental_uris":{"android":"levelo://app?vid=2014e79f-7327-42d7-b672-2877d12e5010","ios":"levelo://app?vid=2014e79f-7327-42d7-b672-2877d12e5010"},"vehicle_type_id":"4","last_reported":1739711584,"current_range_meters":11200,"station_id":"ce4bhhh2rcd13ifvqfk0","pricing_plan_id":"cebpf4jnsgd1na2vs0mg"},{"bike_id":"d505ae6b-8401-49d2-a7e3-85c98bc77f1c","system_id":"levelo_inurba_marseille","lat":43.32337,"lon":5.40617,"is_reserved":false,"is_disabled":false,"rental_uris":{"android":"levelo://app?vid=d505ae6b-8401-49d2-a7e3-85c98bc77f1c","ios":"levelo://app?vid=d505ae6b-8401-49d2-a7e3-85c98bc77f1c"},"vehicle_type_id":"4","last_reported":1739711584,"current_range_meters":19200,"station_id":"ce4bhq92rcd13ifvqhjg","pricing_plan_id":"cebpf4jnsgd1na2vs0mg"},{"bike_id":"d4d36247-2aab-4add-8265-c91892033971","system_id":"levelo_inurba_marseille","lat":43.27806,"lon":5.40731,"is_reserved":false,"is_disabled":false,"rental_uris":{"android":"levelo://app?vid=d4d36247-2aab-4add-8265-c91892033971","ios":"levelo://app?vid=d4d36247-2aab-4add-8265-c91892033971"},"vehicle_type_id":"4","last_reported":1739711584,"current_range_meters":17600,"station_id":"ce4bhnh2rcd13ifvqgtg","pricing_plan_id":"cebpf4jnsgd1na2vs0mg"},{"bike_id":"6408b994-ae56-4e32-95b9-cb0502299b0f","system_id":"levelo_inurba_marseille","lat":43.29536,"lon":5.42264,"is_reserved":false,"is_disabled":false,"rental_uris":{"android":"levelo://app?vid=6408b994-ae56-4e32-95b9-cb0502299b0f","ios":"levelo://app?vid=6408b994-ae56-4e32-95b9-cb0502299b0f"},"vehicle_type_id":"4","last_reported":1739711584,"current_range_meters":38000,"station_id":"ce4bhph2rcd13ifvqhdg","pricing_plan_id":"cebpf4jnsgd1na2vs0mg"},{"bike_id":"0fb477a7-1eb0-47ce-9e15-77231931a16a","system_id":"levelo_inurba_marseille","lat":43.23184,"lon":5.39994,"is_reserved":false,"is_disabled":false,"rental_uris":{"android":"levelo://app?vid=0fb477a7-1eb0-47ce-9e15-77231931a16a","ios":"levelo://app?vid=0fb477a7-1eb0-47ce-9e15-77231931a16a"},"vehicle_type_id":"4","last_reported":1739711584,"current_range_meters":28800,"station_id":"ce4bhn12rcd13ifvqgqg","pricing_plan_id":"cebpf4jnsgd1na2vs0mg"},{"bike_id":"982c499f-f482-40de-b19f-0c738b7d10ae","system_id":"levelo_inurba_marseille","lat":43.24808,"lon":5.37452,"is_reserved":false,"is_disabled":false,"rental_uris":{"android":"levelo://app?vid=982c499f-f482-40de-b19f-0c738b7d10ae","ios":"levelo://app?vid=982c499f-f482-40de-b19f-0c738b7d10ae"},"vehicle_type_id":"4","last_reported":1739711584,"current_range_meters":38800,"station_id":"ce4bhgh2rcd13ifvqfb0","pricing_plan_id":"cebpf4jnsgd1na2vs0mg"},{"bike_id":"98f62326-8a26-4889-8233-3fa661e57e03","system_id":"levelo_inurba_marseille","lat":43.25104,"lon":5.40314,"is_reserved":false,"is_disabled":false,"rental_uris":{"android":"levelo://app?vid=98f62326-8a26-4889-8233-3fa661e57e03","ios":"levelo://app?vid=98f62326-8a26-4889-8233-3fa661e57e03"},"vehicle_type_id":"4","last_reported":1739711584,"current_range_meters":8000,"station_id":"ce4bhlh2rcd13ifvqgig","pricing_plan_id":"cebpf4jnsgd1na2vs0mg"},{"bike_id":"1318b295-cc52-44b6-9cc4-f836aa4c2361","system_id":"levelo_inurba_marseille","lat":43.25493,"lon":5.37652,"is_reserved":false,"is_disabled":false,"rental_uris":{"android":"levelo://app?vid=1318b295-cc52-44b6-9cc4-f836aa4c2361","ios":"levelo://app?vid=1318b295-cc52-44b6-9cc4-f836aa4c2361"},"vehicle_type_id":"4","last_reported":1739711584,"current_range_meters":35600,"station_id":"ce4bhh12rcd13ifvqff0","pricing_plan_id":"cebpf4jnsgd1na2vs0mg"},{"bike_id":"19d0fec9-8cfb-46fa-8ac0-06823ee36c13","system_id":"levelo_inurba_marseille","lat":43.29882,"lon":5.39741,"is_reserved":false,"is_disabled":false,"rental_uris":{"android":"levelo://app?vid=19d0fec9-8cfb-46fa-8ac0-06823ee36c13","ios":"levelo://app?vid=19d0fec9-8cfb-46fa-8ac0-06823ee36c13"},"vehicle_type_id":"4","last_reported":1739711584,"current_range_meters":38800,"station_id":"ce4bh0h2rcd13ifvqd50","pricing_plan_id":"cebpf4jnsgd1na2vs0mg"},{"bike_id":"277853b3-9933-4cb3-bbb5-1b8c760313ef","system_id":"levelo_inurba_marseille","lat":43.23193,"lon":5.35557,"is_reserved":false,"is_disabled":false,"rental_uris":{"android":"levelo://app?vid=277853b3-9933-4cb3-bbb5-1b8c760313ef","ios":"levelo://app?vid=277853b3-9933-4cb3-bbb5-1b8c760313ef"},"vehicle_type_id":"4","last_reported":1739711584,"current_range_meters":9200,"station_id":"ce4bhu92rcd13ifvqi70","pricing_plan_id":"cebpf4jnsgd1na2vs0mg"},{"bike_id":"265ccf22-a162-4f39-8e8c-a647f59c9078","system_id":"levelo_inurba_marseille","lat":43.24657,"lon":5.38155,"is_reserved":false,"is_disabled":false,"rental_uris":{"android":"levelo://app?vid=265ccf22-a162-4f39-8e8c-a647f59c9078","ios":"levelo://app?vid=265ccf22-a162-4f39-8e8c-a647f59c9078"},"vehicle_type_id":"4","last_reported":1739711584,"current_range_meters":26800,"station_id":"ce4bhih2rcd13ifvqfr0","pricing_plan_id":"cebpf4jnsgd1na2vs0mg"},{"bike_id":"4e1f36bf-920b-407f-bd8e-e12200457304","system_id":"levelo_inurba_marseille","lat":43.27771,"lon":5.40728,"is_reserved":false,"is_disabled":false,"rental_uris":{"android":"levelo://app?vid=4e1f36bf-920b-407f-bd8e-e12200457304","ios":"levelo://app?vid=4e1f36bf-920b-407f-bd8e-e12200457304"},"vehicle_type_id":"4","last_reported":1739711584,"current_range_meters":38400,"station_id":"ce4bhnh2rcd13ifvqgtg","pricing_plan_id":"cebpf4jnsgd1na2vs0mg"},{"bike_id":"7df33989-9cd1-4583-a90f-25c190f648b5","system_id":"levelo_inurba_marseille","lat":43.29382,"lon":5.38611,"is_reserved":false,"is_disabled":false,"rental_uris":{"android":"levelo://app?vid=7df33989-9cd1-4583-a90f-25c190f648b5","ios":"levelo://app?vid=7df33989-9cd1-4583-a90f-25c190f648b5"},"vehicle_type_id":"4","last_reported":1739711584,"current_range_meters":30000,"station_id":"ce4bh2h2rcd13ifvqdh0","pricing_plan_id":"cebpf4jnsgd1na2vs0mg"},{"bike_id":"9ee876c1-a956-404d-b97e-c331158702a5","system_id":"levelo_inurba_marseille","lat":43.25501,"lon":5.37654,"is_reserved":false,"is_disabled":false,"rental_uris":{"android":"levelo://app?vid=9ee876c1-a956-404d-b97e-c331158702a5","ios":"levelo://app?vid=9ee876c1-a956-404d-b97e-c331158702a5"},"vehicle_type_id":"4","last_reported":1739711584,"current_range_meters":28800,"station_id":"ce4bhh12rcd13ifvqff0","pricing_plan_id":"cebpf4jnsgd1na2vs0mg"},{"bike_id":"20dca62c-279f-4d77-befc-f9aa410b4d31","system_id":"levelo_inurba_marseille","lat":43.24664,"lon":5.38167,"is_reserved":false,"is_disabled":false,"rental_uris":{"android":"levelo://app?vid=20dca62c-279f-4d77-befc-f9aa410b4d31","ios":"levelo://app?vid=20dca62c-279f-4d77-befc-f9aa410b4d31"},"vehicle_type_id":"4","last_reported":1739711584,"current_range_meters":38800,"station_id":"ce4bhih2rcd13ifvqfr0","pricing_plan_id":"cebpf4jnsgd1na2vs0mg"},{"bike_id":"0097f1b6-e963-4b2c-847f-f5fd4011218f","system_id":"levelo_inurba_marseille","lat":43.29212,"lon":5.39316,"is_reserved":false,"is_disabled":false,"rental_uris":{"android":"levelo://app?vid=0097f1b6-e963-4b2c-847f-f5fd4011218f","ios":"levelo://app?vid=0097f1b6-e963-4b2c-847f-f5fd4011218f"},"vehicle_type_id":"4","last_reported":1739711584,"current_range_meters":38800,"station_id":"ce4bh192rcd13ifvqdd0","pricing_plan_id":"cebpf4jnsgd1na2vs0mg"},{"bike_id":"30ea1aa1-f18a-46ba-baa0-81223557424e","system_id":"levelo_inurba_marseille","lat":43.27621,"lon":5.36163,"is_reserved":false,"is_disabled":false,"rental_uris":{"android":"levelo://app?vid=30ea1aa1-f18a-46ba-baa0-81223557424e","ios":"levelo://app?vid=30ea1aa1-f18a-46ba-baa0-81223557424e"},"vehicle_type_id":"4","last_reported":1739711584,"current_range_meters":29600,"station_id":"","pricing_plan_id":"cebpf4jnsgd1na2vs0mg"},{"bike_id":"23b444ef-90ed-4509-b4a2-cce013b96af6","system_id":"levelo_inurba_marseille","lat":43.28419,"lon":5.35001,"is_reserved":false,"is_disabled":false,"rental_uris":{"android":"levelo://app?vid=23b444ef-90ed-4509-b4a2-cce013b96af6","ios":"levelo://app?vid=23b444ef-90ed-4509-b4a2-cce013b96af6"},"vehicle_type_id":"4","last_reported":1739711584,"current_range_meters":28400,"station_id":"ce4bhbh2rcd13ifvqepg","pricing_plan_id":"cebpf4jnsgd1na2vs0mg"},{"bike_id":"9d4ffd0e-b28e-4134-8c51-2eeb7c745608","system_id":"levelo_inurba_marseille","lat":43.29017,"lon":5.38126,"is_reserved":false,"is_disabled":false,"rental_uris":{"android":"levelo://app?vid=9d4ffd0e-b28e-4134-8c51-2eeb7c745608","ios":"levelo://app?vid=9d4ffd0e-b28e-4134-8c51-2eeb7c745608"},"vehicle_type_id":"4","last_reported":1739711584,"current_range_meters":38800,"station_id":"ce4bh4p2rcd13ifvqe1g","pricing_plan_id":"cebpf4jnsgd1na2vs0mg"},{"bike_id":"e2989601-7f3b-459b-bf69-167a43d2b038","system_id":"levelo_inurba_marseille","lat":43.29306,"lon":5.37176,"is_reserved":false,"is_disabled":false,"rental_uris":{"android":"levelo://app?vid=e2989601-7f3b-459b-bf69-167a43d2b038","ios":"levelo://app?vid=e2989601-7f3b-459b-bf69-167a43d2b038"},"vehicle_type_id":"4","last_reported":1739711584,"current_range_meters":35200,"station_id":"ce4bgh92rcd13ifvqb40","pricing_plan_id":"cebpf4jnsgd1na2vs0mg"},{"bike_id":"4f94d3ea-2fa8-406d-ac76-1cdda1cdfddb","system_id":"levelo_inurba_marseille","lat":43.32496,"lon":5.36507,"is_reserved":false,"is_disabled":false,"rental_uris":{"android":"levelo://app?vid=4f94d3ea-2fa8-406d-ac76-1cdda1cdfddb","ios":"levelo://app?vid=4f94d3ea-2fa8-406d-ac76-1cdda1cdfddb"},"vehicle_type_id":"4","last_reported":1739711584,"current_range_meters":31200,"station_id":"ce4bhs12rcd13ifvqhvg","pricing_plan_id":"cebpf4jnsgd1na2vs0mg"},{"bike_id":"c6977970-2d47-42b6-a66d-0d3076ca0175","system_id":"levelo_inurba_marseille","lat":43.29211,"lon":5.39323,"is_reserved":false,"is_disabled":false,"rental_uris":{"android":"levelo://app?vid=c6977970-2d47-42b6-a66d-0d3076ca0175","ios":"levelo://app?vid=c6977970-2d47-42b6-a66d-0d3076ca0175"},"vehicle_type_id":"4","last_reported":1739711584,"current_range_meters":32800,"station_id":"ce4bh192rcd13ifvqdd0","pricing_plan_id":"cebpf4jnsgd1na2vs0mg"},{"bike_id":"a737796f-4685-46fc-a8e0-2531dd774f05","system_id":"levelo_inurba_marseille","lat":43.25578,"lon":5.38257,"is_reserved":false,"is_disabled":false,"rental_uris":{"android":"levelo://app?vid=a737796f-4685-46fc-a8e0-2531dd774f05","ios":"levelo://app?vid=a737796f-4685-46fc-a8e0-2531dd774f05"},"vehicle_type_id":"4","last_reported":1739711584,"current_range_meters":30800,"station_id":"ce4bhih2rcd13ifvqfs0","pricing_plan_id":"cebpf4jnsgd1na2vs0mg"},{"bike_id":"ba4b8c02-d473-4773-aff4-81adcbff9c6d","system_id":"levelo_inurba_marseille","lat":43.30153,"lon":5.37412,"is_reserved":false,"is_disabled":false,"rental_uris":{"android":"levelo://app?vid=ba4b8c02-d473-4773-aff4-81adcbff9c6d","ios":"levelo://app?vid=ba4b8c02-d473-4773-aff4-81adcbff9c6d"},"vehicle_type_id":"4","last_reported":1739711584,"current_range_meters":17600,"station_id":"ce4bgs92rcd13ifvqcc0","pricing_plan_id":"cebpf4jnsgd1na2vs0mg"},{"bike_id":"917b1dc0-adb2-4903-84ef-22990e0daa55","system_id":"levelo_inurba_marseille","lat":43.30413,"lon":5.412875,"is_reserved":false,"is_disabled":false,"rental_uris":{"android":"levelo://app?vid=917b1dc0-adb2-4903-84ef-22990e0daa55","ios":"levelo://app?vid=917b1dc0-adb2-4903-84ef-22990e0daa55"},"vehicle_type_id":"4","last_reported":1739711584,"current_range_meters":33200,"station_id":"ce4bhop2rcd13ifvqh8g","pricing_plan_id":"cebpf4jnsgd1na2vs0mg"},{"bike_id":"b9139ea9-1bfa-4804-8c84-0d170ae61810","system_id":"levelo_inurba_marseille","lat":43.29575,"lon":5.37511,"is_reserved":false,"is_disabled":false,"rental_uris":{"android":"levelo://app?vid=b9139ea9-1bfa-4804-8c84-0d170ae61810","ios":"levelo://app?vid=b9139ea9-1bfa-4804-8c84-0d170ae61810"},"vehicle_type_id":"4","last_reported":1739711584,"current_range_meters":39200,"station_id":"ce4bgh92rcd13ifvqb50","pricing_plan_id":"cebpf4jnsgd1na2vs0mg"},{"bike_id":"03eba1d0-92c1-4e6e-a4d0-7c546f2439c0","system_id":"levelo_inurba_marseille","lat":43.337444,"lon":5.374475,"is_reserved":false,"is_disabled":true,"rental_uris":{"android":"levelo://app?vid=03eba1d0-92c1-4e6e-a4d0-7c546f2439c0","ios":"levelo://app?vid=03eba1d0-92c1-4e6e-a4d0-7c546f2439c0"},"vehicle_type_id":"4","last_reported":1739711584,"current_range_meters":0,"station_id":"","pricing_plan_id":"cebpf4jnsgd1na2vs0mg"},{"bike_id":"2b51a041-a600-4f69-92f9-b5941fc7c79e","system_id":"levelo_inurba_marseille","lat":43.28461,"lon":5.39187,"is_reserved":false,"is_disabled":true,"rental_uris":{"android":"levelo://app?vid=2b51a041-a600-4f69-92f9-b5941fc7c79e","ios":"levelo://app?vid=2b51a041-a600-4f69-92f9-b5941fc7c79e"},"vehicle_type_id":"4","last_reported":1739711584,"current_range_meters":28000,"station_id":"ce4bhoh2rcd13ifvqh5g","pricing_plan_id":"cebpf4jnsgd1na2vs0mg"},{"bike_id":"653b3681-8d49-4063-97bd-177fe11162f9","system_id":"levelo_inurba_marseille","lat":43.25509,"lon":5.3766,"is_reserved":false,"is_disabled":true,"rental_uris":{"android":"levelo://app?vid=653b3681-8d49-4063-97bd-177fe11162f9","ios":"levelo://app?vid=653b3681-8d49-4063-97bd-177fe11162f9"},"vehicle_type_id":"4","last_reported":1739711584,"current_range_meters":32400,"station_id":"ce4bhh12rcd13ifvqff0","pricing_plan_id":"cebpf4jnsgd1na2vs0mg"},{"bike_id":"01d63376-9c77-45ad-85cc-66ef373398fe","system_id":"levelo_inurba_marseille","lat":43.32476,"lon":5.36582,"is_reserved":false,"is_disabled":false,"rental_uris":{"android":"levelo://app?vid=01d63376-9c77-45ad-85cc-66ef373398fe","ios":"levelo://app?vid=01d63376-9c77-45ad-85cc-66ef373398fe"},"vehicle_type_id":"4","last_reported":1739711584,"current_range_meters":36800,"station_id":"ce4bhs12rcd13ifvqhvg","pricing_plan_id":"cebpf4jnsgd1na2vs0mg"},{"bike_id":"dc8f3a1c-f2fe-4b0d-b970-db9c4df9a40d","system_id":"levelo_inurba_marseille","lat":43.28416,"lon":5.3498,"is_reserved":false,"is_disabled":false,"rental_uris":{"android":"levelo://app?vid=dc8f3a1c-f2fe-4b0d-b970-db9c4df9a40d","ios":"levelo://app?vid=dc8f3a1c-f2fe-4b0d-b970-db9c4df9a40d"},"vehicle_type_id":"4","last_reported":1739711584,"current_range_meters":22800,"station_id":"ce4bhbh2rcd13ifvqepg","pricing_plan_id":"cebpf4jnsgd1na2vs0mg"},{"bike_id":"3341758d-d181-4d02-b02c-6161e8816e88","system_id":"levelo_inurba_marseille","lat":43.318997,"lon":5.407383,"is_reserved":false,"is_disabled":false,"rental_uris":{"android":"levelo://app?vid=3341758d-d181-4d02-b02c-6161e8816e88","ios":"levelo://app?vid=3341758d-d181-4d02-b02c-6161e8816e88"},"vehicle_type_id":"4","last_reported":1739711584,"current_range_meters":17200,"station_id":"ce4bhq12rcd13ifvqhig","pricing_plan_id":"cebpf4jnsgd1na2vs0mg"},{"bike_id":"dbf220bb-131a-4509-b32e-690ce6030049","system_id":"levelo_inurba_marseille","lat":43.32392,"lon":5.40662,"is_reserved":false,"is_disabled":false,"rental_uris":{"android":"levelo://app?vid=dbf220bb-131a-4509-b32e-690ce6030049","ios":"levelo://app?vid=dbf220bb-131a-4509-b32e-690ce6030049"},"vehicle_type_id":"4","last_reported":1739711584,"current_range_meters":26000,"station_id":"","pricing_plan_id":"cebpf4jnsgd1na2vs0mg"},{"bike_id":"d7bb91c7-1e6c-4011-85a2-08678dbfba66","system_id":"levelo_inurba_marseille","lat":43.24409,"lon":5.37056,"is_reserved":false,"is_disabled":false,"rental_uris":{"android":"levelo://app?vid=d7bb91c7-1e6c-4011-85a2-08678dbfba66","ios":"levelo://app?vid=d7bb91c7-1e6c-4011-85a2-08678dbfba66"},"vehicle_type_id":"4","last_reported":1739711584,"current_range_meters":38400,"station_id":"ce4bhhh2rcd13ifvqfk0","pricing_plan_id":"cebpf4jnsgd1na2vs0mg"},{"bike_id":"3dcbcd07-29c0-4d83-90c1-7ee1639de8c0","system_id":"levelo_inurba_marseille","lat":43.31478,"lon":5.37301,"is_reserved":false,"is_disabled":false,"rental_uris":{"android":"levelo://app?vid=3dcbcd07-29c0-4d83-90c1-7ee1639de8c0","ios":"levelo://app?vid=3dcbcd07-29c0-4d83-90c1-7ee1639de8c0"},"vehicle_type_id":"4","last_reported":1739711584,"current_range_meters":38800,"station_id":"ce4bgt12rcd13ifvqcd0","pricing_plan_id":"cebpf4jnsgd1na2vs0mg"},{"bike_id":"fdd941ed-0a05-4947-8c9c-476cc7e5325f","system_id":"levelo_inurba_marseille","lat":43.23059,"lon":5.35494,"is_reserved":false,"is_disabled":false,"rental_uris":{"android":"levelo://app?vid=fdd941ed-0a05-4947-8c9c-476cc7e5325f","ios":"levelo://app?vid=fdd941ed-0a05-4947-8c9c-476cc7e5325f"},"vehicle_type_id":"4","last_reported":1739711584,"current_range_meters":6400,"station_id":"cpo3342slgdg3j2ifvpg","pricing_plan_id":"cebpf4jnsgd1na2vs0mg"},{"bike_id":"1f52f3b3-3e4c-4076-9fe5-f4b3bb4b252a","system_id":"levelo_inurba_marseille","lat":43.27468,"lon":5.43518,"is_reserved":false,"is_disabled":true,"rental_uris":{"android":"levelo://app?vid=1f52f3b3-3e4c-4076-9fe5-f4b3bb4b252a","ios":"levelo://app?vid=1f52f3b3-3e4c-4076-9fe5-f4b3bb4b252a"},"vehicle_type_id":"4","last_reported":1739711584,"current_range_meters":0,"station_id":"","pricing_plan_id":"cebpf4jnsgd1na2vs0mg"},{"bike_id":"c72b9af2-1c64-4996-ad66-d58db384318e","system_id":"levelo_inurba_marseille","lat":43.27809,"lon":5.40707,"is_reserved":false,"is_disabled":false,"rental_uris":{"android":"levelo://app?vid=c72b9af2-1c64-4996-ad66-d58db384318e","ios":"levelo://app?vid=c72b9af2-1c64-4996-ad66-d58db384318e"},"vehicle_type_id":"4","last_reported":1739711584,"current_range_meters":18800,"station_id":"ce4bhnh2rcd13ifvqgtg","pricing_plan_id":"cebpf4jnsgd1na2vs0mg"},{"bike_id":"7810399a-aba8-4931-8563-2a4f4266c078","system_id":"levelo_inurba_marseille","lat":43.25105,"lon":5.40321,"is_reserved":false,"is_disabled":false,"rental_uris":{"android":"levelo://app?vid=7810399a-aba8-4931-8563-2a4f4266c078","ios":"levelo://app?vid=7810399a-aba8-4931-8563-2a4f4266c078"},"vehicle_type_id":"4","last_reported":1739711584,"current_range_meters":9200,"station_id":"ce4bhlh2rcd13ifvqgig","pricing_plan_id":"cebpf4jnsgd1na2vs0mg"},{"bike_id":"bd1fbd17-5ecd-4c2a-9290-d1ffd1a70214","system_id":"levelo_inurba_marseille","lat":43.29544,"lon":5.42283,"is_reserved":false,"is_disabled":false,"rental_uris":{"android":"levelo://app?vid=bd1fbd17-5ecd-4c2a-9290-d1ffd1a70214","ios":"levelo://app?vid=bd1fbd17-5ecd-4c2a-9290-d1ffd1a70214"},"vehicle_type_id":"4","last_reported":1739711584,"current_range_meters":28400,"station_id":"ce4bhph2rcd13ifvqhdg","pricing_plan_id":"cebpf4jnsgd1na2vs0mg"},{"bike_id":"adb932ed-d516-4eec-9746-30eea97654a7","system_id":"levelo_inurba_marseille","lat":43.282511,"lon":5.385391,"is_reserved":false,"is_disabled":false,"rental_uris":{"android":"levelo://app?vid=adb932ed-d516-4eec-9746-30eea97654a7","ios":"levelo://app?vid=adb932ed-d516-4eec-9746-30eea97654a7"},"vehicle_type_id":"4","last_reported":1739711584,"current_range_meters":32000,"station_id":"ce4bhi12rcd13ifvqfq0","pricing_plan_id":"cebpf4jnsgd1na2vs0mg"},{"bike_id":"06463291-4039-4ebe-b1e0-c8c96ddd4964","system_id":"levelo_inurba_marseille","lat":43.29964,"lon":5.38492,"is_reserved":false,"is_disabled":true,"rental_uris":{"android":"levelo://app?vid=06463291-4039-4ebe-b1e0-c8c96ddd4964","ios":"levelo://app?vid=06463291-4039-4ebe-b1e0-c8c96ddd4964"},"vehicle_type_id":"4","last_reported":1739711584,"current_range_meters":1200,"station_id":"ce4bgj92rcd13ifvqbd0","pricing_plan_id":"cebpf4jnsgd1na2vs0mg"},{"bike_id":"d2e01317-2950-420e-b1aa-8f1e4398c1e8","system_id":"levelo_inurba_marseille","lat":43.23192,"lon":5.35553,"is_reserved":false,"is_disabled":true,"rental_uris":{"android":"levelo://app?vid=d2e01317-2950-420e-b1aa-8f1e4398c1e8","ios":"levelo://app?vid=d2e01317-2950-420e-b1aa-8f1e4398c1e8"},"vehicle_type_id":"4","last_reported":1739711584,"current_range_meters":0,"station_id":"ce4bhu92rcd13ifvqi70","pricing_plan_id":"cebpf4jnsgd1na2vs0mg"},{"bike_id":"4f34ac20-13f8-4bff-8fa6-5425328bb98e","system_id":"levelo_inurba_marseille","lat":43.30249,"lon":5.40051,"is_reserved":false,"is_disabled":true,"rental_uris":{"android":"levelo://app?vid=4f34ac20-13f8-4bff-8fa6-5425328bb98e","ios":"levelo://app?vid=4f34ac20-13f8-4bff-8fa6-5425328bb98e"},"vehicle_type_id":"4","last_reported":1739711584,"current_range_meters":24800,"station_id":"ce4bgvh2rcd13ifvqcs0","pricing_plan_id":"cebpf4jnsgd1na2vs0mg"},{"bike_id":"e6b0896c-2dba-4642-a405-3eaa4443423a","system_id":"levelo_inurba_marseille","lat":43.27805,"lon":5.40706,"is_reserved":false,"is_disabled":false,"rental_uris":{"android":"levelo://app?vid=e6b0896c-2dba-4642-a405-3eaa4443423a","ios":"levelo://app?vid=e6b0896c-2dba-4642-a405-3eaa4443423a"},"vehicle_type_id":"4","last_reported":1739711584,"current_range_meters":16800,"station_id":"ce4bhnh2rcd13ifvqgtg","pricing_plan_id":"cebpf4jnsgd1na2vs0mg"},{"bike_id":"4b299902-a9a1-4634-993e-d98aefcae949","system_id":"levelo_inurba_marseille","lat":43.28608,"lon":5.37069,"is_reserved":false,"is_disabled":false,"rental_uris":{"android":"levelo://app?vid=4b299902-a9a1-4634-993e-d98aefcae949","ios":"levelo://app?vid=4b299902-a9a1-4634-993e-d98aefcae949"},"vehicle_type_id":"4","last_reported":1739711584,"current_range_meters":33200,"station_id":"ce4bht12rcd13ifvqi60","pricing_plan_id":"cebpf4jnsgd1na2vs0mg"},{"bike_id":"68e091eb-0298-4cb5-b5eb-8dfc36218da6","system_id":"levelo_inurba_marseille","lat":43.23192,"lon":5.39984,"is_reserved":false,"is_disabled":false,"rental_uris":{"android":"levelo://app?vid=68e091eb-0298-4cb5-b5eb-8dfc36218da6","ios":"levelo://app?vid=68e091eb-0298-4cb5-b5eb-8dfc36218da6"},"vehicle_type_id":"4","last_reported":1739711584,"current_range_meters":38800,"station_id":"ce4bhn12rcd13ifvqgqg","pricing_plan_id":"cebpf4jnsgd1na2vs0mg"},{"bike_id":"d63b7867-53a4-4bca-be72-b856d1cbea50","system_id":"levelo_inurba_marseille","lat":43.23963,"lon":5.36629,"is_reserved":false,"is_disabled":false,"rental_uris":{"android":"levelo://app?vid=d63b7867-53a4-4bca-be72-b856d1cbea50","ios":"levelo://app?vid=d63b7867-53a4-4bca-be72-b856d1cbea50"},"vehicle_type_id":"4","last_reported":1739711584,"current_range_meters":20000,"station_id":"ce4bhi12rcd13ifvqfp0","pricing_plan_id":"cebpf4jnsgd1na2vs0mg"},{"bike_id":"d82c0995-acd2-47fa-a82e-91e90360dd5a","system_id":"levelo_inurba_marseille","lat":43.30643,"lon":5.40098,"is_reserved":false,"is_disabled":false,"rental_uris":{"android":"levelo://app?vid=d82c0995-acd2-47fa-a82e-91e90360dd5a","ios":"levelo://app?vid=d82c0995-acd2-47fa-a82e-91e90360dd5a"},"vehicle_type_id":"4","last_reported":1739711584,"current_range_meters":18000,"station_id":"ce4bh112rcd13ifvqda0","pricing_plan_id":"cebpf4jnsgd1na2vs0mg"},{"bike_id":"c47616ba-4408-41b4-bfef-d41e880abc31","system_id":"levelo_inurba_marseille","lat":43.23169,"lon":5.39832,"is_reserved":false,"is_disabled":false,"rental_uris":{"android":"levelo://app?vid=c47616ba-4408-41b4-bfef-d41e880abc31","ios":"levelo://app?vid=c47616ba-4408-41b4-bfef-d41e880abc31"},"vehicle_type_id":"4","last_reported":1739711584,"current_range_meters":14400,"station_id":"ce4bhn12rcd13ifvqgqg","pricing_plan_id":"cebpf4jnsgd1na2vs0mg"},{"bike_id":"6b2915ad-371f-493c-b133-8e2fe2b720d2","system_id":"levelo_inurba_marseille","lat":43.29586,"lon":5.38103,"is_reserved":false,"is_disabled":false,"rental_uris":{"android":"levelo://app?vid=6b2915ad-371f-493c-b133-8e2fe2b720d2","ios":"levelo://app?vid=6b2915ad-371f-493c-b133-8e2fe2b720d2"},"vehicle_type_id":"4","last_reported":1739711584,"current_range_meters":24800,"station_id":"ce4bgl12rcd13ifvqbo0","pricing_plan_id":"cebpf4jnsgd1na2vs0mg"},{"bike_id":"5c41bff2-45c8-47c3-9b2c-4bc2dd41e9a8","system_id":"levelo_inurba_marseille","lat":43.29674,"lon":5.37259,"is_reserved":false,"is_disabled":false,"rental_uris":{"android":"levelo://app?vid=5c41bff2-45c8-47c3-9b2c-4bc2dd41e9a8","ios":"levelo://app?vid=5c41bff2-45c8-47c3-9b2c-4bc2dd41e9a8"},"vehicle_type_id":"4","last_reported":1739711584,"current_range_meters":38800,"station_id":"ce4bgk12rcd13ifvqbj0","pricing_plan_id":"cebpf4jnsgd1na2vs0mg"},{"bike_id":"1a70beae-318b-417c-9b69-06b61a7df44a","system_id":"levelo_inurba_marseille","lat":43.29868,"lon":5.39743,"is_reserved":false,"is_disabled":false,"rental_uris":{"android":"levelo://app?vid=1a70beae-318b-417c-9b69-06b61a7df44a","ios":"levelo://app?vid=1a70beae-318b-417c-9b69-06b61a7df44a"},"vehicle_type_id":"4","last_reported":1739711584,"current_range_meters":24800,"station_id":"ce4bh0h2rcd13ifvqd50","pricing_plan_id":"cebpf4jnsgd1na2vs0mg"},{"bike_id":"02db7a28-fc2d-4a4a-92a0-cec040e64718","system_id":"levelo_inurba_marseille","lat":43.23958,"lon":5.36632,"is_reserved":false,"is_disabled":true,"rental_uris":{"android":"levelo://app?vid=02db7a28-fc2d-4a4a-92a0-cec040e64718","ios":"levelo://app?vid=02db7a28-fc2d-4a4a-92a0-cec040e64718"},"vehicle_type_id":"4","last_reported":1739711584,"current_range_meters":4800,"station_id":"ce4bhi12rcd13ifvqfp0","pricing_plan_id":"cebpf4jnsgd1na2vs0mg"},{"bike_id":"e9badf70-371d-4afd-a594-600e39f083e1","system_id":"levelo_inurba_marseille","lat":43.30244,"lon":5.40025,"is_reserved":false,"is_disabled":false,"rental_uris":{"android":"levelo://app?vid=e9badf70-371d-4afd-a594-600e39f083e1","ios":"levelo://app?vid=e9badf70-371d-4afd-a594-600e39f083e1"},"vehicle_type_id":"4","last_reported":1739711584,"current_range_meters":38800,"station_id":"ce4bgvh2rcd13ifvqcs0","pricing_plan_id":"cebpf4jnsgd1na2vs0mg"},{"bike_id":"6f820518-8b07-484a-8c43-5d5451e338e7","system_id":"levelo_inurba_marseille","lat":43.231995,"lon":5.355585,"is_reserved":false,"is_disabled":false,"rental_uris":{"android":"levelo://app?vid=6f820518-8b07-484a-8c43-5d5451e338e7","ios":"levelo://app?vid=6f820518-8b07-484a-8c43-5d5451e338e7"},"vehicle_type_id":"4","last_reported":1739711584,"current_range_meters":28800,"station_id":"ce4bhu92rcd13ifvqi70","pricing_plan_id":"cebpf4jnsgd1na2vs0mg"},{"bike_id":"e9df70a0-1b8c-4c51-a61c-68ff2e71de13","system_id":"levelo_inurba_marseille","lat":43.23059,"lon":5.35487,"is_reserved":false,"is_disabled":true,"rental_uris":{"android":"levelo://app?vid=e9df70a0-1b8c-4c51-a61c-68ff2e71de13","ios":"levelo://app?vid=e9df70a0-1b8c-4c51-a61c-68ff2e71de13"},"vehicle_type_id":"4","last_reported":1739711584,"current_range_meters":0,"station_id":"cpo3342slgdg3j2ifvpg","pricing_plan_id":"cebpf4jnsgd1na2vs0mg"},{"bike_id":"0dba2114-f2ab-4953-beac-69fa74da7b08","system_id":"levelo_inurba_marseille","lat":43.28268,"lon":5.35052,"is_reserved":false,"is_disabled":false,"rental_uris":{"android":"levelo://app?vid=0dba2114-f2ab-4953-beac-69fa74da7b08","ios":"levelo://app?vid=0dba2114-f2ab-4953-beac-69fa74da7b08"},"vehicle_type_id":"4","last_reported":1739711584,"current_range_meters":0,"station_id":"ce4bhbp2rcd13ifvqerg","pricing_plan_id":"cebpf4jnsgd1na2vs0mg"},{"bike_id":"a3b76a23-e719-4cac-9132-63d31b15a8de","system_id":"levelo_inurba_marseille","lat":43.24166,"lon":5.363938,"is_reserved":false,"is_disabled":false,"rental_uris":{"android":"levelo://app?vid=a3b76a23-e719-4cac-9132-63d31b15a8de","ios":"levelo://app?vid=a3b76a23-e719-4cac-9132-63d31b15a8de"},"vehicle_type_id":"4","last_reported":1739711584,"current_range_meters":25600,"station_id":"cpo36qri1sfpv3e86is0","pricing_plan_id":"cebpf4jnsgd1na2vs0mg"},{"bike_id":"c5fcb7f0-3837-4a3c-92cd-108144c29862","system_id":"levelo_inurba_marseille","lat":43.24165,"lon":5.39713,"is_reserved":false,"is_disabled":false,"rental_uris":{"android":"levelo://app?vid=c5fcb7f0-3837-4a3c-92cd-108144c29862","ios":"levelo://app?vid=c5fcb7f0-3837-4a3c-92cd-108144c29862"},"vehicle_type_id":"4","last_reported":1739711584,"current_range_meters":38800,"station_id":"ce4bhn12rcd13ifvqgpg","pricing_plan_id":"cebpf4jnsgd1na2vs0mg"},{"bike_id":"fe0f12a8-8d62-4d79-b629-bda6901e6297","system_id":"levelo_inurba_marseille","lat":43.26934,"lon":5.40263,"is_reserved":false,"is_disabled":true,"rental_uris":{"android":"levelo://app?vid=fe0f12a8-8d62-4d79-b629-bda6901e6297","ios":"levelo://app?vid=fe0f12a8-8d62-4d79-b629-bda6901e6297"},"vehicle_type_id":"4","last_reported":1739711584,"current_range_meters":27600,"station_id":"cjm6bp8fraef2m0cb0m0","pricing_plan_id":"cebpf4jnsgd1na2vs0mg"},{"bike_id":"b0702116-9ee2-4cf1-bcc2-fe7fa0f407d2","system_id":"levelo_inurba_marseille","lat":43.30569,"lon":5.36528,"is_reserved":false,"is_disabled":false,"rental_uris":{"android":"levelo://app?vid=b0702116-9ee2-4cf1-bcc2-fe7fa0f407d2","ios":"levelo://app?vid=b0702116-9ee2-4cf1-bcc2-fe7fa0f407d2"},"vehicle_type_id":"4","last_reported":1739711584,"current_range_meters":38800,"station_id":"ce4bgs12rcd13ifvqcag","pricing_plan_id":"cebpf4jnsgd1na2vs0mg"},{"bike_id":"466babc0-124c-418f-8013-0bdd9593df0f","system_id":"levelo_inurba_marseille","lat":43.2439,"lon":5.37052,"is_reserved":false,"is_disabled":false,"rental_uris":{"android":"levelo://app?vid=466babc0-124c-418f-8013-0bdd9593df0f","ios":"levelo://app?vid=466babc0-124c-418f-8013-0bdd9593df0f"},"vehicle_type_id":"4","last_reported":1739711584,"current_range_meters":38800,"station_id":"ce4bhhh2rcd13ifvqfk0","pricing_plan_id":"cebpf4jnsgd1na2vs0mg"},{"bike_id":"cfbe67cf-6420-4945-9471-2d464aa6fcd4","system_id":"levelo_inurba_marseille","lat":43.27822,"lon":5.39185,"is_reserved":false,"is_disabled":true,"rental_uris":{"android":"levelo://app?vid=cfbe67cf-6420-4945-9471-2d464aa6fcd4","ios":"levelo://app?vid=cfbe67cf-6420-4945-9471-2d464aa6fcd4"},"vehicle_type_id":"4","last_reported":1739711584,"current_range_meters":4400,"station_id":"ce4bhjp2rcd13ifvqga0","pricing_plan_id":"cebpf4jnsgd1na2vs0mg"},{"bike_id":"168c41a1-aa17-40ae-aac7-dd02a7e23b9b","system_id":"levelo_inurba_marseille","lat":43.25116,"lon":5.40329,"is_reserved":false,"is_disabled":false,"rental_uris":{"android":"levelo://app?vid=168c41a1-aa17-40ae-aac7-dd02a7e23b9b","ios":"levelo://app?vid=168c41a1-aa17-40ae-aac7-dd02a7e23b9b"},"vehicle_type_id":"4","last_reported":1739711584,"current_range_meters":38800,"station_id":"ce4bhlh2rcd13ifvqgig","pricing_plan_id":"cebpf4jnsgd1na2vs0mg"},{"bike_id":"c03c2415-4e65-478b-b783-e725d34cf306","system_id":"levelo_inurba_marseille","lat":43.24169,"lon":5.36391,"is_reserved":false,"is_disabled":false,"rental_uris":{"android":"levelo://app?vid=c03c2415-4e65-478b-b783-e725d34cf306","ios":"levelo://app?vid=c03c2415-4e65-478b-b783-e725d34cf306"},"vehicle_type_id":"4","last_reported":1739711584,"current_range_meters":29600,"station_id":"cpo36qri1sfpv3e86is0","pricing_plan_id":"cebpf4jnsgd1na2vs0mg"},{"bike_id":"2d1a0294-4315-4a6d-9042-006493c526cd","system_id":"levelo_inurba_marseille","lat":43.29575,"lon":5.40616,"is_reserved":false,"is_disabled":false,"rental_uris":{"android":"levelo://app?vid=2d1a0294-4315-4a6d-9042-006493c526cd","ios":"levelo://app?vid=2d1a0294-4315-4a6d-9042-006493c526cd"},"vehicle_type_id":"4","last_reported":1739711584,"current_range_meters":2800,"station_id":"","pricing_plan_id":"cebpf4jnsgd1na2vs0mg"},{"bike_id":"062a5610-309f-41c5-8eaa-b0675db1d048","system_id":"levelo_inurba_marseille","lat":43.27212,"lon":5.39177,"is_reserved":false,"is_disabled":false,"rental_uris":{"android":"levelo://app?vid=062a5610-309f-41c5-8eaa-b0675db1d048","ios":"levelo://app?vid=062a5610-309f-41c5-8eaa-b0675db1d048"},"vehicle_type_id":"4","last_reported":1739711584,"current_range_meters":12400,"station_id":"ce4bhhp2rcd13ifvqfm0","pricing_plan_id":"cebpf4jnsgd1na2vs0mg"},{"bike_id":"0e761977-4997-46e8-bf27-cc6970805dd7","system_id":"levelo_inurba_marseille","lat":43.26209,"lon":5.37444,"is_reserved":false,"is_disabled":false,"rental_uris":{"android":"levelo://app?vid=0e761977-4997-46e8-bf27-cc6970805dd7","ios":"levelo://app?vid=0e761977-4997-46e8-bf27-cc6970805dd7"},"vehicle_type_id":"4","last_reported":1739711584,"current_range_meters":24000,"station_id":"ce4bhgp2rcd13ifvqfc0","pricing_plan_id":"cebpf4jnsgd1na2vs0mg"},{"bike_id":"9f912eed-51aa-49cb-84a4-977637263173","system_id":"levelo_inurba_marseille","lat":43.299028,"lon":5.380419,"is_reserved":false,"is_disabled":false,"rental_uris":{"android":"levelo://app?vid=9f912eed-51aa-49cb-84a4-977637263173","ios":"levelo://app?vid=9f912eed-51aa-49cb-84a4-977637263173"},"vehicle_type_id":"4","last_reported":1739711584,"current_range_meters":22800,"station_id":"","pricing_plan_id":"cebpf4jnsgd1na2vs0mg"},{"bike_id":"533bb5f3-f2ab-4499-8676-f80d82f8e439","system_id":"levelo_inurba_marseille","lat":43.28717,"lon":5.37928,"is_reserved":false,"is_disabled":false,"rental_uris":{"android":"levelo://app?vid=533bb5f3-f2ab-4499-8676-f80d82f8e439","ios":"levelo://app?vid=533bb5f3-f2ab-4499-8676-f80d82f8e439"},"vehicle_type_id":"4","last_reported":1739711584,"current_range_meters":25200,"station_id":"ce4bh9p2rcd13ifvqec0","pricing_plan_id":"cebpf4jnsgd1na2vs0mg"},{"bike_id":"58972a02-3604-47f8-ba28-e1539f47fef3","system_id":"levelo_inurba_marseille","lat":43.26552,"lon":5.37283,"is_reserved":false,"is_disabled":false,"rental_uris":{"android":"levelo://app?vid=58972a02-3604-47f8-ba28-e1539f47fef3","ios":"levelo://app?vid=58972a02-3604-47f8-ba28-e1539f47fef3"},"vehicle_type_id":"4","last_reported":1739711584,"current_range_meters":19600,"station_id":"ce4bhg12rcd13ifvqf70","pricing_plan_id":"cebpf4jnsgd1na2vs0mg"},{"bike_id":"2387448a-ad1e-4d92-8739-0eed7ccd6f1a","system_id":"levelo_inurba_marseille","lat":43.32654,"lon":5.4098,"is_reserved":false,"is_disabled":false,"rental_uris":{"android":"levelo://app?vid=2387448a-ad1e-4d92-8739-0eed7ccd6f1a","ios":"levelo://app?vid=2387448a-ad1e-4d92-8739-0eed7ccd6f1a"},"vehicle_type_id":"4","last_reported":1739711584,"current_range_meters":38800,"station_id":"ce4bhpp2rcd13ifvqhgg","pricing_plan_id":"cebpf4jnsgd1na2vs0mg"},{"bike_id":"8621d022-da1c-42eb-90b3-f13a75064284","system_id":"levelo_inurba_marseille","lat":43.29848,"lon":5.36252,"is_reserved":false,"is_disabled":false,"rental_uris":{"android":"levelo://app?vid=8621d022-da1c-42eb-90b3-f13a75064284","ios":"levelo://app?vid=8621d022-da1c-42eb-90b3-f13a75064284"},"vehicle_type_id":"4","last_reported":1739711584,"current_range_meters":38800,"station_id":"ce4bgpp2rcd13ifvqc3g","pricing_plan_id":"cebpf4jnsgd1na2vs0mg"},{"bike_id":"9181a17f-35dd-4891-81b1-f16868b646a6","system_id":"levelo_inurba_marseille","lat":43.29224,"lon":5.36072,"is_reserved":false,"is_disabled":false,"rental_uris":{"android":"levelo://app?vid=9181a17f-35dd-4891-81b1-f16868b646a6","ios":"levelo://app?vid=9181a17f-35dd-4891-81b1-f16868b646a6"},"vehicle_type_id":"4","last_reported":1739711584,"current_range_meters":35200,"station_id":"ce4bhbh2rcd13ifvqeqg","pricing_plan_id":"cebpf4jnsgd1na2vs0mg"},{"bike_id":"892503be-135e-4abc-bad0-35c2da88ee25","system_id":"levelo_inurba_marseille","lat":43.28921,"lon":5.3639,"is_reserved":false,"is_disabled":false,"rental_uris":{"android":"levelo://app?vid=892503be-135e-4abc-bad0-35c2da88ee25","ios":"levelo://app?vid=892503be-135e-4abc-bad0-35c2da88ee25"},"vehicle_type_id":"4","last_reported":1739711584,"current_range_meters":38800,"station_id":"ce4bhc92rcd13ifvqetg","pricing_plan_id":"cebpf4jnsgd1na2vs0mg"},{"bike_id":"8e3bdf98-1a9a-43d3-b59c-1ce3db9b00c5","system_id":"levelo_inurba_marseille","lat":43.29041,"lon":5.35918,"is_reserved":false,"is_disabled":false,"rental_uris":{"android":"levelo://app?vid=8e3bdf98-1a9a-43d3-b59c-1ce3db9b00c5","ios":"levelo://app?vid=8e3bdf98-1a9a-43d3-b59c-1ce3db9b00c5"},"vehicle_type_id":"4","last_reported":1739711584,"current_range_meters":24000,"station_id":"ce4bha92rcd13ifvqeg0","pricing_plan_id":"cebpf4jnsgd1na2vs0mg"},{"bike_id":"d511c3fa-d5f4-4a0f-91ee-268d02b5310f","system_id":"levelo_inurba_marseille","lat":43.28617,"lon":5.35079,"is_reserved":false,"is_disabled":true,"rental_uris":{"android":"levelo://app?vid=d511c3fa-d5f4-4a0f-91ee-268d02b5310f","ios":"levelo://app?vid=d511c3fa-d5f4-4a0f-91ee-268d02b5310f"},"vehicle_type_id":"4","last_reported":1739711584,"current_range_meters":16400,"station_id":"ce4bhch2rcd13ifvqeug","pricing_plan_id":"cebpf4jnsgd1na2vs0mg"},{"bike_id":"1459551d-3386-437c-ac04-19cf657200cd","system_id":"levelo_inurba_marseille","lat":43.28664,"lon":5.36348,"is_reserved":false,"is_disabled":false,"rental_uris":{"android":"levelo://app?vid=1459551d-3386-437c-ac04-19cf657200cd","ios":"levelo://app?vid=1459551d-3386-437c-ac04-19cf657200cd"},"vehicle_type_id":"4","last_reported":1739711584,"current_range_meters":32800,"station_id":"ce4bhah2rcd13ifvqej0","pricing_plan_id":"cebpf4jnsgd1na2vs0mg"},{"bike_id":"cba4cbb8-1b84-4662-8192-42bab59f092b","system_id":"levelo_inurba_marseille","lat":43.26024,"lon":5.37548,"is_reserved":false,"is_disabled":false,"rental_uris":{"android":"levelo://app?vid=cba4cbb8-1b84-4662-8192-42bab59f092b","ios":"levelo://app?vid=cba4cbb8-1b84-4662-8192-42bab59f092b"},"vehicle_type_id":"4","last_reported":1739711584,"current_range_meters":13600,"station_id":"ce4bhgh2rcd13ifvqfa0","pricing_plan_id":"cebpf4jnsgd1na2vs0mg"},{"bike_id":"f00620ae-2110-4dbd-a2e7-cd7bf13fe429","system_id":"levelo_inurba_marseille","lat":43.231919,"lon":5.399954,"is_reserved":false,"is_disabled":true,"rental_uris":{"android":"levelo://app?vid=f00620ae-2110-4dbd-a2e7-cd7bf13fe429","ios":"levelo://app?vid=f00620ae-2110-4dbd-a2e7-cd7bf13fe429"},"vehicle_type_id":"4","last_reported":1739711584,"current_range_meters":36800,"station_id":"ce4bhn12rcd13ifvqgqg","pricing_plan_id":"cebpf4jnsgd1na2vs0mg"},{"bike_id":"ab4c4cd5-ed4c-4a24-adbc-1e77e06a1fbe","system_id":"levelo_inurba_marseille","lat":43.29553,"lon":5.42286,"is_reserved":false,"is_disabled":false,"rental_uris":{"android":"levelo://app?vid=ab4c4cd5-ed4c-4a24-adbc-1e77e06a1fbe","ios":"levelo://app?vid=ab4c4cd5-ed4c-4a24-adbc-1e77e06a1fbe"},"vehicle_type_id":"4","last_reported":1739711584,"current_range_meters":27600,"station_id":"ce4bhph2rcd13ifvqhdg","pricing_plan_id":"cebpf4jnsgd1na2vs0mg"},{"bike_id":"6bd77966-9674-42a8-937b-bc6b6e006df4","system_id":"levelo_inurba_marseille","lat":43.28603,"lon":5.37063,"is_reserved":false,"is_disabled":false,"rental_uris":{"android":"levelo://app?vid=6bd77966-9674-42a8-937b-bc6b6e006df4","ios":"levelo://app?vid=6bd77966-9674-42a8-937b-bc6b6e006df4"},"vehicle_type_id":"4","last_reported":1739711584,"current_range_meters":28800,"station_id":"ce4bht12rcd13ifvqi60","pricing_plan_id":"cebpf4jnsgd1na2vs0mg"},{"bike_id":"59b279cd-9bb0-4e91-a9ed-cd7da0f24062","system_id":"levelo_inurba_marseille","lat":43.30476,"lon":5.36926,"is_reserved":false,"is_disabled":false,"rental_uris":{"android":"levelo://app?vid=59b279cd-9bb0-4e91-a9ed-cd7da0f24062","ios":"levelo://app?vid=59b279cd-9bb0-4e91-a9ed-cd7da0f24062"},"vehicle_type_id":"4","last_reported":1739711584,"current_range_meters":12800,"station_id":"","pricing_plan_id":"cebpf4jnsgd1na2vs0mg"},{"bike_id":"ddf1d674-41d6-443f-b0f1-1da7df267862","system_id":"levelo_inurba_marseille","lat":43.230529,"lon":5.354941,"is_reserved":false,"is_disabled":false,"rental_uris":{"android":"levelo://app?vid=ddf1d674-41d6-443f-b0f1-1da7df267862","ios":"levelo://app?vid=ddf1d674-41d6-443f-b0f1-1da7df267862"},"vehicle_type_id":"4","last_reported":1739711584,"current_range_meters":16400,"station_id":"cpo3342slgdg3j2ifvpg","pricing_plan_id":"cebpf4jnsgd1na2vs0mg"},{"bike_id":"94729826-cfa5-4ed9-8abd-5e8e49cce84e","system_id":"levelo_inurba_marseille","lat":43.29057,"lon":5.4325,"is_reserved":false,"is_disabled":true,"rental_uris":{"android":"levelo://app?vid=94729826-cfa5-4ed9-8abd-5e8e49cce84e","ios":"levelo://app?vid=94729826-cfa5-4ed9-8abd-5e8e49cce84e"},"vehicle_type_id":"4","last_reported":1739711584,"current_range_meters":800,"station_id":"","pricing_plan_id":"cebpf4jnsgd1na2vs0mg"},{"bike_id":"59897d86-c0b3-4acb-bf89-133a9364e1f4","system_id":"levelo_inurba_marseille","lat":43.23047,"lon":5.35492,"is_reserved":false,"is_disabled":true,"rental_uris":{"android":"levelo://app?vid=59897d86-c0b3-4acb-bf89-133a9364e1f4","ios":"levelo://app?vid=59897d86-c0b3-4acb-bf89-133a9364e1f4"},"vehicle_type_id":"4","last_reported":1739711584,"current_range_meters":37600,"station_id":"cpo3342slgdg3j2ifvpg","pricing_plan_id":"cebpf4jnsgd1na2vs0mg"},{"bike_id":"a529ff5f-7797-4622-a8dd-141adb2f6610","system_id":"levelo_inurba_marseille","lat":43.30782,"lon":5.37654,"is_reserved":false,"is_disabled":false,"rental_uris":{"android":"levelo://app?vid=a529ff5f-7797-4622-a8dd-141adb2f6610","ios":"levelo://app?vid=a529ff5f-7797-4622-a8dd-141adb2f6610"},"vehicle_type_id":"4","last_reported":1739711584,"current_range_meters":27600,"station_id":"ce4bgv92rcd13ifvqcq0","pricing_plan_id":"cebpf4jnsgd1na2vs0mg"},{"bike_id":"3657cb3a-8308-44c8-971b-092680d319de","system_id":"levelo_inurba_marseille","lat":43.23223,"lon":5.35545,"is_reserved":false,"is_disabled":false,"rental_uris":{"android":"levelo://app?vid=3657cb3a-8308-44c8-971b-092680d319de","ios":"levelo://app?vid=3657cb3a-8308-44c8-971b-092680d319de"},"vehicle_type_id":"4","last_reported":1739711584,"current_range_meters":9200,"station_id":"ce4bhu92rcd13ifvqi70","pricing_plan_id":"cebpf4jnsgd1na2vs0mg"},{"bike_id":"f635a801-2671-4306-9268-68edf1b8a251","system_id":"levelo_inurba_marseille","lat":43.29851,"lon":5.3969,"is_reserved":false,"is_disabled":false,"rental_uris":{"android":"levelo://app?vid=f635a801-2671-4306-9268-68edf1b8a251","ios":"levelo://app?vid=f635a801-2671-4306-9268-68edf1b8a251"},"vehicle_type_id":"4","last_reported":1739711584,"current_range_meters":32800,"station_id":"ce4bh0h2rcd13ifvqd50","pricing_plan_id":"cebpf4jnsgd1na2vs0mg"},{"bike_id":"fddf9633-377f-489e-9c7d-38f1665ca695","system_id":"levelo_inurba_marseille","lat":43.29589,"lon":5.38093,"is_reserved":false,"is_disabled":true,"rental_uris":{"android":"levelo://app?vid=fddf9633-377f-489e-9c7d-38f1665ca695","ios":"levelo://app?vid=fddf9633-377f-489e-9c7d-38f1665ca695"},"vehicle_type_id":"4","last_reported":1739711584,"current_range_meters":21600,"station_id":"ce4bgl12rcd13ifvqbo0","pricing_plan_id":"cebpf4jnsgd1na2vs0mg"},{"bike_id":"40c4421e-be80-49b9-9035-ec8bd05923a2","system_id":"levelo_inurba_marseille","lat":43.28847,"lon":5.39324,"is_reserved":false,"is_disabled":true,"rental_uris":{"android":"levelo://app?vid=40c4421e-be80-49b9-9035-ec8bd05923a2","ios":"levelo://app?vid=40c4421e-be80-49b9-9035-ec8bd05923a2"},"vehicle_type_id":"4","last_reported":1739711584,"current_range_meters":18800,"station_id":"ce4bh2p2rcd13ifvqdi0","pricing_plan_id":"cebpf4jnsgd1na2vs0mg"},{"bike_id":"4bc50c17-9aeb-4487-a054-afb81c6c63dc","system_id":"levelo_inurba_marseille","lat":43.27622,"lon":5.36097,"is_reserved":false,"is_disabled":true,"rental_uris":{"android":"levelo://app?vid=4bc50c17-9aeb-4487-a054-afb81c6c63dc","ios":"levelo://app?vid=4bc50c17-9aeb-4487-a054-afb81c6c63dc"},"vehicle_type_id":"4","last_reported":1739711584,"current_range_meters":28400,"station_id":"ce4bgj92rcd13ifvqbe0","pricing_plan_id":"cebpf4jnsgd1na2vs0mg"},{"bike_id":"45a95720-e142-48f6-8e4e-58bb7608d438","system_id":"levelo_inurba_marseille","lat":43.28932,"lon":5.36633,"is_reserved":false,"is_disabled":false,"rental_uris":{"android":"levelo://app?vid=45a95720-e142-48f6-8e4e-58bb7608d438","ios":"levelo://app?vid=45a95720-e142-48f6-8e4e-58bb7608d438"},"vehicle_type_id":"4","last_reported":1739711584,"current_range_meters":36800,"station_id":"ce4bhap2rcd13ifvqek0","pricing_plan_id":"cebpf4jnsgd1na2vs0mg"},{"bike_id":"2c8b8a41-5401-4b3a-be72-574e3bbf0407","system_id":"levelo_inurba_marseille","lat":43.30555,"lon":5.36463,"is_reserved":false,"is_disabled":false,"rental_uris":{"android":"levelo://app?vid=2c8b8a41-5401-4b3a-be72-574e3bbf0407","ios":"levelo://app?vid=2c8b8a41-5401-4b3a-be72-574e3bbf0407"},"vehicle_type_id":"4","last_reported":1739711584,"current_range_meters":5600,"station_id":"","pricing_plan_id":"cebpf4jnsgd1na2vs0mg"},{"bike_id":"a2000de8-105d-49b0-a366-b2d1a9b3830c","system_id":"levelo_inurba_marseille","lat":43.30892,"lon":5.39657,"is_reserved":false,"is_disabled":false,"rental_uris":{"android":"levelo://app?vid=a2000de8-105d-49b0-a366-b2d1a9b3830c","ios":"levelo://app?vid=a2000de8-105d-49b0-a366-b2d1a9b3830c"},"vehicle_type_id":"4","last_reported":1739711584,"current_range_meters":38000,"station_id":"ce4bh012rcd13ifvqcv0","pricing_plan_id":"cebpf4jnsgd1na2vs0mg"},{"bike_id":"b1ebb165-b2c6-4728-9fdd-f4e3518fad6b","system_id":"levelo_inurba_marseille","lat":43.29567,"lon":5.37532,"is_reserved":false,"is_disabled":false,"rental_uris":{"android":"levelo://app?vid=b1ebb165-b2c6-4728-9fdd-f4e3518fad6b","ios":"levelo://app?vid=b1ebb165-b2c6-4728-9fdd-f4e3518fad6b"},"vehicle_type_id":"4","last_reported":1739711584,"current_range_meters":36800,"station_id":"ce4bgh92rcd13ifvqb50","pricing_plan_id":"cebpf4jnsgd1na2vs0mg"},{"bike_id":"76e9689a-c738-4ae0-88ce-a636639e49f8","system_id":"levelo_inurba_marseille","lat":43.25571,"lon":5.38229,"is_reserved":false,"is_disabled":false,"rental_uris":{"android":"levelo://app?vid=76e9689a-c738-4ae0-88ce-a636639e49f8","ios":"levelo://app?vid=76e9689a-c738-4ae0-88ce-a636639e49f8"},"vehicle_type_id":"4","last_reported":1739711584,"current_range_meters":38800,"station_id":"ce4bhih2rcd13ifvqfs0","pricing_plan_id":"cebpf4jnsgd1na2vs0mg"},{"bike_id":"3625836a-8a03-4572-80d5-fadff11603e7","system_id":"levelo_inurba_marseille","lat":43.280425,"lon":5.369441,"is_reserved":false,"is_disabled":false,"rental_uris":{"android":"levelo://app?vid=3625836a-8a03-4572-80d5-fadff11603e7","ios":"levelo://app?vid=3625836a-8a03-4572-80d5-fadff11603e7"},"vehicle_type_id":"4","last_reported":1739711584,"current_range_meters":38800,"station_id":"ce4bha12rcd13ifvqef0","pricing_plan_id":"cebpf4jnsgd1na2vs0mg"},{"bike_id":"43dc5574-eed0-4b1d-9289-f32002400d84","system_id":"levelo_inurba_marseille","lat":43.24167,"lon":5.36419,"is_reserved":false,"is_disabled":false,"rental_uris":{"android":"levelo://app?vid=43dc5574-eed0-4b1d-9289-f32002400d84","ios":"levelo://app?vid=43dc5574-eed0-4b1d-9289-f32002400d84"},"vehicle_type_id":"4","last_reported":1739711584,"current_range_meters":8000,"station_id":"cpo36qri1sfpv3e86is0","pricing_plan_id":"cebpf4jnsgd1na2vs0mg"},{"bike_id":"b7675672-ea91-4212-a3c2-1e75ea117425","system_id":"levelo_inurba_marseille","lat":43.28147,"lon":5.42662,"is_reserved":false,"is_disabled":true,"rental_uris":{"android":"levelo://app?vid=b7675672-ea91-4212-a3c2-1e75ea117425","ios":"levelo://app?vid=b7675672-ea91-4212-a3c2-1e75ea117425"},"vehicle_type_id":"4","last_reported":1739711584,"current_range_meters":0,"station_id":"ce4bhnh2rcd13ifvqgug","pricing_plan_id":"cebpf4jnsgd1na2vs0mg"},{"bike_id":"5168c118-bea1-4cb7-878f-266383b01b34","system_id":"levelo_inurba_marseille","lat":43.32793,"lon":5.36574,"is_reserved":false,"is_disabled":false,"rental_uris":{"android":"levelo://app?vid=5168c118-bea1-4cb7-878f-266383b01b34","ios":"levelo://app?vid=5168c118-bea1-4cb7-878f-266383b01b34"},"vehicle_type_id":"4","last_reported":1739711584,"current_range_meters":29600,"station_id":"ce4bhs12rcd13ifvqhvg","pricing_plan_id":"cebpf4jnsgd1na2vs0mg"},{"bike_id":"91e27922-e676-45ea-94da-baf83d9c520d","system_id":"levelo_inurba_marseille","lat":43.28021,"lon":5.369,"is_reserved":false,"is_disabled":true,"rental_uris":{"android":"levelo://app?vid=91e27922-e676-45ea-94da-baf83d9c520d","ios":"levelo://app?vid=91e27922-e676-45ea-94da-baf83d9c520d"},"vehicle_type_id":"4","last_reported":1739711584,"current_range_meters":34000,"station_id":"ce4bha12rcd13ifvqef0","pricing_plan_id":"cebpf4jnsgd1na2vs0mg"},{"bike_id":"205472f5-ee5c-478e-a992-691c38704b61","system_id":"levelo_inurba_marseille","lat":43.31891,"lon":5.40742,"is_reserved":false,"is_disabled":false,"rental_uris":{"android":"levelo://app?vid=205472f5-ee5c-478e-a992-691c38704b61","ios":"levelo://app?vid=205472f5-ee5c-478e-a992-691c38704b61"},"vehicle_type_id":"4","last_reported":1739711584,"current_range_meters":37600,"station_id":"ce4bhq12rcd13ifvqhig","pricing_plan_id":"cebpf4jnsgd1na2vs0mg"},{"bike_id":"9cdda1c3-1248-40c5-beb3-afbeeb493bb6","system_id":"levelo_inurba_marseille","lat":43.30676,"lon":5.37167,"is_reserved":false,"is_disabled":false,"rental_uris":{"android":"levelo://app?vid=9cdda1c3-1248-40c5-beb3-afbeeb493bb6","ios":"levelo://app?vid=9cdda1c3-1248-40c5-beb3-afbeeb493bb6"},"vehicle_type_id":"4","last_reported":1739711584,"current_range_meters":24000,"station_id":"","pricing_plan_id":"cebpf4jnsgd1na2vs0mg"},{"bike_id":"39f0fa43-2961-47d0-8e28-d6ced3bcb1a4","system_id":"levelo_inurba_marseille","lat":43.26807,"lon":5.40216,"is_reserved":false,"is_disabled":true,"rental_uris":{"android":"levelo://app?vid=39f0fa43-2961-47d0-8e28-d6ced3bcb1a4","ios":"levelo://app?vid=39f0fa43-2961-47d0-8e28-d6ced3bcb1a4"},"vehicle_type_id":"4","last_reported":1739711584,"current_range_meters":29600,"station_id":"ce501612rcd8frsf0b60","pricing_plan_id":"cebpf4jnsgd1na2vs0mg"},{"bike_id":"4e814ba9-7f7f-413c-81c5-6cae18c64ff7","system_id":"levelo_inurba_marseille","lat":43.31343,"lon":5.3968,"is_reserved":false,"is_disabled":false,"rental_uris":{"android":"levelo://app?vid=4e814ba9-7f7f-413c-81c5-6cae18c64ff7","ios":"levelo://app?vid=4e814ba9-7f7f-413c-81c5-6cae18c64ff7"},"vehicle_type_id":"4","last_reported":1739711584,"current_range_meters":36000,"station_id":"ce4bgvp2rcd13ifvqcu0","pricing_plan_id":"cebpf4jnsgd1na2vs0mg"},{"bike_id":"9bcc3779-160f-4f11-a908-15bc41b1ac43","system_id":"levelo_inurba_marseille","lat":43.279855,"lon":5.400212,"is_reserved":false,"is_disabled":true,"rental_uris":{"android":"levelo://app?vid=9bcc3779-160f-4f11-a908-15bc41b1ac43","ios":"levelo://app?vid=9bcc3779-160f-4f11-a908-15bc41b1ac43"},"vehicle_type_id":"4","last_reported":1739711584,"current_range_meters":3200,"station_id":"ce4bho92rcd13ifvqh4g","pricing_plan_id":"cebpf4jnsgd1na2vs0mg"},{"bike_id":"3c64c24f-16f7-46ec-b068-15fe4ebda356","system_id":"levelo_inurba_marseille","lat":43.29493,"lon":5.36395,"is_reserved":false,"is_disabled":true,"rental_uris":{"android":"levelo://app?vid=3c64c24f-16f7-46ec-b068-15fe4ebda356","ios":"levelo://app?vid=3c64c24f-16f7-46ec-b068-15fe4ebda356"},"vehicle_type_id":"4","last_reported":1739711584,"current_range_meters":17200,"station_id":"","pricing_plan_id":"cebpf4jnsgd1na2vs0mg"},{"bike_id":"1c392da9-5694-4078-bfd7-f99ced296532","system_id":"levelo_inurba_marseille","lat":43.28253,"lon":5.35068,"is_reserved":false,"is_disabled":false,"rental_uris":{"android":"levelo://app?vid=1c392da9-5694-4078-bfd7-f99ced296532","ios":"levelo://app?vid=1c392da9-5694-4078-bfd7-f99ced296532"},"vehicle_type_id":"4","last_reported":1739711584,"current_range_meters":35200,"station_id":"ce4bhbp2rcd13ifvqerg","pricing_plan_id":"cebpf4jnsgd1na2vs0mg"},{"bike_id":"256fdab3-5aa2-41b8-bbc6-535a86cc3890","system_id":"levelo_inurba_marseille","lat":43.25113,"lon":5.40316,"is_reserved":false,"is_disabled":false,"rental_uris":{"android":"levelo://app?vid=256fdab3-5aa2-41b8-bbc6-535a86cc3890","ios":"levelo://app?vid=256fdab3-5aa2-41b8-bbc6-535a86cc3890"},"vehicle_type_id":"4","last_reported":1739711584,"current_range_meters":28400,"station_id":"ce4bhlh2rcd13ifvqgig","pricing_plan_id":"cebpf4jnsgd1na2vs0mg"},{"bike_id":"c9f5446a-9650-4bf9-9f6c-ae38910b957a","system_id":"levelo_inurba_marseille","lat":43.30119,"lon":5.37398,"is_reserved":false,"is_disabled":false,"rental_uris":{"android":"levelo://app?vid=c9f5446a-9650-4bf9-9f6c-ae38910b957a","ios":"levelo://app?vid=c9f5446a-9650-4bf9-9f6c-ae38910b957a"},"vehicle_type_id":"4","last_reported":1739711584,"current_range_meters":38800,"station_id":"ce4bgs92rcd13ifvqcc0","pricing_plan_id":"cebpf4jnsgd1na2vs0mg"},{"bike_id":"28ca3998-10f3-4251-b919-631dcb1afbc7","system_id":"levelo_inurba_marseille","lat":43.23184,"lon":5.39997,"is_reserved":false,"is_disabled":false,"rental_uris":{"android":"levelo://app?vid=28ca3998-10f3-4251-b919-631dcb1afbc7","ios":"levelo://app?vid=28ca3998-10f3-4251-b919-631dcb1afbc7"},"vehicle_type_id":"4","last_reported":1739711584,"current_range_meters":0,"station_id":"ce4bhn12rcd13ifvqgqg","pricing_plan_id":"cebpf4jnsgd1na2vs0mg"},{"bike_id":"cb78dcef-e2c4-4b84-9065-5924714f334b","system_id":"levelo_inurba_marseille","lat":43.25928,"lon":5.40888,"is_reserved":false,"is_disabled":false,"rental_uris":{"android":"levelo://app?vid=cb78dcef-e2c4-4b84-9065-5924714f334b","ios":"levelo://app?vid=cb78dcef-e2c4-4b84-9065-5924714f334b"},"vehicle_type_id":"4","last_reported":1739711584,"current_range_meters":32400,"station_id":"ce4bhm92rcd13ifvqglg","pricing_plan_id":"cebpf4jnsgd1na2vs0mg"},{"bike_id":"e0446826-b992-48e3-94cd-835595cefe02","system_id":"levelo_inurba_marseille","lat":43.29318,"lon":5.37196,"is_reserved":false,"is_disabled":false,"rental_uris":{"android":"levelo://app?vid=e0446826-b992-48e3-94cd-835595cefe02","ios":"levelo://app?vid=e0446826-b992-48e3-94cd-835595cefe02"},"vehicle_type_id":"4","last_reported":1739711584,"current_range_meters":27600,"station_id":"ce4bgh92rcd13ifvqb40","pricing_plan_id":"cebpf4jnsgd1na2vs0mg"},{"bike_id":"b86b0aec-2658-4633-a076-956b6c99d8c9","system_id":"levelo_inurba_marseille","lat":43.28658,"lon":5.36357,"is_reserved":false,"is_disabled":false,"rental_uris":{"android":"levelo://app?vid=b86b0aec-2658-4633-a076-956b6c99d8c9","ios":"levelo://app?vid=b86b0aec-2658-4633-a076-956b6c99d8c9"},"vehicle_type_id":"4","last_reported":1739711584,"current_range_meters":26800,"station_id":"ce4bhah2rcd13ifvqej0","pricing_plan_id":"cebpf4jnsgd1na2vs0mg"},{"bike_id":"2dea0667-1db6-4775-857f-894e60e0a4c7","system_id":"levelo_inurba_marseille","lat":43.30413,"lon":5.39763,"is_reserved":false,"is_disabled":true,"rental_uris":{"android":"levelo://app?vid=2dea0667-1db6-4775-857f-894e60e0a4c7","ios":"levelo://app?vid=2dea0667-1db6-4775-857f-894e60e0a4c7"},"vehicle_type_id":"4","last_reported":1739711584,"current_range_meters":28000,"station_id":"ce4bh092rcd13ifvqd20","pricing_plan_id":"cebpf4jnsgd1na2vs0mg"},{"bike_id":"39c8e307-16a4-4107-a963-0b53aaa16229","system_id":"levelo_inurba_marseille","lat":43.28155,"lon":5.42644,"is_reserved":false,"is_disabled":false,"rental_uris":{"android":"levelo://app?vid=39c8e307-16a4-4107-a963-0b53aaa16229","ios":"levelo://app?vid=39c8e307-16a4-4107-a963-0b53aaa16229"},"vehicle_type_id":"4","last_reported":1739711584,"current_range_meters":38400,"station_id":"ce4bhnh2rcd13ifvqgug","pricing_plan_id":"cebpf4jnsgd1na2vs0mg"},{"bike_id":"39a15036-bb81-41d9-86e6-e3534b0305aa","system_id":"levelo_inurba_marseille","lat":43.24382,"lon":5.37042,"is_reserved":false,"is_disabled":false,"rental_uris":{"android":"levelo://app?vid=39a15036-bb81-41d9-86e6-e3534b0305aa","ios":"levelo://app?vid=39a15036-bb81-41d9-86e6-e3534b0305aa"},"vehicle_type_id":"4","last_reported":1739711584,"current_range_meters":22400,"station_id":"ce4bhhh2rcd13ifvqfk0","pricing_plan_id":"cebpf4jnsgd1na2vs0mg"},{"bike_id":"2b40dedf-ade5-44ef-a25d-6f14e48436cb","system_id":"levelo_inurba_marseille","lat":43.23181,"lon":5.39983,"is_reserved":false,"is_disabled":false,"rental_uris":{"android":"levelo://app?vid=2b40dedf-ade5-44ef-a25d-6f14e48436cb","ios":"levelo://app?vid=2b40dedf-ade5-44ef-a25d-6f14e48436cb"},"vehicle_type_id":"4","last_reported":1739711584,"current_range_meters":29600,"station_id":"ce4bhn12rcd13ifvqgqg","pricing_plan_id":"cebpf4jnsgd1na2vs0mg"},{"bike_id":"ad4af932-f51b-41b8-983b-7e431dcc24a9","system_id":"levelo_inurba_marseille","lat":43.337444,"lon":5.374475,"is_reserved":false,"is_disabled":true,"rental_uris":{"android":"levelo://app?vid=ad4af932-f51b-41b8-983b-7e431dcc24a9","ios":"levelo://app?vid=ad4af932-f51b-41b8-983b-7e431dcc24a9"},"vehicle_type_id":"4","last_reported":1739711584,"current_range_meters":0,"station_id":"","pricing_plan_id":"cebpf4jnsgd1na2vs0mg"},{"bike_id":"95d42703-1a37-4cb4-8b06-69616f6b8e6d","system_id":"levelo_inurba_marseille","lat":43.276725,"lon":5.389191,"is_reserved":false,"is_disabled":true,"rental_uris":{"android":"levelo://app?vid=95d42703-1a37-4cb4-8b06-69616f6b8e6d","ios":"levelo://app?vid=95d42703-1a37-4cb4-8b06-69616f6b8e6d"},"vehicle_type_id":"4","last_reported":1739711584,"current_range_meters":32400,"station_id":"ce4bhi12rcd13ifvqfo0","pricing_plan_id":"cebpf4jnsgd1na2vs0mg"},{"bike_id":"81bec61a-1f2c-43a9-b162-eec1d41ccf13","system_id":"levelo_inurba_marseille","lat":43.283432,"lon":5.429994,"is_reserved":false,"is_disabled":false,"rental_uris":{"android":"levelo://app?vid=81bec61a-1f2c-43a9-b162-eec1d41ccf13","ios":"levelo://app?vid=81bec61a-1f2c-43a9-b162-eec1d41ccf13"},"vehicle_type_id":"4","last_reported":1739711584,"current_range_meters":17600,"station_id":"","pricing_plan_id":"cebpf4jnsgd1na2vs0mg"},{"bike_id":"dfb8b4bf-66b7-4f69-91ef-2703e7099d0d","system_id":"levelo_inurba_marseille","lat":43.267812,"lon":5.394313,"is_reserved":false,"is_disabled":true,"rental_uris":{"android":"levelo://app?vid=dfb8b4bf-66b7-4f69-91ef-2703e7099d0d","ios":"levelo://app?vid=dfb8b4bf-66b7-4f69-91ef-2703e7099d0d"},"vehicle_type_id":"4","last_reported":1739711584,"current_range_meters":0,"station_id":"ce4bhh12rcd13ifvqfg0","pricing_plan_id":"cebpf4jnsgd1na2vs0mg"},{"bike_id":"59409293-706d-41b6-8d1f-f96f581ca432","system_id":"levelo_inurba_marseille","lat":43.23958,"lon":5.36633,"is_reserved":false,"is_disabled":false,"rental_uris":{"android":"levelo://app?vid=59409293-706d-41b6-8d1f-f96f581ca432","ios":"levelo://app?vid=59409293-706d-41b6-8d1f-f96f581ca432"},"vehicle_type_id":"4","last_reported":1739711584,"current_range_meters":34800,"station_id":"ce4bhi12rcd13ifvqfp0","pricing_plan_id":"cebpf4jnsgd1na2vs0mg"},{"bike_id":"f2cb8cdc-dfc9-4872-9016-18b0b8f9b438","system_id":"levelo_inurba_marseille","lat":43.27372,"lon":5.36236,"is_reserved":false,"is_disabled":false,"rental_uris":{"android":"levelo://app?vid=f2cb8cdc-dfc9-4872-9016-18b0b8f9b438","ios":"levelo://app?vid=f2cb8cdc-dfc9-4872-9016-18b0b8f9b438"},"vehicle_type_id":"4","last_reported":1739711584,"current_range_meters":33200,"station_id":"ce4bhbh2rcd13ifvqeo0","pricing_plan_id":"cebpf4jnsgd1na2vs0mg"},{"bike_id":"2e65ec84-d400-4893-8d76-153c557c7218","system_id":"levelo_inurba_marseille","lat":43.27671,"lon":5.38911,"is_reserved":false,"is_disabled":false,"rental_uris":{"android":"levelo://app?vid=2e65ec84-d400-4893-8d76-153c557c7218","ios":"levelo://app?vid=2e65ec84-d400-4893-8d76-153c557c7218"},"vehicle_type_id":"4","last_reported":1739711584,"current_range_meters":38800,"station_id":"ce4bhi12rcd13ifvqfo0","pricing_plan_id":"cebpf4jnsgd1na2vs0mg"},{"bike_id":"aeb403d4-9cef-44b2-b32c-cb912f49efa3","system_id":"levelo_inurba_marseille","lat":43.23198,"lon":5.3554,"is_reserved":false,"is_disabled":false,"rental_uris":{"android":"levelo://app?vid=aeb403d4-9cef-44b2-b32c-cb912f49efa3","ios":"levelo://app?vid=aeb403d4-9cef-44b2-b32c-cb912f49efa3"},"vehicle_type_id":"4","last_reported":1739711584,"current_range_meters":29600,"station_id":"ce4bhu92rcd13ifvqi70","pricing_plan_id":"cebpf4jnsgd1na2vs0mg"},{"bike_id":"5beea9a9-6abf-4378-ac0c-6a36ab59684b","system_id":"levelo_inurba_marseille","lat":43.304575,"lon":5.379008,"is_reserved":false,"is_disabled":false,"rental_uris":{"android":"levelo://app?vid=5beea9a9-6abf-4378-ac0c-6a36ab59684b","ios":"levelo://app?vid=5beea9a9-6abf-4378-ac0c-6a36ab59684b"},"vehicle_type_id":"4","last_reported":1739711584,"current_range_meters":22000,"station_id":"ce4bguh2rcd13ifvqcj0","pricing_plan_id":"cebpf4jnsgd1na2vs0mg"},{"bike_id":"50ad0a61-8a14-4cc0-a2ed-69509a918a89","system_id":"levelo_inurba_marseille","lat":43.30243,"lon":5.38079,"is_reserved":false,"is_disabled":false,"rental_uris":{"android":"levelo://app?vid=50ad0a61-8a14-4cc0-a2ed-69509a918a89","ios":"levelo://app?vid=50ad0a61-8a14-4cc0-a2ed-69509a918a89"},"vehicle_type_id":"4","last_reported":1739711584,"current_range_meters":36800,"station_id":"","pricing_plan_id":"cebpf4jnsgd1na2vs0mg"},{"bike_id":"6e9279e1-a299-42cb-b26a-80dd0bd04fc9","system_id":"levelo_inurba_marseille","lat":43.31239,"lon":5.36744,"is_reserved":false,"is_disabled":false,"rental_uris":{"android":"levelo://app?vid=6e9279e1-a299-42cb-b26a-80dd0bd04fc9","ios":"levelo://app?vid=6e9279e1-a299-42cb-b26a-80dd0bd04fc9"},"vehicle_type_id":"4","last_reported":1739711584,"current_range_meters":16400,"station_id":"","pricing_plan_id":"cebpf4jnsgd1na2vs0mg"},{"bike_id":"ff3cea0e-f873-4b10-86b3-9aa6abea0109","system_id":"levelo_inurba_marseille","lat":43.290144,"lon":5.356218,"is_reserved":false,"is_disabled":false,"rental_uris":{"android":"levelo://app?vid=ff3cea0e-f873-4b10-86b3-9aa6abea0109","ios":"levelo://app?vid=ff3cea0e-f873-4b10-86b3-9aa6abea0109"},"vehicle_type_id":"4","last_reported":1739711584,"current_range_meters":12000,"station_id":"ce4bhb92rcd13ifvqen0","pricing_plan_id":"cebpf4jnsgd1na2vs0mg"},{"bike_id":"5fad6dbe-c66d-48ed-bb1e-410aea5daf87","system_id":"levelo_inurba_marseille","lat":43.28109,"lon":5.37853,"is_reserved":false,"is_disabled":false,"rental_uris":{"android":"levelo://app?vid=5fad6dbe-c66d-48ed-bb1e-410aea5daf87","ios":"levelo://app?vid=5fad6dbe-c66d-48ed-bb1e-410aea5daf87"},"vehicle_type_id":"4","last_reported":1739711584,"current_range_meters":38800,"station_id":"ce4bha12rcd13ifvqee0","pricing_plan_id":"cebpf4jnsgd1na2vs0mg"},{"bike_id":"7765337b-5c03-4ea0-be0e-f987da7b49d0","system_id":"levelo_inurba_marseille","lat":43.27623,"lon":5.36103,"is_reserved":false,"is_disabled":false,"rental_uris":{"android":"levelo://app?vid=7765337b-5c03-4ea0-be0e-f987da7b49d0","ios":"levelo://app?vid=7765337b-5c03-4ea0-be0e-f987da7b49d0"},"vehicle_type_id":"4","last_reported":1739711584,"current_range_meters":38000,"station_id":"ce4bgj92rcd13ifvqbe0","pricing_plan_id":"cebpf4jnsgd1na2vs0mg"},{"bike_id":"cf0c37b6-bef7-49a3-b137-60c7b09b0b40","system_id":"levelo_inurba_marseille","lat":43.28427,"lon":5.34981,"is_reserved":false,"is_disabled":false,"rental_uris":{"android":"levelo://app?vid=cf0c37b6-bef7-49a3-b137-60c7b09b0b40","ios":"levelo://app?vid=cf0c37b6-bef7-49a3-b137-60c7b09b0b40"},"vehicle_type_id":"4","last_reported":1739711584,"current_range_meters":34000,"station_id":"ce4bhbh2rcd13ifvqepg","pricing_plan_id":"cebpf4jnsgd1na2vs0mg"},{"bike_id":"bd922191-fc18-4a84-9939-c4b21712cfb8","system_id":"levelo_inurba_marseille","lat":43.29545,"lon":5.38542,"is_reserved":false,"is_disabled":true,"rental_uris":{"android":"levelo://app?vid=bd922191-fc18-4a84-9939-c4b21712cfb8","ios":"levelo://app?vid=bd922191-fc18-4a84-9939-c4b21712cfb8"},"vehicle_type_id":"4","last_reported":1739711584,"current_range_meters":2800,"station_id":"ce4bgih2rcd13ifvqba0","pricing_plan_id":"cebpf4jnsgd1na2vs0mg"},{"bike_id":"d7e1cf5a-14b2-44fb-b644-28b949b7f9dc","system_id":"levelo_inurba_marseille","lat":43.30126,"lon":5.37375,"is_reserved":false,"is_disabled":false,"rental_uris":{"android":"levelo://app?vid=d7e1cf5a-14b2-44fb-b644-28b949b7f9dc","ios":"levelo://app?vid=d7e1cf5a-14b2-44fb-b644-28b949b7f9dc"},"vehicle_type_id":"4","last_reported":1739711584,"current_range_meters":17200,"station_id":"ce4bgs92rcd13ifvqcc0","pricing_plan_id":"cebpf4jnsgd1na2vs0mg"},{"bike_id":"2e1ea3ec-5284-4631-8449-fb3cd1434ac5","system_id":"levelo_inurba_marseille","lat":43.2316,"lon":5.43689,"is_reserved":false,"is_disabled":true,"rental_uris":{"android":"levelo://app?vid=2e1ea3ec-5284-4631-8449-fb3cd1434ac5","ios":"levelo://app?vid=2e1ea3ec-5284-4631-8449-fb3cd1434ac5"},"vehicle_type_id":"4","last_reported":1739711584,"current_range_meters":1200,"station_id":"ce4bhmp2rcd13ifvqgog","pricing_plan_id":"cebpf4jnsgd1na2vs0mg"},{"bike_id":"46c4c9c2-7d4b-4472-9909-c613c707c119","system_id":"levelo_inurba_marseille","lat":43.28945,"lon":5.36397,"is_reserved":false,"is_disabled":false,"rental_uris":{"android":"levelo://app?vid=46c4c9c2-7d4b-4472-9909-c613c707c119","ios":"levelo://app?vid=46c4c9c2-7d4b-4472-9909-c613c707c119"},"vehicle_type_id":"4","last_reported":1739711584,"current_range_meters":32400,"station_id":"ce4bhc92rcd13ifvqetg","pricing_plan_id":"cebpf4jnsgd1na2vs0mg"},{"bike_id":"c1665b9a-8804-49fb-a2e7-87ab5bdd8b6d","system_id":"levelo_inurba_marseille","lat":43.33733,"lon":5.39187,"is_reserved":false,"is_disabled":false,"rental_uris":{"android":"levelo://app?vid=c1665b9a-8804-49fb-a2e7-87ab5bdd8b6d","ios":"levelo://app?vid=c1665b9a-8804-49fb-a2e7-87ab5bdd8b6d"},"vehicle_type_id":"4","last_reported":1739711584,"current_range_meters":38800,"station_id":"ce4bhr92rcd13ifvqhsg","pricing_plan_id":"cebpf4jnsgd1na2vs0mg"},{"bike_id":"33289e8b-a03b-4a01-bec0-4cbea48d745b","system_id":"levelo_inurba_marseille","lat":43.30532,"lon":5.36522,"is_reserved":false,"is_disabled":false,"rental_uris":{"android":"levelo://app?vid=33289e8b-a03b-4a01-bec0-4cbea48d745b","ios":"levelo://app?vid=33289e8b-a03b-4a01-bec0-4cbea48d745b"},"vehicle_type_id":"4","last_reported":1739711584,"current_range_meters":27600,"station_id":"ce4bgs12rcd13ifvqcag","pricing_plan_id":"cebpf4jnsgd1na2vs0mg"},{"bike_id":"5c381eca-4257-4fd5-9296-339ca91bf680","system_id":"levelo_inurba_marseille","lat":43.31985,"lon":5.38124,"is_reserved":false,"is_disabled":true,"rental_uris":{"android":"levelo://app?vid=5c381eca-4257-4fd5-9296-339ca91bf680","ios":"levelo://app?vid=5c381eca-4257-4fd5-9296-339ca91bf680"},"vehicle_type_id":"4","last_reported":1739711584,"current_range_meters":0,"station_id":"ce4bhr12rcd13ifvqhpg","pricing_plan_id":"cebpf4jnsgd1na2vs0mg"},{"bike_id":"45b6267f-202a-4936-a671-b90603f34fe4","system_id":"levelo_inurba_marseille","lat":43.29848,"lon":5.36262,"is_reserved":false,"is_disabled":false,"rental_uris":{"android":"levelo://app?vid=45b6267f-202a-4936-a671-b90603f34fe4","ios":"levelo://app?vid=45b6267f-202a-4936-a671-b90603f34fe4"},"vehicle_type_id":"4","last_reported":1739711584,"current_range_meters":28800,"station_id":"ce4bgpp2rcd13ifvqc3g","pricing_plan_id":"cebpf4jnsgd1na2vs0mg"},