{"last_updated":1739354995,"ttl":60,"version":"2.2","data":{"bikes":[{"bike_id":"9ae4959d-6de9-4c98-bb63-3a430a52595d","system_id":"levelo_inurba_marseille","lat":43.3134,"lon":5.36725,"is_reserved":false,"is_disabled":false,"rental_uris":{"android":"levelo://app?vid=9ae4959d-6de9-4c98-bb63-3a430a52595d","ios":"levelo://app?vid=9ae4959d-6de9-4c98-bb63-3a430a52595d"},"vehicle_type_id":"4","last_reported":1739354995,"current_range_meters":18000,"station_id":"ce4bgr92rcd13ifvqc6g","pricing_plan_id":"cebpf4jnsgd1na2vs0mg"},{"bike_id":"7803dd1a-a242-4883-848b-e4cbfccf197b","system_id":"levelo_inurba_marseille","lat":43.31359,"lon":5.36711,"is_reserved":false,"is_disabled":false,"rental_uris":{"android":"levelo://app?vid=7803dd1a-a242-4883-848b-e4cbfccf197b","ios":"levelo://app?vid=7803dd1a-a242-4883-848b-e4cbfccf197b"},"vehicle_type_id":"4","last_reported":1739354995,"current_range_meters":9200,"station_id":"ce4bgr92rcd13ifvqc6g","pricing_plan_id":"cebpf4jnsgd1na2vs0mg"},{"bike_id":"a173b609-6f6c-45fd-922e-a3a0e329e57c","system_id":"levelo_inurba_marseille","lat":43.24083,"lon":5.3776,"is_reserved":false,"is_disabled":false,"rental_uris":{"android":"levelo://app?vid=a173b609-6f6c-45fd-922e-a3a0e329e57c","ios":"levelo://app?vid=a173b609-6f6c-45fd-922e-a3a0e329e57c"},"vehicle_type_id":"4","last_reported":1739354995,"current_range_meters":11600,"station_id":"ce4bhnp2rcd13ifvqgvg","pricing_plan_id":"cebpf4jnsgd1na2vs0mg"},{"bike_id":"849bdedb-98ac-4738-9791-fd9c539dfa5e","system_id":"levelo_inurba_marseille","lat":43.28484,"lon":5.38407,"is_reserved":false,"is_disabled":false,"rental_uris":{"android":"levelo://app?vid=849bdedb-98ac-4738-9791-fd9c539dfa5e","ios":"levelo://app?vid=849bdedb-98ac-4738-9791-fd9c539dfa5e"},"vehicle_type_id":"4","last_reported":1739354995,"current_range_meters":36800,"station_id":"ce4bh512rcd13ifvqe3g","pricing_plan_id":"cebpf4jnsgd1na2vs0mg"},{"bike_id":"9c9e6dfa-122e-4154-8057-4016db8e7671","system_id":"levelo_inurba_marseille","lat":43.33719,"lon":5.39188,"is_reserved":false,"is_disabled":false,"rental_uris":{"android":"levelo://app?vid=9c9e6dfa-122e-4154-8057-4016db8e7671","ios":"levelo://app?vid=9c9e6dfa-122e-4154-8057-4016db8e7671"},"vehicle_type_id":"4","last_reported":1739354995,"current_range_meters":24800,"station_id":"ce4bhr92rcd13ifvqhsg","pricing_plan_id":"cebpf4jnsgd1na2vs0mg"},{"bike_id":"f6b092f8-0138-4b49-9a97-15a2d87c7981","system_id":"levelo_inurba_marseille","lat":43.264867,"lon":5.39558,"is_reserved":false,"is_disabled":true,"rental_uris":{"android":"levelo://app?vid=f6b092f8-0138-4b49-9a97-15a2d87c7981","ios":"levelo://app?vid=f6b092f8-0138-4b49-9a97-15a2d87c7981"},"vehicle_type_id":"4","last_reported":1739354995,"current_range_meters":35600,"station_id":"ce4bhi12rcd13ifvqfq0","pricing_plan_id":"cebpf4jnsgd1na2vs0mg"},{"bike_id":"a0ab0e0b-bcd3-4bfc-89ba-9d52d3281276","system_id":"levelo_inurba_marseille","lat":43.258219,"lon":5.394289,"is_reserved":false,"is_disabled":false,"rental_uris":{"android":"levelo://app?vid=a0ab0e0b-bcd3-4bfc-89ba-9d52d3281276","ios":"levelo://app?vid=a0ab0e0b-bcd3-4bfc-89ba-9d52d3281276"},"vehicle_type_id":"4","last_reported":1739354995,"current_range_meters":37600,"station_id":"ce4bhip2rcd13ifvqft0","pricing_plan_id":"cebpf4jnsgd1na2vs0mg"},{"bike_id":"f6ef4f9a-c914-4d4b-a06e-00485b64285e","system_id":"levelo_inurba_marseille","lat":43.32483,"lon":5.36573,"is_reserved":false,"is_disabled":false,"rental_uris":{"android":"levelo://app?vid=f6ef4f9a-c914-4d4b-a06e-00485b64285e","ios":"levelo://app?vid=f6ef4f9a-c914-4d4b-a06e-00485b64285e"},"vehicle_type_id":"4","last_reported":1739354995,"current_range_meters":38800,"station_id":"ce4bhs12rcd13ifvqhvg","pricing_plan_id":"cebpf4jnsgd1na2vs0mg"},{"bike_id":"154c3d10-560a-48c8-8975-f28b510614e3","system_id":"levelo_inurba_marseille","lat":43.30303,"lon":5.37707,"is_reserved":false,"is_disabled":false,"rental_uris":{"android":"levelo://app?vid=154c3d10-560a-48c8-8975-f28b510614e3","ios":"levelo://app?vid=154c3d10-560a-48c8-8975-f28b510614e3"},"vehicle_type_id":"4","last_reported":1739354995,"current_range_meters":28800,"station_id":"ce4bguh2rcd13ifvqcj0","pricing_plan_id":"cebpf4jnsgd1na2vs0mg"},{"bike_id":"8b1c9bed-283d-4644-9673-1058c0737c9c","system_id":"levelo_inurba_marseille","lat":43.30463,"lon":5.37904,"is_reserved":false,"is_disabled":false,"rental_uris":{"android":"levelo://app?vid=8b1c9bed-283d-4644-9673-1058c0737c9c","ios":"levelo://app?vid=8b1c9bed-283d-4644-9673-1058c0737c9c"},"vehicle_type_id":"4","last_reported":1739354995,"current_range_meters":38800,"station_id":"ce4bgup2rcd13ifvqcn0","pricing_plan_id":"cebpf4jnsgd1na2vs0mg"},{"bike_id":"b9e9bb7f-744b-483b-9040-1db5436cb7b8","system_id":"levelo_inurba_marseille","lat":43.30312,"lon":5.36919,"is_reserved":false,"is_disabled":false,"rental_uris":{"android":"levelo://app?vid=b9e9bb7f-744b-483b-9040-1db5436cb7b8","ios":"levelo://app?vid=b9e9bb7f-744b-483b-9040-1db5436cb7b8"},"vehicle_type_id":"4","last_reported":1739354995,"current_range_meters":35200,"station_id":"ce4bgqh2rcd13ifvqc5g","pricing_plan_id":"cebpf4jnsgd1na2vs0mg"},{"bike_id":"f711750d-fe6b-4e97-a163-0212ddabd620","system_id":"levelo_inurba_marseille","lat":43.30455,"lon":5.37886,"is_reserved":false,"is_disabled":false,"rental_uris":{"android":"levelo://app?vid=f711750d-fe6b-4e97-a163-0212ddabd620","ios":"levelo://app?vid=f711750d-fe6b-4e97-a163-0212ddabd620"},"vehicle_type_id":"4","last_reported":1739354995,"current_range_meters":18000,"station_id":"ce4bgup2rcd13ifvqcn0","pricing_plan_id":"cebpf4jnsgd1na2vs0mg"},{"bike_id":"0497d784-c056-45f5-a997-c997e3fb1a75","system_id":"levelo_inurba_marseille","lat":43.3174,"lon":5.40464,"is_reserved":false,"is_disabled":false,"rental_uris":{"android":"levelo://app?vid=0497d784-c056-45f5-a997-c997e3fb1a75","ios":"levelo://app?vid=0497d784-c056-45f5-a997-c997e3fb1a75"},"vehicle_type_id":"4","last_reported":1739354995,"current_range_meters":35200,"station_id":"ce4bh012rcd13ifvqd00","pricing_plan_id":"cebpf4jnsgd1na2vs0mg"},{"bike_id":"9e4564f0-0519-46c9-beea-73f529a3ce6a","system_id":"levelo_inurba_marseille","lat":43.2481,"lon":5.37481,"is_reserved":false,"is_disabled":false,"rental_uris":{"android":"levelo://app?vid=9e4564f0-0519-46c9-beea-73f529a3ce6a","ios":"levelo://app?vid=9e4564f0-0519-46c9-beea-73f529a3ce6a"},"vehicle_type_id":"4","last_reported":1739354995,"current_range_meters":28800,"station_id":"ce4bhgh2rcd13ifvqfb0","pricing_plan_id":"cebpf4jnsgd1na2vs0mg"},{"bike_id":"e8b98b7c-5d68-4a57-8bb7-0cc04267f30a","system_id":"levelo_inurba_marseille","lat":43.28005,"lon":5.40011,"is_reserved":false,"is_disabled":false,"rental_uris":{"android":"levelo://app?vid=e8b98b7c-5d68-4a57-8bb7-0cc04267f30a","ios":"levelo://app?vid=e8b98b7c-5d68-4a57-8bb7-0cc04267f30a"},"vehicle_type_id":"4","last_reported":1739354995,"current_range_meters":24400,"station_id":"ce4bho92rcd13ifvqh4g","pricing_plan_id":"cebpf4jnsgd1na2vs0mg"},{"bike_id":"a94d2018-f678-4713-bf2d-5da0b28f3e59","system_id":"levelo_inurba_marseille","lat":43.2979,"lon":5.3714,"is_reserved":false,"is_disabled":false,"rental_uris":{"android":"levelo://app?vid=a94d2018-f678-4713-bf2d-5da0b28f3e59","ios":"levelo://app?vid=a94d2018-f678-4713-bf2d-5da0b28f3e59"},"vehicle_type_id":"4","last_reported":1739354995,"current_range_meters":34800,"station_id":"ce4bgop2rcd13ifvqc1g","pricing_plan_id":"cebpf4jnsgd1na2vs0mg"},{"bike_id":"3df3041b-27b7-4def-8d60-99d6191bfdce","system_id":"levelo_inurba_marseille","lat":43.27511,"lon":5.4246,"is_reserved":false,"is_disabled":false,"rental_uris":{"android":"levelo://app?vid=3df3041b-27b7-4def-8d60-99d6191bfdce","ios":"levelo://app?vid=3df3041b-27b7-4def-8d60-99d6191bfdce"},"vehicle_type_id":"4","last_reported":1739354995,"current_range_meters":38800,"station_id":"ce4bhn92rcd13ifvqgrg","pricing_plan_id":"cebpf4jnsgd1na2vs0mg"},{"bike_id":"3557e281-7344-4c56-b643-42ea2f500ef3","system_id":"levelo_inurba_marseille","lat":43.24899,"lon":5.42317,"is_reserved":false,"is_disabled":false,"rental_uris":{"android":"levelo://app?vid=3557e281-7344-4c56-b643-42ea2f500ef3","ios":"levelo://app?vid=3557e281-7344-4c56-b643-42ea2f500ef3"},"vehicle_type_id":"4","last_reported":1739354995,"current_range_meters":22400,"station_id":"","pricing_plan_id":"cebpf4jnsgd1na2vs0mg"},{"bike_id":"b00cd1fe-6986-4a4a-9e4b-6dd0afa33530","system_id":"levelo_inurba_marseille","lat":43.29712,"lon":5.36597,"is_reserved":false,"is_disabled":false,"rental_uris":{"android":"levelo://app?vid=b00cd1fe-6986-4a4a-9e4b-6dd0afa33530","ios":"levelo://app?vid=b00cd1fe-6986-4a4a-9e4b-6dd0afa33530"},"vehicle_type_id":"4","last_reported":1739354995,"current_range_meters":38800,"station_id":"ce4bgn12rcd13ifvqbt0","pricing_plan_id":"cebpf4jnsgd1na2vs0mg"},{"bike_id":"52cf5c0b-d0b6-4f8b-a0fe-c8e306a36ba3","system_id":"levelo_inurba_marseille","lat":43.27374,"lon":5.36256,"is_reserved":false,"is_disabled":false,"rental_uris":{"android":"levelo://app?vid=52cf5c0b-d0b6-4f8b-a0fe-c8e306a36ba3","ios":"levelo://app?vid=52cf5c0b-d0b6-4f8b-a0fe-c8e306a36ba3"},"vehicle_type_id":"4","last_reported":1739354995,"current_range_meters":39200,"station_id":"ce4bhbh2rcd13ifvqeo0","pricing_plan_id":"cebpf4jnsgd1na2vs0mg"},{"bike_id":"03e763eb-2ea5-4191-8380-138ad06f19b1","system_id":"levelo_inurba_marseille","lat":43.32494,"lon":5.36583,"is_reserved":false,"is_disabled":false,"rental_uris":{"android":"levelo://app?vid=03e763eb-2ea5-4191-8380-138ad06f19b1","ios":"levelo://app?vid=03e763eb-2ea5-4191-8380-138ad06f19b1"},"vehicle_type_id":"4","last_reported":1739354995,"current_range_meters":27200,"station_id":"ce4bhs12rcd13ifvqhvg","pricing_plan_id":"cebpf4jnsgd1na2vs0mg"},{"bike_id":"a9eb76ae-d2f9-4fe3-87ec-b061f4429926","system_id":"levelo_inurba_marseille","lat":43.27379,"lon":5.3624,"is_reserved":false,"is_disabled":false,"rental_uris":{"android":"levelo://app?vid=a9eb76ae-d2f9-4fe3-87ec-b061f4429926","ios":"levelo://app?vid=a9eb76ae-d2f9-4fe3-87ec-b061f4429926"},"vehicle_type_id":"4","last_reported":1739354995,"current_range_meters":36000,"station_id":"ce4bhbh2rcd13ifvqeo0","pricing_plan_id":"cebpf4jnsgd1na2vs0mg"},{"bike_id":"26c79ef5-6f5f-49d9-b4aa-17fb6a7df4bb","system_id":"levelo_inurba_marseille","lat":43.29874,"lon":5.36324,"is_reserved":false,"is_disabled":false,"rental_uris":{"android":"levelo://app?vid=26c79ef5-6f5f-49d9-b4aa-17fb6a7df4bb","ios":"levelo://app?vid=26c79ef5-6f5f-49d9-b4aa-17fb6a7df4bb"},"vehicle_type_id":"4","last_reported":1739354995,"current_range_meters":38800,"station_id":"ce4bgpp2rcd13ifvqc3g","pricing_plan_id":"cebpf4jnsgd1na2vs0mg"},{"bike_id":"39e55a90-fe76-4904-bf9c-9841fe168f13","system_id":"levelo_inurba_marseille","lat":43.337273,"lon":5.391775,"is_reserved":false,"is_disabled":false,"rental_uris":{"android":"levelo://app?vid=39e55a90-fe76-4904-bf9c-9841fe168f13","ios":"levelo://app?vid=39e55a90-fe76-4904-bf9c-9841fe168f13"},"vehicle_type_id":"4","last_reported":1739354995,"current_range_meters":39200,"station_id":"ce4bhr92rcd13ifvqhsg","pricing_plan_id":"cebpf4jnsgd1na2vs0mg"},{"bike_id":"dc8941a8-8680-4d52-b8df-60622dd7ec58","system_id":"levelo_inurba_marseille","lat":43.29374,"lon":5.37861,"is_reserved":false,"is_disabled":false,"rental_uris":{"android":"levelo://app?vid=dc8941a8-8680-4d52-b8df-60622dd7ec58","ios":"levelo://app?vid=dc8941a8-8680-4d52-b8df-60622dd7ec58"},"vehicle_type_id":"4","last_reported":1739354995,"current_range_meters":32000,"station_id":"ce4bgjh2rcd13ifvqbf0","pricing_plan_id":"cebpf4jnsgd1na2vs0mg"},{"bike_id":"5917b50e-263d-44f0-bc92-9b811108e42d","system_id":"levelo_inurba_marseille","lat":43.30306,"lon":5.37725,"is_reserved":false,"is_disabled":false,"rental_uris":{"android":"levelo://app?vid=5917b50e-263d-44f0-bc92-9b811108e42d","ios":"levelo://app?vid=5917b50e-263d-44f0-bc92-9b811108e42d"},"vehicle_type_id":"4","last_reported":1739354995,"current_range_meters":27200,"station_id":"ce4bguh2rcd13ifvqcj0","pricing_plan_id":"cebpf4jnsgd1na2vs0mg"},{"bike_id":"731da6c6-f7ca-4a26-90c2-82e3497d26ff","system_id":"levelo_inurba_marseille","lat":43.31353,"lon":5.36704,"is_reserved":false,"is_disabled":false,"rental_uris":{"android":"levelo://app?vid=731da6c6-f7ca-4a26-90c2-82e3497d26ff","ios":"levelo://app?vid=731da6c6-f7ca-4a26-90c2-82e3497d26ff"},"vehicle_type_id":"4","last_reported":1739354995,"current_range_meters":30000,"station_id":"ce4bgr92rcd13ifvqc6g","pricing_plan_id":"cebpf4jnsgd1na2vs0mg"},{"bike_id":"9259a6aa-9930-4e48-b365-8afc48a92395","system_id":"levelo_inurba_marseille","lat":43.24394,"lon":5.37069,"is_reserved":false,"is_disabled":false,"rental_uris":{"android":"levelo://app?vid=9259a6aa-9930-4e48-b365-8afc48a92395","ios":"levelo://app?vid=9259a6aa-9930-4e48-b365-8afc48a92395"},"vehicle_type_id":"4","last_reported":1739354995,"current_range_meters":32000,"station_id":"ce4bhhh2rcd13ifvqfk0","pricing_plan_id":"cebpf4jnsgd1na2vs0mg"},{"bike_id":"bc0beb7a-5b3e-44a0-bc68-16dd218ec9dd","system_id":"levelo_inurba_marseille","lat":43.30136,"lon":5.37443,"is_reserved":false,"is_disabled":false,"rental_uris":{"android":"levelo://app?vid=bc0beb7a-5b3e-44a0-bc68-16dd218ec9dd","ios":"levelo://app?vid=bc0beb7a-5b3e-44a0-bc68-16dd218ec9dd"},"vehicle_type_id":"4","last_reported":1739354995,"current_range_meters":38800,"station_id":"ce4bgs92rcd13ifvqcc0","pricing_plan_id":"cebpf4jnsgd1na2vs0mg"},{"bike_id":"13572197-8e3d-48bb-aac8-76c0f3a98db5","system_id":"levelo_inurba_marseille","lat":43.29562,"lon":5.42258,"is_reserved":false,"is_disabled":false,"rental_uris":{"android":"levelo://app?vid=13572197-8e3d-48bb-aac8-76c0f3a98db5","ios":"levelo://app?vid=13572197-8e3d-48bb-aac8-76c0f3a98db5"},"vehicle_type_id":"4","last_reported":1739354995,"current_range_meters":38000,"station_id":"ce4bhph2rcd13ifvqhdg","pricing_plan_id":"cebpf4jnsgd1na2vs0mg"},{"bike_id":"bf8cd02e-ccdc-4523-894a-3fce83d782e3","system_id":"levelo_inurba_marseille","lat":43.33727,"lon":5.3919,"is_reserved":false,"is_disabled":false,"rental_uris":{"android":"levelo://app?vid=bf8cd02e-ccdc-4523-894a-3fce83d782e3","ios":"levelo://app?vid=bf8cd02e-ccdc-4523-894a-3fce83d782e3"},"vehicle_type_id":"4","last_reported":1739354995,"current_range_meters":39200,"station_id":"ce4bhr92rcd13ifvqhsg","pricing_plan_id":"cebpf4jnsgd1na2vs0mg"},{"bike_id":"b737ae82-c86e-4ede-80b2-31fc6f755e14","system_id":"levelo_inurba_marseille","lat":43.29536,"lon":5.38551,"is_reserved":false,"is_disabled":true,"rental_uris":{"android":"levelo://app?vid=b737ae82-c86e-4ede-80b2-31fc6f755e14","ios":"levelo://app?vid=b737ae82-c86e-4ede-80b2-31fc6f755e14"},"vehicle_type_id":"4","last_reported":1739354995,"current_range_meters":38800,"station_id":"ce4bgih2rcd13ifvqba0","pricing_plan_id":"cebpf4jnsgd1na2vs0mg"},{"bike_id":"eeb1ef79-8555-45e1-8f1d-2dc23ab42fd9","system_id":"levelo_inurba_marseille","lat":43.27818,"lon":5.40733,"is_reserved":false,"is_disabled":false,"rental_uris":{"android":"levelo://app?vid=eeb1ef79-8555-45e1-8f1d-2dc23ab42fd9","ios":"levelo://app?vid=eeb1ef79-8555-45e1-8f1d-2dc23ab42fd9"},"vehicle_type_id":"4","last_reported":1739354995,"current_range_meters":38800,"station_id":"ce4bhnh2rcd13ifvqgtg","pricing_plan_id":"cebpf4jnsgd1na2vs0mg"},{"bike_id":"20cff2ea-df40-43e9-9e60-e9c41ce0ec64","system_id":"levelo_inurba_marseille","lat":43.23154,"lon":5.43734,"is_reserved":false,"is_disabled":false,"rental_uris":{"android":"levelo://app?vid=20cff2ea-df40-43e9-9e60-e9c41ce0ec64","ios":"levelo://app?vid=20cff2ea-df40-43e9-9e60-e9c41ce0ec64"},"vehicle_type_id":"4","last_reported":1739354995,"current_range_meters":38800,"station_id":"ce4bhmp2rcd13ifvqgog","pricing_plan_id":"cebpf4jnsgd1na2vs0mg"},{"bike_id":"e96824e9-86eb-4eda-b79f-29b3890e615e","system_id":"levelo_inurba_marseille","lat":43.29115,"lon":5.40101,"is_reserved":false,"is_disabled":false,"rental_uris":{"android":"levelo://app?vid=e96824e9-86eb-4eda-b79f-29b3890e615e","ios":"levelo://app?vid=e96824e9-86eb-4eda-b79f-29b3890e615e"},"vehicle_type_id":"4","last_reported":1739354995,"current_range_meters":32400,"station_id":"","pricing_plan_id":"cebpf4jnsgd1na2vs0mg"},{"bike_id":"c179f179-1614-4d6a-9586-627695823c73","system_id":"levelo_inurba_marseille","lat":43.26819,"lon":5.40233,"is_reserved":false,"is_disabled":false,"rental_uris":{"android":"levelo://app?vid=c179f179-1614-4d6a-9586-627695823c73","ios":"levelo://app?vid=c179f179-1614-4d6a-9586-627695823c73"},"vehicle_type_id":"4","last_reported":1739354995,"current_range_meters":27200,"station_id":"ce501612rcd8frsf0b60","pricing_plan_id":"cebpf4jnsgd1na2vs0mg"},{"bike_id":"c573048d-b0bb-4a11-b456-07d3f804372d","system_id":"levelo_inurba_marseille","lat":43.2885,"lon":5.3932,"is_reserved":false,"is_disabled":false,"rental_uris":{"android":"levelo://app?vid=c573048d-b0bb-4a11-b456-07d3f804372d","ios":"levelo://app?vid=c573048d-b0bb-4a11-b456-07d3f804372d"},"vehicle_type_id":"4","last_reported":1739354995,"current_range_meters":32800,"station_id":"ce4bh2p2rcd13ifvqdi0","pricing_plan_id":"cebpf4jnsgd1na2vs0mg"},{"bike_id":"6852b113-7fe4-4dd9-a08e-b69361c21046","system_id":"levelo_inurba_marseille","lat":43.23161,"lon":5.43727,"is_reserved":false,"is_disabled":false,"rental_uris":{"android":"levelo://app?vid=6852b113-7fe4-4dd9-a08e-b69361c21046","ios":"levelo://app?vid=6852b113-7fe4-4dd9-a08e-b69361c21046"},"vehicle_type_id":"4","last_reported":1739354995,"current_range_meters":28400,"station_id":"ce4bhmp2rcd13ifvqgog","pricing_plan_id":"cebpf4jnsgd1na2vs0mg"},{"bike_id":"c87d72ff-54c9-4f8d-9e75-0d4cd2675815","system_id":"levelo_inurba_marseille","lat":43.29582,"lon":5.37707,"is_reserved":false,"is_disabled":false,"rental_uris":{"android":"levelo://app?vid=c87d72ff-54c9-4f8d-9e75-0d4cd2675815","ios":"levelo://app?vid=c87d72ff-54c9-4f8d-9e75-0d4cd2675815"},"vehicle_type_id":"4","last_reported":1739354995,"current_range_meters":38800,"station_id":"","pricing_plan_id":"cebpf4jnsgd1na2vs0mg"},{"bike_id":"753e916d-21cb-412c-8f75-d67bee02d5d5","system_id":"levelo_inurba_marseille","lat":43.3053,"lon":5.3671,"is_reserved":false,"is_disabled":false,"rental_uris":{"android":"levelo://app?vid=753e916d-21cb-412c-8f75-d67bee02d5d5","ios":"levelo://app?vid=753e916d-21cb-412c-8f75-d67bee02d5d5"},"vehicle_type_id":"4","last_reported":1739354995,"current_range_meters":38800,"station_id":"ce4bgrp2rcd13ifvqc9g","pricing_plan_id":"cebpf4jnsgd1na2vs0mg"},{"bike_id":"cff6a758-8e1d-45ad-819c-88cdde4823b4","system_id":"levelo_inurba_marseille","lat":43.309375,"lon":5.40145,"is_reserved":false,"is_disabled":false,"rental_uris":{"android":"levelo://app?vid=cff6a758-8e1d-45ad-819c-88cdde4823b4","ios":"levelo://app?vid=cff6a758-8e1d-45ad-819c-88cdde4823b4"},"vehicle_type_id":"4","last_reported":1739354995,"current_range_meters":38000,"station_id":"ce4bgvp2rcd13ifvqct0","pricing_plan_id":"cebpf4jnsgd1na2vs0mg"},{"bike_id":"0946e1d0-cc5c-4db2-a494-cafba877eb11","system_id":"levelo_inurba_marseille","lat":43.30473,"lon":5.37906,"is_reserved":false,"is_disabled":false,"rental_uris":{"android":"levelo://app?vid=0946e1d0-cc5c-4db2-a494-cafba877eb11","ios":"levelo://app?vid=0946e1d0-cc5c-4db2-a494-cafba877eb11"},"vehicle_type_id":"4","last_reported":1739354995,"current_range_meters":38800,"station_id":"ce4bgup2rcd13ifvqcn0","pricing_plan_id":"cebpf4jnsgd1na2vs0mg"},{"bike_id":"297ab576-51a5-4aa2-863c-77dc466cac75","system_id":"levelo_inurba_marseille","lat":43.30522,"lon":5.36744,"is_reserved":false,"is_disabled":false,"rental_uris":{"android":"levelo://app?vid=297ab576-51a5-4aa2-863c-77dc466cac75","ios":"levelo://app?vid=297ab576-51a5-4aa2-863c-77dc466cac75"},"vehicle_type_id":"4","last_reported":1739354995,"current_range_meters":25200,"station_id":"ce4bgrp2rcd13ifvqc9g","pricing_plan_id":"cebpf4jnsgd1na2vs0mg"},{"bike_id":"8dc60ba6-d690-49b8-8adf-a6261b5bfebb","system_id":"levelo_inurba_marseille","lat":43.24393,"lon":5.37075,"is_reserved":false,"is_disabled":false,"rental_uris":{"android":"levelo://app?vid=8dc60ba6-d690-49b8-8adf-a6261b5bfebb","ios":"levelo://app?vid=8dc60ba6-d690-49b8-8adf-a6261b5bfebb"},"vehicle_type_id":"4","last_reported":1739354995,"current_range_meters":29600,"station_id":"ce4bhhh2rcd13ifvqfk0","pricing_plan_id":"cebpf4jnsgd1na2vs0mg"},{"bike_id":"5ec5dad3-2aa4-4468-abda-cdb85c06529e","system_id":"levelo_inurba_marseille","lat":43.29968,"lon":5.37199,"is_reserved":false,"is_disabled":false,"rental_uris":{"android":"levelo://app?vid=5ec5dad3-2aa4-4468-abda-cdb85c06529e","ios":"levelo://app?vid=5ec5dad3-2aa4-4468-abda-cdb85c06529e"},"vehicle_type_id":"4","last_reported":1739354995,"current_range_meters":38800,"station_id":"ce4bgr92rcd13ifvqc7g","pricing_plan_id":"cebpf4jnsgd1na2vs0mg"},{"bike_id":"c0cfc794-c230-4fb7-a9c1-43639d852c61","system_id":"levelo_inurba_marseille","lat":43.2847,"lon":5.38406,"is_reserved":false,"is_disabled":false,"rental_uris":{"android":"levelo://app?vid=c0cfc794-c230-4fb7-a9c1-43639d852c61","ios":"levelo://app?vid=c0cfc794-c230-4fb7-a9c1-43639d852c61"},"vehicle_type_id":"4","last_reported":1739354995,"current_range_meters":38800,"station_id":"ce4bh512rcd13ifvqe3g","pricing_plan_id":"cebpf4jnsgd1na2vs0mg"},{"bike_id":"93c8f7a3-ba54-4843-9916-1ade6abbdb95","system_id":"levelo_inurba_marseille","lat":43.32466,"lon":5.36575,"is_reserved":false,"is_disabled":false,"rental_uris":{"android":"levelo://app?vid=93c8f7a3-ba54-4843-9916-1ade6abbdb95","ios":"levelo://app?vid=93c8f7a3-ba54-4843-9916-1ade6abbdb95"},"vehicle_type_id":"4","last_reported":1739354995,"current_range_meters":28400,"station_id":"ce4bhs12rcd13ifvqhvg","pricing_plan_id":"cebpf4jnsgd1na2vs0mg"},{"bike_id":"a3337449-cf52-432e-85e2-dfa7302d24fa","system_id":"levelo_inurba_marseille","lat":43.30537,"lon":5.36692,"is_reserved":false,"is_disabled":false,"rental_uris":{"android":"levelo://app?vid=a3337449-cf52-432e-85e2-dfa7302d24fa","ios":"levelo://app?vid=a3337449-cf52-432e-85e2-dfa7302d24fa"},"vehicle_type_id":"4","last_reported":1739354995,"current_range_meters":33600,"station_id":"ce4bgrp2rcd13ifvqc9g","pricing_plan_id":"cebpf4jnsgd1na2vs0mg"},{"bike_id":"e47720ec-64ed-45a5-9f1a-487927c70996","system_id":"levelo_inurba_marseille","lat":43.2593,"lon":5.40902,"is_reserved":false,"is_disabled":true,"rental_uris":{"android":"levelo://app?vid=e47720ec-64ed-45a5-9f1a-487927c70996","ios":"levelo://app?vid=e47720ec-64ed-45a5-9f1a-487927c70996"},"vehicle_type_id":"4","last_reported":1739354995,"current_range_meters":36800,"station_id":"ce4bhm92rcd13ifvqglg","pricing_plan_id":"cebpf4jnsgd1na2vs0mg"},{"bike_id":"63264139-438b-42fd-88be-e37f69137ebd","system_id":"levelo_inurba_marseille","lat":43.28005,"lon":5.40011,"is_reserved":false,"is_disabled":false,"rental_uris":{"android":"levelo://app?vid=63264139-438b-42fd-88be-e37f69137ebd","ios":"levelo://app?vid=63264139-438b-42fd-88be-e37f69137ebd"},"vehicle_type_id":"4","last_reported":1739354995,"current_range_meters":22800,"station_id":"ce4bho92rcd13ifvqh4g","pricing_plan_id":"cebpf4jnsgd1na2vs0mg"},{"bike_id":"23bb004b-e8da-4018-859c-0c35253882ee","system_id":"levelo_inurba_marseille","lat":43.2894,"lon":5.39628,"is_reserved":false,"is_disabled":false,"rental_uris":{"android":"levelo://app?vid=23bb004b-e8da-4018-859c-0c35253882ee","ios":"levelo://app?vid=23bb004b-e8da-4018-859c-0c35253882ee"},"vehicle_type_id":"4","last_reported":1739354995,"current_range_meters":18800,"station_id":"ce4bh3h2rcd13ifvqdn0","pricing_plan_id":"cebpf4jnsgd1na2vs0mg"},{"bike_id":"f61f0289-db11-4f78-af36-f70fd4404161","system_id":"levelo_inurba_marseille","lat":43.290051,"lon":5.356176,"is_reserved":false,"is_disabled":true,"rental_uris":{"android":"levelo://app?vid=f61f0289-db11-4f78-af36-f70fd4404161","ios":"levelo://app?vid=f61f0289-db11-4f78-af36-f70fd4404161"},"vehicle_type_id":"4","last_reported":1739354995,"current_range_meters":35200,"station_id":"","pricing_plan_id":"cebpf4jnsgd1na2vs0mg"},{"bike_id":"39a640ed-fd8c-4b56-84e0-fe67663afd2d","system_id":"levelo_inurba_marseille","lat":43.23159,"lon":5.43702,"is_reserved":false,"is_disabled":false,"rental_uris":{"android":"levelo://app?vid=39a640ed-fd8c-4b56-84e0-fe67663afd2d","ios":"levelo://app?vid=39a640ed-fd8c-4b56-84e0-fe67663afd2d"},"vehicle_type_id":"4","last_reported":1739354995,"current_range_meters":28000,"station_id":"ce4bhmp2rcd13ifvqgog","pricing_plan_id":"cebpf4jnsgd1na2vs0mg"},{"bike_id":"75212dae-cddf-432b-a821-ca9144ffc460","system_id":"levelo_inurba_marseille","lat":43.32058,"lon":5.41559,"is_reserved":false,"is_disabled":false,"rental_uris":{"android":"levelo://app?vid=75212dae-cddf-432b-a821-ca9144ffc460","ios":"levelo://app?vid=75212dae-cddf-432b-a821-ca9144ffc460"},"vehicle_type_id":"4","last_reported":1739354995,"current_range_meters":35200,"station_id":"ce4bhq92rcd13ifvqhkg","pricing_plan_id":"cebpf4jnsgd1na2vs0mg"},{"bike_id":"76ebc75d-2fe5-45e0-9f44-dea2f5f86814","system_id":"levelo_inurba_marseille","lat":43.243883,"lon":5.370528,"is_reserved":false,"is_disabled":false,"rental_uris":{"android":"levelo://app?vid=76ebc75d-2fe5-45e0-9f44-dea2f5f86814","ios":"levelo://app?vid=76ebc75d-2fe5-45e0-9f44-dea2f5f86814"},"vehicle_type_id":"4","last_reported":1739354995,"current_range_meters":28800,"station_id":"ce4bhhh2rcd13ifvqfk0","pricing_plan_id":"cebpf4jnsgd1na2vs0mg"},{"bike_id":"7e4baaff-43df-45ac-ba99-60d4ee3b5a14","system_id":"levelo_inurba_marseille","lat":43.32465,"lon":5.36561,"is_reserved":false,"is_disabled":false,"rental_uris":{"android":"levelo://app?vid=7e4baaff-43df-45ac-ba99-60d4ee3b5a14","ios":"levelo://app?vid=7e4baaff-43df-45ac-ba99-60d4ee3b5a14"},"vehicle_type_id":"4","last_reported":1739354995,"current_range_meters":8400,"station_id":"ce4bhs12rcd13ifvqhvg","pricing_plan_id":"cebpf4jnsgd1na2vs0mg"},{"bike_id":"76305925-afef-4e0d-9960-6de968abbadf","system_id":"levelo_inurba_marseille","lat":43.24813,"lon":5.37478,"is_reserved":false,"is_disabled":false,"rental_uris":{"android":"levelo://app?vid=76305925-afef-4e0d-9960-6de968abbadf","ios":"levelo://app?vid=76305925-afef-4e0d-9960-6de968abbadf"},"vehicle_type_id":"4","last_reported":1739354995,"current_range_meters":35200,"station_id":"ce4bhgh2rcd13ifvqfb0","pricing_plan_id":"cebpf4jnsgd1na2vs0mg"},{"bike_id":"1fb1a03a-258b-416a-92dc-66b98dcbe7d9","system_id":"levelo_inurba_marseille","lat":43.3373,"lon":5.39192,"is_reserved":false,"is_disabled":false,"rental_uris":{"android":"levelo://app?vid=1fb1a03a-258b-416a-92dc-66b98dcbe7d9","ios":"levelo://app?vid=1fb1a03a-258b-416a-92dc-66b98dcbe7d9"},"vehicle_type_id":"4","last_reported":1739354995,"current_range_meters":39200,"station_id":"ce4bhr92rcd13ifvqhsg","pricing_plan_id":"cebpf4jnsgd1na2vs0mg"},{"bike_id":"80b55b9b-3311-4f84-bd1e-e3b2f430b33c","system_id":"levelo_inurba_marseille","lat":43.30515,"lon":5.36736,"is_reserved":false,"is_disabled":false,"rental_uris":{"android":"levelo://app?vid=80b55b9b-3311-4f84-bd1e-e3b2f430b33c","ios":"levelo://app?vid=80b55b9b-3311-4f84-bd1e-e3b2f430b33c"},"vehicle_type_id":"4","last_reported":1739354995,"current_range_meters":39200,"station_id":"ce4bgrp2rcd13ifvqc9g","pricing_plan_id":"cebpf4jnsgd1na2vs0mg"},{"bike_id":"51ab7186-5043-4bed-baca-73708608a302","system_id":"levelo_inurba_marseille","lat":43.29584,"lon":5.37026,"is_reserved":false,"is_disabled":true,"rental_uris":{"android":"levelo://app?vid=51ab7186-5043-4bed-baca-73708608a302","ios":"levelo://app?vid=51ab7186-5043-4bed-baca-73708608a302"},"vehicle_type_id":"4","last_reported":1739354995,"current_range_meters":3200,"station_id":"","pricing_plan_id":"cebpf4jnsgd1na2vs0mg"},{"bike_id":"cfed1087-ae34-4484-99e0-27be9512e890","system_id":"levelo_inurba_marseille","lat":43.28495,"lon":5.3856,"is_reserved":false,"is_disabled":false,"rental_uris":{"android":"levelo://app?vid=cfed1087-ae34-4484-99e0-27be9512e890","ios":"levelo://app?vid=cfed1087-ae34-4484-99e0-27be9512e890"},"vehicle_type_id":"4","last_reported":1739354995,"current_range_meters":38000,"station_id":"ce4bh8p2rcd13ifvqeb0","pricing_plan_id":"cebpf4jnsgd1na2vs0mg"},{"bike_id":"7263b1f0-c8c5-4fd4-b6de-91daf2ffabf3","system_id":"levelo_inurba_marseille","lat":43.29034,"lon":5.39955,"is_reserved":false,"is_disabled":false,"rental_uris":{"android":"levelo://app?vid=7263b1f0-c8c5-4fd4-b6de-91daf2ffabf3","ios":"levelo://app?vid=7263b1f0-c8c5-4fd4-b6de-91daf2ffabf3"},"vehicle_type_id":"4","last_reported":1739354995,"current_range_meters":26000,"station_id":"ce4bh392rcd13ifvqdm0","pricing_plan_id":"cebpf4jnsgd1na2vs0mg"},{"bike_id":"4a64ece0-ade0-4398-bd9a-7915c991c761","system_id":"levelo_inurba_marseille","lat":43.32491,"lon":5.36563,"is_reserved":false,"is_disabled":false,"rental_uris":{"android":"levelo://app?vid=4a64ece0-ade0-4398-bd9a-7915c991c761","ios":"levelo://app?vid=4a64ece0-ade0-4398-bd9a-7915c991c761"},"vehicle_type_id":"4","last_reported":1739354995,"current_range_meters":11600,"station_id":"ce4bhs12rcd13ifvqhvg","pricing_plan_id":"cebpf4jnsgd1na2vs0mg"},{"bike_id":"7bc3d17a-f998-463f-964f-8b6451a551a9","system_id":"levelo_inurba_marseille","lat":43.30433,"lon":5.389,"is_reserved":false,"is_disabled":false,"rental_uris":{"android":"levelo://app?vid=7bc3d17a-f998-463f-964f-8b6451a551a9","ios":"levelo://app?vid=7bc3d17a-f998-463f-964f-8b6451a551a9"},"vehicle_type_id":"4","last_reported":1739354995,"current_range_meters":36000,"station_id":"ce4bgk12rcd13ifvqbi0","pricing_plan_id":"cebpf4jnsgd1na2vs0mg"},{"bike_id":"a9b142c9-8146-4cd2-9929-de6fa12b9ff4","system_id":"levelo_inurba_marseille","lat":43.29801,"lon":5.40407,"is_reserved":false,"is_disabled":false,"rental_uris":{"android":"levelo://app?vid=a9b142c9-8146-4cd2-9929-de6fa12b9ff4","ios":"levelo://app?vid=a9b142c9-8146-4cd2-9929-de6fa12b9ff4"},"vehicle_type_id":"4","last_reported":1739354995,"current_range_meters":38800,"station_id":"ce4bh112rcd13ifvqd90","pricing_plan_id":"cebpf4jnsgd1na2vs0mg"},{"bike_id":"3022a390-1c44-4221-b627-b981bb6953c7","system_id":"levelo_inurba_marseille","lat":43.28002,"lon":5.40014,"is_reserved":false,"is_disabled":false,"rental_uris":{"android":"levelo://app?vid=3022a390-1c44-4221-b627-b981bb6953c7","ios":"levelo://app?vid=3022a390-1c44-4221-b627-b981bb6953c7"},"vehicle_type_id":"4","last_reported":1739354995,"current_range_meters":25200,"station_id":"ce4bho92rcd13ifvqh4g","pricing_plan_id":"cebpf4jnsgd1na2vs0mg"},{"bike_id":"73595330-21c2-41e9-a602-2f61fa3bf190","system_id":"levelo_inurba_marseille","lat":43.28721,"lon":5.3998,"is_reserved":false,"is_disabled":false,"rental_uris":{"android":"levelo://app?vid=73595330-21c2-41e9-a602-2f61fa3bf190","ios":"levelo://app?vid=73595330-21c2-41e9-a602-2f61fa3bf190"},"vehicle_type_id":"4","last_reported":1739354995,"current_range_meters":18000,"station_id":"ce4bho92rcd13ifvqh3g","pricing_plan_id":"cebpf4jnsgd1na2vs0mg"},{"bike_id":"d1e173a7-7a13-459d-aa61-e912781d87f3","system_id":"levelo_inurba_marseille","lat":43.27321,"lon":5.39095,"is_reserved":false,"is_disabled":false,"rental_uris":{"android":"levelo://app?vid=d1e173a7-7a13-459d-aa61-e912781d87f3","ios":"levelo://app?vid=d1e173a7-7a13-459d-aa61-e912781d87f3"},"vehicle_type_id":"4","last_reported":1739354995,"current_range_meters":27200,"station_id":"ce4bhgp2rcd13ifvqfe0","pricing_plan_id":"cebpf4jnsgd1na2vs0mg"},{"bike_id":"10dce821-bd6f-48b5-a755-f2a3c840842c","system_id":"levelo_inurba_marseille","lat":43.23158,"lon":5.4374,"is_reserved":false,"is_disabled":false,"rental_uris":{"android":"levelo://app?vid=10dce821-bd6f-48b5-a755-f2a3c840842c","ios":"levelo://app?vid=10dce821-bd6f-48b5-a755-f2a3c840842c"},"vehicle_type_id":"4","last_reported":1739354995,"current_range_meters":38800,"station_id":"ce4bhmp2rcd13ifvqgog","pricing_plan_id":"cebpf4jnsgd1na2vs0mg"},{"bike_id":"4b6a43e1-59ee-455d-a868-09ef3b0a4c33","system_id":"levelo_inurba_marseille","lat":43.29027,"lon":5.39972,"is_reserved":false,"is_disabled":false,"rental_uris":{"android":"levelo://app?vid=4b6a43e1-59ee-455d-a868-09ef3b0a4c33","ios":"levelo://app?vid=4b6a43e1-59ee-455d-a868-09ef3b0a4c33"},"vehicle_type_id":"4","last_reported":1739354995,"current_range_meters":28400,"station_id":"ce4bh392rcd13ifvqdm0","pricing_plan_id":"cebpf4jnsgd1na2vs0mg"},{"bike_id":"de77abfa-6f74-40e9-8131-b7884eda37eb","system_id":"levelo_inurba_marseille","lat":43.29928,"lon":5.39416,"is_reserved":false,"is_disabled":false,"rental_uris":{"android":"levelo://app?vid=de77abfa-6f74-40e9-8131-b7884eda37eb","ios":"levelo://app?vid=de77abfa-6f74-40e9-8131-b7884eda37eb"},"vehicle_type_id":"4","last_reported":1739354995,"current_range_meters":26000,"station_id":"","pricing_plan_id":"cebpf4jnsgd1na2vs0mg"},{"bike_id":"822c97bc-0c82-4719-8f4e-aea372b57187","system_id":"levelo_inurba_marseille","lat":43.25579,"lon":5.38231,"is_reserved":false,"is_disabled":false,"rental_uris":{"android":"levelo://app?vid=822c97bc-0c82-4719-8f4e-aea372b57187","ios":"levelo://app?vid=822c97bc-0c82-4719-8f4e-aea372b57187"},"vehicle_type_id":"4","last_reported":1739354995,"current_range_meters":38800,"station_id":"ce4bhih2rcd13ifvqfs0","pricing_plan_id":"cebpf4jnsgd1na2vs0mg"},{"bike_id":"aa081435-b5f9-4834-b16c-7f35c836b33a","system_id":"levelo_inurba_marseille","lat":43.3017,"lon":5.37426,"is_reserved":false,"is_disabled":false,"rental_uris":{"android":"levelo://app?vid=aa081435-b5f9-4834-b16c-7f35c836b33a","ios":"levelo://app?vid=aa081435-b5f9-4834-b16c-7f35c836b33a"},"vehicle_type_id":"4","last_reported":1739354995,"current_range_meters":37600,"station_id":"ce4bgs92rcd13ifvqcc0","pricing_plan_id":"cebpf4jnsgd1na2vs0mg"},{"bike_id":"ee079ffa-4416-4a91-bc98-3bd665acea3b","system_id":"levelo_inurba_marseille","lat":43.3372,"lon":5.39185,"is_reserved":false,"is_disabled":false,"rental_uris":{"android":"levelo://app?vid=ee079ffa-4416-4a91-bc98-3bd665acea3b","ios":"levelo://app?vid=ee079ffa-4416-4a91-bc98-3bd665acea3b"},"vehicle_type_id":"4","last_reported":1739354995,"current_range_meters":39200,"station_id":"ce4bhr92rcd13ifvqhsg","pricing_plan_id":"cebpf4jnsgd1na2vs0mg"},{"bike_id":"1fa82dc6-47d4-4356-bbca-393bf4461726","system_id":"levelo_inurba_marseille","lat":43.23959,"lon":5.36626,"is_reserved":false,"is_disabled":false,"rental_uris":{"android":"levelo://app?vid=1fa82dc6-47d4-4356-bbca-393bf4461726","ios":"levelo://app?vid=1fa82dc6-47d4-4356-bbca-393bf4461726"},"vehicle_type_id":"4","last_reported":1739354995,"current_range_meters":14000,"station_id":"ce4bhi12rcd13ifvqfp0","pricing_plan_id":"cebpf4jnsgd1na2vs0mg"},{"bike_id":"784360d9-aa9a-4e36-9d66-158de1e739ab","system_id":"levelo_inurba_marseille","lat":43.23163,"lon":5.43712,"is_reserved":false,"is_disabled":false,"rental_uris":{"android":"levelo://app?vid=784360d9-aa9a-4e36-9d66-158de1e739ab","ios":"levelo://app?vid=784360d9-aa9a-4e36-9d66-158de1e739ab"},"vehicle_type_id":"4","last_reported":1739354995,"current_range_meters":25200,"station_id":"ce4bhmp2rcd13ifvqgog","pricing_plan_id":"cebpf4jnsgd1na2vs0mg"},{"bike_id":"23d748fe-d2fd-4357-8c0a-18133dabd7ec","system_id":"levelo_inurba_marseille","lat":43.32471,"lon":5.3657,"is_reserved":false,"is_disabled":false,"rental_uris":{"android":"levelo://app?vid=23d748fe-d2fd-4357-8c0a-18133dabd7ec","ios":"levelo://app?vid=23d748fe-d2fd-4357-8c0a-18133dabd7ec"},"vehicle_type_id":"4","last_reported":1739354995,"current_range_meters":39200,"station_id":"ce4bhs12rcd13ifvqhvg","pricing_plan_id":"cebpf4jnsgd1na2vs0mg"},{"bike_id":"bc9b283e-d1e3-4ecc-baae-e649ca388761","system_id":"levelo_inurba_marseille","lat":43.30157,"lon":5.37363,"is_reserved":false,"is_disabled":false,"rental_uris":{"android":"levelo://app?vid=bc9b283e-d1e3-4ecc-baae-e649ca388761","ios":"levelo://app?vid=bc9b283e-d1e3-4ecc-baae-e649ca388761"},"vehicle_type_id":"4","last_reported":1739354995,"current_range_meters":33600,"station_id":"ce4bgs92rcd13ifvqcc0","pricing_plan_id":"cebpf4jnsgd1na2vs0mg"},{"bike_id":"3adb6699-f719-4456-92ab-1968693e97fb","system_id":"levelo_inurba_marseille","lat":43.24157,"lon":5.36421,"is_reserved":false,"is_disabled":false,"rental_uris":{"android":"levelo://app?vid=3adb6699-f719-4456-92ab-1968693e97fb","ios":"levelo://app?vid=3adb6699-f719-4456-92ab-1968693e97fb"},"vehicle_type_id":"4","last_reported":1739354995,"current_range_meters":27600,"station_id":"cpo36qri1sfpv3e86is0","pricing_plan_id":"cebpf4jnsgd1na2vs0mg"},{"bike_id":"a9db71dc-1068-4b50-9ad2-412a358e3281","system_id":"levelo_inurba_marseille","lat":43.29373,"lon":5.37864,"is_reserved":false,"is_disabled":false,"rental_uris":{"android":"levelo://app?vid=a9db71dc-1068-4b50-9ad2-412a358e3281","ios":"levelo://app?vid=a9db71dc-1068-4b50-9ad2-412a358e3281"},"vehicle_type_id":"4","last_reported":1739354995,"current_range_meters":22800,"station_id":"ce4bgjh2rcd13ifvqbf0","pricing_plan_id":"cebpf4jnsgd1na2vs0mg"},{"bike_id":"496fa2ad-a547-4095-b8b9-a29f1a78ab4b","system_id":"levelo_inurba_marseille","lat":43.27842,"lon":5.40679,"is_reserved":false,"is_disabled":false,"rental_uris":{"android":"levelo://app?vid=496fa2ad-a547-4095-b8b9-a29f1a78ab4b","ios":"levelo://app?vid=496fa2ad-a547-4095-b8b9-a29f1a78ab4b"},"vehicle_type_id":"4","last_reported":1739354995,"current_range_meters":33200,"station_id":"ce4bhnh2rcd13ifvqgtg","pricing_plan_id":"cebpf4jnsgd1na2vs0mg"},{"bike_id":"be037e5e-ff53-4435-8c54-a226fd398cf2","system_id":"levelo_inurba_marseille","lat":43.28098,"lon":5.37837,"is_reserved":false,"is_disabled":true,"rental_uris":{"android":"levelo://app?vid=be037e5e-ff53-4435-8c54-a226fd398cf2","ios":"levelo://app?vid=be037e5e-ff53-4435-8c54-a226fd398cf2"},"vehicle_type_id":"4","last_reported":1739354995,"current_range_meters":28000,"station_id":"ce4bha12rcd13ifvqee0","pricing_plan_id":"cebpf4jnsgd1na2vs0mg"},{"bike_id":"11125ab8-c978-40ba-a169-5b3da15445a9","system_id":"levelo_inurba_marseille","lat":43.23151,"lon":5.43718,"is_reserved":false,"is_disabled":false,"rental_uris":{"android":"levelo://app?vid=11125ab8-c978-40ba-a169-5b3da15445a9","ios":"levelo://app?vid=11125ab8-c978-40ba-a169-5b3da15445a9"},"vehicle_type_id":"4","last_reported":1739354995,"current_range_meters":11200,"station_id":"ce4bhmp2rcd13ifvqgog","pricing_plan_id":"cebpf4jnsgd1na2vs0mg"},{"bike_id":"211cb129-dca9-4da8-8639-5498c4f8bbc8","system_id":"levelo_inurba_marseille","lat":43.23075,"lon":5.35496,"is_reserved":false,"is_disabled":false,"rental_uris":{"android":"levelo://app?vid=211cb129-dca9-4da8-8639-5498c4f8bbc8","ios":"levelo://app?vid=211cb129-dca9-4da8-8639-5498c4f8bbc8"},"vehicle_type_id":"4","last_reported":1739354995,"current_range_meters":26000,"station_id":"cpo3342slgdg3j2ifvpg","pricing_plan_id":"cebpf4jnsgd1na2vs0mg"},{"bike_id":"3aeb5cdf-f333-43fd-9c06-e99bd36b32d2","system_id":"levelo_inurba_marseille","lat":43.29964,"lon":5.4132,"is_reserved":false,"is_disabled":false,"rental_uris":{"android":"levelo://app?vid=3aeb5cdf-f333-43fd-9c06-e99bd36b32d2","ios":"levelo://app?vid=3aeb5cdf-f333-43fd-9c06-e99bd36b32d2"},"vehicle_type_id":"4","last_reported":1739354995,"current_range_meters":39200,"station_id":"ce4bhp12rcd13ifvqh9g","pricing_plan_id":"cebpf4jnsgd1na2vs0mg"},{"bike_id":"aadaf4bd-d503-4fa8-8fba-48c219f7a5ca","system_id":"levelo_inurba_marseille","lat":43.25565,"lon":5.38235,"is_reserved":false,"is_disabled":false,"rental_uris":{"android":"levelo://app?vid=aadaf4bd-d503-4fa8-8fba-48c219f7a5ca","ios":"levelo://app?vid=aadaf4bd-d503-4fa8-8fba-48c219f7a5ca"},"vehicle_type_id":"4","last_reported":1739354995,"current_range_meters":38800,"station_id":"ce4bhih2rcd13ifvqfs0","pricing_plan_id":"cebpf4jnsgd1na2vs0mg"},{"bike_id":"6c1d5409-992c-4346-b1a0-ab08046b4d12","system_id":"levelo_inurba_marseille","lat":43.30309,"lon":5.37623,"is_reserved":false,"is_disabled":false,"rental_uris":{"android":"levelo://app?vid=6c1d5409-992c-4346-b1a0-ab08046b4d12","ios":"levelo://app?vid=6c1d5409-992c-4346-b1a0-ab08046b4d12"},"vehicle_type_id":"4","last_reported":1739354995,"current_range_meters":34000,"station_id":"","pricing_plan_id":"cebpf4jnsgd1na2vs0mg"},{"bike_id":"3d01ee57-be5d-4165-815d-c5b06c8be331","system_id":"levelo_inurba_marseille","lat":43.25008,"lon":5.38929,"is_reserved":false,"is_disabled":false,"rental_uris":{"android":"levelo://app?vid=3d01ee57-be5d-4165-815d-c5b06c8be331","ios":"levelo://app?vid=3d01ee57-be5d-4165-815d-c5b06c8be331"},"vehicle_type_id":"4","last_reported":1739354995,"current_range_meters":38800,"station_id":"ce4bhgp2rcd13ifvqfd0","pricing_plan_id":"cebpf4jnsgd1na2vs0mg"},{"bike_id":"d8249fc2-24ff-4373-be1f-a661a7213aef","system_id":"levelo_inurba_marseille","lat":43.31687,"lon":5.40482,"is_reserved":false,"is_disabled":false,"rental_uris":{"android":"levelo://app?vid=d8249fc2-24ff-4373-be1f-a661a7213aef","ios":"levelo://app?vid=d8249fc2-24ff-4373-be1f-a661a7213aef"},"vehicle_type_id":"4","last_reported":1739354995,"current_range_meters":22800,"station_id":"ce4bh012rcd13ifvqd00","pricing_plan_id":"cebpf4jnsgd1na2vs0mg"},{"bike_id":"51620b26-19de-4403-be68-cecc23178a04","system_id":"levelo_inurba_marseille","lat":43.30874,"lon":5.37192,"is_reserved":false,"is_disabled":false,"rental_uris":{"android":"levelo://app?vid=51620b26-19de-4403-be68-cecc23178a04","ios":"levelo://app?vid=51620b26-19de-4403-be68-cecc23178a04"},"vehicle_type_id":"4","last_reported":1739354995,"current_range_meters":37600,"station_id":"ce4bguh2rcd13ifvqckg","pricing_plan_id":"cebpf4jnsgd1na2vs0mg"},{"bike_id":"6decb778-2a50-4682-bebd-1b3d956ffb80","system_id":"levelo_inurba_marseille","lat":43.2926,"lon":5.40909,"is_reserved":false,"is_disabled":false,"rental_uris":{"android":"levelo://app?vid=6decb778-2a50-4682-bebd-1b3d956ffb80","ios":"levelo://app?vid=6decb778-2a50-4682-bebd-1b3d956ffb80"},"vehicle_type_id":"4","last_reported":1739354995,"current_range_meters":39200,"station_id":"ce4bh192rcd13ifvqdc0","pricing_plan_id":"cebpf4jnsgd1na2vs0mg"},{"bike_id":"c07ffd3b-1b45-4f4f-af96-2b31373f9d65","system_id":"levelo_inurba_marseille","lat":43.24167,"lon":5.36411,"is_reserved":false,"is_disabled":false,"rental_uris":{"android":"levelo://app?vid=c07ffd3b-1b45-4f4f-af96-2b31373f9d65","ios":"levelo://app?vid=c07ffd3b-1b45-4f4f-af96-2b31373f9d65"},"vehicle_type_id":"4","last_reported":1739354995,"current_range_meters":28000,"station_id":"cpo36qri1sfpv3e86is0","pricing_plan_id":"cebpf4jnsgd1na2vs0mg"},{"bike_id":"76ed4e97-7fa9-4836-bcd3-e52753ef31b4","system_id":"levelo_inurba_marseille","lat":43.29849,"lon":5.36278,"is_reserved":false,"is_disabled":false,"rental_uris":{"android":"levelo://app?vid=76ed4e97-7fa9-4836-bcd3-e52753ef31b4","ios":"levelo://app?vid=76ed4e97-7fa9-4836-bcd3-e52753ef31b4"},"vehicle_type_id":"4","last_reported":1739354995,"current_range_meters":38800,"station_id":"ce4bgpp2rcd13ifvqc3g","pricing_plan_id":"cebpf4jnsgd1na2vs0mg"},{"bike_id":"47d2e11d-3012-4fe8-a8bd-c37437c4af91","system_id":"levelo_inurba_marseille","lat":43.33606,"lon":5.40992,"is_reserved":false,"is_disabled":false,"rental_uris":{"android":"levelo://app?vid=47d2e11d-3012-4fe8-a8bd-c37437c4af91","ios":"levelo://app?vid=47d2e11d-3012-4fe8-a8bd-c37437c4af91"},"vehicle_type_id":"4","last_reported":1739354995,"current_range_meters":39200,"station_id":"ce4bhqh2rcd13ifvqhmg","pricing_plan_id":"cebpf4jnsgd1na2vs0mg"},{"bike_id":"d32849cf-4c14-4032-9063-172d06d3f04f","system_id":"levelo_inurba_marseille","lat":43.231922,"lon":5.355522,"is_reserved":false,"is_disabled":false,"rental_uris":{"android":"levelo://app?vid=d32849cf-4c14-4032-9063-172d06d3f04f","ios":"levelo://app?vid=d32849cf-4c14-4032-9063-172d06d3f04f"},"vehicle_type_id":"4","last_reported":1739354995,"current_range_meters":31200,"station_id":"ce4bhu92rcd13ifvqi70","pricing_plan_id":"cebpf4jnsgd1na2vs0mg"},{"bike_id":"2ff86c0c-69fd-4294-8842-114f3593748f","system_id":"levelo_inurba_marseille","lat":43.313607,"lon":5.367021,"is_reserved":false,"is_disabled":false,"rental_uris":{"android":"levelo://app?vid=2ff86c0c-69fd-4294-8842-114f3593748f","ios":"levelo://app?vid=2ff86c0c-69fd-4294-8842-114f3593748f"},"vehicle_type_id":"4","last_reported":1739354995,"current_range_meters":36800,"station_id":"ce4bgr92rcd13ifvqc6g","pricing_plan_id":"cebpf4jnsgd1na2vs0mg"},{"bike_id":"4bb4af83-e61e-4f75-9787-d8bfa4ce6d16","system_id":"levelo_inurba_marseille","lat":43.309605,"lon":5.390455,"is_reserved":false,"is_disabled":false,"rental_uris":{"android":"levelo://app?vid=4bb4af83-e61e-4f75-9787-d8bfa4ce6d16","ios":"levelo://app?vid=4bb4af83-e61e-4f75-9787-d8bfa4ce6d16"},"vehicle_type_id":"4","last_reported":1739354995,"current_range_meters":39200,"station_id":"ce4bgup2rcd13ifvqco0","pricing_plan_id":"cebpf4jnsgd1na2vs0mg"},{"bike_id":"17b3f23a-32cc-4ab6-96ff-be2f508eebcb","system_id":"levelo_inurba_marseille","lat":43.29052,"lon":5.35891,"is_reserved":false,"is_disabled":false,"rental_uris":{"android":"levelo://app?vid=17b3f23a-32cc-4ab6-96ff-be2f508eebcb","ios":"levelo://app?vid=17b3f23a-32cc-4ab6-96ff-be2f508eebcb"},"vehicle_type_id":"4","last_reported":1739354995,"current_range_meters":38800,"station_id":"ce4bha92rcd13ifvqeg0","pricing_plan_id":"cebpf4jnsgd1na2vs0mg"},{"bike_id":"536366d2-282b-48e8-9268-35b7ee369088","system_id":"levelo_inurba_marseille","lat":43.24998,"lon":5.38942,"is_reserved":false,"is_disabled":false,"rental_uris":{"android":"levelo://app?vid=536366d2-282b-48e8-9268-35b7ee369088","ios":"levelo://app?vid=536366d2-282b-48e8-9268-35b7ee369088"},"vehicle_type_id":"4","last_reported":1739354995,"current_range_meters":30800,"station_id":"ce4bhgp2rcd13ifvqfd0","pricing_plan_id":"cebpf4jnsgd1na2vs0mg"},{"bike_id":"09a31e22-31a3-4a8b-a8f3-c6b84a9cc357","system_id":"levelo_inurba_marseille","lat":43.27566,"lon":5.38431,"is_reserved":false,"is_disabled":false,"rental_uris":{"android":"levelo://app?vid=09a31e22-31a3-4a8b-a8f3-c6b84a9cc357","ios":"levelo://app?vid=09a31e22-31a3-4a8b-a8f3-c6b84a9cc357"},"vehicle_type_id":"4","last_reported":1739354995,"current_range_meters":24400,"station_id":"ce4bhh92rcd13ifvqfi0","pricing_plan_id":"cebpf4jnsgd1na2vs0mg"},{"bike_id":"b7cfafc0-fba3-47fa-8c3d-d96c6bee1f7a","system_id":"levelo_inurba_marseille","lat":43.24398,"lon":5.37069,"is_reserved":false,"is_disabled":false,"rental_uris":{"android":"levelo://app?vid=b7cfafc0-fba3-47fa-8c3d-d96c6bee1f7a","ios":"levelo://app?vid=b7cfafc0-fba3-47fa-8c3d-d96c6bee1f7a"},"vehicle_type_id":"4","last_reported":1739354995,"current_range_meters":30400,"station_id":"ce4bhhh2rcd13ifvqfk0","pricing_plan_id":"cebpf4jnsgd1na2vs0mg"},{"bike_id":"9ba133ba-7b58-4607-8737-7fb5bce66e58","system_id":"levelo_inurba_marseille","lat":43.24428,"lon":5.37157,"is_reserved":false,"is_disabled":false,"rental_uris":{"android":"levelo://app?vid=9ba133ba-7b58-4607-8737-7fb5bce66e58","ios":"levelo://app?vid=9ba133ba-7b58-4607-8737-7fb5bce66e58"},"vehicle_type_id":"4","last_reported":1739354995,"current_range_meters":38800,"station_id":"ce4bhhh2rcd13ifvqfk0","pricing_plan_id":"cebpf4jnsgd1na2vs0mg"},{"bike_id":"24d2a29b-fa24-4c85-a726-541b11d56bc0","system_id":"levelo_inurba_marseille","lat":43.31358,"lon":5.36731,"is_reserved":false,"is_disabled":false,"rental_uris":{"android":"levelo://app?vid=24d2a29b-fa24-4c85-a726-541b11d56bc0","ios":"levelo://app?vid=24d2a29b-fa24-4c85-a726-541b11d56bc0"},"vehicle_type_id":"4","last_reported":1739354995,"current_range_meters":14400,"station_id":"ce4bgr92rcd13ifvqc6g","pricing_plan_id":"cebpf4jnsgd1na2vs0mg"},{"bike_id":"3e05173f-c640-4ed3-a2ba-c06426ae393a","system_id":"levelo_inurba_marseille","lat":43.29873,"lon":5.39735,"is_reserved":false,"is_disabled":false,"rental_uris":{"android":"levelo://app?vid=3e05173f-c640-4ed3-a2ba-c06426ae393a","ios":"levelo://app?vid=3e05173f-c640-4ed3-a2ba-c06426ae393a"},"vehicle_type_id":"4","last_reported":1739354995,"current_range_meters":32000,"station_id":"ce4bh0h2rcd13ifvqd50","pricing_plan_id":"cebpf4jnsgd1na2vs0mg"},{"bike_id":"8ec577f3-8ca3-449b-97e8-b869a3caa09d","system_id":"levelo_inurba_marseille","lat":43.2957,"lon":5.37507,"is_reserved":false,"is_disabled":false,"rental_uris":{"android":"levelo://app?vid=8ec577f3-8ca3-449b-97e8-b869a3caa09d","ios":"levelo://app?vid=8ec577f3-8ca3-449b-97e8-b869a3caa09d"},"vehicle_type_id":"4","last_reported":1739354995,"current_range_meters":20000,"station_id":"ce4bgh92rcd13ifvqb50","pricing_plan_id":"cebpf4jnsgd1na2vs0mg"},{"bike_id":"1864790b-e782-4bb5-9af4-32a808bf7844","system_id":"levelo_inurba_marseille","lat":43.29531,"lon":5.3855,"is_reserved":false,"is_disabled":false,"rental_uris":{"android":"levelo://app?vid=1864790b-e782-4bb5-9af4-32a808bf7844","ios":"levelo://app?vid=1864790b-e782-4bb5-9af4-32a808bf7844"},"vehicle_type_id":"4","last_reported":1739354995,"current_range_meters":38800,"station_id":"ce4bgih2rcd13ifvqba0","pricing_plan_id":"cebpf4jnsgd1na2vs0mg"},{"bike_id":"14b2070b-6ddc-42e3-b1e8-9c0cbc081f72","system_id":"levelo_inurba_marseille","lat":43.33728,"lon":5.39185,"is_reserved":false,"is_disabled":false,"rental_uris":{"android":"levelo://app?vid=14b2070b-6ddc-42e3-b1e8-9c0cbc081f72","ios":"levelo://app?vid=14b2070b-6ddc-42e3-b1e8-9c0cbc081f72"},"vehicle_type_id":"4","last_reported":1739354995,"current_range_meters":39200,"station_id":"ce4bhr92rcd13ifvqhsg","pricing_plan_id":"cebpf4jnsgd1na2vs0mg"},{"bike_id":"6bbd4eb5-7a4e-4050-b294-258559322377","system_id":"levelo_inurba_marseille","lat":43.28491,"lon":5.38454,"is_reserved":false,"is_disabled":false,"rental_uris":{"android":"levelo://app?vid=6bbd4eb5-7a4e-4050-b294-258559322377","ios":"levelo://app?vid=6bbd4eb5-7a4e-4050-b294-258559322377"},"vehicle_type_id":"4","last_reported":1739354995,"current_range_meters":19200,"station_id":"ce4bh512rcd13ifvqe3g","pricing_plan_id":"cebpf4jnsgd1na2vs0mg"},{"bike_id":"e80add04-08f3-4b00-a05f-0e65cf39f1fc","system_id":"levelo_inurba_marseille","lat":43.296707,"lon":5.375216,"is_reserved":false,"is_disabled":false,"rental_uris":{"android":"levelo://app?vid=e80add04-08f3-4b00-a05f-0e65cf39f1fc","ios":"levelo://app?vid=e80add04-08f3-4b00-a05f-0e65cf39f1fc"},"vehicle_type_id":"4","last_reported":1739354995,"current_range_meters":33200,"station_id":"ce4bgn12rcd13ifvqbt0","pricing_plan_id":"cebpf4jnsgd1na2vs0mg"},{"bike_id":"3ad78980-d954-4439-b88d-56e0dcfe7b89","system_id":"levelo_inurba_marseille","lat":43.23949,"lon":5.36632,"is_reserved":false,"is_disabled":false,"rental_uris":{"android":"levelo://app?vid=3ad78980-d954-4439-b88d-56e0dcfe7b89","ios":"levelo://app?vid=3ad78980-d954-4439-b88d-56e0dcfe7b89"},"vehicle_type_id":"4","last_reported":1739354995,"current_range_meters":6800,"station_id":"ce4bhi12rcd13ifvqfp0","pricing_plan_id":"cebpf4jnsgd1na2vs0mg"},{"bike_id":"b009372e-cf79-40b3-b7d9-4a284958faef","system_id":"levelo_inurba_marseille","lat":43.29054,"lon":5.39973,"is_reserved":false,"is_disabled":false,"rental_uris":{"android":"levelo://app?vid=b009372e-cf79-40b3-b7d9-4a284958faef","ios":"levelo://app?vid=b009372e-cf79-40b3-b7d9-4a284958faef"},"vehicle_type_id":"4","last_reported":1739354995,"current_range_meters":16000,"station_id":"ce4bh392rcd13ifvqdm0","pricing_plan_id":"cebpf4jnsgd1na2vs0mg"},{"bike_id":"5510ff8d-806d-4715-bcc9-014cc9344dc2","system_id":"levelo_inurba_marseille","lat":43.3125,"lon":5.36805,"is_reserved":false,"is_disabled":false,"rental_uris":{"android":"levelo://app?vid=5510ff8d-806d-4715-bcc9-014cc9344dc2","ios":"levelo://app?vid=5510ff8d-806d-4715-bcc9-014cc9344dc2"},"vehicle_type_id":"4","last_reported":1739354995,"current_range_meters":39200,"station_id":"ce4bgl92rcd13ifvqbq0","pricing_plan_id":"cebpf4jnsgd1na2vs0mg"},{"bike_id":"72dcdbd8-6454-45d9-a70f-b140c9e866d2","system_id":"levelo_inurba_marseille","lat":43.29903,"lon":5.43654,"is_reserved":false,"is_disabled":false,"rental_uris":{"android":"levelo://app?vid=72dcdbd8-6454-45d9-a70f-b140c9e866d2","ios":"levelo://app?vid=72dcdbd8-6454-45d9-a70f-b140c9e866d2"},"vehicle_type_id":"4","last_reported":1739354995,"current_range_meters":38800,"station_id":"ce4bhpp2rcd13ifvqhfg","pricing_plan_id":"cebpf4jnsgd1na2vs0mg"},{"bike_id":"652123cb-3721-44be-8710-a2f825a76e71","system_id":"levelo_inurba_marseille","lat":43.23184,"lon":5.39998,"is_reserved":false,"is_disabled":false,"rental_uris":{"android":"levelo://app?vid=652123cb-3721-44be-8710-a2f825a76e71","ios":"levelo://app?vid=652123cb-3721-44be-8710-a2f825a76e71"},"vehicle_type_id":"4","last_reported":1739354995,"current_range_meters":4800,"station_id":"ce4bhn12rcd13ifvqgqg","pricing_plan_id":"cebpf4jnsgd1na2vs0mg"},{"bike_id":"4f56e804-7acc-4dac-845d-1d382703ab43","system_id":"levelo_inurba_marseille","lat":43.32552,"lon":5.41474,"is_reserved":false,"is_disabled":false,"rental_uris":{"android":"levelo://app?vid=4f56e804-7acc-4dac-845d-1d382703ab43","ios":"levelo://app?vid=4f56e804-7acc-4dac-845d-1d382703ab43"},"vehicle_type_id":"4","last_reported":1739354995,"current_range_meters":38800,"station_id":"ce4bhq12rcd13ifvqhhg","pricing_plan_id":"cebpf4jnsgd1na2vs0mg"},{"bike_id":"acd088e7-dc82-4cb8-8e19-47754c61567c","system_id":"levelo_inurba_marseille","lat":43.31385,"lon":5.36687,"is_reserved":false,"is_disabled":false,"rental_uris":{"android":"levelo://app?vid=acd088e7-dc82-4cb8-8e19-47754c61567c","ios":"levelo://app?vid=acd088e7-dc82-4cb8-8e19-47754c61567c"},"vehicle_type_id":"4","last_reported":1739354995,"current_range_meters":35200,"station_id":"","pricing_plan_id":"cebpf4jnsgd1na2vs0mg"},{"bike_id":"201b14f4-65c7-45ff-8010-fe136e6675ac","system_id":"levelo_inurba_marseille","lat":43.24159,"lon":5.3973,"is_reserved":false,"is_disabled":false,"rental_uris":{"android":"levelo://app?vid=201b14f4-65c7-45ff-8010-fe136e6675ac","ios":"levelo://app?vid=201b14f4-65c7-45ff-8010-fe136e6675ac"},"vehicle_type_id":"4","last_reported":1739354995,"current_range_meters":20800,"station_id":"ce4bhn12rcd13ifvqgpg","pricing_plan_id":"cebpf4jnsgd1na2vs0mg"},{"bike_id":"f4379ffa-d405-4bc5-bc54-4ecf2b401aef","system_id":"levelo_inurba_marseille","lat":43.30953,"lon":5.3905,"is_reserved":false,"is_disabled":false,"rental_uris":{"android":"levelo://app?vid=f4379ffa-d405-4bc5-bc54-4ecf2b401aef","ios":"levelo://app?vid=f4379ffa-d405-4bc5-bc54-4ecf2b401aef"},"vehicle_type_id":"4","last_reported":1739354995,"current_range_meters":38400,"station_id":"","pricing_plan_id":"cebpf4jnsgd1na2vs0mg"},{"bike_id":"9207b0f3-9707-4707-b4f6-b2339a5ec8ff","system_id":"levelo_inurba_marseille","lat":43.28187,"lon":5.42664,"is_reserved":false,"is_disabled":false,"rental_uris":{"android":"levelo://app?vid=9207b0f3-9707-4707-b4f6-b2339a5ec8ff","ios":"levelo://app?vid=9207b0f3-9707-4707-b4f6-b2339a5ec8ff"},"vehicle_type_id":"4","last_reported":1739354995,"current_range_meters":36800,"station_id":"ce4bhnh2rcd13ifvqgug","pricing_plan_id":"cebpf4jnsgd1na2vs0mg"},{"bike_id":"3fffe3db-771a-4c12-a037-1f9c428998bc","system_id":"levelo_inurba_marseille","lat":43.30549,"lon":5.36546,"is_reserved":false,"is_disabled":false,"rental_uris":{"android":"levelo://app?vid=3fffe3db-771a-4c12-a037-1f9c428998bc","ios":"levelo://app?vid=3fffe3db-771a-4c12-a037-1f9c428998bc"},"vehicle_type_id":"4","last_reported":1739354995,"current_range_meters":31200,"station_id":"ce4bgs12rcd13ifvqcag","pricing_plan_id":"cebpf4jnsgd1na2vs0mg"},{"bike_id":"ddbfc913-16cf-4d9f-a892-35d08e1e6767","system_id":"levelo_inurba_marseille","lat":43.29606,"lon":5.36743,"is_reserved":false,"is_disabled":false,"rental_uris":{"android":"levelo://app?vid=ddbfc913-16cf-4d9f-a892-35d08e1e6767","ios":"levelo://app?vid=ddbfc913-16cf-4d9f-a892-35d08e1e6767"},"vehicle_type_id":"4","last_reported":1739354995,"current_range_meters":11600,"station_id":"ce4bgph2rcd13ifvqc2g","pricing_plan_id":"cebpf4jnsgd1na2vs0mg"},{"bike_id":"0a77f424-9d7d-4010-bd33-1687a2ffd57e","system_id":"levelo_inurba_marseille","lat":43.24808,"lon":5.37453,"is_reserved":false,"is_disabled":false,"rental_uris":{"android":"levelo://app?vid=0a77f424-9d7d-4010-bd33-1687a2ffd57e","ios":"levelo://app?vid=0a77f424-9d7d-4010-bd33-1687a2ffd57e"},"vehicle_type_id":"4","last_reported":1739354995,"current_range_meters":10000,"station_id":"ce4bhgh2rcd13ifvqfb0","pricing_plan_id":"cebpf4jnsgd1na2vs0mg"},{"bike_id":"15c8d317-fbc9-41d6-8e07-f6f8c9ef394a","system_id":"levelo_inurba_marseille","lat":43.28434,"lon":5.38463,"is_reserved":false,"is_disabled":false,"rental_uris":{"android":"levelo://app?vid=15c8d317-fbc9-41d6-8e07-f6f8c9ef394a","ios":"levelo://app?vid=15c8d317-fbc9-41d6-8e07-f6f8c9ef394a"},"vehicle_type_id":"4","last_reported":1739354995,"current_range_meters":38800,"station_id":"","pricing_plan_id":"cebpf4jnsgd1na2vs0mg"},{"bike_id":"c2250f20-2283-4e17-b7ce-382f2f740aa1","system_id":"levelo_inurba_marseille","lat":43.24806,"lon":5.37461,"is_reserved":false,"is_disabled":false,"rental_uris":{"android":"levelo://app?vid=c2250f20-2283-4e17-b7ce-382f2f740aa1","ios":"levelo://app?vid=c2250f20-2283-4e17-b7ce-382f2f740aa1"},"vehicle_type_id":"4","last_reported":1739354995,"current_range_meters":38800,"station_id":"ce4bhgh2rcd13ifvqfb0","pricing_plan_id":"cebpf4jnsgd1na2vs0mg"},{"bike_id":"d52467fa-3015-4742-aee2-f7ab48c12d28","system_id":"levelo_inurba_marseille","lat":43.30302,"lon":5.36884,"is_reserved":false,"is_disabled":false,"rental_uris":{"android":"levelo://app?vid=d52467fa-3015-4742-aee2-f7ab48c12d28","ios":"levelo://app?vid=d52467fa-3015-4742-aee2-f7ab48c12d28"},"vehicle_type_id":"4","last_reported":1739354995,"current_range_meters":16000,"station_id":"ce4bgqh2rcd13ifvqc5g","pricing_plan_id":"cebpf4jnsgd1na2vs0mg"},{"bike_id":"8605271e-fcb4-44db-8ddd-d4559c52e2f4","system_id":"levelo_inurba_marseille","lat":43.26559,"lon":5.39486,"is_reserved":false,"is_disabled":false,"rental_uris":{"android":"levelo://app?vid=8605271e-fcb4-44db-8ddd-d4559c52e2f4","ios":"levelo://app?vid=8605271e-fcb4-44db-8ddd-d4559c52e2f4"},"vehicle_type_id":"4","last_reported":1739354995,"current_range_meters":38800,"station_id":"ce4bhi12rcd13ifvqfq0","pricing_plan_id":"cebpf4jnsgd1na2vs0mg"},{"bike_id":"a3c8e50a-9da9-4b45-8e30-2a10a638adc8","system_id":"levelo_inurba_marseille","lat":43.30918,"lon":5.40163,"is_reserved":false,"is_disabled":false,"rental_uris":{"android":"levelo://app?vid=a3c8e50a-9da9-4b45-8e30-2a10a638adc8","ios":"levelo://app?vid=a3c8e50a-9da9-4b45-8e30-2a10a638adc8"},"vehicle_type_id":"4","last_reported":1739354995,"current_range_meters":38800,"station_id":"ce4bgvp2rcd13ifvqct0","pricing_plan_id":"cebpf4jnsgd1na2vs0mg"},{"bike_id":"8aaacf93-7a76-463b-82dc-340e7efb76fd","system_id":"levelo_inurba_marseille","lat":43.29803,"lon":5.40404,"is_reserved":false,"is_disabled":false,"rental_uris":{"android":"levelo://app?vid=8aaacf93-7a76-463b-82dc-340e7efb76fd","ios":"levelo://app?vid=8aaacf93-7a76-463b-82dc-340e7efb76fd"},"vehicle_type_id":"4","last_reported":1739354995,"current_range_meters":38800,"station_id":"ce4bh112rcd13ifvqd90","pricing_plan_id":"cebpf4jnsgd1na2vs0mg"},{"bike_id":"f85fd452-5bde-4296-ab83-dac7111c9b77","system_id":"levelo_inurba_marseille","lat":43.32536,"lon":5.41416,"is_reserved":false,"is_disabled":false,"rental_uris":{"android":"levelo://app?vid=f85fd452-5bde-4296-ab83-dac7111c9b77","ios":"levelo://app?vid=f85fd452-5bde-4296-ab83-dac7111c9b77"},"vehicle_type_id":"4","last_reported":1739354995,"current_range_meters":36400,"station_id":"ce4bhq12rcd13ifvqhhg","pricing_plan_id":"cebpf4jnsgd1na2vs0mg"},{"bike_id":"d3b58dda-3b0c-4227-b0cb-8890146ef189","system_id":"levelo_inurba_marseille","lat":43.305324,"lon":5.365499,"is_reserved":false,"is_disabled":false,"rental_uris":{"android":"levelo://app?vid=d3b58dda-3b0c-4227-b0cb-8890146ef189","ios":"levelo://app?vid=d3b58dda-3b0c-4227-b0cb-8890146ef189"},"vehicle_type_id":"4","last_reported":1739354995,"current_range_meters":38800,"station_id":"ce4bgs12rcd13ifvqcag","pricing_plan_id":"cebpf4jnsgd1na2vs0mg"},{"bike_id":"30b76049-e41b-4adb-862f-755fe2524e05","system_id":"levelo_inurba_marseille","lat":43.288513,"lon":5.393247,"is_reserved":false,"is_disabled":true,"rental_uris":{"android":"levelo://app?vid=30b76049-e41b-4adb-862f-755fe2524e05","ios":"levelo://app?vid=30b76049-e41b-4adb-862f-755fe2524e05"},"vehicle_type_id":"4","last_reported":1739354995,"current_range_meters":36400,"station_id":"","pricing_plan_id":"cebpf4jnsgd1na2vs0mg"},{"bike_id":"635543fe-6114-4369-91d2-b63a5133d0a1","system_id":"levelo_inurba_marseille","lat":43.27973,"lon":5.41028,"is_reserved":false,"is_disabled":false,"rental_uris":{"android":"levelo://app?vid=635543fe-6114-4369-91d2-b63a5133d0a1","ios":"levelo://app?vid=635543fe-6114-4369-91d2-b63a5133d0a1"},"vehicle_type_id":"4","last_reported":1739354995,"current_range_meters":38800,"station_id":"ce4bhnp2rcd13ifvqh0g","pricing_plan_id":"cebpf4jnsgd1na2vs0mg"},{"bike_id":"b5c6d8e3-df4e-4921-be7d-a4e22b9e9116","system_id":"levelo_inurba_marseille","lat":43.30535,"lon":5.36705,"is_reserved":false,"is_disabled":false,"rental_uris":{"android":"levelo://app?vid=b5c6d8e3-df4e-4921-be7d-a4e22b9e9116","ios":"levelo://app?vid=b5c6d8e3-df4e-4921-be7d-a4e22b9e9116"},"vehicle_type_id":"4","last_reported":1739354995,"current_range_meters":20400,"station_id":"ce4bgrp2rcd13ifvqc9g","pricing_plan_id":"cebpf4jnsgd1na2vs0mg"},{"bike_id":"b028ac9a-372e-4348-a586-883338abf7ab","system_id":"levelo_inurba_marseille","lat":43.30138,"lon":5.3806,"is_reserved":false,"is_disabled":false,"rental_uris":{"android":"levelo://app?vid=b028ac9a-372e-4348-a586-883338abf7ab","ios":"levelo://app?vid=b028ac9a-372e-4348-a586-883338abf7ab"},"vehicle_type_id":"4","last_reported":1739354995,"current_range_meters":38000,"station_id":"ce4bgjp2rcd13ifvqbh0","pricing_plan_id":"cebpf4jnsgd1na2vs0mg"},{"bike_id":"49ee79d3-1a6d-40cb-a599-9d0749575802","system_id":"levelo_inurba_marseille","lat":43.29568,"lon":5.37508,"is_reserved":false,"is_disabled":false,"rental_uris":{"android":"levelo://app?vid=49ee79d3-1a6d-40cb-a599-9d0749575802","ios":"levelo://app?vid=49ee79d3-1a6d-40cb-a599-9d0749575802"},"vehicle_type_id":"4","last_reported":1739354995,"current_range_meters":7200,"station_id":"ce4bgh92rcd13ifvqb50","pricing_plan_id":"cebpf4jnsgd1na2vs0mg"},{"bike_id":"388eec0f-197c-4842-922b-eebeba60fca0","system_id":"levelo_inurba_marseille","lat":43.28529,"lon":5.38516,"is_reserved":false,"is_disabled":false,"rental_uris":{"android":"levelo://app?vid=388eec0f-197c-4842-922b-eebeba60fca0","ios":"levelo://app?vid=388eec0f-197c-4842-922b-eebeba60fca0"},"vehicle_type_id":"4","last_reported":1739354995,"current_range_meters":38800,"station_id":"ce4bh8p2rcd13ifvqeb0","pricing_plan_id":"cebpf4jnsgd1na2vs0mg"},{"bike_id":"c64aa733-d661-403e-bdd3-ec0abaaba829","system_id":"levelo_inurba_marseille","lat":43.29038,"lon":5.35918,"is_reserved":false,"is_disabled":false,"rental_uris":{"android":"levelo://app?vid=c64aa733-d661-403e-bdd3-ec0abaaba829","ios":"levelo://app?vid=c64aa733-d661-403e-bdd3-ec0abaaba829"},"vehicle_type_id":"4","last_reported":1739354995,"current_range_meters":11600,"station_id":"ce4bha92rcd13ifvqeg0","pricing_plan_id":"cebpf4jnsgd1na2vs0mg"},{"bike_id":"9468ba42-28ee-4b6b-b01f-ffbd37c9ae6f","system_id":"levelo_inurba_marseille","lat":43.27953,"lon":5.38687,"is_reserved":false,"is_disabled":false,"rental_uris":{"android":"levelo://app?vid=9468ba42-28ee-4b6b-b01f-ffbd37c9ae6f","ios":"levelo://app?vid=9468ba42-28ee-4b6b-b01f-ffbd37c9ae6f"},"vehicle_type_id":"4","last_reported":1739354995,"current_range_meters":32400,"station_id":"ce4bhg12rcd13ifvqf80","pricing_plan_id":"cebpf4jnsgd1na2vs0mg"},{"bike_id":"a69e567e-3774-43da-9871-c9cd59263ec8","system_id":"levelo_inurba_marseille","lat":43.337444,"lon":5.374475,"is_reserved":false,"is_disabled":false,"rental_uris":{"android":"levelo://app?vid=a69e567e-3774-43da-9871-c9cd59263ec8","ios":"levelo://app?vid=a69e567e-3774-43da-9871-c9cd59263ec8"},"vehicle_type_id":"4","last_reported":1739354995,"current_range_meters":38000,"station_id":"ce4bh2p2rcd13ifvqdi0","pricing_plan_id":"cebpf4jnsgd1na2vs0mg"},{"bike_id":"8b4b0e9e-e1d3-4be6-90c0-928836029c01","system_id":"levelo_inurba_marseille","lat":43.28742,"lon":5.3794,"is_reserved":false,"is_disabled":false,"rental_uris":{"android":"levelo://app?vid=8b4b0e9e-e1d3-4be6-90c0-928836029c01","ios":"levelo://app?vid=8b4b0e9e-e1d3-4be6-90c0-928836029c01"},"vehicle_type_id":"4","last_reported":1739354995,"current_range_meters":38800,"station_id":"ce4bh9p2rcd13ifvqec0","pricing_plan_id":"cebpf4jnsgd1na2vs0mg"},{"bike_id":"f5ea4e44-d5c5-4539-9ced-5c5dfd46b940","system_id":"levelo_inurba_marseille","lat":43.29523,"lon":5.37507,"is_reserved":false,"is_disabled":false,"rental_uris":{"android":"levelo://app?vid=f5ea4e44-d5c5-4539-9ced-5c5dfd46b940","ios":"levelo://app?vid=f5ea4e44-d5c5-4539-9ced-5c5dfd46b940"},"vehicle_type_id":"4","last_reported":1739354995,"current_range_meters":38800,"station_id":"ce4bgkp2rcd13ifvqbmg","pricing_plan_id":"cebpf4jnsgd1na2vs0mg"},{"bike_id":"87b12664-364b-4d5c-9305-ea1eaf32be2a","system_id":"levelo_inurba_marseille","lat":43.29062,"lon":5.40019,"is_reserved":false,"is_disabled":false,"rental_uris":{"android":"levelo://app?vid=87b12664-364b-4d5c-9305-ea1eaf32be2a","ios":"levelo://app?vid=87b12664-364b-4d5c-9305-ea1eaf32be2a"},"vehicle_type_id":"4","last_reported":1739354995,"current_range_meters":32400,"station_id":"","pricing_plan_id":"cebpf4jnsgd1na2vs0mg"},{"bike_id":"34fad4b5-c651-4748-9d07-9ff03025f080","system_id":"levelo_inurba_marseille","lat":43.23151,"lon":5.43708,"is_reserved":false,"is_disabled":false,"rental_uris":{"android":"levelo://app?vid=34fad4b5-c651-4748-9d07-9ff03025f080","ios":"levelo://app?vid=34fad4b5-c651-4748-9d07-9ff03025f080"},"vehicle_type_id":"4","last_reported":1739354995,"current_range_meters":4400,"station_id":"ce4bhmp2rcd13ifvqgog","pricing_plan_id":"cebpf4jnsgd1na2vs0mg"},{"bike_id":"e7317b5b-173d-4060-8e4e-467fa10d516f","system_id":"levelo_inurba_marseille","lat":43.30249,"lon":5.40036,"is_reserved":false,"is_disabled":true,"rental_uris":{"android":"levelo://app?vid=e7317b5b-173d-4060-8e4e-467fa10d516f","ios":"levelo://app?vid=e7317b5b-173d-4060-8e4e-467fa10d516f"},"vehicle_type_id":"4","last_reported":1739354995,"current_range_meters":8400,"station_id":"ce4bgvh2rcd13ifvqcs0","pricing_plan_id":"cebpf4jnsgd1na2vs0mg"},{"bike_id":"8f958795-1d0e-4a72-96cf-46fac3cf00bf","system_id":"levelo_inurba_marseille","lat":43.25724,"lon":5.41107,"is_reserved":false,"is_disabled":false,"rental_uris":{"android":"levelo://app?vid=8f958795-1d0e-4a72-96cf-46fac3cf00bf","ios":"levelo://app?vid=8f958795-1d0e-4a72-96cf-46fac3cf00bf"},"vehicle_type_id":"4","last_reported":1739354995,"current_range_meters":24000,"station_id":"ce4bhkp2rcd13ifvqgd0","pricing_plan_id":"cebpf4jnsgd1na2vs0mg"},{"bike_id":"0a90b5c7-48b7-41be-87be-9b69a4cd075b","system_id":"levelo_inurba_marseille","lat":43.25709,"lon":5.41083,"is_reserved":false,"is_disabled":true,"rental_uris":{"android":"levelo://app?vid=0a90b5c7-48b7-41be-87be-9b69a4cd075b","ios":"levelo://app?vid=0a90b5c7-48b7-41be-87be-9b69a4cd075b"},"vehicle_type_id":"4","last_reported":1739354995,"current_range_meters":2000,"station_id":"ce4bhkp2rcd13ifvqgd0","pricing_plan_id":"cebpf4jnsgd1na2vs0mg"},{"bike_id":"0be1d88b-01a0-40a9-aaa0-e89ce7b82363","system_id":"levelo_inurba_marseille","lat":43.26935,"lon":5.38921,"is_reserved":false,"is_disabled":false,"rental_uris":{"android":"levelo://app?vid=0be1d88b-01a0-40a9-aaa0-e89ce7b82363","ios":"levelo://app?vid=0be1d88b-01a0-40a9-aaa0-e89ce7b82363"},"vehicle_type_id":"4","last_reported":1739354995,"current_range_meters":27200,"station_id":"ce4bhhh2rcd13ifvqfl0","pricing_plan_id":"cebpf4jnsgd1na2vs0mg"},{"bike_id":"04d4b8ab-1d4d-44ab-9d49-e10f569c0553","system_id":"levelo_inurba_marseille","lat":43.29852,"lon":5.36277,"is_reserved":false,"is_disabled":false,"rental_uris":{"android":"levelo://app?vid=04d4b8ab-1d4d-44ab-9d49-e10f569c0553","ios":"levelo://app?vid=04d4b8ab-1d4d-44ab-9d49-e10f569c0553"},"vehicle_type_id":"4","last_reported":1739354995,"current_range_meters":34000,"station_id":"ce4bgpp2rcd13ifvqc3g","pricing_plan_id":"cebpf4jnsgd1na2vs0mg"},{"bike_id":"cd79beb9-e154-42f3-a6dd-e4f78a7dd3b0","system_id":"levelo_inurba_marseille","lat":43.33621,"lon":5.40995,"is_reserved":false,"is_disabled":false,"rental_uris":{"android":"levelo://app?vid=cd79beb9-e154-42f3-a6dd-e4f78a7dd3b0","ios":"levelo://app?vid=cd79beb9-e154-42f3-a6dd-e4f78a7dd3b0"},"vehicle_type_id":"4","last_reported":1739354995,"current_range_meters":10800,"station_id":"ce4bhqh2rcd13ifvqhmg","pricing_plan_id":"cebpf4jnsgd1na2vs0mg"},{"bike_id":"0106c6ce-b869-4e6f-8579-ca009b14cff1","system_id":"levelo_inurba_marseille","lat":43.29371,"lon":5.37851,"is_reserved":false,"is_disabled":false,"rental_uris":{"android":"levelo://app?vid=0106c6ce-b869-4e6f-8579-ca009b14cff1","ios":"levelo://app?vid=0106c6ce-b869-4e6f-8579-ca009b14cff1"},"vehicle_type_id":"4","last_reported":1739354995,"current_range_meters":38400,"station_id":"ce4bgjh2rcd13ifvqbf0","pricing_plan_id":"cebpf4jnsgd1na2vs0mg"},{"bike_id":"c4813b27-4250-43ea-8be5-ccd7321d2af3","system_id":"levelo_inurba_marseille","lat":43.28188,"lon":5.37017,"is_reserved":false,"is_disabled":false,"rental_uris":{"android":"levelo://app?vid=c4813b27-4250-43ea-8be5-ccd7321d2af3","ios":"levelo://app?vid=c4813b27-4250-43ea-8be5-ccd7321d2af3"},"vehicle_type_id":"4","last_reported":1739354995,"current_range_meters":18000,"station_id":"","pricing_plan_id":"cebpf4jnsgd1na2vs0mg"},{"bike_id":"2a403e90-1eb9-436b-8978-afde78976541","system_id":"levelo_inurba_marseille","lat":43.24809,"lon":5.37458,"is_reserved":false,"is_disabled":false,"rental_uris":{"android":"levelo://app?vid=2a403e90-1eb9-436b-8978-afde78976541","ios":"levelo://app?vid=2a403e90-1eb9-436b-8978-afde78976541"},"vehicle_type_id":"4","last_reported":1739354995,"current_range_meters":4400,"station_id":"ce4bhgh2rcd13ifvqfb0","pricing_plan_id":"cebpf4jnsgd1na2vs0mg"},{"bike_id":"2f6ca5c9-7339-425d-96d9-1012c8a7d24d","system_id":"levelo_inurba_marseille","lat":43.23134,"lon":5.43785,"is_reserved":false,"is_disabled":false,"rental_uris":{"android":"levelo://app?vid=2f6ca5c9-7339-425d-96d9-1012c8a7d24d","ios":"levelo://app?vid=2f6ca5c9-7339-425d-96d9-1012c8a7d24d"},"vehicle_type_id":"4","last_reported":1739354995,"current_range_meters":20800,"station_id":"","pricing_plan_id":"cebpf4jnsgd1na2vs0mg"},{"bike_id":"d861dd30-e6ef-4f59-a980-d65f79755ea4","system_id":"levelo_inurba_marseille","lat":43.30967,"lon":5.39059,"is_reserved":false,"is_disabled":false,"rental_uris":{"android":"levelo://app?vid=d861dd30-e6ef-4f59-a980-d65f79755ea4","ios":"levelo://app?vid=d861dd30-e6ef-4f59-a980-d65f79755ea4"},"vehicle_type_id":"4","last_reported":1739354995,"current_range_meters":22000,"station_id":"ce4bgup2rcd13ifvqco0","pricing_plan_id":"cebpf4jnsgd1na2vs0mg"},{"bike_id":"20406b32-4add-46fa-9e43-e570c77b6cd9","system_id":"levelo_inurba_marseille","lat":43.29095,"lon":5.38151,"is_reserved":false,"is_disabled":false,"rental_uris":{"android":"levelo://app?vid=20406b32-4add-46fa-9e43-e570c77b6cd9","ios":"levelo://app?vid=20406b32-4add-46fa-9e43-e570c77b6cd9"},"vehicle_type_id":"4","last_reported":1739354995,"current_range_meters":38800,"station_id":"ce4bh512rcd13ifvqe2g","pricing_plan_id":"cebpf4jnsgd1na2vs0mg"},{"bike_id":"fd7210eb-1483-460c-8525-31dacb424306","system_id":"levelo_inurba_marseille","lat":43.30332,"lon":5.4043,"is_reserved":false,"is_disabled":false,"rental_uris":{"android":"levelo://app?vid=fd7210eb-1483-460c-8525-31dacb424306","ios":"levelo://app?vid=fd7210eb-1483-460c-8525-31dacb424306"},"vehicle_type_id":"4","last_reported":1739354995,"current_range_meters":36800,"station_id":"ce4bh012rcd13ifvqd10","pricing_plan_id":"cebpf4jnsgd1na2vs0mg"},{"bike_id":"36ff92ad-ebc1-4fd8-8dd7-e924b8bea389","system_id":"levelo_inurba_marseille","lat":43.30471,"lon":5.37919,"is_reserved":false,"is_disabled":true,"rental_uris":{"android":"levelo://app?vid=36ff92ad-ebc1-4fd8-8dd7-e924b8bea389","ios":"levelo://app?vid=36ff92ad-ebc1-4fd8-8dd7-e924b8bea389"},"vehicle_type_id":"4","last_reported":1739354995,"current_range_meters":18000,"station_id":"ce4bho92rcd13ifvqh3g","pricing_plan_id":"cebpf4jnsgd1na2vs0mg"},{"bike_id":"7b8d78eb-b68a-4e48-8cc9-717e8a75ee6d","system_id":"levelo_inurba_marseille","lat":43.30925,"lon":5.40161,"is_reserved":false,"is_disabled":false,"rental_uris":{"android":"levelo://app?vid=7b8d78eb-b68a-4e48-8cc9-717e8a75ee6d","ios":"levelo://app?vid=7b8d78eb-b68a-4e48-8cc9-717e8a75ee6d"},"vehicle_type_id":"4","last_reported":1739354995,"current_range_meters":32400,"station_id":"ce4bgvp2rcd13ifvqct0","pricing_plan_id":"cebpf4jnsgd1na2vs0mg"},{"bike_id":"7399132f-cac0-47dd-97c2-a8a020c2c9ec","system_id":"levelo_inurba_marseille","lat":43.25934,"lon":5.40919,"is_reserved":false,"is_disabled":false,"rental_uris":{"android":"levelo://app?vid=7399132f-cac0-47dd-97c2-a8a020c2c9ec","ios":"levelo://app?vid=7399132f-cac0-47dd-97c2-a8a020c2c9ec"},"vehicle_type_id":"4","last_reported":1739354995,"current_range_meters":30800,"station_id":"ce4bhm92rcd13ifvqglg","pricing_plan_id":"cebpf4jnsgd1na2vs0mg"},{"bike_id":"27473ea3-e65b-42e5-ab9c-3b677648fd65","system_id":"levelo_inurba_marseille","lat":43.29783,"lon":5.39345,"is_reserved":false,"is_disabled":false,"rental_uris":{"android":"levelo://app?vid=27473ea3-e65b-42e5-ab9c-3b677648fd65","ios":"levelo://app?vid=27473ea3-e65b-42e5-ab9c-3b677648fd65"},"vehicle_type_id":"4","last_reported":1739354995,"current_range_meters":12800,"station_id":"chh1huq6cuj3fo74tm60","pricing_plan_id":"cebpf4jnsgd1na2vs0mg"},{"bike_id":"ca8a5279-544b-4153-bef1-c9511e7c0ee9","system_id":"levelo_inurba_marseille","lat":43.23156,"lon":5.43705,"is_reserved":false,"is_disabled":false,"rental_uris":{"android":"levelo://app?vid=ca8a5279-544b-4153-bef1-c9511e7c0ee9","ios":"levelo://app?vid=ca8a5279-544b-4153-bef1-c9511e7c0ee9"},"vehicle_type_id":"4","last_reported":1739354995,"current_range_meters":14000,"station_id":"ce4bhmp2rcd13ifvqgog","pricing_plan_id":"cebpf4jnsgd1na2vs0mg"},{"bike_id":"9996157f-25d4-4b42-b3b3-540e8965c829","system_id":"levelo_inurba_marseille","lat":43.2929,"lon":5.40173,"is_reserved":false,"is_disabled":false,"rental_uris":{"android":"levelo://app?vid=9996157f-25d4-4b42-b3b3-540e8965c829","ios":"levelo://app?vid=9996157f-25d4-4b42-b3b3-540e8965c829"},"vehicle_type_id":"4","last_reported":1739354995,"current_range_meters":24400,"station_id":"ce4bh312rcd13ifvqdk0","pricing_plan_id":"cebpf4jnsgd1na2vs0mg"},{"bike_id":"d25ee3e8-855e-4c6c-a4d7-6dd3de45a53d","system_id":"levelo_inurba_marseille","lat":43.27996,"lon":5.41661,"is_reserved":false,"is_disabled":false,"rental_uris":{"android":"levelo://app?vid=d25ee3e8-855e-4c6c-a4d7-6dd3de45a53d","ios":"levelo://app?vid=d25ee3e8-855e-4c6c-a4d7-6dd3de45a53d"},"vehicle_type_id":"4","last_reported":1739354995,"current_range_meters":8800,"station_id":"ce4bho12rcd13ifvqh1g","pricing_plan_id":"cebpf4jnsgd1na2vs0mg"},{"bike_id":"eefc91b1-3836-4d49-8a00-838da59c5c1c","system_id":"levelo_inurba_marseille","lat":43.30185,"lon":5.3808,"is_reserved":false,"is_disabled":false,"rental_uris":{"android":"levelo://app?vid=eefc91b1-3836-4d49-8a00-838da59c5c1c","ios":"levelo://app?vid=eefc91b1-3836-4d49-8a00-838da59c5c1c"},"vehicle_type_id":"4","last_reported":1739354995,"current_range_meters":12800,"station_id":"ce4bgjp2rcd13ifvqbh0","pricing_plan_id":"cebpf4jnsgd1na2vs0mg"},{"bike_id":"75f800bd-ae4e-4905-8675-3830e24bfd85","system_id":"levelo_inurba_marseille","lat":43.26941,"lon":5.40243,"is_reserved":false,"is_disabled":false,"rental_uris":{"android":"levelo://app?vid=75f800bd-ae4e-4905-8675-3830e24bfd85","ios":"levelo://app?vid=75f800bd-ae4e-4905-8675-3830e24bfd85"},"vehicle_type_id":"4","last_reported":1739354995,"current_range_meters":33200,"station_id":"cjm6bp8fraef2m0cb0m0","pricing_plan_id":"cebpf4jnsgd1na2vs0mg"},{"bike_id":"c4cec72a-1b75-49e7-9bcd-5f1722c8e4ac","system_id":"levelo_inurba_marseille","lat":43.26062,"lon":5.39392,"is_reserved":false,"is_disabled":false,"rental_uris":{"android":"levelo://app?vid=c4cec72a-1b75-49e7-9bcd-5f1722c8e4ac","ios":"levelo://app?vid=c4cec72a-1b75-49e7-9bcd-5f1722c8e4ac"},"vehicle_type_id":"4","last_reported":1739354995,"current_range_meters":19600,"station_id":"ce4bhh92rcd13ifvqfj0","pricing_plan_id":"cebpf4jnsgd1na2vs0mg"},{"bike_id":"ee2e1f34-7a57-4fc7-881f-b33a3e6cdadf","system_id":"levelo_inurba_marseille","lat":43.2962,"lon":5.37177,"is_reserved":false,"is_disabled":false,"rental_uris":{"android":"levelo://app?vid=ee2e1f34-7a57-4fc7-881f-b33a3e6cdadf","ios":"levelo://app?vid=ee2e1f34-7a57-4fc7-881f-b33a3e6cdadf"},"vehicle_type_id":"4","last_reported":1739354995,"current_range_meters":36400,"station_id":"ce4bgnh2rcd13ifvqc0g","pricing_plan_id":"cebpf4jnsgd1na2vs0mg"},{"bike_id":"901b478f-6229-4eae-9fad-a3bbac1f2761","system_id":"levelo_inurba_marseille","lat":43.29265,"lon":5.40906,"is_reserved":false,"is_disabled":false,"rental_uris":{"android":"levelo://app?vid=901b478f-6229-4eae-9fad-a3bbac1f2761","ios":"levelo://app?vid=901b478f-6229-4eae-9fad-a3bbac1f2761"},"vehicle_type_id":"4","last_reported":1739354995,"current_range_meters":30000,"station_id":"ce4bh192rcd13ifvqdc0","pricing_plan_id":"cebpf4jnsgd1na2vs0mg"},{"bike_id":"8d2d4012-ff69-4800-927a-45caff6cd054","system_id":"levelo_inurba_marseille","lat":43.23154,"lon":5.43694,"is_reserved":false,"is_disabled":false,"rental_uris":{"android":"levelo://app?vid=8d2d4012-ff69-4800-927a-45caff6cd054","ios":"levelo://app?vid=8d2d4012-ff69-4800-927a-45caff6cd054"},"vehicle_type_id":"4","last_reported":1739354995,"current_range_meters":16400,"station_id":"ce4bhmp2rcd13ifvqgog","pricing_plan_id":"cebpf4jnsgd1na2vs0mg"},{"bike_id":"1ec14052-2d33-4aa1-9ab8-58cc71db74d1","system_id":"levelo_inurba_marseille","lat":43.2417,"lon":5.36397,"is_reserved":false,"is_disabled":false,"rental_uris":{"android":"levelo://app?vid=1ec14052-2d33-4aa1-9ab8-58cc71db74d1","ios":"levelo://app?vid=1ec14052-2d33-4aa1-9ab8-58cc71db74d1"},"vehicle_type_id":"4","last_reported":1739354995,"current_range_meters":10000,"station_id":"cpo36qri1sfpv3e86is0","pricing_plan_id":"cebpf4jnsgd1na2vs0mg"},{"bike_id":"863aee5d-150b-4314-830f-39ef194fc6f9","system_id":"levelo_inurba_marseille","lat":43.23065,"lon":5.35489,"is_reserved":false,"is_disabled":false,"rental_uris":{"android":"levelo://app?vid=863aee5d-150b-4314-830f-39ef194fc6f9","ios":"levelo://app?vid=863aee5d-150b-4314-830f-39ef194fc6f9"},"vehicle_type_id":"4","last_reported":1739354995,"current_range_meters":10800,"station_id":"cpo3342slgdg3j2ifvpg","pricing_plan_id":"cebpf4jnsgd1na2vs0mg"},{"bike_id":"483ca482-42b6-4ced-874f-fa21419a4ba6","system_id":"levelo_inurba_marseille","lat":43.30104,"lon":5.39078,"is_reserved":false,"is_disabled":false,"rental_uris":{"android":"levelo://app?vid=483ca482-42b6-4ced-874f-fa21419a4ba6","ios":"levelo://app?vid=483ca482-42b6-4ced-874f-fa21419a4ba6"},"vehicle_type_id":"4","last_reported":1739354995,"current_range_meters":37600,"station_id":"ce4bh192rcd13ifvqdb0","pricing_plan_id":"cebpf4jnsgd1na2vs0mg"},{"bike_id":"a8fc6373-236b-4c06-9d3b-2a6dce076200","system_id":"levelo_inurba_marseille","lat":43.33606,"lon":5.40974,"is_reserved":false,"is_disabled":false,"rental_uris":{"android":"levelo://app?vid=a8fc6373-236b-4c06-9d3b-2a6dce076200","ios":"levelo://app?vid=a8fc6373-236b-4c06-9d3b-2a6dce076200"},"vehicle_type_id":"4","last_reported":1739354995,"current_range_meters":11200,"station_id":"ce4bhqh2rcd13ifvqhmg","pricing_plan_id":"cebpf4jnsgd1na2vs0mg"},{"bike_id":"3b223bb0-9a60-42b1-b1a9-6cf049a5235d","system_id":"levelo_inurba_marseille","lat":43.24393,"lon":5.37063,"is_reserved":false,"is_disabled":false,"rental_uris":{"android":"levelo://app?vid=3b223bb0-9a60-42b1-b1a9-6cf049a5235d","ios":"levelo://app?vid=3b223bb0-9a60-42b1-b1a9-6cf049a5235d"},"vehicle_type_id":"4","last_reported":1739354995,"current_range_meters":20000,"station_id":"ce4bhhh2rcd13ifvqfk0","pricing_plan_id":"cebpf4jnsgd1na2vs0mg"},{"bike_id":"fc855d4e-cf92-48ad-b751-57eb2469a89a","system_id":"levelo_inurba_marseille","lat":43.32486,"lon":5.36574,"is_reserved":false,"is_disabled":false,"rental_uris":{"android":"levelo://app?vid=fc855d4e-cf92-48ad-b751-57eb2469a89a","ios":"levelo://app?vid=fc855d4e-cf92-48ad-b751-57eb2469a89a"},"vehicle_type_id":"4","last_reported":1739354995,"current_range_meters":39200,"station_id":"ce4bhs12rcd13ifvqhvg","pricing_plan_id":"cebpf4jnsgd1na2vs0mg"},{"bike_id":"79df8d93-a019-4f4d-ad9b-607d770a7910","system_id":"levelo_inurba_marseille","lat":43.29366,"lon":5.389,"is_reserved":false,"is_disabled":false,"rental_uris":{"android":"levelo://app?vid=79df8d93-a019-4f4d-ad9b-607d770a7910","ios":"levelo://app?vid=79df8d93-a019-4f4d-ad9b-607d770a7910"},"vehicle_type_id":"4","last_reported":1739354995,"current_range_meters":22400,"station_id":"","pricing_plan_id":"cebpf4jnsgd1na2vs0mg"},{"bike_id":"bfe8dbfc-deac-42f0-a3c6-ece7af94ce72","system_id":"levelo_inurba_marseille","lat":43.28814,"lon":5.35247,"is_reserved":false,"is_disabled":false,"rental_uris":{"android":"levelo://app?vid=bfe8dbfc-deac-42f0-a3c6-ece7af94ce72","ios":"levelo://app?vid=bfe8dbfc-deac-42f0-a3c6-ece7af94ce72"},"vehicle_type_id":"4","last_reported":1739354995,"current_range_meters":20400,"station_id":"ce4bhbp2rcd13ifvqerg","pricing_plan_id":"cebpf4jnsgd1na2vs0mg"},{"bike_id":"882fa202-2c43-4bb3-a5b4-49d3d5b6c77c","system_id":"levelo_inurba_marseille","lat":43.30145,"lon":5.37425,"is_reserved":false,"is_disabled":false,"rental_uris":{"android":"levelo://app?vid=882fa202-2c43-4bb3-a5b4-49d3d5b6c77c","ios":"levelo://app?vid=882fa202-2c43-4bb3-a5b4-49d3d5b6c77c"},"vehicle_type_id":"4","last_reported":1739354995,"current_range_meters":38800,"station_id":"ce4bgs92rcd13ifvqcc0","pricing_plan_id":"cebpf4jnsgd1na2vs0mg"},{"bike_id":"5fb6cffe-d471-40bb-98f9-95bdbdd162a4","system_id":"levelo_inurba_marseille","lat":43.25934,"lon":5.40907,"is_reserved":false,"is_disabled":false,"rental_uris":{"android":"levelo://app?vid=5fb6cffe-d471-40bb-98f9-95bdbdd162a4","ios":"levelo://app?vid=5fb6cffe-d471-40bb-98f9-95bdbdd162a4"},"vehicle_type_id":"4","last_reported":1739354995,"current_range_meters":37600,"station_id":"ce4bhm92rcd13ifvqglg","pricing_plan_id":"cebpf4jnsgd1na2vs0mg"},{"bike_id":"9b02ba68-14be-47ff-96d9-441235861991","system_id":"levelo_inurba_marseille","lat":43.30587,"lon":5.36459,"is_reserved":false,"is_disabled":false,"rental_uris":{"android":"levelo://app?vid=9b02ba68-14be-47ff-96d9-441235861991","ios":"levelo://app?vid=9b02ba68-14be-47ff-96d9-441235861991"},"vehicle_type_id":"4","last_reported":1739354995,"current_range_meters":35200,"station_id":"ce4bgs12rcd13ifvqcag","pricing_plan_id":"cebpf4jnsgd1na2vs0mg"},{"bike_id":"8e3d9685-a8bf-4a5d-ba58-02bc4dfd2de6","system_id":"levelo_inurba_marseille","lat":43.24075,"lon":5.37737,"is_reserved":false,"is_disabled":false,"rental_uris":{"android":"levelo://app?vid=8e3d9685-a8bf-4a5d-ba58-02bc4dfd2de6","ios":"levelo://app?vid=8e3d9685-a8bf-4a5d-ba58-02bc4dfd2de6"},"vehicle_type_id":"4","last_reported":1739354995,"current_range_meters":30000,"station_id":"ce4bhnp2rcd13ifvqgvg","pricing_plan_id":"cebpf4jnsgd1na2vs0mg"},{"bike_id":"e44b4e4a-7e11-40a1-b230-49c0fd8deeba","system_id":"levelo_inurba_marseille","lat":43.29522,"lon":5.39025,"is_reserved":false,"is_disabled":true,"rental_uris":{"android":"levelo://app?vid=e44b4e4a-7e11-40a1-b230-49c0fd8deeba","ios":"levelo://app?vid=e44b4e4a-7e11-40a1-b230-49c0fd8deeba"},"vehicle_type_id":"4","last_reported":1739354995,"current_range_meters":1600,"station_id":"ce4bh3p2rcd13ifvqdp0","pricing_plan_id":"cebpf4jnsgd1na2vs0mg"},{"bike_id":"18db5a5b-698f-4b53-a652-998bb2486d1b","system_id":"levelo_inurba_marseille","lat":43.30932,"lon":5.40141,"is_reserved":false,"is_disabled":false,"rental_uris":{"android":"levelo://app?vid=18db5a5b-698f-4b53-a652-998bb2486d1b","ios":"levelo://app?vid=18db5a5b-698f-4b53-a652-998bb2486d1b"},"vehicle_type_id":"4","last_reported":1739354995,"current_range_meters":20800,"station_id":"ce4bgvp2rcd13ifvqct0","pricing_plan_id":"cebpf4jnsgd1na2vs0mg"},{"bike_id":"e74edd37-0ec7-4f56-b77f-e7249fd01314","system_id":"levelo_inurba_marseille","lat":43.3053,"lon":5.36521,"is_reserved":false,"is_disabled":false,"rental_uris":{"android":"levelo://app?vid=e74edd37-0ec7-4f56-b77f-e7249fd01314","ios":"levelo://app?vid=e74edd37-0ec7-4f56-b77f-e7249fd01314"},"vehicle_type_id":"4","last_reported":1739354995,"current_range_meters":38800,"station_id":"ce4bgs12rcd13ifvqcag","pricing_plan_id":"cebpf4jnsgd1na2vs0mg"},{"bike_id":"9e959baa-c12c-421b-ae7e-498336eaac08","system_id":"levelo_inurba_marseille","lat":43.25002,"lon":5.38927,"is_reserved":false,"is_disabled":false,"rental_uris":{"android":"levelo://app?vid=9e959baa-c12c-421b-ae7e-498336eaac08","ios":"levelo://app?vid=9e959baa-c12c-421b-ae7e-498336eaac08"},"vehicle_type_id":"4","last_reported":1739354995,"current_range_meters":30800,"station_id":"ce4bhgp2rcd13ifvqfd0","pricing_plan_id":"cebpf4jnsgd1na2vs0mg"},{"bike_id":"405a9e07-24cf-4e83-8939-072d47df9ac8","system_id":"levelo_inurba_marseille","lat":43.29313,"lon":5.37447,"is_reserved":false,"is_disabled":false,"rental_uris":{"android":"levelo://app?vid=405a9e07-24cf-4e83-8939-072d47df9ac8","ios":"levelo://app?vid=405a9e07-24cf-4e83-8939-072d47df9ac8"},"vehicle_type_id":"4","last_reported":1739354995,"current_range_meters":38800,"station_id":"ce4bgi12rcd13ifvqb70","pricing_plan_id":"cebpf4jnsgd1na2vs0mg"},{"bike_id":"95238438-aee1-472d-8c03-6f5da0f062d1","system_id":"levelo_inurba_marseille","lat":43.31374,"lon":5.36729,"is_reserved":false,"is_disabled":false,"rental_uris":{"android":"levelo://app?vid=95238438-aee1-472d-8c03-6f5da0f062d1","ios":"levelo://app?vid=95238438-aee1-472d-8c03-6f5da0f062d1"},"vehicle_type_id":"4","last_reported":1739354995,"current_range_meters":16800,"station_id":"ce4bgr92rcd13ifvqc6g","pricing_plan_id":"cebpf4jnsgd1na2vs0mg"},{"bike_id":"603dfba2-a4d8-4834-a7b5-1bf786b269d8","system_id":"levelo_inurba_marseille","lat":43.28151,"lon":5.42657,"is_reserved":false,"is_disabled":false,"rental_uris":{"android":"levelo://app?vid=603dfba2-a4d8-4834-a7b5-1bf786b269d8","ios":"levelo://app?vid=603dfba2-a4d8-4834-a7b5-1bf786b269d8"},"vehicle_type_id":"4","last_reported":1739354995,"current_range_meters":16000,"station_id":"ce4bhnh2rcd13ifvqgug","pricing_plan_id":"cebpf4jnsgd1na2vs0mg"},{"bike_id":"b1898baf-b8a9-4a30-b162-de94b403ca66","system_id":"levelo_inurba_marseille","lat":43.30464,"lon":5.37916,"is_reserved":false,"is_disabled":false,"rental_uris":{"android":"levelo://app?vid=b1898baf-b8a9-4a30-b162-de94b403ca66","ios":"levelo://app?vid=b1898baf-b8a9-4a30-b162-de94b403ca66"},"vehicle_type_id":"4","last_reported":1739354995,"current_range_meters":37600,"station_id":"ce4bgup2rcd13ifvqcn0","pricing_plan_id":"cebpf4jnsgd1na2vs0mg"},{"bike_id":"967f043c-6b66-4821-afce-bf4c5054d257","system_id":"levelo_inurba_marseille","lat":43.289215,"lon":5.384044,"is_reserved":false,"is_disabled":false,"rental_uris":{"android":"levelo://app?vid=967f043c-6b66-4821-afce-bf4c5054d257","ios":"levelo://app?vid=967f043c-6b66-4821-afce-bf4c5054d257"},"vehicle_type_id":"4","last_reported":1739354995,"current_range_meters":35600,"station_id":"ce4bh612rcd13ifvqe6g","pricing_plan_id":"cebpf4jnsgd1na2vs0mg"},{"bike_id":"dd7e4e2f-f2db-4c41-9b95-8e20b6da1267","system_id":"levelo_inurba_marseille","lat":43.32478,"lon":5.36584,"is_reserved":false,"is_disabled":false,"rental_uris":{"android":"levelo://app?vid=dd7e4e2f-f2db-4c41-9b95-8e20b6da1267","ios":"levelo://app?vid=dd7e4e2f-f2db-4c41-9b95-8e20b6da1267"},"vehicle_type_id":"4","last_reported":1739354995,"current_range_meters":12800,"station_id":"ce4bhs12rcd13ifvqhvg","pricing_plan_id":"cebpf4jnsgd1na2vs0mg"},{"bike_id":"f9ffd551-ed61-4fbb-95d1-2fa57bfc17b7","system_id":"levelo_inurba_marseille","lat":43.28259,"lon":5.35019,"is_reserved":false,"is_disabled":true,"rental_uris":{"android":"levelo://app?vid=f9ffd551-ed61-4fbb-95d1-2fa57bfc17b7","ios":"levelo://app?vid=f9ffd551-ed61-4fbb-95d1-2fa57bfc17b7"},"vehicle_type_id":"4","last_reported":1739354995,"current_range_meters":400,"station_id":"ce4bhbp2rcd13ifvqerg","pricing_plan_id":"cebpf4jnsgd1na2vs0mg"},{"bike_id":"d06b3b54-dc24-493e-97db-e54b37ab5416","system_id":"levelo_inurba_marseille","lat":43.30538,"lon":5.36553,"is_reserved":false,"is_disabled":false,"rental_uris":{"android":"levelo://app?vid=d06b3b54-dc24-493e-97db-e54b37ab5416","ios":"levelo://app?vid=d06b3b54-dc24-493e-97db-e54b37ab5416"},"vehicle_type_id":"4","last_reported":1739354995,"current_range_meters":27200,"station_id":"ce4bgs12rcd13ifvqcag","pricing_plan_id":"cebpf4jnsgd1na2vs0mg"},{"bike_id":"1de37379-642b-44a3-bf7f-1616d16816ec","system_id":"levelo_inurba_marseille","lat":43.30151,"lon":5.37423,"is_reserved":false,"is_disabled":false,"rental_uris":{"android":"levelo://app?vid=1de37379-642b-44a3-bf7f-1616d16816ec","ios":"levelo://app?vid=1de37379-642b-44a3-bf7f-1616d16816ec"},"vehicle_type_id":"4","last_reported":1739354995,"current_range_meters":34000,"station_id":"ce4bgs92rcd13ifvqcc0","pricing_plan_id":"cebpf4jnsgd1na2vs0mg"},{"bike_id":"b925b025-d8f3-4d58-876a-b73fa4cb1d77","system_id":"levelo_inurba_marseille","lat":43.29033,"lon":5.39955,"is_reserved":false,"is_disabled":false,"rental_uris":{"android":"levelo://app?vid=b925b025-d8f3-4d58-876a-b73fa4cb1d77","ios":"levelo://app?vid=b925b025-d8f3-4d58-876a-b73fa4cb1d77"},"vehicle_type_id":"4","last_reported":1739354995,"current_range_meters":38800,"station_id":"ce4bh392rcd13ifvqdm0","pricing_plan_id":"cebpf4jnsgd1na2vs0mg"},{"bike_id":"85a33505-e276-41a1-932c-9f38c75ca97a","system_id":"levelo_inurba_marseille","lat":43.30549,"lon":5.36537,"is_reserved":false,"is_disabled":false,"rental_uris":{"android":"levelo://app?vid=85a33505-e276-41a1-932c-9f38c75ca97a","ios":"levelo://app?vid=85a33505-e276-41a1-932c-9f38c75ca97a"},"vehicle_type_id":"4","last_reported":1739354995,"current_range_meters":25600,"station_id":"ce4bgs12rcd13ifvqcag","pricing_plan_id":"cebpf4jnsgd1na2vs0mg"},{"bike_id":"15ee7139-10dc-4fac-a480-f569a3ba5357","system_id":"levelo_inurba_marseille","lat":43.3014,"lon":5.3811,"is_reserved":false,"is_disabled":false,"rental_uris":{"android":"levelo://app?vid=15ee7139-10dc-4fac-a480-f569a3ba5357","ios":"levelo://app?vid=15ee7139-10dc-4fac-a480-f569a3ba5357"},"vehicle_type_id":"4","last_reported":1739354995,"current_range_meters":38400,"station_id":"ce4bgjp2rcd13ifvqbh0","pricing_plan_id":"cebpf4jnsgd1na2vs0mg"},{"bike_id":"1edf3320-ba59-41aa-a263-d02a7a94a648","system_id":"levelo_inurba_marseille","lat":43.29879,"lon":5.38911,"is_reserved":false,"is_disabled":false,"rental_uris":{"android":"levelo://app?vid=1edf3320-ba59-41aa-a263-d02a7a94a648","ios":"levelo://app?vid=1edf3320-ba59-41aa-a263-d02a7a94a648"},"vehicle_type_id":"4","last_reported":1739354995,"current_range_meters":27200,"station_id":"ce4bh392rcd13ifvqdl0","pricing_plan_id":"cebpf4jnsgd1na2vs0mg"},{"bike_id":"ab909ba3-48d2-452b-b4b4-0bfd6be14168","system_id":"levelo_inurba_marseille","lat":43.33603,"lon":5.41007,"is_reserved":false,"is_disabled":false,"rental_uris":{"android":"levelo://app?vid=ab909ba3-48d2-452b-b4b4-0bfd6be14168","ios":"levelo://app?vid=ab909ba3-48d2-452b-b4b4-0bfd6be14168"},"vehicle_type_id":"4","last_reported":1739354995,"current_range_meters":38800,"station_id":"ce4bhqh2rcd13ifvqhmg","pricing_plan_id":"cebpf4jnsgd1na2vs0mg"},{"bike_id":"beac2093-e3f1-4a43-875b-f5700b6484b8","system_id":"levelo_inurba_marseille","lat":43.32542,"lon":5.41429,"is_reserved":false,"is_disabled":false,"rental_uris":{"android":"levelo://app?vid=beac2093-e3f1-4a43-875b-f5700b6484b8","ios":"levelo://app?vid=beac2093-e3f1-4a43-875b-f5700b6484b8"},"vehicle_type_id":"4","last_reported":1739354995,"current_range_meters":22400,"station_id":"ce4bhq12rcd13ifvqhhg","pricing_plan_id":"cebpf4jnsgd1na2vs0mg"},{"bike_id":"0fb30756-cd50-4cd1-ba06-1ebd026d9274","system_id":"levelo_inurba_marseille","lat":43.2501,"lon":5.38925,"is_reserved":false,"is_disabled":false,"rental_uris":{"android":"levelo://app?vid=0fb30756-cd50-4cd1-ba06-1ebd026d9274","ios":"levelo://app?vid=0fb30756-cd50-4cd1-ba06-1ebd026d9274"},"vehicle_type_id":"4","last_reported":1739354995,"current_range_meters":27600,"station_id":"ce4bhgp2rcd13ifvqfd0","pricing_plan_id":"cebpf4jnsgd1na2vs0mg"},{"bike_id":"f6a01dd3-0c92-4228-98cb-74142eb8f706","system_id":"levelo_inurba_marseille","lat":43.31218,"lon":5.36883,"is_reserved":false,"is_disabled":false,"rental_uris":{"android":"levelo://app?vid=f6a01dd3-0c92-4228-98cb-74142eb8f706","ios":"levelo://app?vid=f6a01dd3-0c92-4228-98cb-74142eb8f706"},"vehicle_type_id":"4","last_reported":1739354995,"current_range_meters":39200,"station_id":"ce4bgl92rcd13ifvqbq0","pricing_plan_id":"cebpf4jnsgd1na2vs0mg"},{"bike_id":"f4c18ff0-a8be-4a84-a667-7378f84516ed","system_id":"levelo_inurba_marseille","lat":43.23147,"lon":5.4373,"is_reserved":false,"is_disabled":false,"rental_uris":{"android":"levelo://app?vid=f4c18ff0-a8be-4a84-a667-7378f84516ed","ios":"levelo://app?vid=f4c18ff0-a8be-4a84-a667-7378f84516ed"},"vehicle_type_id":"4","last_reported":1739354995,"current_range_meters":30000,"station_id":"ce4bhmp2rcd13ifvqgog","pricing_plan_id":"cebpf4jnsgd1na2vs0mg"},{"bike_id":"b0f70249-6360-4dc3-a83a-fd73a6b534c8","system_id":"levelo_inurba_marseille","lat":43.321546,"lon":5.384511,"is_reserved":false,"is_disabled":false,"rental_uris":{"android":"levelo://app?vid=b0f70249-6360-4dc3-a83a-fd73a6b534c8","ios":"levelo://app?vid=b0f70249-6360-4dc3-a83a-fd73a6b534c8"},"vehicle_type_id":"4","last_reported":1739354995,"current_range_meters":34000,"station_id":"","pricing_plan_id":"cebpf4jnsgd1na2vs0mg"},{"bike_id":"54ce597b-1ca1-4d62-923d-d4b29eec04b3","system_id":"levelo_inurba_marseille","lat":43.31131,"lon":5.38261,"is_reserved":false,"is_disabled":false,"rental_uris":{"android":"levelo://app?vid=54ce597b-1ca1-4d62-923d-d4b29eec04b3","ios":"levelo://app?vid=54ce597b-1ca1-4d62-923d-d4b29eec04b3"},"vehicle_type_id":"4","last_reported":1739354995,"current_range_meters":16000,"station_id":"","pricing_plan_id":"cebpf4jnsgd1na2vs0mg"},{"bike_id":"b4765ae2-b7fb-4718-bf68-ce7ba2c817f9","system_id":"levelo_inurba_marseille","lat":43.27076,"lon":5.42262,"is_reserved":false,"is_disabled":false,"rental_uris":{"android":"levelo://app?vid=b4765ae2-b7fb-4718-bf68-ce7ba2c817f9","ios":"levelo://app?vid=b4765ae2-b7fb-4718-bf68-ce7ba2c817f9"},"vehicle_type_id":"4","last_reported":1739354995,"current_range_meters":18800,"station_id":"ce4bhk92rcd13ifvqgb0","pricing_plan_id":"cebpf4jnsgd1na2vs0mg"},{"bike_id":"3ab15547-1531-4de3-8b36-d6db588c4bfa","system_id":"levelo_inurba_marseille","lat":43.31286,"lon":5.36812,"is_reserved":false,"is_disabled":false,"rental_uris":{"android":"levelo://app?vid=3ab15547-1531-4de3-8b36-d6db588c4bfa","ios":"levelo://app?vid=3ab15547-1531-4de3-8b36-d6db588c4bfa"},"vehicle_type_id":"4","last_reported":1739354995,"current_range_meters":16400,"station_id":"ce4bgl92rcd13ifvqbq0","pricing_plan_id":"cebpf4jnsgd1na2vs0mg"},{"bike_id":"ef21d2aa-e17b-4739-a1c8-6fbc2e9df327","system_id":"levelo_inurba_marseille","lat":43.25025,"lon":5.38938,"is_reserved":false,"is_disabled":false,"rental_uris":{"android":"levelo://app?vid=ef21d2aa-e17b-4739-a1c8-6fbc2e9df327","ios":"levelo://app?vid=ef21d2aa-e17b-4739-a1c8-6fbc2e9df327"},"vehicle_type_id":"4","last_reported":1739354995,"current_range_meters":32400,"station_id":"ce4bhgp2rcd13ifvqfd0","pricing_plan_id":"cebpf4jnsgd1na2vs0mg"},{"bike_id":"b2bb2d68-e730-4f65-8eef-5b22ceeb4bc7","system_id":"levelo_inurba_marseille","lat":43.2938,"lon":5.37865,"is_reserved":false,"is_disabled":false,"rental_uris":{"android":"levelo://app?vid=b2bb2d68-e730-4f65-8eef-5b22ceeb4bc7","ios":"levelo://app?vid=b2bb2d68-e730-4f65-8eef-5b22ceeb4bc7"},"vehicle_type_id":"4","last_reported":1739354995,"current_range_meters":14800,"station_id":"ce4bgjh2rcd13ifvqbf0","pricing_plan_id":"cebpf4jnsgd1na2vs0mg"},{"bike_id":"e09e0c1a-4e03-41a6-8f38-cffd074b465f","system_id":"levelo_inurba_marseille","lat":43.23065,"lon":5.35489,"is_reserved":false,"is_disabled":false,"rental_uris":{"android":"levelo://app?vid=e09e0c1a-4e03-41a6-8f38-cffd074b465f","ios":"levelo://app?vid=e09e0c1a-4e03-41a6-8f38-cffd074b465f"},"vehicle_type_id":"4","last_reported":1739354995,"current_range_meters":13600,"station_id":"cpo3342slgdg3j2ifvpg","pricing_plan_id":"cebpf4jnsgd1na2vs0mg"},{"bike_id":"d3c04f09-c0eb-4fd0-9120-c3759954cbd0","system_id":"levelo_inurba_marseille","lat":43.30548,"lon":5.36531,"is_reserved":false,"is_disabled":false,"rental_uris":{"android":"levelo://app?vid=d3c04f09-c0eb-4fd0-9120-c3759954cbd0","ios":"levelo://app?vid=d3c04f09-c0eb-4fd0-9120-c3759954cbd0"},"vehicle_type_id":"4","last_reported":1739354995,"current_range_meters":30000,"station_id":"ce4bgs12rcd13ifvqcag","pricing_plan_id":"cebpf4jnsgd1na2vs0mg"},{"bike_id":"4985f4e8-357c-45d1-92f1-5e51b059536f","system_id":"levelo_inurba_marseille","lat":43.30552,"lon":5.36532,"is_reserved":false,"is_disabled":false,"rental_uris":{"android":"levelo://app?vid=4985f4e8-357c-45d1-92f1-5e51b059536f","ios":"levelo://app?vid=4985f4e8-357c-45d1-92f1-5e51b059536f"},"vehicle_type_id":"4","last_reported":1739354995,"current_range_meters":11200,"station_id":"ce4bgs12rcd13ifvqcag","pricing_plan_id":"cebpf4jnsgd1na2vs0mg"},{"bike_id":"1816de7e-d993-47e9-af2b-6ccea723f2c8","system_id":"levelo_inurba_marseille","lat":43.309496,"lon":5.390394,"is_reserved":false,"is_disabled":false,"rental_uris":{"android":"levelo://app?vid=1816de7e-d993-47e9-af2b-6ccea723f2c8","ios":"levelo://app?vid=1816de7e-d993-47e9-af2b-6ccea723f2c8"},"vehicle_type_id":"4","last_reported":1739354995,"current_range_meters":30800,"station_id":"ce4bgup2rcd13ifvqco0","pricing_plan_id":"cebpf4jnsgd1na2vs0mg"},{"bike_id":"08731048-5747-4279-9516-b0bfffdb9156","system_id":"levelo_inurba_marseille","lat":43.28382,"lon":5.38641,"is_reserved":false,"is_disabled":false,"rental_uris":{"android":"levelo://app?vid=08731048-5747-4279-9516-b0bfffdb9156","ios":"levelo://app?vid=08731048-5747-4279-9516-b0bfffdb9156"},"vehicle_type_id":"4","last_reported":1739354995,"current_range_meters":12000,"station_id":"ce4bh492rcd13ifvqdvg","pricing_plan_id":"cebpf4jnsgd1na2vs0mg"},{"bike_id":"58a923a1-50e5-4bcc-a5c7-59fd5ea18680","system_id":"levelo_inurba_marseille","lat":43.23155,"lon":5.43707,"is_reserved":false,"is_disabled":false,"rental_uris":{"android":"levelo://app?vid=58a923a1-50e5-4bcc-a5c7-59fd5ea18680","ios":"levelo://app?vid=58a923a1-50e5-4bcc-a5c7-59fd5ea18680"},"vehicle_type_id":"4","last_reported":1739354995,"current_range_meters":20400,"station_id":"ce4bhmp2rcd13ifvqgog","pricing_plan_id":"cebpf4jnsgd1na2vs0mg"},{"bike_id":"e9bd3df1-2ba5-4a9c-8114-dea03103e535","system_id":"levelo_inurba_marseille","lat":43.28609,"lon":5.35107,"is_reserved":false,"is_disabled":true,"rental_uris":{"android":"levelo://app?vid=e9bd3df1-2ba5-4a9c-8114-dea03103e535","ios":"levelo://app?vid=e9bd3df1-2ba5-4a9c-8114-dea03103e535"},"vehicle_type_id":"4","last_reported":1739354995,"current_range_meters":36800,"station_id":"ce4bhch2rcd13ifvqeug","pricing_plan_id":"cebpf4jnsgd1na2vs0mg"},{"bike_id":"41d481fb-c42d-445d-b7cb-18014a25f913","system_id":"levelo_inurba_marseille","lat":43.28717,"lon":5.37942,"is_reserved":false,"is_disabled":false,"rental_uris":{"android":"levelo://app?vid=41d481fb-c42d-445d-b7cb-18014a25f913","ios":"levelo://app?vid=41d481fb-c42d-445d-b7cb-18014a25f913"},"vehicle_type_id":"4","last_reported":1739354995,"current_range_meters":26800,"station_id":"ce4bh9p2rcd13ifvqec0","pricing_plan_id":"cebpf4jnsgd1na2vs0mg"},{"bike_id":"940d887f-9bb7-44e7-beb7-08f120e6be1e","system_id":"levelo_inurba_marseille","lat":43.29767,"lon":5.39352,"is_reserved":false,"is_disabled":false,"rental_uris":{"android":"levelo://app?vid=940d887f-9bb7-44e7-beb7-08f120e6be1e","ios":"levelo://app?vid=940d887f-9bb7-44e7-beb7-08f120e6be1e"},"vehicle_type_id":"4","last_reported":1739354995,"current_range_meters":32400,"station_id":"chh1huq6cuj3fo74tm60","pricing_plan_id":"cebpf4jnsgd1na2vs0mg"},{"bike_id":"1596fe0e-3ecd-422f-a601-982fb29d900f","system_id":"levelo_inurba_marseille","lat":43.30141,"lon":5.39847,"is_reserved":false,"is_disabled":false,"rental_uris":{"android":"levelo://app?vid=1596fe0e-3ecd-422f-a601-982fb29d900f","ios":"levelo://app?vid=1596fe0e-3ecd-422f-a601-982fb29d900f"},"vehicle_type_id":"4","last_reported":1739354995,"current_range_meters":14400,"station_id":"ce4bh0h2rcd13ifvqd40","pricing_plan_id":"cebpf4jnsgd1na2vs0mg"},