{"last_updated":1723921606,"ttl":30,"version":"2.2","data":{"bikes":[{"bike_id":"86d6714b-cf7b-4257-b8b1-8bb4758a1a6e","system_id":"levelo_inurba_marseille","lat":43.312239,"lon":5.368562,"is_reserved":false,"is_disabled":false,"rental_uris":{"android":"levelo://app?vid=86d6714b-cf7b-4257-b8b1-8bb4758a1a6e","ios":"levelo://app?vid=86d6714b-cf7b-4257-b8b1-8bb4758a1a6e"},"vehicle_type_id":"4","last_reported":1723921606,"current_range_meters":30000,"station_id":"ce4bgl92rcd13ifvqbq0","pricing_plan_id":"cebpf4jnsgd1na2vs0mg"},{"bike_id":"851fdc63-c9de-4c81-b698-fab1c5741bcd","system_id":"levelo_inurba_marseille","lat":43.309076,"lon":5.368465,"is_reserved":false,"is_disabled":false,"rental_uris":{"android":"levelo://app?vid=851fdc63-c9de-4c81-b698-fab1c5741bcd","ios":"levelo://app?vid=851fdc63-c9de-4c81-b698-fab1c5741bcd"},"vehicle_type_id":"4","last_reported":1723921606,"current_range_meters":19600,"station_id":"ce4bgn92rcd13ifvqbvg","pricing_plan_id":"cebpf4jnsgd1na2vs0mg"},{"bike_id":"91abe9f9-5104-4683-9b69-aed2757e1785","system_id":"levelo_inurba_marseille","lat":43.309076,"lon":5.368465,"is_reserved":false,"is_disabled":false,"rental_uris":{"android":"levelo://app?vid=91abe9f9-5104-4683-9b69-aed2757e1785","ios":"levelo://app?vid=91abe9f9-5104-4683-9b69-aed2757e1785"},"vehicle_type_id":"4","last_reported":1723921606,"current_range_meters":5200,"station_id":"ce4bgn92rcd13ifvqbvg","pricing_plan_id":"cebpf4jnsgd1na2vs0mg"},{"bike_id":"9e9d5cdd-53f3-4e99-918b-445f7a38007f","system_id":"levelo_inurba_marseille","lat":43.309076,"lon":5.368465,"is_reserved":false,"is_disabled":false,"rental_uris":{"android":"levelo://app?vid=9e9d5cdd-53f3-4e99-918b-445f7a38007f","ios":"levelo://app?vid=9e9d5cdd-53f3-4e99-918b-445f7a38007f"},"vehicle_type_id":"4","last_reported":1723921606,"current_range_meters":18400,"station_id":"ce4bgn92rcd13ifvqbvg","pricing_plan_id":"cebpf4jnsgd1na2vs0mg"},{"bike_id":"219c2f4b-c115-4c7b-9592-afd4f5f975f5","system_id":"levelo_inurba_marseille","lat":43.31485,"lon":5.37303,"is_reserved":false,"is_disabled":false,"rental_uris":{"android":"levelo://app?vid=219c2f4b-c115-4c7b-9592-afd4f5f975f5","ios":"levelo://app?vid=219c2f4b-c115-4c7b-9592-afd4f5f975f5"},"vehicle_type_id":"4","last_reported":1723921606,"current_range_meters":30800,"station_id":"","pricing_plan_id":"cebpf4jnsgd1na2vs0mg"},{"bike_id":"78fb997f-10ba-435d-a33f-a6c0f11ff030","system_id":"levelo_inurba_marseille","lat":43.314811,"lon":5.373104,"is_reserved":false,"is_disabled":false,"rental_uris":{"android":"levelo://app?vid=78fb997f-10ba-435d-a33f-a6c0f11ff030","ios":"levelo://app?vid=78fb997f-10ba-435d-a33f-a6c0f11ff030"},"vehicle_type_id":"4","last_reported":1723921606,"current_range_meters":30000,"station_id":"ce4bgt12rcd13ifvqcd0","pricing_plan_id":"cebpf4jnsgd1na2vs0mg"},{"bike_id":"d8cca32a-dbbf-4ece-86c7-15774833e029","system_id":"levelo_inurba_marseille","lat":43.31497,"lon":5.37313,"is_reserved":false,"is_disabled":false,"rental_uris":{"android":"levelo://app?vid=d8cca32a-dbbf-4ece-86c7-15774833e029","ios":"levelo://app?vid=d8cca32a-dbbf-4ece-86c7-15774833e029"},"vehicle_type_id":"4","last_reported":1723921606,"current_range_meters":0,"station_id":"ce4bgt12rcd13ifvqcd0","pricing_plan_id":"cebpf4jnsgd1na2vs0mg"},{"bike_id":"6bdce828-81c5-4c93-847a-5b4e9104c4da","system_id":"levelo_inurba_marseille","lat":43.314811,"lon":5.373103,"is_reserved":false,"is_disabled":false,"rental_uris":{"android":"levelo://app?vid=6bdce828-81c5-4c93-847a-5b4e9104c4da","ios":"levelo://app?vid=6bdce828-81c5-4c93-847a-5b4e9104c4da"},"vehicle_type_id":"4","last_reported":1723921606,"current_range_meters":25200,"station_id":"ce4bgt12rcd13ifvqcd0","pricing_plan_id":"cebpf4jnsgd1na2vs0mg"},{"bike_id":"5fbee827-3eaa-4528-ba40-a290233c76ff","system_id":"levelo_inurba_marseille","lat":43.309039,"lon":5.371797,"is_reserved":false,"is_disabled":false,"rental_uris":{"android":"levelo://app?vid=5fbee827-3eaa-4528-ba40-a290233c76ff","ios":"levelo://app?vid=5fbee827-3eaa-4528-ba40-a290233c76ff"},"vehicle_type_id":"4","last_reported":1723921606,"current_range_meters":6000,"station_id":"ce4bguh2rcd13ifvqckg","pricing_plan_id":"cebpf4jnsgd1na2vs0mg"},{"bike_id":"a316fc6b-01cb-49d4-98f3-1a0aa7f0b9ed","system_id":"levelo_inurba_marseille","lat":43.299243,"lon":5.374807,"is_reserved":false,"is_disabled":false,"rental_uris":{"android":"levelo://app?vid=a316fc6b-01cb-49d4-98f3-1a0aa7f0b9ed","ios":"levelo://app?vid=a316fc6b-01cb-49d4-98f3-1a0aa7f0b9ed"},"vehicle_type_id":"4","last_reported":1723921606,"current_range_meters":14400,"station_id":"ce4bgjh2rcd13ifvqbg0","pricing_plan_id":"cebpf4jnsgd1na2vs0mg"},{"bike_id":"f4bb82aa-3d7e-4385-85c7-5b03e7cceb50","system_id":"levelo_inurba_marseille","lat":43.31447,"lon":5.37381,"is_reserved":false,"is_disabled":false,"rental_uris":{"android":"levelo://app?vid=f4bb82aa-3d7e-4385-85c7-5b03e7cceb50","ios":"levelo://app?vid=f4bb82aa-3d7e-4385-85c7-5b03e7cceb50"},"vehicle_type_id":"4","last_reported":1723921606,"current_range_meters":4800,"station_id":"","pricing_plan_id":"cebpf4jnsgd1na2vs0mg"},{"bike_id":"d435797b-9f40-4388-83db-a8ee449899cc","system_id":"levelo_inurba_marseille","lat":43.309039,"lon":5.371797,"is_reserved":false,"is_disabled":false,"rental_uris":{"android":"levelo://app?vid=d435797b-9f40-4388-83db-a8ee449899cc","ios":"levelo://app?vid=d435797b-9f40-4388-83db-a8ee449899cc"},"vehicle_type_id":"4","last_reported":1723921606,"current_range_meters":23200,"station_id":"ce4bguh2rcd13ifvqckg","pricing_plan_id":"cebpf4jnsgd1na2vs0mg"},{"bike_id":"cb0e08a8-39d9-4ff1-84b3-b130c82398cb","system_id":"levelo_inurba_marseille","lat":43.305714,"lon":5.365633,"is_reserved":false,"is_disabled":false,"rental_uris":{"android":"levelo://app?vid=cb0e08a8-39d9-4ff1-84b3-b130c82398cb","ios":"levelo://app?vid=cb0e08a8-39d9-4ff1-84b3-b130c82398cb"},"vehicle_type_id":"4","last_reported":1723921606,"current_range_meters":12000,"station_id":"ce4bgs12rcd13ifvqcag","pricing_plan_id":"cebpf4jnsgd1na2vs0mg"},{"bike_id":"a56f1a06-dc5a-4ed7-98d2-89f333e08f29","system_id":"levelo_inurba_marseille","lat":43.305714,"lon":5.365633,"is_reserved":false,"is_disabled":false,"rental_uris":{"android":"levelo://app?vid=a56f1a06-dc5a-4ed7-98d2-89f333e08f29","ios":"levelo://app?vid=a56f1a06-dc5a-4ed7-98d2-89f333e08f29"},"vehicle_type_id":"4","last_reported":1723921606,"current_range_meters":21600,"station_id":"ce4bgs12rcd13ifvqcag","pricing_plan_id":"cebpf4jnsgd1na2vs0mg"},{"bike_id":"ffff3e92-71eb-4829-8150-16b0d50892b7","system_id":"levelo_inurba_marseille","lat":43.305712,"lon":5.365641,"is_reserved":false,"is_disabled":false,"rental_uris":{"android":"levelo://app?vid=ffff3e92-71eb-4829-8150-16b0d50892b7","ios":"levelo://app?vid=ffff3e92-71eb-4829-8150-16b0d50892b7"},"vehicle_type_id":"4","last_reported":1723921606,"current_range_meters":6400,"station_id":"ce4bgs12rcd13ifvqcag","pricing_plan_id":"cebpf4jnsgd1na2vs0mg"},{"bike_id":"af768ece-0225-4d8b-bed5-7254520302a2","system_id":"levelo_inurba_marseille","lat":43.3061,"lon":5.372307,"is_reserved":false,"is_disabled":false,"rental_uris":{"android":"levelo://app?vid=af768ece-0225-4d8b-bed5-7254520302a2","ios":"levelo://app?vid=af768ece-0225-4d8b-bed5-7254520302a2"},"vehicle_type_id":"4","last_reported":1723921606,"current_range_meters":0,"station_id":"ce4bgqh2rcd13ifvqc4g","pricing_plan_id":"cebpf4jnsgd1na2vs0mg"},{"bike_id":"a01999b1-3135-45c7-a302-992527b669c4","system_id":"levelo_inurba_marseille","lat":43.31282,"lon":5.37783,"is_reserved":false,"is_disabled":false,"rental_uris":{"android":"levelo://app?vid=a01999b1-3135-45c7-a302-992527b669c4","ios":"levelo://app?vid=a01999b1-3135-45c7-a302-992527b669c4"},"vehicle_type_id":"4","last_reported":1723921606,"current_range_meters":7200,"station_id":"","pricing_plan_id":"cebpf4jnsgd1na2vs0mg"},{"bike_id":"7c70a21a-4eee-4004-85d9-c925849e1391","system_id":"levelo_inurba_marseille","lat":43.3112,"lon":5.37767,"is_reserved":false,"is_disabled":false,"rental_uris":{"android":"levelo://app?vid=7c70a21a-4eee-4004-85d9-c925849e1391","ios":"levelo://app?vid=7c70a21a-4eee-4004-85d9-c925849e1391"},"vehicle_type_id":"4","last_reported":1723921606,"current_range_meters":4000,"station_id":"ce4bgt92rcd13ifvqcg0","pricing_plan_id":"cebpf4jnsgd1na2vs0mg"},{"bike_id":"ed6625e9-892d-4e79-838b-7b246c962c62","system_id":"levelo_inurba_marseille","lat":43.31125,"lon":5.37769,"is_reserved":false,"is_disabled":false,"rental_uris":{"android":"levelo://app?vid=ed6625e9-892d-4e79-838b-7b246c962c62","ios":"levelo://app?vid=ed6625e9-892d-4e79-838b-7b246c962c62"},"vehicle_type_id":"4","last_reported":1723921606,"current_range_meters":8800,"station_id":"ce4bgt92rcd13ifvqcg0","pricing_plan_id":"cebpf4jnsgd1na2vs0mg"},{"bike_id":"601014ec-79ec-4338-bcd9-92800715e72e","system_id":"levelo_inurba_marseille","lat":43.302784,"lon":5.377158,"is_reserved":false,"is_disabled":false,"rental_uris":{"android":"levelo://app?vid=601014ec-79ec-4338-bcd9-92800715e72e","ios":"levelo://app?vid=601014ec-79ec-4338-bcd9-92800715e72e"},"vehicle_type_id":"4","last_reported":1723921606,"current_range_meters":28400,"station_id":"ce4bguh2rcd13ifvqcj0","pricing_plan_id":"cebpf4jnsgd1na2vs0mg"},{"bike_id":"d72d3c50-1b83-4590-b49f-52879c7eb89f","system_id":"levelo_inurba_marseille","lat":43.31119,"lon":5.37771,"is_reserved":false,"is_disabled":false,"rental_uris":{"android":"levelo://app?vid=d72d3c50-1b83-4590-b49f-52879c7eb89f","ios":"levelo://app?vid=d72d3c50-1b83-4590-b49f-52879c7eb89f"},"vehicle_type_id":"4","last_reported":1723921606,"current_range_meters":800,"station_id":"ce4bgt92rcd13ifvqcg0","pricing_plan_id":"cebpf4jnsgd1na2vs0mg"},{"bike_id":"395a7e44-095e-419c-8cd1-26e635e1c5de","system_id":"levelo_inurba_marseille","lat":43.311207,"lon":5.377717,"is_reserved":false,"is_disabled":false,"rental_uris":{"android":"levelo://app?vid=395a7e44-095e-419c-8cd1-26e635e1c5de","ios":"levelo://app?vid=395a7e44-095e-419c-8cd1-26e635e1c5de"},"vehicle_type_id":"4","last_reported":1723921606,"current_range_meters":21600,"station_id":"ce4bgt92rcd13ifvqcg0","pricing_plan_id":"cebpf4jnsgd1na2vs0mg"},{"bike_id":"cbf3f84a-0d90-4a28-a50b-d7c610839d56","system_id":"levelo_inurba_marseille","lat":43.307945,"lon":5.376487,"is_reserved":false,"is_disabled":false,"rental_uris":{"android":"levelo://app?vid=cbf3f84a-0d90-4a28-a50b-d7c610839d56","ios":"levelo://app?vid=cbf3f84a-0d90-4a28-a50b-d7c610839d56"},"vehicle_type_id":"4","last_reported":1723921606,"current_range_meters":6000,"station_id":"ce4bgv92rcd13ifvqcq0","pricing_plan_id":"cebpf4jnsgd1na2vs0mg"},{"bike_id":"214618c4-3a4a-4915-85a2-d890ad72c655","system_id":"levelo_inurba_marseille","lat":43.317075,"lon":5.377367,"is_reserved":false,"is_disabled":false,"rental_uris":{"android":"levelo://app?vid=214618c4-3a4a-4915-85a2-d890ad72c655","ios":"levelo://app?vid=214618c4-3a4a-4915-85a2-d890ad72c655"},"vehicle_type_id":"4","last_reported":1723921606,"current_range_meters":22800,"station_id":"ce4bgth2rcd13ifvqch0","pricing_plan_id":"cebpf4jnsgd1na2vs0mg"},{"bike_id":"b75d0712-5398-4439-ba44-95d722979686","system_id":"levelo_inurba_marseille","lat":43.31703,"lon":5.37756,"is_reserved":false,"is_disabled":false,"rental_uris":{"android":"levelo://app?vid=b75d0712-5398-4439-ba44-95d722979686","ios":"levelo://app?vid=b75d0712-5398-4439-ba44-95d722979686"},"vehicle_type_id":"4","last_reported":1723921606,"current_range_meters":3600,"station_id":"ce4bgth2rcd13ifvqch0","pricing_plan_id":"cebpf4jnsgd1na2vs0mg"},{"bike_id":"49e3ca00-9ae6-4a9a-baaa-c0376b4a6e99","system_id":"levelo_inurba_marseille","lat":43.311906,"lon":5.379069,"is_reserved":false,"is_disabled":false,"rental_uris":{"android":"levelo://app?vid=49e3ca00-9ae6-4a9a-baaa-c0376b4a6e99","ios":"levelo://app?vid=49e3ca00-9ae6-4a9a-baaa-c0376b4a6e99"},"vehicle_type_id":"4","last_reported":1723921606,"current_range_meters":4000,"station_id":"ce4bgt92rcd13ifvqcg0","pricing_plan_id":"cebpf4jnsgd1na2vs0mg"},{"bike_id":"6f3b0fff-03c6-4bf2-bf94-008f2d7ba3a4","system_id":"levelo_inurba_marseille","lat":43.3137,"lon":5.3792,"is_reserved":false,"is_disabled":false,"rental_uris":{"android":"levelo://app?vid=6f3b0fff-03c6-4bf2-bf94-008f2d7ba3a4","ios":"levelo://app?vid=6f3b0fff-03c6-4bf2-bf94-008f2d7ba3a4"},"vehicle_type_id":"4","last_reported":1723921606,"current_range_meters":2000,"station_id":"","pricing_plan_id":"cebpf4jnsgd1na2vs0mg"},{"bike_id":"89d9fd63-d699-4577-9549-2970db2911f3","system_id":"levelo_inurba_marseille","lat":43.315289,"lon":5.380349,"is_reserved":false,"is_disabled":false,"rental_uris":{"android":"levelo://app?vid=89d9fd63-d699-4577-9549-2970db2911f3","ios":"levelo://app?vid=89d9fd63-d699-4577-9549-2970db2911f3"},"vehicle_type_id":"4","last_reported":1723921606,"current_range_meters":20400,"station_id":"ce4bhsp2rcd13ifvqi50","pricing_plan_id":"cebpf4jnsgd1na2vs0mg"},{"bike_id":"2f07d4c8-d6d5-4b5e-a32e-a74bf194352c","system_id":"levelo_inurba_marseille","lat":43.315289,"lon":5.380349,"is_reserved":false,"is_disabled":false,"rental_uris":{"android":"levelo://app?vid=2f07d4c8-d6d5-4b5e-a32e-a74bf194352c","ios":"levelo://app?vid=2f07d4c8-d6d5-4b5e-a32e-a74bf194352c"},"vehicle_type_id":"4","last_reported":1723921606,"current_range_meters":20800,"station_id":"ce4bhsp2rcd13ifvqi50","pricing_plan_id":"cebpf4jnsgd1na2vs0mg"},{"bike_id":"46b94668-613d-44a5-a4e1-85c25b1b928c","system_id":"levelo_inurba_marseille","lat":43.315289,"lon":5.380349,"is_reserved":false,"is_disabled":false,"rental_uris":{"android":"levelo://app?vid=46b94668-613d-44a5-a4e1-85c25b1b928c","ios":"levelo://app?vid=46b94668-613d-44a5-a4e1-85c25b1b928c"},"vehicle_type_id":"4","last_reported":1723921606,"current_range_meters":28000,"station_id":"ce4bhsp2rcd13ifvqi50","pricing_plan_id":"cebpf4jnsgd1na2vs0mg"},{"bike_id":"3ecaacc4-a174-454a-87ee-66ae2927f762","system_id":"levelo_inurba_marseille","lat":43.3141,"lon":5.38082,"is_reserved":false,"is_disabled":false,"rental_uris":{"android":"levelo://app?vid=3ecaacc4-a174-454a-87ee-66ae2927f762","ios":"levelo://app?vid=3ecaacc4-a174-454a-87ee-66ae2927f762"},"vehicle_type_id":"4","last_reported":1723921606,"current_range_meters":800,"station_id":"","pricing_plan_id":"cebpf4jnsgd1na2vs0mg"},{"bike_id":"6525aa52-816a-4c8e-ad78-f32505ccdfba","system_id":"levelo_inurba_marseille","lat":43.31022,"lon":5.38065,"is_reserved":false,"is_disabled":false,"rental_uris":{"android":"levelo://app?vid=6525aa52-816a-4c8e-ad78-f32505ccdfba","ios":"levelo://app?vid=6525aa52-816a-4c8e-ad78-f32505ccdfba"},"vehicle_type_id":"4","last_reported":1723921606,"current_range_meters":4400,"station_id":"","pricing_plan_id":"cebpf4jnsgd1na2vs0mg"},{"bike_id":"c867e4fa-ca77-4754-ac6b-ee5239945874","system_id":"levelo_inurba_marseille","lat":43.30861,"lon":5.38082,"is_reserved":false,"is_disabled":false,"rental_uris":{"android":"levelo://app?vid=c867e4fa-ca77-4754-ac6b-ee5239945874","ios":"levelo://app?vid=c867e4fa-ca77-4754-ac6b-ee5239945874"},"vehicle_type_id":"4","last_reported":1723921606,"current_range_meters":13200,"station_id":"","pricing_plan_id":"cebpf4jnsgd1na2vs0mg"},{"bike_id":"44bff4ec-cbf5-47e6-9391-9c0369906d67","system_id":"levelo_inurba_marseille","lat":43.324771,"lon":5.36557,"is_reserved":false,"is_disabled":false,"rental_uris":{"android":"levelo://app?vid=44bff4ec-cbf5-47e6-9391-9c0369906d67","ios":"levelo://app?vid=44bff4ec-cbf5-47e6-9391-9c0369906d67"},"vehicle_type_id":"4","last_reported":1723921606,"current_range_meters":10000,"station_id":"ce4bhs12rcd13ifvqhvg","pricing_plan_id":"cebpf4jnsgd1na2vs0mg"},{"bike_id":"5a4081d6-fbc1-4f44-bd22-67238a970f4c","system_id":"levelo_inurba_marseille","lat":43.324771,"lon":5.36557,"is_reserved":false,"is_disabled":false,"rental_uris":{"android":"levelo://app?vid=5a4081d6-fbc1-4f44-bd22-67238a970f4c","ios":"levelo://app?vid=5a4081d6-fbc1-4f44-bd22-67238a970f4c"},"vehicle_type_id":"4","last_reported":1723921606,"current_range_meters":30000,"station_id":"ce4bhs12rcd13ifvqhvg","pricing_plan_id":"cebpf4jnsgd1na2vs0mg"},{"bike_id":"1b6b34f9-30fb-4d13-b287-3c0bd5f6b4eb","system_id":"levelo_inurba_marseille","lat":43.324771,"lon":5.36557,"is_reserved":false,"is_disabled":false,"rental_uris":{"android":"levelo://app?vid=1b6b34f9-30fb-4d13-b287-3c0bd5f6b4eb","ios":"levelo://app?vid=1b6b34f9-30fb-4d13-b287-3c0bd5f6b4eb"},"vehicle_type_id":"4","last_reported":1723921606,"current_range_meters":14400,"station_id":"ce4bhs12rcd13ifvqhvg","pricing_plan_id":"cebpf4jnsgd1na2vs0mg"},{"bike_id":"f13913d4-2bb9-46fd-83b1-fab02a814654","system_id":"levelo_inurba_marseille","lat":43.324771,"lon":5.36557,"is_reserved":false,"is_disabled":false,"rental_uris":{"android":"levelo://app?vid=f13913d4-2bb9-46fd-83b1-fab02a814654","ios":"levelo://app?vid=f13913d4-2bb9-46fd-83b1-fab02a814654"},"vehicle_type_id":"4","last_reported":1723921606,"current_range_meters":0,"station_id":"ce4bhs12rcd13ifvqhvg","pricing_plan_id":"cebpf4jnsgd1na2vs0mg"},{"bike_id":"60a9966f-d569-4352-a71a-af1c9621ff14","system_id":"levelo_inurba_marseille","lat":43.324771,"lon":5.36557,"is_reserved":false,"is_disabled":false,"rental_uris":{"android":"levelo://app?vid=60a9966f-d569-4352-a71a-af1c9621ff14","ios":"levelo://app?vid=60a9966f-d569-4352-a71a-af1c9621ff14"},"vehicle_type_id":"4","last_reported":1723921606,"current_range_meters":2400,"station_id":"ce4bhs12rcd13ifvqhvg","pricing_plan_id":"cebpf4jnsgd1na2vs0mg"},{"bike_id":"2cc6356a-ab01-451c-aadd-5de1b980f636","system_id":"levelo_inurba_marseille","lat":43.324771,"lon":5.36557,"is_reserved":false,"is_disabled":false,"rental_uris":{"android":"levelo://app?vid=2cc6356a-ab01-451c-aadd-5de1b980f636","ios":"levelo://app?vid=2cc6356a-ab01-451c-aadd-5de1b980f636"},"vehicle_type_id":"4","last_reported":1723921606,"current_range_meters":19200,"station_id":"ce4bhs12rcd13ifvqhvg","pricing_plan_id":"cebpf4jnsgd1na2vs0mg"},{"bike_id":"e9c7a5ee-2290-4cb9-85d3-c7cc9e3eaec0","system_id":"levelo_inurba_marseille","lat":43.324771,"lon":5.36557,"is_reserved":false,"is_disabled":false,"rental_uris":{"android":"levelo://app?vid=e9c7a5ee-2290-4cb9-85d3-c7cc9e3eaec0","ios":"levelo://app?vid=e9c7a5ee-2290-4cb9-85d3-c7cc9e3eaec0"},"vehicle_type_id":"4","last_reported":1723921606,"current_range_meters":26400,"station_id":"ce4bhs12rcd13ifvqhvg","pricing_plan_id":"cebpf4jnsgd1na2vs0mg"},{"bike_id":"3002f280-7517-4418-82ef-061406a0cac0","system_id":"levelo_inurba_marseille","lat":43.324903,"lon":5.368718,"is_reserved":false,"is_disabled":false,"rental_uris":{"android":"levelo://app?vid=3002f280-7517-4418-82ef-061406a0cac0","ios":"levelo://app?vid=3002f280-7517-4418-82ef-061406a0cac0"},"vehicle_type_id":"4","last_reported":1723921606,"current_range_meters":2800,"station_id":"","pricing_plan_id":"cebpf4jnsgd1na2vs0mg"},{"bike_id":"07923bfc-366f-4fc3-afd2-cdefb259944d","system_id":"levelo_inurba_marseille","lat":43.310804,"lon":5.38359,"is_reserved":false,"is_disabled":false,"rental_uris":{"android":"levelo://app?vid=07923bfc-366f-4fc3-afd2-cdefb259944d","ios":"levelo://app?vid=07923bfc-366f-4fc3-afd2-cdefb259944d"},"vehicle_type_id":"4","last_reported":1723921606,"current_range_meters":0,"station_id":"ce4bgv92rcd13ifvqcr0","pricing_plan_id":"cebpf4jnsgd1na2vs0mg"},{"bike_id":"bb744522-cc00-43cf-ba1e-9f0f3edcd34e","system_id":"levelo_inurba_marseille","lat":43.302784,"lon":5.377158,"is_reserved":false,"is_disabled":false,"rental_uris":{"android":"levelo://app?vid=bb744522-cc00-43cf-ba1e-9f0f3edcd34e","ios":"levelo://app?vid=bb744522-cc00-43cf-ba1e-9f0f3edcd34e"},"vehicle_type_id":"4","last_reported":1723921606,"current_range_meters":13600,"station_id":"ce4bguh2rcd13ifvqcj0","pricing_plan_id":"cebpf4jnsgd1na2vs0mg"},{"bike_id":"b7f4ce94-a934-4ca0-bf1e-503a7f9e7213","system_id":"levelo_inurba_marseille","lat":43.302784,"lon":5.377158,"is_reserved":false,"is_disabled":false,"rental_uris":{"android":"levelo://app?vid=b7f4ce94-a934-4ca0-bf1e-503a7f9e7213","ios":"levelo://app?vid=b7f4ce94-a934-4ca0-bf1e-503a7f9e7213"},"vehicle_type_id":"4","last_reported":1723921606,"current_range_meters":14400,"station_id":"ce4bguh2rcd13ifvqcj0","pricing_plan_id":"cebpf4jnsgd1na2vs0mg"},{"bike_id":"f9cbd651-49cb-48f7-88ef-44ce865af34c","system_id":"levelo_inurba_marseille","lat":43.30139,"lon":5.37414,"is_reserved":false,"is_disabled":false,"rental_uris":{"android":"levelo://app?vid=f9cbd651-49cb-48f7-88ef-44ce865af34c","ios":"levelo://app?vid=f9cbd651-49cb-48f7-88ef-44ce865af34c"},"vehicle_type_id":"4","last_reported":1723921606,"current_range_meters":28800,"station_id":"ce4bgs92rcd13ifvqcc0","pricing_plan_id":"cebpf4jnsgd1na2vs0mg"},{"bike_id":"12f24074-b3ed-4294-9712-3012f3f35e88","system_id":"levelo_inurba_marseille","lat":43.30623,"lon":5.3816,"is_reserved":false,"is_disabled":false,"rental_uris":{"android":"levelo://app?vid=12f24074-b3ed-4294-9712-3012f3f35e88","ios":"levelo://app?vid=12f24074-b3ed-4294-9712-3012f3f35e88"},"vehicle_type_id":"4","last_reported":1723921606,"current_range_meters":17600,"station_id":"","pricing_plan_id":"cebpf4jnsgd1na2vs0mg"},{"bike_id":"25e30fe9-d6ca-432c-93cc-56ce51ebaca3","system_id":"levelo_inurba_marseille","lat":43.30138,"lon":5.37418,"is_reserved":false,"is_disabled":false,"rental_uris":{"android":"levelo://app?vid=25e30fe9-d6ca-432c-93cc-56ce51ebaca3","ios":"levelo://app?vid=25e30fe9-d6ca-432c-93cc-56ce51ebaca3"},"vehicle_type_id":"4","last_reported":1723921606,"current_range_meters":13200,"station_id":"ce4bgs92rcd13ifvqcc0","pricing_plan_id":"cebpf4jnsgd1na2vs0mg"},{"bike_id":"9675a955-6e4c-4295-a73d-72a05801e536","system_id":"levelo_inurba_marseille","lat":43.319935,"lon":5.381699,"is_reserved":false,"is_disabled":false,"rental_uris":{"android":"levelo://app?vid=9675a955-6e4c-4295-a73d-72a05801e536","ios":"levelo://app?vid=9675a955-6e4c-4295-a73d-72a05801e536"},"vehicle_type_id":"4","last_reported":1723921606,"current_range_meters":28800,"station_id":"ce4bhr12rcd13ifvqhpg","pricing_plan_id":"cebpf4jnsgd1na2vs0mg"},{"bike_id":"b2f630c2-1a53-4b30-b58d-f33ea23c037c","system_id":"levelo_inurba_marseille","lat":43.313571,"lon":5.384829,"is_reserved":false,"is_disabled":false,"rental_uris":{"android":"levelo://app?vid=b2f630c2-1a53-4b30-b58d-f33ea23c037c","ios":"levelo://app?vid=b2f630c2-1a53-4b30-b58d-f33ea23c037c"},"vehicle_type_id":"4","last_reported":1723921606,"current_range_meters":11600,"station_id":"ce4bgt92rcd13ifvqcf0","pricing_plan_id":"cebpf4jnsgd1na2vs0mg"},{"bike_id":"8b34bde5-25af-4f32-835d-e3cd34f7bbf8","system_id":"levelo_inurba_marseille","lat":43.313571,"lon":5.384829,"is_reserved":false,"is_disabled":false,"rental_uris":{"android":"levelo://app?vid=8b34bde5-25af-4f32-835d-e3cd34f7bbf8","ios":"levelo://app?vid=8b34bde5-25af-4f32-835d-e3cd34f7bbf8"},"vehicle_type_id":"4","last_reported":1723921606,"current_range_meters":0,"station_id":"ce4bgt92rcd13ifvqcf0","pricing_plan_id":"cebpf4jnsgd1na2vs0mg"},{"bike_id":"899f5175-ba7e-4b68-9814-0755a969635c","system_id":"levelo_inurba_marseille","lat":43.313571,"lon":5.384829,"is_reserved":false,"is_disabled":false,"rental_uris":{"android":"levelo://app?vid=899f5175-ba7e-4b68-9814-0755a969635c","ios":"levelo://app?vid=899f5175-ba7e-4b68-9814-0755a969635c"},"vehicle_type_id":"4","last_reported":1723921606,"current_range_meters":22800,"station_id":"ce4bgt92rcd13ifvqcf0","pricing_plan_id":"cebpf4jnsgd1na2vs0mg"},{"bike_id":"eccca850-dfed-40d4-a565-54c64146eaac","system_id":"levelo_inurba_marseille","lat":43.313571,"lon":5.384829,"is_reserved":false,"is_disabled":false,"rental_uris":{"android":"levelo://app?vid=eccca850-dfed-40d4-a565-54c64146eaac","ios":"levelo://app?vid=eccca850-dfed-40d4-a565-54c64146eaac"},"vehicle_type_id":"4","last_reported":1723921606,"current_range_meters":0,"station_id":"ce4bgt92rcd13ifvqcf0","pricing_plan_id":"cebpf4jnsgd1na2vs0mg"},{"bike_id":"19bacb50-91ee-42fa-b7a7-6324109a1228","system_id":"levelo_inurba_marseille","lat":43.313571,"lon":5.384829,"is_reserved":false,"is_disabled":false,"rental_uris":{"android":"levelo://app?vid=19bacb50-91ee-42fa-b7a7-6324109a1228","ios":"levelo://app?vid=19bacb50-91ee-42fa-b7a7-6324109a1228"},"vehicle_type_id":"4","last_reported":1723921606,"current_range_meters":17600,"station_id":"ce4bgt92rcd13ifvqcf0","pricing_plan_id":"cebpf4jnsgd1na2vs0mg"},{"bike_id":"220cfd54-0e75-4b82-bc61-8ec6814529ba","system_id":"levelo_inurba_marseille","lat":43.313571,"lon":5.384829,"is_reserved":false,"is_disabled":false,"rental_uris":{"android":"levelo://app?vid=220cfd54-0e75-4b82-bc61-8ec6814529ba","ios":"levelo://app?vid=220cfd54-0e75-4b82-bc61-8ec6814529ba"},"vehicle_type_id":"4","last_reported":1723921606,"current_range_meters":20800,"station_id":"ce4bgt92rcd13ifvqcf0","pricing_plan_id":"cebpf4jnsgd1na2vs0mg"},{"bike_id":"c28acb6f-dcaf-4ff0-a8fd-ed421cc2dbf2","system_id":"levelo_inurba_marseille","lat":43.313571,"lon":5.384829,"is_reserved":false,"is_disabled":false,"rental_uris":{"android":"levelo://app?vid=c28acb6f-dcaf-4ff0-a8fd-ed421cc2dbf2","ios":"levelo://app?vid=c28acb6f-dcaf-4ff0-a8fd-ed421cc2dbf2"},"vehicle_type_id":"4","last_reported":1723921606,"current_range_meters":23600,"station_id":"ce4bgt92rcd13ifvqcf0","pricing_plan_id":"cebpf4jnsgd1na2vs0mg"},{"bike_id":"5bc3daf8-8ef2-4cee-a994-533da03a1c26","system_id":"levelo_inurba_marseille","lat":43.313571,"lon":5.384829,"is_reserved":false,"is_disabled":false,"rental_uris":{"android":"levelo://app?vid=5bc3daf8-8ef2-4cee-a994-533da03a1c26","ios":"levelo://app?vid=5bc3daf8-8ef2-4cee-a994-533da03a1c26"},"vehicle_type_id":"4","last_reported":1723921606,"current_range_meters":13600,"station_id":"ce4bgt92rcd13ifvqcf0","pricing_plan_id":"cebpf4jnsgd1na2vs0mg"},{"bike_id":"7f4a2e27-440c-4296-aaa7-8e1bc26820f0","system_id":"levelo_inurba_marseille","lat":43.313571,"lon":5.384829,"is_reserved":false,"is_disabled":false,"rental_uris":{"android":"levelo://app?vid=7f4a2e27-440c-4296-aaa7-8e1bc26820f0","ios":"levelo://app?vid=7f4a2e27-440c-4296-aaa7-8e1bc26820f0"},"vehicle_type_id":"4","last_reported":1723921606,"current_range_meters":12400,"station_id":"ce4bgt92rcd13ifvqcf0","pricing_plan_id":"cebpf4jnsgd1na2vs0mg"},{"bike_id":"6a92b625-950e-4937-b54e-dafd82974b9d","system_id":"levelo_inurba_marseille","lat":43.313571,"lon":5.384829,"is_reserved":false,"is_disabled":false,"rental_uris":{"android":"levelo://app?vid=6a92b625-950e-4937-b54e-dafd82974b9d","ios":"levelo://app?vid=6a92b625-950e-4937-b54e-dafd82974b9d"},"vehicle_type_id":"4","last_reported":1723921606,"current_range_meters":4800,"station_id":"ce4bgt92rcd13ifvqcf0","pricing_plan_id":"cebpf4jnsgd1na2vs0mg"},{"bike_id":"12015c23-ade2-4c1d-8971-3153b5b6b3ec","system_id":"levelo_inurba_marseille","lat":43.313571,"lon":5.384829,"is_reserved":false,"is_disabled":false,"rental_uris":{"android":"levelo://app?vid=12015c23-ade2-4c1d-8971-3153b5b6b3ec","ios":"levelo://app?vid=12015c23-ade2-4c1d-8971-3153b5b6b3ec"},"vehicle_type_id":"4","last_reported":1723921606,"current_range_meters":0,"station_id":"ce4bgt92rcd13ifvqcf0","pricing_plan_id":"cebpf4jnsgd1na2vs0mg"},{"bike_id":"660ad1e9-a62a-4d98-aee8-5959e639ec91","system_id":"levelo_inurba_marseille","lat":43.313571,"lon":5.384829,"is_reserved":false,"is_disabled":false,"rental_uris":{"android":"levelo://app?vid=660ad1e9-a62a-4d98-aee8-5959e639ec91","ios":"levelo://app?vid=660ad1e9-a62a-4d98-aee8-5959e639ec91"},"vehicle_type_id":"4","last_reported":1723921606,"current_range_meters":25600,"station_id":"ce4bgt92rcd13ifvqcf0","pricing_plan_id":"cebpf4jnsgd1na2vs0mg"},{"bike_id":"632fbe27-7603-48d8-b0a4-ee2724b95bc9","system_id":"levelo_inurba_marseille","lat":43.313571,"lon":5.384829,"is_reserved":false,"is_disabled":false,"rental_uris":{"android":"levelo://app?vid=632fbe27-7603-48d8-b0a4-ee2724b95bc9","ios":"levelo://app?vid=632fbe27-7603-48d8-b0a4-ee2724b95bc9"},"vehicle_type_id":"4","last_reported":1723921606,"current_range_meters":9600,"station_id":"ce4bgt92rcd13ifvqcf0","pricing_plan_id":"cebpf4jnsgd1na2vs0mg"},{"bike_id":"d0ea3ce5-8ddc-4d35-8406-bb2edfee4395","system_id":"levelo_inurba_marseille","lat":43.313571,"lon":5.384829,"is_reserved":false,"is_disabled":false,"rental_uris":{"android":"levelo://app?vid=d0ea3ce5-8ddc-4d35-8406-bb2edfee4395","ios":"levelo://app?vid=d0ea3ce5-8ddc-4d35-8406-bb2edfee4395"},"vehicle_type_id":"4","last_reported":1723921606,"current_range_meters":11200,"station_id":"ce4bgt92rcd13ifvqcf0","pricing_plan_id":"cebpf4jnsgd1na2vs0mg"},{"bike_id":"11caf224-6fa8-4e64-97c4-c41c1eae6b7e","system_id":"levelo_inurba_marseille","lat":43.299222,"lon":5.365554,"is_reserved":false,"is_disabled":false,"rental_uris":{"android":"levelo://app?vid=11caf224-6fa8-4e64-97c4-c41c1eae6b7e","ios":"levelo://app?vid=11caf224-6fa8-4e64-97c4-c41c1eae6b7e"},"vehicle_type_id":"4","last_reported":1723921606,"current_range_meters":6000,"station_id":"ce4bgm92rcd13ifvqbr0","pricing_plan_id":"cebpf4jnsgd1na2vs0mg"},{"bike_id":"ef15920b-ebf0-4b4a-a77e-b4b8da8fdff2","system_id":"levelo_inurba_marseille","lat":43.299222,"lon":5.365554,"is_reserved":false,"is_disabled":false,"rental_uris":{"android":"levelo://app?vid=ef15920b-ebf0-4b4a-a77e-b4b8da8fdff2","ios":"levelo://app?vid=ef15920b-ebf0-4b4a-a77e-b4b8da8fdff2"},"vehicle_type_id":"4","last_reported":1723921606,"current_range_meters":6800,"station_id":"ce4bgm92rcd13ifvqbr0","pricing_plan_id":"cebpf4jnsgd1na2vs0mg"},{"bike_id":"e09a3ba5-9878-45c7-8db5-a3bb56683f71","system_id":"levelo_inurba_marseille","lat":43.299222,"lon":5.365554,"is_reserved":false,"is_disabled":false,"rental_uris":{"android":"levelo://app?vid=e09a3ba5-9878-45c7-8db5-a3bb56683f71","ios":"levelo://app?vid=e09a3ba5-9878-45c7-8db5-a3bb56683f71"},"vehicle_type_id":"4","last_reported":1723921606,"current_range_meters":30800,"station_id":"ce4bgm92rcd13ifvqbr0","pricing_plan_id":"cebpf4jnsgd1na2vs0mg"},{"bike_id":"eb868d34-33fb-4e14-88f4-515baded7c09","system_id":"levelo_inurba_marseille","lat":43.299724,"lon":5.371829,"is_reserved":false,"is_disabled":false,"rental_uris":{"android":"levelo://app?vid=eb868d34-33fb-4e14-88f4-515baded7c09","ios":"levelo://app?vid=eb868d34-33fb-4e14-88f4-515baded7c09"},"vehicle_type_id":"4","last_reported":1723921606,"current_range_meters":3200,"station_id":"ce4bgr92rcd13ifvqc7g","pricing_plan_id":"cebpf4jnsgd1na2vs0mg"},{"bike_id":"18aa708b-2a72-4be5-8882-1f568837eb27","system_id":"levelo_inurba_marseille","lat":43.299724,"lon":5.371829,"is_reserved":false,"is_disabled":false,"rental_uris":{"android":"levelo://app?vid=18aa708b-2a72-4be5-8882-1f568837eb27","ios":"levelo://app?vid=18aa708b-2a72-4be5-8882-1f568837eb27"},"vehicle_type_id":"4","last_reported":1723921606,"current_range_meters":18400,"station_id":"ce4bgr92rcd13ifvqc7g","pricing_plan_id":"cebpf4jnsgd1na2vs0mg"},{"bike_id":"882d217e-161a-4ec0-8589-63bc1400df6b","system_id":"levelo_inurba_marseille","lat":43.298433,"lon":5.362774,"is_reserved":false,"is_disabled":false,"rental_uris":{"android":"levelo://app?vid=882d217e-161a-4ec0-8589-63bc1400df6b","ios":"levelo://app?vid=882d217e-161a-4ec0-8589-63bc1400df6b"},"vehicle_type_id":"4","last_reported":1723921606,"current_range_meters":2000,"station_id":"ce4bgpp2rcd13ifvqc3g","pricing_plan_id":"cebpf4jnsgd1na2vs0mg"},{"bike_id":"8f138b48-ed89-4165-bbeb-b4be2358b10d","system_id":"levelo_inurba_marseille","lat":43.29851,"lon":5.36289,"is_reserved":false,"is_disabled":false,"rental_uris":{"android":"levelo://app?vid=8f138b48-ed89-4165-bbeb-b4be2358b10d","ios":"levelo://app?vid=8f138b48-ed89-4165-bbeb-b4be2358b10d"},"vehicle_type_id":"4","last_reported":1723921606,"current_range_meters":26400,"station_id":"ce4bgpp2rcd13ifvqc3g","pricing_plan_id":"cebpf4jnsgd1na2vs0mg"},{"bike_id":"14d16f0d-fa01-44a0-ace5-37f1c8736f04","system_id":"levelo_inurba_marseille","lat":43.298433,"lon":5.362774,"is_reserved":false,"is_disabled":false,"rental_uris":{"android":"levelo://app?vid=14d16f0d-fa01-44a0-ace5-37f1c8736f04","ios":"levelo://app?vid=14d16f0d-fa01-44a0-ace5-37f1c8736f04"},"vehicle_type_id":"4","last_reported":1723921606,"current_range_meters":5600,"station_id":"ce4bgpp2rcd13ifvqc3g","pricing_plan_id":"cebpf4jnsgd1na2vs0mg"},{"bike_id":"d32c6352-937e-4e10-855c-f26f71a5baa4","system_id":"levelo_inurba_marseille","lat":43.29844,"lon":5.36333,"is_reserved":false,"is_disabled":false,"rental_uris":{"android":"levelo://app?vid=d32c6352-937e-4e10-855c-f26f71a5baa4","ios":"levelo://app?vid=d32c6352-937e-4e10-855c-f26f71a5baa4"},"vehicle_type_id":"4","last_reported":1723921606,"current_range_meters":8000,"station_id":"","pricing_plan_id":"cebpf4jnsgd1na2vs0mg"},{"bike_id":"543d2037-0c12-46cb-a3aa-3228c3696112","system_id":"levelo_inurba_marseille","lat":43.298433,"lon":5.362774,"is_reserved":false,"is_disabled":false,"rental_uris":{"android":"levelo://app?vid=543d2037-0c12-46cb-a3aa-3228c3696112","ios":"levelo://app?vid=543d2037-0c12-46cb-a3aa-3228c3696112"},"vehicle_type_id":"4","last_reported":1723921606,"current_range_meters":13200,"station_id":"ce4bgpp2rcd13ifvqc3g","pricing_plan_id":"cebpf4jnsgd1na2vs0mg"},{"bike_id":"ca902eb3-2f92-4c29-ad87-b236106fd457","system_id":"levelo_inurba_marseille","lat":43.305364,"lon":5.384119,"is_reserved":false,"is_disabled":false,"rental_uris":{"android":"levelo://app?vid=ca902eb3-2f92-4c29-ad87-b236106fd457","ios":"levelo://app?vid=ca902eb3-2f92-4c29-ad87-b236106fd457"},"vehicle_type_id":"4","last_reported":1723921606,"current_range_meters":7200,"station_id":"ce4bgg92rcd13ifvqb30","pricing_plan_id":"cebpf4jnsgd1na2vs0mg"},{"bike_id":"d82325e9-4b90-400e-8fe6-44f6d0561860","system_id":"levelo_inurba_marseille","lat":43.298433,"lon":5.362774,"is_reserved":false,"is_disabled":false,"rental_uris":{"android":"levelo://app?vid=d82325e9-4b90-400e-8fe6-44f6d0561860","ios":"levelo://app?vid=d82325e9-4b90-400e-8fe6-44f6d0561860"},"vehicle_type_id":"4","last_reported":1723921606,"current_range_meters":4800,"station_id":"ce4bgpp2rcd13ifvqc3g","pricing_plan_id":"cebpf4jnsgd1na2vs0mg"},{"bike_id":"07b18474-b355-4e0b-8c58-8fc335f7ffc8","system_id":"levelo_inurba_marseille","lat":43.311722,"lon":5.387247,"is_reserved":false,"is_disabled":false,"rental_uris":{"android":"levelo://app?vid=07b18474-b355-4e0b-8c58-8fc335f7ffc8","ios":"levelo://app?vid=07b18474-b355-4e0b-8c58-8fc335f7ffc8"},"vehicle_type_id":"4","last_reported":1723921606,"current_range_meters":10400,"station_id":"ce4bgv12rcd13ifvqcp0","pricing_plan_id":"cebpf4jnsgd1na2vs0mg"},{"bike_id":"b3f1a11c-5955-49f7-bf60-6eb5c685b6e3","system_id":"levelo_inurba_marseille","lat":43.311722,"lon":5.387247,"is_reserved":false,"is_disabled":false,"rental_uris":{"android":"levelo://app?vid=b3f1a11c-5955-49f7-bf60-6eb5c685b6e3","ios":"levelo://app?vid=b3f1a11c-5955-49f7-bf60-6eb5c685b6e3"},"vehicle_type_id":"4","last_reported":1723921606,"current_range_meters":16000,"station_id":"ce4bgv12rcd13ifvqcp0","pricing_plan_id":"cebpf4jnsgd1na2vs0mg"},{"bike_id":"a37abd65-533e-4e1c-a020-bf2bd1f90cf4","system_id":"levelo_inurba_marseille","lat":43.311722,"lon":5.387247,"is_reserved":false,"is_disabled":false,"rental_uris":{"android":"levelo://app?vid=a37abd65-533e-4e1c-a020-bf2bd1f90cf4","ios":"levelo://app?vid=a37abd65-533e-4e1c-a020-bf2bd1f90cf4"},"vehicle_type_id":"4","last_reported":1723921606,"current_range_meters":11200,"station_id":"ce4bgv12rcd13ifvqcp0","pricing_plan_id":"cebpf4jnsgd1na2vs0mg"},{"bike_id":"018f0575-3469-4efe-bf8a-0fd4a3db8c17","system_id":"levelo_inurba_marseille","lat":43.311722,"lon":5.387247,"is_reserved":false,"is_disabled":false,"rental_uris":{"android":"levelo://app?vid=018f0575-3469-4efe-bf8a-0fd4a3db8c17","ios":"levelo://app?vid=018f0575-3469-4efe-bf8a-0fd4a3db8c17"},"vehicle_type_id":"4","last_reported":1723921606,"current_range_meters":1200,"station_id":"ce4bgv12rcd13ifvqcp0","pricing_plan_id":"cebpf4jnsgd1na2vs0mg"},{"bike_id":"c894c921-d9b3-439f-a5e7-725bbd4bdb61","system_id":"levelo_inurba_marseille","lat":43.311722,"lon":5.387247,"is_reserved":false,"is_disabled":false,"rental_uris":{"android":"levelo://app?vid=c894c921-d9b3-439f-a5e7-725bbd4bdb61","ios":"levelo://app?vid=c894c921-d9b3-439f-a5e7-725bbd4bdb61"},"vehicle_type_id":"4","last_reported":1723921606,"current_range_meters":0,"station_id":"ce4bgv12rcd13ifvqcp0","pricing_plan_id":"cebpf4jnsgd1na2vs0mg"},{"bike_id":"33e58f34-0be6-4d3c-8ffb-7968e27c5579","system_id":"levelo_inurba_marseille","lat":43.311722,"lon":5.387247,"is_reserved":false,"is_disabled":false,"rental_uris":{"android":"levelo://app?vid=33e58f34-0be6-4d3c-8ffb-7968e27c5579","ios":"levelo://app?vid=33e58f34-0be6-4d3c-8ffb-7968e27c5579"},"vehicle_type_id":"4","last_reported":1723921606,"current_range_meters":3200,"station_id":"ce4bgv12rcd13ifvqcp0","pricing_plan_id":"cebpf4jnsgd1na2vs0mg"},{"bike_id":"e0351634-cfd3-4ede-b9c6-58441e4dbee4","system_id":"levelo_inurba_marseille","lat":43.29885,"lon":5.37496,"is_reserved":false,"is_disabled":false,"rental_uris":{"android":"levelo://app?vid=e0351634-cfd3-4ede-b9c6-58441e4dbee4","ios":"levelo://app?vid=e0351634-cfd3-4ede-b9c6-58441e4dbee4"},"vehicle_type_id":"4","last_reported":1723921606,"current_range_meters":16800,"station_id":"ce4bgjh2rcd13ifvqbg0","pricing_plan_id":"cebpf4jnsgd1na2vs0mg"},{"bike_id":"22c11111-d277-4824-b088-bea56e25e453","system_id":"levelo_inurba_marseille","lat":43.301417,"lon":5.3809,"is_reserved":false,"is_disabled":false,"rental_uris":{"android":"levelo://app?vid=22c11111-d277-4824-b088-bea56e25e453","ios":"levelo://app?vid=22c11111-d277-4824-b088-bea56e25e453"},"vehicle_type_id":"4","last_reported":1723921606,"current_range_meters":0,"station_id":"ce4bgjp2rcd13ifvqbh0","pricing_plan_id":"cebpf4jnsgd1na2vs0mg"},{"bike_id":"c3215465-ee04-4b8b-9b1e-3c4706eae745","system_id":"levelo_inurba_marseille","lat":43.297774,"lon":5.370875,"is_reserved":false,"is_disabled":false,"rental_uris":{"android":"levelo://app?vid=c3215465-ee04-4b8b-9b1e-3c4706eae745","ios":"levelo://app?vid=c3215465-ee04-4b8b-9b1e-3c4706eae745"},"vehicle_type_id":"4","last_reported":1723921606,"current_range_meters":31200,"station_id":"ce4bgop2rcd13ifvqc1g","pricing_plan_id":"cebpf4jnsgd1na2vs0mg"},{"bike_id":"e4fd7b8b-bf5b-4394-ae0b-898a86f79758","system_id":"levelo_inurba_marseille","lat":43.301417,"lon":5.3809,"is_reserved":false,"is_disabled":false,"rental_uris":{"android":"levelo://app?vid=e4fd7b8b-bf5b-4394-ae0b-898a86f79758","ios":"levelo://app?vid=e4fd7b8b-bf5b-4394-ae0b-898a86f79758"},"vehicle_type_id":"4","last_reported":1723921606,"current_range_meters":0,"station_id":"ce4bgjp2rcd13ifvqbh0","pricing_plan_id":"cebpf4jnsgd1na2vs0mg"},{"bike_id":"4b7054a4-91be-4bc0-ae99-6f8b65a0f22b","system_id":"levelo_inurba_marseille","lat":43.301417,"lon":5.3809,"is_reserved":false,"is_disabled":false,"rental_uris":{"android":"levelo://app?vid=4b7054a4-91be-4bc0-ae99-6f8b65a0f22b","ios":"levelo://app?vid=4b7054a4-91be-4bc0-ae99-6f8b65a0f22b"},"vehicle_type_id":"4","last_reported":1723921606,"current_range_meters":0,"station_id":"ce4bgjp2rcd13ifvqbh0","pricing_plan_id":"cebpf4jnsgd1na2vs0mg"},{"bike_id":"912c3802-ff8c-462a-9082-27bf9d58f56c","system_id":"levelo_inurba_marseille","lat":43.322872,"lon":5.382756,"is_reserved":false,"is_disabled":false,"rental_uris":{"android":"levelo://app?vid=912c3802-ff8c-462a-9082-27bf9d58f56c","ios":"levelo://app?vid=912c3802-ff8c-462a-9082-27bf9d58f56c"},"vehicle_type_id":"4","last_reported":1723921606,"current_range_meters":28000,"station_id":"ce4bhr12rcd13ifvqhqg","pricing_plan_id":"cebpf4jnsgd1na2vs0mg"},{"bike_id":"26bbe62b-55f5-4a1c-a00a-e1c891747a10","system_id":"levelo_inurba_marseille","lat":43.297794,"lon":5.370888,"is_reserved":false,"is_disabled":false,"rental_uris":{"android":"levelo://app?vid=26bbe62b-55f5-4a1c-a00a-e1c891747a10","ios":"levelo://app?vid=26bbe62b-55f5-4a1c-a00a-e1c891747a10"},"vehicle_type_id":"4","last_reported":1723921606,"current_range_meters":26800,"station_id":"ce4bgop2rcd13ifvqc1g","pricing_plan_id":"cebpf4jnsgd1na2vs0mg"},{"bike_id":"8cccb6fd-6440-49a6-94f8-53f7117733bc","system_id":"levelo_inurba_marseille","lat":43.301417,"lon":5.3809,"is_reserved":false,"is_disabled":false,"rental_uris":{"android":"levelo://app?vid=8cccb6fd-6440-49a6-94f8-53f7117733bc","ios":"levelo://app?vid=8cccb6fd-6440-49a6-94f8-53f7117733bc"},"vehicle_type_id":"4","last_reported":1723921606,"current_range_meters":14000,"station_id":"ce4bgjp2rcd13ifvqbh0","pricing_plan_id":"cebpf4jnsgd1na2vs0mg"},{"bike_id":"52a23d7e-e6ca-4a93-a699-5a36a93c73bd","system_id":"levelo_inurba_marseille","lat":43.32294,"lon":5.38271,"is_reserved":false,"is_disabled":false,"rental_uris":{"android":"levelo://app?vid=52a23d7e-e6ca-4a93-a699-5a36a93c73bd","ios":"levelo://app?vid=52a23d7e-e6ca-4a93-a699-5a36a93c73bd"},"vehicle_type_id":"4","last_reported":1723921606,"current_range_meters":26800,"station_id":"ce4bhr12rcd13ifvqhqg","pricing_plan_id":"cebpf4jnsgd1na2vs0mg"},{"bike_id":"14888c58-7ea2-49aa-a68d-42e340ea71d4","system_id":"levelo_inurba_marseille","lat":43.297163,"lon":5.365866,"is_reserved":false,"is_disabled":false,"rental_uris":{"android":"levelo://app?vid=14888c58-7ea2-49aa-a68d-42e340ea71d4","ios":"levelo://app?vid=14888c58-7ea2-49aa-a68d-42e340ea71d4"},"vehicle_type_id":"4","last_reported":1723921606,"current_range_meters":0,"station_id":"ce4bgn12rcd13ifvqbt0","pricing_plan_id":"cebpf4jnsgd1na2vs0mg"},{"bike_id":"e83bc34a-7b8e-4fe1-b589-176aa19c08ee","system_id":"levelo_inurba_marseille","lat":43.3231,"lon":5.38291,"is_reserved":false,"is_disabled":false,"rental_uris":{"android":"levelo://app?vid=e83bc34a-7b8e-4fe1-b589-176aa19c08ee","ios":"levelo://app?vid=e83bc34a-7b8e-4fe1-b589-176aa19c08ee"},"vehicle_type_id":"4","last_reported":1723921606,"current_range_meters":25600,"station_id":"ce4bhr12rcd13ifvqhqg","pricing_plan_id":"cebpf4jnsgd1na2vs0mg"},{"bike_id":"4e989422-e291-463d-8fe3-a4bff862f86f","system_id":"levelo_inurba_marseille","lat":43.297163,"lon":5.365866,"is_reserved":false,"is_disabled":false,"rental_uris":{"android":"levelo://app?vid=4e989422-e291-463d-8fe3-a4bff862f86f","ios":"levelo://app?vid=4e989422-e291-463d-8fe3-a4bff862f86f"},"vehicle_type_id":"4","last_reported":1723921606,"current_range_meters":3200,"station_id":"ce4bgn12rcd13ifvqbt0","pricing_plan_id":"cebpf4jnsgd1na2vs0mg"},{"bike_id":"ae844075-307d-4822-b963-d752978a0827","system_id":"levelo_inurba_marseille","lat":43.297163,"lon":5.365866,"is_reserved":false,"is_disabled":false,"rental_uris":{"android":"levelo://app?vid=ae844075-307d-4822-b963-d752978a0827","ios":"levelo://app?vid=ae844075-307d-4822-b963-d752978a0827"},"vehicle_type_id":"4","last_reported":1723921606,"current_range_meters":23200,"station_id":"ce4bgn12rcd13ifvqbt0","pricing_plan_id":"cebpf4jnsgd1na2vs0mg"},{"bike_id":"95b2ea0b-ba49-45b9-b438-40dfb420e216","system_id":"levelo_inurba_marseille","lat":43.297163,"lon":5.365866,"is_reserved":false,"is_disabled":false,"rental_uris":{"android":"levelo://app?vid=95b2ea0b-ba49-45b9-b438-40dfb420e216","ios":"levelo://app?vid=95b2ea0b-ba49-45b9-b438-40dfb420e216"},"vehicle_type_id":"4","last_reported":1723921606,"current_range_meters":18000,"station_id":"ce4bgn12rcd13ifvqbt0","pricing_plan_id":"cebpf4jnsgd1na2vs0mg"},{"bike_id":"1b9e53d6-999d-44b8-a8f8-daad9dc88fc0","system_id":"levelo_inurba_marseille","lat":43.297163,"lon":5.365866,"is_reserved":false,"is_disabled":false,"rental_uris":{"android":"levelo://app?vid=1b9e53d6-999d-44b8-a8f8-daad9dc88fc0","ios":"levelo://app?vid=1b9e53d6-999d-44b8-a8f8-daad9dc88fc0"},"vehicle_type_id":"4","last_reported":1723921606,"current_range_meters":14000,"station_id":"ce4bgn12rcd13ifvqbt0","pricing_plan_id":"cebpf4jnsgd1na2vs0mg"},{"bike_id":"b90edb9a-9722-43bc-8d63-bbdb5a562dbe","system_id":"levelo_inurba_marseille","lat":43.297163,"lon":5.365866,"is_reserved":false,"is_disabled":false,"rental_uris":{"android":"levelo://app?vid=b90edb9a-9722-43bc-8d63-bbdb5a562dbe","ios":"levelo://app?vid=b90edb9a-9722-43bc-8d63-bbdb5a562dbe"},"vehicle_type_id":"4","last_reported":1723921606,"current_range_meters":14000,"station_id":"ce4bgn12rcd13ifvqbt0","pricing_plan_id":"cebpf4jnsgd1na2vs0mg"},{"bike_id":"76eec9e3-f429-4b72-9fe2-79ed03cf760c","system_id":"levelo_inurba_marseille","lat":43.297163,"lon":5.365866,"is_reserved":false,"is_disabled":false,"rental_uris":{"android":"levelo://app?vid=76eec9e3-f429-4b72-9fe2-79ed03cf760c","ios":"levelo://app?vid=76eec9e3-f429-4b72-9fe2-79ed03cf760c"},"vehicle_type_id":"4","last_reported":1723921606,"current_range_meters":30800,"station_id":"ce4bgn12rcd13ifvqbt0","pricing_plan_id":"cebpf4jnsgd1na2vs0mg"},{"bike_id":"b41900e1-f58d-43bd-b353-97a81bd88322","system_id":"levelo_inurba_marseille","lat":43.297163,"lon":5.365866,"is_reserved":false,"is_disabled":false,"rental_uris":{"android":"levelo://app?vid=b41900e1-f58d-43bd-b353-97a81bd88322","ios":"levelo://app?vid=b41900e1-f58d-43bd-b353-97a81bd88322"},"vehicle_type_id":"4","last_reported":1723921606,"current_range_meters":24000,"station_id":"ce4bgn12rcd13ifvqbt0","pricing_plan_id":"cebpf4jnsgd1na2vs0mg"},{"bike_id":"af21d747-01bc-416a-a4b6-541b4433dd6a","system_id":"levelo_inurba_marseille","lat":43.297163,"lon":5.365866,"is_reserved":false,"is_disabled":false,"rental_uris":{"android":"levelo://app?vid=af21d747-01bc-416a-a4b6-541b4433dd6a","ios":"levelo://app?vid=af21d747-01bc-416a-a4b6-541b4433dd6a"},"vehicle_type_id":"4","last_reported":1723921606,"current_range_meters":28000,"station_id":"ce4bgn12rcd13ifvqbt0","pricing_plan_id":"cebpf4jnsgd1na2vs0mg"},{"bike_id":"f962f71e-9ed3-4df3-a9fa-5c8eda57e9ef","system_id":"levelo_inurba_marseille","lat":43.29623,"lon":5.37159,"is_reserved":false,"is_disabled":false,"rental_uris":{"android":"levelo://app?vid=f962f71e-9ed3-4df3-a9fa-5c8eda57e9ef","ios":"levelo://app?vid=f962f71e-9ed3-4df3-a9fa-5c8eda57e9ef"},"vehicle_type_id":"4","last_reported":1723921606,"current_range_meters":31200,"station_id":"","pricing_plan_id":"cebpf4jnsgd1na2vs0mg"},{"bike_id":"8a487383-6220-46a5-95b4-21128efd8a1e","system_id":"levelo_inurba_marseille","lat":43.32314,"lon":5.38517,"is_reserved":false,"is_disabled":false,"rental_uris":{"android":"levelo://app?vid=8a487383-6220-46a5-95b4-21128efd8a1e","ios":"levelo://app?vid=8a487383-6220-46a5-95b4-21128efd8a1e"},"vehicle_type_id":"4","last_reported":1723921606,"current_range_meters":22800,"station_id":"","pricing_plan_id":"cebpf4jnsgd1na2vs0mg"},{"bike_id":"a42e9102-ce62-4826-9372-3169ecdcfa75","system_id":"levelo_inurba_marseille","lat":43.296131,"lon":5.370791,"is_reserved":false,"is_disabled":false,"rental_uris":{"android":"levelo://app?vid=a42e9102-ce62-4826-9372-3169ecdcfa75","ios":"levelo://app?vid=a42e9102-ce62-4826-9372-3169ecdcfa75"},"vehicle_type_id":"4","last_reported":1723921606,"current_range_meters":20400,"station_id":"ce4bgnh2rcd13ifvqc0g","pricing_plan_id":"cebpf4jnsgd1na2vs0mg"},{"bike_id":"7f41be56-c173-4657-904b-91f8019da72a","system_id":"levelo_inurba_marseille","lat":43.296199,"lon":5.371539,"is_reserved":false,"is_disabled":false,"rental_uris":{"android":"levelo://app?vid=7f41be56-c173-4657-904b-91f8019da72a","ios":"levelo://app?vid=7f41be56-c173-4657-904b-91f8019da72a"},"vehicle_type_id":"4","last_reported":1723921606,"current_range_meters":24000,"station_id":"","pricing_plan_id":"cebpf4jnsgd1na2vs0mg"},{"bike_id":"af6edc6a-03c1-4096-b8b0-80be441139a2","system_id":"levelo_inurba_marseille","lat":43.323157,"lon":5.3852,"is_reserved":false,"is_disabled":false,"rental_uris":{"android":"levelo://app?vid=af6edc6a-03c1-4096-b8b0-80be441139a2","ios":"levelo://app?vid=af6edc6a-03c1-4096-b8b0-80be441139a2"},"vehicle_type_id":"4","last_reported":1723921606,"current_range_meters":5600,"station_id":"","pricing_plan_id":"cebpf4jnsgd1na2vs0mg"},{"bike_id":"d24bb3f7-4946-429b-9b47-c855c300d579","system_id":"levelo_inurba_marseille","lat":43.29573,"lon":5.367355,"is_reserved":false,"is_disabled":false,"rental_uris":{"android":"levelo://app?vid=d24bb3f7-4946-429b-9b47-c855c300d579","ios":"levelo://app?vid=d24bb3f7-4946-429b-9b47-c855c300d579"},"vehicle_type_id":"4","last_reported":1723921606,"current_range_meters":9200,"station_id":"ce4bgph2rcd13ifvqc2g","pricing_plan_id":"cebpf4jnsgd1na2vs0mg"},{"bike_id":"0018e79b-5948-4db3-908e-97a050f49298","system_id":"levelo_inurba_marseille","lat":43.29584,"lon":5.36748,"is_reserved":false,"is_disabled":false,"rental_uris":{"android":"levelo://app?vid=0018e79b-5948-4db3-908e-97a050f49298","ios":"levelo://app?vid=0018e79b-5948-4db3-908e-97a050f49298"},"vehicle_type_id":"4","last_reported":1723921606,"current_range_meters":7200,"station_id":"ce4bgph2rcd13ifvqc2g","pricing_plan_id":"cebpf4jnsgd1na2vs0mg"},{"bike_id":"20c7a738-71d0-4242-b261-651fba099633","system_id":"levelo_inurba_marseille","lat":43.29584,"lon":5.36752,"is_reserved":false,"is_disabled":false,"rental_uris":{"android":"levelo://app?vid=20c7a738-71d0-4242-b261-651fba099633","ios":"levelo://app?vid=20c7a738-71d0-4242-b261-651fba099633"},"vehicle_type_id":"4","last_reported":1723921606,"current_range_meters":20800,"station_id":"ce4bgph2rcd13ifvqc2g","pricing_plan_id":"cebpf4jnsgd1na2vs0mg"},{"bike_id":"cb0d2f7d-2576-43f3-9771-c31ca48e1d75","system_id":"levelo_inurba_marseille","lat":43.29583,"lon":5.36744,"is_reserved":false,"is_disabled":false,"rental_uris":{"android":"levelo://app?vid=cb0d2f7d-2576-43f3-9771-c31ca48e1d75","ios":"levelo://app?vid=cb0d2f7d-2576-43f3-9771-c31ca48e1d75"},"vehicle_type_id":"4","last_reported":1723921606,"current_range_meters":0,"station_id":"ce4bgph2rcd13ifvqc2g","pricing_plan_id":"cebpf4jnsgd1na2vs0mg"},{"bike_id":"293bd5c7-fb25-4a5b-a48b-d9ec5872a851","system_id":"levelo_inurba_marseille","lat":43.309919,"lon":5.38988,"is_reserved":false,"is_disabled":false,"rental_uris":{"android":"levelo://app?vid=293bd5c7-fb25-4a5b-a48b-d9ec5872a851","ios":"levelo://app?vid=293bd5c7-fb25-4a5b-a48b-d9ec5872a851"},"vehicle_type_id":"4","last_reported":1723921606,"current_range_meters":0,"station_id":"ce4bgup2rcd13ifvqco0","pricing_plan_id":"cebpf4jnsgd1na2vs0mg"},{"bike_id":"ae0a25e0-1940-46d2-8aca-ab90840317d9","system_id":"levelo_inurba_marseille","lat":43.29573,"lon":5.367355,"is_reserved":false,"is_disabled":false,"rental_uris":{"android":"levelo://app?vid=ae0a25e0-1940-46d2-8aca-ab90840317d9","ios":"levelo://app?vid=ae0a25e0-1940-46d2-8aca-ab90840317d9"},"vehicle_type_id":"4","last_reported":1723921606,"current_range_meters":0,"station_id":"ce4bgph2rcd13ifvqc2g","pricing_plan_id":"cebpf4jnsgd1na2vs0mg"},{"bike_id":"4d09a4d1-c9ee-47e4-a516-875ef86004fb","system_id":"levelo_inurba_marseille","lat":43.29573,"lon":5.367355,"is_reserved":false,"is_disabled":false,"rental_uris":{"android":"levelo://app?vid=4d09a4d1-c9ee-47e4-a516-875ef86004fb","ios":"levelo://app?vid=4d09a4d1-c9ee-47e4-a516-875ef86004fb"},"vehicle_type_id":"4","last_reported":1723921606,"current_range_meters":30400,"station_id":"ce4bgph2rcd13ifvqc2g","pricing_plan_id":"cebpf4jnsgd1na2vs0mg"},{"bike_id":"7166cfe1-9a27-4c66-a23b-28e2622b3689","system_id":"levelo_inurba_marseille","lat":43.309984,"lon":5.389994,"is_reserved":false,"is_disabled":false,"rental_uris":{"android":"levelo://app?vid=7166cfe1-9a27-4c66-a23b-28e2622b3689","ios":"levelo://app?vid=7166cfe1-9a27-4c66-a23b-28e2622b3689"},"vehicle_type_id":"4","last_reported":1723921606,"current_range_meters":30000,"station_id":"ce4bgup2rcd13ifvqco0","pricing_plan_id":"cebpf4jnsgd1na2vs0mg"},{"bike_id":"b644a05a-696d-4c6f-82ea-363e6351fe8d","system_id":"levelo_inurba_marseille","lat":43.29573,"lon":5.367355,"is_reserved":false,"is_disabled":false,"rental_uris":{"android":"levelo://app?vid=b644a05a-696d-4c6f-82ea-363e6351fe8d","ios":"levelo://app?vid=b644a05a-696d-4c6f-82ea-363e6351fe8d"},"vehicle_type_id":"4","last_reported":1723921606,"current_range_meters":7600,"station_id":"ce4bgph2rcd13ifvqc2g","pricing_plan_id":"cebpf4jnsgd1na2vs0mg"},{"bike_id":"d823b2c5-e47b-419d-b5c2-d628d9373603","system_id":"levelo_inurba_marseille","lat":43.309672,"lon":5.390118,"is_reserved":false,"is_disabled":false,"rental_uris":{"android":"levelo://app?vid=d823b2c5-e47b-419d-b5c2-d628d9373603","ios":"levelo://app?vid=d823b2c5-e47b-419d-b5c2-d628d9373603"},"vehicle_type_id":"4","last_reported":1723921606,"current_range_meters":21600,"station_id":"ce4bgup2rcd13ifvqco0","pricing_plan_id":"cebpf4jnsgd1na2vs0mg"},{"bike_id":"45ee8fcf-09e1-4534-9292-1f6b031acd8f","system_id":"levelo_inurba_marseille","lat":43.30956,"lon":5.39021,"is_reserved":false,"is_disabled":false,"rental_uris":{"android":"levelo://app?vid=45ee8fcf-09e1-4534-9292-1f6b031acd8f","ios":"levelo://app?vid=45ee8fcf-09e1-4534-9292-1f6b031acd8f"},"vehicle_type_id":"4","last_reported":1723921606,"current_range_meters":7600,"station_id":"ce4bgup2rcd13ifvqco0","pricing_plan_id":"cebpf4jnsgd1na2vs0mg"},{"bike_id":"402937ae-bdf7-4995-ae93-90106d55ebc0","system_id":"levelo_inurba_marseille","lat":43.30952,"lon":5.3902,"is_reserved":false,"is_disabled":false,"rental_uris":{"android":"levelo://app?vid=402937ae-bdf7-4995-ae93-90106d55ebc0","ios":"levelo://app?vid=402937ae-bdf7-4995-ae93-90106d55ebc0"},"vehicle_type_id":"4","last_reported":1723921606,"current_range_meters":11600,"station_id":"ce4bgup2rcd13ifvqco0","pricing_plan_id":"cebpf4jnsgd1na2vs0mg"},{"bike_id":"97c0ab60-ca4a-4c3d-b8c2-6e5f80ed6be5","system_id":"levelo_inurba_marseille","lat":43.30959,"lon":5.39022,"is_reserved":false,"is_disabled":false,"rental_uris":{"android":"levelo://app?vid=97c0ab60-ca4a-4c3d-b8c2-6e5f80ed6be5","ios":"levelo://app?vid=97c0ab60-ca4a-4c3d-b8c2-6e5f80ed6be5"},"vehicle_type_id":"4","last_reported":1723921606,"current_range_meters":10400,"station_id":"ce4bgup2rcd13ifvqco0","pricing_plan_id":"cebpf4jnsgd1na2vs0mg"},{"bike_id":"dd08ff88-2585-43c9-ade9-ce696589a101","system_id":"levelo_inurba_marseille","lat":43.296935,"lon":5.376544,"is_reserved":false,"is_disabled":false,"rental_uris":{"android":"levelo://app?vid=dd08ff88-2585-43c9-ade9-ce696589a101","ios":"levelo://app?vid=dd08ff88-2585-43c9-ade9-ce696589a101"},"vehicle_type_id":"4","last_reported":1723921606,"current_range_meters":0,"station_id":"ce4bgkh2rcd13ifvqbl0","pricing_plan_id":"cebpf4jnsgd1na2vs0mg"},{"bike_id":"96c211f9-92c2-4647-83dc-f63a650e5e77","system_id":"levelo_inurba_marseille","lat":43.30959,"lon":5.39024,"is_reserved":false,"is_disabled":false,"rental_uris":{"android":"levelo://app?vid=96c211f9-92c2-4647-83dc-f63a650e5e77","ios":"levelo://app?vid=96c211f9-92c2-4647-83dc-f63a650e5e77"},"vehicle_type_id":"4","last_reported":1723921606,"current_range_meters":26400,"station_id":"ce4bgup2rcd13ifvqco0","pricing_plan_id":"cebpf4jnsgd1na2vs0mg"},{"bike_id":"9cd64929-98f1-47c9-88c9-3a5d0035e963","system_id":"levelo_inurba_marseille","lat":43.30959,"lon":5.39024,"is_reserved":false,"is_disabled":false,"rental_uris":{"android":"levelo://app?vid=9cd64929-98f1-47c9-88c9-3a5d0035e963","ios":"levelo://app?vid=9cd64929-98f1-47c9-88c9-3a5d0035e963"},"vehicle_type_id":"4","last_reported":1723921606,"current_range_meters":8400,"station_id":"ce4bgup2rcd13ifvqco0","pricing_plan_id":"cebpf4jnsgd1na2vs0mg"},{"bike_id":"0fe791ca-6371-46c3-b514-1437575a4578","system_id":"levelo_inurba_marseille","lat":43.30957,"lon":5.39024,"is_reserved":false,"is_disabled":false,"rental_uris":{"android":"levelo://app?vid=0fe791ca-6371-46c3-b514-1437575a4578","ios":"levelo://app?vid=0fe791ca-6371-46c3-b514-1437575a4578"},"vehicle_type_id":"4","last_reported":1723921606,"current_range_meters":18400,"station_id":"ce4bgup2rcd13ifvqco0","pricing_plan_id":"cebpf4jnsgd1na2vs0mg"},{"bike_id":"7d4b0035-7116-49cc-b6df-7429b2db4c44","system_id":"levelo_inurba_marseille","lat":43.309589,"lon":5.390258,"is_reserved":false,"is_disabled":false,"rental_uris":{"android":"levelo://app?vid=7d4b0035-7116-49cc-b6df-7429b2db4c44","ios":"levelo://app?vid=7d4b0035-7116-49cc-b6df-7429b2db4c44"},"vehicle_type_id":"4","last_reported":1723921606,"current_range_meters":13200,"station_id":"ce4bgup2rcd13ifvqco0","pricing_plan_id":"cebpf4jnsgd1na2vs0mg"},{"bike_id":"46541940-9e31-4c1e-a889-049d58c9c3cb","system_id":"levelo_inurba_marseille","lat":43.309589,"lon":5.390258,"is_reserved":false,"is_disabled":false,"rental_uris":{"android":"levelo://app?vid=46541940-9e31-4c1e-a889-049d58c9c3cb","ios":"levelo://app?vid=46541940-9e31-4c1e-a889-049d58c9c3cb"},"vehicle_type_id":"4","last_reported":1723921606,"current_range_meters":31200,"station_id":"ce4bgup2rcd13ifvqco0","pricing_plan_id":"cebpf4jnsgd1na2vs0mg"},{"bike_id":"d6447df5-884b-42a6-a4c5-5977c80a4b85","system_id":"levelo_inurba_marseille","lat":43.309589,"lon":5.390258,"is_reserved":false,"is_disabled":false,"rental_uris":{"android":"levelo://app?vid=d6447df5-884b-42a6-a4c5-5977c80a4b85","ios":"levelo://app?vid=d6447df5-884b-42a6-a4c5-5977c80a4b85"},"vehicle_type_id":"4","last_reported":1723921606,"current_range_meters":11200,"station_id":"ce4bgup2rcd13ifvqco0","pricing_plan_id":"cebpf4jnsgd1na2vs0mg"},{"bike_id":"e07d46b1-4609-4226-a959-54e9e60a8a98","system_id":"levelo_inurba_marseille","lat":43.30965,"lon":5.39029,"is_reserved":false,"is_disabled":false,"rental_uris":{"android":"levelo://app?vid=e07d46b1-4609-4226-a959-54e9e60a8a98","ios":"levelo://app?vid=e07d46b1-4609-4226-a959-54e9e60a8a98"},"vehicle_type_id":"4","last_reported":1723921606,"current_range_meters":26000,"station_id":"ce4bgup2rcd13ifvqco0","pricing_plan_id":"cebpf4jnsgd1na2vs0mg"},{"bike_id":"fccde25c-4fce-4ff7-9040-afea4e1c1464","system_id":"levelo_inurba_marseille","lat":43.30956,"lon":5.39027,"is_reserved":false,"is_disabled":false,"rental_uris":{"android":"levelo://app?vid=fccde25c-4fce-4ff7-9040-afea4e1c1464","ios":"levelo://app?vid=fccde25c-4fce-4ff7-9040-afea4e1c1464"},"vehicle_type_id":"4","last_reported":1723921606,"current_range_meters":11200,"station_id":"ce4bgup2rcd13ifvqco0","pricing_plan_id":"cebpf4jnsgd1na2vs0mg"},{"bike_id":"324ff3a8-3ca9-4b7d-9bf6-e894e77bd43a","system_id":"levelo_inurba_marseille","lat":43.30956,"lon":5.39027,"is_reserved":false,"is_disabled":false,"rental_uris":{"android":"levelo://app?vid=324ff3a8-3ca9-4b7d-9bf6-e894e77bd43a","ios":"levelo://app?vid=324ff3a8-3ca9-4b7d-9bf6-e894e77bd43a"},"vehicle_type_id":"4","last_reported":1723921606,"current_range_meters":18000,"station_id":"ce4bgup2rcd13ifvqco0","pricing_plan_id":"cebpf4jnsgd1na2vs0mg"},{"bike_id":"68902d67-56b5-495d-adc9-d28d84e5275d","system_id":"levelo_inurba_marseille","lat":43.30956,"lon":5.39027,"is_reserved":false,"is_disabled":false,"rental_uris":{"android":"levelo://app?vid=68902d67-56b5-495d-adc9-d28d84e5275d","ios":"levelo://app?vid=68902d67-56b5-495d-adc9-d28d84e5275d"},"vehicle_type_id":"4","last_reported":1723921606,"current_range_meters":28800,"station_id":"ce4bgup2rcd13ifvqco0","pricing_plan_id":"cebpf4jnsgd1na2vs0mg"},{"bike_id":"84c216a3-1150-4c0e-add7-46a922d6f1fa","system_id":"levelo_inurba_marseille","lat":43.309589,"lon":5.390258,"is_reserved":false,"is_disabled":false,"rental_uris":{"android":"levelo://app?vid=84c216a3-1150-4c0e-add7-46a922d6f1fa","ios":"levelo://app?vid=84c216a3-1150-4c0e-add7-46a922d6f1fa"},"vehicle_type_id":"4","last_reported":1723921606,"current_range_meters":16400,"station_id":"ce4bgup2rcd13ifvqco0","pricing_plan_id":"cebpf4jnsgd1na2vs0mg"},{"bike_id":"0fb81a0d-45a2-4037-a377-521c1a91d327","system_id":"levelo_inurba_marseille","lat":43.30966,"lon":5.3903,"is_reserved":false,"is_disabled":false,"rental_uris":{"android":"levelo://app?vid=0fb81a0d-45a2-4037-a377-521c1a91d327","ios":"levelo://app?vid=0fb81a0d-45a2-4037-a377-521c1a91d327"},"vehicle_type_id":"4","last_reported":1723921606,"current_range_meters":16000,"station_id":"ce4bgup2rcd13ifvqco0","pricing_plan_id":"cebpf4jnsgd1na2vs0mg"},{"bike_id":"565fe077-91f4-4769-ae09-03c2df1fa04a","system_id":"levelo_inurba_marseille","lat":43.309589,"lon":5.390258,"is_reserved":false,"is_disabled":false,"rental_uris":{"android":"levelo://app?vid=565fe077-91f4-4769-ae09-03c2df1fa04a","ios":"levelo://app?vid=565fe077-91f4-4769-ae09-03c2df1fa04a"},"vehicle_type_id":"4","last_reported":1723921606,"current_range_meters":23600,"station_id":"ce4bgup2rcd13ifvqco0","pricing_plan_id":"cebpf4jnsgd1na2vs0mg"},{"bike_id":"760c817b-4886-425e-8d10-c47dae7e7d98","system_id":"levelo_inurba_marseille","lat":43.309589,"lon":5.390258,"is_reserved":false,"is_disabled":false,"rental_uris":{"android":"levelo://app?vid=760c817b-4886-425e-8d10-c47dae7e7d98","ios":"levelo://app?vid=760c817b-4886-425e-8d10-c47dae7e7d98"},"vehicle_type_id":"4","last_reported":1723921606,"current_range_meters":19600,"station_id":"ce4bgup2rcd13ifvqco0","pricing_plan_id":"cebpf4jnsgd1na2vs0mg"},{"bike_id":"856d406f-a62c-44a2-ad9b-234c37b173ee","system_id":"levelo_inurba_marseille","lat":43.299028,"lon":5.381509,"is_reserved":false,"is_disabled":false,"rental_uris":{"android":"levelo://app?vid=856d406f-a62c-44a2-ad9b-234c37b173ee","ios":"levelo://app?vid=856d406f-a62c-44a2-ad9b-234c37b173ee"},"vehicle_type_id":"4","last_reported":1723921606,"current_range_meters":6800,"station_id":"ce4bgj12rcd13ifvqbc0","pricing_plan_id":"cebpf4jnsgd1na2vs0mg"},{"bike_id":"ef8dc142-a6d3-4948-9a9a-6d77c109307c","system_id":"levelo_inurba_marseille","lat":43.309589,"lon":5.390258,"is_reserved":false,"is_disabled":false,"rental_uris":{"android":"levelo://app?vid=ef8dc142-a6d3-4948-9a9a-6d77c109307c","ios":"levelo://app?vid=ef8dc142-a6d3-4948-9a9a-6d77c109307c"},"vehicle_type_id":"4","last_reported":1723921606,"current_range_meters":7600,"station_id":"ce4bgup2rcd13ifvqco0","pricing_plan_id":"cebpf4jnsgd1na2vs0mg"},{"bike_id":"4a4aa298-6c7e-495e-9f78-c48d4da33f28","system_id":"levelo_inurba_marseille","lat":43.30956,"lon":5.39029,"is_reserved":false,"is_disabled":false,"rental_uris":{"android":"levelo://app?vid=4a4aa298-6c7e-495e-9f78-c48d4da33f28","ios":"levelo://app?vid=4a4aa298-6c7e-495e-9f78-c48d4da33f28"},"vehicle_type_id":"4","last_reported":1723921606,"current_range_meters":7600,"station_id":"ce4bgup2rcd13ifvqco0","pricing_plan_id":"cebpf4jnsgd1na2vs0mg"},{"bike_id":"4983e4f6-064f-4a81-9bdc-2eaae6de60d4","system_id":"levelo_inurba_marseille","lat":43.30936,"lon":5.39024,"is_reserved":false,"is_disabled":false,"rental_uris":{"android":"levelo://app?vid=4983e4f6-064f-4a81-9bdc-2eaae6de60d4","ios":"levelo://app?vid=4983e4f6-064f-4a81-9bdc-2eaae6de60d4"},"vehicle_type_id":"4","last_reported":1723921606,"current_range_meters":16800,"station_id":"ce4bgup2rcd13ifvqco0","pricing_plan_id":"cebpf4jnsgd1na2vs0mg"},{"bike_id":"f96524ab-e691-47b7-802b-efb27aff219d","system_id":"levelo_inurba_marseille","lat":43.309589,"lon":5.390258,"is_reserved":false,"is_disabled":false,"rental_uris":{"android":"levelo://app?vid=f96524ab-e691-47b7-802b-efb27aff219d","ios":"levelo://app?vid=f96524ab-e691-47b7-802b-efb27aff219d"},"vehicle_type_id":"4","last_reported":1723921606,"current_range_meters":26400,"station_id":"ce4bgup2rcd13ifvqco0","pricing_plan_id":"cebpf4jnsgd1na2vs0mg"},{"bike_id":"d0437a17-97f3-44d7-9bd5-be41e9e79b30","system_id":"levelo_inurba_marseille","lat":43.309589,"lon":5.390258,"is_reserved":false,"is_disabled":false,"rental_uris":{"android":"levelo://app?vid=d0437a17-97f3-44d7-9bd5-be41e9e79b30","ios":"levelo://app?vid=d0437a17-97f3-44d7-9bd5-be41e9e79b30"},"vehicle_type_id":"4","last_reported":1723921606,"current_range_meters":4000,"station_id":"ce4bgup2rcd13ifvqco0","pricing_plan_id":"cebpf4jnsgd1na2vs0mg"},{"bike_id":"d467946c-78ca-4650-b6bc-88896e1bca70","system_id":"levelo_inurba_marseille","lat":43.30967,"lon":5.39034,"is_reserved":false,"is_disabled":false,"rental_uris":{"android":"levelo://app?vid=d467946c-78ca-4650-b6bc-88896e1bca70","ios":"levelo://app?vid=d467946c-78ca-4650-b6bc-88896e1bca70"},"vehicle_type_id":"4","last_reported":1723921606,"current_range_meters":10800,"station_id":"ce4bgup2rcd13ifvqco0","pricing_plan_id":"cebpf4jnsgd1na2vs0mg"},{"bike_id":"ba599ee5-1f31-4b21-a579-d58484b97e72","system_id":"levelo_inurba_marseille","lat":43.309589,"lon":5.390258,"is_reserved":false,"is_disabled":false,"rental_uris":{"android":"levelo://app?vid=ba599ee5-1f31-4b21-a579-d58484b97e72","ios":"levelo://app?vid=ba599ee5-1f31-4b21-a579-d58484b97e72"},"vehicle_type_id":"4","last_reported":1723921606,"current_range_meters":18400,"station_id":"ce4bgup2rcd13ifvqco0","pricing_plan_id":"cebpf4jnsgd1na2vs0mg"},{"bike_id":"09e03639-1a3b-40f2-9693-7d8a5f67d9ea","system_id":"levelo_inurba_marseille","lat":43.30957,"lon":5.39032,"is_reserved":false,"is_disabled":false,"rental_uris":{"android":"levelo://app?vid=09e03639-1a3b-40f2-9693-7d8a5f67d9ea","ios":"levelo://app?vid=09e03639-1a3b-40f2-9693-7d8a5f67d9ea"},"vehicle_type_id":"4","last_reported":1723921606,"current_range_meters":12000,"station_id":"ce4bgup2rcd13ifvqco0","pricing_plan_id":"cebpf4jnsgd1na2vs0mg"},{"bike_id":"54608a5e-8cbf-4077-a96a-7164ddc74a63","system_id":"levelo_inurba_marseille","lat":43.309553,"lon":5.390317,"is_reserved":false,"is_disabled":false,"rental_uris":{"android":"levelo://app?vid=54608a5e-8cbf-4077-a96a-7164ddc74a63","ios":"levelo://app?vid=54608a5e-8cbf-4077-a96a-7164ddc74a63"},"vehicle_type_id":"4","last_reported":1723921606,"current_range_meters":20800,"station_id":"ce4bgup2rcd13ifvqco0","pricing_plan_id":"cebpf4jnsgd1na2vs0mg"},{"bike_id":"9acac01f-9632-448d-9fea-62f78cfa437f","system_id":"levelo_inurba_marseille","lat":43.309589,"lon":5.390258,"is_reserved":false,"is_disabled":false,"rental_uris":{"android":"levelo://app?vid=9acac01f-9632-448d-9fea-62f78cfa437f","ios":"levelo://app?vid=9acac01f-9632-448d-9fea-62f78cfa437f"},"vehicle_type_id":"4","last_reported":1723921606,"current_range_meters":31200,"station_id":"ce4bgup2rcd13ifvqco0","pricing_plan_id":"cebpf4jnsgd1na2vs0mg"},{"bike_id":"551a0d2b-38ea-4942-b225-c36b2da416a4","system_id":"levelo_inurba_marseille","lat":43.309483,"lon":5.390303,"is_reserved":false,"is_disabled":false,"rental_uris":{"android":"levelo://app?vid=551a0d2b-38ea-4942-b225-c36b2da416a4","ios":"levelo://app?vid=551a0d2b-38ea-4942-b225-c36b2da416a4"},"vehicle_type_id":"4","last_reported":1723921606,"current_range_meters":0,"station_id":"ce4bgup2rcd13ifvqco0","pricing_plan_id":"cebpf4jnsgd1na2vs0mg"},{"bike_id":"595d3f94-4f95-48be-b3bf-7cadc6ffd1d0","system_id":"levelo_inurba_marseille","lat":43.309532,"lon":5.390318,"is_reserved":false,"is_disabled":false,"rental_uris":{"android":"levelo://app?vid=595d3f94-4f95-48be-b3bf-7cadc6ffd1d0","ios":"levelo://app?vid=595d3f94-4f95-48be-b3bf-7cadc6ffd1d0"},"vehicle_type_id":"4","last_reported":1723921606,"current_range_meters":2000,"station_id":"ce4bgup2rcd13ifvqco0","pricing_plan_id":"cebpf4jnsgd1na2vs0mg"},{"bike_id":"53a7fa96-fe31-46a6-8e87-d18f7e902054","system_id":"levelo_inurba_marseille","lat":43.30953,"lon":5.39032,"is_reserved":false,"is_disabled":false,"rental_uris":{"android":"levelo://app?vid=53a7fa96-fe31-46a6-8e87-d18f7e902054","ios":"levelo://app?vid=53a7fa96-fe31-46a6-8e87-d18f7e902054"},"vehicle_type_id":"4","last_reported":1723921606,"current_range_meters":5600,"station_id":"ce4bgup2rcd13ifvqco0","pricing_plan_id":"cebpf4jnsgd1na2vs0mg"},{"bike_id":"70a2245c-7ddd-4945-bcbd-d58649bb3b93","system_id":"levelo_inurba_marseille","lat":43.309589,"lon":5.390258,"is_reserved":false,"is_disabled":false,"rental_uris":{"android":"levelo://app?vid=70a2245c-7ddd-4945-bcbd-d58649bb3b93","ios":"levelo://app?vid=70a2245c-7ddd-4945-bcbd-d58649bb3b93"},"vehicle_type_id":"4","last_reported":1723921606,"current_range_meters":2000,"station_id":"ce4bgup2rcd13ifvqco0","pricing_plan_id":"cebpf4jnsgd1na2vs0mg"},{"bike_id":"c3e0460f-e06f-4fdc-aa31-e057ae0984c1","system_id":"levelo_inurba_marseille","lat":43.309589,"lon":5.390258,"is_reserved":false,"is_disabled":false,"rental_uris":{"android":"levelo://app?vid=c3e0460f-e06f-4fdc-aa31-e057ae0984c1","ios":"levelo://app?vid=c3e0460f-e06f-4fdc-aa31-e057ae0984c1"},"vehicle_type_id":"4","last_reported":1723921606,"current_range_meters":6800,"station_id":"ce4bgup2rcd13ifvqco0","pricing_plan_id":"cebpf4jnsgd1na2vs0mg"},{"bike_id":"a14f75e9-3fde-4f67-a5c9-99038f85d9f7","system_id":"levelo_inurba_marseille","lat":43.30965,"lon":5.39037,"is_reserved":false,"is_disabled":false,"rental_uris":{"android":"levelo://app?vid=a14f75e9-3fde-4f67-a5c9-99038f85d9f7","ios":"levelo://app?vid=a14f75e9-3fde-4f67-a5c9-99038f85d9f7"},"vehicle_type_id":"4","last_reported":1723921606,"current_range_meters":4800,"station_id":"ce4bgup2rcd13ifvqco0","pricing_plan_id":"cebpf4jnsgd1na2vs0mg"},{"bike_id":"4ceae8c4-f036-4117-b082-9b354b3a3438","system_id":"levelo_inurba_marseille","lat":43.3096,"lon":5.39036,"is_reserved":false,"is_disabled":false,"rental_uris":{"android":"levelo://app?vid=4ceae8c4-f036-4117-b082-9b354b3a3438","ios":"levelo://app?vid=4ceae8c4-f036-4117-b082-9b354b3a3438"},"vehicle_type_id":"4","last_reported":1723921606,"current_range_meters":11200,"station_id":"ce4bgup2rcd13ifvqco0","pricing_plan_id":"cebpf4jnsgd1na2vs0mg"},{"bike_id":"b825b503-c306-4f25-b060-297134128038","system_id":"levelo_inurba_marseille","lat":43.30946,"lon":5.39033,"is_reserved":false,"is_disabled":false,"rental_uris":{"android":"levelo://app?vid=b825b503-c306-4f25-b060-297134128038","ios":"levelo://app?vid=b825b503-c306-4f25-b060-297134128038"},"vehicle_type_id":"4","last_reported":1723921606,"current_range_meters":30400,"station_id":"ce4bgup2rcd13ifvqco0","pricing_plan_id":"cebpf4jnsgd1na2vs0mg"},{"bike_id":"85acaab9-6bed-4555-b335-d958173421dd","system_id":"levelo_inurba_marseille","lat":43.309589,"lon":5.390258,"is_reserved":false,"is_disabled":false,"rental_uris":{"android":"levelo://app?vid=85acaab9-6bed-4555-b335-d958173421dd","ios":"levelo://app?vid=85acaab9-6bed-4555-b335-d958173421dd"},"vehicle_type_id":"4","last_reported":1723921606,"current_range_meters":22800,"station_id":"ce4bgup2rcd13ifvqco0","pricing_plan_id":"cebpf4jnsgd1na2vs0mg"},{"bike_id":"e0cfbaa5-ce52-4dcc-a7d8-15a63d367faf","system_id":"levelo_inurba_marseille","lat":43.309589,"lon":5.390258,"is_reserved":false,"is_disabled":false,"rental_uris":{"android":"levelo://app?vid=e0cfbaa5-ce52-4dcc-a7d8-15a63d367faf","ios":"levelo://app?vid=e0cfbaa5-ce52-4dcc-a7d8-15a63d367faf"},"vehicle_type_id":"4","last_reported":1723921606,"current_range_meters":22800,"station_id":"ce4bgup2rcd13ifvqco0","pricing_plan_id":"cebpf4jnsgd1na2vs0mg"},{"bike_id":"1ac23116-041f-466c-95ae-f480f6f0e1c1","system_id":"levelo_inurba_marseille","lat":43.309589,"lon":5.390258,"is_reserved":false,"is_disabled":false,"rental_uris":{"android":"levelo://app?vid=1ac23116-041f-466c-95ae-f480f6f0e1c1","ios":"levelo://app?vid=1ac23116-041f-466c-95ae-f480f6f0e1c1"},"vehicle_type_id":"4","last_reported":1723921606,"current_range_meters":1600,"station_id":"ce4bgup2rcd13ifvqco0","pricing_plan_id":"cebpf4jnsgd1na2vs0mg"},{"bike_id":"24de1a70-5c9d-418d-a2fc-5bfd25265a8a","system_id":"levelo_inurba_marseille","lat":43.309589,"lon":5.390258,"is_reserved":false,"is_disabled":false,"rental_uris":{"android":"levelo://app?vid=24de1a70-5c9d-418d-a2fc-5bfd25265a8a","ios":"levelo://app?vid=24de1a70-5c9d-418d-a2fc-5bfd25265a8a"},"vehicle_type_id":"4","last_reported":1723921606,"current_range_meters":12000,"station_id":"ce4bgup2rcd13ifvqco0","pricing_plan_id":"cebpf4jnsgd1na2vs0mg"},{"bike_id":"e8c18575-3e97-4a16-98ff-07ff164eabd7","system_id":"levelo_inurba_marseille","lat":43.309589,"lon":5.390258,"is_reserved":false,"is_disabled":false,"rental_uris":{"android":"levelo://app?vid=e8c18575-3e97-4a16-98ff-07ff164eabd7","ios":"levelo://app?vid=e8c18575-3e97-4a16-98ff-07ff164eabd7"},"vehicle_type_id":"4","last_reported":1723921606,"current_range_meters":30800,"station_id":"ce4bgup2rcd13ifvqco0","pricing_plan_id":"cebpf4jnsgd1na2vs0mg"},{"bike_id":"d77a18a5-0163-4185-9bc4-ca8c7a272d32","system_id":"levelo_inurba_marseille","lat":43.309544,"lon":5.39036,"is_reserved":false,"is_disabled":false,"rental_uris":{"android":"levelo://app?vid=d77a18a5-0163-4185-9bc4-ca8c7a272d32","ios":"levelo://app?vid=d77a18a5-0163-4185-9bc4-ca8c7a272d32"},"vehicle_type_id":"4","last_reported":1723921606,"current_range_meters":2400,"station_id":"ce4bgup2rcd13ifvqco0","pricing_plan_id":"cebpf4jnsgd1na2vs0mg"},{"bike_id":"412dae95-9c41-488d-ad2d-630dddc399bf","system_id":"levelo_inurba_marseille","lat":43.309589,"lon":5.390258,"is_reserved":false,"is_disabled":false,"rental_uris":{"android":"levelo://app?vid=412dae95-9c41-488d-ad2d-630dddc399bf","ios":"levelo://app?vid=412dae95-9c41-488d-ad2d-630dddc399bf"},"vehicle_type_id":"4","last_reported":1723921606,"current_range_meters":27600,"station_id":"ce4bgup2rcd13ifvqco0","pricing_plan_id":"cebpf4jnsgd1na2vs0mg"},{"bike_id":"dae2e1bb-f6a9-48df-bc61-6a1993ccdc4d","system_id":"levelo_inurba_marseille","lat":43.309589,"lon":5.390258,"is_reserved":false,"is_disabled":false,"rental_uris":{"android":"levelo://app?vid=dae2e1bb-f6a9-48df-bc61-6a1993ccdc4d","ios":"levelo://app?vid=dae2e1bb-f6a9-48df-bc61-6a1993ccdc4d"},"vehicle_type_id":"4","last_reported":1723921606,"current_range_meters":10000,"station_id":"ce4bgup2rcd13ifvqco0","pricing_plan_id":"cebpf4jnsgd1na2vs0mg"},{"bike_id":"44680023-44ee-4af3-8a4f-654483326fbc","system_id":"levelo_inurba_marseille","lat":43.309589,"lon":5.390258,"is_reserved":false,"is_disabled":false,"rental_uris":{"android":"levelo://app?vid=44680023-44ee-4af3-8a4f-654483326fbc","ios":"levelo://app?vid=44680023-44ee-4af3-8a4f-654483326fbc"},"vehicle_type_id":"4","last_reported":1723921606,"current_range_meters":14800,"station_id":"ce4bgup2rcd13ifvqco0","pricing_plan_id":"cebpf4jnsgd1na2vs0mg"},{"bike_id":"bc183e01-d6e9-401d-9d6e-505057f915a3","system_id":"levelo_inurba_marseille","lat":43.309517,"lon":5.390367,"is_reserved":false,"is_disabled":false,"rental_uris":{"android":"levelo://app?vid=bc183e01-d6e9-401d-9d6e-505057f915a3","ios":"levelo://app?vid=bc183e01-d6e9-401d-9d6e-505057f915a3"},"vehicle_type_id":"4","last_reported":1723921606,"current_range_meters":10800,"station_id":"ce4bgup2rcd13ifvqco0","pricing_plan_id":"cebpf4jnsgd1na2vs0mg"},{"bike_id":"49d932de-ab3f-49c3-b49b-b1a15647a1c6","system_id":"levelo_inurba_marseille","lat":43.309589,"lon":5.390258,"is_reserved":false,"is_disabled":false,"rental_uris":{"android":"levelo://app?vid=49d932de-ab3f-49c3-b49b-b1a15647a1c6","ios":"levelo://app?vid=49d932de-ab3f-49c3-b49b-b1a15647a1c6"},"vehicle_type_id":"4","last_reported":1723921606,"current_range_meters":19200,"station_id":"ce4bgup2rcd13ifvqco0","pricing_plan_id":"cebpf4jnsgd1na2vs0mg"},{"bike_id":"fa3629eb-7d96-422d-9f32-52fd544af791","system_id":"levelo_inurba_marseille","lat":43.309589,"lon":5.390258,"is_reserved":false,"is_disabled":false,"rental_uris":{"android":"levelo://app?vid=fa3629eb-7d96-422d-9f32-52fd544af791","ios":"levelo://app?vid=fa3629eb-7d96-422d-9f32-52fd544af791"},"vehicle_type_id":"4","last_reported":1723921606,"current_range_meters":5600,"station_id":"ce4bgup2rcd13ifvqco0","pricing_plan_id":"cebpf4jnsgd1na2vs0mg"},{"bike_id":"4d3b1bfb-9f86-413f-81b1-812f123d3c49","system_id":"levelo_inurba_marseille","lat":43.309589,"lon":5.390258,"is_reserved":false,"is_disabled":false,"rental_uris":{"android":"levelo://app?vid=4d3b1bfb-9f86-413f-81b1-812f123d3c49","ios":"levelo://app?vid=4d3b1bfb-9f86-413f-81b1-812f123d3c49"},"vehicle_type_id":"4","last_reported":1723921606,"current_range_meters":21600,"station_id":"ce4bgup2rcd13ifvqco0","pricing_plan_id":"cebpf4jnsgd1na2vs0mg"},{"bike_id":"cf7c4c85-043a-4029-917a-0bc7086bb33b","system_id":"levelo_inurba_marseille","lat":43.309589,"lon":5.390258,"is_reserved":false,"is_disabled":false,"rental_uris":{"android":"levelo://app?vid=cf7c4c85-043a-4029-917a-0bc7086bb33b","ios":"levelo://app?vid=cf7c4c85-043a-4029-917a-0bc7086bb33b"},"vehicle_type_id":"4","last_reported":1723921606,"current_range_meters":18000,"station_id":"ce4bgup2rcd13ifvqco0","pricing_plan_id":"cebpf4jnsgd1na2vs0mg"},{"bike_id":"95616a2b-eefd-4a35-a83f-33410f79af38","system_id":"levelo_inurba_marseille","lat":43.309472,"lon":5.390368,"is_reserved":false,"is_disabled":false,"rental_uris":{"android":"levelo://app?vid=95616a2b-eefd-4a35-a83f-33410f79af38","ios":"levelo://app?vid=95616a2b-eefd-4a35-a83f-33410f79af38"},"vehicle_type_id":"4","last_reported":1723921606,"current_range_meters":30000,"station_id":"ce4bgup2rcd13ifvqco0","pricing_plan_id":"cebpf4jnsgd1na2vs0mg"},{"bike_id":"a557eec9-729a-41be-9d84-50601ca3bdcb","system_id":"levelo_inurba_marseille","lat":43.309589,"lon":5.390258,"is_reserved":false,"is_disabled":false,"rental_uris":{"android":"levelo://app?vid=a557eec9-729a-41be-9d84-50601ca3bdcb","ios":"levelo://app?vid=a557eec9-729a-41be-9d84-50601ca3bdcb"},"vehicle_type_id":"4","last_reported":1723921606,"current_range_meters":11600,"station_id":"ce4bgup2rcd13ifvqco0","pricing_plan_id":"cebpf4jnsgd1na2vs0mg"},{"bike_id":"af0c4a99-c9e3-4431-adae-3f3550ffba55","system_id":"levelo_inurba_marseille","lat":43.309589,"lon":5.390258,"is_reserved":false,"is_disabled":false,"rental_uris":{"android":"levelo://app?vid=af0c4a99-c9e3-4431-adae-3f3550ffba55","ios":"levelo://app?vid=af0c4a99-c9e3-4431-adae-3f3550ffba55"},"vehicle_type_id":"4","last_reported":1723921606,"current_range_meters":18000,"station_id":"ce4bgup2rcd13ifvqco0","pricing_plan_id":"cebpf4jnsgd1na2vs0mg"},{"bike_id":"30d5505f-401f-469d-893a-9f270d6c96ed","system_id":"levelo_inurba_marseille","lat":43.309589,"lon":5.390258,"is_reserved":false,"is_disabled":false,"rental_uris":{"android":"levelo://app?vid=30d5505f-401f-469d-893a-9f270d6c96ed","ios":"levelo://app?vid=30d5505f-401f-469d-893a-9f270d6c96ed"},"vehicle_type_id":"4","last_reported":1723921606,"current_range_meters":25600,"station_id":"ce4bgup2rcd13ifvqco0","pricing_plan_id":"cebpf4jnsgd1na2vs0mg"},{"bike_id":"9b18b73a-030f-46dc-85cf-bd9950d52120","system_id":"levelo_inurba_marseille","lat":43.309589,"lon":5.390258,"is_reserved":false,"is_disabled":false,"rental_uris":{"android":"levelo://app?vid=9b18b73a-030f-46dc-85cf-bd9950d52120","ios":"levelo://app?vid=9b18b73a-030f-46dc-85cf-bd9950d52120"},"vehicle_type_id":"4","last_reported":1723921606,"current_range_meters":8000,"station_id":"ce4bgup2rcd13ifvqco0","pricing_plan_id":"cebpf4jnsgd1na2vs0mg"},{"bike_id":"5faae763-c088-4fcf-ade7-efcf106715bc","system_id":"levelo_inurba_marseille","lat":43.30969,"lon":5.390451,"is_reserved":false,"is_disabled":false,"rental_uris":{"android":"levelo://app?vid=5faae763-c088-4fcf-ade7-efcf106715bc","ios":"levelo://app?vid=5faae763-c088-4fcf-ade7-efcf106715bc"},"vehicle_type_id":"4","last_reported":1723921606,"current_range_meters":31200,"station_id":"ce4bgup2rcd13ifvqco0","pricing_plan_id":"cebpf4jnsgd1na2vs0mg"},{"bike_id":"27c22870-34ff-41d3-aa93-03e20d92a340","system_id":"levelo_inurba_marseille","lat":43.309589,"lon":5.390258,"is_reserved":false,"is_disabled":false,"rental_uris":{"android":"levelo://app?vid=27c22870-34ff-41d3-aa93-03e20d92a340","ios":"levelo://app?vid=27c22870-34ff-41d3-aa93-03e20d92a340"},"vehicle_type_id":"4","last_reported":1723921606,"current_range_meters":16800,"station_id":"ce4bgup2rcd13ifvqco0","pricing_plan_id":"cebpf4jnsgd1na2vs0mg"},{"bike_id":"7f9da29c-a42b-46ee-97df-1d53c110f1ec","system_id":"levelo_inurba_marseille","lat":43.309589,"lon":5.390258,"is_reserved":false,"is_disabled":false,"rental_uris":{"android":"levelo://app?vid=7f9da29c-a42b-46ee-97df-1d53c110f1ec","ios":"levelo://app?vid=7f9da29c-a42b-46ee-97df-1d53c110f1ec"},"vehicle_type_id":"4","last_reported":1723921606,"current_range_meters":31600,"station_id":"ce4bgup2rcd13ifvqco0","pricing_plan_id":"cebpf4jnsgd1na2vs0mg"},{"bike_id":"6ed31391-88e3-4f0d-9637-cec75a99bfdf","system_id":"levelo_inurba_marseille","lat":43.30954,"lon":5.39045,"is_reserved":false,"is_disabled":false,"rental_uris":{"android":"levelo://app?vid=6ed31391-88e3-4f0d-9637-cec75a99bfdf","ios":"levelo://app?vid=6ed31391-88e3-4f0d-9637-cec75a99bfdf"},"vehicle_type_id":"4","last_reported":1723921606,"current_range_meters":7200,"station_id":"ce4bgup2rcd13ifvqco0","pricing_plan_id":"cebpf4jnsgd1na2vs0mg"},{"bike_id":"cee7ec5a-58a7-47e0-849a-6066b89cfcc4","system_id":"levelo_inurba_marseille","lat":43.30953,"lon":5.39046,"is_reserved":false,"is_disabled":false,"rental_uris":{"android":"levelo://app?vid=cee7ec5a-58a7-47e0-849a-6066b89cfcc4","ios":"levelo://app?vid=cee7ec5a-58a7-47e0-849a-6066b89cfcc4"},"vehicle_type_id":"4","last_reported":1723921606,"current_range_meters":31200,"station_id":"ce4bgup2rcd13ifvqco0","pricing_plan_id":"cebpf4jnsgd1na2vs0mg"},{"bike_id":"aa78c680-9020-46a7-abc6-0d1327992c50","system_id":"levelo_inurba_marseille","lat":43.309589,"lon":5.390258,"is_reserved":false,"is_disabled":false,"rental_uris":{"android":"levelo://app?vid=aa78c680-9020-46a7-abc6-0d1327992c50","ios":"levelo://app?vid=aa78c680-9020-46a7-abc6-0d1327992c50"},"vehicle_type_id":"4","last_reported":1723921606,"current_range_meters":31200,"station_id":"ce4bgup2rcd13ifvqco0","pricing_plan_id":"cebpf4jnsgd1na2vs0mg"},{"bike_id":"2bbcdf29-214e-45f7-8634-d5850f684bbb","system_id":"levelo_inurba_marseille","lat":43.30934,"lon":5.39043,"is_reserved":false,"is_disabled":false,"rental_uris":{"android":"levelo://app?vid=2bbcdf29-214e-45f7-8634-d5850f684bbb","ios":"levelo://app?vid=2bbcdf29-214e-45f7-8634-d5850f684bbb"},"vehicle_type_id":"4","last_reported":1723921606,"current_range_meters":14800,"station_id":"ce4bgup2rcd13ifvqco0","pricing_plan_id":"cebpf4jnsgd1na2vs0mg"},{"bike_id":"993623e5-b496-4f1a-b890-8104d6724621","system_id":"levelo_inurba_marseille","lat":43.309589,"lon":5.390258,"is_reserved":false,"is_disabled":false,"rental_uris":{"android":"levelo://app?vid=993623e5-b496-4f1a-b890-8104d6724621","ios":"levelo://app?vid=993623e5-b496-4f1a-b890-8104d6724621"},"vehicle_type_id":"4","last_reported":1723921606,"current_range_meters":31200,"station_id":"ce4bgup2rcd13ifvqco0","pricing_plan_id":"cebpf4jnsgd1na2vs0mg"},{"bike_id":"22ed2b12-d94c-4c82-abb6-b2443a5dddb3","system_id":"levelo_inurba_marseille","lat":43.30952,"lon":5.3905,"is_reserved":false,"is_disabled":false,"rental_uris":{"android":"levelo://app?vid=22ed2b12-d94c-4c82-abb6-b2443a5dddb3","ios":"levelo://app?vid=22ed2b12-d94c-4c82-abb6-b2443a5dddb3"},"vehicle_type_id":"4","last_reported":1723921606,"current_range_meters":27200,"station_id":"ce4bgup2rcd13ifvqco0","pricing_plan_id":"cebpf4jnsgd1na2vs0mg"},{"bike_id":"c5719ac2-a5af-44ee-9957-b54fcd7de58a","system_id":"levelo_inurba_marseille","lat":43.309589,"lon":5.390258,"is_reserved":false,"is_disabled":false,"rental_uris":{"android":"levelo://app?vid=c5719ac2-a5af-44ee-9957-b54fcd7de58a","ios":"levelo://app?vid=c5719ac2-a5af-44ee-9957-b54fcd7de58a"},"vehicle_type_id":"4","last_reported":1723921606,"current_range_meters":3600,"station_id":"ce4bgup2rcd13ifvqco0","pricing_plan_id":"cebpf4jnsgd1na2vs0mg"},{"bike_id":"49b664a9-bd32-47f2-ba25-fe0afa7490c6","system_id":"levelo_inurba_marseille","lat":43.309521,"lon":5.39051,"is_reserved":false,"is_disabled":false,"rental_uris":{"android":"levelo://app?vid=49b664a9-bd32-47f2-ba25-fe0afa7490c6","ios":"levelo://app?vid=49b664a9-bd32-47f2-ba25-fe0afa7490c6"},"vehicle_type_id":"4","last_reported":1723921606,"current_range_meters":19200,"station_id":"ce4bgup2rcd13ifvqco0","pricing_plan_id":"cebpf4jnsgd1na2vs0mg"},{"bike_id":"1b90cf06-f2ae-423e-b7fc-3ffc5738d256","system_id":"levelo_inurba_marseille","lat":43.32273,"lon":5.38675,"is_reserved":false,"is_disabled":false,"rental_uris":{"android":"levelo://app?vid=1b90cf06-f2ae-423e-b7fc-3ffc5738d256","ios":"levelo://app?vid=1b90cf06-f2ae-423e-b7fc-3ffc5738d256"},"vehicle_type_id":"4","last_reported":1723921606,"current_range_meters":14800,"station_id":"","pricing_plan_id":"cebpf4jnsgd1na2vs0mg"},{"bike_id":"1d7b9840-c3eb-4379-977d-43486f9cb9d0","system_id":"levelo_inurba_marseille","lat":43.317557,"lon":5.390173,"is_reserved":false,"is_disabled":false,"rental_uris":{"android":"levelo://app?vid=1d7b9840-c3eb-4379-977d-43486f9cb9d0","ios":"levelo://app?vid=1d7b9840-c3eb-4379-977d-43486f9cb9d0"},"vehicle_type_id":"4","last_reported":1723921606,"current_range_meters":11600,"station_id":"ce4bhqp2rcd13ifvqhng","pricing_plan_id":"cebpf4jnsgd1na2vs0mg"},{"bike_id":"7972dc04-0f6e-4c65-879f-4545ee2046c2","system_id":"levelo_inurba_marseille","lat":43.32266,"lon":5.386945,"is_reserved":false,"is_disabled":false,"rental_uris":{"android":"levelo://app?vid=7972dc04-0f6e-4c65-879f-4545ee2046c2","ios":"levelo://app?vid=7972dc04-0f6e-4c65-879f-4545ee2046c2"},"vehicle_type_id":"4","last_reported":1723921606,"current_range_meters":22800,"station_id":"","pricing_plan_id":"cebpf4jnsgd1na2vs0mg"},{"bike_id":"4ababcf1-be94-42c9-b21d-e48081474486","system_id":"levelo_inurba_marseille","lat":43.298037,"lon":5.381066,"is_reserved":false,"is_disabled":false,"rental_uris":{"android":"levelo://app?vid=4ababcf1-be94-42c9-b21d-e48081474486","ios":"levelo://app?vid=4ababcf1-be94-42c9-b21d-e48081474486"},"vehicle_type_id":"4","last_reported":1723921606,"current_range_meters":31200,"station_id":"ce4bgip2rcd13ifvqbb0","pricing_plan_id":"cebpf4jnsgd1na2vs0mg"},{"bike_id":"03be82dc-0c5d-425f-b0d9-afdc97de12b9","system_id":"levelo_inurba_marseille","lat":43.29582,"lon":5.37508,"is_reserved":false,"is_disabled":false,"rental_uris":{"android":"levelo://app?vid=03be82dc-0c5d-425f-b0d9-afdc97de12b9","ios":"levelo://app?vid=03be82dc-0c5d-425f-b0d9-afdc97de12b9"},"vehicle_type_id":"4","last_reported":1723921606,"current_range_meters":13200,"station_id":"ce4bgh92rcd13ifvqb50","pricing_plan_id":"cebpf4jnsgd1na2vs0mg"},{"bike_id":"3a5fadb9-c1a6-42c8-8dd6-feff7b0f03b0","system_id":"levelo_inurba_marseille","lat":43.298037,"lon":5.381066,"is_reserved":false,"is_disabled":false,"rental_uris":{"android":"levelo://app?vid=3a5fadb9-c1a6-42c8-8dd6-feff7b0f03b0","ios":"levelo://app?vid=3a5fadb9-c1a6-42c8-8dd6-feff7b0f03b0"},"vehicle_type_id":"4","last_reported":1723921606,"current_range_meters":26800,"station_id":"ce4bgip2rcd13ifvqbb0","pricing_plan_id":"cebpf4jnsgd1na2vs0mg"},{"bike_id":"fd92fb85-3292-4ae5-9eb8-023c87d65ad7","system_id":"levelo_inurba_marseille","lat":43.304274,"lon":5.388873,"is_reserved":false,"is_disabled":false,"rental_uris":{"android":"levelo://app?vid=fd92fb85-3292-4ae5-9eb8-023c87d65ad7","ios":"levelo://app?vid=fd92fb85-3292-4ae5-9eb8-023c87d65ad7"},"vehicle_type_id":"4","last_reported":1723921606,"current_range_meters":6000,"station_id":"ce4bgk12rcd13ifvqbi0","pricing_plan_id":"cebpf4jnsgd1na2vs0mg"},{"bike_id":"e267aaa7-4c8d-4fc9-9700-d9b101dd85a5","system_id":"levelo_inurba_marseille","lat":43.296263,"lon":5.377094,"is_reserved":false,"is_disabled":false,"rental_uris":{"android":"levelo://app?vid=e267aaa7-4c8d-4fc9-9700-d9b101dd85a5","ios":"levelo://app?vid=e267aaa7-4c8d-4fc9-9700-d9b101dd85a5"},"vehicle_type_id":"4","last_reported":1723921606,"current_range_meters":28400,"station_id":"ce4bgi92rcd13ifvqb90","pricing_plan_id":"cebpf4jnsgd1na2vs0mg"},{"bike_id":"70ed30c7-0b2e-46ff-b9c7-ac82e0aa4d99","system_id":"levelo_inurba_marseille","lat":43.295748,"lon":5.37522,"is_reserved":false,"is_disabled":false,"rental_uris":{"android":"levelo://app?vid=70ed30c7-0b2e-46ff-b9c7-ac82e0aa4d99","ios":"levelo://app?vid=70ed30c7-0b2e-46ff-b9c7-ac82e0aa4d99"},"vehicle_type_id":"4","last_reported":1723921606,"current_range_meters":9600,"station_id":"ce4bgh92rcd13ifvqb50","pricing_plan_id":"cebpf4jnsgd1na2vs0mg"},{"bike_id":"1109b109-ebbd-48f1-a02e-3270e4ac9a5f","system_id":"levelo_inurba_marseille","lat":43.295279,"lon":5.375048,"is_reserved":false,"is_disabled":false,"rental_uris":{"android":"levelo://app?vid=1109b109-ebbd-48f1-a02e-3270e4ac9a5f","ios":"levelo://app?vid=1109b109-ebbd-48f1-a02e-3270e4ac9a5f"},"vehicle_type_id":"4","last_reported":1723921606,"current_range_meters":2000,"station_id":"ce4bgkp2rcd13ifvqbmg","pricing_plan_id":"cebpf4jnsgd1na2vs0mg"},{"bike_id":"37ef3d0d-53a1-45f2-ae99-c3562f14e4b8","system_id":"levelo_inurba_marseille","lat":43.296263,"lon":5.377094,"is_reserved":false,"is_disabled":false,"rental_uris":{"android":"levelo://app?vid=37ef3d0d-53a1-45f2-ae99-c3562f14e4b8","ios":"levelo://app?vid=37ef3d0d-53a1-45f2-ae99-c3562f14e4b8"},"vehicle_type_id":"4","last_reported":1723921606,"current_range_meters":27200,"station_id":"ce4bgi92rcd13ifvqb90","pricing_plan_id":"cebpf4jnsgd1na2vs0mg"},{"bike_id":"d5125b17-25e4-4038-8853-3296f57af1eb","system_id":"levelo_inurba_marseille","lat":43.295279,"lon":5.375048,"is_reserved":false,"is_disabled":false,"rental_uris":{"android":"levelo://app?vid=d5125b17-25e4-4038-8853-3296f57af1eb","ios":"levelo://app?vid=d5125b17-25e4-4038-8853-3296f57af1eb"},"vehicle_type_id":"4","last_reported":1723921606,"current_range_meters":2000,"station_id":"ce4bgkp2rcd13ifvqbmg","pricing_plan_id":"cebpf4jnsgd1na2vs0mg"},{"bike_id":"921d18b2-14fe-4ce5-90c3-fce027e7036d","system_id":"levelo_inurba_marseille","lat":43.299707,"lon":5.384859,"is_reserved":false,"is_disabled":false,"rental_uris":{"android":"levelo://app?vid=921d18b2-14fe-4ce5-90c3-fce027e7036d","ios":"levelo://app?vid=921d18b2-14fe-4ce5-90c3-fce027e7036d"},"vehicle_type_id":"4","last_reported":1723921606,"current_range_meters":0,"station_id":"ce4bgj92rcd13ifvqbd0","pricing_plan_id":"cebpf4jnsgd1na2vs0mg"},{"bike_id":"937d4d8d-2501-4c14-96ac-7779bfdf9b4b","system_id":"levelo_inurba_marseille","lat":43.29971,"lon":5.385,"is_reserved":false,"is_disabled":false,"rental_uris":{"android":"levelo://app?vid=937d4d8d-2501-4c14-96ac-7779bfdf9b4b","ios":"levelo://app?vid=937d4d8d-2501-4c14-96ac-7779bfdf9b4b"},"vehicle_type_id":"4","last_reported":1723921606,"current_range_meters":31200,"station_id":"ce4bgj92rcd13ifvqbd0","pricing_plan_id":"cebpf4jnsgd1na2vs0mg"},{"bike_id":"10cda70a-8ba0-42e6-b163-5ee2a9e823de","system_id":"levelo_inurba_marseille","lat":43.30139,"lon":5.38774,"is_reserved":false,"is_disabled":false,"rental_uris":{"android":"levelo://app?vid=10cda70a-8ba0-42e6-b163-5ee2a9e823de","ios":"levelo://app?vid=10cda70a-8ba0-42e6-b163-5ee2a9e823de"},"vehicle_type_id":"4","last_reported":1723921606,"current_range_meters":21200,"station_id":"ce4bghh2rcd13ifvqb60","pricing_plan_id":"cebpf4jnsgd1na2vs0mg"},{"bike_id":"29d9045a-3acf-4d65-b159-8dbd82853bee","system_id":"levelo_inurba_marseille","lat":43.3014,"lon":5.38776,"is_reserved":false,"is_disabled":false,"rental_uris":{"android":"levelo://app?vid=29d9045a-3acf-4d65-b159-8dbd82853bee","ios":"levelo://app?vid=29d9045a-3acf-4d65-b159-8dbd82853bee"},"vehicle_type_id":"4","last_reported":1723921606,"current_range_meters":28000,"station_id":"ce4bghh2rcd13ifvqb60","pricing_plan_id":"cebpf4jnsgd1na2vs0mg"},{"bike_id":"82aa0add-aabc-4f54-9b07-5f51e8c0b5e0","system_id":"levelo_inurba_marseille","lat":43.32374,"lon":5.38816,"is_reserved":false,"is_disabled":false,"rental_uris":{"android":"levelo://app?vid=82aa0add-aabc-4f54-9b07-5f51e8c0b5e0","ios":"levelo://app?vid=82aa0add-aabc-4f54-9b07-5f51e8c0b5e0"},"vehicle_type_id":"4","last_reported":1723921606,"current_range_meters":6800,"station_id":"","pricing_plan_id":"cebpf4jnsgd1na2vs0mg"},{"bike_id":"7e3d0dec-e860-4f33-9606-a0c7e83fbe61","system_id":"levelo_inurba_marseille","lat":43.30143,"lon":5.38786,"is_reserved":false,"is_disabled":false,"rental_uris":{"android":"levelo://app?vid=7e3d0dec-e860-4f33-9606-a0c7e83fbe61","ios":"levelo://app?vid=7e3d0dec-e860-4f33-9606-a0c7e83fbe61"},"vehicle_type_id":"4","last_reported":1723921606,"current_range_meters":6800,"station_id":"ce4bghh2rcd13ifvqb60","pricing_plan_id":"cebpf4jnsgd1na2vs0mg"},{"bike_id":"4534ab21-5754-45f9-b197-5a1fb12637ec","system_id":"levelo_inurba_marseille","lat":43.3014,"lon":5.38784,"is_reserved":false,"is_disabled":false,"rental_uris":{"android":"levelo://app?vid=4534ab21-5754-45f9-b197-5a1fb12637ec","ios":"levelo://app?vid=4534ab21-5754-45f9-b197-5a1fb12637ec"},"vehicle_type_id":"4","last_reported":1723921606,"current_range_meters":7200,"station_id":"ce4bghh2rcd13ifvqb60","pricing_plan_id":"cebpf4jnsgd1na2vs0mg"},{"bike_id":"69295cb7-40d1-43e0-af67-2dc6c3828b30","system_id":"levelo_inurba_marseille","lat":43.32378,"lon":5.3882,"is_reserved":false,"is_disabled":false,"rental_uris":{"android":"levelo://app?vid=69295cb7-40d1-43e0-af67-2dc6c3828b30","ios":"levelo://app?vid=69295cb7-40d1-43e0-af67-2dc6c3828b30"},"vehicle_type_id":"4","last_reported":1723921606,"current_range_meters":15600,"station_id":"","pricing_plan_id":"cebpf4jnsgd1na2vs0mg"},{"bike_id":"f49b0a2c-3bec-4112-ae8a-c070a6e2b1f6","system_id":"levelo_inurba_marseille","lat":43.32367,"lon":5.388836,"is_reserved":false,"is_disabled":false,"rental_uris":{"android":"levelo://app?vid=f49b0a2c-3bec-4112-ae8a-c070a6e2b1f6","ios":"levelo://app?vid=f49b0a2c-3bec-4112-ae8a-c070a6e2b1f6"},"vehicle_type_id":"4","last_reported":1723921606,"current_range_meters":26800,"station_id":"ce4bhqp2rcd13ifvqhog","pricing_plan_id":"cebpf4jnsgd1na2vs0mg"},{"bike_id":"1970eadf-5e06-4868-80c0-93c9e8bd407e","system_id":"levelo_inurba_marseille","lat":43.315005,"lon":5.39331,"is_reserved":false,"is_disabled":false,"rental_uris":{"android":"levelo://app?vid=1970eadf-5e06-4868-80c0-93c9e8bd407e","ios":"levelo://app?vid=1970eadf-5e06-4868-80c0-93c9e8bd407e"},"vehicle_type_id":"4","last_reported":1723921606,"current_range_meters":0,"station_id":"","pricing_plan_id":"cebpf4jnsgd1na2vs0mg"},{"bike_id":"6296d524-399c-4866-94e5-04eab1afc96d","system_id":"levelo_inurba_marseille","lat":43.32367,"lon":5.388836,"is_reserved":false,"is_disabled":false,"rental_uris":{"android":"levelo://app?vid=6296d524-399c-4866-94e5-04eab1afc96d","ios":"levelo://app?vid=6296d524-399c-4866-94e5-04eab1afc96d"},"vehicle_type_id":"4","last_reported":1723921606,"current_range_meters":11600,"station_id":"ce4bhqp2rcd13ifvqhog","pricing_plan_id":"cebpf4jnsgd1na2vs0mg"},{"bike_id":"f9c6e87e-9d57-4fc7-be0d-cb54eae7c282","system_id":"levelo_inurba_marseille","lat":43.32367,"lon":5.388836,"is_reserved":false,"is_disabled":false,"rental_uris":{"android":"levelo://app?vid=f9c6e87e-9d57-4fc7-be0d-cb54eae7c282","ios":"levelo://app?vid=f9c6e87e-9d57-4fc7-be0d-cb54eae7c282"},"vehicle_type_id":"4","last_reported":1723921606,"current_range_meters":6400,"station_id":"ce4bhqp2rcd13ifvqhog","pricing_plan_id":"cebpf4jnsgd1na2vs0mg"},{"bike_id":"441aff7c-938a-4da5-8ea4-20a3e7034b59","system_id":"levelo_inurba_marseille","lat":43.29602,"lon":5.381084,"is_reserved":false,"is_disabled":false,"rental_uris":{"android":"levelo://app?vid=441aff7c-938a-4da5-8ea4-20a3e7034b59","ios":"levelo://app?vid=441aff7c-938a-4da5-8ea4-20a3e7034b59"},"vehicle_type_id":"4","last_reported":1723921606,"current_range_meters":31200,"station_id":"ce4bgl12rcd13ifvqbo0","pricing_plan_id":"cebpf4jnsgd1na2vs0mg"},{"bike_id":"60f07142-f8ff-457d-9287-18968714dd9a","system_id":"levelo_inurba_marseille","lat":43.2936,"lon":5.37835,"is_reserved":false,"is_disabled":false,"rental_uris":{"android":"levelo://app?vid=60f07142-f8ff-457d-9287-18968714dd9a","ios":"levelo://app?vid=60f07142-f8ff-457d-9287-18968714dd9a"},"vehicle_type_id":"4","last_reported":1723921606,"current_range_meters":20400,"station_id":"ce4bgjh2rcd13ifvqbf0","pricing_plan_id":"cebpf4jnsgd1na2vs0mg"},{"bike_id":"40e3b2f2-a27e-4cdc-982a-200cdfdb4f60","system_id":"levelo_inurba_marseille","lat":43.29287,"lon":5.36848,"is_reserved":false,"is_disabled":false,"rental_uris":{"android":"levelo://app?vid=40e3b2f2-a27e-4cdc-982a-200cdfdb4f60","ios":"levelo://app?vid=40e3b2f2-a27e-4cdc-982a-200cdfdb4f60"},"vehicle_type_id":"4","last_reported":1723921606,"current_range_meters":2400,"station_id":"ce4bhbp2rcd13ifvqesg","pricing_plan_id":"cebpf4jnsgd1na2vs0mg"},{"bike_id":"e61160a9-3482-4db4-a775-fca88acaa402","system_id":"levelo_inurba_marseille","lat":43.29287,"lon":5.36851,"is_reserved":false,"is_disabled":false,"rental_uris":{"android":"levelo://app?vid=e61160a9-3482-4db4-a775-fca88acaa402","ios":"levelo://app?vid=e61160a9-3482-4db4-a775-fca88acaa402"},"vehicle_type_id":"4","last_reported":1723921606,"current_range_meters":8400,"station_id":"ce4bhbp2rcd13ifvqesg","pricing_plan_id":"cebpf4jnsgd1na2vs0mg"},{"bike_id":"6d993819-c64c-4fb4-a1d5-ca093b3daf14","system_id":"levelo_inurba_marseille","lat":43.293259,"lon":5.371586,"is_reserved":false,"is_disabled":false,"rental_uris":{"android":"levelo://app?vid=6d993819-c64c-4fb4-a1d5-ca093b3daf14","ios":"levelo://app?vid=6d993819-c64c-4fb4-a1d5-ca093b3daf14"},"vehicle_type_id":"4","last_reported":1723921606,"current_range_meters":15600,"station_id":"ce4bgh92rcd13ifvqb40","pricing_plan_id":"cebpf4jnsgd1na2vs0mg"},{"bike_id":"ebc55778-8f45-464e-8240-029eabeb24b2","system_id":"levelo_inurba_marseille","lat":43.29286,"lon":5.36859,"is_reserved":false,"is_disabled":false,"rental_uris":{"android":"levelo://app?vid=ebc55778-8f45-464e-8240-029eabeb24b2","ios":"levelo://app?vid=ebc55778-8f45-464e-8240-029eabeb24b2"},"vehicle_type_id":"4","last_reported":1723921606,"current_range_meters":13600,"station_id":"ce4bhbp2rcd13ifvqesg","pricing_plan_id":"cebpf4jnsgd1na2vs0mg"},{"bike_id":"a0f4b325-c8f7-4f84-a36f-4ed7475f36a8","system_id":"levelo_inurba_marseille","lat":43.293259,"lon":5.371586,"is_reserved":false,"is_disabled":false,"rental_uris":{"android":"levelo://app?vid=a0f4b325-c8f7-4f84-a36f-4ed7475f36a8","ios":"levelo://app?vid=a0f4b325-c8f7-4f84-a36f-4ed7475f36a8"},"vehicle_type_id":"4","last_reported":1723921606,"current_range_meters":8800,"station_id":"ce4bgh92rcd13ifvqb40","pricing_plan_id":"cebpf4jnsgd1na2vs0mg"},{"bike_id":"41204c27-0f29-44ec-a9c3-aaa1ccf6f10a","system_id":"levelo_inurba_marseille","lat":43.293259,"lon":5.371586,"is_reserved":false,"is_disabled":false,"rental_uris":{"android":"levelo://app?vid=41204c27-0f29-44ec-a9c3-aaa1ccf6f10a","ios":"levelo://app?vid=41204c27-0f29-44ec-a9c3-aaa1ccf6f10a"},"vehicle_type_id":"4","last_reported":1723921606,"current_range_meters":26800,"station_id":"ce4bgh92rcd13ifvqb40","pricing_plan_id":"cebpf4jnsgd1na2vs0mg"},{"bike_id":"03eecf0c-a850-497b-849d-b38532573397","system_id":"levelo_inurba_marseille","lat":43.292749,"lon":5.368402,"is_reserved":false,"is_disabled":false,"rental_uris":{"android":"levelo://app?vid=03eecf0c-a850-497b-849d-b38532573397","ios":"levelo://app?vid=03eecf0c-a850-497b-849d-b38532573397"},"vehicle_type_id":"4","last_reported":1723921606,"current_range_meters":26800,"station_id":"ce4bhbp2rcd13ifvqesg","pricing_plan_id":"cebpf4jnsgd1na2vs0mg"},{"bike_id":"bbdc6dbc-5ed3-4c18-8b7c-7e58f4910fdb","system_id":"levelo_inurba_marseille","lat":43.29305,"lon":5.37169,"is_reserved":false,"is_disabled":false,"rental_uris":{"android":"levelo://app?vid=bbdc6dbc-5ed3-4c18-8b7c-7e58f4910fdb","ios":"levelo://app?vid=bbdc6dbc-5ed3-4c18-8b7c-7e58f4910fdb"},"vehicle_type_id":"4","last_reported":1723921606,"current_range_meters":6800,"station_id":"ce4bgh92rcd13ifvqb40","pricing_plan_id":"cebpf4jnsgd1na2vs0mg"},{"bike_id":"67390723-2ae4-4a97-9039-2f899b9bc1de","system_id":"levelo_inurba_marseille","lat":43.29276,"lon":5.36842,"is_reserved":false,"is_disabled":false,"rental_uris":{"android":"levelo://app?vid=67390723-2ae4-4a97-9039-2f899b9bc1de","ios":"levelo://app?vid=67390723-2ae4-4a97-9039-2f899b9bc1de"},"vehicle_type_id":"4","last_reported":1723921606,"current_range_meters":0,"station_id":"ce4bhbp2rcd13ifvqesg","pricing_plan_id":"cebpf4jnsgd1na2vs0mg"},{"bike_id":"223cf07c-1348-4f7b-b4cd-6f089c05e34c","system_id":"levelo_inurba_marseille","lat":43.29276,"lon":5.36845,"is_reserved":false,"is_disabled":false,"rental_uris":{"android":"levelo://app?vid=223cf07c-1348-4f7b-b4cd-6f089c05e34c","ios":"levelo://app?vid=223cf07c-1348-4f7b-b4cd-6f089c05e34c"},"vehicle_type_id":"4","last_reported":1723921606,"current_range_meters":25200,"station_id":"ce4bhbp2rcd13ifvqesg","pricing_plan_id":"cebpf4jnsgd1na2vs0mg"},{"bike_id":"f04cc025-59ab-403f-8dcb-8eb7fb492e8a","system_id":"levelo_inurba_marseille","lat":43.292749,"lon":5.368402,"is_reserved":false,"is_disabled":false,"rental_uris":{"android":"levelo://app?vid=f04cc025-59ab-403f-8dcb-8eb7fb492e8a","ios":"levelo://app?vid=f04cc025-59ab-403f-8dcb-8eb7fb492e8a"},"vehicle_type_id":"4","last_reported":1723921606,"current_range_meters":21200,"station_id":"ce4bhbp2rcd13ifvqesg","pricing_plan_id":"cebpf4jnsgd1na2vs0mg"},{"bike_id":"d1dc032a-7eac-4977-ae36-a7888f18d018","system_id":"levelo_inurba_marseille","lat":43.293009,"lon":5.374584,"is_reserved":false,"is_disabled":false,"rental_uris":{"android":"levelo://app?vid=d1dc032a-7eac-4977-ae36-a7888f18d018","ios":"levelo://app?vid=d1dc032a-7eac-4977-ae36-a7888f18d018"},"vehicle_type_id":"4","last_reported":1723921606,"current_range_meters":6800,"station_id":"ce4bgi12rcd13ifvqb70","pricing_plan_id":"cebpf4jnsgd1na2vs0mg"},