{"last_updated":1760713848,"ttl":60,"version":"2.2","data":{"bikes":[{"bike_id":"e0863f88-6065-41da-9ecd-468f1156f9d8","system_id":"levelo_inurba_marseille","lat":43.273438,"lon":5.414189,"is_reserved":false,"is_disabled":false,"rental_uris":{"android":"levelo://app?vid=e0863f88-6065-41da-9ecd-468f1156f9d8","ios":"levelo://app?vid=e0863f88-6065-41da-9ecd-468f1156f9d8"},"vehicle_type_id":"4","last_reported":1760713848,"current_range_meters":2800,"station_id":"","pricing_plan_id":"cebpf4jnsgd1na2vs0mg"},{"bike_id":"5fc7145b-09f7-4194-8fa1-2b1ca84486b0","system_id":"levelo_inurba_marseille","lat":43.225302,"lon":5.348453,"is_reserved":false,"is_disabled":false,"rental_uris":{"android":"levelo://app?vid=5fc7145b-09f7-4194-8fa1-2b1ca84486b0","ios":"levelo://app?vid=5fc7145b-09f7-4194-8fa1-2b1ca84486b0"},"vehicle_type_id":"4","last_reported":1760713848,"current_range_meters":2800,"station_id":"","pricing_plan_id":"cebpf4jnsgd1na2vs0mg"},{"bike_id":"55062f86-2bda-4a52-8197-31b9c765d91a","system_id":"levelo_inurba_marseille","lat":43.29929,"lon":5.3815,"is_reserved":false,"is_disabled":false,"rental_uris":{"android":"levelo://app?vid=55062f86-2bda-4a52-8197-31b9c765d91a","ios":"levelo://app?vid=55062f86-2bda-4a52-8197-31b9c765d91a"},"vehicle_type_id":"4","last_reported":1760713848,"current_range_meters":2800,"station_id":"ce4bgj12rcd13ifvqbc0","pricing_plan_id":"cebpf4jnsgd1na2vs0mg"},{"bike_id":"870e7355-e4d5-4f96-8e7a-87e246defa70","system_id":"levelo_inurba_marseille","lat":43.30254,"lon":5.40058,"is_reserved":false,"is_disabled":false,"rental_uris":{"android":"levelo://app?vid=870e7355-e4d5-4f96-8e7a-87e246defa70","ios":"levelo://app?vid=870e7355-e4d5-4f96-8e7a-87e246defa70"},"vehicle_type_id":"4","last_reported":1760713848,"current_range_meters":2800,"station_id":"ce4bgvh2rcd13ifvqcs0","pricing_plan_id":"cebpf4jnsgd1na2vs0mg"},{"bike_id":"f0622547-115c-4aab-a330-c8c9f80dea9e","system_id":"levelo_inurba_marseille","lat":43.280788,"lon":5.352325,"is_reserved":false,"is_disabled":false,"rental_uris":{"android":"levelo://app?vid=f0622547-115c-4aab-a330-c8c9f80dea9e","ios":"levelo://app?vid=f0622547-115c-4aab-a330-c8c9f80dea9e"},"vehicle_type_id":"4","last_reported":1760713848,"current_range_meters":2800,"station_id":"","pricing_plan_id":"cebpf4jnsgd1na2vs0mg"},{"bike_id":"efb23f08-b577-45d8-a0b9-231229cb393d","system_id":"levelo_inurba_marseille","lat":43.243842,"lon":5.370596,"is_reserved":false,"is_disabled":false,"rental_uris":{"android":"levelo://app?vid=efb23f08-b577-45d8-a0b9-231229cb393d","ios":"levelo://app?vid=efb23f08-b577-45d8-a0b9-231229cb393d"},"vehicle_type_id":"4","last_reported":1760713848,"current_range_meters":3200,"station_id":"ce4bhhh2rcd13ifvqfk0","pricing_plan_id":"cebpf4jnsgd1na2vs0mg"},{"bike_id":"56e8f168-0239-4dab-a231-9caf80fb776c","system_id":"levelo_inurba_marseille","lat":43.292676,"lon":5.376168,"is_reserved":false,"is_disabled":false,"rental_uris":{"android":"levelo://app?vid=56e8f168-0239-4dab-a231-9caf80fb776c","ios":"levelo://app?vid=56e8f168-0239-4dab-a231-9caf80fb776c"},"vehicle_type_id":"4","last_reported":1760713848,"current_range_meters":3200,"station_id":"","pricing_plan_id":"cebpf4jnsgd1na2vs0mg"},{"bike_id":"6ddb9bd5-af69-46c8-af02-8c1055553ef8","system_id":"levelo_inurba_marseille","lat":43.22534,"lon":5.34827,"is_reserved":false,"is_disabled":false,"rental_uris":{"android":"levelo://app?vid=6ddb9bd5-af69-46c8-af02-8c1055553ef8","ios":"levelo://app?vid=6ddb9bd5-af69-46c8-af02-8c1055553ef8"},"vehicle_type_id":"4","last_reported":1760713848,"current_range_meters":3200,"station_id":"","pricing_plan_id":"cebpf4jnsgd1na2vs0mg"},{"bike_id":"2610ccac-b3ed-41e2-bc2a-015be0777dd6","system_id":"levelo_inurba_marseille","lat":43.28715,"lon":5.37929,"is_reserved":false,"is_disabled":false,"rental_uris":{"android":"levelo://app?vid=2610ccac-b3ed-41e2-bc2a-015be0777dd6","ios":"levelo://app?vid=2610ccac-b3ed-41e2-bc2a-015be0777dd6"},"vehicle_type_id":"4","last_reported":1760713848,"current_range_meters":3200,"station_id":"ce4bh9p2rcd13ifvqec0","pricing_plan_id":"cebpf4jnsgd1na2vs0mg"},{"bike_id":"a48291a7-da0f-4a63-a478-e9bc39dd0799","system_id":"levelo_inurba_marseille","lat":43.22534,"lon":5.34833,"is_reserved":false,"is_disabled":false,"rental_uris":{"android":"levelo://app?vid=a48291a7-da0f-4a63-a478-e9bc39dd0799","ios":"levelo://app?vid=a48291a7-da0f-4a63-a478-e9bc39dd0799"},"vehicle_type_id":"4","last_reported":1760713848,"current_range_meters":3200,"station_id":"","pricing_plan_id":"cebpf4jnsgd1na2vs0mg"},{"bike_id":"66cff7ac-7cbd-4e0a-9bcc-f3e132e5b155","system_id":"levelo_inurba_marseille","lat":43.29685,"lon":5.38557,"is_reserved":false,"is_disabled":false,"rental_uris":{"android":"levelo://app?vid=66cff7ac-7cbd-4e0a-9bcc-f3e132e5b155","ios":"levelo://app?vid=66cff7ac-7cbd-4e0a-9bcc-f3e132e5b155"},"vehicle_type_id":"4","last_reported":1760713848,"current_range_meters":3200,"station_id":"","pricing_plan_id":"cebpf4jnsgd1na2vs0mg"},{"bike_id":"a0ecc615-28d1-4f21-b5d1-3d8f52c6daed","system_id":"levelo_inurba_marseille","lat":43.29612,"lon":5.396038,"is_reserved":false,"is_disabled":false,"rental_uris":{"android":"levelo://app?vid=a0ecc615-28d1-4f21-b5d1-3d8f52c6daed","ios":"levelo://app?vid=a0ecc615-28d1-4f21-b5d1-3d8f52c6daed"},"vehicle_type_id":"4","last_reported":1760713848,"current_range_meters":3600,"station_id":"","pricing_plan_id":"cebpf4jnsgd1na2vs0mg"},{"bike_id":"b0e3fac0-2cba-43db-8a27-05393f9977ec","system_id":"levelo_inurba_marseille","lat":43.297242,"lon":5.373265,"is_reserved":false,"is_disabled":false,"rental_uris":{"android":"levelo://app?vid=b0e3fac0-2cba-43db-8a27-05393f9977ec","ios":"levelo://app?vid=b0e3fac0-2cba-43db-8a27-05393f9977ec"},"vehicle_type_id":"4","last_reported":1760713848,"current_range_meters":3600,"station_id":"","pricing_plan_id":"cebpf4jnsgd1na2vs0mg"},{"bike_id":"2946577c-5e96-4b51-a7e1-d5db0ea433f3","system_id":"levelo_inurba_marseille","lat":43.21739,"lon":5.34618,"is_reserved":false,"is_disabled":false,"rental_uris":{"android":"levelo://app?vid=2946577c-5e96-4b51-a7e1-d5db0ea433f3","ios":"levelo://app?vid=2946577c-5e96-4b51-a7e1-d5db0ea433f3"},"vehicle_type_id":"4","last_reported":1760713848,"current_range_meters":3600,"station_id":"st_cvj6r9ubvosntc0bgbag","pricing_plan_id":"cebpf4jnsgd1na2vs0mg"},{"bike_id":"c10806ec-6d45-481a-ae58-b2aac1e05e16","system_id":"levelo_inurba_marseille","lat":43.23356,"lon":5.405117,"is_reserved":false,"is_disabled":false,"rental_uris":{"android":"levelo://app?vid=c10806ec-6d45-481a-ae58-b2aac1e05e16","ios":"levelo://app?vid=c10806ec-6d45-481a-ae58-b2aac1e05e16"},"vehicle_type_id":"4","last_reported":1760713848,"current_range_meters":3600,"station_id":"","pricing_plan_id":"cebpf4jnsgd1na2vs0mg"},{"bike_id":"8297175f-7e51-4f66-aef1-ea31f21ad8c8","system_id":"levelo_inurba_marseille","lat":43.229297,"lon":5.353773,"is_reserved":false,"is_disabled":false,"rental_uris":{"android":"levelo://app?vid=8297175f-7e51-4f66-aef1-ea31f21ad8c8","ios":"levelo://app?vid=8297175f-7e51-4f66-aef1-ea31f21ad8c8"},"vehicle_type_id":"4","last_reported":1760713848,"current_range_meters":3600,"station_id":"cpo3532slgdg3j2ikp40","pricing_plan_id":"cebpf4jnsgd1na2vs0mg"},{"bike_id":"ba1818b9-9c0c-4cbb-8ced-9181ad54eb7a","system_id":"levelo_inurba_marseille","lat":43.2846,"lon":5.35884,"is_reserved":false,"is_disabled":false,"rental_uris":{"android":"levelo://app?vid=ba1818b9-9c0c-4cbb-8ced-9181ad54eb7a","ios":"levelo://app?vid=ba1818b9-9c0c-4cbb-8ced-9181ad54eb7a"},"vehicle_type_id":"4","last_reported":1760713848,"current_range_meters":4000,"station_id":"ce4bhah2rcd13ifvqei0","pricing_plan_id":"cebpf4jnsgd1na2vs0mg"},{"bike_id":"ecd9150a-82d1-439a-8ac1-0ab83b979277","system_id":"levelo_inurba_marseille","lat":43.30798,"lon":5.43567,"is_reserved":false,"is_disabled":true,"rental_uris":{"android":"levelo://app?vid=ecd9150a-82d1-439a-8ac1-0ab83b979277","ios":"levelo://app?vid=ecd9150a-82d1-439a-8ac1-0ab83b979277"},"vehicle_type_id":"4","last_reported":1760713848,"current_range_meters":4000,"station_id":"ce4bhph2rcd13ifvqheg","pricing_plan_id":"cebpf4jnsgd1na2vs0mg"},{"bike_id":"3dbb6ed7-28ec-4f84-97ad-4313786863bd","system_id":"levelo_inurba_marseille","lat":43.29529,"lon":5.3904,"is_reserved":false,"is_disabled":false,"rental_uris":{"android":"levelo://app?vid=3dbb6ed7-28ec-4f84-97ad-4313786863bd","ios":"levelo://app?vid=3dbb6ed7-28ec-4f84-97ad-4313786863bd"},"vehicle_type_id":"4","last_reported":1760713848,"current_range_meters":4000,"station_id":"ce4bh3p2rcd13ifvqdp0","pricing_plan_id":"cebpf4jnsgd1na2vs0mg"},{"bike_id":"94c81a32-e74f-4a0e-863e-828e73eb2624","system_id":"levelo_inurba_marseille","lat":43.30133,"lon":5.39862,"is_reserved":false,"is_disabled":false,"rental_uris":{"android":"levelo://app?vid=94c81a32-e74f-4a0e-863e-828e73eb2624","ios":"levelo://app?vid=94c81a32-e74f-4a0e-863e-828e73eb2624"},"vehicle_type_id":"4","last_reported":1760713848,"current_range_meters":4400,"station_id":"ce4bh0h2rcd13ifvqd40","pricing_plan_id":"cebpf4jnsgd1na2vs0mg"},{"bike_id":"6cd16192-c813-4136-876c-ae8ebf20d344","system_id":"levelo_inurba_marseille","lat":43.33763,"lon":5.37487,"is_reserved":false,"is_disabled":false,"rental_uris":{"android":"levelo://app?vid=6cd16192-c813-4136-876c-ae8ebf20d344","ios":"levelo://app?vid=6cd16192-c813-4136-876c-ae8ebf20d344"},"vehicle_type_id":"4","last_reported":1760713848,"current_range_meters":4400,"station_id":"","pricing_plan_id":"cebpf4jnsgd1na2vs0mg"},{"bike_id":"0434312f-62b3-4e71-82e3-b095838e6f81","system_id":"levelo_inurba_marseille","lat":43.27202,"lon":5.39187,"is_reserved":false,"is_disabled":false,"rental_uris":{"android":"levelo://app?vid=0434312f-62b3-4e71-82e3-b095838e6f81","ios":"levelo://app?vid=0434312f-62b3-4e71-82e3-b095838e6f81"},"vehicle_type_id":"4","last_reported":1760713848,"current_range_meters":4800,"station_id":"ce4bhhp2rcd13ifvqfm0","pricing_plan_id":"cebpf4jnsgd1na2vs0mg"},{"bike_id":"a794a8d7-b0f4-4816-9567-10e9d8cf2529","system_id":"levelo_inurba_marseille","lat":43.27347,"lon":5.39091,"is_reserved":false,"is_disabled":false,"rental_uris":{"android":"levelo://app?vid=a794a8d7-b0f4-4816-9567-10e9d8cf2529","ios":"levelo://app?vid=a794a8d7-b0f4-4816-9567-10e9d8cf2529"},"vehicle_type_id":"4","last_reported":1760713848,"current_range_meters":5600,"station_id":"","pricing_plan_id":"cebpf4jnsgd1na2vs0mg"},{"bike_id":"800ccac5-7c78-496f-8ce9-2e929b6afb5f","system_id":"levelo_inurba_marseille","lat":43.29526,"lon":5.3906,"is_reserved":false,"is_disabled":false,"rental_uris":{"android":"levelo://app?vid=800ccac5-7c78-496f-8ce9-2e929b6afb5f","ios":"levelo://app?vid=800ccac5-7c78-496f-8ce9-2e929b6afb5f"},"vehicle_type_id":"4","last_reported":1760713848,"current_range_meters":5600,"station_id":"ce4bh3p2rcd13ifvqdp0","pricing_plan_id":"cebpf4jnsgd1na2vs0mg"},{"bike_id":"40857afc-3e95-4d2b-9c63-7b173179bc7e","system_id":"levelo_inurba_marseille","lat":43.28669,"lon":5.38669,"is_reserved":false,"is_disabled":false,"rental_uris":{"android":"levelo://app?vid=40857afc-3e95-4d2b-9c63-7b173179bc7e","ios":"levelo://app?vid=40857afc-3e95-4d2b-9c63-7b173179bc7e"},"vehicle_type_id":"4","last_reported":1760713848,"current_range_meters":5600,"station_id":"ce4bh492rcd13ifvqdug","pricing_plan_id":"cebpf4jnsgd1na2vs0mg"},{"bike_id":"35a2ce99-3342-4fe0-a576-b4fec25ef17a","system_id":"levelo_inurba_marseille","lat":43.317076,"lon":5.377408,"is_reserved":false,"is_disabled":false,"rental_uris":{"android":"levelo://app?vid=35a2ce99-3342-4fe0-a576-b4fec25ef17a","ios":"levelo://app?vid=35a2ce99-3342-4fe0-a576-b4fec25ef17a"},"vehicle_type_id":"4","last_reported":1760713848,"current_range_meters":5600,"station_id":"ce4bgth2rcd13ifvqch0","pricing_plan_id":"cebpf4jnsgd1na2vs0mg"},{"bike_id":"d68b41be-366f-40d7-a414-434cfe0517a5","system_id":"levelo_inurba_marseille","lat":43.31764,"lon":5.42225,"is_reserved":false,"is_disabled":false,"rental_uris":{"android":"levelo://app?vid=d68b41be-366f-40d7-a414-434cfe0517a5","ios":"levelo://app?vid=d68b41be-366f-40d7-a414-434cfe0517a5"},"vehicle_type_id":"4","last_reported":1760713848,"current_range_meters":5600,"station_id":"","pricing_plan_id":"cebpf4jnsgd1na2vs0mg"},{"bike_id":"72edc8c1-99af-470f-bf63-7dc59a55ecf7","system_id":"levelo_inurba_marseille","lat":43.29702,"lon":5.365954,"is_reserved":false,"is_disabled":false,"rental_uris":{"android":"levelo://app?vid=72edc8c1-99af-470f-bf63-7dc59a55ecf7","ios":"levelo://app?vid=72edc8c1-99af-470f-bf63-7dc59a55ecf7"},"vehicle_type_id":"4","last_reported":1760713848,"current_range_meters":5600,"station_id":"ce4bgn12rcd13ifvqbt0","pricing_plan_id":"cebpf4jnsgd1na2vs0mg"},{"bike_id":"cd549e87-204c-4674-adb5-346b5b34ecb6","system_id":"levelo_inurba_marseille","lat":43.30578,"lon":5.3938,"is_reserved":false,"is_disabled":false,"rental_uris":{"android":"levelo://app?vid=cd549e87-204c-4674-adb5-346b5b34ecb6","ios":"levelo://app?vid=cd549e87-204c-4674-adb5-346b5b34ecb6"},"vehicle_type_id":"4","last_reported":1760713848,"current_range_meters":5600,"station_id":"ce4bh0p2rcd13ifvqd80","pricing_plan_id":"cebpf4jnsgd1na2vs0mg"},{"bike_id":"292a58ea-7976-482c-877c-f40b74f14ef5","system_id":"levelo_inurba_marseille","lat":43.27811,"lon":5.40712,"is_reserved":false,"is_disabled":false,"rental_uris":{"android":"levelo://app?vid=292a58ea-7976-482c-877c-f40b74f14ef5","ios":"levelo://app?vid=292a58ea-7976-482c-877c-f40b74f14ef5"},"vehicle_type_id":"4","last_reported":1760713848,"current_range_meters":6000,"station_id":"ce4bhnh2rcd13ifvqgtg","pricing_plan_id":"cebpf4jnsgd1na2vs0mg"},{"bike_id":"af96e380-ef8b-412e-8dbe-07ad526806b5","system_id":"levelo_inurba_marseille","lat":43.33761,"lon":5.37447,"is_reserved":false,"is_disabled":false,"rental_uris":{"android":"levelo://app?vid=af96e380-ef8b-412e-8dbe-07ad526806b5","ios":"levelo://app?vid=af96e380-ef8b-412e-8dbe-07ad526806b5"},"vehicle_type_id":"4","last_reported":1760713848,"current_range_meters":6000,"station_id":"","pricing_plan_id":"cebpf4jnsgd1na2vs0mg"},{"bike_id":"afd3a141-6f64-4928-ba91-fca21b7af038","system_id":"levelo_inurba_marseille","lat":43.2965,"lon":5.36567,"is_reserved":false,"is_disabled":false,"rental_uris":{"android":"levelo://app?vid=afd3a141-6f64-4928-ba91-fca21b7af038","ios":"levelo://app?vid=afd3a141-6f64-4928-ba91-fca21b7af038"},"vehicle_type_id":"4","last_reported":1760713848,"current_range_meters":6000,"station_id":"","pricing_plan_id":"cebpf4jnsgd1na2vs0mg"},{"bike_id":"2a8c5c83-afb4-471f-aab4-fe76461f8ab2","system_id":"levelo_inurba_marseille","lat":43.25931,"lon":5.40908,"is_reserved":false,"is_disabled":false,"rental_uris":{"android":"levelo://app?vid=2a8c5c83-afb4-471f-aab4-fe76461f8ab2","ios":"levelo://app?vid=2a8c5c83-afb4-471f-aab4-fe76461f8ab2"},"vehicle_type_id":"4","last_reported":1760713848,"current_range_meters":6000,"station_id":"ce4bhm92rcd13ifvqglg","pricing_plan_id":"cebpf4jnsgd1na2vs0mg"},{"bike_id":"29b5980b-54ca-4a56-8fe7-fd8804799cf3","system_id":"levelo_inurba_marseille","lat":43.28528,"lon":5.44107,"is_reserved":false,"is_disabled":false,"rental_uris":{"android":"levelo://app?vid=29b5980b-54ca-4a56-8fe7-fd8804799cf3","ios":"levelo://app?vid=29b5980b-54ca-4a56-8fe7-fd8804799cf3"},"vehicle_type_id":"4","last_reported":1760713848,"current_range_meters":6000,"station_id":"st_d3j3df2ikq2c7380ej80","pricing_plan_id":"cebpf4jnsgd1na2vs0mg"},{"bike_id":"d1169898-2340-4e04-9bcd-6530b2f8dc87","system_id":"levelo_inurba_marseille","lat":43.28717,"lon":5.37948,"is_reserved":false,"is_disabled":false,"rental_uris":{"android":"levelo://app?vid=d1169898-2340-4e04-9bcd-6530b2f8dc87","ios":"levelo://app?vid=d1169898-2340-4e04-9bcd-6530b2f8dc87"},"vehicle_type_id":"4","last_reported":1760713848,"current_range_meters":6000,"station_id":"ce4bh9p2rcd13ifvqec0","pricing_plan_id":"cebpf4jnsgd1na2vs0mg"},{"bike_id":"32f5cd0c-5727-4f32-b6d3-fad7c1f351be","system_id":"levelo_inurba_marseille","lat":43.30793,"lon":5.37651,"is_reserved":false,"is_disabled":false,"rental_uris":{"android":"levelo://app?vid=32f5cd0c-5727-4f32-b6d3-fad7c1f351be","ios":"levelo://app?vid=32f5cd0c-5727-4f32-b6d3-fad7c1f351be"},"vehicle_type_id":"4","last_reported":1760713848,"current_range_meters":6000,"station_id":"ce4bgv92rcd13ifvqcq0","pricing_plan_id":"cebpf4jnsgd1na2vs0mg"},{"bike_id":"6eda1ef8-21de-4924-be46-4c3e7d4d5a34","system_id":"levelo_inurba_marseille","lat":43.27946,"lon":5.41047,"is_reserved":false,"is_disabled":false,"rental_uris":{"android":"levelo://app?vid=6eda1ef8-21de-4924-be46-4c3e7d4d5a34","ios":"levelo://app?vid=6eda1ef8-21de-4924-be46-4c3e7d4d5a34"},"vehicle_type_id":"4","last_reported":1760713848,"current_range_meters":6000,"station_id":"ce4bhnp2rcd13ifvqh0g","pricing_plan_id":"cebpf4jnsgd1na2vs0mg"},{"bike_id":"d8e9b8f7-08e2-4408-ba5a-bf3e71307936","system_id":"levelo_inurba_marseille","lat":43.21191,"lon":5.35074,"is_reserved":false,"is_disabled":false,"rental_uris":{"android":"levelo://app?vid=d8e9b8f7-08e2-4408-ba5a-bf3e71307936","ios":"levelo://app?vid=d8e9b8f7-08e2-4408-ba5a-bf3e71307936"},"vehicle_type_id":"4","last_reported":1760713848,"current_range_meters":6400,"station_id":"st_cvj6sg6p6f1abm77japg","pricing_plan_id":"cebpf4jnsgd1na2vs0mg"},{"bike_id":"7856590a-1572-412a-918e-77843d1b598a","system_id":"levelo_inurba_marseille","lat":43.28086,"lon":5.4218,"is_reserved":false,"is_disabled":false,"rental_uris":{"android":"levelo://app?vid=7856590a-1572-412a-918e-77843d1b598a","ios":"levelo://app?vid=7856590a-1572-412a-918e-77843d1b598a"},"vehicle_type_id":"4","last_reported":1760713848,"current_range_meters":6400,"station_id":"","pricing_plan_id":"cebpf4jnsgd1na2vs0mg"},{"bike_id":"7a63795d-d6ae-4db3-866d-c16b2af002f1","system_id":"levelo_inurba_marseille","lat":43.29946,"lon":5.37548,"is_reserved":false,"is_disabled":false,"rental_uris":{"android":"levelo://app?vid=7a63795d-d6ae-4db3-866d-c16b2af002f1","ios":"levelo://app?vid=7a63795d-d6ae-4db3-866d-c16b2af002f1"},"vehicle_type_id":"4","last_reported":1760713848,"current_range_meters":6400,"station_id":"","pricing_plan_id":"cebpf4jnsgd1na2vs0mg"},{"bike_id":"e80412c7-30e0-47a9-aa5b-2a76414f3044","system_id":"levelo_inurba_marseille","lat":43.3021,"lon":5.39462,"is_reserved":false,"is_disabled":false,"rental_uris":{"android":"levelo://app?vid=e80412c7-30e0-47a9-aa5b-2a76414f3044","ios":"levelo://app?vid=e80412c7-30e0-47a9-aa5b-2a76414f3044"},"vehicle_type_id":"4","last_reported":1760713848,"current_range_meters":6400,"station_id":"ce4bh0p2rcd13ifvqd70","pricing_plan_id":"cebpf4jnsgd1na2vs0mg"},{"bike_id":"e0e4a492-92fb-4ea1-ae95-6b37ce576041","system_id":"levelo_inurba_marseille","lat":43.24806,"lon":5.37456,"is_reserved":false,"is_disabled":false,"rental_uris":{"android":"levelo://app?vid=e0e4a492-92fb-4ea1-ae95-6b37ce576041","ios":"levelo://app?vid=e0e4a492-92fb-4ea1-ae95-6b37ce576041"},"vehicle_type_id":"4","last_reported":1760713848,"current_range_meters":6400,"station_id":"ce4bhgh2rcd13ifvqfb0","pricing_plan_id":"cebpf4jnsgd1na2vs0mg"},{"bike_id":"7e444206-20cf-47e2-a819-82c6ab3d59a7","system_id":"levelo_inurba_marseille","lat":43.3368,"lon":5.40643,"is_reserved":false,"is_disabled":false,"rental_uris":{"android":"levelo://app?vid=7e444206-20cf-47e2-a819-82c6ab3d59a7","ios":"levelo://app?vid=7e444206-20cf-47e2-a819-82c6ab3d59a7"},"vehicle_type_id":"4","last_reported":1760713848,"current_range_meters":6400,"station_id":"","pricing_plan_id":"cebpf4jnsgd1na2vs0mg"},{"bike_id":"d4e98173-8455-46f9-9479-27c76f309818","system_id":"levelo_inurba_marseille","lat":43.282654,"lon":5.350603,"is_reserved":false,"is_disabled":false,"rental_uris":{"android":"levelo://app?vid=d4e98173-8455-46f9-9479-27c76f309818","ios":"levelo://app?vid=d4e98173-8455-46f9-9479-27c76f309818"},"vehicle_type_id":"4","last_reported":1760713848,"current_range_meters":6400,"station_id":"","pricing_plan_id":"cebpf4jnsgd1na2vs0mg"},{"bike_id":"2049c9b0-0938-495e-b93b-9b2fefdbca7f","system_id":"levelo_inurba_marseille","lat":43.25814,"lon":5.394248,"is_reserved":false,"is_disabled":false,"rental_uris":{"android":"levelo://app?vid=2049c9b0-0938-495e-b93b-9b2fefdbca7f","ios":"levelo://app?vid=2049c9b0-0938-495e-b93b-9b2fefdbca7f"},"vehicle_type_id":"4","last_reported":1760713848,"current_range_meters":6400,"station_id":"ce4bhip2rcd13ifvqft0","pricing_plan_id":"cebpf4jnsgd1na2vs0mg"},{"bike_id":"1dc3768d-0b4e-4859-817c-5a4ee299d7ad","system_id":"levelo_inurba_marseille","lat":43.297298,"lon":5.378799,"is_reserved":false,"is_disabled":false,"rental_uris":{"android":"levelo://app?vid=1dc3768d-0b4e-4859-817c-5a4ee299d7ad","ios":"levelo://app?vid=1dc3768d-0b4e-4859-817c-5a4ee299d7ad"},"vehicle_type_id":"4","last_reported":1760713848,"current_range_meters":6400,"station_id":"","pricing_plan_id":"cebpf4jnsgd1na2vs0mg"},{"bike_id":"c4f24719-24c3-4f3d-b3a1-77d7865f2bae","system_id":"levelo_inurba_marseille","lat":43.29521,"lon":5.39055,"is_reserved":false,"is_disabled":false,"rental_uris":{"android":"levelo://app?vid=c4f24719-24c3-4f3d-b3a1-77d7865f2bae","ios":"levelo://app?vid=c4f24719-24c3-4f3d-b3a1-77d7865f2bae"},"vehicle_type_id":"4","last_reported":1760713848,"current_range_meters":6800,"station_id":"ce4bh3p2rcd13ifvqdp0","pricing_plan_id":"cebpf4jnsgd1na2vs0mg"},{"bike_id":"aa4556bb-64cf-46dc-bf4c-5d87fc31d64f","system_id":"levelo_inurba_marseille","lat":43.29623,"lon":5.37713,"is_reserved":false,"is_disabled":false,"rental_uris":{"android":"levelo://app?vid=aa4556bb-64cf-46dc-bf4c-5d87fc31d64f","ios":"levelo://app?vid=aa4556bb-64cf-46dc-bf4c-5d87fc31d64f"},"vehicle_type_id":"4","last_reported":1760713848,"current_range_meters":6800,"station_id":"ce4bgi92rcd13ifvqb90","pricing_plan_id":"cebpf4jnsgd1na2vs0mg"},{"bike_id":"bda8b163-dae5-467f-a198-0eead6b4bb67","system_id":"levelo_inurba_marseille","lat":43.29579,"lon":5.36739,"is_reserved":false,"is_disabled":false,"rental_uris":{"android":"levelo://app?vid=bda8b163-dae5-467f-a198-0eead6b4bb67","ios":"levelo://app?vid=bda8b163-dae5-467f-a198-0eead6b4bb67"},"vehicle_type_id":"4","last_reported":1760713848,"current_range_meters":6800,"station_id":"ce4bgph2rcd13ifvqc2g","pricing_plan_id":"cebpf4jnsgd1na2vs0mg"},{"bike_id":"662e034f-ec92-417c-a838-68762f3020bc","system_id":"levelo_inurba_marseille","lat":43.3046,"lon":5.36867,"is_reserved":false,"is_disabled":false,"rental_uris":{"android":"levelo://app?vid=662e034f-ec92-417c-a838-68762f3020bc","ios":"levelo://app?vid=662e034f-ec92-417c-a838-68762f3020bc"},"vehicle_type_id":"4","last_reported":1760713848,"current_range_meters":6800,"station_id":"","pricing_plan_id":"cebpf4jnsgd1na2vs0mg"},{"bike_id":"1db0ed39-8ce4-4a52-b8f4-c4e82cd7ec7e","system_id":"levelo_inurba_marseille","lat":43.29575,"lon":5.375171,"is_reserved":false,"is_disabled":false,"rental_uris":{"android":"levelo://app?vid=1db0ed39-8ce4-4a52-b8f4-c4e82cd7ec7e","ios":"levelo://app?vid=1db0ed39-8ce4-4a52-b8f4-c4e82cd7ec7e"},"vehicle_type_id":"4","last_reported":1760713848,"current_range_meters":6800,"station_id":"ce4bhbh2rcd13ifvqeqg","pricing_plan_id":"cebpf4jnsgd1na2vs0mg"},{"bike_id":"18c0fdba-87d8-4535-853c-65e9c1284446","system_id":"levelo_inurba_marseille","lat":43.29582,"lon":5.36736,"is_reserved":false,"is_disabled":false,"rental_uris":{"android":"levelo://app?vid=18c0fdba-87d8-4535-853c-65e9c1284446","ios":"levelo://app?vid=18c0fdba-87d8-4535-853c-65e9c1284446"},"vehicle_type_id":"4","last_reported":1760713848,"current_range_meters":7200,"station_id":"ce4bgph2rcd13ifvqc2g","pricing_plan_id":"cebpf4jnsgd1na2vs0mg"},{"bike_id":"ef9bb65a-a6d8-4b40-b136-db634254d7a3","system_id":"levelo_inurba_marseille","lat":43.30968,"lon":5.39043,"is_reserved":false,"is_disabled":false,"rental_uris":{"android":"levelo://app?vid=ef9bb65a-a6d8-4b40-b136-db634254d7a3","ios":"levelo://app?vid=ef9bb65a-a6d8-4b40-b136-db634254d7a3"},"vehicle_type_id":"4","last_reported":1760713848,"current_range_meters":7200,"station_id":"ce4bgup2rcd13ifvqco0","pricing_plan_id":"cebpf4jnsgd1na2vs0mg"},{"bike_id":"613930c4-4291-4b34-9fa4-cb18be42285c","system_id":"levelo_inurba_marseille","lat":43.299794,"lon":5.371833,"is_reserved":false,"is_disabled":false,"rental_uris":{"android":"levelo://app?vid=613930c4-4291-4b34-9fa4-cb18be42285c","ios":"levelo://app?vid=613930c4-4291-4b34-9fa4-cb18be42285c"},"vehicle_type_id":"4","last_reported":1760713848,"current_range_meters":7200,"station_id":"ce4bgr92rcd13ifvqc7g","pricing_plan_id":"cebpf4jnsgd1na2vs0mg"},{"bike_id":"5eaebb3a-bded-4e2b-82b4-a2a74e7b1f2e","system_id":"levelo_inurba_marseille","lat":43.26572,"lon":5.39012,"is_reserved":false,"is_disabled":false,"rental_uris":{"android":"levelo://app?vid=5eaebb3a-bded-4e2b-82b4-a2a74e7b1f2e","ios":"levelo://app?vid=5eaebb3a-bded-4e2b-82b4-a2a74e7b1f2e"},"vehicle_type_id":"4","last_reported":1760713848,"current_range_meters":7200,"station_id":"ce4bhe12rcd13ifvqf30","pricing_plan_id":"cebpf4jnsgd1na2vs0mg"},{"bike_id":"47b6a661-48b8-461f-9827-f48295e67bbf","system_id":"levelo_inurba_marseille","lat":43.2632,"lon":5.39827,"is_reserved":false,"is_disabled":false,"rental_uris":{"android":"levelo://app?vid=47b6a661-48b8-461f-9827-f48295e67bbf","ios":"levelo://app?vid=47b6a661-48b8-461f-9827-f48295e67bbf"},"vehicle_type_id":"4","last_reported":1760713848,"current_range_meters":8000,"station_id":"","pricing_plan_id":"cebpf4jnsgd1na2vs0mg"},{"bike_id":"c871ca87-9ea0-4c82-8f96-1d74fe568265","system_id":"levelo_inurba_marseille","lat":43.28574,"lon":5.41479,"is_reserved":false,"is_disabled":false,"rental_uris":{"android":"levelo://app?vid=c871ca87-9ea0-4c82-8f96-1d74fe568265","ios":"levelo://app?vid=c871ca87-9ea0-4c82-8f96-1d74fe568265"},"vehicle_type_id":"4","last_reported":1760713848,"current_range_meters":8000,"station_id":"","pricing_plan_id":"cebpf4jnsgd1na2vs0mg"},{"bike_id":"84c5bef0-dc7e-4966-b14a-de4271529822","system_id":"levelo_inurba_marseille","lat":43.26075,"lon":5.393826,"is_reserved":false,"is_disabled":false,"rental_uris":{"android":"levelo://app?vid=84c5bef0-dc7e-4966-b14a-de4271529822","ios":"levelo://app?vid=84c5bef0-dc7e-4966-b14a-de4271529822"},"vehicle_type_id":"4","last_reported":1760713848,"current_range_meters":8000,"station_id":"ce4bhh92rcd13ifvqfj0","pricing_plan_id":"cebpf4jnsgd1na2vs0mg"},{"bike_id":"6be168df-d02c-4308-a891-b97a3ea0a3ad","system_id":"levelo_inurba_marseille","lat":43.28362,"lon":5.3863,"is_reserved":false,"is_disabled":false,"rental_uris":{"android":"levelo://app?vid=6be168df-d02c-4308-a891-b97a3ea0a3ad","ios":"levelo://app?vid=6be168df-d02c-4308-a891-b97a3ea0a3ad"},"vehicle_type_id":"4","last_reported":1760713848,"current_range_meters":8000,"station_id":"ce4bh492rcd13ifvqdvg","pricing_plan_id":"cebpf4jnsgd1na2vs0mg"},{"bike_id":"e7221309-27e5-41e3-8585-ff052fd7c1bc","system_id":"levelo_inurba_marseille","lat":43.24072,"lon":5.37763,"is_reserved":false,"is_disabled":false,"rental_uris":{"android":"levelo://app?vid=e7221309-27e5-41e3-8585-ff052fd7c1bc","ios":"levelo://app?vid=e7221309-27e5-41e3-8585-ff052fd7c1bc"},"vehicle_type_id":"4","last_reported":1760713848,"current_range_meters":8000,"station_id":"ce4bhnp2rcd13ifvqgvg","pricing_plan_id":"cebpf4jnsgd1na2vs0mg"},{"bike_id":"a93bc1c3-22ad-441b-b177-71720019d2da","system_id":"levelo_inurba_marseille","lat":43.27203,"lon":5.39185,"is_reserved":false,"is_disabled":false,"rental_uris":{"android":"levelo://app?vid=a93bc1c3-22ad-441b-b177-71720019d2da","ios":"levelo://app?vid=a93bc1c3-22ad-441b-b177-71720019d2da"},"vehicle_type_id":"4","last_reported":1760713848,"current_range_meters":8400,"station_id":"ce4bhhp2rcd13ifvqfm0","pricing_plan_id":"cebpf4jnsgd1na2vs0mg"},{"bike_id":"0670def4-b15a-4c00-8829-0cd906a61bcb","system_id":"levelo_inurba_marseille","lat":43.33763,"lon":5.37442,"is_reserved":false,"is_disabled":false,"rental_uris":{"android":"levelo://app?vid=0670def4-b15a-4c00-8829-0cd906a61bcb","ios":"levelo://app?vid=0670def4-b15a-4c00-8829-0cd906a61bcb"},"vehicle_type_id":"4","last_reported":1760713848,"current_range_meters":8400,"station_id":"","pricing_plan_id":"cebpf4jnsgd1na2vs0mg"},{"bike_id":"a4911cc1-6afe-40a3-ba0e-f16af3882d45","system_id":"levelo_inurba_marseille","lat":43.21735,"lon":5.34612,"is_reserved":false,"is_disabled":false,"rental_uris":{"android":"levelo://app?vid=a4911cc1-6afe-40a3-ba0e-f16af3882d45","ios":"levelo://app?vid=a4911cc1-6afe-40a3-ba0e-f16af3882d45"},"vehicle_type_id":"4","last_reported":1760713848,"current_range_meters":8400,"station_id":"st_cvj6r9ubvosntc0bgbag","pricing_plan_id":"cebpf4jnsgd1na2vs0mg"},{"bike_id":"b6ff32cc-417d-47af-925d-9f99393741e6","system_id":"levelo_inurba_marseille","lat":43.225347,"lon":5.348211,"is_reserved":false,"is_disabled":false,"rental_uris":{"android":"levelo://app?vid=b6ff32cc-417d-47af-925d-9f99393741e6","ios":"levelo://app?vid=b6ff32cc-417d-47af-925d-9f99393741e6"},"vehicle_type_id":"4","last_reported":1760713848,"current_range_meters":8400,"station_id":"st_cvj5dfep6f1abm77gieg","pricing_plan_id":"cebpf4jnsgd1na2vs0mg"},{"bike_id":"dd19a0e4-9acb-4d73-a8ac-20f5fb43affe","system_id":"levelo_inurba_marseille","lat":43.2319,"lon":5.39988,"is_reserved":false,"is_disabled":false,"rental_uris":{"android":"levelo://app?vid=dd19a0e4-9acb-4d73-a8ac-20f5fb43affe","ios":"levelo://app?vid=dd19a0e4-9acb-4d73-a8ac-20f5fb43affe"},"vehicle_type_id":"4","last_reported":1760713848,"current_range_meters":8800,"station_id":"ce4bhn12rcd13ifvqgqg","pricing_plan_id":"cebpf4jnsgd1na2vs0mg"},{"bike_id":"68621620-8760-401d-b036-7f27f95adc07","system_id":"levelo_inurba_marseille","lat":43.28764,"lon":5.38872,"is_reserved":false,"is_disabled":false,"rental_uris":{"android":"levelo://app?vid=68621620-8760-401d-b036-7f27f95adc07","ios":"levelo://app?vid=68621620-8760-401d-b036-7f27f95adc07"},"vehicle_type_id":"4","last_reported":1760713848,"current_range_meters":8800,"station_id":"","pricing_plan_id":"cebpf4jnsgd1na2vs0mg"},{"bike_id":"7aae268a-4448-4aeb-8b34-753c28b44bef","system_id":"levelo_inurba_marseille","lat":43.29056,"lon":5.35907,"is_reserved":false,"is_disabled":false,"rental_uris":{"android":"levelo://app?vid=7aae268a-4448-4aeb-8b34-753c28b44bef","ios":"levelo://app?vid=7aae268a-4448-4aeb-8b34-753c28b44bef"},"vehicle_type_id":"4","last_reported":1760713848,"current_range_meters":8800,"station_id":"ce4bha92rcd13ifvqeg0","pricing_plan_id":"cebpf4jnsgd1na2vs0mg"},{"bike_id":"e257a5c9-b99e-4af1-ac4f-b017f1c8b418","system_id":"levelo_inurba_marseille","lat":43.33759,"lon":5.37438,"is_reserved":false,"is_disabled":false,"rental_uris":{"android":"levelo://app?vid=e257a5c9-b99e-4af1-ac4f-b017f1c8b418","ios":"levelo://app?vid=e257a5c9-b99e-4af1-ac4f-b017f1c8b418"},"vehicle_type_id":"4","last_reported":1760713848,"current_range_meters":8800,"station_id":"","pricing_plan_id":"cebpf4jnsgd1na2vs0mg"},{"bike_id":"28e5ef05-87e3-44dc-9f05-7fb49ac825d7","system_id":"levelo_inurba_marseille","lat":43.29035,"lon":5.38658,"is_reserved":false,"is_disabled":false,"rental_uris":{"android":"levelo://app?vid=28e5ef05-87e3-44dc-9f05-7fb49ac825d7","ios":"levelo://app?vid=28e5ef05-87e3-44dc-9f05-7fb49ac825d7"},"vehicle_type_id":"4","last_reported":1760713848,"current_range_meters":8800,"station_id":"ce4bh4p2rcd13ifvqe0g","pricing_plan_id":"cebpf4jnsgd1na2vs0mg"},{"bike_id":"ad83c8c2-d98a-4eda-b367-d63bb41b86e5","system_id":"levelo_inurba_marseille","lat":43.28037,"lon":5.36943,"is_reserved":false,"is_disabled":false,"rental_uris":{"android":"levelo://app?vid=ad83c8c2-d98a-4eda-b367-d63bb41b86e5","ios":"levelo://app?vid=ad83c8c2-d98a-4eda-b367-d63bb41b86e5"},"vehicle_type_id":"4","last_reported":1760713848,"current_range_meters":8800,"station_id":"ce4bha12rcd13ifvqef0","pricing_plan_id":"cebpf4jnsgd1na2vs0mg"},{"bike_id":"074787e6-7e7e-481e-b277-5c430d2e5523","system_id":"levelo_inurba_marseille","lat":43.231788,"lon":5.399881,"is_reserved":false,"is_disabled":false,"rental_uris":{"android":"levelo://app?vid=074787e6-7e7e-481e-b277-5c430d2e5523","ios":"levelo://app?vid=074787e6-7e7e-481e-b277-5c430d2e5523"},"vehicle_type_id":"4","last_reported":1760713848,"current_range_meters":8800,"station_id":"","pricing_plan_id":"cebpf4jnsgd1na2vs0mg"},{"bike_id":"121f55c8-5a85-4142-a96c-bf52eb873442","system_id":"levelo_inurba_marseille","lat":43.30461,"lon":5.36924,"is_reserved":false,"is_disabled":false,"rental_uris":{"android":"levelo://app?vid=121f55c8-5a85-4142-a96c-bf52eb873442","ios":"levelo://app?vid=121f55c8-5a85-4142-a96c-bf52eb873442"},"vehicle_type_id":"4","last_reported":1760713848,"current_range_meters":8800,"station_id":"","pricing_plan_id":"cebpf4jnsgd1na2vs0mg"},{"bike_id":"66d59e9c-a61e-4410-b775-c6da4e349dea","system_id":"levelo_inurba_marseille","lat":43.2821,"lon":5.39123,"is_reserved":false,"is_disabled":false,"rental_uris":{"android":"levelo://app?vid=66d59e9c-a61e-4410-b775-c6da4e349dea","ios":"levelo://app?vid=66d59e9c-a61e-4410-b775-c6da4e349dea"},"vehicle_type_id":"4","last_reported":1760713848,"current_range_meters":8800,"station_id":"ce4bhn92rcd13ifvqgsg","pricing_plan_id":"cebpf4jnsgd1na2vs0mg"},{"bike_id":"dbb11e46-76f9-4c1c-b6a2-219d073feee0","system_id":"levelo_inurba_marseille","lat":43.2952,"lon":5.39404,"is_reserved":false,"is_disabled":false,"rental_uris":{"android":"levelo://app?vid=dbb11e46-76f9-4c1c-b6a2-219d073feee0","ios":"levelo://app?vid=dbb11e46-76f9-4c1c-b6a2-219d073feee0"},"vehicle_type_id":"4","last_reported":1760713848,"current_range_meters":8800,"station_id":"ce4bh292rcd13ifvqdf0","pricing_plan_id":"cebpf4jnsgd1na2vs0mg"},{"bike_id":"aa97a038-de4a-498d-a4b4-8ec99e18be3a","system_id":"levelo_inurba_marseille","lat":43.308923,"lon":5.396568,"is_reserved":false,"is_disabled":true,"rental_uris":{"android":"levelo://app?vid=aa97a038-de4a-498d-a4b4-8ec99e18be3a","ios":"levelo://app?vid=aa97a038-de4a-498d-a4b4-8ec99e18be3a"},"vehicle_type_id":"4","last_reported":1760713848,"current_range_meters":8800,"station_id":"ce4bh012rcd13ifvqcv0","pricing_plan_id":"cebpf4jnsgd1na2vs0mg"},{"bike_id":"36ea28c9-2c07-4776-86d3-5a0f51f25228","system_id":"levelo_inurba_marseille","lat":43.27375,"lon":5.36258,"is_reserved":false,"is_disabled":false,"rental_uris":{"android":"levelo://app?vid=36ea28c9-2c07-4776-86d3-5a0f51f25228","ios":"levelo://app?vid=36ea28c9-2c07-4776-86d3-5a0f51f25228"},"vehicle_type_id":"4","last_reported":1760713848,"current_range_meters":9200,"station_id":"ce4bhbh2rcd13ifvqeo0","pricing_plan_id":"cebpf4jnsgd1na2vs0mg"},{"bike_id":"d222e4c1-8b75-4697-ba81-75a11105c67c","system_id":"levelo_inurba_marseille","lat":43.284862,"lon":5.384122,"is_reserved":false,"is_disabled":false,"rental_uris":{"android":"levelo://app?vid=d222e4c1-8b75-4697-ba81-75a11105c67c","ios":"levelo://app?vid=d222e4c1-8b75-4697-ba81-75a11105c67c"},"vehicle_type_id":"4","last_reported":1760713848,"current_range_meters":9200,"station_id":"ce4bh512rcd13ifvqe3g","pricing_plan_id":"cebpf4jnsgd1na2vs0mg"},{"bike_id":"245a030c-0c43-41f8-a4cc-088d55252b06","system_id":"levelo_inurba_marseille","lat":43.24467,"lon":5.36944,"is_reserved":false,"is_disabled":false,"rental_uris":{"android":"levelo://app?vid=245a030c-0c43-41f8-a4cc-088d55252b06","ios":"levelo://app?vid=245a030c-0c43-41f8-a4cc-088d55252b06"},"vehicle_type_id":"4","last_reported":1760713848,"current_range_meters":9200,"station_id":"","pricing_plan_id":"cebpf4jnsgd1na2vs0mg"},{"bike_id":"c3fd92ee-823d-40b2-8d05-92fae428338a","system_id":"levelo_inurba_marseille","lat":43.29796,"lon":5.38112,"is_reserved":false,"is_disabled":false,"rental_uris":{"android":"levelo://app?vid=c3fd92ee-823d-40b2-8d05-92fae428338a","ios":"levelo://app?vid=c3fd92ee-823d-40b2-8d05-92fae428338a"},"vehicle_type_id":"4","last_reported":1760713848,"current_range_meters":9200,"station_id":"ce4bgip2rcd13ifvqbb0","pricing_plan_id":"cebpf4jnsgd1na2vs0mg"},{"bike_id":"7a81d056-0176-460d-b95f-3c89febb70dc","system_id":"levelo_inurba_marseille","lat":43.23194,"lon":5.35556,"is_reserved":false,"is_disabled":false,"rental_uris":{"android":"levelo://app?vid=7a81d056-0176-460d-b95f-3c89febb70dc","ios":"levelo://app?vid=7a81d056-0176-460d-b95f-3c89febb70dc"},"vehicle_type_id":"4","last_reported":1760713848,"current_range_meters":9200,"station_id":"ce4bhu92rcd13ifvqi70","pricing_plan_id":"cebpf4jnsgd1na2vs0mg"},{"bike_id":"26416dae-68db-465d-ba83-72f605f27523","system_id":"levelo_inurba_marseille","lat":43.337444,"lon":5.374475,"is_reserved":false,"is_disabled":false,"rental_uris":{"android":"levelo://app?vid=26416dae-68db-465d-ba83-72f605f27523","ios":"levelo://app?vid=26416dae-68db-465d-ba83-72f605f27523"},"vehicle_type_id":"4","last_reported":1760713848,"current_range_meters":9200,"station_id":"","pricing_plan_id":"cebpf4jnsgd1na2vs0mg"},{"bike_id":"69dda70d-da97-463d-8f92-ec1356236568","system_id":"levelo_inurba_marseille","lat":43.28232,"lon":5.39072,"is_reserved":false,"is_disabled":false,"rental_uris":{"android":"levelo://app?vid=69dda70d-da97-463d-8f92-ec1356236568","ios":"levelo://app?vid=69dda70d-da97-463d-8f92-ec1356236568"},"vehicle_type_id":"4","last_reported":1760713848,"current_range_meters":9200,"station_id":"ce4bhn92rcd13ifvqgsg","pricing_plan_id":"cebpf4jnsgd1na2vs0mg"},{"bike_id":"8c3948da-7bd8-4831-99ab-4b5a53bb3061","system_id":"levelo_inurba_marseille","lat":43.297943,"lon":5.380874,"is_reserved":false,"is_disabled":false,"rental_uris":{"android":"levelo://app?vid=8c3948da-7bd8-4831-99ab-4b5a53bb3061","ios":"levelo://app?vid=8c3948da-7bd8-4831-99ab-4b5a53bb3061"},"vehicle_type_id":"4","last_reported":1760713848,"current_range_meters":9200,"station_id":"ce4bgip2rcd13ifvqbb0","pricing_plan_id":"cebpf4jnsgd1na2vs0mg"},{"bike_id":"60db9c4d-18c5-43b2-af93-afdeed906cbb","system_id":"levelo_inurba_marseille","lat":43.28614,"lon":5.35104,"is_reserved":false,"is_disabled":false,"rental_uris":{"android":"levelo://app?vid=60db9c4d-18c5-43b2-af93-afdeed906cbb","ios":"levelo://app?vid=60db9c4d-18c5-43b2-af93-afdeed906cbb"},"vehicle_type_id":"4","last_reported":1760713848,"current_range_meters":9200,"station_id":"ce4bhch2rcd13ifvqeug","pricing_plan_id":"cebpf4jnsgd1na2vs0mg"},{"bike_id":"cac63ec2-4ffa-497f-a658-1431eb52a193","system_id":"levelo_inurba_marseille","lat":43.302975,"lon":5.392235,"is_reserved":false,"is_disabled":false,"rental_uris":{"android":"levelo://app?vid=cac63ec2-4ffa-497f-a658-1431eb52a193","ios":"levelo://app?vid=cac63ec2-4ffa-497f-a658-1431eb52a193"},"vehicle_type_id":"4","last_reported":1760713848,"current_range_meters":9600,"station_id":"ce4bgkh2rcd13ifvqbk0","pricing_plan_id":"cebpf4jnsgd1na2vs0mg"},{"bike_id":"1722d2b8-35af-4a73-b4a2-f4ccd52685de","system_id":"levelo_inurba_marseille","lat":43.30948,"lon":5.3904,"is_reserved":false,"is_disabled":false,"rental_uris":{"android":"levelo://app?vid=1722d2b8-35af-4a73-b4a2-f4ccd52685de","ios":"levelo://app?vid=1722d2b8-35af-4a73-b4a2-f4ccd52685de"},"vehicle_type_id":"4","last_reported":1760713848,"current_range_meters":9600,"station_id":"ce4bgup2rcd13ifvqco0","pricing_plan_id":"cebpf4jnsgd1na2vs0mg"},{"bike_id":"2a5498ee-d604-476f-a7c3-7260eebaa7f3","system_id":"levelo_inurba_marseille","lat":43.29571,"lon":5.37426,"is_reserved":false,"is_disabled":false,"rental_uris":{"android":"levelo://app?vid=2a5498ee-d604-476f-a7c3-7260eebaa7f3","ios":"levelo://app?vid=2a5498ee-d604-476f-a7c3-7260eebaa7f3"},"vehicle_type_id":"4","last_reported":1760713848,"current_range_meters":9600,"station_id":"","pricing_plan_id":"cebpf4jnsgd1na2vs0mg"},{"bike_id":"60c5c3aa-366d-41fb-810a-97bebe0d2f4e","system_id":"levelo_inurba_marseille","lat":43.29022,"lon":5.38128,"is_reserved":false,"is_disabled":false,"rental_uris":{"android":"levelo://app?vid=60c5c3aa-366d-41fb-810a-97bebe0d2f4e","ios":"levelo://app?vid=60c5c3aa-366d-41fb-810a-97bebe0d2f4e"},"vehicle_type_id":"4","last_reported":1760713848,"current_range_meters":9600,"station_id":"ce4bh4p2rcd13ifvqe1g","pricing_plan_id":"cebpf4jnsgd1na2vs0mg"},{"bike_id":"9ddccea7-f53a-4958-a1b4-cbf894f8fdd1","system_id":"levelo_inurba_marseille","lat":43.21749,"lon":5.34604,"is_reserved":false,"is_disabled":false,"rental_uris":{"android":"levelo://app?vid=9ddccea7-f53a-4958-a1b4-cbf894f8fdd1","ios":"levelo://app?vid=9ddccea7-f53a-4958-a1b4-cbf894f8fdd1"},"vehicle_type_id":"4","last_reported":1760713848,"current_range_meters":9600,"station_id":"st_cvj6r9ubvosntc0bgbag","pricing_plan_id":"cebpf4jnsgd1na2vs0mg"},{"bike_id":"9392b340-d171-48a7-acd2-ca0348810f4c","system_id":"levelo_inurba_marseille","lat":43.26527,"lon":5.38029,"is_reserved":false,"is_disabled":false,"rental_uris":{"android":"levelo://app?vid=9392b340-d171-48a7-acd2-ca0348810f4c","ios":"levelo://app?vid=9392b340-d171-48a7-acd2-ca0348810f4c"},"vehicle_type_id":"4","last_reported":1760713848,"current_range_meters":9600,"station_id":"","pricing_plan_id":"cebpf4jnsgd1na2vs0mg"},{"bike_id":"4bfe15ab-7ce5-4ec3-820f-3a50de25a1a0","system_id":"levelo_inurba_marseille","lat":43.27058,"lon":5.40258,"is_reserved":false,"is_disabled":false,"rental_uris":{"android":"levelo://app?vid=4bfe15ab-7ce5-4ec3-820f-3a50de25a1a0","ios":"levelo://app?vid=4bfe15ab-7ce5-4ec3-820f-3a50de25a1a0"},"vehicle_type_id":"4","last_reported":1760713848,"current_range_meters":9600,"station_id":"ce4bhk92rcd13ifvqgc0","pricing_plan_id":"cebpf4jnsgd1na2vs0mg"},{"bike_id":"4b2dc061-29b1-492d-9506-2f6073746525","system_id":"levelo_inurba_marseille","lat":43.28268,"lon":5.35067,"is_reserved":false,"is_disabled":false,"rental_uris":{"android":"levelo://app?vid=4b2dc061-29b1-492d-9506-2f6073746525","ios":"levelo://app?vid=4b2dc061-29b1-492d-9506-2f6073746525"},"vehicle_type_id":"4","last_reported":1760713848,"current_range_meters":10000,"station_id":"ce4bhbp2rcd13ifvqerg","pricing_plan_id":"cebpf4jnsgd1na2vs0mg"},{"bike_id":"2c8d8491-37a1-4a4e-a42d-e2cfd44f58d6","system_id":"levelo_inurba_marseille","lat":43.28538,"lon":5.44095,"is_reserved":false,"is_disabled":false,"rental_uris":{"android":"levelo://app?vid=2c8d8491-37a1-4a4e-a42d-e2cfd44f58d6","ios":"levelo://app?vid=2c8d8491-37a1-4a4e-a42d-e2cfd44f58d6"},"vehicle_type_id":"4","last_reported":1760713848,"current_range_meters":10000,"station_id":"st_d3j3df2ikq2c7380ej80","pricing_plan_id":"cebpf4jnsgd1na2vs0mg"},{"bike_id":"24d82d64-1145-442f-a9f5-19238b0b39ef","system_id":"levelo_inurba_marseille","lat":43.272133,"lon":5.391866,"is_reserved":false,"is_disabled":false,"rental_uris":{"android":"levelo://app?vid=24d82d64-1145-442f-a9f5-19238b0b39ef","ios":"levelo://app?vid=24d82d64-1145-442f-a9f5-19238b0b39ef"},"vehicle_type_id":"4","last_reported":1760713848,"current_range_meters":10000,"station_id":"","pricing_plan_id":"cebpf4jnsgd1na2vs0mg"},{"bike_id":"23ac9a0c-8c48-4315-b26e-b6e767f0ba63","system_id":"levelo_inurba_marseille","lat":43.28236,"lon":5.39069,"is_reserved":false,"is_disabled":false,"rental_uris":{"android":"levelo://app?vid=23ac9a0c-8c48-4315-b26e-b6e767f0ba63","ios":"levelo://app?vid=23ac9a0c-8c48-4315-b26e-b6e767f0ba63"},"vehicle_type_id":"4","last_reported":1760713848,"current_range_meters":10000,"station_id":"ce4bhn92rcd13ifvqgsg","pricing_plan_id":"cebpf4jnsgd1na2vs0mg"},{"bike_id":"c6aa45a9-018f-4e61-a9ce-cdbf459417c1","system_id":"levelo_inurba_marseille","lat":43.28445,"lon":5.39209,"is_reserved":false,"is_disabled":false,"rental_uris":{"android":"levelo://app?vid=c6aa45a9-018f-4e61-a9ce-cdbf459417c1","ios":"levelo://app?vid=c6aa45a9-018f-4e61-a9ce-cdbf459417c1"},"vehicle_type_id":"4","last_reported":1760713848,"current_range_meters":10000,"station_id":"ce4bhoh2rcd13ifvqh5g","pricing_plan_id":"cebpf4jnsgd1na2vs0mg"},{"bike_id":"edc2b540-f4d1-424e-9002-80823ed0b6b2","system_id":"levelo_inurba_marseille","lat":43.283916,"lon":5.370619,"is_reserved":false,"is_disabled":false,"rental_uris":{"android":"levelo://app?vid=edc2b540-f4d1-424e-9002-80823ed0b6b2","ios":"levelo://app?vid=edc2b540-f4d1-424e-9002-80823ed0b6b2"},"vehicle_type_id":"4","last_reported":1760713848,"current_range_meters":10000,"station_id":"","pricing_plan_id":"cebpf4jnsgd1na2vs0mg"},{"bike_id":"2ffd8e02-bf03-433c-93ee-818b48f9e635","system_id":"levelo_inurba_marseille","lat":43.28672,"lon":5.38671,"is_reserved":false,"is_disabled":false,"rental_uris":{"android":"levelo://app?vid=2ffd8e02-bf03-433c-93ee-818b48f9e635","ios":"levelo://app?vid=2ffd8e02-bf03-433c-93ee-818b48f9e635"},"vehicle_type_id":"4","last_reported":1760713848,"current_range_meters":10000,"station_id":"ce4bh492rcd13ifvqdug","pricing_plan_id":"cebpf4jnsgd1na2vs0mg"},{"bike_id":"d773d30e-aab0-4f9a-adf7-f408dd2af785","system_id":"levelo_inurba_marseille","lat":43.243866,"lon":5.370626,"is_reserved":false,"is_disabled":false,"rental_uris":{"android":"levelo://app?vid=d773d30e-aab0-4f9a-adf7-f408dd2af785","ios":"levelo://app?vid=d773d30e-aab0-4f9a-adf7-f408dd2af785"},"vehicle_type_id":"4","last_reported":1760713848,"current_range_meters":10800,"station_id":"ce4bhhh2rcd13ifvqfk0","pricing_plan_id":"cebpf4jnsgd1na2vs0mg"},{"bike_id":"4977ae80-6ab7-4551-b84a-19d517ab2099","system_id":"levelo_inurba_marseille","lat":43.29528,"lon":5.3854,"is_reserved":false,"is_disabled":false,"rental_uris":{"android":"levelo://app?vid=4977ae80-6ab7-4551-b84a-19d517ab2099","ios":"levelo://app?vid=4977ae80-6ab7-4551-b84a-19d517ab2099"},"vehicle_type_id":"4","last_reported":1760713848,"current_range_meters":10800,"station_id":"ce4bgih2rcd13ifvqba0","pricing_plan_id":"cebpf4jnsgd1na2vs0mg"},{"bike_id":"34499578-aa76-4e2f-a7ff-dee0cb100571","system_id":"levelo_inurba_marseille","lat":43.25316,"lon":5.42169,"is_reserved":false,"is_disabled":false,"rental_uris":{"android":"levelo://app?vid=34499578-aa76-4e2f-a7ff-dee0cb100571","ios":"levelo://app?vid=34499578-aa76-4e2f-a7ff-dee0cb100571"},"vehicle_type_id":"4","last_reported":1760713848,"current_range_meters":10800,"station_id":"st_d2m65c5bi1j21697t3ng","pricing_plan_id":"cebpf4jnsgd1na2vs0mg"},{"bike_id":"416f580b-31c7-4ade-8604-dbd86eb8155f","system_id":"levelo_inurba_marseille","lat":43.28161,"lon":5.42124,"is_reserved":false,"is_disabled":false,"rental_uris":{"android":"levelo://app?vid=416f580b-31c7-4ade-8604-dbd86eb8155f","ios":"levelo://app?vid=416f580b-31c7-4ade-8604-dbd86eb8155f"},"vehicle_type_id":"4","last_reported":1760713848,"current_range_meters":10800,"station_id":"","pricing_plan_id":"cebpf4jnsgd1na2vs0mg"},{"bike_id":"1c3664f0-daa7-4fd0-a6d8-42680b262940","system_id":"levelo_inurba_marseille","lat":43.29726,"lon":5.36589,"is_reserved":false,"is_disabled":false,"rental_uris":{"android":"levelo://app?vid=1c3664f0-daa7-4fd0-a6d8-42680b262940","ios":"levelo://app?vid=1c3664f0-daa7-4fd0-a6d8-42680b262940"},"vehicle_type_id":"4","last_reported":1760713848,"current_range_meters":10800,"station_id":"","pricing_plan_id":"cebpf4jnsgd1na2vs0mg"},{"bike_id":"bce30842-8e75-4a0a-85be-d265e9f9b164","system_id":"levelo_inurba_marseille","lat":43.284058,"lon":5.349747,"is_reserved":false,"is_disabled":false,"rental_uris":{"android":"levelo://app?vid=bce30842-8e75-4a0a-85be-d265e9f9b164","ios":"levelo://app?vid=bce30842-8e75-4a0a-85be-d265e9f9b164"},"vehicle_type_id":"4","last_reported":1760713848,"current_range_meters":11200,"station_id":"ce4bhbh2rcd13ifvqepg","pricing_plan_id":"cebpf4jnsgd1na2vs0mg"},{"bike_id":"e4601257-9987-4e30-b78f-04ac07240b86","system_id":"levelo_inurba_marseille","lat":43.28707,"lon":5.37398,"is_reserved":false,"is_disabled":true,"rental_uris":{"android":"levelo://app?vid=e4601257-9987-4e30-b78f-04ac07240b86","ios":"levelo://app?vid=e4601257-9987-4e30-b78f-04ac07240b86"},"vehicle_type_id":"4","last_reported":1760713848,"current_range_meters":11200,"station_id":"ce4bh3p2rcd13ifvqdq0","pricing_plan_id":"cebpf4jnsgd1na2vs0mg"},{"bike_id":"054a2089-08bf-4d2e-9574-bcfc2c4d2a97","system_id":"levelo_inurba_marseille","lat":43.22931,"lon":5.35397,"is_reserved":false,"is_disabled":false,"rental_uris":{"android":"levelo://app?vid=054a2089-08bf-4d2e-9574-bcfc2c4d2a97","ios":"levelo://app?vid=054a2089-08bf-4d2e-9574-bcfc2c4d2a97"},"vehicle_type_id":"4","last_reported":1760713848,"current_range_meters":11200,"station_id":"cpo3532slgdg3j2ikp40","pricing_plan_id":"cebpf4jnsgd1na2vs0mg"},{"bike_id":"326321cc-5ff0-419b-be6c-cfdc1e42633a","system_id":"levelo_inurba_marseille","lat":43.28465,"lon":5.3589,"is_reserved":false,"is_disabled":false,"rental_uris":{"android":"levelo://app?vid=326321cc-5ff0-419b-be6c-cfdc1e42633a","ios":"levelo://app?vid=326321cc-5ff0-419b-be6c-cfdc1e42633a"},"vehicle_type_id":"4","last_reported":1760713848,"current_range_meters":11200,"station_id":"ce4bhah2rcd13ifvqei0","pricing_plan_id":"cebpf4jnsgd1na2vs0mg"},{"bike_id":"5c43afd5-a789-4f27-917d-783c05a370ae","system_id":"levelo_inurba_marseille","lat":43.2953,"lon":5.38539,"is_reserved":false,"is_disabled":false,"rental_uris":{"android":"levelo://app?vid=5c43afd5-a789-4f27-917d-783c05a370ae","ios":"levelo://app?vid=5c43afd5-a789-4f27-917d-783c05a370ae"},"vehicle_type_id":"4","last_reported":1760713848,"current_range_meters":11200,"station_id":"ce4bgih2rcd13ifvqba0","pricing_plan_id":"cebpf4jnsgd1na2vs0mg"},{"bike_id":"d4469554-bdf3-4b98-8430-ea84d37cfcee","system_id":"levelo_inurba_marseille","lat":43.31361,"lon":5.38491,"is_reserved":false,"is_disabled":false,"rental_uris":{"android":"levelo://app?vid=d4469554-bdf3-4b98-8430-ea84d37cfcee","ios":"levelo://app?vid=d4469554-bdf3-4b98-8430-ea84d37cfcee"},"vehicle_type_id":"4","last_reported":1760713848,"current_range_meters":11200,"station_id":"ce4bgt92rcd13ifvqcf0","pricing_plan_id":"cebpf4jnsgd1na2vs0mg"},{"bike_id":"c4eaac22-79d6-4d71-a9f3-ca9fa3489189","system_id":"levelo_inurba_marseille","lat":43.25714,"lon":5.41123,"is_reserved":false,"is_disabled":false,"rental_uris":{"android":"levelo://app?vid=c4eaac22-79d6-4d71-a9f3-ca9fa3489189","ios":"levelo://app?vid=c4eaac22-79d6-4d71-a9f3-ca9fa3489189"},"vehicle_type_id":"4","last_reported":1760713848,"current_range_meters":11200,"station_id":"ce4bhkp2rcd13ifvqgd0","pricing_plan_id":"cebpf4jnsgd1na2vs0mg"},{"bike_id":"f854b037-4f39-41d8-9ee8-863b49554c8e","system_id":"levelo_inurba_marseille","lat":43.30138,"lon":5.37412,"is_reserved":false,"is_disabled":false,"rental_uris":{"android":"levelo://app?vid=f854b037-4f39-41d8-9ee8-863b49554c8e","ios":"levelo://app?vid=f854b037-4f39-41d8-9ee8-863b49554c8e"},"vehicle_type_id":"4","last_reported":1760713848,"current_range_meters":11200,"station_id":"ce4bgs92rcd13ifvqcc0","pricing_plan_id":"cebpf4jnsgd1na2vs0mg"},{"bike_id":"fdc784f8-d2fd-40ec-9e60-dab278ff786b","system_id":"levelo_inurba_marseille","lat":43.280961,"lon":5.36889,"is_reserved":false,"is_disabled":false,"rental_uris":{"android":"levelo://app?vid=fdc784f8-d2fd-40ec-9e60-dab278ff786b","ios":"levelo://app?vid=fdc784f8-d2fd-40ec-9e60-dab278ff786b"},"vehicle_type_id":"4","last_reported":1760713848,"current_range_meters":11600,"station_id":"ce4bha12rcd13ifvqef0","pricing_plan_id":"cebpf4jnsgd1na2vs0mg"},{"bike_id":"5fe6e873-dba1-40dd-bc65-77de126f2710","system_id":"levelo_inurba_marseille","lat":43.332893,"lon":5.395256,"is_reserved":false,"is_disabled":false,"rental_uris":{"android":"levelo://app?vid=5fe6e873-dba1-40dd-bc65-77de126f2710","ios":"levelo://app?vid=5fe6e873-dba1-40dd-bc65-77de126f2710"},"vehicle_type_id":"4","last_reported":1760713848,"current_range_meters":11600,"station_id":"","pricing_plan_id":"cebpf4jnsgd1na2vs0mg"},{"bike_id":"cb12ac95-b112-40d8-8b7d-06759435ef6f","system_id":"levelo_inurba_marseille","lat":43.29703,"lon":5.36612,"is_reserved":false,"is_disabled":false,"rental_uris":{"android":"levelo://app?vid=cb12ac95-b112-40d8-8b7d-06759435ef6f","ios":"levelo://app?vid=cb12ac95-b112-40d8-8b7d-06759435ef6f"},"vehicle_type_id":"4","last_reported":1760713848,"current_range_meters":11600,"station_id":"ce4bgn12rcd13ifvqbt0","pricing_plan_id":"cebpf4jnsgd1na2vs0mg"},{"bike_id":"d2e5e4b8-75b9-4fed-8e85-dab5438c16ab","system_id":"levelo_inurba_marseille","lat":43.27814,"lon":5.40714,"is_reserved":false,"is_disabled":false,"rental_uris":{"android":"levelo://app?vid=d2e5e4b8-75b9-4fed-8e85-dab5438c16ab","ios":"levelo://app?vid=d2e5e4b8-75b9-4fed-8e85-dab5438c16ab"},"vehicle_type_id":"4","last_reported":1760713848,"current_range_meters":11600,"station_id":"ce4bhnh2rcd13ifvqgtg","pricing_plan_id":"cebpf4jnsgd1na2vs0mg"},{"bike_id":"24a4f6d3-ff5f-4790-b06f-ca29669a62cd","system_id":"levelo_inurba_marseille","lat":43.29843,"lon":5.36264,"is_reserved":false,"is_disabled":false,"rental_uris":{"android":"levelo://app?vid=24a4f6d3-ff5f-4790-b06f-ca29669a62cd","ios":"levelo://app?vid=24a4f6d3-ff5f-4790-b06f-ca29669a62cd"},"vehicle_type_id":"4","last_reported":1760713848,"current_range_meters":12000,"station_id":"ce4bgpp2rcd13ifvqc3g","pricing_plan_id":"cebpf4jnsgd1na2vs0mg"},{"bike_id":"08beafc6-a2e0-4c11-98ef-36aed99eb225","system_id":"levelo_inurba_marseille","lat":43.29535,"lon":5.385305,"is_reserved":false,"is_disabled":false,"rental_uris":{"android":"levelo://app?vid=08beafc6-a2e0-4c11-98ef-36aed99eb225","ios":"levelo://app?vid=08beafc6-a2e0-4c11-98ef-36aed99eb225"},"vehicle_type_id":"4","last_reported":1760713848,"current_range_meters":12000,"station_id":"ce4bgih2rcd13ifvqba0","pricing_plan_id":"cebpf4jnsgd1na2vs0mg"},{"bike_id":"9893867c-39cd-451e-aad8-27bf079e7abe","system_id":"levelo_inurba_marseille","lat":43.24796,"lon":5.37464,"is_reserved":false,"is_disabled":false,"rental_uris":{"android":"levelo://app?vid=9893867c-39cd-451e-aad8-27bf079e7abe","ios":"levelo://app?vid=9893867c-39cd-451e-aad8-27bf079e7abe"},"vehicle_type_id":"4","last_reported":1760713848,"current_range_meters":12000,"station_id":"ce4bhgh2rcd13ifvqfb0","pricing_plan_id":"cebpf4jnsgd1na2vs0mg"},{"bike_id":"bfe0a5f5-942a-4c5d-8d17-7efe9624ec83","system_id":"levelo_inurba_marseille","lat":43.28499,"lon":5.38579,"is_reserved":false,"is_disabled":false,"rental_uris":{"android":"levelo://app?vid=bfe0a5f5-942a-4c5d-8d17-7efe9624ec83","ios":"levelo://app?vid=bfe0a5f5-942a-4c5d-8d17-7efe9624ec83"},"vehicle_type_id":"4","last_reported":1760713848,"current_range_meters":12000,"station_id":"ce4bh8p2rcd13ifvqeb0","pricing_plan_id":"cebpf4jnsgd1na2vs0mg"},{"bike_id":"a817b630-bbed-48d3-97f4-9bd571b9ebab","system_id":"levelo_inurba_marseille","lat":43.300021,"lon":5.373502,"is_reserved":false,"is_disabled":false,"rental_uris":{"android":"levelo://app?vid=a817b630-bbed-48d3-97f4-9bd571b9ebab","ios":"levelo://app?vid=a817b630-bbed-48d3-97f4-9bd571b9ebab"},"vehicle_type_id":"4","last_reported":1760713848,"current_range_meters":12000,"station_id":"","pricing_plan_id":"cebpf4jnsgd1na2vs0mg"},{"bike_id":"eae2d5e7-ac95-406a-a558-d7a4f139379e","system_id":"levelo_inurba_marseille","lat":43.29534,"lon":5.38541,"is_reserved":false,"is_disabled":false,"rental_uris":{"android":"levelo://app?vid=eae2d5e7-ac95-406a-a558-d7a4f139379e","ios":"levelo://app?vid=eae2d5e7-ac95-406a-a558-d7a4f139379e"},"vehicle_type_id":"4","last_reported":1760713848,"current_range_meters":12400,"station_id":"ce4bgih2rcd13ifvqba0","pricing_plan_id":"cebpf4jnsgd1na2vs0mg"},{"bike_id":"c4ed00de-3711-4102-92e5-72a600ff79ec","system_id":"levelo_inurba_marseille","lat":43.32364,"lon":5.36768,"is_reserved":false,"is_disabled":false,"rental_uris":{"android":"levelo://app?vid=c4ed00de-3711-4102-92e5-72a600ff79ec","ios":"levelo://app?vid=c4ed00de-3711-4102-92e5-72a600ff79ec"},"vehicle_type_id":"4","last_reported":1760713848,"current_range_meters":12400,"station_id":"ce4bhsh2rcd13ifvqi2g","pricing_plan_id":"cebpf4jnsgd1na2vs0mg"},{"bike_id":"71b92fa5-cf41-48eb-81c9-d18498037b27","system_id":"levelo_inurba_marseille","lat":43.295536,"lon":5.422977,"is_reserved":false,"is_disabled":false,"rental_uris":{"android":"levelo://app?vid=71b92fa5-cf41-48eb-81c9-d18498037b27","ios":"levelo://app?vid=71b92fa5-cf41-48eb-81c9-d18498037b27"},"vehicle_type_id":"4","last_reported":1760713848,"current_range_meters":12400,"station_id":"ce4bhph2rcd13ifvqhdg","pricing_plan_id":"cebpf4jnsgd1na2vs0mg"},{"bike_id":"5ee97bcc-f851-4bfa-9ef4-3d10677118b2","system_id":"levelo_inurba_marseille","lat":43.31755,"lon":5.39009,"is_reserved":false,"is_disabled":false,"rental_uris":{"android":"levelo://app?vid=5ee97bcc-f851-4bfa-9ef4-3d10677118b2","ios":"levelo://app?vid=5ee97bcc-f851-4bfa-9ef4-3d10677118b2"},"vehicle_type_id":"4","last_reported":1760713848,"current_range_meters":12400,"station_id":"ce4bhqp2rcd13ifvqhng","pricing_plan_id":"cebpf4jnsgd1na2vs0mg"},{"bike_id":"df2d3d6e-26dc-4145-b74c-60aa297416fb","system_id":"levelo_inurba_marseille","lat":43.27666,"lon":5.38894,"is_reserved":false,"is_disabled":true,"rental_uris":{"android":"levelo://app?vid=df2d3d6e-26dc-4145-b74c-60aa297416fb","ios":"levelo://app?vid=df2d3d6e-26dc-4145-b74c-60aa297416fb"},"vehicle_type_id":"4","last_reported":1760713848,"current_range_meters":12400,"station_id":"ce4bhi12rcd13ifvqfo0","pricing_plan_id":"cebpf4jnsgd1na2vs0mg"},{"bike_id":"33cc4d4e-4f50-4647-a77d-884e7615c0b4","system_id":"levelo_inurba_marseille","lat":43.29518,"lon":5.39403,"is_reserved":false,"is_disabled":false,"rental_uris":{"android":"levelo://app?vid=33cc4d4e-4f50-4647-a77d-884e7615c0b4","ios":"levelo://app?vid=33cc4d4e-4f50-4647-a77d-884e7615c0b4"},"vehicle_type_id":"4","last_reported":1760713848,"current_range_meters":12400,"station_id":"ce4bh292rcd13ifvqdf0","pricing_plan_id":"cebpf4jnsgd1na2vs0mg"},{"bike_id":"ab8dbe06-49f3-423b-99b1-2274be7ed343","system_id":"levelo_inurba_marseille","lat":43.29698,"lon":5.36605,"is_reserved":false,"is_disabled":false,"rental_uris":{"android":"levelo://app?vid=ab8dbe06-49f3-423b-99b1-2274be7ed343","ios":"levelo://app?vid=ab8dbe06-49f3-423b-99b1-2274be7ed343"},"vehicle_type_id":"4","last_reported":1760713848,"current_range_meters":12400,"station_id":"ce4bgn12rcd13ifvqbt0","pricing_plan_id":"cebpf4jnsgd1na2vs0mg"},{"bike_id":"dbf248bd-0259-4f5b-b82c-7a8ca2e00bc3","system_id":"levelo_inurba_marseille","lat":43.22929,"lon":5.35392,"is_reserved":false,"is_disabled":false,"rental_uris":{"android":"levelo://app?vid=dbf248bd-0259-4f5b-b82c-7a8ca2e00bc3","ios":"levelo://app?vid=dbf248bd-0259-4f5b-b82c-7a8ca2e00bc3"},"vehicle_type_id":"4","last_reported":1760713848,"current_range_meters":12400,"station_id":"cpo3532slgdg3j2ikp40","pricing_plan_id":"cebpf4jnsgd1na2vs0mg"},{"bike_id":"88231688-b0d4-4add-b9d3-ba4527ac8655","system_id":"levelo_inurba_marseille","lat":43.30292,"lon":5.37712,"is_reserved":false,"is_disabled":false,"rental_uris":{"android":"levelo://app?vid=88231688-b0d4-4add-b9d3-ba4527ac8655","ios":"levelo://app?vid=88231688-b0d4-4add-b9d3-ba4527ac8655"},"vehicle_type_id":"4","last_reported":1760713848,"current_range_meters":12800,"station_id":"ce4bguh2rcd13ifvqcj0","pricing_plan_id":"cebpf4jnsgd1na2vs0mg"},{"bike_id":"279b8dda-b441-4669-8a41-02c4ea8f5e93","system_id":"levelo_inurba_marseille","lat":43.30788,"lon":5.37642,"is_reserved":false,"is_disabled":false,"rental_uris":{"android":"levelo://app?vid=279b8dda-b441-4669-8a41-02c4ea8f5e93","ios":"levelo://app?vid=279b8dda-b441-4669-8a41-02c4ea8f5e93"},"vehicle_type_id":"4","last_reported":1760713848,"current_range_meters":12800,"station_id":"ce4bgv92rcd13ifvqcq0","pricing_plan_id":"cebpf4jnsgd1na2vs0mg"},{"bike_id":"efeed3e0-0d89-49c8-88ee-54fc372b67ef","system_id":"levelo_inurba_marseille","lat":43.27492,"lon":5.42459,"is_reserved":false,"is_disabled":true,"rental_uris":{"android":"levelo://app?vid=efeed3e0-0d89-49c8-88ee-54fc372b67ef","ios":"levelo://app?vid=efeed3e0-0d89-49c8-88ee-54fc372b67ef"},"vehicle_type_id":"4","last_reported":1760713848,"current_range_meters":12800,"station_id":"ce4bhn92rcd13ifvqgrg","pricing_plan_id":"cebpf4jnsgd1na2vs0mg"},{"bike_id":"94f60e57-4ea5-4506-9b0b-d49e351bbd01","system_id":"levelo_inurba_marseille","lat":43.293809,"lon":5.383324,"is_reserved":false,"is_disabled":false,"rental_uris":{"android":"levelo://app?vid=94f60e57-4ea5-4506-9b0b-d49e351bbd01","ios":"levelo://app?vid=94f60e57-4ea5-4506-9b0b-d49e351bbd01"},"vehicle_type_id":"4","last_reported":1760713848,"current_range_meters":12800,"station_id":"","pricing_plan_id":"cebpf4jnsgd1na2vs0mg"},{"bike_id":"51c19982-4c6b-4464-99c9-f8ea4d54131f","system_id":"levelo_inurba_marseille","lat":43.25334,"lon":5.42173,"is_reserved":false,"is_disabled":false,"rental_uris":{"android":"levelo://app?vid=51c19982-4c6b-4464-99c9-f8ea4d54131f","ios":"levelo://app?vid=51c19982-4c6b-4464-99c9-f8ea4d54131f"},"vehicle_type_id":"4","last_reported":1760713848,"current_range_meters":12800,"station_id":"st_d2m65c5bi1j21697t3ng","pricing_plan_id":"cebpf4jnsgd1na2vs0mg"},{"bike_id":"ea883585-d0e4-4bcb-922c-57b2a3efdeac","system_id":"levelo_inurba_marseille","lat":43.30585,"lon":5.36753,"is_reserved":false,"is_disabled":false,"rental_uris":{"android":"levelo://app?vid=ea883585-d0e4-4bcb-922c-57b2a3efdeac","ios":"levelo://app?vid=ea883585-d0e4-4bcb-922c-57b2a3efdeac"},"vehicle_type_id":"4","last_reported":1760713848,"current_range_meters":12800,"station_id":"","pricing_plan_id":"cebpf4jnsgd1na2vs0mg"},{"bike_id":"424f4935-98df-4229-88c5-d8f836201cec","system_id":"levelo_inurba_marseille","lat":43.23202,"lon":5.35579,"is_reserved":false,"is_disabled":false,"rental_uris":{"android":"levelo://app?vid=424f4935-98df-4229-88c5-d8f836201cec","ios":"levelo://app?vid=424f4935-98df-4229-88c5-d8f836201cec"},"vehicle_type_id":"4","last_reported":1760713848,"current_range_meters":12800,"station_id":"ce4bhu92rcd13ifvqi70","pricing_plan_id":"cebpf4jnsgd1na2vs0mg"},{"bike_id":"b09813b5-ec23-43ce-be99-9d04c50d14df","system_id":"levelo_inurba_marseille","lat":43.284255,"lon":5.349922,"is_reserved":false,"is_disabled":false,"rental_uris":{"android":"levelo://app?vid=b09813b5-ec23-43ce-be99-9d04c50d14df","ios":"levelo://app?vid=b09813b5-ec23-43ce-be99-9d04c50d14df"},"vehicle_type_id":"4","last_reported":1760713848,"current_range_meters":12800,"station_id":"ce4bhbh2rcd13ifvqepg","pricing_plan_id":"cebpf4jnsgd1na2vs0mg"},{"bike_id":"0f9c20ae-f80b-4bc4-a84d-e94070c41d3b","system_id":"levelo_inurba_marseille","lat":43.22567,"lon":5.41632,"is_reserved":false,"is_disabled":false,"rental_uris":{"android":"levelo://app?vid=0f9c20ae-f80b-4bc4-a84d-e94070c41d3b","ios":"levelo://app?vid=0f9c20ae-f80b-4bc4-a84d-e94070c41d3b"},"vehicle_type_id":"4","last_reported":1760713848,"current_range_meters":12800,"station_id":"st_d2o4gvlbi1j2169b742g","pricing_plan_id":"cebpf4jnsgd1na2vs0mg"},{"bike_id":"1bc27c7d-7b04-44b8-8479-acc667d3969d","system_id":"levelo_inurba_marseille","lat":43.28612,"lon":5.37069,"is_reserved":false,"is_disabled":false,"rental_uris":{"android":"levelo://app?vid=1bc27c7d-7b04-44b8-8479-acc667d3969d","ios":"levelo://app?vid=1bc27c7d-7b04-44b8-8479-acc667d3969d"},"vehicle_type_id":"4","last_reported":1760713848,"current_range_meters":12800,"station_id":"ce4bht12rcd13ifvqi60","pricing_plan_id":"cebpf4jnsgd1na2vs0mg"},{"bike_id":"59ee4d43-eb61-4aed-a406-b083fa9d27d8","system_id":"levelo_inurba_marseille","lat":43.31068,"lon":5.38356,"is_reserved":false,"is_disabled":true,"rental_uris":{"android":"levelo://app?vid=59ee4d43-eb61-4aed-a406-b083fa9d27d8","ios":"levelo://app?vid=59ee4d43-eb61-4aed-a406-b083fa9d27d8"},"vehicle_type_id":"4","last_reported":1760713848,"current_range_meters":12800,"station_id":"ce4bgv92rcd13ifvqcr0","pricing_plan_id":"cebpf4jnsgd1na2vs0mg"},{"bike_id":"c4c8e762-8a26-4257-9d60-d747eb2d8508","system_id":"levelo_inurba_marseille","lat":43.33172,"lon":5.35524,"is_reserved":false,"is_disabled":false,"rental_uris":{"android":"levelo://app?vid=c4c8e762-8a26-4257-9d60-d747eb2d8508","ios":"levelo://app?vid=c4c8e762-8a26-4257-9d60-d747eb2d8508"},"vehicle_type_id":"4","last_reported":1760713848,"current_range_meters":12800,"station_id":"","pricing_plan_id":"cebpf4jnsgd1na2vs0mg"},{"bike_id":"ba2479bd-5a5a-46c2-83c3-00588f4cf74a","system_id":"levelo_inurba_marseille","lat":43.29787,"lon":5.36496,"is_reserved":false,"is_disabled":false,"rental_uris":{"android":"levelo://app?vid=ba2479bd-5a5a-46c2-83c3-00588f4cf74a","ios":"levelo://app?vid=ba2479bd-5a5a-46c2-83c3-00588f4cf74a"},"vehicle_type_id":"4","last_reported":1760713848,"current_range_meters":13600,"station_id":"","pricing_plan_id":"cebpf4jnsgd1na2vs0mg"},{"bike_id":"d8c15876-8b54-4f69-b130-9f8e165b5bf1","system_id":"levelo_inurba_marseille","lat":43.26695,"lon":5.41212,"is_reserved":false,"is_disabled":false,"rental_uris":{"android":"levelo://app?vid=d8c15876-8b54-4f69-b130-9f8e165b5bf1","ios":"levelo://app?vid=d8c15876-8b54-4f69-b130-9f8e165b5bf1"},"vehicle_type_id":"4","last_reported":1760713848,"current_range_meters":13600,"station_id":"","pricing_plan_id":"cebpf4jnsgd1na2vs0mg"},{"bike_id":"2f427ffa-023f-4f18-948d-448a449d3df0","system_id":"levelo_inurba_marseille","lat":43.241711,"lon":5.364028,"is_reserved":false,"is_disabled":false,"rental_uris":{"android":"levelo://app?vid=2f427ffa-023f-4f18-948d-448a449d3df0","ios":"levelo://app?vid=2f427ffa-023f-4f18-948d-448a449d3df0"},"vehicle_type_id":"4","last_reported":1760713848,"current_range_meters":13600,"station_id":"cpo36qri1sfpv3e86is0","pricing_plan_id":"cebpf4jnsgd1na2vs0mg"},{"bike_id":"24e57c5e-2644-4949-b0a6-8c8176228978","system_id":"levelo_inurba_marseille","lat":43.27811,"lon":5.40727,"is_reserved":false,"is_disabled":false,"rental_uris":{"android":"levelo://app?vid=24e57c5e-2644-4949-b0a6-8c8176228978","ios":"levelo://app?vid=24e57c5e-2644-4949-b0a6-8c8176228978"},"vehicle_type_id":"4","last_reported":1760713848,"current_range_meters":13600,"station_id":"ce4bhnh2rcd13ifvqgtg","pricing_plan_id":"cebpf4jnsgd1na2vs0mg"},{"bike_id":"53e45f66-6c88-47d1-a739-fad578ecef73","system_id":"levelo_inurba_marseille","lat":43.237849,"lon":5.366283,"is_reserved":false,"is_disabled":false,"rental_uris":{"android":"levelo://app?vid=53e45f66-6c88-47d1-a739-fad578ecef73","ios":"levelo://app?vid=53e45f66-6c88-47d1-a739-fad578ecef73"},"vehicle_type_id":"4","last_reported":1760713848,"current_range_meters":13600,"station_id":"st_d3nk18o9ro0c73en2l3g","pricing_plan_id":"cebpf4jnsgd1na2vs0mg"},{"bike_id":"a618d75f-c056-4d7b-8ccd-3fcd16a7d304","system_id":"levelo_inurba_marseille","lat":43.34146,"lon":5.409077,"is_reserved":false,"is_disabled":false,"rental_uris":{"android":"levelo://app?vid=a618d75f-c056-4d7b-8ccd-3fcd16a7d304","ios":"levelo://app?vid=a618d75f-c056-4d7b-8ccd-3fcd16a7d304"},"vehicle_type_id":"4","last_reported":1760713848,"current_range_meters":13600,"station_id":"cki0cbj6b192h4jlfktg","pricing_plan_id":"cebpf4jnsgd1na2vs0mg"},{"bike_id":"ae35a2da-3f17-464a-a391-e172df1dd6ca","system_id":"levelo_inurba_marseille","lat":43.24626,"lon":5.43158,"is_reserved":false,"is_disabled":false,"rental_uris":{"android":"levelo://app?vid=ae35a2da-3f17-464a-a391-e172df1dd6ca","ios":"levelo://app?vid=ae35a2da-3f17-464a-a391-e172df1dd6ca"},"vehicle_type_id":"4","last_reported":1760713848,"current_range_meters":14000,"station_id":"st_d2m6c4gdas8pm72e190g","pricing_plan_id":"cebpf4jnsgd1na2vs0mg"},{"bike_id":"c25a8a37-6395-4161-a858-99a577cc3e64","system_id":"levelo_inurba_marseille","lat":43.2481,"lon":5.37452,"is_reserved":false,"is_disabled":false,"rental_uris":{"android":"levelo://app?vid=c25a8a37-6395-4161-a858-99a577cc3e64","ios":"levelo://app?vid=c25a8a37-6395-4161-a858-99a577cc3e64"},"vehicle_type_id":"4","last_reported":1760713848,"current_range_meters":14000,"station_id":"ce4bhgh2rcd13ifvqfb0","pricing_plan_id":"cebpf4jnsgd1na2vs0mg"},{"bike_id":"91fbb285-47d1-4038-b5b2-d9fc815123a3","system_id":"levelo_inurba_marseille","lat":43.25817,"lon":5.39438,"is_reserved":false,"is_disabled":false,"rental_uris":{"android":"levelo://app?vid=91fbb285-47d1-4038-b5b2-d9fc815123a3","ios":"levelo://app?vid=91fbb285-47d1-4038-b5b2-d9fc815123a3"},"vehicle_type_id":"4","last_reported":1760713848,"current_range_meters":14000,"station_id":"ce4bhip2rcd13ifvqft0","pricing_plan_id":"cebpf4jnsgd1na2vs0mg"},{"bike_id":"c5e45447-2956-450f-bd7e-88aaf308c04d","system_id":"levelo_inurba_marseille","lat":43.28991,"lon":5.36537,"is_reserved":false,"is_disabled":false,"rental_uris":{"android":"levelo://app?vid=c5e45447-2956-450f-bd7e-88aaf308c04d","ios":"levelo://app?vid=c5e45447-2956-450f-bd7e-88aaf308c04d"},"vehicle_type_id":"4","last_reported":1760713848,"current_range_meters":14000,"station_id":"","pricing_plan_id":"cebpf4jnsgd1na2vs0mg"},{"bike_id":"21ac3074-6f14-45b0-b527-ff480a709af8","system_id":"levelo_inurba_marseille","lat":43.31687,"lon":5.40477,"is_reserved":false,"is_disabled":false,"rental_uris":{"android":"levelo://app?vid=21ac3074-6f14-45b0-b527-ff480a709af8","ios":"levelo://app?vid=21ac3074-6f14-45b0-b527-ff480a709af8"},"vehicle_type_id":"4","last_reported":1760713848,"current_range_meters":14000,"station_id":"ce4bh012rcd13ifvqd00","pricing_plan_id":"cebpf4jnsgd1na2vs0mg"},{"bike_id":"2eaacd70-53ed-43b4-a6ff-db966d5ef41a","system_id":"levelo_inurba_marseille","lat":43.27567,"lon":5.38423,"is_reserved":false,"is_disabled":false,"rental_uris":{"android":"levelo://app?vid=2eaacd70-53ed-43b4-a6ff-db966d5ef41a","ios":"levelo://app?vid=2eaacd70-53ed-43b4-a6ff-db966d5ef41a"},"vehicle_type_id":"4","last_reported":1760713848,"current_range_meters":14000,"station_id":"ce4bhh92rcd13ifvqfi0","pricing_plan_id":"cebpf4jnsgd1na2vs0mg"},{"bike_id":"b3de5f35-da94-4965-b940-8cd14144ea0b","system_id":"levelo_inurba_marseille","lat":43.285314,"lon":5.440738,"is_reserved":false,"is_disabled":false,"rental_uris":{"android":"levelo://app?vid=b3de5f35-da94-4965-b940-8cd14144ea0b","ios":"levelo://app?vid=b3de5f35-da94-4965-b940-8cd14144ea0b"},"vehicle_type_id":"4","last_reported":1760713848,"current_range_meters":14000,"station_id":"ce4bgkh2rcd13ifvqbk0","pricing_plan_id":"cebpf4jnsgd1na2vs0mg"},{"bike_id":"64bd2185-9efd-4803-9d20-2dc8cfe26152","system_id":"levelo_inurba_marseille","lat":43.2572,"lon":5.411,"is_reserved":false,"is_disabled":false,"rental_uris":{"android":"levelo://app?vid=64bd2185-9efd-4803-9d20-2dc8cfe26152","ios":"levelo://app?vid=64bd2185-9efd-4803-9d20-2dc8cfe26152"},"vehicle_type_id":"4","last_reported":1760713848,"current_range_meters":14000,"station_id":"ce4bhkp2rcd13ifvqgd0","pricing_plan_id":"cebpf4jnsgd1na2vs0mg"},{"bike_id":"7604a005-ba93-4915-b2f2-c3f85bedae78","system_id":"levelo_inurba_marseille","lat":43.29937,"lon":5.36558,"is_reserved":false,"is_disabled":false,"rental_uris":{"android":"levelo://app?vid=7604a005-ba93-4915-b2f2-c3f85bedae78","ios":"levelo://app?vid=7604a005-ba93-4915-b2f2-c3f85bedae78"},"vehicle_type_id":"4","last_reported":1760713848,"current_range_meters":14400,"station_id":"ce4bgm92rcd13ifvqbr0","pricing_plan_id":"cebpf4jnsgd1na2vs0mg"},{"bike_id":"22bbb75e-8997-4c08-bb67-f135e75fb681","system_id":"levelo_inurba_marseille","lat":43.29232,"lon":5.36072,"is_reserved":false,"is_disabled":false,"rental_uris":{"android":"levelo://app?vid=22bbb75e-8997-4c08-bb67-f135e75fb681","ios":"levelo://app?vid=22bbb75e-8997-4c08-bb67-f135e75fb681"},"vehicle_type_id":"4","last_reported":1760713848,"current_range_meters":14400,"station_id":"ce4bhbh2rcd13ifvqeqg","pricing_plan_id":"cebpf4jnsgd1na2vs0mg"},{"bike_id":"e7a0de45-e44b-47bf-aa95-71faaf613e41","system_id":"levelo_inurba_marseille","lat":43.297,"lon":5.36596,"is_reserved":false,"is_disabled":false,"rental_uris":{"android":"levelo://app?vid=e7a0de45-e44b-47bf-aa95-71faaf613e41","ios":"levelo://app?vid=e7a0de45-e44b-47bf-aa95-71faaf613e41"},"vehicle_type_id":"4","last_reported":1760713848,"current_range_meters":14400,"station_id":"ce4bgn12rcd13ifvqbt0","pricing_plan_id":"cebpf4jnsgd1na2vs0mg"},{"bike_id":"89c41095-1749-4d06-b8a0-ed875d72823e","system_id":"levelo_inurba_marseille","lat":43.321099,"lon":5.367701,"is_reserved":false,"is_disabled":false,"rental_uris":{"android":"levelo://app?vid=89c41095-1749-4d06-b8a0-ed875d72823e","ios":"levelo://app?vid=89c41095-1749-4d06-b8a0-ed875d72823e"},"vehicle_type_id":"4","last_reported":1760713848,"current_range_meters":14800,"station_id":"ce4bhrh2rcd13ifvqhug","pricing_plan_id":"cebpf4jnsgd1na2vs0mg"},{"bike_id":"1ea58d06-2bc8-43e6-9700-ceffc676d32c","system_id":"levelo_inurba_marseille","lat":43.217213,"lon":5.346152,"is_reserved":false,"is_disabled":true,"rental_uris":{"android":"levelo://app?vid=1ea58d06-2bc8-43e6-9700-ceffc676d32c","ios":"levelo://app?vid=1ea58d06-2bc8-43e6-9700-ceffc676d32c"},"vehicle_type_id":"4","last_reported":1760713848,"current_range_meters":14800,"station_id":"cpo36qri1sfpv3e86is0","pricing_plan_id":"cebpf4jnsgd1na2vs0mg"},{"bike_id":"be1c4bc2-ea26-4165-ae2c-40ac4665f215","system_id":"levelo_inurba_marseille","lat":43.295025,"lon":5.433223,"is_reserved":false,"is_disabled":true,"rental_uris":{"android":"levelo://app?vid=be1c4bc2-ea26-4165-ae2c-40ac4665f215","ios":"levelo://app?vid=be1c4bc2-ea26-4165-ae2c-40ac4665f215"},"vehicle_type_id":"4","last_reported":1760713848,"current_range_meters":14800,"station_id":"st_d3j5ugp08ojc73fj9d10","pricing_plan_id":"cebpf4jnsgd1na2vs0mg"},{"bike_id":"3719af8e-a63b-4819-98f6-8dc7999a623a","system_id":"levelo_inurba_marseille","lat":43.29259,"lon":5.383929,"is_reserved":false,"is_disabled":false,"rental_uris":{"android":"levelo://app?vid=3719af8e-a63b-4819-98f6-8dc7999a623a","ios":"levelo://app?vid=3719af8e-a63b-4819-98f6-8dc7999a623a"},"vehicle_type_id":"4","last_reported":1760713848,"current_range_meters":14800,"station_id":"ce4bgup2rcd13ifvqcn0","pricing_plan_id":"cebpf4jnsgd1na2vs0mg"},{"bike_id":"e694ceff-a8f6-49f3-8ded-1ff8bca8325b","system_id":"levelo_inurba_marseille","lat":43.288582,"lon":5.358625,"is_reserved":false,"is_disabled":true,"rental_uris":{"android":"levelo://app?vid=e694ceff-a8f6-49f3-8ded-1ff8bca8325b","ios":"levelo://app?vid=e694ceff-a8f6-49f3-8ded-1ff8bca8325b"},"vehicle_type_id":"4","last_reported":1760713848,"current_range_meters":15200,"station_id":"ce4bhb12rcd13ifvqem0","pricing_plan_id":"cebpf4jnsgd1na2vs0mg"},{"bike_id":"75b02a51-1325-435e-9661-29bb451a696a","system_id":"levelo_inurba_marseille","lat":43.31448,"lon":5.38488,"is_reserved":false,"is_disabled":false,"rental_uris":{"android":"levelo://app?vid=75b02a51-1325-435e-9661-29bb451a696a","ios":"levelo://app?vid=75b02a51-1325-435e-9661-29bb451a696a"},"vehicle_type_id":"4","last_reported":1760713848,"current_range_meters":15200,"station_id":"","pricing_plan_id":"cebpf4jnsgd1na2vs0mg"},{"bike_id":"4c435c82-0bc4-4369-80cf-ae9046a83658","system_id":"levelo_inurba_marseille","lat":43.241663,"lon":5.363983,"is_reserved":false,"is_disabled":false,"rental_uris":{"android":"levelo://app?vid=4c435c82-0bc4-4369-80cf-ae9046a83658","ios":"levelo://app?vid=4c435c82-0bc4-4369-80cf-ae9046a83658"},"vehicle_type_id":"4","last_reported":1760713848,"current_range_meters":15200,"station_id":"cpo36qri1sfpv3e86is0","pricing_plan_id":"cebpf4jnsgd1na2vs0mg"},{"bike_id":"309f0d69-e779-41a5-a0dc-9aaec254625d","system_id":"levelo_inurba_marseille","lat":43.25,"lon":5.38925,"is_reserved":false,"is_disabled":false,"rental_uris":{"android":"levelo://app?vid=309f0d69-e779-41a5-a0dc-9aaec254625d","ios":"levelo://app?vid=309f0d69-e779-41a5-a0dc-9aaec254625d"},"vehicle_type_id":"4","last_reported":1760713848,"current_range_meters":15200,"station_id":"ce4bhgp2rcd13ifvqfd0","pricing_plan_id":"cebpf4jnsgd1na2vs0mg"},{"bike_id":"b97b8dd3-ec5f-4c29-94c8-345abca3a938","system_id":"levelo_inurba_marseille","lat":43.23769,"lon":5.36621,"is_reserved":false,"is_disabled":false,"rental_uris":{"android":"levelo://app?vid=b97b8dd3-ec5f-4c29-94c8-345abca3a938","ios":"levelo://app?vid=b97b8dd3-ec5f-4c29-94c8-345abca3a938"},"vehicle_type_id":"4","last_reported":1760713848,"current_range_meters":16000,"station_id":"st_d3nk18o9ro0c73en2l3g","pricing_plan_id":"cebpf4jnsgd1na2vs0mg"},{"bike_id":"924ac669-be8b-47aa-9a8e-6f22baf815eb","system_id":"levelo_inurba_marseille","lat":43.3377,"lon":5.3748,"is_reserved":false,"is_disabled":false,"rental_uris":{"android":"levelo://app?vid=924ac669-be8b-47aa-9a8e-6f22baf815eb","ios":"levelo://app?vid=924ac669-be8b-47aa-9a8e-6f22baf815eb"},"vehicle_type_id":"4","last_reported":1760713848,"current_range_meters":16000,"station_id":"","pricing_plan_id":"cebpf4jnsgd1na2vs0mg"},{"bike_id":"6eb2acec-d68e-4c9a-ad73-90879ab30bc2","system_id":"levelo_inurba_marseille","lat":43.31503,"lon":5.374,"is_reserved":false,"is_disabled":false,"rental_uris":{"android":"levelo://app?vid=6eb2acec-d68e-4c9a-ad73-90879ab30bc2","ios":"levelo://app?vid=6eb2acec-d68e-4c9a-ad73-90879ab30bc2"},"vehicle_type_id":"4","last_reported":1760713848,"current_range_meters":16000,"station_id":"","pricing_plan_id":"cebpf4jnsgd1na2vs0mg"},{"bike_id":"24486e3b-8d60-4a7d-8e8a-43e75f3283cd","system_id":"levelo_inurba_marseille","lat":43.27373,"lon":5.36262,"is_reserved":false,"is_disabled":false,"rental_uris":{"android":"levelo://app?vid=24486e3b-8d60-4a7d-8e8a-43e75f3283cd","ios":"levelo://app?vid=24486e3b-8d60-4a7d-8e8a-43e75f3283cd"},"vehicle_type_id":"4","last_reported":1760713848,"current_range_meters":16000,"station_id":"ce4bhbh2rcd13ifvqeo0","pricing_plan_id":"cebpf4jnsgd1na2vs0mg"},{"bike_id":"d7788b83-85d9-44ce-b820-cb295e52564b","system_id":"levelo_inurba_marseille","lat":43.25499,"lon":5.37661,"is_reserved":false,"is_disabled":false,"rental_uris":{"android":"levelo://app?vid=d7788b83-85d9-44ce-b820-cb295e52564b","ios":"levelo://app?vid=d7788b83-85d9-44ce-b820-cb295e52564b"},"vehicle_type_id":"4","last_reported":1760713848,"current_range_meters":16000,"station_id":"ce4bhh12rcd13ifvqff0","pricing_plan_id":"cebpf4jnsgd1na2vs0mg"},{"bike_id":"15cf6035-9bcc-4e36-9f37-ebe98c1ee24c","system_id":"levelo_inurba_marseille","lat":43.28937,"lon":5.39621,"is_reserved":false,"is_disabled":false,"rental_uris":{"android":"levelo://app?vid=15cf6035-9bcc-4e36-9f37-ebe98c1ee24c","ios":"levelo://app?vid=15cf6035-9bcc-4e36-9f37-ebe98c1ee24c"},"vehicle_type_id":"4","last_reported":1760713848,"current_range_meters":16000,"station_id":"ce4bh3h2rcd13ifvqdn0","pricing_plan_id":"cebpf4jnsgd1na2vs0mg"},{"bike_id":"78292a01-23c6-4d37-8fa6-44dc02816789","system_id":"levelo_inurba_marseille","lat":43.29198,"lon":5.35805,"is_reserved":false,"is_disabled":false,"rental_uris":{"android":"levelo://app?vid=78292a01-23c6-4d37-8fa6-44dc02816789","ios":"levelo://app?vid=78292a01-23c6-4d37-8fa6-44dc02816789"},"vehicle_type_id":"4","last_reported":1760713848,"current_range_meters":16000,"station_id":"ce4bhb12rcd13ifvqel0","pricing_plan_id":"cebpf4jnsgd1na2vs0mg"},{"bike_id":"639ac8e2-3a75-4757-b7de-11fb3cac54a7","system_id":"levelo_inurba_marseille","lat":43.3236,"lon":5.36754,"is_reserved":false,"is_disabled":false,"rental_uris":{"android":"levelo://app?vid=639ac8e2-3a75-4757-b7de-11fb3cac54a7","ios":"levelo://app?vid=639ac8e2-3a75-4757-b7de-11fb3cac54a7"},"vehicle_type_id":"4","last_reported":1760713848,"current_range_meters":16000,"station_id":"ce4bhsh2rcd13ifvqi2g","pricing_plan_id":"cebpf4jnsgd1na2vs0mg"},{"bike_id":"e84bce0b-ced3-4f34-b6ea-9d63a5640007","system_id":"levelo_inurba_marseille","lat":43.279775,"lon":5.387441,"is_reserved":false,"is_disabled":false,"rental_uris":{"android":"levelo://app?vid=e84bce0b-ced3-4f34-b6ea-9d63a5640007","ios":"levelo://app?vid=e84bce0b-ced3-4f34-b6ea-9d63a5640007"},"vehicle_type_id":"4","last_reported":1760713848,"current_range_meters":16000,"station_id":"ce4bhg12rcd13ifvqf80","pricing_plan_id":"cebpf4jnsgd1na2vs0mg"},{"bike_id":"0b170382-a38a-48fc-b060-b901de311f1a","system_id":"levelo_inurba_marseille","lat":43.33047,"lon":5.39024,"is_reserved":false,"is_disabled":false,"rental_uris":{"android":"levelo://app?vid=0b170382-a38a-48fc-b060-b901de311f1a","ios":"levelo://app?vid=0b170382-a38a-48fc-b060-b901de311f1a"},"vehicle_type_id":"4","last_reported":1760713848,"current_range_meters":16400,"station_id":"ce4bhr92rcd13ifvqhrg","pricing_plan_id":"cebpf4jnsgd1na2vs0mg"},{"bike_id":"6a983e58-7272-4a33-b014-3c63c7ab0348","system_id":"levelo_inurba_marseille","lat":43.28443,"lon":5.380633,"is_reserved":false,"is_disabled":false,"rental_uris":{"android":"levelo://app?vid=6a983e58-7272-4a33-b014-3c63c7ab0348","ios":"levelo://app?vid=6a983e58-7272-4a33-b014-3c63c7ab0348"},"vehicle_type_id":"4","last_reported":1760713848,"current_range_meters":16400,"station_id":"ce4bh412rcd13ifvqdr0","pricing_plan_id":"cebpf4jnsgd1na2vs0mg"},{"bike_id":"25ac284f-89da-4dc0-992e-755329000866","system_id":"levelo_inurba_marseille","lat":43.24173,"lon":5.36388,"is_reserved":false,"is_disabled":false,"rental_uris":{"android":"levelo://app?vid=25ac284f-89da-4dc0-992e-755329000866","ios":"levelo://app?vid=25ac284f-89da-4dc0-992e-755329000866"},"vehicle_type_id":"4","last_reported":1760713848,"current_range_meters":16400,"station_id":"cpo36qri1sfpv3e86is0","pricing_plan_id":"cebpf4jnsgd1na2vs0mg"},{"bike_id":"8aa3ec83-557d-4118-b42f-7e9ff74932f2","system_id":"levelo_inurba_marseille","lat":43.241719,"lon":5.363933,"is_reserved":false,"is_disabled":false,"rental_uris":{"android":"levelo://app?vid=8aa3ec83-557d-4118-b42f-7e9ff74932f2","ios":"levelo://app?vid=8aa3ec83-557d-4118-b42f-7e9ff74932f2"},"vehicle_type_id":"4","last_reported":1760713848,"current_range_meters":16400,"station_id":"cpo36qri1sfpv3e86is0","pricing_plan_id":"cebpf4jnsgd1na2vs0mg"},{"bike_id":"edcb744a-1021-4493-86cd-94aad7a8dbc8","system_id":"levelo_inurba_marseille","lat":43.30495,"lon":5.37022,"is_reserved":false,"is_disabled":false,"rental_uris":{"android":"levelo://app?vid=edcb744a-1021-4493-86cd-94aad7a8dbc8","ios":"levelo://app?vid=edcb744a-1021-4493-86cd-94aad7a8dbc8"},"vehicle_type_id":"4","last_reported":1760713848,"current_range_meters":16400,"station_id":"","pricing_plan_id":"cebpf4jnsgd1na2vs0mg"},{"bike_id":"2dd5894f-7fc4-4080-a5b6-e128a262168e","system_id":"levelo_inurba_marseille","lat":43.30299,"lon":5.37706,"is_reserved":false,"is_disabled":false,"rental_uris":{"android":"levelo://app?vid=2dd5894f-7fc4-4080-a5b6-e128a262168e","ios":"levelo://app?vid=2dd5894f-7fc4-4080-a5b6-e128a262168e"},"vehicle_type_id":"4","last_reported":1760713848,"current_range_meters":16800,"station_id":"ce4bguh2rcd13ifvqcj0","pricing_plan_id":"cebpf4jnsgd1na2vs0mg"},{"bike_id":"5afedf2c-9f26-4bb9-8210-0ff4d77a4b7f","system_id":"levelo_inurba_marseille","lat":43.28411,"lon":5.34993,"is_reserved":false,"is_disabled":false,"rental_uris":{"android":"levelo://app?vid=5afedf2c-9f26-4bb9-8210-0ff4d77a4b7f","ios":"levelo://app?vid=5afedf2c-9f26-4bb9-8210-0ff4d77a4b7f"},"vehicle_type_id":"4","last_reported":1760713848,"current_range_meters":16800,"station_id":"ce4bhbh2rcd13ifvqepg","pricing_plan_id":"cebpf4jnsgd1na2vs0mg"},{"bike_id":"bc890d75-0c6c-4d12-87cb-a475cc9ff37c","system_id":"levelo_inurba_marseille","lat":43.29268,"lon":5.36846,"is_reserved":false,"is_disabled":false,"rental_uris":{"android":"levelo://app?vid=bc890d75-0c6c-4d12-87cb-a475cc9ff37c","ios":"levelo://app?vid=bc890d75-0c6c-4d12-87cb-a475cc9ff37c"},"vehicle_type_id":"4","last_reported":1760713848,"current_range_meters":16800,"station_id":"ce4bhbp2rcd13ifvqesg","pricing_plan_id":"cebpf4jnsgd1na2vs0mg"},{"bike_id":"2430e407-1e37-4f59-a4bf-94d830d91478","system_id":"levelo_inurba_marseille","lat":43.27939,"lon":5.41045,"is_reserved":false,"is_disabled":false,"rental_uris":{"android":"levelo://app?vid=2430e407-1e37-4f59-a4bf-94d830d91478","ios":"levelo://app?vid=2430e407-1e37-4f59-a4bf-94d830d91478"},"vehicle_type_id":"4","last_reported":1760713848,"current_range_meters":16800,"station_id":"ce4bhnp2rcd13ifvqh0g","pricing_plan_id":"cebpf4jnsgd1na2vs0mg"},{"bike_id":"8c30526d-4d62-49e0-92a1-2ed039e24496","system_id":"levelo_inurba_marseille","lat":43.28706,"lon":5.38418,"is_reserved":false,"is_disabled":false,"rental_uris":{"android":"levelo://app?vid=8c30526d-4d62-49e0-92a1-2ed039e24496","ios":"levelo://app?vid=8c30526d-4d62-49e0-92a1-2ed039e24496"},"vehicle_type_id":"4","last_reported":1760713848,"current_range_meters":16800,"station_id":"","pricing_plan_id":"cebpf4jnsgd1na2vs0mg"},{"bike_id":"19b48d97-31f5-419e-a3ec-6f3c529e3c71","system_id":"levelo_inurba_marseille","lat":43.32101,"lon":5.36791,"is_reserved":false,"is_disabled":false,"rental_uris":{"android":"levelo://app?vid=19b48d97-31f5-419e-a3ec-6f3c529e3c71","ios":"levelo://app?vid=19b48d97-31f5-419e-a3ec-6f3c529e3c71"},"vehicle_type_id":"4","last_reported":1760713848,"current_range_meters":16800,"station_id":"ce4bhrh2rcd13ifvqhug","pricing_plan_id":"cebpf4jnsgd1na2vs0mg"},{"bike_id":"6e142c00-a2b0-47ac-b226-78b86fd51d90","system_id":"levelo_inurba_marseille","lat":43.27995,"lon":5.41655,"is_reserved":false,"is_disabled":false,"rental_uris":{"android":"levelo://app?vid=6e142c00-a2b0-47ac-b226-78b86fd51d90","ios":"levelo://app?vid=6e142c00-a2b0-47ac-b226-78b86fd51d90"},"vehicle_type_id":"4","last_reported":1760713848,"current_range_meters":16800,"station_id":"ce4bho12rcd13ifvqh1g","pricing_plan_id":"cebpf4jnsgd1na2vs0mg"},{"bike_id":"bb825ebc-7dce-4bf8-9d66-31c995ab9cde","system_id":"levelo_inurba_marseille","lat":43.29778,"lon":5.37104,"is_reserved":false,"is_disabled":false,"rental_uris":{"android":"levelo://app?vid=bb825ebc-7dce-4bf8-9d66-31c995ab9cde","ios":"levelo://app?vid=bb825ebc-7dce-4bf8-9d66-31c995ab9cde"},"vehicle_type_id":"4","last_reported":1760713848,"current_range_meters":16800,"station_id":"ce4bgop2rcd13ifvqc1g","pricing_plan_id":"cebpf4jnsgd1na2vs0mg"},{"bike_id":"ef00da20-61dc-4478-9b27-1b33fc9b3932","system_id":"levelo_inurba_marseille","lat":43.29703,"lon":5.36615,"is_reserved":false,"is_disabled":false,"rental_uris":{"android":"levelo://app?vid=ef00da20-61dc-4478-9b27-1b33fc9b3932","ios":"levelo://app?vid=ef00da20-61dc-4478-9b27-1b33fc9b3932"},"vehicle_type_id":"4","last_reported":1760713848,"current_range_meters":17200,"station_id":"ce4bgn12rcd13ifvqbt0","pricing_plan_id":"cebpf4jnsgd1na2vs0mg"},{"bike_id":"62d33efe-b400-4c0d-a4cf-ca0deee3e42d","system_id":"levelo_inurba_marseille","lat":43.29534,"lon":5.37501,"is_reserved":false,"is_disabled":false,"rental_uris":{"android":"levelo://app?vid=62d33efe-b400-4c0d-a4cf-ca0deee3e42d","ios":"levelo://app?vid=62d33efe-b400-4c0d-a4cf-ca0deee3e42d"},"vehicle_type_id":"4","last_reported":1760713848,"current_range_meters":17200,"station_id":"ce4bgkp2rcd13ifvqbmg","pricing_plan_id":"cebpf4jnsgd1na2vs0mg"},{"bike_id":"294f995a-e5b4-4ef7-a77c-c6c45e77c930","system_id":"levelo_inurba_marseille","lat":43.24999,"lon":5.38917,"is_reserved":false,"is_disabled":false,"rental_uris":{"android":"levelo://app?vid=294f995a-e5b4-4ef7-a77c-c6c45e77c930","ios":"levelo://app?vid=294f995a-e5b4-4ef7-a77c-c6c45e77c930"},"vehicle_type_id":"4","last_reported":1760713848,"current_range_meters":17200,"station_id":"ce4bhgp2rcd13ifvqfd0","pricing_plan_id":"cebpf4jnsgd1na2vs0mg"},{"bike_id":"fba659b9-e721-4e1f-9e08-55944231a317","system_id":"levelo_inurba_marseille","lat":43.27808,"lon":5.40719,"is_reserved":false,"is_disabled":false,"rental_uris":{"android":"levelo://app?vid=fba659b9-e721-4e1f-9e08-55944231a317","ios":"levelo://app?vid=fba659b9-e721-4e1f-9e08-55944231a317"},"vehicle_type_id":"4","last_reported":1760713848,"current_range_meters":17200,"station_id":"ce4bhnh2rcd13ifvqgtg","pricing_plan_id":"cebpf4jnsgd1na2vs0mg"},{"bike_id":"38e9bc50-eb8b-417a-91d9-58a816766350","system_id":"levelo_inurba_marseille","lat":43.28607,"lon":5.35104,"is_reserved":false,"is_disabled":false,"rental_uris":{"android":"levelo://app?vid=38e9bc50-eb8b-417a-91d9-58a816766350","ios":"levelo://app?vid=38e9bc50-eb8b-417a-91d9-58a816766350"},"vehicle_type_id":"4","last_reported":1760713848,"current_range_meters":17200,"station_id":"ce4bhch2rcd13ifvqeug","pricing_plan_id":"cebpf4jnsgd1na2vs0mg"},{"bike_id":"b3f02386-ff16-4d2a-8471-7d112043a4ca","system_id":"levelo_inurba_marseille","lat":43.286112,"lon":5.351045,"is_reserved":false,"is_disabled":false,"rental_uris":{"android":"levelo://app?vid=b3f02386-ff16-4d2a-8471-7d112043a4ca","ios":"levelo://app?vid=b3f02386-ff16-4d2a-8471-7d112043a4ca"},"vehicle_type_id":"4","last_reported":1760713848,"current_range_meters":17200,"station_id":"ce4bhch2rcd13ifvqeug","pricing_plan_id":"cebpf4jnsgd1na2vs0mg"},{"bike_id":"0a414463-fe1a-4833-8a11-178a3c2c879a","system_id":"levelo_inurba_marseille","lat":43.29852,"lon":5.37897,"is_reserved":false,"is_disabled":false,"rental_uris":{"android":"levelo://app?vid=0a414463-fe1a-4833-8a11-178a3c2c879a","ios":"levelo://app?vid=0a414463-fe1a-4833-8a11-178a3c2c879a"},"vehicle_type_id":"4","last_reported":1760713848,"current_range_meters":17600,"station_id":"","pricing_plan_id":"cebpf4jnsgd1na2vs0mg"},{"bike_id":"bc65f254-26b4-4000-8d42-bea768d6da1b","system_id":"levelo_inurba_marseille","lat":43.27151,"lon":5.40995,"is_reserved":false,"is_disabled":false,"rental_uris":{"android":"levelo://app?vid=bc65f254-26b4-4000-8d42-bea768d6da1b","ios":"levelo://app?vid=bc65f254-26b4-4000-8d42-bea768d6da1b"},"vehicle_type_id":"4","last_reported":1760713848,"current_range_meters":17600,"station_id":"ce4bhl12rcd13ifvqgf0","pricing_plan_id":"cebpf4jnsgd1na2vs0mg"},{"bike_id":"38848033-07a2-4bef-b6c9-0b88c205cf3e","system_id":"levelo_inurba_marseille","lat":43.301351,"lon":5.39874,"is_reserved":false,"is_disabled":false,"rental_uris":{"android":"levelo://app?vid=38848033-07a2-4bef-b6c9-0b88c205cf3e","ios":"levelo://app?vid=38848033-07a2-4bef-b6c9-0b88c205cf3e"},"vehicle_type_id":"4","last_reported":1760713848,"current_range_meters":17600,"station_id":"","pricing_plan_id":"cebpf4jnsgd1na2vs0mg"},{"bike_id":"e748f118-a53b-44d3-9823-505047b7456a","system_id":"levelo_inurba_marseille","lat":43.23956,"lon":5.36639,"is_reserved":false,"is_disabled":false,"rental_uris":{"android":"levelo://app?vid=e748f118-a53b-44d3-9823-505047b7456a","ios":"levelo://app?vid=e748f118-a53b-44d3-9823-505047b7456a"},"vehicle_type_id":"4","last_reported":1760713848,"current_range_meters":17600,"station_id":"ce4bhi12rcd13ifvqfp0","pricing_plan_id":"cebpf4jnsgd1na2vs0mg"},{"bike_id":"ca47504d-ff59-4f0c-84b3-78212dd177b3","system_id":"levelo_inurba_marseille","lat":43.2846,"lon":5.35882,"is_reserved":false,"is_disabled":false,"rental_uris":{"android":"levelo://app?vid=ca47504d-ff59-4f0c-84b3-78212dd177b3","ios":"levelo://app?vid=ca47504d-ff59-4f0c-84b3-78212dd177b3"},"vehicle_type_id":"4","last_reported":1760713848,"current_range_meters":17600,"station_id":"ce4bhah2rcd13ifvqei0","pricing_plan_id":"cebpf4jnsgd1na2vs0mg"},{"bike_id":"862ce872-f902-47f5-bbb1-1ac3f6d12a86","system_id":"levelo_inurba_marseille","lat":43.2668,"lon":5.38283,"is_reserved":false,"is_disabled":false,"rental_uris":{"android":"levelo://app?vid=862ce872-f902-47f5-bbb1-1ac3f6d12a86","ios":"levelo://app?vid=862ce872-f902-47f5-bbb1-1ac3f6d12a86"},"vehicle_type_id":"4","last_reported":1760713848,"current_range_meters":17600,"station_id":"ce4bhg92rcd13ifvqf90","pricing_plan_id":"cebpf4jnsgd1na2vs0mg"},{"bike_id":"6f274092-c836-4709-8bf1-a7cdbeb6f733","system_id":"levelo_inurba_marseille","lat":43.33761,"lon":5.37473,"is_reserved":false,"is_disabled":false,"rental_uris":{"android":"levelo://app?vid=6f274092-c836-4709-8bf1-a7cdbeb6f733","ios":"levelo://app?vid=6f274092-c836-4709-8bf1-a7cdbeb6f733"},"vehicle_type_id":"4","last_reported":1760713848,"current_range_meters":17600,"station_id":"","pricing_plan_id":"cebpf4jnsgd1na2vs0mg"},{"bike_id":"74e3e01c-66c4-481d-b08c-6c10af99936d","system_id":"levelo_inurba_marseille","lat":43.34103,"lon":5.40418,"is_reserved":false,"is_disabled":false,"rental_uris":{"android":"levelo://app?vid=74e3e01c-66c4-481d-b08c-6c10af99936d","ios":"levelo://app?vid=74e3e01c-66c4-481d-b08c-6c10af99936d"},"vehicle_type_id":"4","last_reported":1760713848,"current_range_meters":17600,"station_id":"","pricing_plan_id":"cebpf4jnsgd1na2vs0mg"},{"bike_id":"9c563b6e-fdb1-42f2-a55a-04a170206a55","system_id":"levelo_inurba_marseille","lat":43.22534,"lon":5.34833,"is_reserved":false,"is_disabled":false,"rental_uris":{"android":"levelo://app?vid=9c563b6e-fdb1-42f2-a55a-04a170206a55","ios":"levelo://app?vid=9c563b6e-fdb1-42f2-a55a-04a170206a55"},"vehicle_type_id":"4","last_reported":1760713848,"current_range_meters":17600,"station_id":"","pricing_plan_id":"cebpf4jnsgd1na2vs0mg"},{"bike_id":"1e795861-9468-4d31-bba7-2756a31c2fe4","system_id":"levelo_inurba_marseille","lat":43.29531,"lon":5.38541,"is_reserved":false,"is_disabled":false,"rental_uris":{"android":"levelo://app?vid=1e795861-9468-4d31-bba7-2756a31c2fe4","ios":"levelo://app?vid=1e795861-9468-4d31-bba7-2756a31c2fe4"},"vehicle_type_id":"4","last_reported":1760713848,"current_range_meters":17600,"station_id":"ce4bgih2rcd13ifvqba0","pricing_plan_id":"cebpf4jnsgd1na2vs0mg"},{"bike_id":"5819f850-913f-468f-8a61-4d754f238965","system_id":"levelo_inurba_marseille","lat":43.29699,"lon":5.3661,"is_reserved":false,"is_disabled":false,"rental_uris":{"android":"levelo://app?vid=5819f850-913f-468f-8a61-4d754f238965","ios":"levelo://app?vid=5819f850-913f-468f-8a61-4d754f238965"},"vehicle_type_id":"4","last_reported":1760713848,"current_range_meters":18000,"station_id":"ce4bgn12rcd13ifvqbt0","pricing_plan_id":"cebpf4jnsgd1na2vs0mg"},{"bike_id":"4b08cfe7-5df1-4e29-905e-03a9992f8dfa","system_id":"levelo_inurba_marseille","lat":43.33766,"lon":5.37421,"is_reserved":false,"is_disabled":false,"rental_uris":{"android":"levelo://app?vid=4b08cfe7-5df1-4e29-905e-03a9992f8dfa","ios":"levelo://app?vid=4b08cfe7-5df1-4e29-905e-03a9992f8dfa"},"vehicle_type_id":"4","last_reported":1760713848,"current_range_meters":18000,"station_id":"","pricing_plan_id":"cebpf4jnsgd1na2vs0mg"},{"bike_id":"fe7920d6-b206-4df3-8e6d-474483711cfd","system_id":"levelo_inurba_marseille","lat":43.30416,"lon":5.412941,"is_reserved":false,"is_disabled":false,"rental_uris":{"android":"levelo://app?vid=fe7920d6-b206-4df3-8e6d-474483711cfd","ios":"levelo://app?vid=fe7920d6-b206-4df3-8e6d-474483711cfd"},"vehicle_type_id":"4","last_reported":1760713848,"current_range_meters":18000,"station_id":"ce4bhop2rcd13ifvqh8g","pricing_plan_id":"cebpf4jnsgd1na2vs0mg"},{"bike_id":"ae6eb0f2-4874-4ceb-8d8c-7385a8266f58","system_id":"levelo_inurba_marseille","lat":43.2951,"lon":5.3792,"is_reserved":false,"is_disabled":false,"rental_uris":{"android":"levelo://app?vid=ae6eb0f2-4874-4ceb-8d8c-7385a8266f58","ios":"levelo://app?vid=ae6eb0f2-4874-4ceb-8d8c-7385a8266f58"},"vehicle_type_id":"4","last_reported":1760713848,"current_range_meters":18000,"station_id":"","pricing_plan_id":"cebpf4jnsgd1na2vs0mg"},{"bike_id":"c4b2e449-8bd6-488c-8e41-98b33aca94d1","system_id":"levelo_inurba_marseille","lat":43.30544,"lon":5.36542,"is_reserved":false,"is_disabled":false,"rental_uris":{"android":"levelo://app?vid=c4b2e449-8bd6-488c-8e41-98b33aca94d1","ios":"levelo://app?vid=c4b2e449-8bd6-488c-8e41-98b33aca94d1"},"vehicle_type_id":"4","last_reported":1760713848,"current_range_meters":18800,"station_id":"ce4bgs12rcd13ifvqcag","pricing_plan_id":"cebpf4jnsgd1na2vs0mg"},{"bike_id":"c8dadaf0-734d-427c-a1b5-6c7b9c161286","system_id":"levelo_inurba_marseille","lat":43.3013,"lon":5.37407,"is_reserved":false,"is_disabled":false,"rental_uris":{"android":"levelo://app?vid=c8dadaf0-734d-427c-a1b5-6c7b9c161286","ios":"levelo://app?vid=c8dadaf0-734d-427c-a1b5-6c7b9c161286"},"vehicle_type_id":"4","last_reported":1760713848,"current_range_meters":18800,"station_id":"ce4bgs92rcd13ifvqcc0","pricing_plan_id":"cebpf4jnsgd1na2vs0mg"},{"bike_id":"76c371af-cca0-47e8-9c27-77622a58af6c","system_id":"levelo_inurba_marseille","lat":43.29532,"lon":5.38548,"is_reserved":false,"is_disabled":false,"rental_uris":{"android":"levelo://app?vid=76c371af-cca0-47e8-9c27-77622a58af6c","ios":"levelo://app?vid=76c371af-cca0-47e8-9c27-77622a58af6c"},"vehicle_type_id":"4","last_reported":1760713848,"current_range_meters":18800,"station_id":"ce4bgih2rcd13ifvqba0","pricing_plan_id":"cebpf4jnsgd1na2vs0mg"},{"bike_id":"dd296268-bd82-44e9-a959-3f356d990175","system_id":"levelo_inurba_marseille","lat":43.31358,"lon":5.385,"is_reserved":false,"is_disabled":false,"rental_uris":{"android":"levelo://app?vid=dd296268-bd82-44e9-a959-3f356d990175","ios":"levelo://app?vid=dd296268-bd82-44e9-a959-3f356d990175"},"vehicle_type_id":"4","last_reported":1760713848,"current_range_meters":18800,"station_id":"ce4bgt92rcd13ifvqcf0","pricing_plan_id":"cebpf4jnsgd1na2vs0mg"},{"bike_id":"e9b42dd2-63ad-4090-b4e1-d0798255957c","system_id":"levelo_inurba_marseille","lat":43.2396,"lon":5.36631,"is_reserved":false,"is_disabled":false,"rental_uris":{"android":"levelo://app?vid=e9b42dd2-63ad-4090-b4e1-d0798255957c","ios":"levelo://app?vid=e9b42dd2-63ad-4090-b4e1-d0798255957c"},"vehicle_type_id":"4","last_reported":1760713848,"current_range_meters":18800,"station_id":"ce4bhi12rcd13ifvqfp0","pricing_plan_id":"cebpf4jnsgd1na2vs0mg"},{"bike_id":"b5384ef3-f722-490e-a099-66d8c4d1cd6b","system_id":"levelo_inurba_marseille","lat":43.28538,"lon":5.44114,"is_reserved":false,"is_disabled":false,"rental_uris":{"android":"levelo://app?vid=b5384ef3-f722-490e-a099-66d8c4d1cd6b","ios":"levelo://app?vid=b5384ef3-f722-490e-a099-66d8c4d1cd6b"},"vehicle_type_id":"4","last_reported":1760713848,"current_range_meters":18800,"station_id":"st_d3j3df2ikq2c7380ej80","pricing_plan_id":"cebpf4jnsgd1na2vs0mg"},{"bike_id":"4d5537f2-c344-4dc8-9942-9236bca2e3b5","system_id":"levelo_inurba_marseille","lat":43.29222,"lon":5.360684,"is_reserved":false,"is_disabled":false,"rental_uris":{"android":"levelo://app?vid=4d5537f2-c344-4dc8-9942-9236bca2e3b5","ios":"levelo://app?vid=4d5537f2-c344-4dc8-9942-9236bca2e3b5"},"vehicle_type_id":"4","last_reported":1760713848,"current_range_meters":18800,"station_id":"ce4bhbh2rcd13ifvqeqg","pricing_plan_id":"cebpf4jnsgd1na2vs0mg"},{"bike_id":"c5330bde-77e3-45be-b1ba-f74970b82d70","system_id":"levelo_inurba_marseille","lat":43.31204,"lon":5.37606,"is_reserved":false,"is_disabled":false,"rental_uris":{"android":"levelo://app?vid=c5330bde-77e3-45be-b1ba-f74970b82d70","ios":"levelo://app?vid=c5330bde-77e3-45be-b1ba-f74970b82d70"},"vehicle_type_id":"4","last_reported":1760713848,"current_range_meters":18800,"station_id":"","pricing_plan_id":"cebpf4jnsgd1na2vs0mg"},{"bike_id":"72ab309b-b3fe-4848-a7c5-aa685c3c47b8","system_id":"levelo_inurba_marseille","lat":43.31726,"lon":5.43693,"is_reserved":false,"is_disabled":false,"rental_uris":{"android":"levelo://app?vid=72ab309b-b3fe-4848-a7c5-aa685c3c47b8","ios":"levelo://app?vid=72ab309b-b3fe-4848-a7c5-aa685c3c47b8"},"vehicle_type_id":"4","last_reported":1760713848,"current_range_meters":18800,"station_id":"ce4bhp92rcd13ifvqhcg","pricing_plan_id":"cebpf4jnsgd1na2vs0mg"},{"bike_id":"6426e4fa-7f79-410d-acfa-0a51b3b2658a","system_id":"levelo_inurba_marseille","lat":43.31241,"lon":5.40414,"is_reserved":false,"is_disabled":false,"rental_uris":{"android":"levelo://app?vid=6426e4fa-7f79-410d-acfa-0a51b3b2658a","ios":"levelo://app?vid=6426e4fa-7f79-410d-acfa-0a51b3b2658a"},"vehicle_type_id":"4","last_reported":1760713848,"current_range_meters":19200,"station_id":"","pricing_plan_id":"cebpf4jnsgd1na2vs0mg"},{"bike_id":"eb2819b4-bfb3-4dce-bbb6-7eaaf07a3d9d","system_id":"levelo_inurba_marseille","lat":43.24171,"lon":5.36401,"is_reserved":false,"is_disabled":false,"rental_uris":{"android":"levelo://app?vid=eb2819b4-bfb3-4dce-bbb6-7eaaf07a3d9d","ios":"levelo://app?vid=eb2819b4-bfb3-4dce-bbb6-7eaaf07a3d9d"},"vehicle_type_id":"4","last_reported":1760713848,"current_range_meters":19200,"station_id":"cpo36qri1sfpv3e86is0","pricing_plan_id":"cebpf4jnsgd1na2vs0mg"},{"bike_id":"51f286f4-64f7-4820-82b3-2131909fd770","system_id":"levelo_inurba_marseille","lat":43.2893,"lon":5.38388,"is_reserved":false,"is_disabled":false,"rental_uris":{"android":"levelo://app?vid=51f286f4-64f7-4820-82b3-2131909fd770","ios":"levelo://app?vid=51f286f4-64f7-4820-82b3-2131909fd770"},"vehicle_type_id":"4","last_reported":1760713848,"current_range_meters":19200,"station_id":"ce4bh612rcd13ifvqe6g","pricing_plan_id":"cebpf4jnsgd1na2vs0mg"},{"bike_id":"63266d24-fdbf-4b5d-a5f5-90e5ffc099df","system_id":"levelo_inurba_marseille","lat":43.272113,"lon":5.391825,"is_reserved":false,"is_disabled":false,"rental_uris":{"android":"levelo://app?vid=63266d24-fdbf-4b5d-a5f5-90e5ffc099df","ios":"levelo://app?vid=63266d24-fdbf-4b5d-a5f5-90e5ffc099df"},"vehicle_type_id":"4","last_reported":1760713848,"current_range_meters":19200,"station_id":"ce4bhhp2rcd13ifvqfm0","pricing_plan_id":"cebpf4jnsgd1na2vs0mg"},{"bike_id":"06b92ff1-f43e-41e4-9bfc-acf356388757","system_id":"levelo_inurba_marseille","lat":43.295169,"lon":5.389908,"is_reserved":false,"is_disabled":false,"rental_uris":{"android":"levelo://app?vid=06b92ff1-f43e-41e4-9bfc-acf356388757","ios":"levelo://app?vid=06b92ff1-f43e-41e4-9bfc-acf356388757"},"vehicle_type_id":"4","last_reported":1760713848,"current_range_meters":19200,"station_id":"ce4bh3p2rcd13ifvqdp0","pricing_plan_id":"cebpf4jnsgd1na2vs0mg"},