{"last_updated":1699250994,"ttl":30,"version":"2.2","data":{"bikes":[{"bike_id":"d1f0f029-0fbb-4cc4-a0f8-bee3da8756d8","system_id":"levelo_inurba_marseille","lat":43.31341,"lon":5.367098,"is_reserved":false,"is_disabled":false,"rental_uris":{"android":"levelo://app?vid=d1f0f029-0fbb-4cc4-a0f8-bee3da8756d8","ios":"levelo://app?vid=d1f0f029-0fbb-4cc4-a0f8-bee3da8756d8"},"vehicle_type_id":"4","last_reported":1699250994,"current_range_meters":28000,"station_id":"ce4bgr92rcd13ifvqc6g","pricing_plan_id":"free"},{"bike_id":"c49dbb9b-f099-46ef-b9ab-0bf0f1af7544","system_id":"levelo_inurba_marseille","lat":43.313391,"lon":5.36706,"is_reserved":false,"is_disabled":false,"rental_uris":{"android":"levelo://app?vid=c49dbb9b-f099-46ef-b9ab-0bf0f1af7544","ios":"levelo://app?vid=c49dbb9b-f099-46ef-b9ab-0bf0f1af7544"},"vehicle_type_id":"4","last_reported":1699250994,"current_range_meters":23200,"station_id":"ce4bgr92rcd13ifvqc6g","pricing_plan_id":"free"},{"bike_id":"ef1222c5-f8ef-4ef9-a791-0b013cfa0905","system_id":"levelo_inurba_marseille","lat":43.31341,"lon":5.367098,"is_reserved":false,"is_disabled":false,"rental_uris":{"android":"levelo://app?vid=ef1222c5-f8ef-4ef9-a791-0b013cfa0905","ios":"levelo://app?vid=ef1222c5-f8ef-4ef9-a791-0b013cfa0905"},"vehicle_type_id":"4","last_reported":1699250994,"current_range_meters":20000,"station_id":"ce4bgr92rcd13ifvqc6g","pricing_plan_id":"free"},{"bike_id":"172304dd-7296-4741-9681-ea98c9788c39","system_id":"levelo_inurba_marseille","lat":43.309076,"lon":5.368465,"is_reserved":false,"is_disabled":false,"rental_uris":{"android":"levelo://app?vid=172304dd-7296-4741-9681-ea98c9788c39","ios":"levelo://app?vid=172304dd-7296-4741-9681-ea98c9788c39"},"vehicle_type_id":"4","last_reported":1699250994,"current_range_meters":28000,"station_id":"ce4bgn92rcd13ifvqbvg","pricing_plan_id":"free"},{"bike_id":"1a11032c-2388-4c69-b8aa-dc2223f56d7f","system_id":"levelo_inurba_marseille","lat":43.309076,"lon":5.368465,"is_reserved":false,"is_disabled":false,"rental_uris":{"android":"levelo://app?vid=1a11032c-2388-4c69-b8aa-dc2223f56d7f","ios":"levelo://app?vid=1a11032c-2388-4c69-b8aa-dc2223f56d7f"},"vehicle_type_id":"4","last_reported":1699250994,"current_range_meters":23600,"station_id":"ce4bgn92rcd13ifvqbvg","pricing_plan_id":"free"},{"bike_id":"335b5e35-0d4a-42b1-bfd8-1a7198e24c87","system_id":"levelo_inurba_marseille","lat":43.314811,"lon":5.373103,"is_reserved":false,"is_disabled":false,"rental_uris":{"android":"levelo://app?vid=335b5e35-0d4a-42b1-bfd8-1a7198e24c87","ios":"levelo://app?vid=335b5e35-0d4a-42b1-bfd8-1a7198e24c87"},"vehicle_type_id":"4","last_reported":1699250994,"current_range_meters":29600,"station_id":"ce4bgt12rcd13ifvqcd0","pricing_plan_id":"free"},{"bike_id":"2552c4e1-9d3d-4b1e-b3c2-5bef6457d057","system_id":"levelo_inurba_marseille","lat":43.314811,"lon":5.373103,"is_reserved":false,"is_disabled":false,"rental_uris":{"android":"levelo://app?vid=2552c4e1-9d3d-4b1e-b3c2-5bef6457d057","ios":"levelo://app?vid=2552c4e1-9d3d-4b1e-b3c2-5bef6457d057"},"vehicle_type_id":"4","last_reported":1699250994,"current_range_meters":31200,"station_id":"ce4bgt12rcd13ifvqcd0","pricing_plan_id":"free"},{"bike_id":"b33dd032-1d58-4eb0-ac26-5c67feb4faae","system_id":"levelo_inurba_marseille","lat":43.309039,"lon":5.371797,"is_reserved":false,"is_disabled":false,"rental_uris":{"android":"levelo://app?vid=b33dd032-1d58-4eb0-ac26-5c67feb4faae","ios":"levelo://app?vid=b33dd032-1d58-4eb0-ac26-5c67feb4faae"},"vehicle_type_id":"4","last_reported":1699250994,"current_range_meters":26800,"station_id":"ce4bguh2rcd13ifvqckg","pricing_plan_id":"free"},{"bike_id":"49992071-6b50-4776-b45c-0dd640226172","system_id":"levelo_inurba_marseille","lat":43.308893,"lon":5.371954,"is_reserved":false,"is_disabled":false,"rental_uris":{"android":"levelo://app?vid=49992071-6b50-4776-b45c-0dd640226172","ios":"levelo://app?vid=49992071-6b50-4776-b45c-0dd640226172"},"vehicle_type_id":"4","last_reported":1699250994,"current_range_meters":23200,"station_id":"ce4bguh2rcd13ifvqckg","pricing_plan_id":"free"},{"bike_id":"a27a194b-0cc5-4861-9836-840360d94dfa","system_id":"levelo_inurba_marseille","lat":43.309039,"lon":5.371797,"is_reserved":false,"is_disabled":false,"rental_uris":{"android":"levelo://app?vid=a27a194b-0cc5-4861-9836-840360d94dfa","ios":"levelo://app?vid=a27a194b-0cc5-4861-9836-840360d94dfa"},"vehicle_type_id":"4","last_reported":1699250994,"current_range_meters":31200,"station_id":"ce4bguh2rcd13ifvqckg","pricing_plan_id":"free"},{"bike_id":"53374b7a-ac49-4dfe-9705-9bd44afb5485","system_id":"levelo_inurba_marseille","lat":43.308876,"lon":5.372016,"is_reserved":false,"is_disabled":false,"rental_uris":{"android":"levelo://app?vid=53374b7a-ac49-4dfe-9705-9bd44afb5485","ios":"levelo://app?vid=53374b7a-ac49-4dfe-9705-9bd44afb5485"},"vehicle_type_id":"4","last_reported":1699250994,"current_range_meters":28800,"station_id":"ce4bguh2rcd13ifvqckg","pricing_plan_id":"free"},{"bike_id":"aab3d1fe-ca82-469a-a1b2-29f3d58f709d","system_id":"levelo_inurba_marseille","lat":43.308769,"lon":5.371938,"is_reserved":false,"is_disabled":false,"rental_uris":{"android":"levelo://app?vid=aab3d1fe-ca82-469a-a1b2-29f3d58f709d","ios":"levelo://app?vid=aab3d1fe-ca82-469a-a1b2-29f3d58f709d"},"vehicle_type_id":"4","last_reported":1699250994,"current_range_meters":29200,"station_id":"ce4bguh2rcd13ifvqckg","pricing_plan_id":"free"},{"bike_id":"7f6d1821-d960-4aa5-81c2-8064a10d310c","system_id":"levelo_inurba_marseille","lat":43.31885,"lon":5.370823,"is_reserved":false,"is_disabled":false,"rental_uris":{"android":"levelo://app?vid=7f6d1821-d960-4aa5-81c2-8064a10d310c","ios":"levelo://app?vid=7f6d1821-d960-4aa5-81c2-8064a10d310c"},"vehicle_type_id":"4","last_reported":1699250994,"current_range_meters":2800,"station_id":"","pricing_plan_id":"free"},{"bike_id":"3047ecf4-9294-458e-9b6b-e3761872fb0f","system_id":"levelo_inurba_marseille","lat":43.305553,"lon":5.365285,"is_reserved":false,"is_disabled":false,"rental_uris":{"android":"levelo://app?vid=3047ecf4-9294-458e-9b6b-e3761872fb0f","ios":"levelo://app?vid=3047ecf4-9294-458e-9b6b-e3761872fb0f"},"vehicle_type_id":"4","last_reported":1699250994,"current_range_meters":30000,"station_id":"ce4bgs12rcd13ifvqcag","pricing_plan_id":"free"},{"bike_id":"4986cd75-2490-46ca-8542-2faef98ee77e","system_id":"levelo_inurba_marseille","lat":43.30544,"lon":5.36698,"is_reserved":false,"is_disabled":false,"rental_uris":{"android":"levelo://app?vid=4986cd75-2490-46ca-8542-2faef98ee77e","ios":"levelo://app?vid=4986cd75-2490-46ca-8542-2faef98ee77e"},"vehicle_type_id":"4","last_reported":1699250994,"current_range_meters":10000,"station_id":"ce4bgrp2rcd13ifvqc9g","pricing_plan_id":"free"},{"bike_id":"3de2a2c2-16fb-45f3-82a0-52c69ec7fad7","system_id":"levelo_inurba_marseille","lat":43.305714,"lon":5.365633,"is_reserved":false,"is_disabled":false,"rental_uris":{"android":"levelo://app?vid=3de2a2c2-16fb-45f3-82a0-52c69ec7fad7","ios":"levelo://app?vid=3de2a2c2-16fb-45f3-82a0-52c69ec7fad7"},"vehicle_type_id":"4","last_reported":1699250994,"current_range_meters":30800,"station_id":"ce4bgs12rcd13ifvqcag","pricing_plan_id":"free"},{"bike_id":"60fb7de7-1559-4997-91f0-3fbb735bd27c","system_id":"levelo_inurba_marseille","lat":43.305714,"lon":5.365633,"is_reserved":false,"is_disabled":false,"rental_uris":{"android":"levelo://app?vid=60fb7de7-1559-4997-91f0-3fbb735bd27c","ios":"levelo://app?vid=60fb7de7-1559-4997-91f0-3fbb735bd27c"},"vehicle_type_id":"4","last_reported":1699250994,"current_range_meters":28400,"station_id":"ce4bgs12rcd13ifvqcag","pricing_plan_id":"free"},{"bike_id":"2618f07b-edc7-4337-9222-9ced492dd718","system_id":"levelo_inurba_marseille","lat":43.305714,"lon":5.365633,"is_reserved":false,"is_disabled":false,"rental_uris":{"android":"levelo://app?vid=2618f07b-edc7-4337-9222-9ced492dd718","ios":"levelo://app?vid=2618f07b-edc7-4337-9222-9ced492dd718"},"vehicle_type_id":"4","last_reported":1699250994,"current_range_meters":28000,"station_id":"ce4bgs12rcd13ifvqcag","pricing_plan_id":"free"},{"bike_id":"f252b071-dddd-4e5f-ad07-506846af6d1a","system_id":"levelo_inurba_marseille","lat":43.305714,"lon":5.365633,"is_reserved":false,"is_disabled":false,"rental_uris":{"android":"levelo://app?vid=f252b071-dddd-4e5f-ad07-506846af6d1a","ios":"levelo://app?vid=f252b071-dddd-4e5f-ad07-506846af6d1a"},"vehicle_type_id":"4","last_reported":1699250994,"current_range_meters":23200,"station_id":"ce4bgs12rcd13ifvqcag","pricing_plan_id":"free"},{"bike_id":"07baca4a-bfd8-4772-a403-172add0ffa6a","system_id":"levelo_inurba_marseille","lat":43.305714,"lon":5.365633,"is_reserved":false,"is_disabled":false,"rental_uris":{"android":"levelo://app?vid=07baca4a-bfd8-4772-a403-172add0ffa6a","ios":"levelo://app?vid=07baca4a-bfd8-4772-a403-172add0ffa6a"},"vehicle_type_id":"4","last_reported":1699250994,"current_range_meters":30000,"station_id":"ce4bgs12rcd13ifvqcag","pricing_plan_id":"free"},{"bike_id":"e21b1dba-99d7-44c0-81ec-f11bca44de35","system_id":"levelo_inurba_marseille","lat":43.305991,"lon":5.372399,"is_reserved":false,"is_disabled":false,"rental_uris":{"android":"levelo://app?vid=e21b1dba-99d7-44c0-81ec-f11bca44de35","ios":"levelo://app?vid=e21b1dba-99d7-44c0-81ec-f11bca44de35"},"vehicle_type_id":"4","last_reported":1699250994,"current_range_meters":19600,"station_id":"ce4bgqh2rcd13ifvqc4g","pricing_plan_id":"free"},{"bike_id":"1d1b54f7-ee6a-4107-98cd-722c42cc56ad","system_id":"levelo_inurba_marseille","lat":43.311246,"lon":5.377623,"is_reserved":false,"is_disabled":false,"rental_uris":{"android":"levelo://app?vid=1d1b54f7-ee6a-4107-98cd-722c42cc56ad","ios":"levelo://app?vid=1d1b54f7-ee6a-4107-98cd-722c42cc56ad"},"vehicle_type_id":"4","last_reported":1699250994,"current_range_meters":26400,"station_id":"ce4bgt92rcd13ifvqcg0","pricing_plan_id":"free"},{"bike_id":"4e8b53da-b650-4b5c-b7bc-6fdfc5c19971","system_id":"levelo_inurba_marseille","lat":43.311131,"lon":5.377651,"is_reserved":false,"is_disabled":false,"rental_uris":{"android":"levelo://app?vid=4e8b53da-b650-4b5c-b7bc-6fdfc5c19971","ios":"levelo://app?vid=4e8b53da-b650-4b5c-b7bc-6fdfc5c19971"},"vehicle_type_id":"4","last_reported":1699250994,"current_range_meters":30400,"station_id":"ce4bgt92rcd13ifvqcg0","pricing_plan_id":"free"},{"bike_id":"1fefd8e5-7b9a-46ee-9b2a-569bd0385aac","system_id":"levelo_inurba_marseille","lat":43.311185,"lon":5.377735,"is_reserved":false,"is_disabled":false,"rental_uris":{"android":"levelo://app?vid=1fefd8e5-7b9a-46ee-9b2a-569bd0385aac","ios":"levelo://app?vid=1fefd8e5-7b9a-46ee-9b2a-569bd0385aac"},"vehicle_type_id":"4","last_reported":1699250994,"current_range_meters":24400,"station_id":"ce4bgt92rcd13ifvqcg0","pricing_plan_id":"free"},{"bike_id":"eb70dc43-7c77-4cbd-8778-b746913a07cd","system_id":"levelo_inurba_marseille","lat":43.30722,"lon":5.375117,"is_reserved":false,"is_disabled":false,"rental_uris":{"android":"levelo://app?vid=eb70dc43-7c77-4cbd-8778-b746913a07cd","ios":"levelo://app?vid=eb70dc43-7c77-4cbd-8778-b746913a07cd"},"vehicle_type_id":"4","last_reported":1699250994,"current_range_meters":14800,"station_id":"","pricing_plan_id":"free"},{"bike_id":"615d8b9f-85bc-469f-a588-1cd47deabf4b","system_id":"levelo_inurba_marseille","lat":43.307826,"lon":5.376452,"is_reserved":false,"is_disabled":false,"rental_uris":{"android":"levelo://app?vid=615d8b9f-85bc-469f-a588-1cd47deabf4b","ios":"levelo://app?vid=615d8b9f-85bc-469f-a588-1cd47deabf4b"},"vehicle_type_id":"4","last_reported":1699250994,"current_range_meters":29600,"station_id":"ce4bgv92rcd13ifvqcq0","pricing_plan_id":"free"},{"bike_id":"0357717c-71ec-4f12-9097-fe3a9897037f","system_id":"levelo_inurba_marseille","lat":43.307945,"lon":5.376487,"is_reserved":false,"is_disabled":false,"rental_uris":{"android":"levelo://app?vid=0357717c-71ec-4f12-9097-fe3a9897037f","ios":"levelo://app?vid=0357717c-71ec-4f12-9097-fe3a9897037f"},"vehicle_type_id":"4","last_reported":1699250994,"current_range_meters":31200,"station_id":"ce4bgv92rcd13ifvqcq0","pricing_plan_id":"free"},{"bike_id":"b6774966-82fe-4d46-85b5-43d62fe56ec5","system_id":"levelo_inurba_marseille","lat":43.317075,"lon":5.377367,"is_reserved":false,"is_disabled":false,"rental_uris":{"android":"levelo://app?vid=b6774966-82fe-4d46-85b5-43d62fe56ec5","ios":"levelo://app?vid=b6774966-82fe-4d46-85b5-43d62fe56ec5"},"vehicle_type_id":"4","last_reported":1699250994,"current_range_meters":24800,"station_id":"ce4bgth2rcd13ifvqch0","pricing_plan_id":"free"},{"bike_id":"efc67e2a-e353-473b-a408-f22d03dcf45d","system_id":"levelo_inurba_marseille","lat":43.317075,"lon":5.377367,"is_reserved":false,"is_disabled":false,"rental_uris":{"android":"levelo://app?vid=efc67e2a-e353-473b-a408-f22d03dcf45d","ios":"levelo://app?vid=efc67e2a-e353-473b-a408-f22d03dcf45d"},"vehicle_type_id":"4","last_reported":1699250994,"current_range_meters":4800,"station_id":"ce4bgth2rcd13ifvqch0","pricing_plan_id":"free"},{"bike_id":"b2e1f9cf-cb45-4e48-8443-110c0521c682","system_id":"levelo_inurba_marseille","lat":43.317075,"lon":5.377367,"is_reserved":false,"is_disabled":false,"rental_uris":{"android":"levelo://app?vid=b2e1f9cf-cb45-4e48-8443-110c0521c682","ios":"levelo://app?vid=b2e1f9cf-cb45-4e48-8443-110c0521c682"},"vehicle_type_id":"4","last_reported":1699250994,"current_range_meters":31200,"station_id":"ce4bgth2rcd13ifvqch0","pricing_plan_id":"free"},{"bike_id":"11e725d0-001a-4076-8114-04ceff9c937c","system_id":"levelo_inurba_marseille","lat":43.317075,"lon":5.377367,"is_reserved":false,"is_disabled":false,"rental_uris":{"android":"levelo://app?vid=11e725d0-001a-4076-8114-04ceff9c937c","ios":"levelo://app?vid=11e725d0-001a-4076-8114-04ceff9c937c"},"vehicle_type_id":"4","last_reported":1699250994,"current_range_meters":30800,"station_id":"ce4bgth2rcd13ifvqch0","pricing_plan_id":"free"},{"bike_id":"4ba8cee5-1bee-440d-aca9-d2013be277bd","system_id":"levelo_inurba_marseille","lat":43.317075,"lon":5.377367,"is_reserved":false,"is_disabled":false,"rental_uris":{"android":"levelo://app?vid=4ba8cee5-1bee-440d-aca9-d2013be277bd","ios":"levelo://app?vid=4ba8cee5-1bee-440d-aca9-d2013be277bd"},"vehicle_type_id":"4","last_reported":1699250994,"current_range_meters":29200,"station_id":"ce4bgth2rcd13ifvqch0","pricing_plan_id":"free"},{"bike_id":"d27de731-f759-4e5d-bd20-ad6118e39104","system_id":"levelo_inurba_marseille","lat":43.317075,"lon":5.377367,"is_reserved":false,"is_disabled":false,"rental_uris":{"android":"levelo://app?vid=d27de731-f759-4e5d-bd20-ad6118e39104","ios":"levelo://app?vid=d27de731-f759-4e5d-bd20-ad6118e39104"},"vehicle_type_id":"4","last_reported":1699250994,"current_range_meters":30000,"station_id":"ce4bgth2rcd13ifvqch0","pricing_plan_id":"free"},{"bike_id":"9bb3c090-8509-4228-b6ec-4d80ee894b36","system_id":"levelo_inurba_marseille","lat":43.301939,"lon":5.366286,"is_reserved":false,"is_disabled":false,"rental_uris":{"android":"levelo://app?vid=9bb3c090-8509-4228-b6ec-4d80ee894b36","ios":"levelo://app?vid=9bb3c090-8509-4228-b6ec-4d80ee894b36"},"vehicle_type_id":"4","last_reported":1699250994,"current_range_meters":29600,"station_id":"ce4bgrh2rcd13ifvqc8g","pricing_plan_id":"free"},{"bike_id":"ca4d7efb-c2b1-4632-9bd6-2f75ed363b26","system_id":"levelo_inurba_marseille","lat":43.308063,"lon":5.381543,"is_reserved":false,"is_disabled":false,"rental_uris":{"android":"levelo://app?vid=ca4d7efb-c2b1-4632-9bd6-2f75ed363b26","ios":"levelo://app?vid=ca4d7efb-c2b1-4632-9bd6-2f75ed363b26"},"vehicle_type_id":"4","last_reported":1699250994,"current_range_meters":19600,"station_id":"ce4bgt12rcd13ifvqce0","pricing_plan_id":"free"},{"bike_id":"f7cea8aa-e0b8-444e-9f63-e68d1c4c2633","system_id":"levelo_inurba_marseille","lat":43.308012,"lon":5.381511,"is_reserved":false,"is_disabled":false,"rental_uris":{"android":"levelo://app?vid=f7cea8aa-e0b8-444e-9f63-e68d1c4c2633","ios":"levelo://app?vid=f7cea8aa-e0b8-444e-9f63-e68d1c4c2633"},"vehicle_type_id":"4","last_reported":1699250994,"current_range_meters":31200,"station_id":"ce4bgt12rcd13ifvqce0","pricing_plan_id":"free"},{"bike_id":"d1002f11-1204-412f-996c-e1d6e320edef","system_id":"levelo_inurba_marseille","lat":43.304606,"lon":5.379026,"is_reserved":false,"is_disabled":false,"rental_uris":{"android":"levelo://app?vid=d1002f11-1204-412f-996c-e1d6e320edef","ios":"levelo://app?vid=d1002f11-1204-412f-996c-e1d6e320edef"},"vehicle_type_id":"4","last_reported":1699250994,"current_range_meters":22000,"station_id":"ce4bgup2rcd13ifvqcn0","pricing_plan_id":"free"},{"bike_id":"4417582d-c2ca-40fe-a249-37e4da6d0b93","system_id":"levelo_inurba_marseille","lat":43.304606,"lon":5.379026,"is_reserved":false,"is_disabled":false,"rental_uris":{"android":"levelo://app?vid=4417582d-c2ca-40fe-a249-37e4da6d0b93","ios":"levelo://app?vid=4417582d-c2ca-40fe-a249-37e4da6d0b93"},"vehicle_type_id":"4","last_reported":1699250994,"current_range_meters":29200,"station_id":"ce4bgup2rcd13ifvqcn0","pricing_plan_id":"free"},{"bike_id":"e18d5fa0-02fd-4431-881b-745654ceefc6","system_id":"levelo_inurba_marseille","lat":43.304606,"lon":5.379026,"is_reserved":false,"is_disabled":false,"rental_uris":{"android":"levelo://app?vid=e18d5fa0-02fd-4431-881b-745654ceefc6","ios":"levelo://app?vid=e18d5fa0-02fd-4431-881b-745654ceefc6"},"vehicle_type_id":"4","last_reported":1699250994,"current_range_meters":31200,"station_id":"ce4bgup2rcd13ifvqcn0","pricing_plan_id":"free"},{"bike_id":"eea628bf-fb54-42bc-b4f3-3abb1af00b71","system_id":"levelo_inurba_marseille","lat":43.304606,"lon":5.379026,"is_reserved":false,"is_disabled":false,"rental_uris":{"android":"levelo://app?vid=eea628bf-fb54-42bc-b4f3-3abb1af00b71","ios":"levelo://app?vid=eea628bf-fb54-42bc-b4f3-3abb1af00b71"},"vehicle_type_id":"4","last_reported":1699250994,"current_range_meters":22400,"station_id":"ce4bgup2rcd13ifvqcn0","pricing_plan_id":"free"},{"bike_id":"cb07c21a-5601-4256-a4c2-be3c089c1d20","system_id":"levelo_inurba_marseille","lat":43.304606,"lon":5.379026,"is_reserved":false,"is_disabled":false,"rental_uris":{"android":"levelo://app?vid=cb07c21a-5601-4256-a4c2-be3c089c1d20","ios":"levelo://app?vid=cb07c21a-5601-4256-a4c2-be3c089c1d20"},"vehicle_type_id":"4","last_reported":1699250994,"current_range_meters":24400,"station_id":"ce4bgup2rcd13ifvqcn0","pricing_plan_id":"free"},{"bike_id":"d7589f0e-3dbd-484a-aa80-85f8be0461cc","system_id":"levelo_inurba_marseille","lat":43.304606,"lon":5.379026,"is_reserved":false,"is_disabled":false,"rental_uris":{"android":"levelo://app?vid=d7589f0e-3dbd-484a-aa80-85f8be0461cc","ios":"levelo://app?vid=d7589f0e-3dbd-484a-aa80-85f8be0461cc"},"vehicle_type_id":"4","last_reported":1699250994,"current_range_meters":30400,"station_id":"ce4bgup2rcd13ifvqcn0","pricing_plan_id":"free"},{"bike_id":"6ae52c6b-203f-48d2-92f1-ed4cc0198b90","system_id":"levelo_inurba_marseille","lat":43.304606,"lon":5.379026,"is_reserved":false,"is_disabled":false,"rental_uris":{"android":"levelo://app?vid=6ae52c6b-203f-48d2-92f1-ed4cc0198b90","ios":"levelo://app?vid=6ae52c6b-203f-48d2-92f1-ed4cc0198b90"},"vehicle_type_id":"4","last_reported":1699250994,"current_range_meters":20400,"station_id":"ce4bgup2rcd13ifvqcn0","pricing_plan_id":"free"},{"bike_id":"db7c7092-6eee-45b9-b199-c579e0e8ba4d","system_id":"levelo_inurba_marseille","lat":43.304606,"lon":5.379026,"is_reserved":false,"is_disabled":false,"rental_uris":{"android":"levelo://app?vid=db7c7092-6eee-45b9-b199-c579e0e8ba4d","ios":"levelo://app?vid=db7c7092-6eee-45b9-b199-c579e0e8ba4d"},"vehicle_type_id":"4","last_reported":1699250994,"current_range_meters":12800,"station_id":"ce4bgup2rcd13ifvqcn0","pricing_plan_id":"free"},{"bike_id":"f146ffc2-c469-4a1d-9002-198151d02fd6","system_id":"levelo_inurba_marseille","lat":43.304606,"lon":5.379026,"is_reserved":false,"is_disabled":false,"rental_uris":{"android":"levelo://app?vid=f146ffc2-c469-4a1d-9002-198151d02fd6","ios":"levelo://app?vid=f146ffc2-c469-4a1d-9002-198151d02fd6"},"vehicle_type_id":"4","last_reported":1699250994,"current_range_meters":22000,"station_id":"ce4bgup2rcd13ifvqcn0","pricing_plan_id":"free"},{"bike_id":"54f19cf6-eeb2-43c8-b045-df39a56def5e","system_id":"levelo_inurba_marseille","lat":43.304606,"lon":5.379026,"is_reserved":false,"is_disabled":false,"rental_uris":{"android":"levelo://app?vid=54f19cf6-eeb2-43c8-b045-df39a56def5e","ios":"levelo://app?vid=54f19cf6-eeb2-43c8-b045-df39a56def5e"},"vehicle_type_id":"4","last_reported":1699250994,"current_range_meters":24400,"station_id":"ce4bgup2rcd13ifvqcn0","pricing_plan_id":"free"},{"bike_id":"eaf20a26-b7f1-4374-bd2f-95e2f6936b8f","system_id":"levelo_inurba_marseille","lat":43.304606,"lon":5.379026,"is_reserved":false,"is_disabled":false,"rental_uris":{"android":"levelo://app?vid=eaf20a26-b7f1-4374-bd2f-95e2f6936b8f","ios":"levelo://app?vid=eaf20a26-b7f1-4374-bd2f-95e2f6936b8f"},"vehicle_type_id":"4","last_reported":1699250994,"current_range_meters":28400,"station_id":"ce4bgup2rcd13ifvqcn0","pricing_plan_id":"free"},{"bike_id":"1eab5568-cb49-478e-9b04-7b05ecee3ff9","system_id":"levelo_inurba_marseille","lat":43.304606,"lon":5.379026,"is_reserved":false,"is_disabled":false,"rental_uris":{"android":"levelo://app?vid=1eab5568-cb49-478e-9b04-7b05ecee3ff9","ios":"levelo://app?vid=1eab5568-cb49-478e-9b04-7b05ecee3ff9"},"vehicle_type_id":"4","last_reported":1699250994,"current_range_meters":11600,"station_id":"ce4bgup2rcd13ifvqcn0","pricing_plan_id":"free"},{"bike_id":"ce505b9a-c6af-45f4-811e-e85b941ac3c2","system_id":"levelo_inurba_marseille","lat":43.304606,"lon":5.379026,"is_reserved":false,"is_disabled":false,"rental_uris":{"android":"levelo://app?vid=ce505b9a-c6af-45f4-811e-e85b941ac3c2","ios":"levelo://app?vid=ce505b9a-c6af-45f4-811e-e85b941ac3c2"},"vehicle_type_id":"4","last_reported":1699250994,"current_range_meters":18800,"station_id":"ce4bgup2rcd13ifvqcn0","pricing_plan_id":"free"},{"bike_id":"516f6c0f-f8e7-4d93-84f6-09cf031b25ec","system_id":"levelo_inurba_marseille","lat":43.304606,"lon":5.379026,"is_reserved":false,"is_disabled":false,"rental_uris":{"android":"levelo://app?vid=516f6c0f-f8e7-4d93-84f6-09cf031b25ec","ios":"levelo://app?vid=516f6c0f-f8e7-4d93-84f6-09cf031b25ec"},"vehicle_type_id":"4","last_reported":1699250994,"current_range_meters":19600,"station_id":"ce4bgup2rcd13ifvqcn0","pricing_plan_id":"free"},{"bike_id":"c9fca903-e270-4c60-b825-4d690f8532ca","system_id":"levelo_inurba_marseille","lat":43.304606,"lon":5.379026,"is_reserved":false,"is_disabled":false,"rental_uris":{"android":"levelo://app?vid=c9fca903-e270-4c60-b825-4d690f8532ca","ios":"levelo://app?vid=c9fca903-e270-4c60-b825-4d690f8532ca"},"vehicle_type_id":"4","last_reported":1699250994,"current_range_meters":21200,"station_id":"ce4bgup2rcd13ifvqcn0","pricing_plan_id":"free"},{"bike_id":"dafdb51f-1493-4a6f-bfa3-da01f7ac6698","system_id":"levelo_inurba_marseille","lat":43.304606,"lon":5.379026,"is_reserved":false,"is_disabled":false,"rental_uris":{"android":"levelo://app?vid=dafdb51f-1493-4a6f-bfa3-da01f7ac6698","ios":"levelo://app?vid=dafdb51f-1493-4a6f-bfa3-da01f7ac6698"},"vehicle_type_id":"4","last_reported":1699250994,"current_range_meters":29600,"station_id":"ce4bgup2rcd13ifvqcn0","pricing_plan_id":"free"},{"bike_id":"c5a39ccf-ef09-4b1a-b8f5-f305ad80ef85","system_id":"levelo_inurba_marseille","lat":43.304606,"lon":5.379026,"is_reserved":false,"is_disabled":false,"rental_uris":{"android":"levelo://app?vid=c5a39ccf-ef09-4b1a-b8f5-f305ad80ef85","ios":"levelo://app?vid=c5a39ccf-ef09-4b1a-b8f5-f305ad80ef85"},"vehicle_type_id":"4","last_reported":1699250994,"current_range_meters":24800,"station_id":"ce4bgup2rcd13ifvqcn0","pricing_plan_id":"free"},{"bike_id":"cddeba11-2042-4513-981d-e42f1ee4a9ac","system_id":"levelo_inurba_marseille","lat":43.304606,"lon":5.379026,"is_reserved":false,"is_disabled":false,"rental_uris":{"android":"levelo://app?vid=cddeba11-2042-4513-981d-e42f1ee4a9ac","ios":"levelo://app?vid=cddeba11-2042-4513-981d-e42f1ee4a9ac"},"vehicle_type_id":"4","last_reported":1699250994,"current_range_meters":30000,"station_id":"ce4bgup2rcd13ifvqcn0","pricing_plan_id":"free"},{"bike_id":"5b4bc8b8-5572-4f08-b8dc-70588e8030ce","system_id":"levelo_inurba_marseille","lat":43.304606,"lon":5.379026,"is_reserved":false,"is_disabled":false,"rental_uris":{"android":"levelo://app?vid=5b4bc8b8-5572-4f08-b8dc-70588e8030ce","ios":"levelo://app?vid=5b4bc8b8-5572-4f08-b8dc-70588e8030ce"},"vehicle_type_id":"4","last_reported":1699250994,"current_range_meters":3600,"station_id":"ce4bgup2rcd13ifvqcn0","pricing_plan_id":"free"},{"bike_id":"5bef2c2c-84ef-496f-8074-28bd17a11dbb","system_id":"levelo_inurba_marseille","lat":43.304606,"lon":5.379026,"is_reserved":false,"is_disabled":false,"rental_uris":{"android":"levelo://app?vid=5bef2c2c-84ef-496f-8074-28bd17a11dbb","ios":"levelo://app?vid=5bef2c2c-84ef-496f-8074-28bd17a11dbb"},"vehicle_type_id":"4","last_reported":1699250994,"current_range_meters":22800,"station_id":"ce4bgup2rcd13ifvqcn0","pricing_plan_id":"free"},{"bike_id":"167f2841-a260-42a6-b318-caf6d49b3cda","system_id":"levelo_inurba_marseille","lat":43.304606,"lon":5.379026,"is_reserved":false,"is_disabled":false,"rental_uris":{"android":"levelo://app?vid=167f2841-a260-42a6-b318-caf6d49b3cda","ios":"levelo://app?vid=167f2841-a260-42a6-b318-caf6d49b3cda"},"vehicle_type_id":"4","last_reported":1699250994,"current_range_meters":23600,"station_id":"ce4bgup2rcd13ifvqcn0","pricing_plan_id":"free"},{"bike_id":"9ec35a72-3458-4e19-9284-d527761a12ee","system_id":"levelo_inurba_marseille","lat":43.304606,"lon":5.379026,"is_reserved":false,"is_disabled":false,"rental_uris":{"android":"levelo://app?vid=9ec35a72-3458-4e19-9284-d527761a12ee","ios":"levelo://app?vid=9ec35a72-3458-4e19-9284-d527761a12ee"},"vehicle_type_id":"4","last_reported":1699250994,"current_range_meters":17200,"station_id":"ce4bgup2rcd13ifvqcn0","pricing_plan_id":"free"},{"bike_id":"d68bf3d2-c365-4544-b906-51e04c2b2b56","system_id":"levelo_inurba_marseille","lat":43.304606,"lon":5.379026,"is_reserved":false,"is_disabled":false,"rental_uris":{"android":"levelo://app?vid=d68bf3d2-c365-4544-b906-51e04c2b2b56","ios":"levelo://app?vid=d68bf3d2-c365-4544-b906-51e04c2b2b56"},"vehicle_type_id":"4","last_reported":1699250994,"current_range_meters":19600,"station_id":"ce4bgup2rcd13ifvqcn0","pricing_plan_id":"free"},{"bike_id":"779c61d2-19b9-44f9-b319-6e3ec050fa47","system_id":"levelo_inurba_marseille","lat":43.304606,"lon":5.379026,"is_reserved":false,"is_disabled":false,"rental_uris":{"android":"levelo://app?vid=779c61d2-19b9-44f9-b319-6e3ec050fa47","ios":"levelo://app?vid=779c61d2-19b9-44f9-b319-6e3ec050fa47"},"vehicle_type_id":"4","last_reported":1699250994,"current_range_meters":29200,"station_id":"ce4bgup2rcd13ifvqcn0","pricing_plan_id":"free"},{"bike_id":"e8584f7f-3a22-4191-9ecd-5314ed574e4e","system_id":"levelo_inurba_marseille","lat":43.303586,"lon":5.377754,"is_reserved":false,"is_disabled":false,"rental_uris":{"android":"levelo://app?vid=e8584f7f-3a22-4191-9ecd-5314ed574e4e","ios":"levelo://app?vid=e8584f7f-3a22-4191-9ecd-5314ed574e4e"},"vehicle_type_id":"4","last_reported":1699250994,"current_range_meters":18000,"station_id":"","pricing_plan_id":"free"},{"bike_id":"c284c5ee-c9d2-49c0-ae3a-da91063f7155","system_id":"levelo_inurba_marseille","lat":43.324794,"lon":5.365676,"is_reserved":false,"is_disabled":false,"rental_uris":{"android":"levelo://app?vid=c284c5ee-c9d2-49c0-ae3a-da91063f7155","ios":"levelo://app?vid=c284c5ee-c9d2-49c0-ae3a-da91063f7155"},"vehicle_type_id":"4","last_reported":1699250994,"current_range_meters":400,"station_id":"ce4bhs12rcd13ifvqhvg","pricing_plan_id":"free"},{"bike_id":"438799ef-4578-4582-966f-6e136cfa9f88","system_id":"levelo_inurba_marseille","lat":43.304606,"lon":5.379026,"is_reserved":false,"is_disabled":false,"rental_uris":{"android":"levelo://app?vid=438799ef-4578-4582-966f-6e136cfa9f88","ios":"levelo://app?vid=438799ef-4578-4582-966f-6e136cfa9f88"},"vehicle_type_id":"4","last_reported":1699250994,"current_range_meters":31200,"station_id":"ce4bgup2rcd13ifvqcn0","pricing_plan_id":"free"},{"bike_id":"b7a6e9ba-0671-4d26-83e8-4640f43bc4d8","system_id":"levelo_inurba_marseille","lat":43.301429,"lon":5.37413,"is_reserved":false,"is_disabled":false,"rental_uris":{"android":"levelo://app?vid=b7a6e9ba-0671-4d26-83e8-4640f43bc4d8","ios":"levelo://app?vid=b7a6e9ba-0671-4d26-83e8-4640f43bc4d8"},"vehicle_type_id":"4","last_reported":1699250994,"current_range_meters":0,"station_id":"ce4bgs92rcd13ifvqcc0","pricing_plan_id":"free"},{"bike_id":"cde09343-cb34-42b4-bd82-ba3dc99ca7a9","system_id":"levelo_inurba_marseille","lat":43.31541,"lon":5.38404,"is_reserved":false,"is_disabled":false,"rental_uris":{"android":"levelo://app?vid=cde09343-cb34-42b4-bd82-ba3dc99ca7a9","ios":"levelo://app?vid=cde09343-cb34-42b4-bd82-ba3dc99ca7a9"},"vehicle_type_id":"4","last_reported":1699250994,"current_range_meters":5600,"station_id":"","pricing_plan_id":"free"},{"bike_id":"1b31aa16-f60a-45f7-a98c-3661756ec854","system_id":"levelo_inurba_marseille","lat":43.319961,"lon":5.381521,"is_reserved":false,"is_disabled":false,"rental_uris":{"android":"levelo://app?vid=1b31aa16-f60a-45f7-a98c-3661756ec854","ios":"levelo://app?vid=1b31aa16-f60a-45f7-a98c-3661756ec854"},"vehicle_type_id":"4","last_reported":1699250994,"current_range_meters":12800,"station_id":"ce4bhr12rcd13ifvqhpg","pricing_plan_id":"free"},{"bike_id":"3f2c2093-4a23-4121-b50d-71f37016ef76","system_id":"levelo_inurba_marseille","lat":43.314811,"lon":5.373103,"is_reserved":false,"is_disabled":false,"rental_uris":{"android":"levelo://app?vid=3f2c2093-4a23-4121-b50d-71f37016ef76","ios":"levelo://app?vid=3f2c2093-4a23-4121-b50d-71f37016ef76"},"vehicle_type_id":"4","last_reported":1699250994,"current_range_meters":17200,"station_id":"ce4bgt12rcd13ifvqcd0","pricing_plan_id":"free"},{"bike_id":"d32f49af-52e3-48b5-8755-da133bfda09c","system_id":"levelo_inurba_marseille","lat":43.319935,"lon":5.381699,"is_reserved":false,"is_disabled":false,"rental_uris":{"android":"levelo://app?vid=d32f49af-52e3-48b5-8755-da133bfda09c","ios":"levelo://app?vid=d32f49af-52e3-48b5-8755-da133bfda09c"},"vehicle_type_id":"4","last_reported":1699250994,"current_range_meters":20800,"station_id":"ce4bhr12rcd13ifvqhpg","pricing_plan_id":"free"},{"bike_id":"0b30afdb-630e-4ab1-ab91-f6c396ec9989","system_id":"levelo_inurba_marseille","lat":43.313571,"lon":5.384829,"is_reserved":false,"is_disabled":false,"rental_uris":{"android":"levelo://app?vid=0b30afdb-630e-4ab1-ab91-f6c396ec9989","ios":"levelo://app?vid=0b30afdb-630e-4ab1-ab91-f6c396ec9989"},"vehicle_type_id":"4","last_reported":1699250994,"current_range_meters":29600,"station_id":"ce4bgt92rcd13ifvqcf0","pricing_plan_id":"free"},{"bike_id":"af9441c7-d443-4292-96de-7a49003e9d00","system_id":"levelo_inurba_marseille","lat":43.313571,"lon":5.384829,"is_reserved":false,"is_disabled":false,"rental_uris":{"android":"levelo://app?vid=af9441c7-d443-4292-96de-7a49003e9d00","ios":"levelo://app?vid=af9441c7-d443-4292-96de-7a49003e9d00"},"vehicle_type_id":"4","last_reported":1699250994,"current_range_meters":29600,"station_id":"ce4bgt92rcd13ifvqcf0","pricing_plan_id":"free"},{"bike_id":"5599b3d0-1d0a-407c-b018-9c4e7659b1a6","system_id":"levelo_inurba_marseille","lat":43.299417,"lon":5.365429,"is_reserved":false,"is_disabled":false,"rental_uris":{"android":"levelo://app?vid=5599b3d0-1d0a-407c-b018-9c4e7659b1a6","ios":"levelo://app?vid=5599b3d0-1d0a-407c-b018-9c4e7659b1a6"},"vehicle_type_id":"4","last_reported":1699250994,"current_range_meters":29600,"station_id":"ce4bgm92rcd13ifvqbr0","pricing_plan_id":"free"},{"bike_id":"cd5d6f47-a21d-48c4-a180-0bc29bdb4ef3","system_id":"levelo_inurba_marseille","lat":43.299385,"lon":5.365399,"is_reserved":false,"is_disabled":false,"rental_uris":{"android":"levelo://app?vid=cd5d6f47-a21d-48c4-a180-0bc29bdb4ef3","ios":"levelo://app?vid=cd5d6f47-a21d-48c4-a180-0bc29bdb4ef3"},"vehicle_type_id":"4","last_reported":1699250994,"current_range_meters":17600,"station_id":"ce4bgm92rcd13ifvqbr0","pricing_plan_id":"free"},{"bike_id":"d277f53b-4952-4da5-826a-dcc06dec1f66","system_id":"levelo_inurba_marseille","lat":43.299384,"lon":5.365357,"is_reserved":false,"is_disabled":false,"rental_uris":{"android":"levelo://app?vid=d277f53b-4952-4da5-826a-dcc06dec1f66","ios":"levelo://app?vid=d277f53b-4952-4da5-826a-dcc06dec1f66"},"vehicle_type_id":"4","last_reported":1699250994,"current_range_meters":31200,"station_id":"ce4bgm92rcd13ifvqbr0","pricing_plan_id":"free"},{"bike_id":"06e9a2c7-b1fa-4ee3-9a39-ff33bf5b986c","system_id":"levelo_inurba_marseille","lat":43.29938,"lon":5.3654,"is_reserved":false,"is_disabled":false,"rental_uris":{"android":"levelo://app?vid=06e9a2c7-b1fa-4ee3-9a39-ff33bf5b986c","ios":"levelo://app?vid=06e9a2c7-b1fa-4ee3-9a39-ff33bf5b986c"},"vehicle_type_id":"4","last_reported":1699250994,"current_range_meters":26800,"station_id":"ce4bgm92rcd13ifvqbr0","pricing_plan_id":"free"},{"bike_id":"d91c9e35-e894-47fb-a071-1ee50c90573b","system_id":"levelo_inurba_marseille","lat":43.299222,"lon":5.365554,"is_reserved":false,"is_disabled":false,"rental_uris":{"android":"levelo://app?vid=d91c9e35-e894-47fb-a071-1ee50c90573b","ios":"levelo://app?vid=d91c9e35-e894-47fb-a071-1ee50c90573b"},"vehicle_type_id":"4","last_reported":1699250994,"current_range_meters":20800,"station_id":"ce4bgm92rcd13ifvqbr0","pricing_plan_id":"free"},{"bike_id":"3cf81eea-9615-45bb-a700-e6f89992c781","system_id":"levelo_inurba_marseille","lat":43.299724,"lon":5.371829,"is_reserved":false,"is_disabled":false,"rental_uris":{"android":"levelo://app?vid=3cf81eea-9615-45bb-a700-e6f89992c781","ios":"levelo://app?vid=3cf81eea-9615-45bb-a700-e6f89992c781"},"vehicle_type_id":"4","last_reported":1699250994,"current_range_meters":18000,"station_id":"ce4bgr92rcd13ifvqc7g","pricing_plan_id":"free"},{"bike_id":"21912deb-4a42-4415-afc9-609b496461cd","system_id":"levelo_inurba_marseille","lat":43.299328,"lon":5.36546,"is_reserved":false,"is_disabled":false,"rental_uris":{"android":"levelo://app?vid=21912deb-4a42-4415-afc9-609b496461cd","ios":"levelo://app?vid=21912deb-4a42-4415-afc9-609b496461cd"},"vehicle_type_id":"4","last_reported":1699250994,"current_range_meters":30000,"station_id":"ce4bgm92rcd13ifvqbr0","pricing_plan_id":"free"},{"bike_id":"1c2c73ff-4601-4f33-b97f-da95bc589609","system_id":"levelo_inurba_marseille","lat":43.32148,"lon":5.38202,"is_reserved":false,"is_disabled":false,"rental_uris":{"android":"levelo://app?vid=1c2c73ff-4601-4f33-b97f-da95bc589609","ios":"levelo://app?vid=1c2c73ff-4601-4f33-b97f-da95bc589609"},"vehicle_type_id":"4","last_reported":1699250994,"current_range_meters":14800,"station_id":"","pricing_plan_id":"free"},{"bike_id":"cffe800b-8e46-4367-92e9-d9a0f2cba0f2","system_id":"levelo_inurba_marseille","lat":43.299626,"lon":5.375372,"is_reserved":false,"is_disabled":false,"rental_uris":{"android":"levelo://app?vid=cffe800b-8e46-4367-92e9-d9a0f2cba0f2","ios":"levelo://app?vid=cffe800b-8e46-4367-92e9-d9a0f2cba0f2"},"vehicle_type_id":"4","last_reported":1699250994,"current_range_meters":20000,"station_id":"ce4bgjh2rcd13ifvqbg0","pricing_plan_id":"free"},{"bike_id":"6200df51-3e85-4f07-9609-15f53d88fe27","system_id":"levelo_inurba_marseille","lat":43.298433,"lon":5.362774,"is_reserved":false,"is_disabled":false,"rental_uris":{"android":"levelo://app?vid=6200df51-3e85-4f07-9609-15f53d88fe27","ios":"levelo://app?vid=6200df51-3e85-4f07-9609-15f53d88fe27"},"vehicle_type_id":"4","last_reported":1699250994,"current_range_meters":31200,"station_id":"ce4bgpp2rcd13ifvqc3g","pricing_plan_id":"free"},{"bike_id":"6356ee17-8b72-417a-bdee-b3d9d2998c38","system_id":"levelo_inurba_marseille","lat":43.299243,"lon":5.374807,"is_reserved":false,"is_disabled":false,"rental_uris":{"android":"levelo://app?vid=6356ee17-8b72-417a-bdee-b3d9d2998c38","ios":"levelo://app?vid=6356ee17-8b72-417a-bdee-b3d9d2998c38"},"vehicle_type_id":"4","last_reported":1699250994,"current_range_meters":31200,"station_id":"ce4bgjh2rcd13ifvqbg0","pricing_plan_id":"free"},{"bike_id":"72e833f5-f271-4277-a5b8-f3aa7e0d7da6","system_id":"levelo_inurba_marseille","lat":43.305364,"lon":5.384119,"is_reserved":false,"is_disabled":false,"rental_uris":{"android":"levelo://app?vid=72e833f5-f271-4277-a5b8-f3aa7e0d7da6","ios":"levelo://app?vid=72e833f5-f271-4277-a5b8-f3aa7e0d7da6"},"vehicle_type_id":"4","last_reported":1699250994,"current_range_meters":29200,"station_id":"ce4bgg92rcd13ifvqb30","pricing_plan_id":"free"},{"bike_id":"45e45d08-4873-466c-b305-2f2691cbd9e1","system_id":"levelo_inurba_marseille","lat":43.311722,"lon":5.387247,"is_reserved":false,"is_disabled":false,"rental_uris":{"android":"levelo://app?vid=45e45d08-4873-466c-b305-2f2691cbd9e1","ios":"levelo://app?vid=45e45d08-4873-466c-b305-2f2691cbd9e1"},"vehicle_type_id":"4","last_reported":1699250994,"current_range_meters":31200,"station_id":"ce4bgv12rcd13ifvqcp0","pricing_plan_id":"free"},{"bike_id":"8c0248b4-0310-4a76-a2e8-04f6dacf56c4","system_id":"levelo_inurba_marseille","lat":43.305364,"lon":5.384119,"is_reserved":false,"is_disabled":false,"rental_uris":{"android":"levelo://app?vid=8c0248b4-0310-4a76-a2e8-04f6dacf56c4","ios":"levelo://app?vid=8c0248b4-0310-4a76-a2e8-04f6dacf56c4"},"vehicle_type_id":"4","last_reported":1699250994,"current_range_meters":30400,"station_id":"ce4bgg92rcd13ifvqb30","pricing_plan_id":"free"},{"bike_id":"66ad5c8e-df1c-4ffa-ba34-6298155bcd2d","system_id":"levelo_inurba_marseille","lat":43.305364,"lon":5.384119,"is_reserved":false,"is_disabled":false,"rental_uris":{"android":"levelo://app?vid=66ad5c8e-df1c-4ffa-ba34-6298155bcd2d","ios":"levelo://app?vid=66ad5c8e-df1c-4ffa-ba34-6298155bcd2d"},"vehicle_type_id":"4","last_reported":1699250994,"current_range_meters":8000,"station_id":"ce4bgg92rcd13ifvqb30","pricing_plan_id":"free"},{"bike_id":"14fb25c7-ced4-468c-9909-5c390ed574ba","system_id":"levelo_inurba_marseille","lat":43.31167,"lon":5.38711,"is_reserved":false,"is_disabled":false,"rental_uris":{"android":"levelo://app?vid=14fb25c7-ced4-468c-9909-5c390ed574ba","ios":"levelo://app?vid=14fb25c7-ced4-468c-9909-5c390ed574ba"},"vehicle_type_id":"4","last_reported":1699250994,"current_range_meters":15200,"station_id":"ce4bgv12rcd13ifvqcp0","pricing_plan_id":"free"},{"bike_id":"4f2ea640-c5cf-4917-bd86-87e8bf5e3aab","system_id":"levelo_inurba_marseille","lat":43.311647,"lon":5.387117,"is_reserved":false,"is_disabled":false,"rental_uris":{"android":"levelo://app?vid=4f2ea640-c5cf-4917-bd86-87e8bf5e3aab","ios":"levelo://app?vid=4f2ea640-c5cf-4917-bd86-87e8bf5e3aab"},"vehicle_type_id":"4","last_reported":1699250994,"current_range_meters":24800,"station_id":"ce4bgv12rcd13ifvqcp0","pricing_plan_id":"free"},{"bike_id":"edd825be-3be3-436a-9025-762790285b7f","system_id":"levelo_inurba_marseille","lat":43.311722,"lon":5.387247,"is_reserved":false,"is_disabled":false,"rental_uris":{"android":"levelo://app?vid=edd825be-3be3-436a-9025-762790285b7f","ios":"levelo://app?vid=edd825be-3be3-436a-9025-762790285b7f"},"vehicle_type_id":"4","last_reported":1699250994,"current_range_meters":31200,"station_id":"ce4bgv12rcd13ifvqcp0","pricing_plan_id":"free"},{"bike_id":"3912e424-9ee7-41d9-95e0-469c471d2f46","system_id":"levelo_inurba_marseille","lat":43.31167,"lon":5.38713,"is_reserved":false,"is_disabled":false,"rental_uris":{"android":"levelo://app?vid=3912e424-9ee7-41d9-95e0-469c471d2f46","ios":"levelo://app?vid=3912e424-9ee7-41d9-95e0-469c471d2f46"},"vehicle_type_id":"4","last_reported":1699250994,"current_range_meters":9600,"station_id":"ce4bgv12rcd13ifvqcp0","pricing_plan_id":"free"},{"bike_id":"ed845ee5-3f28-470f-8dd0-f115bbaef3a0","system_id":"levelo_inurba_marseille","lat":43.311664,"lon":5.38713,"is_reserved":false,"is_disabled":false,"rental_uris":{"android":"levelo://app?vid=ed845ee5-3f28-470f-8dd0-f115bbaef3a0","ios":"levelo://app?vid=ed845ee5-3f28-470f-8dd0-f115bbaef3a0"},"vehicle_type_id":"4","last_reported":1699250994,"current_range_meters":28800,"station_id":"ce4bgv12rcd13ifvqcp0","pricing_plan_id":"free"},{"bike_id":"f854796f-a1a5-444c-b691-0c7ea36dbb87","system_id":"levelo_inurba_marseille","lat":43.311722,"lon":5.387247,"is_reserved":false,"is_disabled":false,"rental_uris":{"android":"levelo://app?vid=f854796f-a1a5-444c-b691-0c7ea36dbb87","ios":"levelo://app?vid=f854796f-a1a5-444c-b691-0c7ea36dbb87"},"vehicle_type_id":"4","last_reported":1699250994,"current_range_meters":26000,"station_id":"ce4bgv12rcd13ifvqcp0","pricing_plan_id":"free"},{"bike_id":"1b131862-57cd-4c72-833e-8dbb650f91fa","system_id":"levelo_inurba_marseille","lat":43.297774,"lon":5.370875,"is_reserved":false,"is_disabled":false,"rental_uris":{"android":"levelo://app?vid=1b131862-57cd-4c72-833e-8dbb650f91fa","ios":"levelo://app?vid=1b131862-57cd-4c72-833e-8dbb650f91fa"},"vehicle_type_id":"4","last_reported":1699250994,"current_range_meters":22000,"station_id":"ce4bgop2rcd13ifvqc1g","pricing_plan_id":"free"},{"bike_id":"ee04e5cc-451d-44b6-bca0-cfc749a45964","system_id":"levelo_inurba_marseille","lat":43.322872,"lon":5.382756,"is_reserved":false,"is_disabled":false,"rental_uris":{"android":"levelo://app?vid=ee04e5cc-451d-44b6-bca0-cfc749a45964","ios":"levelo://app?vid=ee04e5cc-451d-44b6-bca0-cfc749a45964"},"vehicle_type_id":"4","last_reported":1699250994,"current_range_meters":28800,"station_id":"ce4bhr12rcd13ifvqhqg","pricing_plan_id":"free"},{"bike_id":"fc364df6-92a6-432e-b5f4-c197416f53b8","system_id":"levelo_inurba_marseille","lat":43.322872,"lon":5.382756,"is_reserved":false,"is_disabled":false,"rental_uris":{"android":"levelo://app?vid=fc364df6-92a6-432e-b5f4-c197416f53b8","ios":"levelo://app?vid=fc364df6-92a6-432e-b5f4-c197416f53b8"},"vehicle_type_id":"4","last_reported":1699250994,"current_range_meters":26400,"station_id":"ce4bhr12rcd13ifvqhqg","pricing_plan_id":"free"},{"bike_id":"c5c33cb1-e61d-4922-94f2-23769f628597","system_id":"levelo_inurba_marseille","lat":43.286961,"lon":5.373785,"is_reserved":false,"is_disabled":false,"rental_uris":{"android":"levelo://app?vid=c5c33cb1-e61d-4922-94f2-23769f628597","ios":"levelo://app?vid=c5c33cb1-e61d-4922-94f2-23769f628597"},"vehicle_type_id":"4","last_reported":1699250994,"current_range_meters":5200,"station_id":"ce4bh3p2rcd13ifvqdq0","pricing_plan_id":"free"},{"bike_id":"c9428514-9197-4976-812b-d61139ef9187","system_id":"levelo_inurba_marseille","lat":43.318846,"lon":5.386473,"is_reserved":false,"is_disabled":false,"rental_uris":{"android":"levelo://app?vid=c9428514-9197-4976-812b-d61139ef9187","ios":"levelo://app?vid=c9428514-9197-4976-812b-d61139ef9187"},"vehicle_type_id":"4","last_reported":1699250994,"current_range_meters":2400,"station_id":"","pricing_plan_id":"free"},{"bike_id":"f300b2a4-e778-45cd-b589-ab357c11b1e4","system_id":"levelo_inurba_marseille","lat":43.32822,"lon":5.36681,"is_reserved":false,"is_disabled":false,"rental_uris":{"android":"levelo://app?vid=f300b2a4-e778-45cd-b589-ab357c11b1e4","ios":"levelo://app?vid=f300b2a4-e778-45cd-b589-ab357c11b1e4"},"vehicle_type_id":"4","last_reported":1699250994,"current_range_meters":31200,"station_id":"ce4bhs92rcd13ifvqi0g","pricing_plan_id":"free"},{"bike_id":"93505f3e-6636-4bb9-8e67-2b359dccaee3","system_id":"levelo_inurba_marseille","lat":43.328237,"lon":5.366804,"is_reserved":false,"is_disabled":false,"rental_uris":{"android":"levelo://app?vid=93505f3e-6636-4bb9-8e67-2b359dccaee3","ios":"levelo://app?vid=93505f3e-6636-4bb9-8e67-2b359dccaee3"},"vehicle_type_id":"4","last_reported":1699250994,"current_range_meters":30800,"station_id":"ce4bhs92rcd13ifvqi0g","pricing_plan_id":"free"},{"bike_id":"924b4db8-1056-4db8-aed0-805d18ef265f","system_id":"levelo_inurba_marseille","lat":43.297904,"lon":5.36067,"is_reserved":false,"is_disabled":false,"rental_uris":{"android":"levelo://app?vid=924b4db8-1056-4db8-aed0-805d18ef265f","ios":"levelo://app?vid=924b4db8-1056-4db8-aed0-805d18ef265f"},"vehicle_type_id":"4","last_reported":1699250994,"current_range_meters":3200,"station_id":"","pricing_plan_id":"free"},{"bike_id":"1031b64e-82b2-4e36-93e3-9e3ec33f042c","system_id":"levelo_inurba_marseille","lat":43.328291,"lon":5.366723,"is_reserved":false,"is_disabled":false,"rental_uris":{"android":"levelo://app?vid=1031b64e-82b2-4e36-93e3-9e3ec33f042c","ios":"levelo://app?vid=1031b64e-82b2-4e36-93e3-9e3ec33f042c"},"vehicle_type_id":"4","last_reported":1699250994,"current_range_meters":31200,"station_id":"ce4bhs92rcd13ifvqi0g","pricing_plan_id":"free"},{"bike_id":"30db7a17-80d8-46f3-8b83-c845542362b9","system_id":"levelo_inurba_marseille","lat":43.328371,"lon":5.366909,"is_reserved":false,"is_disabled":false,"rental_uris":{"android":"levelo://app?vid=30db7a17-80d8-46f3-8b83-c845542362b9","ios":"levelo://app?vid=30db7a17-80d8-46f3-8b83-c845542362b9"},"vehicle_type_id":"4","last_reported":1699250994,"current_range_meters":30400,"station_id":"ce4bhs92rcd13ifvqi0g","pricing_plan_id":"free"},{"bike_id":"0ddfaeef-7050-482d-beeb-ca7fb5e7d10d","system_id":"levelo_inurba_marseille","lat":43.328371,"lon":5.366909,"is_reserved":false,"is_disabled":false,"rental_uris":{"android":"levelo://app?vid=0ddfaeef-7050-482d-beeb-ca7fb5e7d10d","ios":"levelo://app?vid=0ddfaeef-7050-482d-beeb-ca7fb5e7d10d"},"vehicle_type_id":"4","last_reported":1699250994,"current_range_meters":11600,"station_id":"ce4bhs92rcd13ifvqi0g","pricing_plan_id":"free"},{"bike_id":"db0f48f6-a753-4c99-8cc1-5204a4a809ca","system_id":"levelo_inurba_marseille","lat":43.297136,"lon":5.366169,"is_reserved":false,"is_disabled":false,"rental_uris":{"android":"levelo://app?vid=db0f48f6-a753-4c99-8cc1-5204a4a809ca","ios":"levelo://app?vid=db0f48f6-a753-4c99-8cc1-5204a4a809ca"},"vehicle_type_id":"4","last_reported":1699250994,"current_range_meters":31200,"station_id":"ce4bgn12rcd13ifvqbt0","pricing_plan_id":"free"},{"bike_id":"cec70e1f-6fb5-45f8-926c-7ceffeb859e4","system_id":"levelo_inurba_marseille","lat":43.297049,"lon":5.366254,"is_reserved":false,"is_disabled":false,"rental_uris":{"android":"levelo://app?vid=cec70e1f-6fb5-45f8-926c-7ceffeb859e4","ios":"levelo://app?vid=cec70e1f-6fb5-45f8-926c-7ceffeb859e4"},"vehicle_type_id":"4","last_reported":1699250994,"current_range_meters":29600,"station_id":"ce4bgn12rcd13ifvqbt0","pricing_plan_id":"free"},{"bike_id":"67bb7dbe-50ea-4249-bc98-d0ad4814b4a6","system_id":"levelo_inurba_marseille","lat":43.321453,"lon":5.385595,"is_reserved":false,"is_disabled":false,"rental_uris":{"android":"levelo://app?vid=67bb7dbe-50ea-4249-bc98-d0ad4814b4a6","ios":"levelo://app?vid=67bb7dbe-50ea-4249-bc98-d0ad4814b4a6"},"vehicle_type_id":"4","last_reported":1699250994,"current_range_meters":12400,"station_id":"","pricing_plan_id":"free"},{"bike_id":"ac64cfce-5505-455a-9537-62af5dd3a90a","system_id":"levelo_inurba_marseille","lat":43.32355,"lon":5.38416,"is_reserved":false,"is_disabled":false,"rental_uris":{"android":"levelo://app?vid=ac64cfce-5505-455a-9537-62af5dd3a90a","ios":"levelo://app?vid=ac64cfce-5505-455a-9537-62af5dd3a90a"},"vehicle_type_id":"4","last_reported":1699250994,"current_range_meters":14000,"station_id":"","pricing_plan_id":"free"},{"bike_id":"077027cb-e273-4184-aefb-719a7d60f326","system_id":"levelo_inurba_marseille","lat":43.296255,"lon":5.371474,"is_reserved":false,"is_disabled":false,"rental_uris":{"android":"levelo://app?vid=077027cb-e273-4184-aefb-719a7d60f326","ios":"levelo://app?vid=077027cb-e273-4184-aefb-719a7d60f326"},"vehicle_type_id":"4","last_reported":1699250994,"current_range_meters":28800,"station_id":"ce4bgnh2rcd13ifvqc0g","pricing_plan_id":"free"},{"bike_id":"5a3e4389-a6dc-483b-abd6-709292f6e071","system_id":"levelo_inurba_marseille","lat":43.295873,"lon":5.367144,"is_reserved":false,"is_disabled":false,"rental_uris":{"android":"levelo://app?vid=5a3e4389-a6dc-483b-abd6-709292f6e071","ios":"levelo://app?vid=5a3e4389-a6dc-483b-abd6-709292f6e071"},"vehicle_type_id":"4","last_reported":1699250994,"current_range_meters":8000,"station_id":"ce4bgph2rcd13ifvqc2g","pricing_plan_id":"free"},{"bike_id":"ce78bd63-ac0b-4cc6-bfe8-c624e1eef97e","system_id":"levelo_inurba_marseille","lat":43.296188,"lon":5.371516,"is_reserved":false,"is_disabled":false,"rental_uris":{"android":"levelo://app?vid=ce78bd63-ac0b-4cc6-bfe8-c624e1eef97e","ios":"levelo://app?vid=ce78bd63-ac0b-4cc6-bfe8-c624e1eef97e"},"vehicle_type_id":"4","last_reported":1699250994,"current_range_meters":30400,"station_id":"ce4bgnh2rcd13ifvqc0g","pricing_plan_id":"free"},{"bike_id":"28c92d7f-19a0-4bc3-8b33-372afc62084d","system_id":"levelo_inurba_marseille","lat":43.299028,"lon":5.381509,"is_reserved":false,"is_disabled":false,"rental_uris":{"android":"levelo://app?vid=28c92d7f-19a0-4bc3-8b33-372afc62084d","ios":"levelo://app?vid=28c92d7f-19a0-4bc3-8b33-372afc62084d"},"vehicle_type_id":"4","last_reported":1699250994,"current_range_meters":21200,"station_id":"ce4bgj12rcd13ifvqbc0","pricing_plan_id":"free"},{"bike_id":"7d1ea96d-740d-4a32-8efd-acc34e801167","system_id":"levelo_inurba_marseille","lat":43.299028,"lon":5.381509,"is_reserved":false,"is_disabled":false,"rental_uris":{"android":"levelo://app?vid=7d1ea96d-740d-4a32-8efd-acc34e801167","ios":"levelo://app?vid=7d1ea96d-740d-4a32-8efd-acc34e801167"},"vehicle_type_id":"4","last_reported":1699250994,"current_range_meters":28400,"station_id":"ce4bgj12rcd13ifvqbc0","pricing_plan_id":"free"},{"bike_id":"e67a327c-200d-4916-a3b1-61db1924ba92","system_id":"levelo_inurba_marseille","lat":43.296921,"lon":5.376579,"is_reserved":false,"is_disabled":false,"rental_uris":{"android":"levelo://app?vid=e67a327c-200d-4916-a3b1-61db1924ba92","ios":"levelo://app?vid=e67a327c-200d-4916-a3b1-61db1924ba92"},"vehicle_type_id":"4","last_reported":1699250994,"current_range_meters":8800,"station_id":"ce4bgkh2rcd13ifvqbl0","pricing_plan_id":"free"},{"bike_id":"5d6b16a4-2911-4a14-b59e-706d93d9576d","system_id":"levelo_inurba_marseille","lat":43.309589,"lon":5.390258,"is_reserved":false,"is_disabled":false,"rental_uris":{"android":"levelo://app?vid=5d6b16a4-2911-4a14-b59e-706d93d9576d","ios":"levelo://app?vid=5d6b16a4-2911-4a14-b59e-706d93d9576d"},"vehicle_type_id":"4","last_reported":1699250994,"current_range_meters":24000,"station_id":"ce4bgup2rcd13ifvqco0","pricing_plan_id":"free"},{"bike_id":"31a64933-5413-4bbd-8327-0111223a4728","system_id":"levelo_inurba_marseille","lat":43.296935,"lon":5.376544,"is_reserved":false,"is_disabled":false,"rental_uris":{"android":"levelo://app?vid=31a64933-5413-4bbd-8327-0111223a4728","ios":"levelo://app?vid=31a64933-5413-4bbd-8327-0111223a4728"},"vehicle_type_id":"4","last_reported":1699250994,"current_range_meters":6800,"station_id":"ce4bgkh2rcd13ifvqbl0","pricing_plan_id":"free"},{"bike_id":"5ce9c0bf-e282-457b-bf1a-55835fccaa74","system_id":"levelo_inurba_marseille","lat":43.299028,"lon":5.381509,"is_reserved":false,"is_disabled":false,"rental_uris":{"android":"levelo://app?vid=5ce9c0bf-e282-457b-bf1a-55835fccaa74","ios":"levelo://app?vid=5ce9c0bf-e282-457b-bf1a-55835fccaa74"},"vehicle_type_id":"4","last_reported":1699250994,"current_range_meters":29600,"station_id":"ce4bgj12rcd13ifvqbc0","pricing_plan_id":"free"},{"bike_id":"624d080a-cd03-4fa3-8b7a-04ee2eec4c9c","system_id":"levelo_inurba_marseille","lat":43.309589,"lon":5.390258,"is_reserved":false,"is_disabled":false,"rental_uris":{"android":"levelo://app?vid=624d080a-cd03-4fa3-8b7a-04ee2eec4c9c","ios":"levelo://app?vid=624d080a-cd03-4fa3-8b7a-04ee2eec4c9c"},"vehicle_type_id":"4","last_reported":1699250994,"current_range_meters":31200,"station_id":"ce4bgup2rcd13ifvqco0","pricing_plan_id":"free"},{"bike_id":"300e9b2b-e31e-494b-af97-72bfff1c9932","system_id":"levelo_inurba_marseille","lat":43.309589,"lon":5.390258,"is_reserved":false,"is_disabled":false,"rental_uris":{"android":"levelo://app?vid=300e9b2b-e31e-494b-af97-72bfff1c9932","ios":"levelo://app?vid=300e9b2b-e31e-494b-af97-72bfff1c9932"},"vehicle_type_id":"4","last_reported":1699250994,"current_range_meters":28000,"station_id":"ce4bgup2rcd13ifvqco0","pricing_plan_id":"free"},{"bike_id":"7fa7e754-b2f7-4a16-a81f-4bbea3fa846c","system_id":"levelo_inurba_marseille","lat":43.317557,"lon":5.390173,"is_reserved":false,"is_disabled":false,"rental_uris":{"android":"levelo://app?vid=7fa7e754-b2f7-4a16-a81f-4bbea3fa846c","ios":"levelo://app?vid=7fa7e754-b2f7-4a16-a81f-4bbea3fa846c"},"vehicle_type_id":"4","last_reported":1699250994,"current_range_meters":27600,"station_id":"ce4bhqp2rcd13ifvqhng","pricing_plan_id":"free"},{"bike_id":"b29603e0-c111-4454-a703-5df9ef3882fd","system_id":"levelo_inurba_marseille","lat":43.295748,"lon":5.37522,"is_reserved":false,"is_disabled":false,"rental_uris":{"android":"levelo://app?vid=b29603e0-c111-4454-a703-5df9ef3882fd","ios":"levelo://app?vid=b29603e0-c111-4454-a703-5df9ef3882fd"},"vehicle_type_id":"4","last_reported":1699250994,"current_range_meters":24400,"station_id":"ce4bgh92rcd13ifvqb50","pricing_plan_id":"free"},{"bike_id":"fb9a8789-e75c-4eaa-afe8-80e056ebade2","system_id":"levelo_inurba_marseille","lat":43.295748,"lon":5.37522,"is_reserved":false,"is_disabled":false,"rental_uris":{"android":"levelo://app?vid=fb9a8789-e75c-4eaa-afe8-80e056ebade2","ios":"levelo://app?vid=fb9a8789-e75c-4eaa-afe8-80e056ebade2"},"vehicle_type_id":"4","last_reported":1699250994,"current_range_meters":28000,"station_id":"ce4bgh92rcd13ifvqb50","pricing_plan_id":"free"},{"bike_id":"9ed286d1-07ae-479c-9351-e45a883a6bfe","system_id":"levelo_inurba_marseille","lat":43.297934,"lon":5.381152,"is_reserved":false,"is_disabled":false,"rental_uris":{"android":"levelo://app?vid=9ed286d1-07ae-479c-9351-e45a883a6bfe","ios":"levelo://app?vid=9ed286d1-07ae-479c-9351-e45a883a6bfe"},"vehicle_type_id":"4","last_reported":1699250994,"current_range_meters":28800,"station_id":"ce4bgip2rcd13ifvqbb0","pricing_plan_id":"free"},{"bike_id":"99c7aa87-2c0d-48d0-b234-6b874d14ad19","system_id":"levelo_inurba_marseille","lat":43.295748,"lon":5.37522,"is_reserved":false,"is_disabled":false,"rental_uris":{"android":"levelo://app?vid=99c7aa87-2c0d-48d0-b234-6b874d14ad19","ios":"levelo://app?vid=99c7aa87-2c0d-48d0-b234-6b874d14ad19"},"vehicle_type_id":"4","last_reported":1699250994,"current_range_meters":26800,"station_id":"ce4bgh92rcd13ifvqb50","pricing_plan_id":"free"},{"bike_id":"3882cf5c-ce12-4960-a328-b3ed97ec8544","system_id":"levelo_inurba_marseille","lat":43.295748,"lon":5.37522,"is_reserved":false,"is_disabled":false,"rental_uris":{"android":"levelo://app?vid=3882cf5c-ce12-4960-a328-b3ed97ec8544","ios":"levelo://app?vid=3882cf5c-ce12-4960-a328-b3ed97ec8544"},"vehicle_type_id":"4","last_reported":1699250994,"current_range_meters":31200,"station_id":"ce4bgh92rcd13ifvqb50","pricing_plan_id":"free"},{"bike_id":"ab011d97-f47e-4b63-94d6-e70cf803ec7c","system_id":"levelo_inurba_marseille","lat":43.296263,"lon":5.377094,"is_reserved":false,"is_disabled":false,"rental_uris":{"android":"levelo://app?vid=ab011d97-f47e-4b63-94d6-e70cf803ec7c","ios":"levelo://app?vid=ab011d97-f47e-4b63-94d6-e70cf803ec7c"},"vehicle_type_id":"4","last_reported":1699250994,"current_range_meters":30400,"station_id":"ce4bgi92rcd13ifvqb90","pricing_plan_id":"free"},{"bike_id":"1f580447-7b2c-4630-9a51-33e28281b372","system_id":"levelo_inurba_marseille","lat":43.329065,"lon":5.379814,"is_reserved":false,"is_disabled":false,"rental_uris":{"android":"levelo://app?vid=1f580447-7b2c-4630-9a51-33e28281b372","ios":"levelo://app?vid=1f580447-7b2c-4630-9a51-33e28281b372"},"vehicle_type_id":"4","last_reported":1699250994,"current_range_meters":9200,"station_id":"","pricing_plan_id":"free"},{"bike_id":"ecf94d7b-2238-4a61-8042-e3febbffae63","system_id":"levelo_inurba_marseille","lat":43.299323,"lon":5.385518,"is_reserved":false,"is_disabled":false,"rental_uris":{"android":"levelo://app?vid=ecf94d7b-2238-4a61-8042-e3febbffae63","ios":"levelo://app?vid=ecf94d7b-2238-4a61-8042-e3febbffae63"},"vehicle_type_id":"4","last_reported":1699250994,"current_range_meters":21600,"station_id":"","pricing_plan_id":"free"},{"bike_id":"de84ff0b-ce84-4608-a591-78a513e799da","system_id":"levelo_inurba_marseille","lat":43.323553,"lon":5.38883,"is_reserved":false,"is_disabled":false,"rental_uris":{"android":"levelo://app?vid=de84ff0b-ce84-4608-a591-78a513e799da","ios":"levelo://app?vid=de84ff0b-ce84-4608-a591-78a513e799da"},"vehicle_type_id":"4","last_reported":1699250994,"current_range_meters":5200,"station_id":"ce4bhqp2rcd13ifvqhog","pricing_plan_id":"free"},{"bike_id":"7cc1a84d-0290-4f9d-9c7d-35c2d8f1b81d","system_id":"levelo_inurba_marseille","lat":43.323648,"lon":5.38882,"is_reserved":false,"is_disabled":false,"rental_uris":{"android":"levelo://app?vid=7cc1a84d-0290-4f9d-9c7d-35c2d8f1b81d","ios":"levelo://app?vid=7cc1a84d-0290-4f9d-9c7d-35c2d8f1b81d"},"vehicle_type_id":"4","last_reported":1699250994,"current_range_meters":7200,"station_id":"ce4bhqp2rcd13ifvqhog","pricing_plan_id":"free"},{"bike_id":"84ebe648-01a3-4f6a-a446-dad7eedd05e2","system_id":"levelo_inurba_marseille","lat":43.29601,"lon":5.381084,"is_reserved":false,"is_disabled":false,"rental_uris":{"android":"levelo://app?vid=84ebe648-01a3-4f6a-a446-dad7eedd05e2","ios":"levelo://app?vid=84ebe648-01a3-4f6a-a446-dad7eedd05e2"},"vehicle_type_id":"4","last_reported":1699250994,"current_range_meters":27600,"station_id":"ce4bgl12rcd13ifvqbo0","pricing_plan_id":"free"},{"bike_id":"b11740f6-bf1c-4caf-9923-e65748401594","system_id":"levelo_inurba_marseille","lat":43.29283,"lon":5.36847,"is_reserved":false,"is_disabled":false,"rental_uris":{"android":"levelo://app?vid=b11740f6-bf1c-4caf-9923-e65748401594","ios":"levelo://app?vid=b11740f6-bf1c-4caf-9923-e65748401594"},"vehicle_type_id":"4","last_reported":1699250994,"current_range_meters":28000,"station_id":"ce4bhbp2rcd13ifvqesg","pricing_plan_id":"free"},{"bike_id":"c6128baf-0449-49d2-a6af-d968094830b4","system_id":"levelo_inurba_marseille","lat":43.293065,"lon":5.371831,"is_reserved":false,"is_disabled":false,"rental_uris":{"android":"levelo://app?vid=c6128baf-0449-49d2-a6af-d968094830b4","ios":"levelo://app?vid=c6128baf-0449-49d2-a6af-d968094830b4"},"vehicle_type_id":"4","last_reported":1699250994,"current_range_meters":31200,"station_id":"ce4bgh92rcd13ifvqb40","pricing_plan_id":"free"},{"bike_id":"7f17e838-6c15-44cd-a3a9-cbf533b0d155","system_id":"levelo_inurba_marseille","lat":43.293051,"lon":5.371824,"is_reserved":false,"is_disabled":false,"rental_uris":{"android":"levelo://app?vid=7f17e838-6c15-44cd-a3a9-cbf533b0d155","ios":"levelo://app?vid=7f17e838-6c15-44cd-a3a9-cbf533b0d155"},"vehicle_type_id":"4","last_reported":1699250994,"current_range_meters":30800,"station_id":"ce4bgh92rcd13ifvqb40","pricing_plan_id":"free"},{"bike_id":"5f618d91-bc45-4c3e-8a3d-a9ebbb1d4190","system_id":"levelo_inurba_marseille","lat":43.292749,"lon":5.368402,"is_reserved":false,"is_disabled":false,"rental_uris":{"android":"levelo://app?vid=5f618d91-bc45-4c3e-8a3d-a9ebbb1d4190","ios":"levelo://app?vid=5f618d91-bc45-4c3e-8a3d-a9ebbb1d4190"},"vehicle_type_id":"4","last_reported":1699250994,"current_range_meters":31200,"station_id":"ce4bhbp2rcd13ifvqesg","pricing_plan_id":"free"},{"bike_id":"2e62abea-bb34-4429-8b96-37f4380e3251","system_id":"levelo_inurba_marseille","lat":43.293014,"lon":5.37181,"is_reserved":false,"is_disabled":false,"rental_uris":{"android":"levelo://app?vid=2e62abea-bb34-4429-8b96-37f4380e3251","ios":"levelo://app?vid=2e62abea-bb34-4429-8b96-37f4380e3251"},"vehicle_type_id":"4","last_reported":1699250994,"current_range_meters":30800,"station_id":"ce4bgh92rcd13ifvqb40","pricing_plan_id":"free"},{"bike_id":"7bf29d38-2093-4632-bd9c-14b7184c5f15","system_id":"levelo_inurba_marseille","lat":43.292712,"lon":5.368484,"is_reserved":false,"is_disabled":false,"rental_uris":{"android":"levelo://app?vid=7bf29d38-2093-4632-bd9c-14b7184c5f15","ios":"levelo://app?vid=7bf29d38-2093-4632-bd9c-14b7184c5f15"},"vehicle_type_id":"4","last_reported":1699250994,"current_range_meters":30400,"station_id":"ce4bhbp2rcd13ifvqesg","pricing_plan_id":"free"},{"bike_id":"23a42442-dcac-45e8-a979-5e46c87d3e1d","system_id":"levelo_inurba_marseille","lat":43.292701,"lon":5.368425,"is_reserved":false,"is_disabled":false,"rental_uris":{"android":"levelo://app?vid=23a42442-dcac-45e8-a979-5e46c87d3e1d","ios":"levelo://app?vid=23a42442-dcac-45e8-a979-5e46c87d3e1d"},"vehicle_type_id":"4","last_reported":1699250994,"current_range_meters":30400,"station_id":"ce4bhbp2rcd13ifvqesg","pricing_plan_id":"free"},{"bike_id":"fb5030e1-ede6-440f-924f-37c5e53ac9d4","system_id":"levelo_inurba_marseille","lat":43.293009,"lon":5.374584,"is_reserved":false,"is_disabled":false,"rental_uris":{"android":"levelo://app?vid=fb5030e1-ede6-440f-924f-37c5e53ac9d4","ios":"levelo://app?vid=fb5030e1-ede6-440f-924f-37c5e53ac9d4"},"vehicle_type_id":"4","last_reported":1699250994,"current_range_meters":24400,"station_id":"ce4bgi12rcd13ifvqb70","pricing_plan_id":"free"},{"bike_id":"95b38f76-361d-45af-93a5-4380100f8206","system_id":"levelo_inurba_marseille","lat":43.305475,"lon":5.393459,"is_reserved":false,"is_disabled":false,"rental_uris":{"android":"levelo://app?vid=95b38f76-361d-45af-93a5-4380100f8206","ios":"levelo://app?vid=95b38f76-361d-45af-93a5-4380100f8206"},"vehicle_type_id":"4","last_reported":1699250994,"current_range_meters":27600,"station_id":"","pricing_plan_id":"free"},{"bike_id":"7ab20f65-2a29-44a7-842c-35db003dd870","system_id":"levelo_inurba_marseille","lat":43.303012,"lon":5.392183,"is_reserved":false,"is_disabled":false,"rental_uris":{"android":"levelo://app?vid=7ab20f65-2a29-44a7-842c-35db003dd870","ios":"levelo://app?vid=7ab20f65-2a29-44a7-842c-35db003dd870"},"vehicle_type_id":"4","last_reported":1699250994,"current_range_meters":15600,"station_id":"","pricing_plan_id":"free"},{"bike_id":"3269aa5a-6a8a-4189-a596-c8e21dae8e47","system_id":"levelo_inurba_marseille","lat":43.292311,"lon":5.360731,"is_reserved":false,"is_disabled":false,"rental_uris":{"android":"levelo://app?vid=3269aa5a-6a8a-4189-a596-c8e21dae8e47","ios":"levelo://app?vid=3269aa5a-6a8a-4189-a596-c8e21dae8e47"},"vehicle_type_id":"4","last_reported":1699250994,"current_range_meters":31200,"station_id":"ce4bhbh2rcd13ifvqeqg","pricing_plan_id":"free"},{"bike_id":"1c98eae4-5612-4c0f-a624-564450c89d0c","system_id":"levelo_inurba_marseille","lat":43.273129,"lon":5.390725,"is_reserved":false,"is_disabled":false,"rental_uris":{"android":"levelo://app?vid=1c98eae4-5612-4c0f-a624-564450c89d0c","ios":"levelo://app?vid=1c98eae4-5612-4c0f-a624-564450c89d0c"},"vehicle_type_id":"4","last_reported":1699250994,"current_range_meters":19200,"station_id":"ce4bhgp2rcd13ifvqfe0","pricing_plan_id":"free"},{"bike_id":"5ee0837d-da8e-412e-9a4d-75678ee4e28a","system_id":"levelo_inurba_marseille","lat":43.293713,"lon":5.378573,"is_reserved":false,"is_disabled":false,"rental_uris":{"android":"levelo://app?vid=5ee0837d-da8e-412e-9a4d-75678ee4e28a","ios":"levelo://app?vid=5ee0837d-da8e-412e-9a4d-75678ee4e28a"},"vehicle_type_id":"4","last_reported":1699250994,"current_range_meters":11600,"station_id":"ce4bhhp2rcd13ifvqfm0","pricing_plan_id":"free"},{"bike_id":"ecd5fcfb-e675-41c4-803e-df009ca85e60","system_id":"levelo_inurba_marseille","lat":43.309858,"lon":5.395376,"is_reserved":false,"is_disabled":false,"rental_uris":{"android":"levelo://app?vid=ecd5fcfb-e675-41c4-803e-df009ca85e60","ios":"levelo://app?vid=ecd5fcfb-e675-41c4-803e-df009ca85e60"},"vehicle_type_id":"4","last_reported":1699250994,"current_range_meters":5600,"station_id":"","pricing_plan_id":"free"},{"bike_id":"1a378c36-4be4-4948-8542-06547744d3bf","system_id":"levelo_inurba_marseille","lat":43.292311,"lon":5.360731,"is_reserved":false,"is_disabled":false,"rental_uris":{"android":"levelo://app?vid=1a378c36-4be4-4948-8542-06547744d3bf","ios":"levelo://app?vid=1a378c36-4be4-4948-8542-06547744d3bf"},"vehicle_type_id":"4","last_reported":1699250994,"current_range_meters":25600,"station_id":"ce4bhbh2rcd13ifvqeqg","pricing_plan_id":"free"},{"bike_id":"1575422b-f99f-4525-ab00-681f712b3765","system_id":"levelo_inurba_marseille","lat":43.3331,"lon":5.35949,"is_reserved":false,"is_disabled":false,"rental_uris":{"android":"levelo://app?vid=1575422b-f99f-4525-ab00-681f712b3765","ios":"levelo://app?vid=1575422b-f99f-4525-ab00-681f712b3765"},"vehicle_type_id":"4","last_reported":1699250994,"current_range_meters":6800,"station_id":"","pricing_plan_id":"free"},{"bike_id":"be4a559c-3ccd-487e-b8df-5e37f6c1bb24","system_id":"levelo_inurba_marseille","lat":43.29269,"lon":5.37621,"is_reserved":false,"is_disabled":false,"rental_uris":{"android":"levelo://app?vid=be4a559c-3ccd-487e-b8df-5e37f6c1bb24","ios":"levelo://app?vid=be4a559c-3ccd-487e-b8df-5e37f6c1bb24"},"vehicle_type_id":"4","last_reported":1699250994,"current_range_meters":30800,"station_id":"ce4bgi12rcd13ifvqb80","pricing_plan_id":"free"},{"bike_id":"8f589377-6977-4d66-8e14-2d52d6bdfa90","system_id":"levelo_inurba_marseille","lat":43.291675,"lon":5.371583,"is_reserved":false,"is_disabled":false,"rental_uris":{"android":"levelo://app?vid=8f589377-6977-4d66-8e14-2d52d6bdfa90","ios":"levelo://app?vid=8f589377-6977-4d66-8e14-2d52d6bdfa90"},"vehicle_type_id":"4","last_reported":1699250994,"current_range_meters":30000,"station_id":"ce4bha92rcd13ifvqeh0","pricing_plan_id":"free"},{"bike_id":"d797f1e6-f3ca-4ad7-8b56-5ed6191da53c","system_id":"levelo_inurba_marseille","lat":43.292663,"lon":5.376389,"is_reserved":false,"is_disabled":false,"rental_uris":{"android":"levelo://app?vid=d797f1e6-f3ca-4ad7-8b56-5ed6191da53c","ios":"levelo://app?vid=d797f1e6-f3ca-4ad7-8b56-5ed6191da53c"},"vehicle_type_id":"4","last_reported":1699250994,"current_range_meters":28800,"station_id":"ce4bgi12rcd13ifvqb80","pricing_plan_id":"free"},{"bike_id":"0e8233d2-0d57-470f-8c07-e9f753046a4f","system_id":"levelo_inurba_marseille","lat":43.33217,"lon":5.3788,"is_reserved":false,"is_disabled":false,"rental_uris":{"android":"levelo://app?vid=0e8233d2-0d57-470f-8c07-e9f753046a4f","ios":"levelo://app?vid=0e8233d2-0d57-470f-8c07-e9f753046a4f"},"vehicle_type_id":"4","last_reported":1699250994,"current_range_meters":6400,"station_id":"","pricing_plan_id":"free"},{"bike_id":"79d85e0e-5f9d-4f9b-99c2-a063c45d39fa","system_id":"levelo_inurba_marseille","lat":43.291675,"lon":5.371583,"is_reserved":false,"is_disabled":false,"rental_uris":{"android":"levelo://app?vid=79d85e0e-5f9d-4f9b-99c2-a063c45d39fa","ios":"levelo://app?vid=79d85e0e-5f9d-4f9b-99c2-a063c45d39fa"},"vehicle_type_id":"4","last_reported":1699250994,"current_range_meters":27200,"station_id":"ce4bha92rcd13ifvqeh0","pricing_plan_id":"free"},{"bike_id":"50ee85de-1347-4746-a69c-b278a681ee60","system_id":"levelo_inurba_marseille","lat":43.291671,"lon":5.371575,"is_reserved":false,"is_disabled":false,"rental_uris":{"android":"levelo://app?vid=50ee85de-1347-4746-a69c-b278a681ee60","ios":"levelo://app?vid=50ee85de-1347-4746-a69c-b278a681ee60"},"vehicle_type_id":"4","last_reported":1699250994,"current_range_meters":18800,"station_id":"ce4bha92rcd13ifvqeh0","pricing_plan_id":"free"},{"bike_id":"260c645f-b280-4251-8fb9-e89c0f995509","system_id":"levelo_inurba_marseille","lat":43.332121,"lon":5.379996,"is_reserved":false,"is_disabled":false,"rental_uris":{"android":"levelo://app?vid=260c645f-b280-4251-8fb9-e89c0f995509","ios":"levelo://app?vid=260c645f-b280-4251-8fb9-e89c0f995509"},"vehicle_type_id":"4","last_reported":1699250994,"current_range_meters":4400,"station_id":"ce4bhs92rcd13ifvqi0g","pricing_plan_id":"free"},{"bike_id":"eff5fb6c-33cf-48e6-bda2-a9df6510700e","system_id":"levelo_inurba_marseille","lat":43.308885,"lon":5.396316,"is_reserved":false,"is_disabled":false,"rental_uris":{"android":"levelo://app?vid=eff5fb6c-33cf-48e6-bda2-a9df6510700e","ios":"levelo://app?vid=eff5fb6c-33cf-48e6-bda2-a9df6510700e"},"vehicle_type_id":"4","last_reported":1699250994,"current_range_meters":0,"station_id":"ce4bh012rcd13ifvqcv0","pricing_plan_id":"free"},{"bike_id":"3253dbda-0eb9-469c-92ae-b1268f4fee13","system_id":"levelo_inurba_marseille","lat":43.29199,"lon":5.35805,"is_reserved":false,"is_disabled":false,"rental_uris":{"android":"levelo://app?vid=3253dbda-0eb9-469c-92ae-b1268f4fee13","ios":"levelo://app?vid=3253dbda-0eb9-469c-92ae-b1268f4fee13"},"vehicle_type_id":"4","last_reported":1699250994,"current_range_meters":24000,"station_id":"ce4bhb12rcd13ifvqel0","pricing_plan_id":"free"},{"bike_id":"34366840-ba92-4692-afe7-0a4fa58876d1","system_id":"levelo_inurba_marseille","lat":43.309038,"lon":5.396546,"is_reserved":false,"is_disabled":false,"rental_uris":{"android":"levelo://app?vid=34366840-ba92-4692-afe7-0a4fa58876d1","ios":"levelo://app?vid=34366840-ba92-4692-afe7-0a4fa58876d1"},"vehicle_type_id":"4","last_reported":1699250994,"current_range_meters":28800,"station_id":"ce4bh012rcd13ifvqcv0","pricing_plan_id":"free"},{"bike_id":"aa4e793e-57ca-4c94-a305-71353b069493","system_id":"levelo_inurba_marseille","lat":43.309038,"lon":5.396546,"is_reserved":false,"is_disabled":false,"rental_uris":{"android":"levelo://app?vid=aa4e793e-57ca-4c94-a305-71353b069493","ios":"levelo://app?vid=aa4e793e-57ca-4c94-a305-71353b069493"},"vehicle_type_id":"4","last_reported":1699250994,"current_range_meters":31200,"station_id":"ce4bh012rcd13ifvqcv0","pricing_plan_id":"free"},{"bike_id":"eae89603-657a-4fc1-a9e8-19e6c50d5a3c","system_id":"levelo_inurba_marseille","lat":43.291994,"lon":5.357886,"is_reserved":false,"is_disabled":false,"rental_uris":{"android":"levelo://app?vid=eae89603-657a-4fc1-a9e8-19e6c50d5a3c","ios":"levelo://app?vid=eae89603-657a-4fc1-a9e8-19e6c50d5a3c"},"vehicle_type_id":"4","last_reported":1699250994,"current_range_meters":26000,"station_id":"ce4bhb12rcd13ifvqel0","pricing_plan_id":"free"},{"bike_id":"17c92fc4-0906-4ea9-a394-88e919d5133d","system_id":"levelo_inurba_marseille","lat":43.313323,"lon":5.396887,"is_reserved":false,"is_disabled":false,"rental_uris":{"android":"levelo://app?vid=17c92fc4-0906-4ea9-a394-88e919d5133d","ios":"levelo://app?vid=17c92fc4-0906-4ea9-a394-88e919d5133d"},"vehicle_type_id":"4","last_reported":1699250994,"current_range_meters":3600,"station_id":"ce4bgvp2rcd13ifvqcu0","pricing_plan_id":"free"},{"bike_id":"9bd095cc-e904-4576-bca0-ee817349110c","system_id":"levelo_inurba_marseille","lat":43.309038,"lon":5.396546,"is_reserved":false,"is_disabled":false,"rental_uris":{"android":"levelo://app?vid=9bd095cc-e904-4576-bca0-ee817349110c","ios":"levelo://app?vid=9bd095cc-e904-4576-bca0-ee817349110c"},"vehicle_type_id":"4","last_reported":1699250994,"current_range_meters":31200,"station_id":"ce4bh012rcd13ifvqcv0","pricing_plan_id":"free"},{"bike_id":"67755451-50cb-4853-8b3f-194cd24160ac","system_id":"levelo_inurba_marseille","lat":43.309038,"lon":5.396546,"is_reserved":false,"is_disabled":false,"rental_uris":{"android":"levelo://app?vid=67755451-50cb-4853-8b3f-194cd24160ac","ios":"levelo://app?vid=67755451-50cb-4853-8b3f-194cd24160ac"},"vehicle_type_id":"4","last_reported":1699250994,"current_range_meters":31200,"station_id":"ce4bh012rcd13ifvqcv0","pricing_plan_id":"free"},{"bike_id":"bbde3555-f51d-435a-ab1e-b73f54cc60af","system_id":"levelo_inurba_marseille","lat":43.291878,"lon":5.357922,"is_reserved":false,"is_disabled":false,"rental_uris":{"android":"levelo://app?vid=bbde3555-f51d-435a-ab1e-b73f54cc60af","ios":"levelo://app?vid=bbde3555-f51d-435a-ab1e-b73f54cc60af"},"vehicle_type_id":"4","last_reported":1699250994,"current_range_meters":12800,"station_id":"ce4bhb12rcd13ifvqel0","pricing_plan_id":"free"},{"bike_id":"69e42ad0-f356-43b8-8dc2-4b42e2e746a0","system_id":"levelo_inurba_marseille","lat":43.313204,"lon":5.396972,"is_reserved":false,"is_disabled":false,"rental_uris":{"android":"levelo://app?vid=69e42ad0-f356-43b8-8dc2-4b42e2e746a0","ios":"levelo://app?vid=69e42ad0-f356-43b8-8dc2-4b42e2e746a0"},"vehicle_type_id":"4","last_reported":1699250994,"current_range_meters":20000,"station_id":"ce4bgvp2rcd13ifvqcu0","pricing_plan_id":"free"},{"bike_id":"21426a0d-604c-4933-9dde-aad2feebdc38","system_id":"levelo_inurba_marseille","lat":43.33274,"lon":5.37964,"is_reserved":false,"is_disabled":false,"rental_uris":{"android":"levelo://app?vid=21426a0d-604c-4933-9dde-aad2feebdc38","ios":"levelo://app?vid=21426a0d-604c-4933-9dde-aad2feebdc38"},"vehicle_type_id":"4","last_reported":1699250994,"current_range_meters":0,"station_id":"ce4bhs92rcd13ifvqi0g","pricing_plan_id":"free"},{"bike_id":"05599c4d-f647-4550-bb88-2d643b799298","system_id":"levelo_inurba_marseille","lat":43.302108,"lon":5.394727,"is_reserved":false,"is_disabled":false,"rental_uris":{"android":"levelo://app?vid=05599c4d-f647-4550-bb88-2d643b799298","ios":"levelo://app?vid=05599c4d-f647-4550-bb88-2d643b799298"},"vehicle_type_id":"4","last_reported":1699250994,"current_range_meters":0,"station_id":"ce4bh0p2rcd13ifvqd70","pricing_plan_id":"free"},{"bike_id":"9fc77789-331b-4826-b719-9c805662d306","system_id":"levelo_inurba_marseille","lat":43.290631,"lon":5.359244,"is_reserved":false,"is_disabled":false,"rental_uris":{"android":"levelo://app?vid=9fc77789-331b-4826-b719-9c805662d306","ios":"levelo://app?vid=9fc77789-331b-4826-b719-9c805662d306"},"vehicle_type_id":"4","last_reported":1699250994,"current_range_meters":31200,"station_id":"ce4bha92rcd13ifvqeg0","pricing_plan_id":"free"},{"bike_id":"8e426103-52df-405e-a7e2-31f20f0c7417","system_id":"levelo_inurba_marseille","lat":43.290624,"lon":5.359245,"is_reserved":false,"is_disabled":false,"rental_uris":{"android":"levelo://app?vid=8e426103-52df-405e-a7e2-31f20f0c7417","ios":"levelo://app?vid=8e426103-52df-405e-a7e2-31f20f0c7417"},"vehicle_type_id":"4","last_reported":1699250994,"current_range_meters":29200,"station_id":"ce4bha92rcd13ifvqeg0","pricing_plan_id":"free"},{"bike_id":"8e76bb40-9b83-4965-97dd-4cc4671d4be1","system_id":"levelo_inurba_marseille","lat":43.289184,"lon":5.366408,"is_reserved":false,"is_disabled":false,"rental_uris":{"android":"levelo://app?vid=8e76bb40-9b83-4965-97dd-4cc4671d4be1","ios":"levelo://app?vid=8e76bb40-9b83-4965-97dd-4cc4671d4be1"},"vehicle_type_id":"4","last_reported":1699250994,"current_range_meters":31200,"station_id":"ce4bhap2rcd13ifvqek0","pricing_plan_id":"free"},{"bike_id":"cc12affb-82fb-4e42-9d35-e69a84e3442b","system_id":"levelo_inurba_marseille","lat":43.289184,"lon":5.366408,"is_reserved":false,"is_disabled":false,"rental_uris":{"android":"levelo://app?vid=cc12affb-82fb-4e42-9d35-e69a84e3442b","ios":"levelo://app?vid=cc12affb-82fb-4e42-9d35-e69a84e3442b"},"vehicle_type_id":"4","last_reported":1699250994,"current_range_meters":31200,"station_id":"ce4bhap2rcd13ifvqek0","pricing_plan_id":"free"},{"bike_id":"6292aba5-5598-4cd9-918c-185a5e64957b","system_id":"levelo_inurba_marseille","lat":43.289184,"lon":5.366408,"is_reserved":false,"is_disabled":false,"rental_uris":{"android":"levelo://app?vid=6292aba5-5598-4cd9-918c-185a5e64957b","ios":"levelo://app?vid=6292aba5-5598-4cd9-918c-185a5e64957b"},"vehicle_type_id":"4","last_reported":1699250994,"current_range_meters":31200,"station_id":"ce4bhap2rcd13ifvqek0","pricing_plan_id":"free"},{"bike_id":"6e0ccc9e-1219-42ed-9f09-adf10750e171","system_id":"levelo_inurba_marseille","lat":43.289342,"lon":5.366294,"is_reserved":false,"is_disabled":false,"rental_uris":{"android":"levelo://app?vid=6e0ccc9e-1219-42ed-9f09-adf10750e171","ios":"levelo://app?vid=6e0ccc9e-1219-42ed-9f09-adf10750e171"},"vehicle_type_id":"4","last_reported":1699250994,"current_range_meters":30400,"station_id":"ce4bhap2rcd13ifvqek0","pricing_plan_id":"free"},{"bike_id":"529ffbe3-2cbd-4a06-b9ea-0e476f3fe6f9","system_id":"levelo_inurba_marseille","lat":43.289468,"lon":5.363719,"is_reserved":false,"is_disabled":false,"rental_uris":{"android":"levelo://app?vid=529ffbe3-2cbd-4a06-b9ea-0e476f3fe6f9","ios":"levelo://app?vid=529ffbe3-2cbd-4a06-b9ea-0e476f3fe6f9"},"vehicle_type_id":"4","last_reported":1699250994,"current_range_meters":24800,"station_id":"ce4bhc92rcd13ifvqetg","pricing_plan_id":"free"},{"bike_id":"5b6da57e-d514-4540-9c86-1851270b4e02","system_id":"levelo_inurba_marseille","lat":43.289468,"lon":5.363719,"is_reserved":false,"is_disabled":false,"rental_uris":{"android":"levelo://app?vid=5b6da57e-d514-4540-9c86-1851270b4e02","ios":"levelo://app?vid=5b6da57e-d514-4540-9c86-1851270b4e02"},"vehicle_type_id":"4","last_reported":1699250994,"current_range_meters":30800,"station_id":"ce4bhc92rcd13ifvqetg","pricing_plan_id":"free"},{"bike_id":"37e4a033-7be5-465b-b88e-8fa5b2e39288","system_id":"levelo_inurba_marseille","lat":43.289468,"lon":5.363719,"is_reserved":false,"is_disabled":false,"rental_uris":{"android":"levelo://app?vid=37e4a033-7be5-465b-b88e-8fa5b2e39288","ios":"levelo://app?vid=37e4a033-7be5-465b-b88e-8fa5b2e39288"},"vehicle_type_id":"4","last_reported":1699250994,"current_range_meters":30800,"station_id":"ce4bhc92rcd13ifvqetg","pricing_plan_id":"free"},{"bike_id":"99cf6a7f-35bc-41b3-bc13-9995b703ecbc","system_id":"levelo_inurba_marseille","lat":43.290104,"lon":5.356111,"is_reserved":false,"is_disabled":false,"rental_uris":{"android":"levelo://app?vid=99cf6a7f-35bc-41b3-bc13-9995b703ecbc","ios":"levelo://app?vid=99cf6a7f-35bc-41b3-bc13-9995b703ecbc"},"vehicle_type_id":"4","last_reported":1699250994,"current_range_meters":22800,"station_id":"ce4bhb92rcd13ifvqen0","pricing_plan_id":"free"},{"bike_id":"c3a70468-5499-4efc-8bdd-1a171bb90ae9","system_id":"levelo_inurba_marseille","lat":43.330424,"lon":5.389187,"is_reserved":false,"is_disabled":false,"rental_uris":{"android":"levelo://app?vid=c3a70468-5499-4efc-8bdd-1a171bb90ae9","ios":"levelo://app?vid=c3a70468-5499-4efc-8bdd-1a171bb90ae9"},"vehicle_type_id":"4","last_reported":1699250994,"current_range_meters":18800,"station_id":"ce4bhr92rcd13ifvqhrg","pricing_plan_id":"free"},{"bike_id":"5ca84395-5828-4291-88b2-5a2de2811830","system_id":"levelo_inurba_marseille","lat":43.33047,"lon":5.38912,"is_reserved":false,"is_disabled":false,"rental_uris":{"android":"levelo://app?vid=5ca84395-5828-4291-88b2-5a2de2811830","ios":"levelo://app?vid=5ca84395-5828-4291-88b2-5a2de2811830"},"vehicle_type_id":"4","last_reported":1699250994,"current_range_meters":13600,"station_id":"ce4bhr92rcd13ifvqhrg","pricing_plan_id":"free"},{"bike_id":"5c4fc87a-0b0b-4485-977f-72c44b126e93","system_id":"levelo_inurba_marseille","lat":43.330442,"lon":5.389148,"is_reserved":false,"is_disabled":false,"rental_uris":{"android":"levelo://app?vid=5c4fc87a-0b0b-4485-977f-72c44b126e93","ios":"levelo://app?vid=5c4fc87a-0b0b-4485-977f-72c44b126e93"},"vehicle_type_id":"4","last_reported":1699250994,"current_range_meters":9200,"station_id":"ce4bhr92rcd13ifvqhrg","pricing_plan_id":"free"},{"bike_id":"fe3b3944-f50a-4dff-aec7-9f1e09267003","system_id":"levelo_inurba_marseille","lat":43.330442,"lon":5.389148,"is_reserved":false,"is_disabled":false,"rental_uris":{"android":"levelo://app?vid=fe3b3944-f50a-4dff-aec7-9f1e09267003","ios":"levelo://app?vid=fe3b3944-f50a-4dff-aec7-9f1e09267003"},"vehicle_type_id":"4","last_reported":1699250994,"current_range_meters":23200,"station_id":"ce4bhr92rcd13ifvqhrg","pricing_plan_id":"free"},{"bike_id":"6f0b4054-13ec-4252-95ad-acb604fd0714","system_id":"levelo_inurba_marseille","lat":43.330444,"lon":5.389193,"is_reserved":false,"is_disabled":false,"rental_uris":{"android":"levelo://app?vid=6f0b4054-13ec-4252-95ad-acb604fd0714","ios":"levelo://app?vid=6f0b4054-13ec-4252-95ad-acb604fd0714"},"vehicle_type_id":"4","last_reported":1699250994,"current_range_meters":13200,"station_id":"ce4bhr92rcd13ifvqhrg","pricing_plan_id":"free"},{"bike_id":"2314769b-85d1-4208-b35e-caaad81d2835","system_id":"levelo_inurba_marseille","lat":43.33043,"lon":5.38922,"is_reserved":false,"is_disabled":false,"rental_uris":{"android":"levelo://app?vid=2314769b-85d1-4208-b35e-caaad81d2835","ios":"levelo://app?vid=2314769b-85d1-4208-b35e-caaad81d2835"},"vehicle_type_id":"4","last_reported":1699250994,"current_range_meters":3600,"station_id":"ce4bhr92rcd13ifvqhrg","pricing_plan_id":"free"},{"bike_id":"5504af13-1ac1-480b-936b-68e70de90ce9","system_id":"levelo_inurba_marseille","lat":43.290104,"lon":5.356111,"is_reserved":false,"is_disabled":false,"rental_uris":{"android":"levelo://app?vid=5504af13-1ac1-480b-936b-68e70de90ce9","ios":"levelo://app?vid=5504af13-1ac1-480b-936b-68e70de90ce9"},"vehicle_type_id":"4","last_reported":1699250994,"current_range_meters":27600,"station_id":"ce4bhb92rcd13ifvqen0","pricing_plan_id":"free"},{"bike_id":"1842b804-685b-4d9b-a514-d893539c81e0","system_id":"levelo_inurba_marseille","lat":43.290986,"lon":5.381481,"is_reserved":false,"is_disabled":false,"rental_uris":{"android":"levelo://app?vid=1842b804-685b-4d9b-a514-d893539c81e0","ios":"levelo://app?vid=1842b804-685b-4d9b-a514-d893539c81e0"},"vehicle_type_id":"4","last_reported":1699250994,"current_range_meters":19200,"station_id":"ce4bh512rcd13ifvqe2g","pricing_plan_id":"free"},{"bike_id":"5be96b75-6e9c-465a-9679-113f33c77c2c","system_id":"levelo_inurba_marseille","lat":43.289743,"lon":5.378304,"is_reserved":false,"is_disabled":false,"rental_uris":{"android":"levelo://app?vid=5be96b75-6e9c-465a-9679-113f33c77c2c","ios":"levelo://app?vid=5be96b75-6e9c-465a-9679-113f33c77c2c"},"vehicle_type_id":"4","last_reported":1699250994,"current_range_meters":17600,"station_id":"ce4bh9p2rcd13ifvqed0","pricing_plan_id":"free"},{"bike_id":"39604a43-597d-4141-8249-f1330f1595e7","system_id":"levelo_inurba_marseille","lat":43.297889,"lon":5.393449,"is_reserved":false,"is_disabled":false,"rental_uris":{"android":"levelo://app?vid=39604a43-597d-4141-8249-f1330f1595e7","ios":"levelo://app?vid=39604a43-597d-4141-8249-f1330f1595e7"},"vehicle_type_id":"4","last_reported":1699250994,"current_range_meters":30400,"station_id":"chh1huq6cuj3fo74tm60","pricing_plan_id":"free"},{"bike_id":"0fb2dbc2-81d9-4131-8b4c-f5bcb4d87fd8","system_id":"levelo_inurba_marseille","lat":43.295198,"lon":5.390232,"is_reserved":false,"is_disabled":false,"rental_uris":{"android":"levelo://app?vid=0fb2dbc2-81d9-4131-8b4c-f5bcb4d87fd8","ios":"levelo://app?vid=0fb2dbc2-81d9-4131-8b4c-f5bcb4d87fd8"},"vehicle_type_id":"4","last_reported":1699250994,"current_range_meters":24000,"station_id":"ce4bh3p2rcd13ifvqdp0","pricing_plan_id":"free"},{"bike_id":"e1e98a03-0ac5-43da-a14c-5edc9c84424f","system_id":"levelo_inurba_marseille","lat":43.28856,"lon":5.358371,"is_reserved":false,"is_disabled":false,"rental_uris":{"android":"levelo://app?vid=e1e98a03-0ac5-43da-a14c-5edc9c84424f","ios":"levelo://app?vid=e1e98a03-0ac5-43da-a14c-5edc9c84424f"},"vehicle_type_id":"4","last_reported":1699250994,"current_range_meters":23200,"station_id":"ce4bhb12rcd13ifvqem0","pricing_plan_id":"free"},{"bike_id":"1256b255-e83e-4b73-9fb2-40160b0172ec","system_id":"levelo_inurba_marseille","lat":43.28856,"lon":5.358371,"is_reserved":false,"is_disabled":false,"rental_uris":{"android":"levelo://app?vid=1256b255-e83e-4b73-9fb2-40160b0172ec","ios":"levelo://app?vid=1256b255-e83e-4b73-9fb2-40160b0172ec"},"vehicle_type_id":"4","last_reported":1699250994,"current_range_meters":28000,"station_id":"ce4bhb12rcd13ifvqem0","pricing_plan_id":"free"},{"bike_id":"8e521e56-4ec2-4aa1-b5c5-6c0e82926f51","system_id":"levelo_inurba_marseille","lat":43.30919,"lon":5.40135,"is_reserved":false,"is_disabled":false,"rental_uris":{"android":"levelo://app?vid=8e521e56-4ec2-4aa1-b5c5-6c0e82926f51","ios":"levelo://app?vid=8e521e56-4ec2-4aa1-b5c5-6c0e82926f51"},"vehicle_type_id":"4","last_reported":1699250994,"current_range_meters":31200,"station_id":"ce4bgvp2rcd13ifvqct0","pricing_plan_id":"free"},{"bike_id":"dc70b175-6d52-456b-9ec3-d48222db7d86","system_id":"levelo_inurba_marseille","lat":43.309296,"lon":5.4014,"is_reserved":false,"is_disabled":false,"rental_uris":{"android":"levelo://app?vid=dc70b175-6d52-456b-9ec3-d48222db7d86","ios":"levelo://app?vid=dc70b175-6d52-456b-9ec3-d48222db7d86"},"vehicle_type_id":"4","last_reported":1699250994,"current_range_meters":30800,"station_id":"ce4bgvp2rcd13ifvqct0","pricing_plan_id":"free"},{"bike_id":"8b0abfc7-1db5-4ba3-bc9c-fca8ccf7d9e0","system_id":"levelo_inurba_marseille","lat":43.3093,"lon":5.40142,"is_reserved":false,"is_disabled":false,"rental_uris":{"android":"levelo://app?vid=8b0abfc7-1db5-4ba3-bc9c-fca8ccf7d9e0","ios":"levelo://app?vid=8b0abfc7-1db5-4ba3-bc9c-fca8ccf7d9e0"},"vehicle_type_id":"4","last_reported":1699250994,"current_range_meters":28800,"station_id":"ce4bgvp2rcd13ifvqct0","pricing_plan_id":"free"},{"bike_id":"d4357cfb-01da-4dea-8bbc-cfed994d23bd","system_id":"levelo_inurba_marseille","lat":43.309336,"lon":5.401453,"is_reserved":false,"is_disabled":false,"rental_uris":{"android":"levelo://app?vid=d4357cfb-01da-4dea-8bbc-cfed994d23bd","ios":"levelo://app?vid=d4357cfb-01da-4dea-8bbc-cfed994d23bd"},"vehicle_type_id":"4","last_reported":1699250994,"current_range_meters":30400,"station_id":"ce4bgvp2rcd13ifvqct0","pricing_plan_id":"free"},{"bike_id":"e139aaa2-5828-4364-b29e-83c63460c4dc","system_id":"levelo_inurba_marseille","lat":43.309222,"lon":5.401436,"is_reserved":false,"is_disabled":false,"rental_uris":{"android":"levelo://app?vid=e139aaa2-5828-4364-b29e-83c63460c4dc","ios":"levelo://app?vid=e139aaa2-5828-4364-b29e-83c63460c4dc"},"vehicle_type_id":"4","last_reported":1699250994,"current_range_meters":31200,"station_id":"ce4bgvp2rcd13ifvqct0","pricing_plan_id":"free"},{"bike_id":"6113ec7d-5bd5-40a1-818d-e967e52e4171","system_id":"levelo_inurba_marseille","lat":43.309354,"lon":5.401469,"is_reserved":false,"is_disabled":false,"rental_uris":{"android":"levelo://app?vid=6113ec7d-5bd5-40a1-818d-e967e52e4171","ios":"levelo://app?vid=6113ec7d-5bd5-40a1-818d-e967e52e4171"},"vehicle_type_id":"4","last_reported":1699250994,"current_range_meters":30400,"station_id":"ce4bgvp2rcd13ifvqct0","pricing_plan_id":"free"},{"bike_id":"94e7b158-325b-44c1-93f7-55ea797783fc","system_id":"levelo_inurba_marseille","lat":43.30642,"lon":5.401031,"is_reserved":false,"is_disabled":false,"rental_uris":{"android":"levelo://app?vid=94e7b158-325b-44c1-93f7-55ea797783fc","ios":"levelo://app?vid=94e7b158-325b-44c1-93f7-55ea797783fc"},"vehicle_type_id":"4","last_reported":1699250994,"current_range_meters":31200,"station_id":"ce4bh112rcd13ifvqda0","pricing_plan_id":"free"},{"bike_id":"b817a33a-ef89-4cc7-8c2d-ac3eaa5f986f","system_id":"levelo_inurba_marseille","lat":43.309379,"lon":5.401497,"is_reserved":false,"is_disabled":false,"rental_uris":{"android":"levelo://app?vid=b817a33a-ef89-4cc7-8c2d-ac3eaa5f986f","ios":"levelo://app?vid=b817a33a-ef89-4cc7-8c2d-ac3eaa5f986f"},"vehicle_type_id":"4","last_reported":1699250994,"current_range_meters":31200,"station_id":"ce4bgvp2rcd13ifvqct0","pricing_plan_id":"free"},{"bike_id":"f885cb46-8eb9-4277-b65a-d249f9a529fe","system_id":"levelo_inurba_marseille","lat":43.306412,"lon":5.401035,"is_reserved":false,"is_disabled":false,"rental_uris":{"android":"levelo://app?vid=f885cb46-8eb9-4277-b65a-d249f9a529fe","ios":"levelo://app?vid=f885cb46-8eb9-4277-b65a-d249f9a529fe"},"vehicle_type_id":"4","last_reported":1699250994,"current_range_meters":31200,"station_id":"ce4bh112rcd13ifvqda0","pricing_plan_id":"free"},{"bike_id":"387592bd-2ec7-471b-9ab3-a2f3b54a8be9","system_id":"levelo_inurba_marseille","lat":43.30922,"lon":5.401474,"is_reserved":false,"is_disabled":false,"rental_uris":{"android":"levelo://app?vid=387592bd-2ec7-471b-9ab3-a2f3b54a8be9","ios":"levelo://app?vid=387592bd-2ec7-471b-9ab3-a2f3b54a8be9"},"vehicle_type_id":"4","last_reported":1699250994,"current_range_meters":30400,"station_id":"ce4bgvp2rcd13ifvqct0","pricing_plan_id":"free"},{"bike_id":"6b230b48-03db-445c-a68c-bd7c4fc518a3","system_id":"levelo_inurba_marseille","lat":43.30642,"lon":5.401031,"is_reserved":false,"is_disabled":false,"rental_uris":{"android":"levelo://app?vid=6b230b48-03db-445c-a68c-bd7c4fc518a3","ios":"levelo://app?vid=6b230b48-03db-445c-a68c-bd7c4fc518a3"},"vehicle_type_id":"4","last_reported":1699250994,"current_range_meters":30000,"station_id":"ce4bh112rcd13ifvqda0","pricing_plan_id":"free"},{"bike_id":"055fe05a-335c-4245-83b3-f3bad057cff5","system_id":"levelo_inurba_marseille","lat":43.306412,"lon":5.401035,"is_reserved":false,"is_disabled":false,"rental_uris":{"android":"levelo://app?vid=055fe05a-335c-4245-83b3-f3bad057cff5","ios":"levelo://app?vid=055fe05a-335c-4245-83b3-f3bad057cff5"},"vehicle_type_id":"4","last_reported":1699250994,"current_range_meters":24000,"station_id":"ce4bh112rcd13ifvqda0","pricing_plan_id":"free"},{"bike_id":"629e8093-71f4-4153-9277-092368dd56b7","system_id":"levelo_inurba_marseille","lat":43.306412,"lon":5.401035,"is_reserved":false,"is_disabled":false,"rental_uris":{"android":"levelo://app?vid=629e8093-71f4-4153-9277-092368dd56b7","ios":"levelo://app?vid=629e8093-71f4-4153-9277-092368dd56b7"},"vehicle_type_id":"4","last_reported":1699250994,"current_range_meters":31200,"station_id":"ce4bh112rcd13ifvqda0","pricing_plan_id":"free"},{"bike_id":"687c46c4-5e11-482c-94fd-ff78e5206347","system_id":"levelo_inurba_marseille","lat":43.306412,"lon":5.401035,"is_reserved":false,"is_disabled":false,"rental_uris":{"android":"levelo://app?vid=687c46c4-5e11-482c-94fd-ff78e5206347","ios":"levelo://app?vid=687c46c4-5e11-482c-94fd-ff78e5206347"},"vehicle_type_id":"4","last_reported":1699250994,"current_range_meters":31200,"station_id":"ce4bh112rcd13ifvqda0","pricing_plan_id":"free"},{"bike_id":"69616b78-ef1a-4d83-abf1-ad4f46475557","system_id":"levelo_inurba_marseille","lat":43.306412,"lon":5.401035,"is_reserved":false,"is_disabled":false,"rental_uris":{"android":"levelo://app?vid=69616b78-ef1a-4d83-abf1-ad4f46475557","ios":"levelo://app?vid=69616b78-ef1a-4d83-abf1-ad4f46475557"},"vehicle_type_id":"4","last_reported":1699250994,"current_range_meters":20800,"station_id":"ce4bh112rcd13ifvqda0","pricing_plan_id":"free"},{"bike_id":"3c572c3f-cc4c-4d3a-a0f0-73ed1ad39fef","system_id":"levelo_inurba_marseille","lat":43.33031,"lon":5.392311,"is_reserved":false,"is_disabled":false,"rental_uris":{"android":"levelo://app?vid=3c572c3f-cc4c-4d3a-a0f0-73ed1ad39fef","ios":"levelo://app?vid=3c572c3f-cc4c-4d3a-a0f0-73ed1ad39fef"},"vehicle_type_id":"4","last_reported":1699250994,"current_range_meters":2800,"station_id":"","pricing_plan_id":"free"},{"bike_id":"7a1b0f2d-408c-465e-b44e-5e3132d4f02f","system_id":"levelo_inurba_marseille","lat":43.306412,"lon":5.401035,"is_reserved":false,"is_disabled":false,"rental_uris":{"android":"levelo://app?vid=7a1b0f2d-408c-465e-b44e-5e3132d4f02f","ios":"levelo://app?vid=7a1b0f2d-408c-465e-b44e-5e3132d4f02f"},"vehicle_type_id":"4","last_reported":1699250994,"current_range_meters":27200,"station_id":"ce4bh112rcd13ifvqda0","pricing_plan_id":"free"},{"bike_id":"5301f3af-9053-44e3-93e8-2e54c9d6c519","system_id":"levelo_inurba_marseille","lat":43.301316,"lon":5.398653,"is_reserved":false,"is_disabled":false,"rental_uris":{"android":"levelo://app?vid=5301f3af-9053-44e3-93e8-2e54c9d6c519","ios":"levelo://app?vid=5301f3af-9053-44e3-93e8-2e54c9d6c519"},"vehicle_type_id":"4","last_reported":1699250994,"current_range_meters":0,"station_id":"ce4bh0h2rcd13ifvqd40","pricing_plan_id":"free"},{"bike_id":"b4bd9acb-2452-4201-b080-8c04cb872e41","system_id":"levelo_inurba_marseille","lat":43.28727,"lon":5.36078,"is_reserved":false,"is_disabled":false,"rental_uris":{"android":"levelo://app?vid=b4bd9acb-2452-4201-b080-8c04cb872e41","ios":"levelo://app?vid=b4bd9acb-2452-4201-b080-8c04cb872e41"},"vehicle_type_id":"4","last_reported":1699250994,"current_range_meters":31200,"station_id":"cki0cbj6b192h4jlfktg","pricing_plan_id":"free"},{"bike_id":"c625ee6e-e289-44fe-b266-0550e32e125a","system_id":"levelo_inurba_marseille","lat":43.28727,"lon":5.36078,"is_reserved":false,"is_disabled":false,"rental_uris":{"android":"levelo://app?vid=c625ee6e-e289-44fe-b266-0550e32e125a","ios":"levelo://app?vid=c625ee6e-e289-44fe-b266-0550e32e125a"},"vehicle_type_id":"4","last_reported":1699250994,"current_range_meters":16000,"station_id":"cki0cbj6b192h4jlfktg","pricing_plan_id":"free"},{"bike_id":"803fdd0a-2d8c-4c3a-88f2-dd72036f7644","system_id":"levelo_inurba_marseille","lat":43.28727,"lon":5.36078,"is_reserved":false,"is_disabled":false,"rental_uris":{"android":"levelo://app?vid=803fdd0a-2d8c-4c3a-88f2-dd72036f7644","ios":"levelo://app?vid=803fdd0a-2d8c-4c3a-88f2-dd72036f7644"},"vehicle_type_id":"4","last_reported":1699250994,"current_range_meters":31200,"station_id":"cki0cbj6b192h4jlfktg","pricing_plan_id":"free"},{"bike_id":"e9c984c8-a16b-4881-aeaa-e76f60db522a","system_id":"levelo_inurba_marseille","lat":43.28727,"lon":5.36078,"is_reserved":false,"is_disabled":false,"rental_uris":{"android":"levelo://app?vid=e9c984c8-a16b-4881-aeaa-e76f60db522a","ios":"levelo://app?vid=e9c984c8-a16b-4881-aeaa-e76f60db522a"},"vehicle_type_id":"4","last_reported":1699250994,"current_range_meters":24000,"station_id":"cki0cbj6b192h4jlfktg","pricing_plan_id":"free"},{"bike_id":"32fcc1e2-b1da-485c-971a-b31633ba3395","system_id":"levelo_inurba_marseille","lat":43.28727,"lon":5.36078,"is_reserved":false,"is_disabled":false,"rental_uris":{"android":"levelo://app?vid=32fcc1e2-b1da-485c-971a-b31633ba3395","ios":"levelo://app?vid=32fcc1e2-b1da-485c-971a-b31633ba3395"},"vehicle_type_id":"4","last_reported":1699250994,"current_range_meters":31200,"station_id":"cki0cbj6b192h4jlfktg","pricing_plan_id":"free"},{"bike_id":"c0aedc5d-8903-4845-930e-d3a8a73ed5da","system_id":"levelo_inurba_marseille","lat":43.28727,"lon":5.36078,"is_reserved":false,"is_disabled":false,"rental_uris":{"android":"levelo://app?vid=c0aedc5d-8903-4845-930e-d3a8a73ed5da","ios":"levelo://app?vid=c0aedc5d-8903-4845-930e-d3a8a73ed5da"},"vehicle_type_id":"4","last_reported":1699250994,"current_range_meters":27200,"station_id":"cki0cbj6b192h4jlfktg","pricing_plan_id":"free"},{"bike_id":"1a9f048c-f1d7-4d5a-9fb4-965d51401b7b","system_id":"levelo_inurba_marseille","lat":43.28727,"lon":5.36078,"is_reserved":false,"is_disabled":false,"rental_uris":{"android":"levelo://app?vid=1a9f048c-f1d7-4d5a-9fb4-965d51401b7b","ios":"levelo://app?vid=1a9f048c-f1d7-4d5a-9fb4-965d51401b7b"},"vehicle_type_id":"4","last_reported":1699250994,"current_range_meters":29600,"station_id":"cki0cbj6b192h4jlfktg","pricing_plan_id":"free"},{"bike_id":"1d32353e-443d-4741-b1b6-72bb79caa9a5","system_id":"levelo_inurba_marseille","lat":43.28727,"lon":5.36078,"is_reserved":false,"is_disabled":false,"rental_uris":{"android":"levelo://app?vid=1d32353e-443d-4741-b1b6-72bb79caa9a5","ios":"levelo://app?vid=1d32353e-443d-4741-b1b6-72bb79caa9a5"},"vehicle_type_id":"4","last_reported":1699250994,"current_range_meters":0,"station_id":"cki0cbj6b192h4jlfktg","pricing_plan_id":"free"},{"bike_id":"4fe2d372-bba6-47b8-aa1e-0eaef2bec248","system_id":"levelo_inurba_marseille","lat":43.286591,"lon":5.363346,"is_reserved":false,"is_disabled":false,"rental_uris":{"android":"levelo://app?vid=4fe2d372-bba6-47b8-aa1e-0eaef2bec248","ios":"levelo://app?vid=4fe2d372-bba6-47b8-aa1e-0eaef2bec248"},"vehicle_type_id":"4","last_reported":1699250994,"current_range_meters":15600,"station_id":"ce4bhah2rcd13ifvqej0","pricing_plan_id":"free"},{"bike_id":"8f3c7a72-9e53-40ed-b721-d4646db6d1ed","system_id":"levelo_inurba_marseille","lat":43.286591,"lon":5.363346,"is_reserved":false,"is_disabled":false,"rental_uris":{"android":"levelo://app?vid=8f3c7a72-9e53-40ed-b721-d4646db6d1ed","ios":"levelo://app?vid=8f3c7a72-9e53-40ed-b721-d4646db6d1ed"},"vehicle_type_id":"4","last_reported":1699250994,"current_range_meters":31200,"station_id":"ce4bhah2rcd13ifvqej0","pricing_plan_id":"free"},{"bike_id":"7a685c15-9361-4cab-9f4b-ad2b2b183261","system_id":"levelo_inurba_marseille","lat":43.298681,"lon":5.397225,"is_reserved":false,"is_disabled":false,"rental_uris":{"android":"levelo://app?vid=7a685c15-9361-4cab-9f4b-ad2b2b183261","ios":"levelo://app?vid=7a685c15-9361-4cab-9f4b-ad2b2b183261"},"vehicle_type_id":"4","last_reported":1699250994,"current_range_meters":27600,"station_id":"ce4bh0h2rcd13ifvqd50","pricing_plan_id":"free"},{"bike_id":"5a3d6880-b78f-42b6-8c94-0bda5418a5d8","system_id":"levelo_inurba_marseille","lat":43.286593,"lon":5.363346,"is_reserved":false,"is_disabled":false,"rental_uris":{"android":"levelo://app?vid=5a3d6880-b78f-42b6-8c94-0bda5418a5d8","ios":"levelo://app?vid=5a3d6880-b78f-42b6-8c94-0bda5418a5d8"},"vehicle_type_id":"4","last_reported":1699250994,"current_range_meters":31200,"station_id":"ce4bhah2rcd13ifvqej0","pricing_plan_id":"free"},{"bike_id":"15fbd8e9-0306-46e4-bdf4-9b5841c60da0","system_id":"levelo_inurba_marseille","lat":43.298681,"lon":5.397225,"is_reserved":false,"is_disabled":false,"rental_uris":{"android":"levelo://app?vid=15fbd8e9-0306-46e4-bdf4-9b5841c60da0","ios":"levelo://app?vid=15fbd8e9-0306-46e4-bdf4-9b5841c60da0"},"vehicle_type_id":"4","last_reported":1699250994,"current_range_meters":24000,"station_id":"ce4bh0h2rcd13ifvqd50","pricing_plan_id":"free"},{"bike_id":"d8491036-5ff9-471b-accb-2f08580e7cf3","system_id":"levelo_inurba_marseille","lat":43.295158,"lon":5.394069,"is_reserved":false,"is_disabled":false,"rental_uris":{"android":"levelo://app?vid=d8491036-5ff9-471b-accb-2f08580e7cf3","ios":"levelo://app?vid=d8491036-5ff9-471b-accb-2f08580e7cf3"},"vehicle_type_id":"4","last_reported":1699250994,"current_range_meters":31200,"station_id":"ce4bh292rcd13ifvqdf0","pricing_plan_id":"free"},{"bike_id":"2f195645-0ace-430d-b2bd-7d1600c91e54","system_id":"levelo_inurba_marseille","lat":43.286039,"lon":5.370681,"is_reserved":false,"is_disabled":false,"rental_uris":{"android":"levelo://app?vid=2f195645-0ace-430d-b2bd-7d1600c91e54","ios":"levelo://app?vid=2f195645-0ace-430d-b2bd-7d1600c91e54"},"vehicle_type_id":"4","last_reported":1699250994,"current_range_meters":7200,"station_id":"ce4bht12rcd13ifvqi60","pricing_plan_id":"free"},{"bike_id":"781b632b-c66f-4086-97f1-9718ab93001f","system_id":"levelo_inurba_marseille","lat":43.31649,"lon":5.40435,"is_reserved":false,"is_disabled":false,"rental_uris":{"android":"levelo://app?vid=781b632b-c66f-4086-97f1-9718ab93001f","ios":"levelo://app?vid=781b632b-c66f-4086-97f1-9718ab93001f"},"vehicle_type_id":"4","last_reported":1699250994,"current_range_meters":31200,"station_id":"ce4bh012rcd13ifvqd00","pricing_plan_id":"free"},{"bike_id":"1ac9f8bd-073e-4720-98ba-021465a1e3be","system_id":"levelo_inurba_marseille","lat":43.316403,"lon":5.404372,"is_reserved":false,"is_disabled":false,"rental_uris":{"android":"levelo://app?vid=1ac9f8bd-073e-4720-98ba-021465a1e3be","ios":"levelo://app?vid=1ac9f8bd-073e-4720-98ba-021465a1e3be"},"vehicle_type_id":"4","last_reported":1699250994,"current_range_meters":30400,"station_id":"ce4bh012rcd13ifvqd00","pricing_plan_id":"free"},{"bike_id":"66f7219a-9575-4820-96cf-64970257c62f","system_id":"levelo_inurba_marseille","lat":43.316517,"lon":5.404375,"is_reserved":false,"is_disabled":false,"rental_uris":{"android":"levelo://app?vid=66f7219a-9575-4820-96cf-64970257c62f","ios":"levelo://app?vid=66f7219a-9575-4820-96cf-64970257c62f"},"vehicle_type_id":"4","last_reported":1699250994,"current_range_meters":29200,"station_id":"ce4bh012rcd13ifvqd00","pricing_plan_id":"free"},{"bike_id":"ccb8c974-7f1d-488e-ad6f-b8694d5c2aba","system_id":"levelo_inurba_marseille","lat":43.328576,"lon":5.398841,"is_reserved":false,"is_disabled":false,"rental_uris":{"android":"levelo://app?vid=ccb8c974-7f1d-488e-ad6f-b8694d5c2aba","ios":"levelo://app?vid=ccb8c974-7f1d-488e-ad6f-b8694d5c2aba"},"vehicle_type_id":"4","last_reported":1699250994,"current_range_meters":28400,"station_id":"","pricing_plan_id":"free"},{"bike_id":"54bfaf6a-aa75-4462-b037-c46bef843b65","system_id":"levelo_inurba_marseille","lat":43.284534,"lon":5.358662,"is_reserved":false,"is_disabled":false,"rental_uris":{"android":"levelo://app?vid=54bfaf6a-aa75-4462-b037-c46bef843b65","ios":"levelo://app?vid=54bfaf6a-aa75-4462-b037-c46bef843b65"},"vehicle_type_id":"4","last_reported":1699250994,"current_range_meters":31200,"station_id":"ce4bhah2rcd13ifvqei0","pricing_plan_id":"free"},{"bike_id":"36691ef4-f359-4530-bb60-b3c306c8c165","system_id":"levelo_inurba_marseille","lat":43.284534,"lon":5.358662,"is_reserved":false,"is_disabled":false,"rental_uris":{"android":"levelo://app?vid=36691ef4-f359-4530-bb60-b3c306c8c165","ios":"levelo://app?vid=36691ef4-f359-4530-bb60-b3c306c8c165"},"vehicle_type_id":"4","last_reported":1699250994,"current_range_meters":31200,"station_id":"ce4bhah2rcd13ifvqei0","pricing_plan_id":"free"},{"bike_id":"e2a3280a-cc47-4775-acbc-c6bf99ba09d9","system_id":"levelo_inurba_marseille","lat":43.284534,"lon":5.358662,"is_reserved":false,"is_disabled":false,"rental_uris":{"android":"levelo://app?vid=e2a3280a-cc47-4775-acbc-c6bf99ba09d9","ios":"levelo://app?vid=e2a3280a-cc47-4775-acbc-c6bf99ba09d9"},