{"last_updated":1747732285,"ttl":60,"version":"2.2","data":{"bikes":[{"bike_id":"0eb7f958-813c-4599-a947-cc188a070eb3","system_id":"levelo_inurba_marseille","lat":43.25125,"lon":5.40337,"is_reserved":false,"is_disabled":false,"rental_uris":{"android":"levelo://app?vid=0eb7f958-813c-4599-a947-cc188a070eb3","ios":"levelo://app?vid=0eb7f958-813c-4599-a947-cc188a070eb3"},"vehicle_type_id":"4","last_reported":1747732286,"current_range_meters":2800,"station_id":"ce4bhlh2rcd13ifvqgig","pricing_plan_id":"cebpf4jnsgd1na2vs0mg"},{"bike_id":"3eef735d-b494-405b-af9f-a6dc21fe89dc","system_id":"levelo_inurba_marseille","lat":43.23151,"lon":5.43722,"is_reserved":false,"is_disabled":false,"rental_uris":{"android":"levelo://app?vid=3eef735d-b494-405b-af9f-a6dc21fe89dc","ios":"levelo://app?vid=3eef735d-b494-405b-af9f-a6dc21fe89dc"},"vehicle_type_id":"4","last_reported":1747732286,"current_range_meters":2800,"station_id":"ce4bhmp2rcd13ifvqgog","pricing_plan_id":"cebpf4jnsgd1na2vs0mg"},{"bike_id":"9098acce-4a9e-40d8-ba71-76f7509c9d2b","system_id":"levelo_inurba_marseille","lat":43.26562,"lon":5.37303,"is_reserved":false,"is_disabled":false,"rental_uris":{"android":"levelo://app?vid=9098acce-4a9e-40d8-ba71-76f7509c9d2b","ios":"levelo://app?vid=9098acce-4a9e-40d8-ba71-76f7509c9d2b"},"vehicle_type_id":"4","last_reported":1747732286,"current_range_meters":3200,"station_id":"ce4bhg12rcd13ifvqf70","pricing_plan_id":"cebpf4jnsgd1na2vs0mg"},{"bike_id":"1fd173aa-6853-4550-a648-b487f6131ebc","system_id":"levelo_inurba_marseille","lat":43.29202,"lon":5.39319,"is_reserved":false,"is_disabled":false,"rental_uris":{"android":"levelo://app?vid=1fd173aa-6853-4550-a648-b487f6131ebc","ios":"levelo://app?vid=1fd173aa-6853-4550-a648-b487f6131ebc"},"vehicle_type_id":"4","last_reported":1747732286,"current_range_meters":8400,"station_id":"ce4bh192rcd13ifvqdd0","pricing_plan_id":"cebpf4jnsgd1na2vs0mg"},{"bike_id":"f40652e2-30a0-431e-b1f1-4d9fe84a8149","system_id":"levelo_inurba_marseille","lat":43.27386,"lon":5.36253,"is_reserved":false,"is_disabled":false,"rental_uris":{"android":"levelo://app?vid=f40652e2-30a0-431e-b1f1-4d9fe84a8149","ios":"levelo://app?vid=f40652e2-30a0-431e-b1f1-4d9fe84a8149"},"vehicle_type_id":"4","last_reported":1747732286,"current_range_meters":3600,"station_id":"ce4bhbh2rcd13ifvqeo0","pricing_plan_id":"cebpf4jnsgd1na2vs0mg"},{"bike_id":"14312a4f-5518-4993-ba17-b9a97fb5ebf1","system_id":"levelo_inurba_marseille","lat":43.28942,"lon":5.39634,"is_reserved":false,"is_disabled":false,"rental_uris":{"android":"levelo://app?vid=14312a4f-5518-4993-ba17-b9a97fb5ebf1","ios":"levelo://app?vid=14312a4f-5518-4993-ba17-b9a97fb5ebf1"},"vehicle_type_id":"4","last_reported":1747732286,"current_range_meters":3600,"station_id":"ce4bh3h2rcd13ifvqdn0","pricing_plan_id":"cebpf4jnsgd1na2vs0mg"},{"bike_id":"998398f5-02c4-467a-a7e0-c3cdb04cdee4","system_id":"levelo_inurba_marseille","lat":43.27493,"lon":5.4244,"is_reserved":false,"is_disabled":false,"rental_uris":{"android":"levelo://app?vid=998398f5-02c4-467a-a7e0-c3cdb04cdee4","ios":"levelo://app?vid=998398f5-02c4-467a-a7e0-c3cdb04cdee4"},"vehicle_type_id":"4","last_reported":1747732286,"current_range_meters":3600,"station_id":"ce4bhn92rcd13ifvqgrg","pricing_plan_id":"cebpf4jnsgd1na2vs0mg"},{"bike_id":"fefa3ad1-29a6-4d50-af49-b905b6a48898","system_id":"levelo_inurba_marseille","lat":43.28148,"lon":5.4264,"is_reserved":false,"is_disabled":false,"rental_uris":{"android":"levelo://app?vid=fefa3ad1-29a6-4d50-af49-b905b6a48898","ios":"levelo://app?vid=fefa3ad1-29a6-4d50-af49-b905b6a48898"},"vehicle_type_id":"4","last_reported":1747732286,"current_range_meters":4000,"station_id":"ce4bhnh2rcd13ifvqgug","pricing_plan_id":"cebpf4jnsgd1na2vs0mg"},{"bike_id":"3c2e874b-823b-4069-8a4a-aca4fb4238f3","system_id":"levelo_inurba_marseille","lat":43.276287,"lon":5.39725,"is_reserved":false,"is_disabled":false,"rental_uris":{"android":"levelo://app?vid=3c2e874b-823b-4069-8a4a-aca4fb4238f3","ios":"levelo://app?vid=3c2e874b-823b-4069-8a4a-aca4fb4238f3"},"vehicle_type_id":"4","last_reported":1747732286,"current_range_meters":4400,"station_id":"","pricing_plan_id":"cebpf4jnsgd1na2vs0mg"},{"bike_id":"e99009fa-94d8-4b6c-9872-56a8eba164f6","system_id":"levelo_inurba_marseille","lat":43.26946,"lon":5.38636,"is_reserved":false,"is_disabled":false,"rental_uris":{"android":"levelo://app?vid=e99009fa-94d8-4b6c-9872-56a8eba164f6","ios":"levelo://app?vid=e99009fa-94d8-4b6c-9872-56a8eba164f6"},"vehicle_type_id":"4","last_reported":1747732286,"current_range_meters":4400,"station_id":"ce4bhh92rcd13ifvqfh0","pricing_plan_id":"cebpf4jnsgd1na2vs0mg"},{"bike_id":"0814fc28-7c82-4444-bf57-b7589c01a901","system_id":"levelo_inurba_marseille","lat":43.249964,"lon":5.389441,"is_reserved":false,"is_disabled":false,"rental_uris":{"android":"levelo://app?vid=0814fc28-7c82-4444-bf57-b7589c01a901","ios":"levelo://app?vid=0814fc28-7c82-4444-bf57-b7589c01a901"},"vehicle_type_id":"4","last_reported":1747732286,"current_range_meters":4400,"station_id":"ce4bhgp2rcd13ifvqfd0","pricing_plan_id":"cebpf4jnsgd1na2vs0mg"},{"bike_id":"92a6af25-c13e-41f1-9234-7144ec89b7a9","system_id":"levelo_inurba_marseille","lat":43.23192,"lon":5.39981,"is_reserved":false,"is_disabled":false,"rental_uris":{"android":"levelo://app?vid=92a6af25-c13e-41f1-9234-7144ec89b7a9","ios":"levelo://app?vid=92a6af25-c13e-41f1-9234-7144ec89b7a9"},"vehicle_type_id":"4","last_reported":1747732286,"current_range_meters":4400,"station_id":"ce4bhn12rcd13ifvqgqg","pricing_plan_id":"cebpf4jnsgd1na2vs0mg"},{"bike_id":"148f418d-e249-43d2-b729-114f61865fc2","system_id":"levelo_inurba_marseille","lat":43.28001,"lon":5.40017,"is_reserved":false,"is_disabled":false,"rental_uris":{"android":"levelo://app?vid=148f418d-e249-43d2-b729-114f61865fc2","ios":"levelo://app?vid=148f418d-e249-43d2-b729-114f61865fc2"},"vehicle_type_id":"4","last_reported":1747732286,"current_range_meters":5600,"station_id":"ce4bho92rcd13ifvqh4g","pricing_plan_id":"cebpf4jnsgd1na2vs0mg"},{"bike_id":"90c8abfa-9727-4229-8e3e-47ca50594324","system_id":"levelo_inurba_marseille","lat":43.24812,"lon":5.37459,"is_reserved":false,"is_disabled":false,"rental_uris":{"android":"levelo://app?vid=90c8abfa-9727-4229-8e3e-47ca50594324","ios":"levelo://app?vid=90c8abfa-9727-4229-8e3e-47ca50594324"},"vehicle_type_id":"4","last_reported":1747732286,"current_range_meters":5600,"station_id":"ce4bhgh2rcd13ifvqfb0","pricing_plan_id":"cebpf4jnsgd1na2vs0mg"},{"bike_id":"805a0b8b-3016-4200-80aa-015c3e4c599d","system_id":"levelo_inurba_marseille","lat":43.3091,"lon":5.36849,"is_reserved":false,"is_disabled":false,"rental_uris":{"android":"levelo://app?vid=805a0b8b-3016-4200-80aa-015c3e4c599d","ios":"levelo://app?vid=805a0b8b-3016-4200-80aa-015c3e4c599d"},"vehicle_type_id":"4","last_reported":1747732286,"current_range_meters":5600,"station_id":"ce4bgn92rcd13ifvqbvg","pricing_plan_id":"cebpf4jnsgd1na2vs0mg"},{"bike_id":"7e57c655-a436-4f6a-b2f3-b4b39d87eb80","system_id":"levelo_inurba_marseille","lat":43.24406,"lon":5.3706,"is_reserved":false,"is_disabled":false,"rental_uris":{"android":"levelo://app?vid=7e57c655-a436-4f6a-b2f3-b4b39d87eb80","ios":"levelo://app?vid=7e57c655-a436-4f6a-b2f3-b4b39d87eb80"},"vehicle_type_id":"4","last_reported":1747732286,"current_range_meters":5600,"station_id":"ce4bhhh2rcd13ifvqfk0","pricing_plan_id":"cebpf4jnsgd1na2vs0mg"},{"bike_id":"cf2e5c45-aac0-4784-a8f5-2a28a2e32c91","system_id":"levelo_inurba_marseille","lat":43.27172,"lon":5.40998,"is_reserved":false,"is_disabled":false,"rental_uris":{"android":"levelo://app?vid=cf2e5c45-aac0-4784-a8f5-2a28a2e32c91","ios":"levelo://app?vid=cf2e5c45-aac0-4784-a8f5-2a28a2e32c91"},"vehicle_type_id":"4","last_reported":1747732286,"current_range_meters":5600,"station_id":"ce4bhl12rcd13ifvqgf0","pricing_plan_id":"cebpf4jnsgd1na2vs0mg"},{"bike_id":"9ee47e5f-660d-4bcc-a13e-1730941cb367","system_id":"levelo_inurba_marseille","lat":43.27971,"lon":5.38732,"is_reserved":false,"is_disabled":false,"rental_uris":{"android":"levelo://app?vid=9ee47e5f-660d-4bcc-a13e-1730941cb367","ios":"levelo://app?vid=9ee47e5f-660d-4bcc-a13e-1730941cb367"},"vehicle_type_id":"4","last_reported":1747732286,"current_range_meters":6000,"station_id":"ce4bhg12rcd13ifvqf80","pricing_plan_id":"cebpf4jnsgd1na2vs0mg"},{"bike_id":"9058608d-adf5-45da-b283-4068c6dc0fe2","system_id":"levelo_inurba_marseille","lat":43.27918,"lon":5.38002,"is_reserved":false,"is_disabled":false,"rental_uris":{"android":"levelo://app?vid=9058608d-adf5-45da-b283-4068c6dc0fe2","ios":"levelo://app?vid=9058608d-adf5-45da-b283-4068c6dc0fe2"},"vehicle_type_id":"4","last_reported":1747732286,"current_range_meters":6000,"station_id":"ce4bhf92rcd13ifvqf50","pricing_plan_id":"cebpf4jnsgd1na2vs0mg"},{"bike_id":"39623d61-4997-4363-9c6e-29c93d49b3fe","system_id":"levelo_inurba_marseille","lat":43.30142,"lon":5.37419,"is_reserved":false,"is_disabled":false,"rental_uris":{"android":"levelo://app?vid=39623d61-4997-4363-9c6e-29c93d49b3fe","ios":"levelo://app?vid=39623d61-4997-4363-9c6e-29c93d49b3fe"},"vehicle_type_id":"4","last_reported":1747732286,"current_range_meters":6000,"station_id":"ce4bgs92rcd13ifvqcc0","pricing_plan_id":"cebpf4jnsgd1na2vs0mg"},{"bike_id":"5a585b4e-47a9-416c-a173-084754acffd0","system_id":"levelo_inurba_marseille","lat":43.24712,"lon":5.3816,"is_reserved":false,"is_disabled":false,"rental_uris":{"android":"levelo://app?vid=5a585b4e-47a9-416c-a173-084754acffd0","ios":"levelo://app?vid=5a585b4e-47a9-416c-a173-084754acffd0"},"vehicle_type_id":"4","last_reported":1747732286,"current_range_meters":6400,"station_id":"","pricing_plan_id":"cebpf4jnsgd1na2vs0mg"},{"bike_id":"fec41bef-30b7-4816-93d7-8a16b0838a5d","system_id":"levelo_inurba_marseille","lat":43.25014,"lon":5.38911,"is_reserved":false,"is_disabled":false,"rental_uris":{"android":"levelo://app?vid=fec41bef-30b7-4816-93d7-8a16b0838a5d","ios":"levelo://app?vid=fec41bef-30b7-4816-93d7-8a16b0838a5d"},"vehicle_type_id":"4","last_reported":1747732286,"current_range_meters":6400,"station_id":"ce4bhgp2rcd13ifvqfd0","pricing_plan_id":"cebpf4jnsgd1na2vs0mg"},{"bike_id":"fdbcb080-de86-408c-b4a8-7300b93393a6","system_id":"levelo_inurba_marseille","lat":43.23184,"lon":5.39967,"is_reserved":false,"is_disabled":false,"rental_uris":{"android":"levelo://app?vid=fdbcb080-de86-408c-b4a8-7300b93393a6","ios":"levelo://app?vid=fdbcb080-de86-408c-b4a8-7300b93393a6"},"vehicle_type_id":"4","last_reported":1747732286,"current_range_meters":6800,"station_id":"ce4bhn12rcd13ifvqgqg","pricing_plan_id":"cebpf4jnsgd1na2vs0mg"},{"bike_id":"b803f513-f1d0-4754-9a44-67866650b516","system_id":"levelo_inurba_marseille","lat":43.28859,"lon":5.35869,"is_reserved":false,"is_disabled":false,"rental_uris":{"android":"levelo://app?vid=b803f513-f1d0-4754-9a44-67866650b516","ios":"levelo://app?vid=b803f513-f1d0-4754-9a44-67866650b516"},"vehicle_type_id":"4","last_reported":1747732286,"current_range_meters":6800,"station_id":"ce4bhb12rcd13ifvqem0","pricing_plan_id":"cebpf4jnsgd1na2vs0mg"},{"bike_id":"e64e36d1-c3e7-4427-9260-70ac75fa0a1c","system_id":"levelo_inurba_marseille","lat":43.29914,"lon":5.40215,"is_reserved":false,"is_disabled":false,"rental_uris":{"android":"levelo://app?vid=e64e36d1-c3e7-4427-9260-70ac75fa0a1c","ios":"levelo://app?vid=e64e36d1-c3e7-4427-9260-70ac75fa0a1c"},"vehicle_type_id":"4","last_reported":1747732286,"current_range_meters":6800,"station_id":"","pricing_plan_id":"cebpf4jnsgd1na2vs0mg"},{"bike_id":"64366d8d-3020-466a-9cf8-d38ef48e57f9","system_id":"levelo_inurba_marseille","lat":43.25576,"lon":5.38242,"is_reserved":false,"is_disabled":false,"rental_uris":{"android":"levelo://app?vid=64366d8d-3020-466a-9cf8-d38ef48e57f9","ios":"levelo://app?vid=64366d8d-3020-466a-9cf8-d38ef48e57f9"},"vehicle_type_id":"4","last_reported":1747732286,"current_range_meters":6800,"station_id":"ce4bhih2rcd13ifvqfs0","pricing_plan_id":"cebpf4jnsgd1na2vs0mg"},{"bike_id":"3fe9c543-2ea7-4349-add8-f0daffedcc48","system_id":"levelo_inurba_marseille","lat":43.26685,"lon":5.38286,"is_reserved":false,"is_disabled":false,"rental_uris":{"android":"levelo://app?vid=3fe9c543-2ea7-4349-add8-f0daffedcc48","ios":"levelo://app?vid=3fe9c543-2ea7-4349-add8-f0daffedcc48"},"vehicle_type_id":"4","last_reported":1747732286,"current_range_meters":6800,"station_id":"ce4bhg92rcd13ifvqf90","pricing_plan_id":"cebpf4jnsgd1na2vs0mg"},{"bike_id":"06e452b4-00bd-4194-8cf0-97e51cbae02e","system_id":"levelo_inurba_marseille","lat":43.23183,"lon":5.39993,"is_reserved":false,"is_disabled":false,"rental_uris":{"android":"levelo://app?vid=06e452b4-00bd-4194-8cf0-97e51cbae02e","ios":"levelo://app?vid=06e452b4-00bd-4194-8cf0-97e51cbae02e"},"vehicle_type_id":"4","last_reported":1747732286,"current_range_meters":7200,"station_id":"ce4bhn12rcd13ifvqgqg","pricing_plan_id":"cebpf4jnsgd1na2vs0mg"},{"bike_id":"a283b2fd-ff3f-48d1-abab-7a3c52921152","system_id":"levelo_inurba_marseille","lat":43.28178,"lon":5.42654,"is_reserved":false,"is_disabled":false,"rental_uris":{"android":"levelo://app?vid=a283b2fd-ff3f-48d1-abab-7a3c52921152","ios":"levelo://app?vid=a283b2fd-ff3f-48d1-abab-7a3c52921152"},"vehicle_type_id":"4","last_reported":1747732286,"current_range_meters":7200,"station_id":"ce4bhnh2rcd13ifvqgug","pricing_plan_id":"cebpf4jnsgd1na2vs0mg"},{"bike_id":"42b21cf0-cb21-4329-ac4f-21f3d8c7f505","system_id":"levelo_inurba_marseille","lat":43.31245,"lon":5.36874,"is_reserved":false,"is_disabled":false,"rental_uris":{"android":"levelo://app?vid=42b21cf0-cb21-4329-ac4f-21f3d8c7f505","ios":"levelo://app?vid=42b21cf0-cb21-4329-ac4f-21f3d8c7f505"},"vehicle_type_id":"4","last_reported":1747732286,"current_range_meters":7200,"station_id":"ce4bgl92rcd13ifvqbq0","pricing_plan_id":"cebpf4jnsgd1na2vs0mg"},{"bike_id":"fd75852b-aa6e-4e0d-81eb-426bc55f475e","system_id":"levelo_inurba_marseille","lat":43.26221,"lon":5.40432,"is_reserved":false,"is_disabled":false,"rental_uris":{"android":"levelo://app?vid=fd75852b-aa6e-4e0d-81eb-426bc55f475e","ios":"levelo://app?vid=fd75852b-aa6e-4e0d-81eb-426bc55f475e"},"vehicle_type_id":"4","last_reported":1747732286,"current_range_meters":7200,"station_id":"ce4bhmh2rcd13ifvqgmg","pricing_plan_id":"cebpf4jnsgd1na2vs0mg"},{"bike_id":"20bee342-4a3f-4f34-940d-bb6cf00d52ae","system_id":"levelo_inurba_marseille","lat":43.26695,"lon":5.38588,"is_reserved":false,"is_disabled":false,"rental_uris":{"android":"levelo://app?vid=20bee342-4a3f-4f34-940d-bb6cf00d52ae","ios":"levelo://app?vid=20bee342-4a3f-4f34-940d-bb6cf00d52ae"},"vehicle_type_id":"4","last_reported":1747732286,"current_range_meters":7200,"station_id":"","pricing_plan_id":"cebpf4jnsgd1na2vs0mg"},{"bike_id":"97b73a9e-bb8e-4982-b7b7-929397f31072","system_id":"levelo_inurba_marseille","lat":43.30796,"lon":5.38166,"is_reserved":false,"is_disabled":false,"rental_uris":{"android":"levelo://app?vid=97b73a9e-bb8e-4982-b7b7-929397f31072","ios":"levelo://app?vid=97b73a9e-bb8e-4982-b7b7-929397f31072"},"vehicle_type_id":"4","last_reported":1747732286,"current_range_meters":8000,"station_id":"ce4bgt12rcd13ifvqce0","pricing_plan_id":"cebpf4jnsgd1na2vs0mg"},{"bike_id":"aef55318-ae08-44cc-b6b7-8ec9f0287ed6","system_id":"levelo_inurba_marseille","lat":43.29274,"lon":5.36849,"is_reserved":false,"is_disabled":false,"rental_uris":{"android":"levelo://app?vid=aef55318-ae08-44cc-b6b7-8ec9f0287ed6","ios":"levelo://app?vid=aef55318-ae08-44cc-b6b7-8ec9f0287ed6"},"vehicle_type_id":"4","last_reported":1747732286,"current_range_meters":8000,"station_id":"ce4bhbp2rcd13ifvqesg","pricing_plan_id":"cebpf4jnsgd1na2vs0mg"},{"bike_id":"47288d18-52ac-4136-9b65-6c991cf177ae","system_id":"levelo_inurba_marseille","lat":43.26211,"lon":5.40468,"is_reserved":false,"is_disabled":false,"rental_uris":{"android":"levelo://app?vid=47288d18-52ac-4136-9b65-6c991cf177ae","ios":"levelo://app?vid=47288d18-52ac-4136-9b65-6c991cf177ae"},"vehicle_type_id":"4","last_reported":1747732286,"current_range_meters":8000,"station_id":"ce4bhmh2rcd13ifvqgmg","pricing_plan_id":"cebpf4jnsgd1na2vs0mg"},{"bike_id":"8f0f531d-6a65-4647-8a6f-baa3d982f42f","system_id":"levelo_inurba_marseille","lat":43.28118,"lon":5.4257,"is_reserved":false,"is_disabled":false,"rental_uris":{"android":"levelo://app?vid=8f0f531d-6a65-4647-8a6f-baa3d982f42f","ios":"levelo://app?vid=8f0f531d-6a65-4647-8a6f-baa3d982f42f"},"vehicle_type_id":"4","last_reported":1747732286,"current_range_meters":8400,"station_id":"","pricing_plan_id":"cebpf4jnsgd1na2vs0mg"},{"bike_id":"bcbdbd69-7be8-42f8-a855-a4358565de8f","system_id":"levelo_inurba_marseille","lat":43.2773,"lon":5.41388,"is_reserved":false,"is_disabled":false,"rental_uris":{"android":"levelo://app?vid=bcbdbd69-7be8-42f8-a855-a4358565de8f","ios":"levelo://app?vid=bcbdbd69-7be8-42f8-a855-a4358565de8f"},"vehicle_type_id":"4","last_reported":1747732286,"current_range_meters":8400,"station_id":"","pricing_plan_id":"cebpf4jnsgd1na2vs0mg"},{"bike_id":"a5bcf3ab-5daa-4dec-898b-27b2e944e103","system_id":"levelo_inurba_marseille","lat":43.27328,"lon":5.41049,"is_reserved":false,"is_disabled":false,"rental_uris":{"android":"levelo://app?vid=a5bcf3ab-5daa-4dec-898b-27b2e944e103","ios":"levelo://app?vid=a5bcf3ab-5daa-4dec-898b-27b2e944e103"},"vehicle_type_id":"4","last_reported":1747732286,"current_range_meters":8400,"station_id":"","pricing_plan_id":"cebpf4jnsgd1na2vs0mg"},{"bike_id":"0bee8310-e3c6-4566-aecb-00d86829bb71","system_id":"levelo_inurba_marseille","lat":43.28158,"lon":5.42628,"is_reserved":false,"is_disabled":false,"rental_uris":{"android":"levelo://app?vid=0bee8310-e3c6-4566-aecb-00d86829bb71","ios":"levelo://app?vid=0bee8310-e3c6-4566-aecb-00d86829bb71"},"vehicle_type_id":"4","last_reported":1747732286,"current_range_meters":8400,"station_id":"ce4bhnh2rcd13ifvqgug","pricing_plan_id":"cebpf4jnsgd1na2vs0mg"},{"bike_id":"7ddabab5-fb9d-431e-bb65-ee4d4e122759","system_id":"levelo_inurba_marseille","lat":43.28157,"lon":5.42637,"is_reserved":false,"is_disabled":false,"rental_uris":{"android":"levelo://app?vid=7ddabab5-fb9d-431e-bb65-ee4d4e122759","ios":"levelo://app?vid=7ddabab5-fb9d-431e-bb65-ee4d4e122759"},"vehicle_type_id":"4","last_reported":1747732286,"current_range_meters":8800,"station_id":"ce4bhnh2rcd13ifvqgug","pricing_plan_id":"cebpf4jnsgd1na2vs0mg"},{"bike_id":"68944906-2bed-4069-92e3-fb4361342be4","system_id":"levelo_inurba_marseille","lat":43.29086,"lon":5.3819,"is_reserved":false,"is_disabled":false,"rental_uris":{"android":"levelo://app?vid=68944906-2bed-4069-92e3-fb4361342be4","ios":"levelo://app?vid=68944906-2bed-4069-92e3-fb4361342be4"},"vehicle_type_id":"4","last_reported":1747732286,"current_range_meters":8800,"station_id":"ce4bh512rcd13ifvqe2g","pricing_plan_id":"cebpf4jnsgd1na2vs0mg"},{"bike_id":"85eaca89-9437-48d0-9bca-a254337b88db","system_id":"levelo_inurba_marseille","lat":43.27467,"lon":5.40964,"is_reserved":false,"is_disabled":false,"rental_uris":{"android":"levelo://app?vid=85eaca89-9437-48d0-9bca-a254337b88db","ios":"levelo://app?vid=85eaca89-9437-48d0-9bca-a254337b88db"},"vehicle_type_id":"4","last_reported":1747732286,"current_range_meters":8800,"station_id":"","pricing_plan_id":"cebpf4jnsgd1na2vs0mg"},{"bike_id":"5f96d315-d5d0-4273-9916-2739433976e2","system_id":"levelo_inurba_marseille","lat":43.30531,"lon":5.3655,"is_reserved":false,"is_disabled":false,"rental_uris":{"android":"levelo://app?vid=5f96d315-d5d0-4273-9916-2739433976e2","ios":"levelo://app?vid=5f96d315-d5d0-4273-9916-2739433976e2"},"vehicle_type_id":"4","last_reported":1747732286,"current_range_meters":8800,"station_id":"ce4bgs12rcd13ifvqcag","pricing_plan_id":"cebpf4jnsgd1na2vs0mg"},{"bike_id":"72aa3535-2793-416e-a354-961359fe7c8e","system_id":"levelo_inurba_marseille","lat":43.2582,"lon":5.39438,"is_reserved":false,"is_disabled":false,"rental_uris":{"android":"levelo://app?vid=72aa3535-2793-416e-a354-961359fe7c8e","ios":"levelo://app?vid=72aa3535-2793-416e-a354-961359fe7c8e"},"vehicle_type_id":"4","last_reported":1747732286,"current_range_meters":8800,"station_id":"ce4bhip2rcd13ifvqft0","pricing_plan_id":"cebpf4jnsgd1na2vs0mg"},{"bike_id":"ae92f61d-1120-4f68-9f8d-d0db94492c15","system_id":"levelo_inurba_marseille","lat":43.27182,"lon":5.40977,"is_reserved":false,"is_disabled":false,"rental_uris":{"android":"levelo://app?vid=ae92f61d-1120-4f68-9f8d-d0db94492c15","ios":"levelo://app?vid=ae92f61d-1120-4f68-9f8d-d0db94492c15"},"vehicle_type_id":"4","last_reported":1747732286,"current_range_meters":8800,"station_id":"ce4bhl12rcd13ifvqgf0","pricing_plan_id":"cebpf4jnsgd1na2vs0mg"},{"bike_id":"c076ad54-d589-4eeb-ac51-e1376a33ec39","system_id":"levelo_inurba_marseille","lat":43.29548,"lon":5.42292,"is_reserved":false,"is_disabled":false,"rental_uris":{"android":"levelo://app?vid=c076ad54-d589-4eeb-ac51-e1376a33ec39","ios":"levelo://app?vid=c076ad54-d589-4eeb-ac51-e1376a33ec39"},"vehicle_type_id":"4","last_reported":1747732286,"current_range_meters":8800,"station_id":"ce4bhph2rcd13ifvqhdg","pricing_plan_id":"cebpf4jnsgd1na2vs0mg"},{"bike_id":"2170cd3f-65ab-4b4f-b2d9-7b5dc0722083","system_id":"levelo_inurba_marseille","lat":43.28098,"lon":5.40195,"is_reserved":false,"is_disabled":false,"rental_uris":{"android":"levelo://app?vid=2170cd3f-65ab-4b4f-b2d9-7b5dc0722083","ios":"levelo://app?vid=2170cd3f-65ab-4b4f-b2d9-7b5dc0722083"},"vehicle_type_id":"4","last_reported":1747732286,"current_range_meters":9200,"station_id":"","pricing_plan_id":"cebpf4jnsgd1na2vs0mg"},{"bike_id":"dbf8222a-eea0-42f0-80c2-a4791ac4ed58","system_id":"levelo_inurba_marseille","lat":43.250119,"lon":5.389326,"is_reserved":false,"is_disabled":false,"rental_uris":{"android":"levelo://app?vid=dbf8222a-eea0-42f0-80c2-a4791ac4ed58","ios":"levelo://app?vid=dbf8222a-eea0-42f0-80c2-a4791ac4ed58"},"vehicle_type_id":"4","last_reported":1747732286,"current_range_meters":9200,"station_id":"ce4bhgp2rcd13ifvqfd0","pricing_plan_id":"cebpf4jnsgd1na2vs0mg"},{"bike_id":"4be0c667-10fb-4d0d-a527-4a1530a211d3","system_id":"levelo_inurba_marseille","lat":43.3149,"lon":5.373,"is_reserved":false,"is_disabled":false,"rental_uris":{"android":"levelo://app?vid=4be0c667-10fb-4d0d-a527-4a1530a211d3","ios":"levelo://app?vid=4be0c667-10fb-4d0d-a527-4a1530a211d3"},"vehicle_type_id":"4","last_reported":1747732286,"current_range_meters":9200,"station_id":"ce4bgt12rcd13ifvqcd0","pricing_plan_id":"cebpf4jnsgd1na2vs0mg"},{"bike_id":"05c63458-b601-4e4e-ab26-7a54ca437048","system_id":"levelo_inurba_marseille","lat":43.2955,"lon":5.42262,"is_reserved":false,"is_disabled":false,"rental_uris":{"android":"levelo://app?vid=05c63458-b601-4e4e-ab26-7a54ca437048","ios":"levelo://app?vid=05c63458-b601-4e4e-ab26-7a54ca437048"},"vehicle_type_id":"4","last_reported":1747732286,"current_range_meters":9200,"station_id":"ce4bhph2rcd13ifvqhdg","pricing_plan_id":"cebpf4jnsgd1na2vs0mg"},{"bike_id":"27e2e700-c978-4d72-8e0b-9608485d555f","system_id":"levelo_inurba_marseille","lat":43.240759,"lon":5.377561,"is_reserved":false,"is_disabled":false,"rental_uris":{"android":"levelo://app?vid=27e2e700-c978-4d72-8e0b-9608485d555f","ios":"levelo://app?vid=27e2e700-c978-4d72-8e0b-9608485d555f"},"vehicle_type_id":"4","last_reported":1747732286,"current_range_meters":9600,"station_id":"ce4bhnp2rcd13ifvqgvg","pricing_plan_id":"cebpf4jnsgd1na2vs0mg"},{"bike_id":"7b4ebcee-a823-442f-a8fb-bd9eabc7a6ed","system_id":"levelo_inurba_marseille","lat":43.25112,"lon":5.38818,"is_reserved":false,"is_disabled":false,"rental_uris":{"android":"levelo://app?vid=7b4ebcee-a823-442f-a8fb-bd9eabc7a6ed","ios":"levelo://app?vid=7b4ebcee-a823-442f-a8fb-bd9eabc7a6ed"},"vehicle_type_id":"4","last_reported":1747732286,"current_range_meters":9600,"station_id":"","pricing_plan_id":"cebpf4jnsgd1na2vs0mg"},{"bike_id":"b64d9032-98d1-4620-85ad-769526d32e53","system_id":"levelo_inurba_marseille","lat":43.29268,"lon":5.40919,"is_reserved":false,"is_disabled":false,"rental_uris":{"android":"levelo://app?vid=b64d9032-98d1-4620-85ad-769526d32e53","ios":"levelo://app?vid=b64d9032-98d1-4620-85ad-769526d32e53"},"vehicle_type_id":"4","last_reported":1747732286,"current_range_meters":9600,"station_id":"ce4bh192rcd13ifvqdc0","pricing_plan_id":"cebpf4jnsgd1na2vs0mg"},{"bike_id":"375074ed-8fc3-49b5-a069-d2f4af313461","system_id":"levelo_inurba_marseille","lat":43.29868,"lon":5.36266,"is_reserved":false,"is_disabled":false,"rental_uris":{"android":"levelo://app?vid=375074ed-8fc3-49b5-a069-d2f4af313461","ios":"levelo://app?vid=375074ed-8fc3-49b5-a069-d2f4af313461"},"vehicle_type_id":"4","last_reported":1747732286,"current_range_meters":9600,"station_id":"ce4bgpp2rcd13ifvqc3g","pricing_plan_id":"cebpf4jnsgd1na2vs0mg"},{"bike_id":"17ff48f4-923f-4a3d-9eeb-ee9a8f72dd9f","system_id":"levelo_inurba_marseille","lat":43.29583,"lon":5.39982,"is_reserved":false,"is_disabled":false,"rental_uris":{"android":"levelo://app?vid=17ff48f4-923f-4a3d-9eeb-ee9a8f72dd9f","ios":"levelo://app?vid=17ff48f4-923f-4a3d-9eeb-ee9a8f72dd9f"},"vehicle_type_id":"4","last_reported":1747732286,"current_range_meters":9200,"station_id":"ce4bh312rcd13ifvqdj0","pricing_plan_id":"cebpf4jnsgd1na2vs0mg"},{"bike_id":"08129706-0840-4cc7-a7e9-4dbc2d7407ba","system_id":"levelo_inurba_marseille","lat":43.23191,"lon":5.39986,"is_reserved":false,"is_disabled":false,"rental_uris":{"android":"levelo://app?vid=08129706-0840-4cc7-a7e9-4dbc2d7407ba","ios":"levelo://app?vid=08129706-0840-4cc7-a7e9-4dbc2d7407ba"},"vehicle_type_id":"4","last_reported":1747732286,"current_range_meters":9600,"station_id":"ce4bhn12rcd13ifvqgqg","pricing_plan_id":"cebpf4jnsgd1na2vs0mg"},{"bike_id":"8f20cf22-e78f-4b32-ae3c-49b827a64a2f","system_id":"levelo_inurba_marseille","lat":43.3171,"lon":5.37734,"is_reserved":false,"is_disabled":false,"rental_uris":{"android":"levelo://app?vid=8f20cf22-e78f-4b32-ae3c-49b827a64a2f","ios":"levelo://app?vid=8f20cf22-e78f-4b32-ae3c-49b827a64a2f"},"vehicle_type_id":"4","last_reported":1747732286,"current_range_meters":10000,"station_id":"ce4bgth2rcd13ifvqch0","pricing_plan_id":"cebpf4jnsgd1na2vs0mg"},{"bike_id":"572c97ee-0da0-4be5-a2ce-28eff65f3ef1","system_id":"levelo_inurba_marseille","lat":43.33748,"lon":5.37458,"is_reserved":false,"is_disabled":false,"rental_uris":{"android":"levelo://app?vid=572c97ee-0da0-4be5-a2ce-28eff65f3ef1","ios":"levelo://app?vid=572c97ee-0da0-4be5-a2ce-28eff65f3ef1"},"vehicle_type_id":"4","last_reported":1747732286,"current_range_meters":10000,"station_id":"","pricing_plan_id":"cebpf4jnsgd1na2vs0mg"},{"bike_id":"bffbaf88-357a-4e87-a68c-a9a27a6e01e6","system_id":"levelo_inurba_marseille","lat":43.26237,"lon":5.42125,"is_reserved":false,"is_disabled":false,"rental_uris":{"android":"levelo://app?vid=bffbaf88-357a-4e87-a68c-a9a27a6e01e6","ios":"levelo://app?vid=bffbaf88-357a-4e87-a68c-a9a27a6e01e6"},"vehicle_type_id":"4","last_reported":1747732286,"current_range_meters":10000,"station_id":"","pricing_plan_id":"cebpf4jnsgd1na2vs0mg"},{"bike_id":"a824fbd1-e4ac-448d-8615-1ee649070018","system_id":"levelo_inurba_marseille","lat":43.28615,"lon":5.3707,"is_reserved":false,"is_disabled":false,"rental_uris":{"android":"levelo://app?vid=a824fbd1-e4ac-448d-8615-1ee649070018","ios":"levelo://app?vid=a824fbd1-e4ac-448d-8615-1ee649070018"},"vehicle_type_id":"4","last_reported":1747732286,"current_range_meters":10000,"station_id":"ce4bht12rcd13ifvqi60","pricing_plan_id":"cebpf4jnsgd1na2vs0mg"},{"bike_id":"f295336c-744a-4aae-827e-8817c128646f","system_id":"levelo_inurba_marseille","lat":43.26937,"lon":5.38694,"is_reserved":false,"is_disabled":false,"rental_uris":{"android":"levelo://app?vid=f295336c-744a-4aae-827e-8817c128646f","ios":"levelo://app?vid=f295336c-744a-4aae-827e-8817c128646f"},"vehicle_type_id":"4","last_reported":1747732286,"current_range_meters":10000,"station_id":"ce4bhh92rcd13ifvqfh0","pricing_plan_id":"cebpf4jnsgd1na2vs0mg"},{"bike_id":"8db5f4e3-034f-448f-ae89-dcbf50745870","system_id":"levelo_inurba_marseille","lat":43.29022,"lon":5.38646,"is_reserved":false,"is_disabled":true,"rental_uris":{"android":"levelo://app?vid=8db5f4e3-034f-448f-ae89-dcbf50745870","ios":"levelo://app?vid=8db5f4e3-034f-448f-ae89-dcbf50745870"},"vehicle_type_id":"4","last_reported":1747732286,"current_range_meters":10000,"station_id":"ce4bh4p2rcd13ifvqe0g","pricing_plan_id":"cebpf4jnsgd1na2vs0mg"},{"bike_id":"a625d38a-9ff0-438c-890f-32cb326414b6","system_id":"levelo_inurba_marseille","lat":43.29029,"lon":5.37559,"is_reserved":false,"is_disabled":false,"rental_uris":{"android":"levelo://app?vid=a625d38a-9ff0-438c-890f-32cb326414b6","ios":"levelo://app?vid=a625d38a-9ff0-438c-890f-32cb326414b6"},"vehicle_type_id":"4","last_reported":1747732286,"current_range_meters":10800,"station_id":"ce4bh692rcd13ifvqe90","pricing_plan_id":"cebpf4jnsgd1na2vs0mg"},{"bike_id":"b7cb1705-6b5a-49c6-8905-4f8177d4379a","system_id":"levelo_inurba_marseille","lat":43.23189,"lon":5.4,"is_reserved":false,"is_disabled":false,"rental_uris":{"android":"levelo://app?vid=b7cb1705-6b5a-49c6-8905-4f8177d4379a","ios":"levelo://app?vid=b7cb1705-6b5a-49c6-8905-4f8177d4379a"},"vehicle_type_id":"4","last_reported":1747732286,"current_range_meters":10800,"station_id":"ce4bhn12rcd13ifvqgqg","pricing_plan_id":"cebpf4jnsgd1na2vs0mg"},{"bike_id":"598900bc-cc96-46f3-b8f9-32958f862dd5","system_id":"levelo_inurba_marseille","lat":43.30406,"lon":5.367863,"is_reserved":false,"is_disabled":false,"rental_uris":{"android":"levelo://app?vid=598900bc-cc96-46f3-b8f9-32958f862dd5","ios":"levelo://app?vid=598900bc-cc96-46f3-b8f9-32958f862dd5"},"vehicle_type_id":"4","last_reported":1747732286,"current_range_meters":10800,"station_id":"","pricing_plan_id":"cebpf4jnsgd1na2vs0mg"},{"bike_id":"ab756091-2c46-457a-8903-1638e5289e41","system_id":"levelo_inurba_marseille","lat":43.23184,"lon":5.39992,"is_reserved":false,"is_disabled":false,"rental_uris":{"android":"levelo://app?vid=ab756091-2c46-457a-8903-1638e5289e41","ios":"levelo://app?vid=ab756091-2c46-457a-8903-1638e5289e41"},"vehicle_type_id":"4","last_reported":1747732286,"current_range_meters":10800,"station_id":"ce4bhn12rcd13ifvqgqg","pricing_plan_id":"cebpf4jnsgd1na2vs0mg"},{"bike_id":"654c7adc-287a-44c4-b56d-62e9c130ac61","system_id":"levelo_inurba_marseille","lat":43.30148,"lon":5.38096,"is_reserved":false,"is_disabled":false,"rental_uris":{"android":"levelo://app?vid=654c7adc-287a-44c4-b56d-62e9c130ac61","ios":"levelo://app?vid=654c7adc-287a-44c4-b56d-62e9c130ac61"},"vehicle_type_id":"4","last_reported":1747732286,"current_range_meters":10800,"station_id":"ce4bgjp2rcd13ifvqbh0","pricing_plan_id":"cebpf4jnsgd1na2vs0mg"},{"bike_id":"f9bd452a-300d-4454-890a-c716cf8ab1c5","system_id":"levelo_inurba_marseille","lat":43.250102,"lon":5.389313,"is_reserved":false,"is_disabled":false,"rental_uris":{"android":"levelo://app?vid=f9bd452a-300d-4454-890a-c716cf8ab1c5","ios":"levelo://app?vid=f9bd452a-300d-4454-890a-c716cf8ab1c5"},"vehicle_type_id":"4","last_reported":1747732286,"current_range_meters":11200,"station_id":"ce4bhgp2rcd13ifvqfd0","pricing_plan_id":"cebpf4jnsgd1na2vs0mg"},{"bike_id":"54311972-c1c3-43fe-a9d5-076326b8e0c1","system_id":"levelo_inurba_marseille","lat":43.30465,"lon":5.37903,"is_reserved":false,"is_disabled":true,"rental_uris":{"android":"levelo://app?vid=54311972-c1c3-43fe-a9d5-076326b8e0c1","ios":"levelo://app?vid=54311972-c1c3-43fe-a9d5-076326b8e0c1"},"vehicle_type_id":"4","last_reported":1747732286,"current_range_meters":11200,"station_id":"ce4bgup2rcd13ifvqcn0","pricing_plan_id":"cebpf4jnsgd1na2vs0mg"},{"bike_id":"e2949ef0-3c11-4124-a58e-7b7c61e4d70a","system_id":"levelo_inurba_marseille","lat":43.301452,"lon":5.374142,"is_reserved":false,"is_disabled":false,"rental_uris":{"android":"levelo://app?vid=e2949ef0-3c11-4124-a58e-7b7c61e4d70a","ios":"levelo://app?vid=e2949ef0-3c11-4124-a58e-7b7c61e4d70a"},"vehicle_type_id":"4","last_reported":1747732286,"current_range_meters":11600,"station_id":"","pricing_plan_id":"cebpf4jnsgd1na2vs0mg"},{"bike_id":"211d782c-93fe-44fc-931b-5c466bfda976","system_id":"levelo_inurba_marseille","lat":43.26954,"lon":5.38626,"is_reserved":false,"is_disabled":false,"rental_uris":{"android":"levelo://app?vid=211d782c-93fe-44fc-931b-5c466bfda976","ios":"levelo://app?vid=211d782c-93fe-44fc-931b-5c466bfda976"},"vehicle_type_id":"4","last_reported":1747732286,"current_range_meters":11600,"station_id":"ce4bhh92rcd13ifvqfh0","pricing_plan_id":"cebpf4jnsgd1na2vs0mg"},{"bike_id":"58edc354-c183-4da4-b527-1ba0f2d395e0","system_id":"levelo_inurba_marseille","lat":43.27685,"lon":5.35747,"is_reserved":false,"is_disabled":false,"rental_uris":{"android":"levelo://app?vid=58edc354-c183-4da4-b527-1ba0f2d395e0","ios":"levelo://app?vid=58edc354-c183-4da4-b527-1ba0f2d395e0"},"vehicle_type_id":"4","last_reported":1747732286,"current_range_meters":11600,"station_id":"","pricing_plan_id":"cebpf4jnsgd1na2vs0mg"},{"bike_id":"e8162579-a5ad-485f-ad83-fec8a2ebe7e1","system_id":"levelo_inurba_marseille","lat":43.26826,"lon":5.39099,"is_reserved":false,"is_disabled":false,"rental_uris":{"android":"levelo://app?vid=e8162579-a5ad-485f-ad83-fec8a2ebe7e1","ios":"levelo://app?vid=e8162579-a5ad-485f-ad83-fec8a2ebe7e1"},"vehicle_type_id":"4","last_reported":1747732286,"current_range_meters":11600,"station_id":"","pricing_plan_id":"cebpf4jnsgd1na2vs0mg"},{"bike_id":"59b8a132-4666-485c-b6ad-3e889f0d9322","system_id":"levelo_inurba_marseille","lat":43.25485,"lon":5.37682,"is_reserved":false,"is_disabled":false,"rental_uris":{"android":"levelo://app?vid=59b8a132-4666-485c-b6ad-3e889f0d9322","ios":"levelo://app?vid=59b8a132-4666-485c-b6ad-3e889f0d9322"},"vehicle_type_id":"4","last_reported":1747732286,"current_range_meters":11600,"station_id":"ce4bhh12rcd13ifvqff0","pricing_plan_id":"cebpf4jnsgd1na2vs0mg"},{"bike_id":"33e5cbd5-31c8-4fa0-9d70-cf685e1c2a15","system_id":"levelo_inurba_marseille","lat":43.25172,"lon":5.40344,"is_reserved":false,"is_disabled":false,"rental_uris":{"android":"levelo://app?vid=33e5cbd5-31c8-4fa0-9d70-cf685e1c2a15","ios":"levelo://app?vid=33e5cbd5-31c8-4fa0-9d70-cf685e1c2a15"},"vehicle_type_id":"4","last_reported":1747732286,"current_range_meters":12000,"station_id":"","pricing_plan_id":"cebpf4jnsgd1na2vs0mg"},{"bike_id":"98a6af6c-4e2f-4f75-b744-fe7062c9d3a4","system_id":"levelo_inurba_marseille","lat":43.25908,"lon":5.40876,"is_reserved":false,"is_disabled":false,"rental_uris":{"android":"levelo://app?vid=98a6af6c-4e2f-4f75-b744-fe7062c9d3a4","ios":"levelo://app?vid=98a6af6c-4e2f-4f75-b744-fe7062c9d3a4"},"vehicle_type_id":"4","last_reported":1747732286,"current_range_meters":12000,"station_id":"ce4bhm92rcd13ifvqglg","pricing_plan_id":"cebpf4jnsgd1na2vs0mg"},{"bike_id":"0bb1a3c2-612b-44cc-9629-375e4296d6ae","system_id":"levelo_inurba_marseille","lat":43.26959,"lon":5.38625,"is_reserved":false,"is_disabled":false,"rental_uris":{"android":"levelo://app?vid=0bb1a3c2-612b-44cc-9629-375e4296d6ae","ios":"levelo://app?vid=0bb1a3c2-612b-44cc-9629-375e4296d6ae"},"vehicle_type_id":"4","last_reported":1747732286,"current_range_meters":12000,"station_id":"ce4bhh92rcd13ifvqfh0","pricing_plan_id":"cebpf4jnsgd1na2vs0mg"},{"bike_id":"0d3860e7-38fb-4411-affe-be23a4b12d3a","system_id":"levelo_inurba_marseille","lat":43.289393,"lon":5.364037,"is_reserved":false,"is_disabled":false,"rental_uris":{"android":"levelo://app?vid=0d3860e7-38fb-4411-affe-be23a4b12d3a","ios":"levelo://app?vid=0d3860e7-38fb-4411-affe-be23a4b12d3a"},"vehicle_type_id":"4","last_reported":1747732286,"current_range_meters":12400,"station_id":"ce4bhc92rcd13ifvqetg","pricing_plan_id":"cebpf4jnsgd1na2vs0mg"},{"bike_id":"6ac16438-48b9-4bc4-a408-720460025eb1","system_id":"levelo_inurba_marseille","lat":43.284,"lon":5.3811,"is_reserved":false,"is_disabled":false,"rental_uris":{"android":"levelo://app?vid=6ac16438-48b9-4bc4-a408-720460025eb1","ios":"levelo://app?vid=6ac16438-48b9-4bc4-a408-720460025eb1"},"vehicle_type_id":"4","last_reported":1747732286,"current_range_meters":12400,"station_id":"ce4bh412rcd13ifvqdr0","pricing_plan_id":"cebpf4jnsgd1na2vs0mg"},{"bike_id":"00b4f22b-174d-4b60-97c4-767dbab2fb45","system_id":"levelo_inurba_marseille","lat":43.34146,"lon":5.40909,"is_reserved":false,"is_disabled":false,"rental_uris":{"android":"levelo://app?vid=00b4f22b-174d-4b60-97c4-767dbab2fb45","ios":"levelo://app?vid=00b4f22b-174d-4b60-97c4-767dbab2fb45"},"vehicle_type_id":"4","last_reported":1747732286,"current_range_meters":12800,"station_id":"ce4bhqh2rcd13ifvqhlg","pricing_plan_id":"cebpf4jnsgd1na2vs0mg"},{"bike_id":"149bf609-9ac9-4edd-96a7-ff8597c7557f","system_id":"levelo_inurba_marseille","lat":43.29966,"lon":5.38499,"is_reserved":false,"is_disabled":false,"rental_uris":{"android":"levelo://app?vid=149bf609-9ac9-4edd-96a7-ff8597c7557f","ios":"levelo://app?vid=149bf609-9ac9-4edd-96a7-ff8597c7557f"},"vehicle_type_id":"4","last_reported":1747732286,"current_range_meters":14000,"station_id":"ce4bgj92rcd13ifvqbd0","pricing_plan_id":"cebpf4jnsgd1na2vs0mg"},{"bike_id":"a6a422d9-bc76-42bd-af58-134484a1f87f","system_id":"levelo_inurba_marseille","lat":43.25027,"lon":5.38937,"is_reserved":false,"is_disabled":false,"rental_uris":{"android":"levelo://app?vid=a6a422d9-bc76-42bd-af58-134484a1f87f","ios":"levelo://app?vid=a6a422d9-bc76-42bd-af58-134484a1f87f"},"vehicle_type_id":"4","last_reported":1747732286,"current_range_meters":12800,"station_id":"ce4bhgp2rcd13ifvqfd0","pricing_plan_id":"cebpf4jnsgd1na2vs0mg"},{"bike_id":"66cc3dea-5bed-4d8d-a002-6935971dd586","system_id":"levelo_inurba_marseille","lat":43.30189,"lon":5.38093,"is_reserved":false,"is_disabled":false,"rental_uris":{"android":"levelo://app?vid=66cc3dea-5bed-4d8d-a002-6935971dd586","ios":"levelo://app?vid=66cc3dea-5bed-4d8d-a002-6935971dd586"},"vehicle_type_id":"4","last_reported":1747732286,"current_range_meters":12800,"station_id":"","pricing_plan_id":"cebpf4jnsgd1na2vs0mg"},{"bike_id":"3552fbf2-b43a-446f-93f5-d695fc251b73","system_id":"levelo_inurba_marseille","lat":43.25166,"lon":5.37536,"is_reserved":false,"is_disabled":false,"rental_uris":{"android":"levelo://app?vid=3552fbf2-b43a-446f-93f5-d695fc251b73","ios":"levelo://app?vid=3552fbf2-b43a-446f-93f5-d695fc251b73"},"vehicle_type_id":"4","last_reported":1747732286,"current_range_meters":12800,"station_id":"","pricing_plan_id":"cebpf4jnsgd1na2vs0mg"},{"bike_id":"2aeaf632-8f44-4284-bf3b-9782c3bf4f04","system_id":"levelo_inurba_marseille","lat":43.27183,"lon":5.41,"is_reserved":false,"is_disabled":false,"rental_uris":{"android":"levelo://app?vid=2aeaf632-8f44-4284-bf3b-9782c3bf4f04","ios":"levelo://app?vid=2aeaf632-8f44-4284-bf3b-9782c3bf4f04"},"vehicle_type_id":"4","last_reported":1747732286,"current_range_meters":13600,"station_id":"ce4bhl12rcd13ifvqgf0","pricing_plan_id":"cebpf4jnsgd1na2vs0mg"},{"bike_id":"0c75e290-2f49-4428-9202-02a35670787a","system_id":"levelo_inurba_marseille","lat":43.23203,"lon":5.39961,"is_reserved":false,"is_disabled":false,"rental_uris":{"android":"levelo://app?vid=0c75e290-2f49-4428-9202-02a35670787a","ios":"levelo://app?vid=0c75e290-2f49-4428-9202-02a35670787a"},"vehicle_type_id":"4","last_reported":1747732286,"current_range_meters":13600,"station_id":"ce4bhn12rcd13ifvqgqg","pricing_plan_id":"cebpf4jnsgd1na2vs0mg"},{"bike_id":"1e0be349-75ac-43ce-a2c7-9ea54df984f0","system_id":"levelo_inurba_marseille","lat":43.30371,"lon":5.4249,"is_reserved":false,"is_disabled":false,"rental_uris":{"android":"levelo://app?vid=1e0be349-75ac-43ce-a2c7-9ea54df984f0","ios":"levelo://app?vid=1e0be349-75ac-43ce-a2c7-9ea54df984f0"},"vehicle_type_id":"4","last_reported":1747732286,"current_range_meters":13600,"station_id":"ce4bhoh2rcd13ifvqh6g","pricing_plan_id":"cebpf4jnsgd1na2vs0mg"},{"bike_id":"6386b301-5c5b-41dc-9be6-064d845d26a2","system_id":"levelo_inurba_marseille","lat":43.28631,"lon":5.40662,"is_reserved":false,"is_disabled":false,"rental_uris":{"android":"levelo://app?vid=6386b301-5c5b-41dc-9be6-064d845d26a2","ios":"levelo://app?vid=6386b301-5c5b-41dc-9be6-064d845d26a2"},"vehicle_type_id":"4","last_reported":1747732286,"current_range_meters":13600,"station_id":"","pricing_plan_id":"cebpf4jnsgd1na2vs0mg"},{"bike_id":"c3c11b11-8507-45b4-bd48-1e3bdd46fbbe","system_id":"levelo_inurba_marseille","lat":43.23194,"lon":5.3998,"is_reserved":false,"is_disabled":false,"rental_uris":{"android":"levelo://app?vid=c3c11b11-8507-45b4-bd48-1e3bdd46fbbe","ios":"levelo://app?vid=c3c11b11-8507-45b4-bd48-1e3bdd46fbbe"},"vehicle_type_id":"4","last_reported":1747732286,"current_range_meters":13600,"station_id":"ce4bhn12rcd13ifvqgqg","pricing_plan_id":"cebpf4jnsgd1na2vs0mg"},{"bike_id":"901d18ec-442b-4311-be09-c99faa5dda47","system_id":"levelo_inurba_marseille","lat":43.29971,"lon":5.37139,"is_reserved":false,"is_disabled":false,"rental_uris":{"android":"levelo://app?vid=901d18ec-442b-4311-be09-c99faa5dda47","ios":"levelo://app?vid=901d18ec-442b-4311-be09-c99faa5dda47"},"vehicle_type_id":"4","last_reported":1747732286,"current_range_meters":14000,"station_id":"ce4bgr92rcd13ifvqc7g","pricing_plan_id":"cebpf4jnsgd1na2vs0mg"},{"bike_id":"4f13f9f9-16ff-4a15-947b-39be74fa93cd","system_id":"levelo_inurba_marseille","lat":43.25922,"lon":5.40897,"is_reserved":false,"is_disabled":false,"rental_uris":{"android":"levelo://app?vid=4f13f9f9-16ff-4a15-947b-39be74fa93cd","ios":"levelo://app?vid=4f13f9f9-16ff-4a15-947b-39be74fa93cd"},"vehicle_type_id":"4","last_reported":1747732286,"current_range_meters":14000,"station_id":"ce4bhm92rcd13ifvqglg","pricing_plan_id":"cebpf4jnsgd1na2vs0mg"},{"bike_id":"ff11d6b2-67be-47f5-8183-7697ab51f2e0","system_id":"levelo_inurba_marseille","lat":43.30336,"lon":5.40426,"is_reserved":false,"is_disabled":false,"rental_uris":{"android":"levelo://app?vid=ff11d6b2-67be-47f5-8183-7697ab51f2e0","ios":"levelo://app?vid=ff11d6b2-67be-47f5-8183-7697ab51f2e0"},"vehicle_type_id":"4","last_reported":1747732286,"current_range_meters":14000,"station_id":"ce4bh012rcd13ifvqd10","pricing_plan_id":"cebpf4jnsgd1na2vs0mg"},{"bike_id":"ef24fb0c-db74-4c0c-8c90-5cf92ab0b471","system_id":"levelo_inurba_marseille","lat":43.29286,"lon":5.40936,"is_reserved":false,"is_disabled":false,"rental_uris":{"android":"levelo://app?vid=ef24fb0c-db74-4c0c-8c90-5cf92ab0b471","ios":"levelo://app?vid=ef24fb0c-db74-4c0c-8c90-5cf92ab0b471"},"vehicle_type_id":"4","last_reported":1747732286,"current_range_meters":14400,"station_id":"ce4bh192rcd13ifvqdc0","pricing_plan_id":"cebpf4jnsgd1na2vs0mg"},{"bike_id":"9d769afb-a8e2-4e5f-9e37-12b17dca5323","system_id":"levelo_inurba_marseille","lat":43.28347,"lon":5.38106,"is_reserved":false,"is_disabled":false,"rental_uris":{"android":"levelo://app?vid=9d769afb-a8e2-4e5f-9e37-12b17dca5323","ios":"levelo://app?vid=9d769afb-a8e2-4e5f-9e37-12b17dca5323"},"vehicle_type_id":"4","last_reported":1747732286,"current_range_meters":14000,"station_id":"ce4bh412rcd13ifvqdr0","pricing_plan_id":"cebpf4jnsgd1na2vs0mg"},{"bike_id":"731bde18-920f-4514-b970-c84a826c1ee7","system_id":"levelo_inurba_marseille","lat":43.2993,"lon":5.36546,"is_reserved":false,"is_disabled":false,"rental_uris":{"android":"levelo://app?vid=731bde18-920f-4514-b970-c84a826c1ee7","ios":"levelo://app?vid=731bde18-920f-4514-b970-c84a826c1ee7"},"vehicle_type_id":"4","last_reported":1747732286,"current_range_meters":14400,"station_id":"ce4bgm92rcd13ifvqbr0","pricing_plan_id":"cebpf4jnsgd1na2vs0mg"},{"bike_id":"ffc85876-67f6-44a4-a623-29a203293aa2","system_id":"levelo_inurba_marseille","lat":43.30547,"lon":5.3655,"is_reserved":false,"is_disabled":false,"rental_uris":{"android":"levelo://app?vid=ffc85876-67f6-44a4-a623-29a203293aa2","ios":"levelo://app?vid=ffc85876-67f6-44a4-a623-29a203293aa2"},"vehicle_type_id":"4","last_reported":1747732286,"current_range_meters":14400,"station_id":"ce4bgs12rcd13ifvqcag","pricing_plan_id":"cebpf4jnsgd1na2vs0mg"},{"bike_id":"0d7fba6f-f8cd-4266-9a19-8784e796b217","system_id":"levelo_inurba_marseille","lat":43.295705,"lon":5.39982,"is_reserved":false,"is_disabled":false,"rental_uris":{"android":"levelo://app?vid=0d7fba6f-f8cd-4266-9a19-8784e796b217","ios":"levelo://app?vid=0d7fba6f-f8cd-4266-9a19-8784e796b217"},"vehicle_type_id":"4","last_reported":1747732286,"current_range_meters":14000,"station_id":"ce4bh312rcd13ifvqdj0","pricing_plan_id":"cebpf4jnsgd1na2vs0mg"},{"bike_id":"89436442-066f-48ff-a568-532ae56be28a","system_id":"levelo_inurba_marseille","lat":43.29317,"lon":5.37175,"is_reserved":false,"is_disabled":false,"rental_uris":{"android":"levelo://app?vid=89436442-066f-48ff-a568-532ae56be28a","ios":"levelo://app?vid=89436442-066f-48ff-a568-532ae56be28a"},"vehicle_type_id":"4","last_reported":1747732286,"current_range_meters":14000,"station_id":"ce4bgh92rcd13ifvqb40","pricing_plan_id":"cebpf4jnsgd1na2vs0mg"},{"bike_id":"7a71451d-e95e-4c96-8fa5-539707be0471","system_id":"levelo_inurba_marseille","lat":43.29709,"lon":5.377,"is_reserved":false,"is_disabled":false,"rental_uris":{"android":"levelo://app?vid=7a71451d-e95e-4c96-8fa5-539707be0471","ios":"levelo://app?vid=7a71451d-e95e-4c96-8fa5-539707be0471"},"vehicle_type_id":"4","last_reported":1747732286,"current_range_meters":14400,"station_id":"ce4bgkh2rcd13ifvqbl0","pricing_plan_id":"cebpf4jnsgd1na2vs0mg"},{"bike_id":"8da7c00b-5199-431e-9e81-0f430be4a158","system_id":"levelo_inurba_marseille","lat":43.30155,"lon":5.38076,"is_reserved":false,"is_disabled":false,"rental_uris":{"android":"levelo://app?vid=8da7c00b-5199-431e-9e81-0f430be4a158","ios":"levelo://app?vid=8da7c00b-5199-431e-9e81-0f430be4a158"},"vehicle_type_id":"4","last_reported":1747732286,"current_range_meters":14800,"station_id":"ce4bgjp2rcd13ifvqbh0","pricing_plan_id":"cebpf4jnsgd1na2vs0mg"},{"bike_id":"c64832ea-cbd0-47ba-a7f9-dddb8ed879b4","system_id":"levelo_inurba_marseille","lat":43.30521,"lon":5.36532,"is_reserved":false,"is_disabled":false,"rental_uris":{"android":"levelo://app?vid=c64832ea-cbd0-47ba-a7f9-dddb8ed879b4","ios":"levelo://app?vid=c64832ea-cbd0-47ba-a7f9-dddb8ed879b4"},"vehicle_type_id":"4","last_reported":1747732286,"current_range_meters":14800,"station_id":"ce4bgs12rcd13ifvqcag","pricing_plan_id":"cebpf4jnsgd1na2vs0mg"},{"bike_id":"c4fc221d-06d4-48bc-91cf-16d7e89fdb10","system_id":"levelo_inurba_marseille","lat":43.25926,"lon":5.40906,"is_reserved":false,"is_disabled":false,"rental_uris":{"android":"levelo://app?vid=c4fc221d-06d4-48bc-91cf-16d7e89fdb10","ios":"levelo://app?vid=c4fc221d-06d4-48bc-91cf-16d7e89fdb10"},"vehicle_type_id":"4","last_reported":1747732286,"current_range_meters":14800,"station_id":"ce4bhm92rcd13ifvqglg","pricing_plan_id":"cebpf4jnsgd1na2vs0mg"},{"bike_id":"bfadeaec-216b-47d1-99b4-74d81f9ee763","system_id":"levelo_inurba_marseille","lat":43.321178,"lon":5.367767,"is_reserved":false,"is_disabled":false,"rental_uris":{"android":"levelo://app?vid=bfadeaec-216b-47d1-99b4-74d81f9ee763","ios":"levelo://app?vid=bfadeaec-216b-47d1-99b4-74d81f9ee763"},"vehicle_type_id":"4","last_reported":1747732286,"current_range_meters":14800,"station_id":"ce4bhrh2rcd13ifvqhug","pricing_plan_id":"cebpf4jnsgd1na2vs0mg"},{"bike_id":"22f88cf7-2fd0-4522-bc40-5b7103343b1d","system_id":"levelo_inurba_marseille","lat":43.290051,"lon":5.356106,"is_reserved":false,"is_disabled":false,"rental_uris":{"android":"levelo://app?vid=22f88cf7-2fd0-4522-bc40-5b7103343b1d","ios":"levelo://app?vid=22f88cf7-2fd0-4522-bc40-5b7103343b1d"},"vehicle_type_id":"4","last_reported":1747732286,"current_range_meters":14800,"station_id":"ce4bhb92rcd13ifvqen0","pricing_plan_id":"cebpf4jnsgd1na2vs0mg"},{"bike_id":"28c554a5-7272-45ce-9456-c02948158cfa","system_id":"levelo_inurba_marseille","lat":43.29053,"lon":5.39991,"is_reserved":false,"is_disabled":false,"rental_uris":{"android":"levelo://app?vid=28c554a5-7272-45ce-9456-c02948158cfa","ios":"levelo://app?vid=28c554a5-7272-45ce-9456-c02948158cfa"},"vehicle_type_id":"4","last_reported":1747732286,"current_range_meters":14800,"station_id":"ce4bh392rcd13ifvqdm0","pricing_plan_id":"cebpf4jnsgd1na2vs0mg"},{"bike_id":"283403a0-596c-4a94-85e1-66d88d547369","system_id":"levelo_inurba_marseille","lat":43.29247,"lon":5.40911,"is_reserved":false,"is_disabled":false,"rental_uris":{"android":"levelo://app?vid=283403a0-596c-4a94-85e1-66d88d547369","ios":"levelo://app?vid=283403a0-596c-4a94-85e1-66d88d547369"},"vehicle_type_id":"4","last_reported":1747732286,"current_range_meters":15200,"station_id":"ce4bh192rcd13ifvqdc0","pricing_plan_id":"cebpf4jnsgd1na2vs0mg"},{"bike_id":"b2de51ba-084f-4a88-9642-969e0b91b2a5","system_id":"levelo_inurba_marseille","lat":43.28675,"lon":5.38682,"is_reserved":false,"is_disabled":false,"rental_uris":{"android":"levelo://app?vid=b2de51ba-084f-4a88-9642-969e0b91b2a5","ios":"levelo://app?vid=b2de51ba-084f-4a88-9642-969e0b91b2a5"},"vehicle_type_id":"4","last_reported":1747732286,"current_range_meters":14800,"station_id":"ce4bh492rcd13ifvqdug","pricing_plan_id":"cebpf4jnsgd1na2vs0mg"},{"bike_id":"dc80936a-51b4-4ef9-b71e-e259b58f2ac3","system_id":"levelo_inurba_marseille","lat":43.23192,"lon":5.39955,"is_reserved":false,"is_disabled":false,"rental_uris":{"android":"levelo://app?vid=dc80936a-51b4-4ef9-b71e-e259b58f2ac3","ios":"levelo://app?vid=dc80936a-51b4-4ef9-b71e-e259b58f2ac3"},"vehicle_type_id":"4","last_reported":1747732286,"current_range_meters":15200,"station_id":"ce4bhn12rcd13ifvqgqg","pricing_plan_id":"cebpf4jnsgd1na2vs0mg"},{"bike_id":"cbfd8cdb-e0a4-440c-ac03-518d5b691c36","system_id":"levelo_inurba_marseille","lat":43.26687,"lon":5.38263,"is_reserved":false,"is_disabled":false,"rental_uris":{"android":"levelo://app?vid=cbfd8cdb-e0a4-440c-ac03-518d5b691c36","ios":"levelo://app?vid=cbfd8cdb-e0a4-440c-ac03-518d5b691c36"},"vehicle_type_id":"4","last_reported":1747732286,"current_range_meters":15200,"station_id":"ce4bhg92rcd13ifvqf90","pricing_plan_id":"cebpf4jnsgd1na2vs0mg"},{"bike_id":"43631b8b-bb21-4d5b-9b04-700076cfff0c","system_id":"levelo_inurba_marseille","lat":43.266785,"lon":5.382663,"is_reserved":false,"is_disabled":false,"rental_uris":{"android":"levelo://app?vid=43631b8b-bb21-4d5b-9b04-700076cfff0c","ios":"levelo://app?vid=43631b8b-bb21-4d5b-9b04-700076cfff0c"},"vehicle_type_id":"4","last_reported":1747732286,"current_range_meters":16000,"station_id":"ce4bhg92rcd13ifvqf90","pricing_plan_id":"cebpf4jnsgd1na2vs0mg"},{"bike_id":"e59e5f45-9513-445e-bc33-b808576c4008","system_id":"levelo_inurba_marseille","lat":43.29045,"lon":5.39975,"is_reserved":false,"is_disabled":false,"rental_uris":{"android":"levelo://app?vid=e59e5f45-9513-445e-bc33-b808576c4008","ios":"levelo://app?vid=e59e5f45-9513-445e-bc33-b808576c4008"},"vehicle_type_id":"4","last_reported":1747732286,"current_range_meters":16000,"station_id":"ce4bh392rcd13ifvqdm0","pricing_plan_id":"cebpf4jnsgd1na2vs0mg"},{"bike_id":"7c992c65-8b06-4407-8e9a-c46be4063ba2","system_id":"levelo_inurba_marseille","lat":43.30544,"lon":5.36556,"is_reserved":false,"is_disabled":false,"rental_uris":{"android":"levelo://app?vid=7c992c65-8b06-4407-8e9a-c46be4063ba2","ios":"levelo://app?vid=7c992c65-8b06-4407-8e9a-c46be4063ba2"},"vehicle_type_id":"4","last_reported":1747732286,"current_range_meters":16000,"station_id":"ce4bgs12rcd13ifvqcag","pricing_plan_id":"cebpf4jnsgd1na2vs0mg"},{"bike_id":"41e78dd0-d7bd-49f0-a59d-032d17bf2001","system_id":"levelo_inurba_marseille","lat":43.29286,"lon":5.40121,"is_reserved":false,"is_disabled":false,"rental_uris":{"android":"levelo://app?vid=41e78dd0-d7bd-49f0-a59d-032d17bf2001","ios":"levelo://app?vid=41e78dd0-d7bd-49f0-a59d-032d17bf2001"},"vehicle_type_id":"4","last_reported":1747732286,"current_range_meters":16000,"station_id":"ce4bh312rcd13ifvqdk0","pricing_plan_id":"cebpf4jnsgd1na2vs0mg"},{"bike_id":"95bbb5b0-4ebd-4505-a979-31f090674af1","system_id":"levelo_inurba_marseille","lat":43.292655,"lon":5.376142,"is_reserved":false,"is_disabled":false,"rental_uris":{"android":"levelo://app?vid=95bbb5b0-4ebd-4505-a979-31f090674af1","ios":"levelo://app?vid=95bbb5b0-4ebd-4505-a979-31f090674af1"},"vehicle_type_id":"4","last_reported":1747732286,"current_range_meters":16000,"station_id":"ce4bgi12rcd13ifvqb80","pricing_plan_id":"cebpf4jnsgd1na2vs0mg"},{"bike_id":"65d313d8-ec62-4d84-a8a8-394ffb60bc2a","system_id":"levelo_inurba_marseille","lat":43.2961,"lon":5.3772,"is_reserved":false,"is_disabled":false,"rental_uris":{"android":"levelo://app?vid=65d313d8-ec62-4d84-a8a8-394ffb60bc2a","ios":"levelo://app?vid=65d313d8-ec62-4d84-a8a8-394ffb60bc2a"},"vehicle_type_id":"4","last_reported":1747732286,"current_range_meters":16000,"station_id":"ce4bgi92rcd13ifvqb90","pricing_plan_id":"cebpf4jnsgd1na2vs0mg"},{"bike_id":"b5a4e322-4d33-4131-bc99-ff63c34a40de","system_id":"levelo_inurba_marseille","lat":43.30158,"lon":5.3808,"is_reserved":false,"is_disabled":false,"rental_uris":{"android":"levelo://app?vid=b5a4e322-4d33-4131-bc99-ff63c34a40de","ios":"levelo://app?vid=b5a4e322-4d33-4131-bc99-ff63c34a40de"},"vehicle_type_id":"4","last_reported":1747732286,"current_range_meters":16400,"station_id":"ce4bgjp2rcd13ifvqbh0","pricing_plan_id":"cebpf4jnsgd1na2vs0mg"},{"bike_id":"aa048516-7dde-4588-8581-150fd54aee39","system_id":"levelo_inurba_marseille","lat":43.248117,"lon":5.374562,"is_reserved":false,"is_disabled":false,"rental_uris":{"android":"levelo://app?vid=aa048516-7dde-4588-8581-150fd54aee39","ios":"levelo://app?vid=aa048516-7dde-4588-8581-150fd54aee39"},"vehicle_type_id":"4","last_reported":1747732286,"current_range_meters":16800,"station_id":"ce4bhgh2rcd13ifvqfb0","pricing_plan_id":"cebpf4jnsgd1na2vs0mg"},{"bike_id":"697a9b19-19cf-408f-a646-3bcdb4d31625","system_id":"levelo_inurba_marseille","lat":43.24683,"lon":5.38139,"is_reserved":false,"is_disabled":false,"rental_uris":{"android":"levelo://app?vid=697a9b19-19cf-408f-a646-3bcdb4d31625","ios":"levelo://app?vid=697a9b19-19cf-408f-a646-3bcdb4d31625"},"vehicle_type_id":"4","last_reported":1747732286,"current_range_meters":16800,"station_id":"ce4bhih2rcd13ifvqfr0","pricing_plan_id":"cebpf4jnsgd1na2vs0mg"},{"bike_id":"c93e77b6-1a3e-428a-850b-c144a5f577bd","system_id":"levelo_inurba_marseille","lat":43.33608,"lon":5.41027,"is_reserved":false,"is_disabled":false,"rental_uris":{"android":"levelo://app?vid=c93e77b6-1a3e-428a-850b-c144a5f577bd","ios":"levelo://app?vid=c93e77b6-1a3e-428a-850b-c144a5f577bd"},"vehicle_type_id":"4","last_reported":1747732286,"current_range_meters":16400,"station_id":"ce4bhqh2rcd13ifvqhmg","pricing_plan_id":"cebpf4jnsgd1na2vs0mg"},{"bike_id":"9a4bbd17-99bd-4347-bd31-e7103b100aa8","system_id":"levelo_inurba_marseille","lat":43.25924,"lon":5.40903,"is_reserved":false,"is_disabled":false,"rental_uris":{"android":"levelo://app?vid=9a4bbd17-99bd-4347-bd31-e7103b100aa8","ios":"levelo://app?vid=9a4bbd17-99bd-4347-bd31-e7103b100aa8"},"vehicle_type_id":"4","last_reported":1747732286,"current_range_meters":16800,"station_id":"ce4bhm92rcd13ifvqglg","pricing_plan_id":"cebpf4jnsgd1na2vs0mg"},{"bike_id":"160cb97e-6685-4773-a367-309320713b20","system_id":"levelo_inurba_marseille","lat":43.29707,"lon":5.37701,"is_reserved":false,"is_disabled":false,"rental_uris":{"android":"levelo://app?vid=160cb97e-6685-4773-a367-309320713b20","ios":"levelo://app?vid=160cb97e-6685-4773-a367-309320713b20"},"vehicle_type_id":"4","last_reported":1747732286,"current_range_meters":16800,"station_id":"ce4bgkh2rcd13ifvqbl0","pricing_plan_id":"cebpf4jnsgd1na2vs0mg"},{"bike_id":"5765434c-77b5-41b5-8b14-b978e4d6dd10","system_id":"levelo_inurba_marseille","lat":43.21215,"lon":5.35091,"is_reserved":false,"is_disabled":false,"rental_uris":{"android":"levelo://app?vid=5765434c-77b5-41b5-8b14-b978e4d6dd10","ios":"levelo://app?vid=5765434c-77b5-41b5-8b14-b978e4d6dd10"},"vehicle_type_id":"4","last_reported":1747732286,"current_range_meters":16800,"station_id":"st_cvj6sg6p6f1abm77japg","pricing_plan_id":"cebpf4jnsgd1na2vs0mg"},{"bike_id":"11e2d666-f56d-4a09-86b1-334997b440e1","system_id":"levelo_inurba_marseille","lat":43.301372,"lon":5.374286,"is_reserved":false,"is_disabled":false,"rental_uris":{"android":"levelo://app?vid=11e2d666-f56d-4a09-86b1-334997b440e1","ios":"levelo://app?vid=11e2d666-f56d-4a09-86b1-334997b440e1"},"vehicle_type_id":"4","last_reported":1747732286,"current_range_meters":16800,"station_id":"ce4bgs92rcd13ifvqcc0","pricing_plan_id":"cebpf4jnsgd1na2vs0mg"},{"bike_id":"4fc760d1-74fe-4666-b8f8-efe0b28b8769","system_id":"levelo_inurba_marseille","lat":43.29855,"lon":5.36258,"is_reserved":false,"is_disabled":false,"rental_uris":{"android":"levelo://app?vid=4fc760d1-74fe-4666-b8f8-efe0b28b8769","ios":"levelo://app?vid=4fc760d1-74fe-4666-b8f8-efe0b28b8769"},"vehicle_type_id":"4","last_reported":1747732286,"current_range_meters":16800,"station_id":"ce4bgpp2rcd13ifvqc3g","pricing_plan_id":"cebpf4jnsgd1na2vs0mg"},{"bike_id":"3e84efeb-1471-4065-96f4-c64d8a5a23db","system_id":"levelo_inurba_marseille","lat":43.3029,"lon":5.37708,"is_reserved":false,"is_disabled":false,"rental_uris":{"android":"levelo://app?vid=3e84efeb-1471-4065-96f4-c64d8a5a23db","ios":"levelo://app?vid=3e84efeb-1471-4065-96f4-c64d8a5a23db"},"vehicle_type_id":"4","last_reported":1747732286,"current_range_meters":16800,"station_id":"ce4bguh2rcd13ifvqcj0","pricing_plan_id":"cebpf4jnsgd1na2vs0mg"},{"bike_id":"79302d41-7308-43db-b160-60c303f9cb12","system_id":"levelo_inurba_marseille","lat":43.28275,"lon":5.35108,"is_reserved":false,"is_disabled":false,"rental_uris":{"android":"levelo://app?vid=79302d41-7308-43db-b160-60c303f9cb12","ios":"levelo://app?vid=79302d41-7308-43db-b160-60c303f9cb12"},"vehicle_type_id":"4","last_reported":1747732286,"current_range_meters":17200,"station_id":"ce4bhbp2rcd13ifvqerg","pricing_plan_id":"cebpf4jnsgd1na2vs0mg"},{"bike_id":"d22b0fd0-78a6-46fc-aad8-ce2ca2a629e3","system_id":"levelo_inurba_marseille","lat":43.21203,"lon":5.35071,"is_reserved":false,"is_disabled":false,"rental_uris":{"android":"levelo://app?vid=d22b0fd0-78a6-46fc-aad8-ce2ca2a629e3","ios":"levelo://app?vid=d22b0fd0-78a6-46fc-aad8-ce2ca2a629e3"},"vehicle_type_id":"4","last_reported":1747732286,"current_range_meters":17200,"station_id":"st_cvj6sg6p6f1abm77japg","pricing_plan_id":"cebpf4jnsgd1na2vs0mg"},{"bike_id":"87e7bc5e-db0f-423c-8aff-9df688bbf3bc","system_id":"levelo_inurba_marseille","lat":43.24816,"lon":5.37463,"is_reserved":false,"is_disabled":false,"rental_uris":{"android":"levelo://app?vid=87e7bc5e-db0f-423c-8aff-9df688bbf3bc","ios":"levelo://app?vid=87e7bc5e-db0f-423c-8aff-9df688bbf3bc"},"vehicle_type_id":"4","last_reported":1747732286,"current_range_meters":17200,"station_id":"ce4bhgh2rcd13ifvqfb0","pricing_plan_id":"cebpf4jnsgd1na2vs0mg"},{"bike_id":"a253706b-1cb9-4ca4-9560-173eeb92ac1f","system_id":"levelo_inurba_marseille","lat":43.308,"lon":5.4352,"is_reserved":false,"is_disabled":false,"rental_uris":{"android":"levelo://app?vid=a253706b-1cb9-4ca4-9560-173eeb92ac1f","ios":"levelo://app?vid=a253706b-1cb9-4ca4-9560-173eeb92ac1f"},"vehicle_type_id":"4","last_reported":1747732286,"current_range_meters":17200,"station_id":"ce4bhph2rcd13ifvqheg","pricing_plan_id":"cebpf4jnsgd1na2vs0mg"},{"bike_id":"b527facc-d5b0-44c4-b551-18fc4985201a","system_id":"levelo_inurba_marseille","lat":43.312133,"lon":5.368291,"is_reserved":false,"is_disabled":false,"rental_uris":{"android":"levelo://app?vid=b527facc-d5b0-44c4-b551-18fc4985201a","ios":"levelo://app?vid=b527facc-d5b0-44c4-b551-18fc4985201a"},"vehicle_type_id":"4","last_reported":1747732286,"current_range_meters":17200,"station_id":"ce4bgl92rcd13ifvqbq0","pricing_plan_id":"cebpf4jnsgd1na2vs0mg"},{"bike_id":"24dc12dd-e0a1-4ccc-b473-486d35ddca69","system_id":"levelo_inurba_marseille","lat":43.317107,"lon":5.437069,"is_reserved":false,"is_disabled":false,"rental_uris":{"android":"levelo://app?vid=24dc12dd-e0a1-4ccc-b473-486d35ddca69","ios":"levelo://app?vid=24dc12dd-e0a1-4ccc-b473-486d35ddca69"},"vehicle_type_id":"4","last_reported":1747732286,"current_range_meters":17600,"station_id":"ce4bhp92rcd13ifvqhcg","pricing_plan_id":"cebpf4jnsgd1na2vs0mg"},{"bike_id":"6698a7ab-5216-4951-ae2a-00c24975880e","system_id":"levelo_inurba_marseille","lat":43.27968,"lon":5.38737,"is_reserved":false,"is_disabled":false,"rental_uris":{"android":"levelo://app?vid=6698a7ab-5216-4951-ae2a-00c24975880e","ios":"levelo://app?vid=6698a7ab-5216-4951-ae2a-00c24975880e"},"vehicle_type_id":"4","last_reported":1747732286,"current_range_meters":17600,"station_id":"ce4bhg12rcd13ifvqf80","pricing_plan_id":"cebpf4jnsgd1na2vs0mg"},{"bike_id":"07646ddd-2a2b-4dd4-9b59-d381148169b1","system_id":"levelo_inurba_marseille","lat":43.30179,"lon":5.38075,"is_reserved":false,"is_disabled":false,"rental_uris":{"android":"levelo://app?vid=07646ddd-2a2b-4dd4-9b59-d381148169b1","ios":"levelo://app?vid=07646ddd-2a2b-4dd4-9b59-d381148169b1"},"vehicle_type_id":"4","last_reported":1747732286,"current_range_meters":17600,"station_id":"ce4bgjp2rcd13ifvqbh0","pricing_plan_id":"cebpf4jnsgd1na2vs0mg"},{"bike_id":"ea68f546-8499-4cde-975b-93e011d81217","system_id":"levelo_inurba_marseille","lat":43.301433,"lon":5.374255,"is_reserved":false,"is_disabled":false,"rental_uris":{"android":"levelo://app?vid=ea68f546-8499-4cde-975b-93e011d81217","ios":"levelo://app?vid=ea68f546-8499-4cde-975b-93e011d81217"},"vehicle_type_id":"4","last_reported":1747732286,"current_range_meters":17600,"station_id":"ce4bgs92rcd13ifvqcc0","pricing_plan_id":"cebpf4jnsgd1na2vs0mg"},{"bike_id":"6ed8eb2e-4617-409f-9e20-3e97dffc3b6a","system_id":"levelo_inurba_marseille","lat":43.29045,"lon":5.39961,"is_reserved":false,"is_disabled":false,"rental_uris":{"android":"levelo://app?vid=6ed8eb2e-4617-409f-9e20-3e97dffc3b6a","ios":"levelo://app?vid=6ed8eb2e-4617-409f-9e20-3e97dffc3b6a"},"vehicle_type_id":"4","last_reported":1747732286,"current_range_meters":17600,"station_id":"ce4bh392rcd13ifvqdm0","pricing_plan_id":"cebpf4jnsgd1na2vs0mg"},{"bike_id":"b2812a3f-2332-493f-85e4-6bc85b95ec70","system_id":"levelo_inurba_marseille","lat":43.26233,"lon":5.40448,"is_reserved":false,"is_disabled":false,"rental_uris":{"android":"levelo://app?vid=b2812a3f-2332-493f-85e4-6bc85b95ec70","ios":"levelo://app?vid=b2812a3f-2332-493f-85e4-6bc85b95ec70"},"vehicle_type_id":"4","last_reported":1747732286,"current_range_meters":18000,"station_id":"ce4bhmh2rcd13ifvqgmg","pricing_plan_id":"cebpf4jnsgd1na2vs0mg"},{"bike_id":"af399d30-5d7d-4225-9e5d-d98dc2656f01","system_id":"levelo_inurba_marseille","lat":43.318803,"lon":5.407342,"is_reserved":false,"is_disabled":false,"rental_uris":{"android":"levelo://app?vid=af399d30-5d7d-4225-9e5d-d98dc2656f01","ios":"levelo://app?vid=af399d30-5d7d-4225-9e5d-d98dc2656f01"},"vehicle_type_id":"4","last_reported":1747732286,"current_range_meters":18000,"station_id":"ce4bhq12rcd13ifvqhig","pricing_plan_id":"cebpf4jnsgd1na2vs0mg"},{"bike_id":"2730a49a-5fc6-4ae9-9364-e1ee30e9806b","system_id":"levelo_inurba_marseille","lat":43.2895,"lon":5.39641,"is_reserved":false,"is_disabled":true,"rental_uris":{"android":"levelo://app?vid=2730a49a-5fc6-4ae9-9364-e1ee30e9806b","ios":"levelo://app?vid=2730a49a-5fc6-4ae9-9364-e1ee30e9806b"},"vehicle_type_id":"4","last_reported":1747732286,"current_range_meters":18000,"station_id":"ce4bh3h2rcd13ifvqdn0","pricing_plan_id":"cebpf4jnsgd1na2vs0mg"},{"bike_id":"4087717d-3758-40b3-aba6-6248bfdfe049","system_id":"levelo_inurba_marseille","lat":43.292593,"lon":5.376178,"is_reserved":false,"is_disabled":false,"rental_uris":{"android":"levelo://app?vid=4087717d-3758-40b3-aba6-6248bfdfe049","ios":"levelo://app?vid=4087717d-3758-40b3-aba6-6248bfdfe049"},"vehicle_type_id":"4","last_reported":1747732286,"current_range_meters":18000,"station_id":"ce4bgi12rcd13ifvqb80","pricing_plan_id":"cebpf4jnsgd1na2vs0mg"},{"bike_id":"92f91e94-ac98-4d37-9f39-e934690f9111","system_id":"levelo_inurba_marseille","lat":43.29037,"lon":5.39968,"is_reserved":false,"is_disabled":false,"rental_uris":{"android":"levelo://app?vid=92f91e94-ac98-4d37-9f39-e934690f9111","ios":"levelo://app?vid=92f91e94-ac98-4d37-9f39-e934690f9111"},"vehicle_type_id":"4","last_reported":1747732286,"current_range_meters":18800,"station_id":"ce4bh392rcd13ifvqdm0","pricing_plan_id":"cebpf4jnsgd1na2vs0mg"},{"bike_id":"bded63e5-ee1e-4b50-8e81-f721228dd28d","system_id":"levelo_inurba_marseille","lat":43.2671,"lon":5.38295,"is_reserved":false,"is_disabled":false,"rental_uris":{"android":"levelo://app?vid=bded63e5-ee1e-4b50-8e81-f721228dd28d","ios":"levelo://app?vid=bded63e5-ee1e-4b50-8e81-f721228dd28d"},"vehicle_type_id":"4","last_reported":1747732286,"current_range_meters":18800,"station_id":"ce4bhg92rcd13ifvqf90","pricing_plan_id":"cebpf4jnsgd1na2vs0mg"},{"bike_id":"a3830faf-6ba4-4ea5-8de5-91cbf435bca9","system_id":"levelo_inurba_marseille","lat":43.25922,"lon":5.40885,"is_reserved":false,"is_disabled":false,"rental_uris":{"android":"levelo://app?vid=a3830faf-6ba4-4ea5-8de5-91cbf435bca9","ios":"levelo://app?vid=a3830faf-6ba4-4ea5-8de5-91cbf435bca9"},"vehicle_type_id":"4","last_reported":1747732286,"current_range_meters":18800,"station_id":"ce4bhm92rcd13ifvqglg","pricing_plan_id":"cebpf4jnsgd1na2vs0mg"},{"bike_id":"245649b9-ba55-42a3-bbdd-78cb15f42bda","system_id":"levelo_inurba_marseille","lat":43.23148,"lon":5.43721,"is_reserved":false,"is_disabled":false,"rental_uris":{"android":"levelo://app?vid=245649b9-ba55-42a3-bbdd-78cb15f42bda","ios":"levelo://app?vid=245649b9-ba55-42a3-bbdd-78cb15f42bda"},"vehicle_type_id":"4","last_reported":1747732286,"current_range_meters":18800,"station_id":"ce4bhmp2rcd13ifvqgog","pricing_plan_id":"cebpf4jnsgd1na2vs0mg"},{"bike_id":"1fea3aa0-bd2e-49a7-a54a-ab620f502330","system_id":"levelo_inurba_marseille","lat":43.2927,"lon":5.4011,"is_reserved":false,"is_disabled":false,"rental_uris":{"android":"levelo://app?vid=1fea3aa0-bd2e-49a7-a54a-ab620f502330","ios":"levelo://app?vid=1fea3aa0-bd2e-49a7-a54a-ab620f502330"},"vehicle_type_id":"4","last_reported":1747732286,"current_range_meters":18800,"station_id":"ce4bh312rcd13ifvqdk0","pricing_plan_id":"cebpf4jnsgd1na2vs0mg"},{"bike_id":"d36d6cf4-0fae-4ab6-bc0f-600a0e8f9648","system_id":"levelo_inurba_marseille","lat":43.28607,"lon":5.37066,"is_reserved":false,"is_disabled":false,"rental_uris":{"android":"levelo://app?vid=d36d6cf4-0fae-4ab6-bc0f-600a0e8f9648","ios":"levelo://app?vid=d36d6cf4-0fae-4ab6-bc0f-600a0e8f9648"},"vehicle_type_id":"4","last_reported":1747732286,"current_range_meters":19200,"station_id":"ce4bht12rcd13ifvqi60","pricing_plan_id":"cebpf4jnsgd1na2vs0mg"},{"bike_id":"a033c6d8-5a8f-4551-9a74-b4f10acffaec","system_id":"levelo_inurba_marseille","lat":43.3236,"lon":5.36753,"is_reserved":false,"is_disabled":false,"rental_uris":{"android":"levelo://app?vid=a033c6d8-5a8f-4551-9a74-b4f10acffaec","ios":"levelo://app?vid=a033c6d8-5a8f-4551-9a74-b4f10acffaec"},"vehicle_type_id":"4","last_reported":1747732286,"current_range_meters":19200,"station_id":"ce4bhsh2rcd13ifvqi2g","pricing_plan_id":"cebpf4jnsgd1na2vs0mg"},{"bike_id":"8da44370-a435-48f7-9bf8-4043a5db973f","system_id":"levelo_inurba_marseille","lat":43.26096,"lon":5.37856,"is_reserved":false,"is_disabled":true,"rental_uris":{"android":"levelo://app?vid=8da44370-a435-48f7-9bf8-4043a5db973f","ios":"levelo://app?vid=8da44370-a435-48f7-9bf8-4043a5db973f"},"vehicle_type_id":"4","last_reported":1747732286,"current_range_meters":19200,"station_id":"","pricing_plan_id":"cebpf4jnsgd1na2vs0mg"},{"bike_id":"c6dd3070-9a24-496b-91cb-fa213da95903","system_id":"levelo_inurba_marseille","lat":43.2957,"lon":5.37522,"is_reserved":false,"is_disabled":false,"rental_uris":{"android":"levelo://app?vid=c6dd3070-9a24-496b-91cb-fa213da95903","ios":"levelo://app?vid=c6dd3070-9a24-496b-91cb-fa213da95903"},"vehicle_type_id":"4","last_reported":1747732286,"current_range_meters":19200,"station_id":"ce4bgh92rcd13ifvqb50","pricing_plan_id":"cebpf4jnsgd1na2vs0mg"},{"bike_id":"fab461d9-873a-424d-8ecd-2ee88fe26ed5","system_id":"levelo_inurba_marseille","lat":43.288528,"lon":5.393292,"is_reserved":false,"is_disabled":false,"rental_uris":{"android":"levelo://app?vid=fab461d9-873a-424d-8ecd-2ee88fe26ed5","ios":"levelo://app?vid=fab461d9-873a-424d-8ecd-2ee88fe26ed5"},"vehicle_type_id":"4","last_reported":1747732286,"current_range_meters":19600,"station_id":"ce4bh2p2rcd13ifvqdi0","pricing_plan_id":"cebpf4jnsgd1na2vs0mg"},{"bike_id":"da9d5418-61e3-4ea8-8f49-009a1f38aeba","system_id":"levelo_inurba_marseille","lat":43.25828,"lon":5.39437,"is_reserved":false,"is_disabled":false,"rental_uris":{"android":"levelo://app?vid=da9d5418-61e3-4ea8-8f49-009a1f38aeba","ios":"levelo://app?vid=da9d5418-61e3-4ea8-8f49-009a1f38aeba"},"vehicle_type_id":"4","last_reported":1747732286,"current_range_meters":19200,"station_id":"ce4bhip2rcd13ifvqft0","pricing_plan_id":"cebpf4jnsgd1na2vs0mg"},{"bike_id":"869cfffe-2f4a-4c85-8893-bc8d2c15d749","system_id":"levelo_inurba_marseille","lat":43.29264,"lon":5.40914,"is_reserved":false,"is_disabled":false,"rental_uris":{"android":"levelo://app?vid=869cfffe-2f4a-4c85-8893-bc8d2c15d749","ios":"levelo://app?vid=869cfffe-2f4a-4c85-8893-bc8d2c15d749"},"vehicle_type_id":"4","last_reported":1747732286,"current_range_meters":19600,"station_id":"ce4bh192rcd13ifvqdc0","pricing_plan_id":"cebpf4jnsgd1na2vs0mg"},{"bike_id":"c151098a-1f8d-4fca-8935-14e1aeb32a06","system_id":"levelo_inurba_marseille","lat":43.26128,"lon":5.41443,"is_reserved":false,"is_disabled":false,"rental_uris":{"android":"levelo://app?vid=c151098a-1f8d-4fca-8935-14e1aeb32a06","ios":"levelo://app?vid=c151098a-1f8d-4fca-8935-14e1aeb32a06"},"vehicle_type_id":"4","last_reported":1747732286,"current_range_meters":19600,"station_id":"","pricing_plan_id":"cebpf4jnsgd1na2vs0mg"},{"bike_id":"d5172f45-a969-4c13-bc62-5c2e80b7b629","system_id":"levelo_inurba_marseille","lat":43.28942,"lon":5.36407,"is_reserved":false,"is_disabled":false,"rental_uris":{"android":"levelo://app?vid=d5172f45-a969-4c13-bc62-5c2e80b7b629","ios":"levelo://app?vid=d5172f45-a969-4c13-bc62-5c2e80b7b629"},"vehicle_type_id":"4","last_reported":1747732286,"current_range_meters":19600,"station_id":"ce4bhc92rcd13ifvqetg","pricing_plan_id":"cebpf4jnsgd1na2vs0mg"},{"bike_id":"e31833c9-3629-4b2f-810c-c09df0eb266c","system_id":"levelo_inurba_marseille","lat":43.33751,"lon":5.37509,"is_reserved":false,"is_disabled":false,"rental_uris":{"android":"levelo://app?vid=e31833c9-3629-4b2f-810c-c09df0eb266c","ios":"levelo://app?vid=e31833c9-3629-4b2f-810c-c09df0eb266c"},"vehicle_type_id":"4","last_reported":1747732286,"current_range_meters":19600,"station_id":"","pricing_plan_id":"cebpf4jnsgd1na2vs0mg"},{"bike_id":"7d6fac53-7bb5-4478-a7b7-facf0a5f3b8e","system_id":"levelo_inurba_marseille","lat":43.30266,"lon":5.40024,"is_reserved":false,"is_disabled":false,"rental_uris":{"android":"levelo://app?vid=7d6fac53-7bb5-4478-a7b7-facf0a5f3b8e","ios":"levelo://app?vid=7d6fac53-7bb5-4478-a7b7-facf0a5f3b8e"},"vehicle_type_id":"4","last_reported":1747732286,"current_range_meters":19600,"station_id":"ce4bgvh2rcd13ifvqcs0","pricing_plan_id":"cebpf4jnsgd1na2vs0mg"},{"bike_id":"8715727f-bc64-4063-bfa1-4068b8fe3ea5","system_id":"levelo_inurba_marseille","lat":43.26774,"lon":5.3942,"is_reserved":false,"is_disabled":false,"rental_uris":{"android":"levelo://app?vid=8715727f-bc64-4063-bfa1-4068b8fe3ea5","ios":"levelo://app?vid=8715727f-bc64-4063-bfa1-4068b8fe3ea5"},"vehicle_type_id":"4","last_reported":1747732286,"current_range_meters":20000,"station_id":"ce4bhh12rcd13ifvqfg0","pricing_plan_id":"cebpf4jnsgd1na2vs0mg"},{"bike_id":"c94b2a38-ca1e-406e-b55e-66541b44c934","system_id":"levelo_inurba_marseille","lat":43.248069,"lon":5.37451,"is_reserved":false,"is_disabled":false,"rental_uris":{"android":"levelo://app?vid=c94b2a38-ca1e-406e-b55e-66541b44c934","ios":"levelo://app?vid=c94b2a38-ca1e-406e-b55e-66541b44c934"},"vehicle_type_id":"4","last_reported":1747732286,"current_range_meters":20000,"station_id":"ce4bhgh2rcd13ifvqfb0","pricing_plan_id":"cebpf4jnsgd1na2vs0mg"},{"bike_id":"18d4f046-c73b-4ed1-bd45-69ca2f62023e","system_id":"levelo_inurba_marseille","lat":43.22513,"lon":5.34786,"is_reserved":false,"is_disabled":false,"rental_uris":{"android":"levelo://app?vid=18d4f046-c73b-4ed1-bd45-69ca2f62023e","ios":"levelo://app?vid=18d4f046-c73b-4ed1-bd45-69ca2f62023e"},"vehicle_type_id":"4","last_reported":1747732286,"current_range_meters":20400,"station_id":"st_cvj5dfep6f1abm77gieg","pricing_plan_id":"cebpf4jnsgd1na2vs0mg"},{"bike_id":"8b1d0326-63e7-4094-afec-363f99a75b46","system_id":"levelo_inurba_marseille","lat":43.3174,"lon":5.40461,"is_reserved":false,"is_disabled":false,"rental_uris":{"android":"levelo://app?vid=8b1d0326-63e7-4094-afec-363f99a75b46","ios":"levelo://app?vid=8b1d0326-63e7-4094-afec-363f99a75b46"},"vehicle_type_id":"4","last_reported":1747732286,"current_range_meters":20000,"station_id":"","pricing_plan_id":"cebpf4jnsgd1na2vs0mg"},{"bike_id":"52fd3027-24c7-4f04-ae22-77135b4834d4","system_id":"levelo_inurba_marseille","lat":43.27496,"lon":5.42447,"is_reserved":false,"is_disabled":false,"rental_uris":{"android":"levelo://app?vid=52fd3027-24c7-4f04-ae22-77135b4834d4","ios":"levelo://app?vid=52fd3027-24c7-4f04-ae22-77135b4834d4"},"vehicle_type_id":"4","last_reported":1747732286,"current_range_meters":19600,"station_id":"ce4bhn92rcd13ifvqgrg","pricing_plan_id":"cebpf4jnsgd1na2vs0mg"},{"bike_id":"128904f3-815c-42a0-8e9f-93990280fe97","system_id":"levelo_inurba_marseille","lat":43.24889,"lon":5.37519,"is_reserved":false,"is_disabled":false,"rental_uris":{"android":"levelo://app?vid=128904f3-815c-42a0-8e9f-93990280fe97","ios":"levelo://app?vid=128904f3-815c-42a0-8e9f-93990280fe97"},"vehicle_type_id":"4","last_reported":1747732286,"current_range_meters":20000,"station_id":"","pricing_plan_id":"cebpf4jnsgd1na2vs0mg"},{"bike_id":"1574f13e-4d1b-48a4-b6e8-d120ed821658","system_id":"levelo_inurba_marseille","lat":43.26936,"lon":5.40257,"is_reserved":false,"is_disabled":false,"rental_uris":{"android":"levelo://app?vid=1574f13e-4d1b-48a4-b6e8-d120ed821658","ios":"levelo://app?vid=1574f13e-4d1b-48a4-b6e8-d120ed821658"},"vehicle_type_id":"4","last_reported":1747732286,"current_range_meters":19600,"station_id":"cjm6bp8fraef2m0cb0m0","pricing_plan_id":"cebpf4jnsgd1na2vs0mg"},{"bike_id":"c4f0ddbf-912f-4dc6-81b8-da7688e7978e","system_id":"levelo_inurba_marseille","lat":43.30801,"lon":5.43516,"is_reserved":false,"is_disabled":false,"rental_uris":{"android":"levelo://app?vid=c4f0ddbf-912f-4dc6-81b8-da7688e7978e","ios":"levelo://app?vid=c4f0ddbf-912f-4dc6-81b8-da7688e7978e"},"vehicle_type_id":"4","last_reported":1747732286,"current_range_meters":20000,"station_id":"ce4bhph2rcd13ifvqheg","pricing_plan_id":"cebpf4jnsgd1na2vs0mg"},{"bike_id":"e428a1bd-3577-4ff5-8710-e4fc25809f52","system_id":"levelo_inurba_marseille","lat":43.259375,"lon":5.40893,"is_reserved":false,"is_disabled":true,"rental_uris":{"android":"levelo://app?vid=e428a1bd-3577-4ff5-8710-e4fc25809f52","ios":"levelo://app?vid=e428a1bd-3577-4ff5-8710-e4fc25809f52"},"vehicle_type_id":"4","last_reported":1747732286,"current_range_meters":20000,"station_id":"ce4bhm92rcd13ifvqglg","pricing_plan_id":"cebpf4jnsgd1na2vs0mg"},{"bike_id":"8bb7d43c-e583-40c0-9a6a-a2f0c4f03243","system_id":"levelo_inurba_marseille","lat":43.29249,"lon":5.40912,"is_reserved":false,"is_disabled":false,"rental_uris":{"android":"levelo://app?vid=8bb7d43c-e583-40c0-9a6a-a2f0c4f03243","ios":"levelo://app?vid=8bb7d43c-e583-40c0-9a6a-a2f0c4f03243"},"vehicle_type_id":"4","last_reported":1747732286,"current_range_meters":20000,"station_id":"ce4bh192rcd13ifvqdc0","pricing_plan_id":"cebpf4jnsgd1na2vs0mg"},{"bike_id":"4baa4ef2-f6e2-4570-ad63-549ecddf907c","system_id":"levelo_inurba_marseille","lat":43.24178,"lon":5.39728,"is_reserved":false,"is_disabled":false,"rental_uris":{"android":"levelo://app?vid=4baa4ef2-f6e2-4570-ad63-549ecddf907c","ios":"levelo://app?vid=4baa4ef2-f6e2-4570-ad63-549ecddf907c"},"vehicle_type_id":"4","last_reported":1747732286,"current_range_meters":20400,"station_id":"ce4bhn12rcd13ifvqgpg","pricing_plan_id":"cebpf4jnsgd1na2vs0mg"},{"bike_id":"f1364355-6199-4dd5-b613-3eacd7eff8e0","system_id":"levelo_inurba_marseille","lat":43.26684,"lon":5.38273,"is_reserved":false,"is_disabled":false,"rental_uris":{"android":"levelo://app?vid=f1364355-6199-4dd5-b613-3eacd7eff8e0","ios":"levelo://app?vid=f1364355-6199-4dd5-b613-3eacd7eff8e0"},"vehicle_type_id":"4","last_reported":1747732286,"current_range_meters":20800,"station_id":"ce4bhg92rcd13ifvqf90","pricing_plan_id":"cebpf4jnsgd1na2vs0mg"},{"bike_id":"542ac1fd-2d85-467d-b75a-a1b97eda7d03","system_id":"levelo_inurba_marseille","lat":43.24076,"lon":5.3776,"is_reserved":false,"is_disabled":false,"rental_uris":{"android":"levelo://app?vid=542ac1fd-2d85-467d-b75a-a1b97eda7d03","ios":"levelo://app?vid=542ac1fd-2d85-467d-b75a-a1b97eda7d03"},"vehicle_type_id":"4","last_reported":1747732286,"current_range_meters":20800,"station_id":"ce4bhnp2rcd13ifvqgvg","pricing_plan_id":"cebpf4jnsgd1na2vs0mg"},{"bike_id":"c9a00e74-029a-454e-8e85-1b3d994b9d78","system_id":"levelo_inurba_marseille","lat":43.21192,"lon":5.35069,"is_reserved":false,"is_disabled":false,"rental_uris":{"android":"levelo://app?vid=c9a00e74-029a-454e-8e85-1b3d994b9d78","ios":"levelo://app?vid=c9a00e74-029a-454e-8e85-1b3d994b9d78"},"vehicle_type_id":"4","last_reported":1747732286,"current_range_meters":20800,"station_id":"st_cvj6sg6p6f1abm77japg","pricing_plan_id":"cebpf4jnsgd1na2vs0mg"},{"bike_id":"77a7c721-45fa-431d-9918-8d8683629142","system_id":"levelo_inurba_marseille","lat":43.32663,"lon":5.40994,"is_reserved":false,"is_disabled":false,"rental_uris":{"android":"levelo://app?vid=77a7c721-45fa-431d-9918-8d8683629142","ios":"levelo://app?vid=77a7c721-45fa-431d-9918-8d8683629142"},"vehicle_type_id":"4","last_reported":1747732286,"current_range_meters":20800,"station_id":"ce4bhpp2rcd13ifvqhgg","pricing_plan_id":"cebpf4jnsgd1na2vs0mg"},{"bike_id":"c5c335c5-25a1-4caf-95f0-aa686eb1f5da","system_id":"levelo_inurba_marseille","lat":43.2752,"lon":5.4244,"is_reserved":false,"is_disabled":false,"rental_uris":{"android":"levelo://app?vid=c5c335c5-25a1-4caf-95f0-aa686eb1f5da","ios":"levelo://app?vid=c5c335c5-25a1-4caf-95f0-aa686eb1f5da"},"vehicle_type_id":"4","last_reported":1747732286,"current_range_meters":21600,"station_id":"ce4bhn92rcd13ifvqgrg","pricing_plan_id":"cebpf4jnsgd1na2vs0mg"},{"bike_id":"0f0313d8-61ee-4533-9661-c1ac5161ae31","system_id":"levelo_inurba_marseille","lat":43.29891,"lon":5.43669,"is_reserved":false,"is_disabled":false,"rental_uris":{"android":"levelo://app?vid=0f0313d8-61ee-4533-9661-c1ac5161ae31","ios":"levelo://app?vid=0f0313d8-61ee-4533-9661-c1ac5161ae31"},"vehicle_type_id":"4","last_reported":1747732286,"current_range_meters":21600,"station_id":"ce4bhpp2rcd13ifvqhfg","pricing_plan_id":"cebpf4jnsgd1na2vs0mg"},{"bike_id":"52ee489c-609e-4f2e-b612-93a39497b386","system_id":"levelo_inurba_marseille","lat":43.31685,"lon":5.4045,"is_reserved":false,"is_disabled":false,"rental_uris":{"android":"levelo://app?vid=52ee489c-609e-4f2e-b612-93a39497b386","ios":"levelo://app?vid=52ee489c-609e-4f2e-b612-93a39497b386"},"vehicle_type_id":"4","last_reported":1747732286,"current_range_meters":22000,"station_id":"ce4bh012rcd13ifvqd00","pricing_plan_id":"cebpf4jnsgd1na2vs0mg"},{"bike_id":"35bdea70-a338-48d3-9965-f8c79699b3cb","system_id":"levelo_inurba_marseille","lat":43.24799,"lon":5.37484,"is_reserved":false,"is_disabled":false,"rental_uris":{"android":"levelo://app?vid=35bdea70-a338-48d3-9965-f8c79699b3cb","ios":"levelo://app?vid=35bdea70-a338-48d3-9965-f8c79699b3cb"},"vehicle_type_id":"4","last_reported":1747732286,"current_range_meters":22000,"station_id":"ce4bhgh2rcd13ifvqfb0","pricing_plan_id":"cebpf4jnsgd1na2vs0mg"},{"bike_id":"34bbcb5a-9286-4a3c-9249-01b84f203259","system_id":"levelo_inurba_marseille","lat":43.25381,"lon":5.39458,"is_reserved":false,"is_disabled":false,"rental_uris":{"android":"levelo://app?vid=34bbcb5a-9286-4a3c-9249-01b84f203259","ios":"levelo://app?vid=34bbcb5a-9286-4a3c-9249-01b84f203259"},"vehicle_type_id":"4","last_reported":1747732286,"current_range_meters":21600,"station_id":"ce4bhip2rcd13ifvqft0","pricing_plan_id":"cebpf4jnsgd1na2vs0mg"},{"bike_id":"ab07a680-cf1f-405a-9ce9-ffa74fd973fc","system_id":"levelo_inurba_marseille","lat":43.3254,"lon":5.41424,"is_reserved":false,"is_disabled":false,"rental_uris":{"android":"levelo://app?vid=ab07a680-cf1f-405a-9ce9-ffa74fd973fc","ios":"levelo://app?vid=ab07a680-cf1f-405a-9ce9-ffa74fd973fc"},"vehicle_type_id":"4","last_reported":1747732286,"current_range_meters":22000,"station_id":"ce4bhq12rcd13ifvqhhg","pricing_plan_id":"cebpf4jnsgd1na2vs0mg"},{"bike_id":"af9a070f-ce38-474e-8219-b387b73d120b","system_id":"levelo_inurba_marseille","lat":43.24075,"lon":5.37769,"is_reserved":false,"is_disabled":false,"rental_uris":{"android":"levelo://app?vid=af9a070f-ce38-474e-8219-b387b73d120b","ios":"levelo://app?vid=af9a070f-ce38-474e-8219-b387b73d120b"},"vehicle_type_id":"4","last_reported":1747732286,"current_range_meters":22000,"station_id":"ce4bhnp2rcd13ifvqgvg","pricing_plan_id":"cebpf4jnsgd1na2vs0mg"},{"bike_id":"b3794b54-a829-4059-816e-dc2d0c7a333d","system_id":"levelo_inurba_marseille","lat":43.3075,"lon":5.42449,"is_reserved":false,"is_disabled":false,"rental_uris":{"android":"levelo://app?vid=b3794b54-a829-4059-816e-dc2d0c7a333d","ios":"levelo://app?vid=b3794b54-a829-4059-816e-dc2d0c7a333d"},"vehicle_type_id":"4","last_reported":1747732286,"current_range_meters":22000,"station_id":"st_cvj6ca6bvosntc0bfgr0","pricing_plan_id":"cebpf4jnsgd1na2vs0mg"},{"bike_id":"0c836e1c-9764-48dc-8911-c04862b0e089","system_id":"levelo_inurba_marseille","lat":43.31369,"lon":5.38488,"is_reserved":false,"is_disabled":false,"rental_uris":{"android":"levelo://app?vid=0c836e1c-9764-48dc-8911-c04862b0e089","ios":"levelo://app?vid=0c836e1c-9764-48dc-8911-c04862b0e089"},"vehicle_type_id":"4","last_reported":1747732286,"current_range_meters":22000,"station_id":"ce4bgt92rcd13ifvqcf0","pricing_plan_id":"cebpf4jnsgd1na2vs0mg"},{"bike_id":"f62c42ed-a9da-46b1-943b-c936894ecc35","system_id":"levelo_inurba_marseille","lat":43.30273,"lon":5.37709,"is_reserved":false,"is_disabled":false,"rental_uris":{"android":"levelo://app?vid=f62c42ed-a9da-46b1-943b-c936894ecc35","ios":"levelo://app?vid=f62c42ed-a9da-46b1-943b-c936894ecc35"},"vehicle_type_id":"4","last_reported":1747732286,"current_range_meters":22000,"station_id":"ce4bguh2rcd13ifvqcj0","pricing_plan_id":"cebpf4jnsgd1na2vs0mg"},{"bike_id":"32c377c5-5335-4199-8968-242ecd5c8a81","system_id":"levelo_inurba_marseille","lat":43.27199,"lon":5.41005,"is_reserved":false,"is_disabled":false,"rental_uris":{"android":"levelo://app?vid=32c377c5-5335-4199-8968-242ecd5c8a81","ios":"levelo://app?vid=32c377c5-5335-4199-8968-242ecd5c8a81"},"vehicle_type_id":"4","last_reported":1747732286,"current_range_meters":22400,"station_id":"ce4bhl12rcd13ifvqgf0","pricing_plan_id":"cebpf4jnsgd1na2vs0mg"},{"bike_id":"dc61c065-6ed1-487e-9ecf-5a93a8f61ca7","system_id":"levelo_inurba_marseille","lat":43.23189,"lon":5.39978,"is_reserved":false,"is_disabled":false,"rental_uris":{"android":"levelo://app?vid=dc61c065-6ed1-487e-9ecf-5a93a8f61ca7","ios":"levelo://app?vid=dc61c065-6ed1-487e-9ecf-5a93a8f61ca7"},"vehicle_type_id":"4","last_reported":1747732286,"current_range_meters":22400,"station_id":"ce4bhn12rcd13ifvqgqg","pricing_plan_id":"cebpf4jnsgd1na2vs0mg"},{"bike_id":"b953b70c-0665-4c94-9b68-16ac4b32b498","system_id":"levelo_inurba_marseille","lat":43.26948,"lon":5.38638,"is_reserved":false,"is_disabled":false,"rental_uris":{"android":"levelo://app?vid=b953b70c-0665-4c94-9b68-16ac4b32b498","ios":"levelo://app?vid=b953b70c-0665-4c94-9b68-16ac4b32b498"},"vehicle_type_id":"4","last_reported":1747732286,"current_range_meters":22400,"station_id":"ce4bhh92rcd13ifvqfh0","pricing_plan_id":"cebpf4jnsgd1na2vs0mg"},{"bike_id":"2ed36949-9b78-41f4-9e04-0ead26da1da1","system_id":"levelo_inurba_marseille","lat":43.25123,"lon":5.40319,"is_reserved":false,"is_disabled":false,"rental_uris":{"android":"levelo://app?vid=2ed36949-9b78-41f4-9e04-0ead26da1da1","ios":"levelo://app?vid=2ed36949-9b78-41f4-9e04-0ead26da1da1"},"vehicle_type_id":"4","last_reported":1747732286,"current_range_meters":22000,"station_id":"ce4bhlh2rcd13ifvqgig","pricing_plan_id":"cebpf4jnsgd1na2vs0mg"},{"bike_id":"53bedfa7-1ce5-4a05-84b9-c89eed1d6e6a","system_id":"levelo_inurba_marseille","lat":43.29274,"lon":5.36836,"is_reserved":false,"is_disabled":false,"rental_uris":{"android":"levelo://app?vid=53bedfa7-1ce5-4a05-84b9-c89eed1d6e6a","ios":"levelo://app?vid=53bedfa7-1ce5-4a05-84b9-c89eed1d6e6a"},"vehicle_type_id":"4","last_reported":1747732286,"current_range_meters":22400,"station_id":"ce4bhbp2rcd13ifvqesg","pricing_plan_id":"cebpf4jnsgd1na2vs0mg"},{"bike_id":"93ab2e77-e5ea-4852-b6a0-a034922a6d30","system_id":"levelo_inurba_marseille","lat":43.26052,"lon":5.3939,"is_reserved":false,"is_disabled":false,"rental_uris":{"android":"levelo://app?vid=93ab2e77-e5ea-4852-b6a0-a034922a6d30","ios":"levelo://app?vid=93ab2e77-e5ea-4852-b6a0-a034922a6d30"},"vehicle_type_id":"4","last_reported":1747732286,"current_range_meters":22400,"station_id":"ce4bhh92rcd13ifvqfj0","pricing_plan_id":"cebpf4jnsgd1na2vs0mg"},{"bike_id":"5c6fad60-11e6-40d0-acfb-344b3857e0b9","system_id":"levelo_inurba_marseille","lat":43.29806,"lon":5.38093,"is_reserved":false,"is_disabled":false,"rental_uris":{"android":"levelo://app?vid=5c6fad60-11e6-40d0-acfb-344b3857e0b9","ios":"levelo://app?vid=5c6fad60-11e6-40d0-acfb-344b3857e0b9"},"vehicle_type_id":"4","last_reported":1747732286,"current_range_meters":22400,"station_id":"ce4bgip2rcd13ifvqbb0","pricing_plan_id":"cebpf4jnsgd1na2vs0mg"},{"bike_id":"b3e05794-754a-42cd-81a3-d0166993a9eb","system_id":"levelo_inurba_marseille","lat":43.30282,"lon":5.37717,"is_reserved":false,"is_disabled":false,"rental_uris":{"android":"levelo://app?vid=b3e05794-754a-42cd-81a3-d0166993a9eb","ios":"levelo://app?vid=b3e05794-754a-42cd-81a3-d0166993a9eb"},"vehicle_type_id":"4","last_reported":1747732286,"current_range_meters":22000,"station_id":"ce4bguh2rcd13ifvqcj0","pricing_plan_id":"cebpf4jnsgd1na2vs0mg"},{"bike_id":"66de038f-3d02-4b5f-a2df-2b103ffb43d9","system_id":"levelo_inurba_marseille","lat":43.29031,"lon":5.39977,"is_reserved":false,"is_disabled":false,"rental_uris":{"android":"levelo://app?vid=66de038f-3d02-4b5f-a2df-2b103ffb43d9","ios":"levelo://app?vid=66de038f-3d02-4b5f-a2df-2b103ffb43d9"},"vehicle_type_id":"4","last_reported":1747732286,"current_range_meters":22400,"station_id":"ce4bh392rcd13ifvqdm0","pricing_plan_id":"cebpf4jnsgd1na2vs0mg"},{"bike_id":"821accf3-4947-46a3-b6c6-10c75b1a5cb0","system_id":"levelo_inurba_marseille","lat":43.30309,"lon":5.36889,"is_reserved":false,"is_disabled":false,"rental_uris":{"android":"levelo://app?vid=821accf3-4947-46a3-b6c6-10c75b1a5cb0","ios":"levelo://app?vid=821accf3-4947-46a3-b6c6-10c75b1a5cb0"},"vehicle_type_id":"4","last_reported":1747732286,"current_range_meters":22400,"station_id":"ce4bgqh2rcd13ifvqc5g","pricing_plan_id":"cebpf4jnsgd1na2vs0mg"},{"bike_id":"cc903d71-74fb-4174-8ee7-fdd0be620dc0","system_id":"levelo_inurba_marseille","lat":43.24172,"lon":5.36396,"is_reserved":false,"is_disabled":false,"rental_uris":{"android":"levelo://app?vid=cc903d71-74fb-4174-8ee7-fdd0be620dc0","ios":"levelo://app?vid=cc903d71-74fb-4174-8ee7-fdd0be620dc0"},"vehicle_type_id":"4","last_reported":1747732286,"current_range_meters":22400,"station_id":"cpo36qri1sfpv3e86is0","pricing_plan_id":"cebpf4jnsgd1na2vs0mg"},{"bike_id":"0f586243-6c94-41fd-80bf-0657e107f31f","system_id":"levelo_inurba_marseille","lat":43.30142,"lon":5.38773,"is_reserved":false,"is_disabled":false,"rental_uris":{"android":"levelo://app?vid=0f586243-6c94-41fd-80bf-0657e107f31f","ios":"levelo://app?vid=0f586243-6c94-41fd-80bf-0657e107f31f"},"vehicle_type_id":"4","last_reported":1747732286,"current_range_meters":24400,"station_id":"ce4bghh2rcd13ifvqb60","pricing_plan_id":"cebpf4jnsgd1na2vs0mg"},{"bike_id":"aa9f3923-5388-42f8-83be-aeabb12b8439","system_id":"levelo_inurba_marseille","lat":43.24667,"lon":5.3817,"is_reserved":false,"is_disabled":false,"rental_uris":{"android":"levelo://app?vid=aa9f3923-5388-42f8-83be-aeabb12b8439","ios":"levelo://app?vid=aa9f3923-5388-42f8-83be-aeabb12b8439"},"vehicle_type_id":"4","last_reported":1747732286,"current_range_meters":22800,"station_id":"ce4bhih2rcd13ifvqfr0","pricing_plan_id":"cebpf4jnsgd1na2vs0mg"},{"bike_id":"f609bfba-2874-4dcf-abe3-c235a5123d68","system_id":"levelo_inurba_marseille","lat":43.26232,"lon":5.37439,"is_reserved":false,"is_disabled":false,"rental_uris":{"android":"levelo://app?vid=f609bfba-2874-4dcf-abe3-c235a5123d68","ios":"levelo://app?vid=f609bfba-2874-4dcf-abe3-c235a5123d68"},"vehicle_type_id":"4","last_reported":1747732286,"current_range_meters":22800,"station_id":"ce4bhgp2rcd13ifvqfc0","pricing_plan_id":"cebpf4jnsgd1na2vs0mg"},{"bike_id":"512cad48-a180-4060-b1f1-89c6ef5852f2","system_id":"levelo_inurba_marseille","lat":43.2319,"lon":5.39984,"is_reserved":false,"is_disabled":false,"rental_uris":{"android":"levelo://app?vid=512cad48-a180-4060-b1f1-89c6ef5852f2","ios":"levelo://app?vid=512cad48-a180-4060-b1f1-89c6ef5852f2"},"vehicle_type_id":"4","last_reported":1747732286,"current_range_meters":22800,"station_id":"ce4bhn12rcd13ifvqgqg","pricing_plan_id":"cebpf4jnsgd1na2vs0mg"},{"bike_id":"0893bf91-4d66-46d0-9e92-bcaf76820644","system_id":"levelo_inurba_marseille","lat":43.31221,"lon":5.36857,"is_reserved":false,"is_disabled":false,"rental_uris":{"android":"levelo://app?vid=0893bf91-4d66-46d0-9e92-bcaf76820644","ios":"levelo://app?vid=0893bf91-4d66-46d0-9e92-bcaf76820644"},"vehicle_type_id":"4","last_reported":1747732286,"current_range_meters":23200,"station_id":"ce4bgl92rcd13ifvqbq0","pricing_plan_id":"cebpf4jnsgd1na2vs0mg"},{"bike_id":"384b857d-9d2f-496d-9b9c-ecb41e9d3cbb","system_id":"levelo_inurba_marseille","lat":43.31232,"lon":5.3687,"is_reserved":false,"is_disabled":false,"rental_uris":{"android":"levelo://app?vid=384b857d-9d2f-496d-9b9c-ecb41e9d3cbb","ios":"levelo://app?vid=384b857d-9d2f-496d-9b9c-ecb41e9d3cbb"},"vehicle_type_id":"4","last_reported":1747732286,"current_range_meters":23200,"station_id":"ce4bgl92rcd13ifvqbq0","pricing_plan_id":"cebpf4jnsgd1na2vs0mg"},{"bike_id":"c920ca4e-60bc-4220-a30b-61d6216bfe1b","system_id":"levelo_inurba_marseille","lat":43.281566,"lon":5.426468,"is_reserved":false,"is_disabled":true,"rental_uris":{"android":"levelo://app?vid=c920ca4e-60bc-4220-a30b-61d6216bfe1b","ios":"levelo://app?vid=c920ca4e-60bc-4220-a30b-61d6216bfe1b"},"vehicle_type_id":"4","last_reported":1747732286,"current_range_meters":23200,"station_id":"","pricing_plan_id":"cebpf4jnsgd1na2vs0mg"},{"bike_id":"70e70b25-86aa-4fd0-9d2d-38db75c6503f","system_id":"levelo_inurba_marseille","lat":43.29705,"lon":5.37686,"is_reserved":false,"is_disabled":false,"rental_uris":{"android":"levelo://app?vid=70e70b25-86aa-4fd0-9d2d-38db75c6503f","ios":"levelo://app?vid=70e70b25-86aa-4fd0-9d2d-38db75c6503f"},"vehicle_type_id":"4","last_reported":1747732286,"current_range_meters":23200,"station_id":"ce4bgkh2rcd13ifvqbl0","pricing_plan_id":"cebpf4jnsgd1na2vs0mg"},{"bike_id":"6c0c550c-ec31-4921-afec-d928643b580e","system_id":"levelo_inurba_marseille","lat":43.32091,"lon":5.36777,"is_reserved":false,"is_disabled":false,"rental_uris":{"android":"levelo://app?vid=6c0c550c-ec31-4921-afec-d928643b580e","ios":"levelo://app?vid=6c0c550c-ec31-4921-afec-d928643b580e"},"vehicle_type_id":"4","last_reported":1747732286,"current_range_meters":23200,"station_id":"ce4bhrh2rcd13ifvqhug","pricing_plan_id":"cebpf4jnsgd1na2vs0mg"},{"bike_id":"3e32583a-1a84-4840-bffe-832eb4d68784","system_id":"levelo_inurba_marseille","lat":43.29067,"lon":5.3998,"is_reserved":false,"is_disabled":false,"rental_uris":{"android":"levelo://app?vid=3e32583a-1a84-4840-bffe-832eb4d68784","ios":"levelo://app?vid=3e32583a-1a84-4840-bffe-832eb4d68784"},"vehicle_type_id":"4","last_reported":1747732286,"current_range_meters":23200,"station_id":"ce4bh392rcd13ifvqdm0","pricing_plan_id":"cebpf4jnsgd1na2vs0mg"},{"bike_id":"b7535a90-0926-45df-9006-de6c902d8f2a","system_id":"levelo_inurba_marseille","lat":43.26959,"lon":5.38638,"is_reserved":false,"is_disabled":false,"rental_uris":{"android":"levelo://app?vid=b7535a90-0926-45df-9006-de6c902d8f2a","ios":"levelo://app?vid=b7535a90-0926-45df-9006-de6c902d8f2a"},"vehicle_type_id":"4","last_reported":1747732286,"current_range_meters":23200,"station_id":"ce4bhh92rcd13ifvqfh0","pricing_plan_id":"cebpf4jnsgd1na2vs0mg"},{"bike_id":"b4177c2e-d04d-43ab-8599-aaaeffa72199","system_id":"levelo_inurba_marseille","lat":43.31162,"lon":5.38715,"is_reserved":false,"is_disabled":false,"rental_uris":{"android":"levelo://app?vid=b4177c2e-d04d-43ab-8599-aaaeffa72199","ios":"levelo://app?vid=b4177c2e-d04d-43ab-8599-aaaeffa72199"},"vehicle_type_id":"4","last_reported":1747732286,"current_range_meters":23200,"station_id":"ce4bgv12rcd13ifvqcp0","pricing_plan_id":"cebpf4jnsgd1na2vs0mg"},{"bike_id":"a5dd79cf-f924-4e6f-9c57-4ddb3ba4ed89","system_id":"levelo_inurba_marseille","lat":43.30921,"lon":5.36856,"is_reserved":false,"is_disabled":false,"rental_uris":{"android":"levelo://app?vid=a5dd79cf-f924-4e6f-9c57-4ddb3ba4ed89","ios":"levelo://app?vid=a5dd79cf-f924-4e6f-9c57-4ddb3ba4ed89"},"vehicle_type_id":"4","last_reported":1747732286,"current_range_meters":23200,"station_id":"ce4bgn92rcd13ifvqbvg","pricing_plan_id":"cebpf4jnsgd1na2vs0mg"},{"bike_id":"b391cb77-518b-4eb8-a4e0-131a7bff4e42","system_id":"levelo_inurba_marseille","lat":43.290499,"lon":5.399567,"is_reserved":false,"is_disabled":false,"rental_uris":{"android":"levelo://app?vid=b391cb77-518b-4eb8-a4e0-131a7bff4e42","ios":"levelo://app?vid=b391cb77-518b-4eb8-a4e0-131a7bff4e42"},"vehicle_type_id":"4","last_reported":1747732286,"current_range_meters":24000,"station_id":"ce4bh392rcd13ifvqdm0","pricing_plan_id":"cebpf4jnsgd1na2vs0mg"},{"bike_id":"605365fd-0976-4fcc-a42a-ee810d6ebd22","system_id":"levelo_inurba_marseille","lat":43.25094,"lon":5.39522,"is_reserved":false,"is_disabled":false,"rental_uris":{"android":"levelo://app?vid=605365fd-0976-4fcc-a42a-ee810d6ebd22","ios":"levelo://app?vid=605365fd-0976-4fcc-a42a-ee810d6ebd22"},"vehicle_type_id":"4","last_reported":1747732286,"current_range_meters":24000,"station_id":"ce4bhm12rcd13ifvqgkg","pricing_plan_id":"cebpf4jnsgd1na2vs0mg"},{"bike_id":"07df8973-dc1b-4c75-bd92-f2ab3570c7d8","system_id":"levelo_inurba_marseille","lat":43.30549,"lon":5.36551,"is_reserved":false,"is_disabled":false,"rental_uris":{"android":"levelo://app?vid=07df8973-dc1b-4c75-bd92-f2ab3570c7d8","ios":"levelo://app?vid=07df8973-dc1b-4c75-bd92-f2ab3570c7d8"},"vehicle_type_id":"4","last_reported":1747732286,"current_range_meters":24000,"station_id":"ce4bgs12rcd13ifvqcag","pricing_plan_id":"cebpf4jnsgd1na2vs0mg"},{"bike_id":"ef2065ca-ece5-4cfd-9218-ba685950660c","system_id":"levelo_inurba_marseille","lat":43.31328,"lon":5.36722,"is_reserved":false,"is_disabled":false,"rental_uris":{"android":"levelo://app?vid=ef2065ca-ece5-4cfd-9218-ba685950660c","ios":"levelo://app?vid=ef2065ca-ece5-4cfd-9218-ba685950660c"},"vehicle_type_id":"4","last_reported":1747732286,"current_range_meters":24000,"station_id":"ce4bgr92rcd13ifvqc6g","pricing_plan_id":"cebpf4jnsgd1na2vs0mg"},{"bike_id":"25d924ab-605a-4c37-957e-264b8a490672","system_id":"levelo_inurba_marseille","lat":43.25005,"lon":5.38937,"is_reserved":false,"is_disabled":false,"rental_uris":{"android":"levelo://app?vid=25d924ab-605a-4c37-957e-264b8a490672","ios":"levelo://app?vid=25d924ab-605a-4c37-957e-264b8a490672"},"vehicle_type_id":"4","last_reported":1747732286,"current_range_meters":24000,"station_id":"ce4bhgp2rcd13ifvqfd0","pricing_plan_id":"cebpf4jnsgd1na2vs0mg"},{"bike_id":"6244a04a-532f-4b87-87a5-a3e9381b4993","system_id":"levelo_inurba_marseille","lat":43.25113,"lon":5.40311,"is_reserved":false,"is_disabled":false,"rental_uris":{"android":"levelo://app?vid=6244a04a-532f-4b87-87a5-a3e9381b4993","ios":"levelo://app?vid=6244a04a-532f-4b87-87a5-a3e9381b4993"},"vehicle_type_id":"4","last_reported":1747732286,"current_range_meters":24000,"station_id":"ce4bhlh2rcd13ifvqgig","pricing_plan_id":"cebpf4jnsgd1na2vs0mg"},{"bike_id":"98371f28-9ca0-45a4-873d-27c0a4d37936","system_id":"levelo_inurba_marseille","lat":43.25917,"lon":5.40896,"is_reserved":false,"is_disabled":false,"rental_uris":{"android":"levelo://app?vid=98371f28-9ca0-45a4-873d-27c0a4d37936","ios":"levelo://app?vid=98371f28-9ca0-45a4-873d-27c0a4d37936"},"vehicle_type_id":"4","last_reported":1747732286,"current_range_meters":24000,"station_id":"ce4bhm92rcd13ifvqglg","pricing_plan_id":"cebpf4jnsgd1na2vs0mg"},{"bike_id":"110aad4f-532a-43cb-9ff3-9184dd543347","system_id":"levelo_inurba_marseille","lat":43.26246,"lon":5.40426,"is_reserved":false,"is_disabled":false,"rental_uris":{"android":"levelo://app?vid=110aad4f-532a-43cb-9ff3-9184dd543347","ios":"levelo://app?vid=110aad4f-532a-43cb-9ff3-9184dd543347"},"vehicle_type_id":"4","last_reported":1747732286,"current_range_meters":24400,"station_id":"ce4bhmh2rcd13ifvqgmg","pricing_plan_id":"cebpf4jnsgd1na2vs0mg"},{"bike_id":"4e855f12-9baa-44b1-b842-d77c35a0e7f0","system_id":"levelo_inurba_marseille","lat":43.25109,"lon":5.40329,"is_reserved":false,"is_disabled":false,"rental_uris":{"android":"levelo://app?vid=4e855f12-9baa-44b1-b842-d77c35a0e7f0","ios":"levelo://app?vid=4e855f12-9baa-44b1-b842-d77c35a0e7f0"},"vehicle_type_id":"4","last_reported":1747732286,"current_range_meters":24400,"station_id":"ce4bhlh2rcd13ifvqgig","pricing_plan_id":"cebpf4jnsgd1na2vs0mg"},{"bike_id":"363cb072-5b51-4902-9c8b-120c4922f8d9","system_id":"levelo_inurba_marseille","lat":43.3014,"lon":5.37416,"is_reserved":false,"is_disabled":false,"rental_uris":{"android":"levelo://app?vid=363cb072-5b51-4902-9c8b-120c4922f8d9","ios":"levelo://app?vid=363cb072-5b51-4902-9c8b-120c4922f8d9"},"vehicle_type_id":"4","last_reported":1747732286,"current_range_meters":24400,"station_id":"ce4bgs92rcd13ifvqcc0","pricing_plan_id":"cebpf4jnsgd1na2vs0mg"},{"bike_id":"43c94382-6078-4fdd-b35b-5b19357091f9","system_id":"levelo_inurba_marseille","lat":43.29897,"lon":5.397437,"is_reserved":false,"is_disabled":true,"rental_uris":{"android":"levelo://app?vid=43c94382-6078-4fdd-b35b-5b19357091f9","ios":"levelo://app?vid=43c94382-6078-4fdd-b35b-5b19357091f9"},"vehicle_type_id":"4","last_reported":1747732286,"current_range_meters":24800,"station_id":"ce4bh0h2rcd13ifvqd50","pricing_plan_id":"cebpf4jnsgd1na2vs0mg"},{"bike_id":"fdf9c12b-08b8-4298-9c18-85d577fb152a","system_id":"levelo_inurba_marseille","lat":43.318937,"lon":5.407403,"is_reserved":false,"is_disabled":false,"rental_uris":{"android":"levelo://app?vid=fdf9c12b-08b8-4298-9c18-85d577fb152a","ios":"levelo://app?vid=fdf9c12b-08b8-4298-9c18-85d577fb152a"},"vehicle_type_id":"4","last_reported":1747732286,"current_range_meters":24800,"station_id":"ce4bhq12rcd13ifvqhig","pricing_plan_id":"cebpf4jnsgd1na2vs0mg"},{"bike_id":"69c71e19-284f-4b0f-b944-28b6abbb1e94","system_id":"levelo_inurba_marseille","lat":43.25833,"lon":5.39434,"is_reserved":false,"is_disabled":false,"rental_uris":{"android":"levelo://app?vid=69c71e19-284f-4b0f-b944-28b6abbb1e94","ios":"levelo://app?vid=69c71e19-284f-4b0f-b944-28b6abbb1e94"},"vehicle_type_id":"4","last_reported":1747732286,"current_range_meters":24800,"station_id":"ce4bhip2rcd13ifvqft0","pricing_plan_id":"cebpf4jnsgd1na2vs0mg"},{"bike_id":"c01c52b3-995d-4404-92ce-21837428bd0c","system_id":"levelo_inurba_marseille","lat":43.24396,"lon":5.40148,"is_reserved":false,"is_disabled":false,"rental_uris":{"android":"levelo://app?vid=c01c52b3-995d-4404-92ce-21837428bd0c","ios":"levelo://app?vid=c01c52b3-995d-4404-92ce-21837428bd0c"},"vehicle_type_id":"4","last_reported":1747732286,"current_range_meters":24800,"station_id":"","pricing_plan_id":"cebpf4jnsgd1na2vs0mg"},{"bike_id":"fa03ffe2-ba67-43c6-be0a-ec270434e510","system_id":"levelo_inurba_marseille","lat":43.24183,"lon":5.39733,"is_reserved":false,"is_disabled":false,"rental_uris":{"android":"levelo://app?vid=fa03ffe2-ba67-43c6-be0a-ec270434e510","ios":"levelo://app?vid=fa03ffe2-ba67-43c6-be0a-ec270434e510"},"vehicle_type_id":"4","last_reported":1747732286,"current_range_meters":24800,"station_id":"ce4bhn12rcd13ifvqgpg","pricing_plan_id":"cebpf4jnsgd1na2vs0mg"},{"bike_id":"9fa86286-3585-40a3-9afe-99ec0e34b641","system_id":"levelo_inurba_marseille","lat":43.28945,"lon":5.36396,"is_reserved":false,"is_disabled":false,"rental_uris":{"android":"levelo://app?vid=9fa86286-3585-40a3-9afe-99ec0e34b641","ios":"levelo://app?vid=9fa86286-3585-40a3-9afe-99ec0e34b641"},