{"last_updated":1770975203,"ttl":60,"version":"2.2","data":{"bikes":[{"bike_id":"d96f1086-8d9b-4b38-8774-136993319875","system_id":"levelo_inurba_marseille","lat":43.24654,"lon":5.3888,"is_reserved":false,"is_disabled":false,"rental_uris":{"android":"levelo://app?vid=d96f1086-8d9b-4b38-8774-136993319875","ios":"levelo://app?vid=d96f1086-8d9b-4b38-8774-136993319875"},"vehicle_type_id":"4","last_reported":1770975204,"current_range_meters":25600,"station_id":"ce4bhg12rcd13ifvqf60","pricing_plan_id":"cebpf4jnsgd1na2vs0mg"},{"bike_id":"c5571452-c3a9-4836-8b2a-9d93f59b5759","system_id":"levelo_inurba_marseille","lat":43.284754,"lon":5.484008,"is_reserved":false,"is_disabled":false,"rental_uris":{"android":"levelo://app?vid=c5571452-c3a9-4836-8b2a-9d93f59b5759","ios":"levelo://app?vid=c5571452-c3a9-4836-8b2a-9d93f59b5759"},"vehicle_type_id":"4","last_reported":1770975204,"current_range_meters":11200,"station_id":"st_d3svhcjqgbts73a3dn0g","pricing_plan_id":"cebpf4jnsgd1na2vs0mg"},{"bike_id":"597ba019-6a14-4724-bfeb-cc559411f270","system_id":"levelo_inurba_marseille","lat":43.27617,"lon":5.36114,"is_reserved":false,"is_disabled":false,"rental_uris":{"android":"levelo://app?vid=597ba019-6a14-4724-bfeb-cc559411f270","ios":"levelo://app?vid=597ba019-6a14-4724-bfeb-cc559411f270"},"vehicle_type_id":"4","last_reported":1770975204,"current_range_meters":40000,"station_id":"ce4bgj92rcd13ifvqbe0","pricing_plan_id":"cebpf4jnsgd1na2vs0mg"},{"bike_id":"80ee9136-fcc3-4159-a9b6-95e99816d5df","system_id":"levelo_inurba_marseille","lat":43.30477,"lon":5.37912,"is_reserved":false,"is_disabled":false,"rental_uris":{"android":"levelo://app?vid=80ee9136-fcc3-4159-a9b6-95e99816d5df","ios":"levelo://app?vid=80ee9136-fcc3-4159-a9b6-95e99816d5df"},"vehicle_type_id":"4","last_reported":1770975204,"current_range_meters":34800,"station_id":"ce4bgup2rcd13ifvqcn0","pricing_plan_id":"cebpf4jnsgd1na2vs0mg"},{"bike_id":"fc148e1b-2eeb-4bb0-8155-e98e097f71ae","system_id":"levelo_inurba_marseille","lat":43.28336,"lon":5.38969,"is_reserved":false,"is_disabled":false,"rental_uris":{"android":"levelo://app?vid=fc148e1b-2eeb-4bb0-8155-e98e097f71ae","ios":"levelo://app?vid=fc148e1b-2eeb-4bb0-8155-e98e097f71ae"},"vehicle_type_id":"4","last_reported":1770975204,"current_range_meters":28800,"station_id":"","pricing_plan_id":"cebpf4jnsgd1na2vs0mg"},{"bike_id":"b4ed104e-788d-4b33-aad1-d33937fae292","system_id":"levelo_inurba_marseille","lat":43.28944,"lon":5.3965,"is_reserved":false,"is_disabled":false,"rental_uris":{"android":"levelo://app?vid=b4ed104e-788d-4b33-aad1-d33937fae292","ios":"levelo://app?vid=b4ed104e-788d-4b33-aad1-d33937fae292"},"vehicle_type_id":"4","last_reported":1770975204,"current_range_meters":28400,"station_id":"ce4bh3h2rcd13ifvqdn0","pricing_plan_id":"cebpf4jnsgd1na2vs0mg"},{"bike_id":"022767c9-f523-4ead-b102-658b025cab8d","system_id":"levelo_inurba_marseille","lat":43.24817,"lon":5.37482,"is_reserved":false,"is_disabled":false,"rental_uris":{"android":"levelo://app?vid=022767c9-f523-4ead-b102-658b025cab8d","ios":"levelo://app?vid=022767c9-f523-4ead-b102-658b025cab8d"},"vehicle_type_id":"4","last_reported":1770975204,"current_range_meters":38000,"station_id":"ce4bhgh2rcd13ifvqfb0","pricing_plan_id":"cebpf4jnsgd1na2vs0mg"},{"bike_id":"b6e7429c-cc3c-4004-b8fc-f3875d0aace7","system_id":"levelo_inurba_marseille","lat":43.30154,"lon":5.38028,"is_reserved":false,"is_disabled":false,"rental_uris":{"android":"levelo://app?vid=b6e7429c-cc3c-4004-b8fc-f3875d0aace7","ios":"levelo://app?vid=b6e7429c-cc3c-4004-b8fc-f3875d0aace7"},"vehicle_type_id":"4","last_reported":1770975204,"current_range_meters":30800,"station_id":"ce4bgjp2rcd13ifvqbh0","pricing_plan_id":"cebpf4jnsgd1na2vs0mg"},{"bike_id":"c4642fce-6679-473d-841d-309d722b18fd","system_id":"levelo_inurba_marseille","lat":43.29571,"lon":5.36749,"is_reserved":false,"is_disabled":false,"rental_uris":{"android":"levelo://app?vid=c4642fce-6679-473d-841d-309d722b18fd","ios":"levelo://app?vid=c4642fce-6679-473d-841d-309d722b18fd"},"vehicle_type_id":"4","last_reported":1770975204,"current_range_meters":34800,"station_id":"ce4bgph2rcd13ifvqc2g","pricing_plan_id":"cebpf4jnsgd1na2vs0mg"},{"bike_id":"464c55e9-acae-4e97-8277-29cc50eb6c22","system_id":"levelo_inurba_marseille","lat":43.26931,"lon":5.40255,"is_reserved":false,"is_disabled":false,"rental_uris":{"android":"levelo://app?vid=464c55e9-acae-4e97-8277-29cc50eb6c22","ios":"levelo://app?vid=464c55e9-acae-4e97-8277-29cc50eb6c22"},"vehicle_type_id":"4","last_reported":1770975204,"current_range_meters":4000,"station_id":"cjm6bp8fraef2m0cb0m0","pricing_plan_id":"cebpf4jnsgd1na2vs0mg"},{"bike_id":"eceb30dd-f202-4183-92b0-f3face85ee0f","system_id":"levelo_inurba_marseille","lat":43.262114,"lon":5.374535,"is_reserved":false,"is_disabled":false,"rental_uris":{"android":"levelo://app?vid=eceb30dd-f202-4183-92b0-f3face85ee0f","ios":"levelo://app?vid=eceb30dd-f202-4183-92b0-f3face85ee0f"},"vehicle_type_id":"4","last_reported":1770975204,"current_range_meters":11200,"station_id":"ce4bhgp2rcd13ifvqfc0","pricing_plan_id":"cebpf4jnsgd1na2vs0mg"},{"bike_id":"9d1f4dd7-2e35-4db0-a418-66c9b7e73e53","system_id":"levelo_inurba_marseille","lat":43.33139,"lon":5.39267,"is_reserved":false,"is_disabled":false,"rental_uris":{"android":"levelo://app?vid=9d1f4dd7-2e35-4db0-a418-66c9b7e73e53","ios":"levelo://app?vid=9d1f4dd7-2e35-4db0-a418-66c9b7e73e53"},"vehicle_type_id":"4","last_reported":1770975204,"current_range_meters":14000,"station_id":"","pricing_plan_id":"cebpf4jnsgd1na2vs0mg"},{"bike_id":"f4f082aa-56ec-46a6-9694-a39b6dc830f5","system_id":"levelo_inurba_marseille","lat":43.32448,"lon":5.36589,"is_reserved":false,"is_disabled":false,"rental_uris":{"android":"levelo://app?vid=f4f082aa-56ec-46a6-9694-a39b6dc830f5","ios":"levelo://app?vid=f4f082aa-56ec-46a6-9694-a39b6dc830f5"},"vehicle_type_id":"4","last_reported":1770975204,"current_range_meters":38800,"station_id":"ce4bhs12rcd13ifvqhvg","pricing_plan_id":"cebpf4jnsgd1na2vs0mg"},{"bike_id":"c57a3473-db26-4825-b0c3-9acd480d89cc","system_id":"levelo_inurba_marseille","lat":43.30735,"lon":5.42456,"is_reserved":false,"is_disabled":false,"rental_uris":{"android":"levelo://app?vid=c57a3473-db26-4825-b0c3-9acd480d89cc","ios":"levelo://app?vid=c57a3473-db26-4825-b0c3-9acd480d89cc"},"vehicle_type_id":"4","last_reported":1770975204,"current_range_meters":19200,"station_id":"st_cvj6ca6bvosntc0bfgr0","pricing_plan_id":"cebpf4jnsgd1na2vs0mg"},{"bike_id":"581a942e-7f4c-4b59-961d-e47e562daab6","system_id":"levelo_inurba_marseille","lat":43.33549,"lon":5.37467,"is_reserved":false,"is_disabled":true,"rental_uris":{"android":"levelo://app?vid=581a942e-7f4c-4b59-961d-e47e562daab6","ios":"levelo://app?vid=581a942e-7f4c-4b59-961d-e47e562daab6"},"vehicle_type_id":"4","last_reported":1770975204,"current_range_meters":26000,"station_id":"st_d46tts09ee8s73dlu43g","pricing_plan_id":"cebpf4jnsgd1na2vs0mg"},{"bike_id":"375dea6e-9d0d-4201-bab5-e343be855177","system_id":"levelo_inurba_marseille","lat":43.29557,"lon":5.42282,"is_reserved":false,"is_disabled":false,"rental_uris":{"android":"levelo://app?vid=375dea6e-9d0d-4201-bab5-e343be855177","ios":"levelo://app?vid=375dea6e-9d0d-4201-bab5-e343be855177"},"vehicle_type_id":"4","last_reported":1770975204,"current_range_meters":19600,"station_id":"ce4bhph2rcd13ifvqhdg","pricing_plan_id":"cebpf4jnsgd1na2vs0mg"},{"bike_id":"3e3231f6-7f34-4e79-a208-8e160f324ca7","system_id":"levelo_inurba_marseille","lat":43.31128,"lon":5.3776,"is_reserved":false,"is_disabled":false,"rental_uris":{"android":"levelo://app?vid=3e3231f6-7f34-4e79-a208-8e160f324ca7","ios":"levelo://app?vid=3e3231f6-7f34-4e79-a208-8e160f324ca7"},"vehicle_type_id":"4","last_reported":1770975204,"current_range_meters":16800,"station_id":"ce4bgt92rcd13ifvqcg0","pricing_plan_id":"cebpf4jnsgd1na2vs0mg"},{"bike_id":"9e9bde6e-784b-42b8-a576-035499c1e654","system_id":"levelo_inurba_marseille","lat":43.31082,"lon":5.3719,"is_reserved":false,"is_disabled":false,"rental_uris":{"android":"levelo://app?vid=9e9bde6e-784b-42b8-a576-035499c1e654","ios":"levelo://app?vid=9e9bde6e-784b-42b8-a576-035499c1e654"},"vehicle_type_id":"4","last_reported":1770975204,"current_range_meters":39200,"station_id":"st_d4kl2rp97mjs73e7tdfg","pricing_plan_id":"cebpf4jnsgd1na2vs0mg"},{"bike_id":"a4be4eed-32c8-419a-8fa0-bd3decf6c558","system_id":"levelo_inurba_marseille","lat":43.300058,"lon":5.380886,"is_reserved":false,"is_disabled":false,"rental_uris":{"android":"levelo://app?vid=a4be4eed-32c8-419a-8fa0-bd3decf6c558","ios":"levelo://app?vid=a4be4eed-32c8-419a-8fa0-bd3decf6c558"},"vehicle_type_id":"4","last_reported":1770975204,"current_range_meters":22800,"station_id":"ce4bgjp2rcd13ifvqbh0","pricing_plan_id":"cebpf4jnsgd1na2vs0mg"},{"bike_id":"beedd067-3a6d-4109-bc1c-b5d37af11e39","system_id":"levelo_inurba_marseille","lat":43.27825,"lon":5.39212,"is_reserved":false,"is_disabled":true,"rental_uris":{"android":"levelo://app?vid=beedd067-3a6d-4109-bc1c-b5d37af11e39","ios":"levelo://app?vid=beedd067-3a6d-4109-bc1c-b5d37af11e39"},"vehicle_type_id":"4","last_reported":1770975204,"current_range_meters":38800,"station_id":"ce4bhjp2rcd13ifvqga0","pricing_plan_id":"cebpf4jnsgd1na2vs0mg"},{"bike_id":"b136ab9a-4511-4074-b009-3fcdc7c210e7","system_id":"levelo_inurba_marseille","lat":43.25926,"lon":5.40906,"is_reserved":false,"is_disabled":false,"rental_uris":{"android":"levelo://app?vid=b136ab9a-4511-4074-b009-3fcdc7c210e7","ios":"levelo://app?vid=b136ab9a-4511-4074-b009-3fcdc7c210e7"},"vehicle_type_id":"4","last_reported":1770975204,"current_range_meters":16400,"station_id":"ce4bhm92rcd13ifvqglg","pricing_plan_id":"cebpf4jnsgd1na2vs0mg"},{"bike_id":"77fc1e4c-0211-4eae-8d8f-73ac92ac2b8c","system_id":"levelo_inurba_marseille","lat":43.30152,"lon":5.3808,"is_reserved":false,"is_disabled":false,"rental_uris":{"android":"levelo://app?vid=77fc1e4c-0211-4eae-8d8f-73ac92ac2b8c","ios":"levelo://app?vid=77fc1e4c-0211-4eae-8d8f-73ac92ac2b8c"},"vehicle_type_id":"4","last_reported":1770975204,"current_range_meters":12400,"station_id":"ce4bgjp2rcd13ifvqbh0","pricing_plan_id":"cebpf4jnsgd1na2vs0mg"},{"bike_id":"6d22b095-ac89-44fb-a85d-e5f85c2365e2","system_id":"levelo_inurba_marseille","lat":43.32109,"lon":5.36784,"is_reserved":false,"is_disabled":false,"rental_uris":{"android":"levelo://app?vid=6d22b095-ac89-44fb-a85d-e5f85c2365e2","ios":"levelo://app?vid=6d22b095-ac89-44fb-a85d-e5f85c2365e2"},"vehicle_type_id":"4","last_reported":1770975204,"current_range_meters":33200,"station_id":"ce4bhrh2rcd13ifvqhug","pricing_plan_id":"cebpf4jnsgd1na2vs0mg"},{"bike_id":"8fb49736-29c5-4f16-a000-c4463c178d5a","system_id":"levelo_inurba_marseille","lat":43.30179,"lon":5.38094,"is_reserved":false,"is_disabled":false,"rental_uris":{"android":"levelo://app?vid=8fb49736-29c5-4f16-a000-c4463c178d5a","ios":"levelo://app?vid=8fb49736-29c5-4f16-a000-c4463c178d5a"},"vehicle_type_id":"4","last_reported":1770975204,"current_range_meters":19600,"station_id":"ce4bgjp2rcd13ifvqbh0","pricing_plan_id":"cebpf4jnsgd1na2vs0mg"},{"bike_id":"d461ce87-460b-4189-b385-87ba80d6c692","system_id":"levelo_inurba_marseille","lat":43.30948,"lon":5.39035,"is_reserved":false,"is_disabled":false,"rental_uris":{"android":"levelo://app?vid=d461ce87-460b-4189-b385-87ba80d6c692","ios":"levelo://app?vid=d461ce87-460b-4189-b385-87ba80d6c692"},"vehicle_type_id":"4","last_reported":1770975204,"current_range_meters":16000,"station_id":"ce4bgup2rcd13ifvqco0","pricing_plan_id":"cebpf4jnsgd1na2vs0mg"},{"bike_id":"7c4e9584-9a2a-4e0c-bc8e-315c8bdd9eb6","system_id":"levelo_inurba_marseille","lat":43.28259,"lon":5.35081,"is_reserved":false,"is_disabled":false,"rental_uris":{"android":"levelo://app?vid=7c4e9584-9a2a-4e0c-bc8e-315c8bdd9eb6","ios":"levelo://app?vid=7c4e9584-9a2a-4e0c-bc8e-315c8bdd9eb6"},"vehicle_type_id":"4","last_reported":1770975204,"current_range_meters":17600,"station_id":"ce4bhbp2rcd13ifvqerg","pricing_plan_id":"cebpf4jnsgd1na2vs0mg"},{"bike_id":"f522a37b-7b1a-4bf2-902e-61d1ad81f21a","system_id":"levelo_inurba_marseille","lat":43.3125,"lon":5.3686,"is_reserved":false,"is_disabled":false,"rental_uris":{"android":"levelo://app?vid=f522a37b-7b1a-4bf2-902e-61d1ad81f21a","ios":"levelo://app?vid=f522a37b-7b1a-4bf2-902e-61d1ad81f21a"},"vehicle_type_id":"4","last_reported":1770975204,"current_range_meters":36400,"station_id":"ce4bgl92rcd13ifvqbq0","pricing_plan_id":"cebpf4jnsgd1na2vs0mg"},{"bike_id":"00069f0c-e5ca-48dd-858a-2f7f51f7765b","system_id":"levelo_inurba_marseille","lat":43.24949,"lon":5.40488,"is_reserved":false,"is_disabled":false,"rental_uris":{"android":"levelo://app?vid=00069f0c-e5ca-48dd-858a-2f7f51f7765b","ios":"levelo://app?vid=00069f0c-e5ca-48dd-858a-2f7f51f7765b"},"vehicle_type_id":"4","last_reported":1770975204,"current_range_meters":16000,"station_id":"st_d2ngiaodas8pm72gd1h0","pricing_plan_id":"cebpf4jnsgd1na2vs0mg"},{"bike_id":"b09eb954-14b7-4a9a-98d6-5ab5e6614daf","system_id":"levelo_inurba_marseille","lat":43.30942,"lon":5.39036,"is_reserved":false,"is_disabled":false,"rental_uris":{"android":"levelo://app?vid=b09eb954-14b7-4a9a-98d6-5ab5e6614daf","ios":"levelo://app?vid=b09eb954-14b7-4a9a-98d6-5ab5e6614daf"},"vehicle_type_id":"4","last_reported":1770975204,"current_range_meters":23200,"station_id":"ce4bgup2rcd13ifvqco0","pricing_plan_id":"cebpf4jnsgd1na2vs0mg"},{"bike_id":"d7e55b74-244d-40ff-92ca-08279a596dd1","system_id":"levelo_inurba_marseille","lat":43.29898,"lon":5.43659,"is_reserved":false,"is_disabled":false,"rental_uris":{"android":"levelo://app?vid=d7e55b74-244d-40ff-92ca-08279a596dd1","ios":"levelo://app?vid=d7e55b74-244d-40ff-92ca-08279a596dd1"},"vehicle_type_id":"4","last_reported":1770975204,"current_range_meters":36800,"station_id":"ce4bhpp2rcd13ifvqhfg","pricing_plan_id":"cebpf4jnsgd1na2vs0mg"},{"bike_id":"dbf3adce-f756-48be-8142-94bd2d254eea","system_id":"levelo_inurba_marseille","lat":43.26551,"lon":5.37286,"is_reserved":false,"is_disabled":false,"rental_uris":{"android":"levelo://app?vid=dbf3adce-f756-48be-8142-94bd2d254eea","ios":"levelo://app?vid=dbf3adce-f756-48be-8142-94bd2d254eea"},"vehicle_type_id":"4","last_reported":1770975204,"current_range_meters":24800,"station_id":"ce4bhg12rcd13ifvqf70","pricing_plan_id":"cebpf4jnsgd1na2vs0mg"},{"bike_id":"f300d22b-b3ab-42d6-ad72-e92af3306e75","system_id":"levelo_inurba_marseille","lat":43.31069,"lon":5.37188,"is_reserved":false,"is_disabled":false,"rental_uris":{"android":"levelo://app?vid=f300d22b-b3ab-42d6-ad72-e92af3306e75","ios":"levelo://app?vid=f300d22b-b3ab-42d6-ad72-e92af3306e75"},"vehicle_type_id":"4","last_reported":1770975204,"current_range_meters":22400,"station_id":"st_d4kl2rp97mjs73e7tdfg","pricing_plan_id":"cebpf4jnsgd1na2vs0mg"},{"bike_id":"fb43b87c-a8c1-4a57-8955-c143f7e7a2c6","system_id":"levelo_inurba_marseille","lat":43.3248,"lon":5.36574,"is_reserved":false,"is_disabled":false,"rental_uris":{"android":"levelo://app?vid=fb43b87c-a8c1-4a57-8955-c143f7e7a2c6","ios":"levelo://app?vid=fb43b87c-a8c1-4a57-8955-c143f7e7a2c6"},"vehicle_type_id":"4","last_reported":1770975204,"current_range_meters":31200,"station_id":"ce4bhs12rcd13ifvqhvg","pricing_plan_id":"cebpf4jnsgd1na2vs0mg"},{"bike_id":"ef0ae322-95e0-4871-9c65-0dc4aa9d0ede","system_id":"levelo_inurba_marseille","lat":43.26684,"lon":5.38279,"is_reserved":false,"is_disabled":false,"rental_uris":{"android":"levelo://app?vid=ef0ae322-95e0-4871-9c65-0dc4aa9d0ede","ios":"levelo://app?vid=ef0ae322-95e0-4871-9c65-0dc4aa9d0ede"},"vehicle_type_id":"4","last_reported":1770975204,"current_range_meters":24400,"station_id":"ce4bhg92rcd13ifvqf90","pricing_plan_id":"cebpf4jnsgd1na2vs0mg"},{"bike_id":"241b3e74-a71f-4c45-8122-0768114fc5a0","system_id":"levelo_inurba_marseille","lat":43.29849,"lon":5.36285,"is_reserved":false,"is_disabled":false,"rental_uris":{"android":"levelo://app?vid=241b3e74-a71f-4c45-8122-0768114fc5a0","ios":"levelo://app?vid=241b3e74-a71f-4c45-8122-0768114fc5a0"},"vehicle_type_id":"4","last_reported":1770975204,"current_range_meters":38400,"station_id":"ce4bgpp2rcd13ifvqc3g","pricing_plan_id":"cebpf4jnsgd1na2vs0mg"},{"bike_id":"38183ccb-dd90-49d6-b27e-378b18af7d41","system_id":"levelo_inurba_marseille","lat":43.32644,"lon":5.40963,"is_reserved":false,"is_disabled":false,"rental_uris":{"android":"levelo://app?vid=38183ccb-dd90-49d6-b27e-378b18af7d41","ios":"levelo://app?vid=38183ccb-dd90-49d6-b27e-378b18af7d41"},"vehicle_type_id":"4","last_reported":1770975204,"current_range_meters":36000,"station_id":"ce4bhpp2rcd13ifvqhgg","pricing_plan_id":"cebpf4jnsgd1na2vs0mg"},{"bike_id":"2f5eb081-c8ec-4b5a-aeb2-0f41496e1067","system_id":"levelo_inurba_marseille","lat":43.27587,"lon":5.38436,"is_reserved":false,"is_disabled":false,"rental_uris":{"android":"levelo://app?vid=2f5eb081-c8ec-4b5a-aeb2-0f41496e1067","ios":"levelo://app?vid=2f5eb081-c8ec-4b5a-aeb2-0f41496e1067"},"vehicle_type_id":"4","last_reported":1770975204,"current_range_meters":39200,"station_id":"ce4bhh92rcd13ifvqfi0","pricing_plan_id":"cebpf4jnsgd1na2vs0mg"},{"bike_id":"f38fccb3-9422-4c98-b4a5-9320cdfa4c27","system_id":"levelo_inurba_marseille","lat":43.28286,"lon":5.35104,"is_reserved":false,"is_disabled":false,"rental_uris":{"android":"levelo://app?vid=f38fccb3-9422-4c98-b4a5-9320cdfa4c27","ios":"levelo://app?vid=f38fccb3-9422-4c98-b4a5-9320cdfa4c27"},"vehicle_type_id":"4","last_reported":1770975204,"current_range_meters":26800,"station_id":"ce4bhbp2rcd13ifvqerg","pricing_plan_id":"cebpf4jnsgd1na2vs0mg"},{"bike_id":"1cad9965-1b85-46ee-a084-1333ffa38130","system_id":"levelo_inurba_marseille","lat":43.30483,"lon":5.37911,"is_reserved":false,"is_disabled":false,"rental_uris":{"android":"levelo://app?vid=1cad9965-1b85-46ee-a084-1333ffa38130","ios":"levelo://app?vid=1cad9965-1b85-46ee-a084-1333ffa38130"},"vehicle_type_id":"4","last_reported":1770975204,"current_range_meters":29600,"station_id":"ce4bgup2rcd13ifvqcn0","pricing_plan_id":"cebpf4jnsgd1na2vs0mg"},{"bike_id":"6888d293-0d81-4cf8-b7da-18b5fd60abad","system_id":"levelo_inurba_marseille","lat":43.2932,"lon":5.37231,"is_reserved":false,"is_disabled":true,"rental_uris":{"android":"levelo://app?vid=6888d293-0d81-4cf8-b7da-18b5fd60abad","ios":"levelo://app?vid=6888d293-0d81-4cf8-b7da-18b5fd60abad"},"vehicle_type_id":"4","last_reported":1770975204,"current_range_meters":24000,"station_id":"","pricing_plan_id":"cebpf4jnsgd1na2vs0mg"},{"bike_id":"15830f35-972c-44ec-8610-326bfb2d2822","system_id":"levelo_inurba_marseille","lat":43.23154,"lon":5.43699,"is_reserved":false,"is_disabled":false,"rental_uris":{"android":"levelo://app?vid=15830f35-972c-44ec-8610-326bfb2d2822","ios":"levelo://app?vid=15830f35-972c-44ec-8610-326bfb2d2822"},"vehicle_type_id":"4","last_reported":1770975204,"current_range_meters":12400,"station_id":"ce4bhmp2rcd13ifvqgog","pricing_plan_id":"cebpf4jnsgd1na2vs0mg"},{"bike_id":"32b27b47-6c8b-49c6-8b48-fbeace627871","system_id":"levelo_inurba_marseille","lat":43.31091,"lon":5.36923,"is_reserved":false,"is_disabled":false,"rental_uris":{"android":"levelo://app?vid=32b27b47-6c8b-49c6-8b48-fbeace627871","ios":"levelo://app?vid=32b27b47-6c8b-49c6-8b48-fbeace627871"},"vehicle_type_id":"4","last_reported":1770975204,"current_range_meters":8000,"station_id":"","pricing_plan_id":"cebpf4jnsgd1na2vs0mg"},{"bike_id":"54174f9a-82c6-4185-9348-2931b546c925","system_id":"levelo_inurba_marseille","lat":43.292735,"lon":5.36852,"is_reserved":false,"is_disabled":true,"rental_uris":{"android":"levelo://app?vid=54174f9a-82c6-4185-9348-2931b546c925","ios":"levelo://app?vid=54174f9a-82c6-4185-9348-2931b546c925"},"vehicle_type_id":"4","last_reported":1770975204,"current_range_meters":30800,"station_id":"ce4bhbp2rcd13ifvqesg","pricing_plan_id":"cebpf4jnsgd1na2vs0mg"},{"bike_id":"b7fcb2da-5243-440b-926b-4edc89af4b76","system_id":"levelo_inurba_marseille","lat":43.27991,"lon":5.40009,"is_reserved":false,"is_disabled":false,"rental_uris":{"android":"levelo://app?vid=b7fcb2da-5243-440b-926b-4edc89af4b76","ios":"levelo://app?vid=b7fcb2da-5243-440b-926b-4edc89af4b76"},"vehicle_type_id":"4","last_reported":1770975204,"current_range_meters":30000,"station_id":"ce4bho92rcd13ifvqh4g","pricing_plan_id":"cebpf4jnsgd1na2vs0mg"},{"bike_id":"f2d2568f-cb99-43df-b390-ebae83029115","system_id":"levelo_inurba_marseille","lat":43.29237,"lon":5.36075,"is_reserved":false,"is_disabled":false,"rental_uris":{"android":"levelo://app?vid=f2d2568f-cb99-43df-b390-ebae83029115","ios":"levelo://app?vid=f2d2568f-cb99-43df-b390-ebae83029115"},"vehicle_type_id":"4","last_reported":1770975204,"current_range_meters":27200,"station_id":"ce4bhbh2rcd13ifvqeqg","pricing_plan_id":"cebpf4jnsgd1na2vs0mg"},{"bike_id":"48d4a83c-c716-41c6-8fd3-cb0153dd2afb","system_id":"levelo_inurba_marseille","lat":43.31139,"lon":5.36906,"is_reserved":false,"is_disabled":false,"rental_uris":{"android":"levelo://app?vid=48d4a83c-c716-41c6-8fd3-cb0153dd2afb","ios":"levelo://app?vid=48d4a83c-c716-41c6-8fd3-cb0153dd2afb"},"vehicle_type_id":"4","last_reported":1770975204,"current_range_meters":38800,"station_id":"ce4bgl92rcd13ifvqbq0","pricing_plan_id":"cebpf4jnsgd1na2vs0mg"},{"bike_id":"e532d849-9da4-492c-974e-21e564fe6f6a","system_id":"levelo_inurba_marseille","lat":43.31007,"lon":5.37175,"is_reserved":false,"is_disabled":false,"rental_uris":{"android":"levelo://app?vid=e532d849-9da4-492c-974e-21e564fe6f6a","ios":"levelo://app?vid=e532d849-9da4-492c-974e-21e564fe6f6a"},"vehicle_type_id":"4","last_reported":1770975204,"current_range_meters":33600,"station_id":"","pricing_plan_id":"cebpf4jnsgd1na2vs0mg"},{"bike_id":"62edbe66-d8be-4c10-93e9-90a4ba2bb3b1","system_id":"levelo_inurba_marseille","lat":43.29314,"lon":5.37172,"is_reserved":false,"is_disabled":false,"rental_uris":{"android":"levelo://app?vid=62edbe66-d8be-4c10-93e9-90a4ba2bb3b1","ios":"levelo://app?vid=62edbe66-d8be-4c10-93e9-90a4ba2bb3b1"},"vehicle_type_id":"4","last_reported":1770975204,"current_range_meters":35200,"station_id":"ce4bgh92rcd13ifvqb40","pricing_plan_id":"cebpf4jnsgd1na2vs0mg"},{"bike_id":"991c13dc-fd9f-4b28-9c78-fd5b4127837e","system_id":"levelo_inurba_marseille","lat":43.26927,"lon":5.40257,"is_reserved":false,"is_disabled":false,"rental_uris":{"android":"levelo://app?vid=991c13dc-fd9f-4b28-9c78-fd5b4127837e","ios":"levelo://app?vid=991c13dc-fd9f-4b28-9c78-fd5b4127837e"},"vehicle_type_id":"4","last_reported":1770975204,"current_range_meters":40000,"station_id":"cjm6bp8fraef2m0cb0m0","pricing_plan_id":"cebpf4jnsgd1na2vs0mg"},{"bike_id":"39408217-f5cb-457a-82a9-d5c8e85cf221","system_id":"levelo_inurba_marseille","lat":43.27916,"lon":5.39577,"is_reserved":false,"is_disabled":false,"rental_uris":{"android":"levelo://app?vid=39408217-f5cb-457a-82a9-d5c8e85cf221","ios":"levelo://app?vid=39408217-f5cb-457a-82a9-d5c8e85cf221"},"vehicle_type_id":"4","last_reported":1770975204,"current_range_meters":39200,"station_id":"ce4bhf92rcd13ifvqf40","pricing_plan_id":"cebpf4jnsgd1na2vs0mg"},{"bike_id":"5d6b226c-0296-4bc0-9929-39689db3e4b1","system_id":"levelo_inurba_marseille","lat":43.32128,"lon":5.36796,"is_reserved":false,"is_disabled":false,"rental_uris":{"android":"levelo://app?vid=5d6b226c-0296-4bc0-9929-39689db3e4b1","ios":"levelo://app?vid=5d6b226c-0296-4bc0-9929-39689db3e4b1"},"vehicle_type_id":"4","last_reported":1770975204,"current_range_meters":22400,"station_id":"ce4bhrh2rcd13ifvqhug","pricing_plan_id":"cebpf4jnsgd1na2vs0mg"},{"bike_id":"9664a5c4-41bd-49a0-bca7-ccecab569b6a","system_id":"levelo_inurba_marseille","lat":43.32065,"lon":5.41541,"is_reserved":false,"is_disabled":false,"rental_uris":{"android":"levelo://app?vid=9664a5c4-41bd-49a0-bca7-ccecab569b6a","ios":"levelo://app?vid=9664a5c4-41bd-49a0-bca7-ccecab569b6a"},"vehicle_type_id":"4","last_reported":1770975204,"current_range_meters":40000,"station_id":"ce4bhq92rcd13ifvqhkg","pricing_plan_id":"cebpf4jnsgd1na2vs0mg"},{"bike_id":"5c8c3d05-5a98-4394-b47e-3e04535ddbbc","system_id":"levelo_inurba_marseille","lat":43.25492,"lon":5.3767,"is_reserved":false,"is_disabled":false,"rental_uris":{"android":"levelo://app?vid=5c8c3d05-5a98-4394-b47e-3e04535ddbbc","ios":"levelo://app?vid=5c8c3d05-5a98-4394-b47e-3e04535ddbbc"},"vehicle_type_id":"4","last_reported":1770975204,"current_range_meters":24000,"station_id":"ce4bhh12rcd13ifvqff0","pricing_plan_id":"cebpf4jnsgd1na2vs0mg"},{"bike_id":"d680673d-76c2-48d3-b737-b75ce412dc71","system_id":"levelo_inurba_marseille","lat":43.29046,"lon":5.39984,"is_reserved":false,"is_disabled":false,"rental_uris":{"android":"levelo://app?vid=d680673d-76c2-48d3-b737-b75ce412dc71","ios":"levelo://app?vid=d680673d-76c2-48d3-b737-b75ce412dc71"},"vehicle_type_id":"4","last_reported":1770975204,"current_range_meters":36800,"station_id":"ce4bh392rcd13ifvqdm0","pricing_plan_id":"cebpf4jnsgd1na2vs0mg"},{"bike_id":"5902a3f8-fb1d-475f-9450-7d7b4c5e0e9f","system_id":"levelo_inurba_marseille","lat":43.295268,"lon":5.390484,"is_reserved":false,"is_disabled":false,"rental_uris":{"android":"levelo://app?vid=5902a3f8-fb1d-475f-9450-7d7b4c5e0e9f","ios":"levelo://app?vid=5902a3f8-fb1d-475f-9450-7d7b4c5e0e9f"},"vehicle_type_id":"4","last_reported":1770975204,"current_range_meters":10000,"station_id":"ce4bh3p2rcd13ifvqdp0","pricing_plan_id":"cebpf4jnsgd1na2vs0mg"},{"bike_id":"1666b265-643d-41e7-bcc3-6167a6d49f91","system_id":"levelo_inurba_marseille","lat":43.22551,"lon":5.3486,"is_reserved":false,"is_disabled":false,"rental_uris":{"android":"levelo://app?vid=1666b265-643d-41e7-bcc3-6167a6d49f91","ios":"levelo://app?vid=1666b265-643d-41e7-bcc3-6167a6d49f91"},"vehicle_type_id":"4","last_reported":1770975204,"current_range_meters":5600,"station_id":"st_cvj5dfep6f1abm77gieg","pricing_plan_id":"cebpf4jnsgd1na2vs0mg"},{"bike_id":"0c934c4f-ac9b-435e-9cc2-4b032106c945","system_id":"levelo_inurba_marseille","lat":43.28448,"lon":5.39211,"is_reserved":false,"is_disabled":false,"rental_uris":{"android":"levelo://app?vid=0c934c4f-ac9b-435e-9cc2-4b032106c945","ios":"levelo://app?vid=0c934c4f-ac9b-435e-9cc2-4b032106c945"},"vehicle_type_id":"4","last_reported":1770975204,"current_range_meters":31200,"station_id":"ce4bhoh2rcd13ifvqh5g","pricing_plan_id":"cebpf4jnsgd1na2vs0mg"},{"bike_id":"6f294d54-f609-4625-96d7-a0de446bc31a","system_id":"levelo_inurba_marseille","lat":43.24962,"lon":5.40496,"is_reserved":false,"is_disabled":false,"rental_uris":{"android":"levelo://app?vid=6f294d54-f609-4625-96d7-a0de446bc31a","ios":"levelo://app?vid=6f294d54-f609-4625-96d7-a0de446bc31a"},"vehicle_type_id":"4","last_reported":1770975204,"current_range_meters":9200,"station_id":"st_d2ngiaodas8pm72gd1h0","pricing_plan_id":"cebpf4jnsgd1na2vs0mg"},{"bike_id":"5f12005e-04e5-44aa-9036-56a982f265e1","system_id":"levelo_inurba_marseille","lat":43.29218,"lon":5.360607,"is_reserved":false,"is_disabled":false,"rental_uris":{"android":"levelo://app?vid=5f12005e-04e5-44aa-9036-56a982f265e1","ios":"levelo://app?vid=5f12005e-04e5-44aa-9036-56a982f265e1"},"vehicle_type_id":"4","last_reported":1770975204,"current_range_meters":33600,"station_id":"ce4bhbh2rcd13ifvqeqg","pricing_plan_id":"cebpf4jnsgd1na2vs0mg"},{"bike_id":"6684f561-c8e5-447e-b2b4-87fceaf4640b","system_id":"levelo_inurba_marseille","lat":43.26543,"lon":5.39043,"is_reserved":false,"is_disabled":false,"rental_uris":{"android":"levelo://app?vid=6684f561-c8e5-447e-b2b4-87fceaf4640b","ios":"levelo://app?vid=6684f561-c8e5-447e-b2b4-87fceaf4640b"},"vehicle_type_id":"4","last_reported":1770975204,"current_range_meters":21600,"station_id":"ce4bhe12rcd13ifvqf30","pricing_plan_id":"cebpf4jnsgd1na2vs0mg"},{"bike_id":"2cf2a53b-8ea0-4d37-a803-2ee548a739ef","system_id":"levelo_inurba_marseille","lat":43.23166,"lon":5.43694,"is_reserved":false,"is_disabled":false,"rental_uris":{"android":"levelo://app?vid=2cf2a53b-8ea0-4d37-a803-2ee548a739ef","ios":"levelo://app?vid=2cf2a53b-8ea0-4d37-a803-2ee548a739ef"},"vehicle_type_id":"4","last_reported":1770975204,"current_range_meters":20000,"station_id":"ce4bhmp2rcd13ifvqgog","pricing_plan_id":"cebpf4jnsgd1na2vs0mg"},{"bike_id":"bcad26e7-801b-45a3-9a6f-b11851106eac","system_id":"levelo_inurba_marseille","lat":43.28577,"lon":5.3834,"is_reserved":false,"is_disabled":false,"rental_uris":{"android":"levelo://app?vid=bcad26e7-801b-45a3-9a6f-b11851106eac","ios":"levelo://app?vid=bcad26e7-801b-45a3-9a6f-b11851106eac"},"vehicle_type_id":"4","last_reported":1770975204,"current_range_meters":8800,"station_id":"","pricing_plan_id":"cebpf4jnsgd1na2vs0mg"},{"bike_id":"ff44dbe5-14a4-4a8a-9e3e-80f06a7ba550","system_id":"levelo_inurba_marseille","lat":43.23133,"lon":5.43717,"is_reserved":false,"is_disabled":false,"rental_uris":{"android":"levelo://app?vid=ff44dbe5-14a4-4a8a-9e3e-80f06a7ba550","ios":"levelo://app?vid=ff44dbe5-14a4-4a8a-9e3e-80f06a7ba550"},"vehicle_type_id":"4","last_reported":1770975204,"current_range_meters":20000,"station_id":"ce4bhmp2rcd13ifvqgog","pricing_plan_id":"cebpf4jnsgd1na2vs0mg"},{"bike_id":"6068ab39-5054-4c82-bfb6-3a4eef3bba44","system_id":"levelo_inurba_marseille","lat":43.23168,"lon":5.43752,"is_reserved":false,"is_disabled":false,"rental_uris":{"android":"levelo://app?vid=6068ab39-5054-4c82-bfb6-3a4eef3bba44","ios":"levelo://app?vid=6068ab39-5054-4c82-bfb6-3a4eef3bba44"},"vehicle_type_id":"4","last_reported":1770975204,"current_range_meters":23200,"station_id":"ce4bhmp2rcd13ifvqgog","pricing_plan_id":"cebpf4jnsgd1na2vs0mg"},{"bike_id":"090a00f0-2b66-4e7a-84a8-3dddad6d6fd5","system_id":"levelo_inurba_marseille","lat":43.26688,"lon":5.38271,"is_reserved":false,"is_disabled":false,"rental_uris":{"android":"levelo://app?vid=090a00f0-2b66-4e7a-84a8-3dddad6d6fd5","ios":"levelo://app?vid=090a00f0-2b66-4e7a-84a8-3dddad6d6fd5"},"vehicle_type_id":"4","last_reported":1770975204,"current_range_meters":32000,"station_id":"ce4bhg92rcd13ifvqf90","pricing_plan_id":"cebpf4jnsgd1na2vs0mg"},{"bike_id":"9608066a-cdb2-49b3-a28b-2cea2519cf49","system_id":"levelo_inurba_marseille","lat":43.30703,"lon":5.36766,"is_reserved":false,"is_disabled":false,"rental_uris":{"android":"levelo://app?vid=9608066a-cdb2-49b3-a28b-2cea2519cf49","ios":"levelo://app?vid=9608066a-cdb2-49b3-a28b-2cea2519cf49"},"vehicle_type_id":"4","last_reported":1770975204,"current_range_meters":37600,"station_id":"","pricing_plan_id":"cebpf4jnsgd1na2vs0mg"},{"bike_id":"7f1d354e-f7c6-4895-85ec-7d34724cca8a","system_id":"levelo_inurba_marseille","lat":43.240761,"lon":5.377469,"is_reserved":false,"is_disabled":false,"rental_uris":{"android":"levelo://app?vid=7f1d354e-f7c6-4895-85ec-7d34724cca8a","ios":"levelo://app?vid=7f1d354e-f7c6-4895-85ec-7d34724cca8a"},"vehicle_type_id":"4","last_reported":1770975204,"current_range_meters":31200,"station_id":"ce4bhnp2rcd13ifvqgvg","pricing_plan_id":"cebpf4jnsgd1na2vs0mg"},{"bike_id":"361472a9-140d-4e92-9e16-c96fbc664522","system_id":"levelo_inurba_marseille","lat":43.241721,"lon":5.364021,"is_reserved":false,"is_disabled":false,"rental_uris":{"android":"levelo://app?vid=361472a9-140d-4e92-9e16-c96fbc664522","ios":"levelo://app?vid=361472a9-140d-4e92-9e16-c96fbc664522"},"vehicle_type_id":"4","last_reported":1770975204,"current_range_meters":18800,"station_id":"cpo36qri1sfpv3e86is0","pricing_plan_id":"cebpf4jnsgd1na2vs0mg"},{"bike_id":"e870f1e3-78eb-4c5b-bb46-e5f07c3453b9","system_id":"levelo_inurba_marseille","lat":43.282857,"lon":5.350843,"is_reserved":false,"is_disabled":false,"rental_uris":{"android":"levelo://app?vid=e870f1e3-78eb-4c5b-bb46-e5f07c3453b9","ios":"levelo://app?vid=e870f1e3-78eb-4c5b-bb46-e5f07c3453b9"},"vehicle_type_id":"4","last_reported":1770975204,"current_range_meters":38400,"station_id":"","pricing_plan_id":"cebpf4jnsgd1na2vs0mg"},{"bike_id":"54254b36-6e63-4600-8128-6261a593eb18","system_id":"levelo_inurba_marseille","lat":43.31136,"lon":5.36949,"is_reserved":false,"is_disabled":false,"rental_uris":{"android":"levelo://app?vid=54254b36-6e63-4600-8128-6261a593eb18","ios":"levelo://app?vid=54254b36-6e63-4600-8128-6261a593eb18"},"vehicle_type_id":"4","last_reported":1770975204,"current_range_meters":28800,"station_id":"","pricing_plan_id":"cebpf4jnsgd1na2vs0mg"},{"bike_id":"a18aa286-269e-4963-b039-81f99ce774de","system_id":"levelo_inurba_marseille","lat":43.28853,"lon":5.35868,"is_reserved":false,"is_disabled":false,"rental_uris":{"android":"levelo://app?vid=a18aa286-269e-4963-b039-81f99ce774de","ios":"levelo://app?vid=a18aa286-269e-4963-b039-81f99ce774de"},"vehicle_type_id":"4","last_reported":1770975204,"current_range_meters":8400,"station_id":"ce4bhb12rcd13ifvqem0","pricing_plan_id":"cebpf4jnsgd1na2vs0mg"},{"bike_id":"4616e50b-ae3d-4a9e-80bd-a9813e03a970","system_id":"levelo_inurba_marseille","lat":43.29005,"lon":5.35598,"is_reserved":false,"is_disabled":false,"rental_uris":{"android":"levelo://app?vid=4616e50b-ae3d-4a9e-80bd-a9813e03a970","ios":"levelo://app?vid=4616e50b-ae3d-4a9e-80bd-a9813e03a970"},"vehicle_type_id":"4","last_reported":1770975204,"current_range_meters":10800,"station_id":"ce4bhb92rcd13ifvqen0","pricing_plan_id":"cebpf4jnsgd1na2vs0mg"},{"bike_id":"fcabaec3-1afd-4ea0-8ced-deb27afd642e","system_id":"levelo_inurba_marseille","lat":43.2794,"lon":5.41026,"is_reserved":false,"is_disabled":false,"rental_uris":{"android":"levelo://app?vid=fcabaec3-1afd-4ea0-8ced-deb27afd642e","ios":"levelo://app?vid=fcabaec3-1afd-4ea0-8ced-deb27afd642e"},"vehicle_type_id":"4","last_reported":1770975204,"current_range_meters":30800,"station_id":"ce4bhnp2rcd13ifvqh0g","pricing_plan_id":"cebpf4jnsgd1na2vs0mg"},{"bike_id":"2eb27455-42f3-4826-857f-7b0be12ff69d","system_id":"levelo_inurba_marseille","lat":43.26768,"lon":5.39422,"is_reserved":false,"is_disabled":false,"rental_uris":{"android":"levelo://app?vid=2eb27455-42f3-4826-857f-7b0be12ff69d","ios":"levelo://app?vid=2eb27455-42f3-4826-857f-7b0be12ff69d"},"vehicle_type_id":"4","last_reported":1770975204,"current_range_meters":16400,"station_id":"ce4bhh12rcd13ifvqfg0","pricing_plan_id":"cebpf4jnsgd1na2vs0mg"},{"bike_id":"062adb3a-aecb-4793-b01f-4e640ed0b2b6","system_id":"levelo_inurba_marseille","lat":43.30555,"lon":5.36692,"is_reserved":false,"is_disabled":false,"rental_uris":{"android":"levelo://app?vid=062adb3a-aecb-4793-b01f-4e640ed0b2b6","ios":"levelo://app?vid=062adb3a-aecb-4793-b01f-4e640ed0b2b6"},"vehicle_type_id":"4","last_reported":1770975204,"current_range_meters":23200,"station_id":"ce4bgrp2rcd13ifvqc9g","pricing_plan_id":"cebpf4jnsgd1na2vs0mg"},{"bike_id":"6a77d0ea-d435-4de7-9919-85676c5866e3","system_id":"levelo_inurba_marseille","lat":43.30005,"lon":5.37196,"is_reserved":false,"is_disabled":false,"rental_uris":{"android":"levelo://app?vid=6a77d0ea-d435-4de7-9919-85676c5866e3","ios":"levelo://app?vid=6a77d0ea-d435-4de7-9919-85676c5866e3"},"vehicle_type_id":"4","last_reported":1770975204,"current_range_meters":37600,"station_id":"ce4bgr92rcd13ifvqc7g","pricing_plan_id":"cebpf4jnsgd1na2vs0mg"},{"bike_id":"8e2a6bdd-3868-4795-80f0-6045872e16c6","system_id":"levelo_inurba_marseille","lat":43.24656,"lon":5.38158,"is_reserved":false,"is_disabled":false,"rental_uris":{"android":"levelo://app?vid=8e2a6bdd-3868-4795-80f0-6045872e16c6","ios":"levelo://app?vid=8e2a6bdd-3868-4795-80f0-6045872e16c6"},"vehicle_type_id":"4","last_reported":1770975204,"current_range_meters":27600,"station_id":"ce4bhih2rcd13ifvqfr0","pricing_plan_id":"cebpf4jnsgd1na2vs0mg"},{"bike_id":"cae3340b-dabf-42ee-b29f-fab64d3e6b2c","system_id":"levelo_inurba_marseille","lat":43.24084,"lon":5.37746,"is_reserved":false,"is_disabled":false,"rental_uris":{"android":"levelo://app?vid=cae3340b-dabf-42ee-b29f-fab64d3e6b2c","ios":"levelo://app?vid=cae3340b-dabf-42ee-b29f-fab64d3e6b2c"},"vehicle_type_id":"4","last_reported":1770975204,"current_range_meters":8000,"station_id":"ce4bhnp2rcd13ifvqgvg","pricing_plan_id":"cebpf4jnsgd1na2vs0mg"},{"bike_id":"362ebbf4-dc5c-472b-b924-c9cd143d3220","system_id":"levelo_inurba_marseille","lat":43.24073,"lon":5.37763,"is_reserved":false,"is_disabled":false,"rental_uris":{"android":"levelo://app?vid=362ebbf4-dc5c-472b-b924-c9cd143d3220","ios":"levelo://app?vid=362ebbf4-dc5c-472b-b924-c9cd143d3220"},"vehicle_type_id":"4","last_reported":1770975204,"current_range_meters":31200,"station_id":"ce4bhnp2rcd13ifvqgvg","pricing_plan_id":"cebpf4jnsgd1na2vs0mg"},{"bike_id":"60391187-d8a7-4a2a-a568-717f3b61a4ab","system_id":"levelo_inurba_marseille","lat":43.30466,"lon":5.379018,"is_reserved":false,"is_disabled":false,"rental_uris":{"android":"levelo://app?vid=60391187-d8a7-4a2a-a568-717f3b61a4ab","ios":"levelo://app?vid=60391187-d8a7-4a2a-a568-717f3b61a4ab"},"vehicle_type_id":"4","last_reported":1770975204,"current_range_meters":31200,"station_id":"ce4bgup2rcd13ifvqcn0","pricing_plan_id":"cebpf4jnsgd1na2vs0mg"},{"bike_id":"01adf697-a0b1-4672-92f7-51b13b766b4e","system_id":"levelo_inurba_marseille","lat":43.27053,"lon":5.40278,"is_reserved":false,"is_disabled":true,"rental_uris":{"android":"levelo://app?vid=01adf697-a0b1-4672-92f7-51b13b766b4e","ios":"levelo://app?vid=01adf697-a0b1-4672-92f7-51b13b766b4e"},"vehicle_type_id":"4","last_reported":1770975204,"current_range_meters":30400,"station_id":"ce4bhk92rcd13ifvqgc0","pricing_plan_id":"cebpf4jnsgd1na2vs0mg"},{"bike_id":"f48a023e-e67e-4b88-b2d4-b63967befb72","system_id":"levelo_inurba_marseille","lat":43.30955,"lon":5.39047,"is_reserved":false,"is_disabled":false,"rental_uris":{"android":"levelo://app?vid=f48a023e-e67e-4b88-b2d4-b63967befb72","ios":"levelo://app?vid=f48a023e-e67e-4b88-b2d4-b63967befb72"},"vehicle_type_id":"4","last_reported":1770975204,"current_range_meters":24800,"station_id":"ce4bgup2rcd13ifvqco0","pricing_plan_id":"cebpf4jnsgd1na2vs0mg"},{"bike_id":"c0b5e000-7dc1-43d6-80bc-e53b5b4df0cf","system_id":"levelo_inurba_marseille","lat":43.29072,"lon":5.3716,"is_reserved":false,"is_disabled":false,"rental_uris":{"android":"levelo://app?vid=c0b5e000-7dc1-43d6-80bc-e53b5b4df0cf","ios":"levelo://app?vid=c0b5e000-7dc1-43d6-80bc-e53b5b4df0cf"},"vehicle_type_id":"4","last_reported":1770975204,"current_range_meters":30800,"station_id":"ce4bh5p2rcd13ifvqe4g","pricing_plan_id":"cebpf4jnsgd1na2vs0mg"},{"bike_id":"1714710a-894c-4813-97ad-80fa37c7aee5","system_id":"levelo_inurba_marseille","lat":43.30972,"lon":5.39032,"is_reserved":false,"is_disabled":false,"rental_uris":{"android":"levelo://app?vid=1714710a-894c-4813-97ad-80fa37c7aee5","ios":"levelo://app?vid=1714710a-894c-4813-97ad-80fa37c7aee5"},"vehicle_type_id":"4","last_reported":1770975204,"current_range_meters":39200,"station_id":"ce4bgup2rcd13ifvqco0","pricing_plan_id":"cebpf4jnsgd1na2vs0mg"},{"bike_id":"451234f1-1684-4d00-8320-1607318757d2","system_id":"levelo_inurba_marseille","lat":43.33156,"lon":5.37687,"is_reserved":false,"is_disabled":true,"rental_uris":{"android":"levelo://app?vid=451234f1-1684-4d00-8320-1607318757d2","ios":"levelo://app?vid=451234f1-1684-4d00-8320-1607318757d2"},"vehicle_type_id":"4","last_reported":1770975204,"current_range_meters":17200,"station_id":"st_d46cu089ee8s73dldbu0","pricing_plan_id":"cebpf4jnsgd1na2vs0mg"},{"bike_id":"2c9ebad7-1dba-4448-a0e5-c643449b1e72","system_id":"levelo_inurba_marseille","lat":43.2926,"lon":5.37613,"is_reserved":false,"is_disabled":true,"rental_uris":{"android":"levelo://app?vid=2c9ebad7-1dba-4448-a0e5-c643449b1e72","ios":"levelo://app?vid=2c9ebad7-1dba-4448-a0e5-c643449b1e72"},"vehicle_type_id":"4","last_reported":1770975204,"current_range_meters":6000,"station_id":"ce4bgi12rcd13ifvqb80","pricing_plan_id":"cebpf4jnsgd1na2vs0mg"},{"bike_id":"917d9683-a902-48d9-9f0b-4231358e812e","system_id":"levelo_inurba_marseille","lat":43.335304,"lon":5.374576,"is_reserved":false,"is_disabled":true,"rental_uris":{"android":"levelo://app?vid=917d9683-a902-48d9-9f0b-4231358e812e","ios":"levelo://app?vid=917d9683-a902-48d9-9f0b-4231358e812e"},"vehicle_type_id":"4","last_reported":1770975204,"current_range_meters":20000,"station_id":"st_d46tts09ee8s73dlu43g","pricing_plan_id":"cebpf4jnsgd1na2vs0mg"},{"bike_id":"35acab90-84ba-4560-801f-445890a09ed0","system_id":"levelo_inurba_marseille","lat":43.25004,"lon":5.38942,"is_reserved":false,"is_disabled":false,"rental_uris":{"android":"levelo://app?vid=35acab90-84ba-4560-801f-445890a09ed0","ios":"levelo://app?vid=35acab90-84ba-4560-801f-445890a09ed0"},"vehicle_type_id":"4","last_reported":1770975204,"current_range_meters":39200,"station_id":"ce4bhgp2rcd13ifvqfd0","pricing_plan_id":"cebpf4jnsgd1na2vs0mg"},{"bike_id":"77d97ba8-97db-4bc9-8294-a1d06adce358","system_id":"levelo_inurba_marseille","lat":43.27507,"lon":5.42517,"is_reserved":false,"is_disabled":true,"rental_uris":{"android":"levelo://app?vid=77d97ba8-97db-4bc9-8294-a1d06adce358","ios":"levelo://app?vid=77d97ba8-97db-4bc9-8294-a1d06adce358"},"vehicle_type_id":"4","last_reported":1770975204,"current_range_meters":12400,"station_id":"ce4bhn92rcd13ifvqgrg","pricing_plan_id":"cebpf4jnsgd1na2vs0mg"},{"bike_id":"03aa505e-9e71-4de8-837d-40f9e3334240","system_id":"levelo_inurba_marseille","lat":43.30132,"lon":5.374273,"is_reserved":false,"is_disabled":false,"rental_uris":{"android":"levelo://app?vid=03aa505e-9e71-4de8-837d-40f9e3334240","ios":"levelo://app?vid=03aa505e-9e71-4de8-837d-40f9e3334240"},"vehicle_type_id":"4","last_reported":1770975204,"current_range_meters":39200,"station_id":"ce4bgs92rcd13ifvqcc0","pricing_plan_id":"cebpf4jnsgd1na2vs0mg"},{"bike_id":"fad4d1f7-83ba-4bdb-8065-06476e250127","system_id":"levelo_inurba_marseille","lat":43.28916,"lon":5.36393,"is_reserved":false,"is_disabled":false,"rental_uris":{"android":"levelo://app?vid=fad4d1f7-83ba-4bdb-8065-06476e250127","ios":"levelo://app?vid=fad4d1f7-83ba-4bdb-8065-06476e250127"},"vehicle_type_id":"4","last_reported":1770975204,"current_range_meters":38400,"station_id":"ce4bhc92rcd13ifvqetg","pricing_plan_id":"cebpf4jnsgd1na2vs0mg"},{"bike_id":"1c239cb1-79ff-4f85-b231-d26d5efcc943","system_id":"levelo_inurba_marseille","lat":43.30538,"lon":5.3654,"is_reserved":false,"is_disabled":false,"rental_uris":{"android":"levelo://app?vid=1c239cb1-79ff-4f85-b231-d26d5efcc943","ios":"levelo://app?vid=1c239cb1-79ff-4f85-b231-d26d5efcc943"},"vehicle_type_id":"4","last_reported":1770975204,"current_range_meters":28400,"station_id":"ce4bgs12rcd13ifvqcag","pricing_plan_id":"cebpf4jnsgd1na2vs0mg"},{"bike_id":"d70814e4-d968-4b8e-817b-88544a1bc9d1","system_id":"levelo_inurba_marseille","lat":43.25063,"lon":5.39077,"is_reserved":false,"is_disabled":false,"rental_uris":{"android":"levelo://app?vid=d70814e4-d968-4b8e-817b-88544a1bc9d1","ios":"levelo://app?vid=d70814e4-d968-4b8e-817b-88544a1bc9d1"},"vehicle_type_id":"4","last_reported":1770975204,"current_range_meters":39200,"station_id":"","pricing_plan_id":"cebpf4jnsgd1na2vs0mg"},{"bike_id":"5376aef3-cba8-4b13-bdd4-51339f0feb25","system_id":"levelo_inurba_marseille","lat":43.24047,"lon":5.37761,"is_reserved":false,"is_disabled":false,"rental_uris":{"android":"levelo://app?vid=5376aef3-cba8-4b13-bdd4-51339f0feb25","ios":"levelo://app?vid=5376aef3-cba8-4b13-bdd4-51339f0feb25"},"vehicle_type_id":"4","last_reported":1770975204,"current_range_meters":38400,"station_id":"ce4bhnp2rcd13ifvqgvg","pricing_plan_id":"cebpf4jnsgd1na2vs0mg"},{"bike_id":"ae5b5494-76f1-4d54-9e14-d5637e617585","system_id":"levelo_inurba_marseille","lat":43.28368,"lon":5.38103,"is_reserved":false,"is_disabled":false,"rental_uris":{"android":"levelo://app?vid=ae5b5494-76f1-4d54-9e14-d5637e617585","ios":"levelo://app?vid=ae5b5494-76f1-4d54-9e14-d5637e617585"},"vehicle_type_id":"4","last_reported":1770975204,"current_range_meters":36800,"station_id":"ce4bh412rcd13ifvqdr0","pricing_plan_id":"cebpf4jnsgd1na2vs0mg"},{"bike_id":"45ef4cb1-1a7b-4aba-b84c-4d3de631715f","system_id":"levelo_inurba_marseille","lat":43.30137,"lon":5.38593,"is_reserved":false,"is_disabled":false,"rental_uris":{"android":"levelo://app?vid=45ef4cb1-1a7b-4aba-b84c-4d3de631715f","ios":"levelo://app?vid=45ef4cb1-1a7b-4aba-b84c-4d3de631715f"},"vehicle_type_id":"4","last_reported":1770975204,"current_range_meters":28800,"station_id":"","pricing_plan_id":"cebpf4jnsgd1na2vs0mg"},{"bike_id":"035d88b4-cf41-4da0-98da-89cca1e2ab74","system_id":"levelo_inurba_marseille","lat":43.2978,"lon":5.38089,"is_reserved":false,"is_disabled":false,"rental_uris":{"android":"levelo://app?vid=035d88b4-cf41-4da0-98da-89cca1e2ab74","ios":"levelo://app?vid=035d88b4-cf41-4da0-98da-89cca1e2ab74"},"vehicle_type_id":"4","last_reported":1770975204,"current_range_meters":38800,"station_id":"ce4bgip2rcd13ifvqbb0","pricing_plan_id":"cebpf4jnsgd1na2vs0mg"},{"bike_id":"e85900b6-be3c-455e-bed5-93376dfddf1a","system_id":"levelo_inurba_marseille","lat":43.29709,"lon":5.365776,"is_reserved":false,"is_disabled":false,"rental_uris":{"android":"levelo://app?vid=e85900b6-be3c-455e-bed5-93376dfddf1a","ios":"levelo://app?vid=e85900b6-be3c-455e-bed5-93376dfddf1a"},"vehicle_type_id":"4","last_reported":1770975204,"current_range_meters":37600,"station_id":"ce4bgn12rcd13ifvqbt0","pricing_plan_id":"cebpf4jnsgd1na2vs0mg"},{"bike_id":"d4d4c60a-9896-4bf6-958b-ecbeb1fe4cd8","system_id":"levelo_inurba_marseille","lat":43.30239,"lon":5.38074,"is_reserved":false,"is_disabled":true,"rental_uris":{"android":"levelo://app?vid=d4d4c60a-9896-4bf6-958b-ecbeb1fe4cd8","ios":"levelo://app?vid=d4d4c60a-9896-4bf6-958b-ecbeb1fe4cd8"},"vehicle_type_id":"4","last_reported":1770975204,"current_range_meters":24400,"station_id":"","pricing_plan_id":"cebpf4jnsgd1na2vs0mg"},{"bike_id":"2646436a-3916-4749-b0c4-4e2a11063978","system_id":"levelo_inurba_marseille","lat":43.29752,"lon":5.37664,"is_reserved":false,"is_disabled":true,"rental_uris":{"android":"levelo://app?vid=2646436a-3916-4749-b0c4-4e2a11063978","ios":"levelo://app?vid=2646436a-3916-4749-b0c4-4e2a11063978"},"vehicle_type_id":"4","last_reported":1770975204,"current_range_meters":39200,"station_id":"","pricing_plan_id":"cebpf4jnsgd1na2vs0mg"},{"bike_id":"cb7eff77-6031-47c6-81f6-df7eb1ca8dee","system_id":"levelo_inurba_marseille","lat":43.27211,"lon":5.39197,"is_reserved":false,"is_disabled":false,"rental_uris":{"android":"levelo://app?vid=cb7eff77-6031-47c6-81f6-df7eb1ca8dee","ios":"levelo://app?vid=cb7eff77-6031-47c6-81f6-df7eb1ca8dee"},"vehicle_type_id":"4","last_reported":1770975204,"current_range_meters":20800,"station_id":"ce4bhhp2rcd13ifvqfm0","pricing_plan_id":"cebpf4jnsgd1na2vs0mg"},{"bike_id":"ff892a04-ae98-4fdf-81ac-3050c7d2c38a","system_id":"levelo_inurba_marseille","lat":43.26573,"lon":5.3903,"is_reserved":false,"is_disabled":false,"rental_uris":{"android":"levelo://app?vid=ff892a04-ae98-4fdf-81ac-3050c7d2c38a","ios":"levelo://app?vid=ff892a04-ae98-4fdf-81ac-3050c7d2c38a"},"vehicle_type_id":"4","last_reported":1770975204,"current_range_meters":4000,"station_id":"ce4bhe12rcd13ifvqf30","pricing_plan_id":"cebpf4jnsgd1na2vs0mg"},{"bike_id":"8d6a5e90-b09f-4cf7-a432-f2daefeda48b","system_id":"levelo_inurba_marseille","lat":43.2966,"lon":5.37286,"is_reserved":false,"is_disabled":false,"rental_uris":{"android":"levelo://app?vid=8d6a5e90-b09f-4cf7-a432-f2daefeda48b","ios":"levelo://app?vid=8d6a5e90-b09f-4cf7-a432-f2daefeda48b"},"vehicle_type_id":"4","last_reported":1770975204,"current_range_meters":39200,"station_id":"ce4bgk12rcd13ifvqbj0","pricing_plan_id":"cebpf4jnsgd1na2vs0mg"},{"bike_id":"56c58eb1-578b-4580-b533-89f6c1505f60","system_id":"levelo_inurba_marseille","lat":43.27203,"lon":5.3918,"is_reserved":false,"is_disabled":false,"rental_uris":{"android":"levelo://app?vid=56c58eb1-578b-4580-b533-89f6c1505f60","ios":"levelo://app?vid=56c58eb1-578b-4580-b533-89f6c1505f60"},"vehicle_type_id":"4","last_reported":1770975204,"current_range_meters":28400,"station_id":"ce4bhhp2rcd13ifvqfm0","pricing_plan_id":"cebpf4jnsgd1na2vs0mg"},{"bike_id":"4e8e0241-acb1-4e10-a2b7-feb0952472c9","system_id":"levelo_inurba_marseille","lat":43.31699,"lon":5.40479,"is_reserved":false,"is_disabled":false,"rental_uris":{"android":"levelo://app?vid=4e8e0241-acb1-4e10-a2b7-feb0952472c9","ios":"levelo://app?vid=4e8e0241-acb1-4e10-a2b7-feb0952472c9"},"vehicle_type_id":"4","last_reported":1770975204,"current_range_meters":34000,"station_id":"ce4bh012rcd13ifvqd00","pricing_plan_id":"cebpf4jnsgd1na2vs0mg"},{"bike_id":"48e1df4f-606d-4198-b15a-3cea16a5988a","system_id":"levelo_inurba_marseille","lat":43.33605,"lon":5.410328,"is_reserved":false,"is_disabled":false,"rental_uris":{"android":"levelo://app?vid=48e1df4f-606d-4198-b15a-3cea16a5988a","ios":"levelo://app?vid=48e1df4f-606d-4198-b15a-3cea16a5988a"},"vehicle_type_id":"4","last_reported":1770975204,"current_range_meters":33200,"station_id":"ce4bhqh2rcd13ifvqhmg","pricing_plan_id":"cebpf4jnsgd1na2vs0mg"},{"bike_id":"b9ca6b49-0d50-43cd-be75-5b51489f36ab","system_id":"levelo_inurba_marseille","lat":43.305968,"lon":5.37209,"is_reserved":false,"is_disabled":false,"rental_uris":{"android":"levelo://app?vid=b9ca6b49-0d50-43cd-be75-5b51489f36ab","ios":"levelo://app?vid=b9ca6b49-0d50-43cd-be75-5b51489f36ab"},"vehicle_type_id":"4","last_reported":1770975204,"current_range_meters":29600,"station_id":"ce4bgqh2rcd13ifvqc4g","pricing_plan_id":"cebpf4jnsgd1na2vs0mg"},{"bike_id":"914ca298-3cac-49df-b658-27bad40b686e","system_id":"levelo_inurba_marseille","lat":43.24076,"lon":5.37756,"is_reserved":false,"is_disabled":false,"rental_uris":{"android":"levelo://app?vid=914ca298-3cac-49df-b658-27bad40b686e","ios":"levelo://app?vid=914ca298-3cac-49df-b658-27bad40b686e"},"vehicle_type_id":"4","last_reported":1770975204,"current_range_meters":5600,"station_id":"ce4bhnp2rcd13ifvqgvg","pricing_plan_id":"cebpf4jnsgd1na2vs0mg"},{"bike_id":"014613de-69aa-4aca-9291-67750cce2e69","system_id":"levelo_inurba_marseille","lat":43.28476,"lon":5.48398,"is_reserved":false,"is_disabled":false,"rental_uris":{"android":"levelo://app?vid=014613de-69aa-4aca-9291-67750cce2e69","ios":"levelo://app?vid=014613de-69aa-4aca-9291-67750cce2e69"},"vehicle_type_id":"4","last_reported":1770975204,"current_range_meters":8400,"station_id":"","pricing_plan_id":"cebpf4jnsgd1na2vs0mg"},{"bike_id":"ceafdd97-9709-4666-acdc-c6b8a34aace5","system_id":"levelo_inurba_marseille","lat":43.27196,"lon":5.40989,"is_reserved":false,"is_disabled":true,"rental_uris":{"android":"levelo://app?vid=ceafdd97-9709-4666-acdc-c6b8a34aace5","ios":"levelo://app?vid=ceafdd97-9709-4666-acdc-c6b8a34aace5"},"vehicle_type_id":"4","last_reported":1770975204,"current_range_meters":8800,"station_id":"ce4bhl12rcd13ifvqgf0","pricing_plan_id":"cebpf4jnsgd1na2vs0mg"},{"bike_id":"61753f51-1a6b-4dde-89d8-2f93df67c2ba","system_id":"levelo_inurba_marseille","lat":43.31329,"lon":5.39693,"is_reserved":false,"is_disabled":false,"rental_uris":{"android":"levelo://app?vid=61753f51-1a6b-4dde-89d8-2f93df67c2ba","ios":"levelo://app?vid=61753f51-1a6b-4dde-89d8-2f93df67c2ba"},"vehicle_type_id":"4","last_reported":1770975204,"current_range_meters":32400,"station_id":"ce4bgvp2rcd13ifvqcu0","pricing_plan_id":"cebpf4jnsgd1na2vs0mg"},{"bike_id":"9ed7300e-a4d4-493c-95a2-a0b857cf6348","system_id":"levelo_inurba_marseille","lat":43.22553,"lon":5.41632,"is_reserved":false,"is_disabled":false,"rental_uris":{"android":"levelo://app?vid=9ed7300e-a4d4-493c-95a2-a0b857cf6348","ios":"levelo://app?vid=9ed7300e-a4d4-493c-95a2-a0b857cf6348"},"vehicle_type_id":"4","last_reported":1770975204,"current_range_meters":24400,"station_id":"st_d2o4gvlbi1j2169b742g","pricing_plan_id":"cebpf4jnsgd1na2vs0mg"},{"bike_id":"6269e2d7-d0c7-4390-be18-84baa62fe0ca","system_id":"levelo_inurba_marseille","lat":43.30505,"lon":5.37907,"is_reserved":false,"is_disabled":false,"rental_uris":{"android":"levelo://app?vid=6269e2d7-d0c7-4390-be18-84baa62fe0ca","ios":"levelo://app?vid=6269e2d7-d0c7-4390-be18-84baa62fe0ca"},"vehicle_type_id":"4","last_reported":1770975204,"current_range_meters":32800,"station_id":"ce4bgup2rcd13ifvqcn0","pricing_plan_id":"cebpf4jnsgd1na2vs0mg"},{"bike_id":"d2ae2440-e92a-40be-b95d-c1574a1fed11","system_id":"levelo_inurba_marseille","lat":43.33166,"lon":5.37702,"is_reserved":false,"is_disabled":false,"rental_uris":{"android":"levelo://app?vid=d2ae2440-e92a-40be-b95d-c1574a1fed11","ios":"levelo://app?vid=d2ae2440-e92a-40be-b95d-c1574a1fed11"},"vehicle_type_id":"4","last_reported":1770975204,"current_range_meters":20800,"station_id":"st_d46cu089ee8s73dldbu0","pricing_plan_id":"cebpf4jnsgd1na2vs0mg"},{"bike_id":"fb7f5bdc-16cf-4b0f-be64-8e63891e03df","system_id":"levelo_inurba_marseille","lat":43.2957,"lon":5.3752,"is_reserved":false,"is_disabled":false,"rental_uris":{"android":"levelo://app?vid=fb7f5bdc-16cf-4b0f-be64-8e63891e03df","ios":"levelo://app?vid=fb7f5bdc-16cf-4b0f-be64-8e63891e03df"},"vehicle_type_id":"4","last_reported":1770975204,"current_range_meters":33200,"station_id":"ce4bgh92rcd13ifvqb50","pricing_plan_id":"cebpf4jnsgd1na2vs0mg"},{"bike_id":"c9509313-6232-40d4-9c17-6bed5ef38be1","system_id":"levelo_inurba_marseille","lat":43.3031,"lon":5.36898,"is_reserved":false,"is_disabled":false,"rental_uris":{"android":"levelo://app?vid=c9509313-6232-40d4-9c17-6bed5ef38be1","ios":"levelo://app?vid=c9509313-6232-40d4-9c17-6bed5ef38be1"},"vehicle_type_id":"4","last_reported":1770975204,"current_range_meters":4000,"station_id":"ce4bgqh2rcd13ifvqc5g","pricing_plan_id":"cebpf4jnsgd1na2vs0mg"},{"bike_id":"25ac9fb3-9d79-4c60-a758-6e22c1f354cc","system_id":"levelo_inurba_marseille","lat":43.31065,"lon":5.37157,"is_reserved":false,"is_disabled":false,"rental_uris":{"android":"levelo://app?vid=25ac9fb3-9d79-4c60-a758-6e22c1f354cc","ios":"levelo://app?vid=25ac9fb3-9d79-4c60-a758-6e22c1f354cc"},"vehicle_type_id":"4","last_reported":1770975204,"current_range_meters":27600,"station_id":"st_d4kl2rp97mjs73e7tdfg","pricing_plan_id":"cebpf4jnsgd1na2vs0mg"},{"bike_id":"6c397119-553f-4bc8-a79a-210747f0549b","system_id":"levelo_inurba_marseille","lat":43.28158,"lon":5.42664,"is_reserved":false,"is_disabled":false,"rental_uris":{"android":"levelo://app?vid=6c397119-553f-4bc8-a79a-210747f0549b","ios":"levelo://app?vid=6c397119-553f-4bc8-a79a-210747f0549b"},"vehicle_type_id":"4","last_reported":1770975204,"current_range_meters":39200,"station_id":"ce4bhnh2rcd13ifvqgug","pricing_plan_id":"cebpf4jnsgd1na2vs0mg"},{"bike_id":"2918605a-55aa-4912-9807-7fd7063d5a71","system_id":"levelo_inurba_marseille","lat":43.33753,"lon":5.37481,"is_reserved":false,"is_disabled":true,"rental_uris":{"android":"levelo://app?vid=2918605a-55aa-4912-9807-7fd7063d5a71","ios":"levelo://app?vid=2918605a-55aa-4912-9807-7fd7063d5a71"},"vehicle_type_id":"4","last_reported":1770975204,"current_range_meters":0,"station_id":"","pricing_plan_id":"cebpf4jnsgd1na2vs0mg"},{"bike_id":"034224b6-2279-4cbc-9caa-f9a79eebd08e","system_id":"levelo_inurba_marseille","lat":43.31234,"lon":5.36883,"is_reserved":false,"is_disabled":false,"rental_uris":{"android":"levelo://app?vid=034224b6-2279-4cbc-9caa-f9a79eebd08e","ios":"levelo://app?vid=034224b6-2279-4cbc-9caa-f9a79eebd08e"},"vehicle_type_id":"4","last_reported":1770975204,"current_range_meters":39200,"station_id":"ce4bgl92rcd13ifvqbq0","pricing_plan_id":"cebpf4jnsgd1na2vs0mg"},{"bike_id":"ec646bd1-590b-4934-a5b0-d09c40f8977b","system_id":"levelo_inurba_marseille","lat":43.27338,"lon":5.39068,"is_reserved":false,"is_disabled":false,"rental_uris":{"android":"levelo://app?vid=ec646bd1-590b-4934-a5b0-d09c40f8977b","ios":"levelo://app?vid=ec646bd1-590b-4934-a5b0-d09c40f8977b"},"vehicle_type_id":"4","last_reported":1770975204,"current_range_meters":30800,"station_id":"ce4bhgp2rcd13ifvqfe0","pricing_plan_id":"cebpf4jnsgd1na2vs0mg"},{"bike_id":"8721f877-cf73-4694-a848-e2bd534c2a51","system_id":"levelo_inurba_marseille","lat":43.23133,"lon":5.43711,"is_reserved":false,"is_disabled":false,"rental_uris":{"android":"levelo://app?vid=8721f877-cf73-4694-a848-e2bd534c2a51","ios":"levelo://app?vid=8721f877-cf73-4694-a848-e2bd534c2a51"},"vehicle_type_id":"4","last_reported":1770975204,"current_range_meters":10000,"station_id":"ce4bhmp2rcd13ifvqgog","pricing_plan_id":"cebpf4jnsgd1na2vs0mg"},{"bike_id":"ae49f3a3-179b-4a3c-b353-8e601751bc8f","system_id":"levelo_inurba_marseille","lat":43.31142,"lon":5.3682,"is_reserved":false,"is_disabled":false,"rental_uris":{"android":"levelo://app?vid=ae49f3a3-179b-4a3c-b353-8e601751bc8f","ios":"levelo://app?vid=ae49f3a3-179b-4a3c-b353-8e601751bc8f"},"vehicle_type_id":"4","last_reported":1770975204,"current_range_meters":17200,"station_id":"ce4bgl92rcd13ifvqbq0","pricing_plan_id":"cebpf4jnsgd1na2vs0mg"},{"bike_id":"9f60b080-6b72-427d-80ed-716942ee6067","system_id":"levelo_inurba_marseille","lat":43.32497,"lon":5.38308,"is_reserved":false,"is_disabled":false,"rental_uris":{"android":"levelo://app?vid=9f60b080-6b72-427d-80ed-716942ee6067","ios":"levelo://app?vid=9f60b080-6b72-427d-80ed-716942ee6067"},"vehicle_type_id":"4","last_reported":1770975204,"current_range_meters":20800,"station_id":"st_d4asgbiv49dc73anf9m0","pricing_plan_id":"cebpf4jnsgd1na2vs0mg"},{"bike_id":"ffe3fbd4-6746-48bb-b0b5-fa7f3d6ff56c","system_id":"levelo_inurba_marseille","lat":43.30974,"lon":5.37133,"is_reserved":false,"is_disabled":false,"rental_uris":{"android":"levelo://app?vid=ffe3fbd4-6746-48bb-b0b5-fa7f3d6ff56c","ios":"levelo://app?vid=ffe3fbd4-6746-48bb-b0b5-fa7f3d6ff56c"},"vehicle_type_id":"4","last_reported":1770975204,"current_range_meters":20400,"station_id":"ce4bguh2rcd13ifvqckg","pricing_plan_id":"cebpf4jnsgd1na2vs0mg"},{"bike_id":"04b44c6f-a2f0-4a77-ab83-fdd9c917e3eb","system_id":"levelo_inurba_marseille","lat":43.32557,"lon":5.41482,"is_reserved":false,"is_disabled":false,"rental_uris":{"android":"levelo://app?vid=04b44c6f-a2f0-4a77-ab83-fdd9c917e3eb","ios":"levelo://app?vid=04b44c6f-a2f0-4a77-ab83-fdd9c917e3eb"},"vehicle_type_id":"4","last_reported":1770975204,"current_range_meters":37600,"station_id":"ce4bhq12rcd13ifvqhhg","pricing_plan_id":"cebpf4jnsgd1na2vs0mg"},{"bike_id":"f9044c91-68e6-45b5-a6cd-cb455fa420c6","system_id":"levelo_inurba_marseille","lat":43.27948,"lon":5.3872,"is_reserved":false,"is_disabled":false,"rental_uris":{"android":"levelo://app?vid=f9044c91-68e6-45b5-a6cd-cb455fa420c6","ios":"levelo://app?vid=f9044c91-68e6-45b5-a6cd-cb455fa420c6"},"vehicle_type_id":"4","last_reported":1770975204,"current_range_meters":31200,"station_id":"ce4bhg12rcd13ifvqf80","pricing_plan_id":"cebpf4jnsgd1na2vs0mg"},{"bike_id":"51ad0198-092e-4860-b994-3420575955f1","system_id":"levelo_inurba_marseille","lat":43.22527,"lon":5.34833,"is_reserved":false,"is_disabled":false,"rental_uris":{"android":"levelo://app?vid=51ad0198-092e-4860-b994-3420575955f1","ios":"levelo://app?vid=51ad0198-092e-4860-b994-3420575955f1"},"vehicle_type_id":"4","last_reported":1770975204,"current_range_meters":5600,"station_id":"st_cvj5dfep6f1abm77gieg","pricing_plan_id":"cebpf4jnsgd1na2vs0mg"},{"bike_id":"0d9aceb2-3b42-4cee-97f0-effbb9eb5a00","system_id":"levelo_inurba_marseille","lat":43.29637,"lon":5.40638,"is_reserved":false,"is_disabled":false,"rental_uris":{"android":"levelo://app?vid=0d9aceb2-3b42-4cee-97f0-effbb9eb5a00","ios":"levelo://app?vid=0d9aceb2-3b42-4cee-97f0-effbb9eb5a00"},"vehicle_type_id":"4","last_reported":1770975204,"current_range_meters":38800,"station_id":"ce4bh0h2rcd13ifvqd60","pricing_plan_id":"cebpf4jnsgd1na2vs0mg"},{"bike_id":"362bf92e-b2dc-420e-aae8-2c8ad88723f1","system_id":"levelo_inurba_marseille","lat":43.30899,"lon":5.36853,"is_reserved":false,"is_disabled":false,"rental_uris":{"android":"levelo://app?vid=362bf92e-b2dc-420e-aae8-2c8ad88723f1","ios":"levelo://app?vid=362bf92e-b2dc-420e-aae8-2c8ad88723f1"},"vehicle_type_id":"4","last_reported":1770975204,"current_range_meters":40000,"station_id":"ce4bgn92rcd13ifvqbvg","pricing_plan_id":"cebpf4jnsgd1na2vs0mg"},{"bike_id":"2aa05e06-5366-4cfd-80c1-a6e66487250b","system_id":"levelo_inurba_marseille","lat":43.28485,"lon":5.48385,"is_reserved":false,"is_disabled":false,"rental_uris":{"android":"levelo://app?vid=2aa05e06-5366-4cfd-80c1-a6e66487250b","ios":"levelo://app?vid=2aa05e06-5366-4cfd-80c1-a6e66487250b"},"vehicle_type_id":"4","last_reported":1770975204,"current_range_meters":30800,"station_id":"","pricing_plan_id":"cebpf4jnsgd1na2vs0mg"},{"bike_id":"cc41e0a1-d158-400e-9907-ae5cf6141b96","system_id":"levelo_inurba_marseille","lat":43.30466,"lon":5.37903,"is_reserved":false,"is_disabled":false,"rental_uris":{"android":"levelo://app?vid=cc41e0a1-d158-400e-9907-ae5cf6141b96","ios":"levelo://app?vid=cc41e0a1-d158-400e-9907-ae5cf6141b96"},"vehicle_type_id":"4","last_reported":1770975204,"current_range_meters":34000,"station_id":"ce4bgup2rcd13ifvqcn0","pricing_plan_id":"cebpf4jnsgd1na2vs0mg"},{"bike_id":"963b299c-f0ed-46b7-9014-29e17db68b1b","system_id":"levelo_inurba_marseille","lat":43.26693,"lon":5.38275,"is_reserved":false,"is_disabled":false,"rental_uris":{"android":"levelo://app?vid=963b299c-f0ed-46b7-9014-29e17db68b1b","ios":"levelo://app?vid=963b299c-f0ed-46b7-9014-29e17db68b1b"},"vehicle_type_id":"4","last_reported":1770975204,"current_range_meters":30400,"station_id":"ce4bhg92rcd13ifvqf90","pricing_plan_id":"cebpf4jnsgd1na2vs0mg"},{"bike_id":"7fc412ea-a9a9-42a4-965a-2578db4e4ec3","system_id":"levelo_inurba_marseille","lat":43.33603,"lon":5.41014,"is_reserved":false,"is_disabled":false,"rental_uris":{"android":"levelo://app?vid=7fc412ea-a9a9-42a4-965a-2578db4e4ec3","ios":"levelo://app?vid=7fc412ea-a9a9-42a4-965a-2578db4e4ec3"},"vehicle_type_id":"4","last_reported":1770975204,"current_range_meters":16000,"station_id":"ce4bhqh2rcd13ifvqhmg","pricing_plan_id":"cebpf4jnsgd1na2vs0mg"},{"bike_id":"6fb6e675-460f-4429-987e-5c8d5ca05444","system_id":"levelo_inurba_marseille","lat":43.32366,"lon":5.36736,"is_reserved":false,"is_disabled":false,"rental_uris":{"android":"levelo://app?vid=6fb6e675-460f-4429-987e-5c8d5ca05444","ios":"levelo://app?vid=6fb6e675-460f-4429-987e-5c8d5ca05444"},"vehicle_type_id":"4","last_reported":1770975204,"current_range_meters":18800,"station_id":"ce4bhsh2rcd13ifvqi2g","pricing_plan_id":"cebpf4jnsgd1na2vs0mg"},{"bike_id":"13d75d5f-6e2b-42dc-978e-af2177641671","system_id":"levelo_inurba_marseille","lat":43.30313,"lon":5.36915,"is_reserved":false,"is_disabled":false,"rental_uris":{"android":"levelo://app?vid=13d75d5f-6e2b-42dc-978e-af2177641671","ios":"levelo://app?vid=13d75d5f-6e2b-42dc-978e-af2177641671"},"vehicle_type_id":"4","last_reported":1770975204,"current_range_meters":36000,"station_id":"ce4bgqh2rcd13ifvqc5g","pricing_plan_id":"cebpf4jnsgd1na2vs0mg"},{"bike_id":"8864f6b7-1b6c-416e-9bf7-d904161c6757","system_id":"levelo_inurba_marseille","lat":43.25825,"lon":5.39429,"is_reserved":false,"is_disabled":false,"rental_uris":{"android":"levelo://app?vid=8864f6b7-1b6c-416e-9bf7-d904161c6757","ios":"levelo://app?vid=8864f6b7-1b6c-416e-9bf7-d904161c6757"},"vehicle_type_id":"4","last_reported":1770975204,"current_range_meters":16800,"station_id":"ce4bhip2rcd13ifvqft0","pricing_plan_id":"cebpf4jnsgd1na2vs0mg"},{"bike_id":"7ff8f1b8-aa67-4d09-9b1e-6734c846f83c","system_id":"levelo_inurba_marseille","lat":43.2659,"lon":5.39027,"is_reserved":false,"is_disabled":true,"rental_uris":{"android":"levelo://app?vid=7ff8f1b8-aa67-4d09-9b1e-6734c846f83c","ios":"levelo://app?vid=7ff8f1b8-aa67-4d09-9b1e-6734c846f83c"},"vehicle_type_id":"4","last_reported":1770975204,"current_range_meters":12000,"station_id":"ce4bhe12rcd13ifvqf30","pricing_plan_id":"cebpf4jnsgd1na2vs0mg"},{"bike_id":"769eca19-a5af-4e81-b779-cf1526e624c7","system_id":"levelo_inurba_marseille","lat":43.26097,"lon":5.39406,"is_reserved":false,"is_disabled":false,"rental_uris":{"android":"levelo://app?vid=769eca19-a5af-4e81-b779-cf1526e624c7","ios":"levelo://app?vid=769eca19-a5af-4e81-b779-cf1526e624c7"},"vehicle_type_id":"4","last_reported":1770975204,"current_range_meters":32400,"station_id":"ce4bhh92rcd13ifvqfj0","pricing_plan_id":"cebpf4jnsgd1na2vs0mg"},{"bike_id":"c9d3ad45-6569-42b0-af42-b0de838f29a6","system_id":"levelo_inurba_marseille","lat":43.30134,"lon":5.37402,"is_reserved":false,"is_disabled":false,"rental_uris":{"android":"levelo://app?vid=c9d3ad45-6569-42b0-af42-b0de838f29a6","ios":"levelo://app?vid=c9d3ad45-6569-42b0-af42-b0de838f29a6"},"vehicle_type_id":"4","last_reported":1770975204,"current_range_meters":38000,"station_id":"ce4bgs92rcd13ifvqcc0","pricing_plan_id":"cebpf4jnsgd1na2vs0mg"},{"bike_id":"3637e367-3155-4cad-a40d-1ea4288ed91d","system_id":"levelo_inurba_marseille","lat":43.27485,"lon":5.42465,"is_reserved":false,"is_disabled":true,"rental_uris":{"android":"levelo://app?vid=3637e367-3155-4cad-a40d-1ea4288ed91d","ios":"levelo://app?vid=3637e367-3155-4cad-a40d-1ea4288ed91d"},"vehicle_type_id":"4","last_reported":1770975204,"current_range_meters":17200,"station_id":"ce4bhn92rcd13ifvqgrg","pricing_plan_id":"cebpf4jnsgd1na2vs0mg"},{"bike_id":"0b4aaea2-35f7-42c2-b087-ed81f1658c46","system_id":"levelo_inurba_marseille","lat":43.295948,"lon":5.367421,"is_reserved":false,"is_disabled":false,"rental_uris":{"android":"levelo://app?vid=0b4aaea2-35f7-42c2-b087-ed81f1658c46","ios":"levelo://app?vid=0b4aaea2-35f7-42c2-b087-ed81f1658c46"},"vehicle_type_id":"4","last_reported":1770975204,"current_range_meters":11600,"station_id":"ce4bgph2rcd13ifvqc2g","pricing_plan_id":"cebpf4jnsgd1na2vs0mg"},{"bike_id":"1029c0a5-a4e3-4c66-a83f-421a5768a812","system_id":"levelo_inurba_marseille","lat":43.28478,"lon":5.38402,"is_reserved":false,"is_disabled":false,"rental_uris":{"android":"levelo://app?vid=1029c0a5-a4e3-4c66-a83f-421a5768a812","ios":"levelo://app?vid=1029c0a5-a4e3-4c66-a83f-421a5768a812"},"vehicle_type_id":"4","last_reported":1770975204,"current_range_meters":25200,"station_id":"ce4bh512rcd13ifvqe3g","pricing_plan_id":"cebpf4jnsgd1na2vs0mg"},{"bike_id":"9d4ed54f-5648-4d5f-8c5c-cb4f5ef1b11f","system_id":"levelo_inurba_marseille","lat":43.27223,"lon":5.39241,"is_reserved":false,"is_disabled":true,"rental_uris":{"android":"levelo://app?vid=9d4ed54f-5648-4d5f-8c5c-cb4f5ef1b11f","ios":"levelo://app?vid=9d4ed54f-5648-4d5f-8c5c-cb4f5ef1b11f"},"vehicle_type_id":"4","last_reported":1770975204,"current_range_meters":9200,"station_id":"","pricing_plan_id":"cebpf4jnsgd1na2vs0mg"},{"bike_id":"02468726-b263-4b73-8d79-e4bb77eebbd6","system_id":"levelo_inurba_marseille","lat":43.27419,"lon":5.39413,"is_reserved":false,"is_disabled":false,"rental_uris":{"android":"levelo://app?vid=02468726-b263-4b73-8d79-e4bb77eebbd6","ios":"levelo://app?vid=02468726-b263-4b73-8d79-e4bb77eebbd6"},"vehicle_type_id":"4","last_reported":1770975204,"current_range_meters":34800,"station_id":"ce4bhdp2rcd13ifvqf20","pricing_plan_id":"cebpf4jnsgd1na2vs0mg"},{"bike_id":"994779b6-62f1-41e6-85bd-9203b9a08073","system_id":"levelo_inurba_marseille","lat":43.29101,"lon":5.38157,"is_reserved":false,"is_disabled":false,"rental_uris":{"android":"levelo://app?vid=994779b6-62f1-41e6-85bd-9203b9a08073","ios":"levelo://app?vid=994779b6-62f1-41e6-85bd-9203b9a08073"},"vehicle_type_id":"4","last_reported":1770975204,"current_range_meters":32400,"station_id":"ce4bh512rcd13ifvqe2g","pricing_plan_id":"cebpf4jnsgd1na2vs0mg"},{"bike_id":"91a16e74-f75c-43e6-9998-5c1ca801894b","system_id":"levelo_inurba_marseille","lat":43.290126,"lon":5.37579,"is_reserved":false,"is_disabled":false,"rental_uris":{"android":"levelo://app?vid=91a16e74-f75c-43e6-9998-5c1ca801894b","ios":"levelo://app?vid=91a16e74-f75c-43e6-9998-5c1ca801894b"},"vehicle_type_id":"4","last_reported":1770975204,"current_range_meters":20800,"station_id":"ce4bh692rcd13ifvqe90","pricing_plan_id":"cebpf4jnsgd1na2vs0mg"},{"bike_id":"126a81e4-8e58-4dfa-88b9-84ffdb68fd7a","system_id":"levelo_inurba_marseille","lat":43.30121,"lon":5.37406,"is_reserved":false,"is_disabled":false,"rental_uris":{"android":"levelo://app?vid=126a81e4-8e58-4dfa-88b9-84ffdb68fd7a","ios":"levelo://app?vid=126a81e4-8e58-4dfa-88b9-84ffdb68fd7a"},"vehicle_type_id":"4","last_reported":1770975204,"current_range_meters":19600,"station_id":"ce4bgs92rcd13ifvqcc0","pricing_plan_id":"cebpf4jnsgd1na2vs0mg"},{"bike_id":"e29024b3-288c-4d8b-ba32-8553041a7294","system_id":"levelo_inurba_marseille","lat":43.259391,"lon":5.408954,"is_reserved":false,"is_disabled":false,"rental_uris":{"android":"levelo://app?vid=e29024b3-288c-4d8b-ba32-8553041a7294","ios":"levelo://app?vid=e29024b3-288c-4d8b-ba32-8553041a7294"},"vehicle_type_id":"4","last_reported":1770975204,"current_range_meters":8800,"station_id":"ce4bhm92rcd13ifvqglg","pricing_plan_id":"cebpf4jnsgd1na2vs0mg"},{"bike_id":"b8220e2e-a896-4c7a-8d8b-ba094df5a98b","system_id":"levelo_inurba_marseille","lat":43.30561,"lon":5.36682,"is_reserved":false,"is_disabled":false,"rental_uris":{"android":"levelo://app?vid=b8220e2e-a896-4c7a-8d8b-ba094df5a98b","ios":"levelo://app?vid=b8220e2e-a896-4c7a-8d8b-ba094df5a98b"},"vehicle_type_id":"4","last_reported":1770975204,"current_range_meters":40000,"station_id":"ce4bgrp2rcd13ifvqc9g","pricing_plan_id":"cebpf4jnsgd1na2vs0mg"},{"bike_id":"3c189d89-9ba1-4956-b004-0844860e5628","system_id":"levelo_inurba_marseille","lat":43.28653,"lon":5.35199,"is_reserved":false,"is_disabled":false,"rental_uris":{"android":"levelo://app?vid=3c189d89-9ba1-4956-b004-0844860e5628","ios":"levelo://app?vid=3c189d89-9ba1-4956-b004-0844860e5628"},"vehicle_type_id":"4","last_reported":1770975204,"current_range_meters":38800,"station_id":"","pricing_plan_id":"cebpf4jnsgd1na2vs0mg"},{"bike_id":"d4078c0d-0ab2-4898-ba9f-81aff7cd2cef","system_id":"levelo_inurba_marseille","lat":43.30531,"lon":5.36533,"is_reserved":false,"is_disabled":false,"rental_uris":{"android":"levelo://app?vid=d4078c0d-0ab2-4898-ba9f-81aff7cd2cef","ios":"levelo://app?vid=d4078c0d-0ab2-4898-ba9f-81aff7cd2cef"},"vehicle_type_id":"4","last_reported":1770975204,"current_range_meters":39200,"station_id":"ce4bgs12rcd13ifvqcag","pricing_plan_id":"cebpf4jnsgd1na2vs0mg"},{"bike_id":"1889d27e-ae8f-4202-bea1-bd411f1733ea","system_id":"levelo_inurba_marseille","lat":43.29018,"lon":5.35906,"is_reserved":false,"is_disabled":false,"rental_uris":{"android":"levelo://app?vid=1889d27e-ae8f-4202-bea1-bd411f1733ea","ios":"levelo://app?vid=1889d27e-ae8f-4202-bea1-bd411f1733ea"},"vehicle_type_id":"4","last_reported":1770975204,"current_range_meters":14000,"station_id":"ce4bha92rcd13ifvqeg0","pricing_plan_id":"cebpf4jnsgd1na2vs0mg"},{"bike_id":"3029fd03-fcab-4cd9-9277-025369248c19","system_id":"levelo_inurba_marseille","lat":43.26188,"lon":5.37446,"is_reserved":false,"is_disabled":false,"rental_uris":{"android":"levelo://app?vid=3029fd03-fcab-4cd9-9277-025369248c19","ios":"levelo://app?vid=3029fd03-fcab-4cd9-9277-025369248c19"},"vehicle_type_id":"4","last_reported":1770975204,"current_range_meters":24400,"station_id":"ce4bhgp2rcd13ifvqfc0","pricing_plan_id":"cebpf4jnsgd1na2vs0mg"},{"bike_id":"fe86c9ba-789d-48cb-b139-57215407552e","system_id":"levelo_inurba_marseille","lat":43.33755,"lon":5.37445,"is_reserved":false,"is_disabled":true,"rental_uris":{"android":"levelo://app?vid=fe86c9ba-789d-48cb-b139-57215407552e","ios":"levelo://app?vid=fe86c9ba-789d-48cb-b139-57215407552e"},"vehicle_type_id":"4","last_reported":1770975204,"current_range_meters":0,"station_id":"","pricing_plan_id":"cebpf4jnsgd1na2vs0mg"},{"bike_id":"6d5920c7-0a92-4a72-a151-f905c46361e6","system_id":"levelo_inurba_marseille","lat":43.297861,"lon":5.371082,"is_reserved":false,"is_disabled":false,"rental_uris":{"android":"levelo://app?vid=6d5920c7-0a92-4a72-a151-f905c46361e6","ios":"levelo://app?vid=6d5920c7-0a92-4a72-a151-f905c46361e6"},"vehicle_type_id":"4","last_reported":1770975204,"current_range_meters":32400,"station_id":"ce4bgop2rcd13ifvqc1g","pricing_plan_id":"cebpf4jnsgd1na2vs0mg"},{"bike_id":"8229ac68-4398-4e10-b3eb-6a0d95b678f0","system_id":"levelo_inurba_marseille","lat":43.27504,"lon":5.4246,"is_reserved":false,"is_disabled":false,"rental_uris":{"android":"levelo://app?vid=8229ac68-4398-4e10-b3eb-6a0d95b678f0","ios":"levelo://app?vid=8229ac68-4398-4e10-b3eb-6a0d95b678f0"},"vehicle_type_id":"4","last_reported":1770975204,"current_range_meters":12400,"station_id":"ce4bhn92rcd13ifvqgrg","pricing_plan_id":"cebpf4jnsgd1na2vs0mg"},{"bike_id":"f06d538b-97fe-4530-9d3d-a633bac60e6e","system_id":"levelo_inurba_marseille","lat":43.269397,"lon":5.402437,"is_reserved":false,"is_disabled":false,"rental_uris":{"android":"levelo://app?vid=f06d538b-97fe-4530-9d3d-a633bac60e6e","ios":"levelo://app?vid=f06d538b-97fe-4530-9d3d-a633bac60e6e"},"vehicle_type_id":"4","last_reported":1770975204,"current_range_meters":8400,"station_id":"cjm6bp8fraef2m0cb0m0","pricing_plan_id":"cebpf4jnsgd1na2vs0mg"},{"bike_id":"d68566f4-9a21-48da-9994-64ca50a7e3b3","system_id":"levelo_inurba_marseille","lat":43.320356,"lon":5.415674,"is_reserved":false,"is_disabled":false,"rental_uris":{"android":"levelo://app?vid=d68566f4-9a21-48da-9994-64ca50a7e3b3","ios":"levelo://app?vid=d68566f4-9a21-48da-9994-64ca50a7e3b3"},"vehicle_type_id":"4","last_reported":1770975204,"current_range_meters":19200,"station_id":"ce4bhq92rcd13ifvqhkg","pricing_plan_id":"cebpf4jnsgd1na2vs0mg"},{"bike_id":"3989ea5b-599b-4cb0-b921-103644c55993","system_id":"levelo_inurba_marseille","lat":43.29042,"lon":5.39993,"is_reserved":false,"is_disabled":false,"rental_uris":{"android":"levelo://app?vid=3989ea5b-599b-4cb0-b921-103644c55993","ios":"levelo://app?vid=3989ea5b-599b-4cb0-b921-103644c55993"},"vehicle_type_id":"4","last_reported":1770975204,"current_range_meters":33600,"station_id":"ce4bh392rcd13ifvqdm0","pricing_plan_id":"cebpf4jnsgd1na2vs0mg"},{"bike_id":"11bbe498-cd8f-4b2e-8e45-54529a7a0a47","system_id":"levelo_inurba_marseille","lat":43.29766,"lon":5.42775,"is_reserved":false,"is_disabled":false,"rental_uris":{"android":"levelo://app?vid=11bbe498-cd8f-4b2e-8e45-54529a7a0a47","ios":"levelo://app?vid=11bbe498-cd8f-4b2e-8e45-54529a7a0a47"},"vehicle_type_id":"4","last_reported":1770975204,"current_range_meters":18000,"station_id":"st_d3md5207bmas73dh9klg","pricing_plan_id":"cebpf4jnsgd1na2vs0mg"},{"bike_id":"6022eb5a-b7d5-4913-b41a-9f17eb935667","system_id":"levelo_inurba_marseille","lat":43.317003,"lon":5.404773,"is_reserved":false,"is_disabled":false,"rental_uris":{"android":"levelo://app?vid=6022eb5a-b7d5-4913-b41a-9f17eb935667","ios":"levelo://app?vid=6022eb5a-b7d5-4913-b41a-9f17eb935667"},"vehicle_type_id":"4","last_reported":1770975204,"current_range_meters":28000,"station_id":"ce4bh012rcd13ifvqd00","pricing_plan_id":"cebpf4jnsgd1na2vs0mg"},{"bike_id":"90b2eb3d-b8cf-47c7-bcb8-5d5b5f49b9b7","system_id":"levelo_inurba_marseille","lat":43.26579,"lon":5.39013,"is_reserved":false,"is_disabled":true,"rental_uris":{"android":"levelo://app?vid=90b2eb3d-b8cf-47c7-bcb8-5d5b5f49b9b7","ios":"levelo://app?vid=90b2eb3d-b8cf-47c7-bcb8-5d5b5f49b9b7"},"vehicle_type_id":"4","last_reported":1770975204,"current_range_meters":36000,"station_id":"ce4bhe12rcd13ifvqf30","pricing_plan_id":"cebpf4jnsgd1na2vs0mg"},{"bike_id":"7889e25b-17e1-4fdd-87ea-b286894ec0df","system_id":"levelo_inurba_marseille","lat":43.292634,"lon":5.368351,"is_reserved":false,"is_disabled":true,"rental_uris":{"android":"levelo://app?vid=7889e25b-17e1-4fdd-87ea-b286894ec0df","ios":"levelo://app?vid=7889e25b-17e1-4fdd-87ea-b286894ec0df"},"vehicle_type_id":"4","last_reported":1770975204,"current_range_meters":2000,"station_id":"ce4bhbp2rcd13ifvqesg","pricing_plan_id":"cebpf4jnsgd1na2vs0mg"},{"bike_id":"11434cf1-d6f8-4e1a-8ad6-be51503532dc","system_id":"levelo_inurba_marseille","lat":43.30488,"lon":5.37898,"is_reserved":false,"is_disabled":false,"rental_uris":{"android":"levelo://app?vid=11434cf1-d6f8-4e1a-8ad6-be51503532dc","ios":"levelo://app?vid=11434cf1-d6f8-4e1a-8ad6-be51503532dc"},"vehicle_type_id":"4","last_reported":1770975204,"current_range_meters":39200,"station_id":"ce4bgup2rcd13ifvqcn0","pricing_plan_id":"cebpf4jnsgd1na2vs0mg"},{"bike_id":"6f6a04ad-dd00-4f4a-bdfd-a835cfa0cc11","system_id":"levelo_inurba_marseille","lat":43.27095,"lon":5.38312,"is_reserved":false,"is_disabled":false,"rental_uris":{"android":"levelo://app?vid=6f6a04ad-dd00-4f4a-bdfd-a835cfa0cc11","ios":"levelo://app?vid=6f6a04ad-dd00-4f4a-bdfd-a835cfa0cc11"},"vehicle_type_id":"4","last_reported":1770975204,"current_range_meters":38400,"station_id":"st_d3n2fo6cfp8s73cte1j0","pricing_plan_id":"cebpf4jnsgd1na2vs0mg"},{"bike_id":"7d478c70-95a1-46c1-ba57-a65827a7f51c","system_id":"levelo_inurba_marseille","lat":43.273106,"lon":5.390683,"is_reserved":false,"is_disabled":false,"rental_uris":{"android":"levelo://app?vid=7d478c70-95a1-46c1-ba57-a65827a7f51c","ios":"levelo://app?vid=7d478c70-95a1-46c1-ba57-a65827a7f51c"},"vehicle_type_id":"4","last_reported":1770975204,"current_range_meters":13600,"station_id":"ce4bhgp2rcd13ifvqfe0","pricing_plan_id":"cebpf4jnsgd1na2vs0mg"},{"bike_id":"4e4c79b4-286f-458a-a494-98664f2e8591","system_id":"levelo_inurba_marseille","lat":43.33115,"lon":5.39291,"is_reserved":false,"is_disabled":false,"rental_uris":{"android":"levelo://app?vid=4e4c79b4-286f-458a-a494-98664f2e8591","ios":"levelo://app?vid=4e4c79b4-286f-458a-a494-98664f2e8591"},"vehicle_type_id":"4","last_reported":1770975204,"current_range_meters":39200,"station_id":"","pricing_plan_id":"cebpf4jnsgd1na2vs0mg"},{"bike_id":"a6412b67-7e72-44b9-aebe-7b726b39bd22","system_id":"levelo_inurba_marseille","lat":43.29314,"lon":5.37202,"is_reserved":false,"is_disabled":false,"rental_uris":{"android":"levelo://app?vid=a6412b67-7e72-44b9-aebe-7b726b39bd22","ios":"levelo://app?vid=a6412b67-7e72-44b9-aebe-7b726b39bd22"},"vehicle_type_id":"4","last_reported":1770975204,"current_range_meters":36400,"station_id":"ce4bgh92rcd13ifvqb40","pricing_plan_id":"cebpf4jnsgd1na2vs0mg"},{"bike_id":"76d60a75-dcac-494e-a96c-1212b660edc7","system_id":"levelo_inurba_marseille","lat":43.30291,"lon":5.36905,"is_reserved":false,"is_disabled":false,"rental_uris":{"android":"levelo://app?vid=76d60a75-dcac-494e-a96c-1212b660edc7","ios":"levelo://app?vid=76d60a75-dcac-494e-a96c-1212b660edc7"},"vehicle_type_id":"4","last_reported":1770975204,"current_range_meters":34000,"station_id":"ce4bgqh2rcd13ifvqc5g","pricing_plan_id":"cebpf4jnsgd1na2vs0mg"},{"bike_id":"c8d3deb4-912b-417b-a80c-9490cc095215","system_id":"levelo_inurba_marseille","lat":43.29807,"lon":5.3763,"is_reserved":false,"is_disabled":false,"rental_uris":{"android":"levelo://app?vid=c8d3deb4-912b-417b-a80c-9490cc095215","ios":"levelo://app?vid=c8d3deb4-912b-417b-a80c-9490cc095215"},"vehicle_type_id":"4","last_reported":1770975204,"current_range_meters":35200,"station_id":"","pricing_plan_id":"cebpf4jnsgd1na2vs0mg"},{"bike_id":"dbd40afb-0d84-4f0f-b160-b60a14900963","system_id":"levelo_inurba_marseille","lat":43.26064,"lon":5.39405,"is_reserved":false,"is_disabled":false,"rental_uris":{"android":"levelo://app?vid=dbd40afb-0d84-4f0f-b160-b60a14900963","ios":"levelo://app?vid=dbd40afb-0d84-4f0f-b160-b60a14900963"},"vehicle_type_id":"4","last_reported":1770975204,"current_range_meters":38000,"station_id":"ce4bhh92rcd13ifvqfj0","pricing_plan_id":"cebpf4jnsgd1na2vs0mg"},{"bike_id":"050d3df6-cf01-4252-ac07-c3753bdfcdfe","system_id":"levelo_inurba_marseille","lat":43.29255,"lon":5.36079,"is_reserved":false,"is_disabled":false,"rental_uris":{"android":"levelo://app?vid=050d3df6-cf01-4252-ac07-c3753bdfcdfe","ios":"levelo://app?vid=050d3df6-cf01-4252-ac07-c3753bdfcdfe"},"vehicle_type_id":"4","last_reported":1770975204,"current_range_meters":30800,"station_id":"ce4bhbh2rcd13ifvqeqg","pricing_plan_id":"cebpf4jnsgd1na2vs0mg"},{"bike_id":"beb8391b-c8c1-405a-b527-a4be01cb6949","system_id":"levelo_inurba_marseille","lat":43.248036,"lon":5.374558,"is_reserved":false,"is_disabled":true,"rental_uris":{"android":"levelo://app?vid=beb8391b-c8c1-405a-b527-a4be01cb6949","ios":"levelo://app?vid=beb8391b-c8c1-405a-b527-a4be01cb6949"},"vehicle_type_id":"4","last_reported":1770975204,"current_range_meters":28800,"station_id":"ce4bhgh2rcd13ifvqfb0","pricing_plan_id":"cebpf4jnsgd1na2vs0mg"},{"bike_id":"d8a21cf0-3eda-42f6-b76b-99e4c0602b17","system_id":"levelo_inurba_marseille","lat":43.24475,"lon":5.37656,"is_reserved":false,"is_disabled":false,"rental_uris":{"android":"levelo://app?vid=d8a21cf0-3eda-42f6-b76b-99e4c0602b17","ios":"levelo://app?vid=d8a21cf0-3eda-42f6-b76b-99e4c0602b17"},"vehicle_type_id":"4","last_reported":1770975204,"current_range_meters":37600,"station_id":"","pricing_plan_id":"cebpf4jnsgd1na2vs0mg"},{"bike_id":"003ead77-8f64-427b-8227-c5967b272ee2","system_id":"levelo_inurba_marseille","lat":43.26369,"lon":5.41079,"is_reserved":false,"is_disabled":false,"rental_uris":{"android":"levelo://app?vid=003ead77-8f64-427b-8227-c5967b272ee2","ios":"levelo://app?vid=003ead77-8f64-427b-8227-c5967b272ee2"},"vehicle_type_id":"4","last_reported":1770975204,"current_range_meters":20800,"station_id":"st_d4e5ca6na9uc73bfl5fg","pricing_plan_id":"cebpf4jnsgd1na2vs0mg"},{"bike_id":"bb9d4fa8-a6c6-4b37-8296-006d271da3f9","system_id":"levelo_inurba_marseille","lat":43.249949,"lon":5.389408,"is_reserved":false,"is_disabled":false,"rental_uris":{"android":"levelo://app?vid=bb9d4fa8-a6c6-4b37-8296-006d271da3f9","ios":"levelo://app?vid=bb9d4fa8-a6c6-4b37-8296-006d271da3f9"},"vehicle_type_id":"4","last_reported":1770975204,"current_range_meters":29600,"station_id":"ce4bhgp2rcd13ifvqfd0","pricing_plan_id":"cebpf4jnsgd1na2vs0mg"},{"bike_id":"9326bb6a-10f4-4219-97c3-64d7c59774cf","system_id":"levelo_inurba_marseille","lat":43.31077,"lon":5.37162,"is_reserved":false,"is_disabled":false,"rental_uris":{"android":"levelo://app?vid=9326bb6a-10f4-4219-97c3-64d7c59774cf","ios":"levelo://app?vid=9326bb6a-10f4-4219-97c3-64d7c59774cf"},"vehicle_type_id":"4","last_reported":1770975204,"current_range_meters":7200,"station_id":"st_d4kl2rp97mjs73e7tdfg","pricing_plan_id":"cebpf4jnsgd1na2vs0mg"},{"bike_id":"8ae1aee6-ac8a-4eca-88d1-3b74d9a44fff","system_id":"levelo_inurba_marseille","lat":43.28879,"lon":5.35866,"is_reserved":false,"is_disabled":false,"rental_uris":{"android":"levelo://app?vid=8ae1aee6-ac8a-4eca-88d1-3b74d9a44fff","ios":"levelo://app?vid=8ae1aee6-ac8a-4eca-88d1-3b74d9a44fff"},"vehicle_type_id":"4","last_reported":1770975204,"current_range_meters":31200,"station_id":"ce4bhb12rcd13ifvqem0","pricing_plan_id":"cebpf4jnsgd1na2vs0mg"},{"bike_id":"978d2f99-2f31-4c4e-be2a-4e68224c9eda","system_id":"levelo_inurba_marseille","lat":43.26805,"lon":5.40261,"is_reserved":false,"is_disabled":false,"rental_uris":{"android":"levelo://app?vid=978d2f99-2f31-4c4e-be2a-4e68224c9eda","ios":"levelo://app?vid=978d2f99-2f31-4c4e-be2a-4e68224c9eda"},"vehicle_type_id":"4","last_reported":1770975204,"current_range_meters":30800,"station_id":"ce501612rcd8frsf0b60","pricing_plan_id":"cebpf4jnsgd1na2vs0mg"},{"bike_id":"db4f636e-b232-46b1-867e-c76f4ae9dc3e","system_id":"levelo_inurba_marseille","lat":43.32079,"lon":5.36763,"is_reserved":false,"is_disabled":false,"rental_uris":{"android":"levelo://app?vid=db4f636e-b232-46b1-867e-c76f4ae9dc3e","ios":"levelo://app?vid=db4f636e-b232-46b1-867e-c76f4ae9dc3e"},"vehicle_type_id":"4","last_reported":1770975204,"current_range_meters":22800,"station_id":"ce4bhrh2rcd13ifvqhug","pricing_plan_id":"cebpf4jnsgd1na2vs0mg"},{"bike_id":"6c275941-8f55-4af5-ad16-4dd6edc25bf0","system_id":"levelo_inurba_marseille","lat":43.28711,"lon":5.37953,"is_reserved":false,"is_disabled":false,"rental_uris":{"android":"levelo://app?vid=6c275941-8f55-4af5-ad16-4dd6edc25bf0","ios":"levelo://app?vid=6c275941-8f55-4af5-ad16-4dd6edc25bf0"},"vehicle_type_id":"4","last_reported":1770975204,"current_range_meters":39200,"station_id":"ce4bh9p2rcd13ifvqec0","pricing_plan_id":"cebpf4jnsgd1na2vs0mg"},{"bike_id":"24404e2f-7907-4c0b-a8da-161f9e441968","system_id":"levelo_inurba_marseille","lat":43.269329,"lon":5.402523,"is_reserved":false,"is_disabled":false,"rental_uris":{"android":"levelo://app?vid=24404e2f-7907-4c0b-a8da-161f9e441968","ios":"levelo://app?vid=24404e2f-7907-4c0b-a8da-161f9e441968"},"vehicle_type_id":"4","last_reported":1770975204,"current_range_meters":37600,"station_id":"cjm6bp8fraef2m0cb0m0","pricing_plan_id":"cebpf4jnsgd1na2vs0mg"},{"bike_id":"a8128140-3282-41df-a38d-cf3d426607b8","system_id":"levelo_inurba_marseille","lat":43.24079,"lon":5.37767,"is_reserved":false,"is_disabled":false,"rental_uris":{"android":"levelo://app?vid=a8128140-3282-41df-a38d-cf3d426607b8","ios":"levelo://app?vid=a8128140-3282-41df-a38d-cf3d426607b8"},"vehicle_type_id":"4","last_reported":1770975204,"current_range_meters":30000,"station_id":"ce4bhnp2rcd13ifvqgvg","pricing_plan_id":"cebpf4jnsgd1na2vs0mg"},{"bike_id":"88ff9439-db02-4be2-a9f2-dbfd8e7a5968","system_id":"levelo_inurba_marseille","lat":43.25862,"lon":5.39906,"is_reserved":false,"is_disabled":false,"rental_uris":{"android":"levelo://app?vid=88ff9439-db02-4be2-a9f2-dbfd8e7a5968","ios":"levelo://app?vid=88ff9439-db02-4be2-a9f2-dbfd8e7a5968"},"vehicle_type_id":"4","last_reported":1770975204,"current_range_meters":38000,"station_id":"ce4bhl92rcd13ifvqghg","pricing_plan_id":"cebpf4jnsgd1na2vs0mg"},{"bike_id":"fa082a07-9b27-446f-993f-54c333e5bcd3","system_id":"levelo_inurba_marseille","lat":43.278227,"lon":5.407327,"is_reserved":false,"is_disabled":false,"rental_uris":{"android":"levelo://app?vid=fa082a07-9b27-446f-993f-54c333e5bcd3","ios":"levelo://app?vid=fa082a07-9b27-446f-993f-54c333e5bcd3"},"vehicle_type_id":"4","last_reported":1770975204,"current_range_meters":34000,"station_id":"ce4bhnh2rcd13ifvqgtg","pricing_plan_id":"cebpf4jnsgd1na2vs0mg"},{"bike_id":"d30d7d9e-611d-4920-9b2d-b4a912454982","system_id":"levelo_inurba_marseille","lat":43.3126,"lon":5.37771,"is_reserved":false,"is_disabled":false,"rental_uris":{"android":"levelo://app?vid=d30d7d9e-611d-4920-9b2d-b4a912454982","ios":"levelo://app?vid=d30d7d9e-611d-4920-9b2d-b4a912454982"},"vehicle_type_id":"4","last_reported":1770975204,"current_range_meters":6800,"station_id":"","pricing_plan_id":"cebpf4jnsgd1na2vs0mg"},{"bike_id":"a08e432b-50d2-4ce1-b298-be02f429a7ad","system_id":"levelo_inurba_marseille","lat":43.25514,"lon":5.37651,"is_reserved":false,"is_disabled":false,"rental_uris":{"android":"levelo://app?vid=a08e432b-50d2-4ce1-b298-be02f429a7ad","ios":"levelo://app?vid=a08e432b-50d2-4ce1-b298-be02f429a7ad"},"vehicle_type_id":"4","last_reported":1770975204,"current_range_meters":9200,"station_id":"","pricing_plan_id":"cebpf4jnsgd1na2vs0mg"},{"bike_id":"6818d9fe-f041-4076-8020-df310c1bae40","system_id":"levelo_inurba_marseille","lat":43.30171,"lon":5.38056,"is_reserved":false,"is_disabled":false,"rental_uris":{"android":"levelo://app?vid=6818d9fe-f041-4076-8020-df310c1bae40","ios":"levelo://app?vid=6818d9fe-f041-4076-8020-df310c1bae40"},"vehicle_type_id":"4","last_reported":1770975204,"current_range_meters":33200,"station_id":"ce4bgjp2rcd13ifvqbh0","pricing_plan_id":"cebpf4jnsgd1na2vs0mg"},{"bike_id":"8fd4569f-4513-4bcf-9440-02144f737ba7","system_id":"levelo_inurba_marseille","lat":43.310599,"lon":5.371633,"is_reserved":false,"is_disabled":false,"rental_uris":{"android":"levelo://app?vid=8fd4569f-4513-4bcf-9440-02144f737ba7","ios":"levelo://app?vid=8fd4569f-4513-4bcf-9440-02144f737ba7"},"vehicle_type_id":"4","last_reported":1770975204,"current_range_meters":22800,"station_id":"st_d4kl2rp97mjs73e7tdfg","pricing_plan_id":"cebpf4jnsgd1na2vs0mg"},{"bike_id":"8491b334-0ba7-4277-9797-3edac002b21f","system_id":"levelo_inurba_marseille","lat":43.262,"lon":5.40437,"is_reserved":false,"is_disabled":true,"rental_uris":{"android":"levelo://app?vid=8491b334-0ba7-4277-9797-3edac002b21f","ios":"levelo://app?vid=8491b334-0ba7-4277-9797-3edac002b21f"},"vehicle_type_id":"4","last_reported":1770975204,"current_range_meters":18000,"station_id":"ce4bhmh2rcd13ifvqgmg","pricing_plan_id":"cebpf4jnsgd1na2vs0mg"},{"bike_id":"6c78efb4-21ea-48b6-a077-5447702c0f63","system_id":"levelo_inurba_marseille","lat":43.29907,"lon":5.43667,"is_reserved":false,"is_disabled":false,"rental_uris":{"android":"levelo://app?vid=6c78efb4-21ea-48b6-a077-5447702c0f63","ios":"levelo://app?vid=6c78efb4-21ea-48b6-a077-5447702c0f63"},"vehicle_type_id":"4","last_reported":1770975204,"current_range_meters":33600,"station_id":"ce4bhpp2rcd13ifvqhfg","pricing_plan_id":"cebpf4jnsgd1na2vs0mg"},{"bike_id":"87e52233-7157-484b-968d-b0beff0b44bb","system_id":"levelo_inurba_marseille","lat":43.269369,"lon":5.402725,"is_reserved":false,"is_disabled":false,"rental_uris":{"android":"levelo://app?vid=87e52233-7157-484b-968d-b0beff0b44bb","ios":"levelo://app?vid=87e52233-7157-484b-968d-b0beff0b44bb"},"vehicle_type_id":"4","last_reported":1770975204,"current_range_meters":26000,"station_id":"cjm6bp8fraef2m0cb0m0","pricing_plan_id":"cebpf4jnsgd1na2vs0mg"},{"bike_id":"7d556bd7-d728-4c29-8f3c-a67791d893f7","system_id":"levelo_inurba_marseille","lat":43.30146,"lon":5.38084,"is_reserved":false,"is_disabled":false,"rental_uris":{"android":"levelo://app?vid=7d556bd7-d728-4c29-8f3c-a67791d893f7","ios":"levelo://app?vid=7d556bd7-d728-4c29-8f3c-a67791d893f7"},"vehicle_type_id":"4","last_reported":1770975204,"current_range_meters":4400,"station_id":"ce4bgjp2rcd13ifvqbh0","pricing_plan_id":"cebpf4jnsgd1na2vs0mg"},{"bike_id":"97a62e35-510e-4a73-8eca-01c7ca2af946","system_id":"levelo_inurba_marseille","lat":43.3172,"lon":5.37777,"is_reserved":false,"is_disabled":false,"rental_uris":{"android":"levelo://app?vid=97a62e35-510e-4a73-8eca-01c7ca2af946","ios":"levelo://app?vid=97a62e35-510e-4a73-8eca-01c7ca2af946"},"vehicle_type_id":"4","last_reported":1770975204,"current_range_meters":38800,"station_id":"ce4bgth2rcd13ifvqch0","pricing_plan_id":"cebpf4jnsgd1na2vs0mg"},{"bike_id":"fb018fac-6eef-49af-bd5b-057049b63181","system_id":"levelo_inurba_marseille","lat":43.28638,"lon":5.35079,"is_reserved":false,"is_disabled":false,"rental_uris":{"android":"levelo://app?vid=fb018fac-6eef-49af-bd5b-057049b63181","ios":"levelo://app?vid=fb018fac-6eef-49af-bd5b-057049b63181"},"vehicle_type_id":"4","last_reported":1770975204,"current_range_meters":19200,"station_id":"ce4bhch2rcd13ifvqeug","pricing_plan_id":"cebpf4jnsgd1na2vs0mg"},{"bike_id":"3bb5bc67-1d0a-4908-8016-273223517602","system_id":"levelo_inurba_marseille","lat":43.2606,"lon":5.39387,"is_reserved":false,"is_disabled":false,"rental_uris":{"android":"levelo://app?vid=3bb5bc67-1d0a-4908-8016-273223517602","ios":"levelo://app?vid=3bb5bc67-1d0a-4908-8016-273223517602"},"vehicle_type_id":"4","last_reported":1770975204,"current_range_meters":11200,"station_id":"ce4bhh92rcd13ifvqfj0","pricing_plan_id":"cebpf4jnsgd1na2vs0mg"},{"bike_id":"c1b36981-2407-4376-85d9-fb3bd1a789c0","system_id":"levelo_inurba_marseille","lat":43.28034,"lon":5.36932,"is_reserved":false,"is_disabled":false,"rental_uris":{"android":"levelo://app?vid=c1b36981-2407-4376-85d9-fb3bd1a789c0","ios":"levelo://app?vid=c1b36981-2407-4376-85d9-fb3bd1a789c0"},"vehicle_type_id":"4","last_reported":1770975204,"current_range_meters":38000,"station_id":"ce4bha12rcd13ifvqef0","pricing_plan_id":"cebpf4jnsgd1na2vs0mg"},{"bike_id":"daf88a4a-38c1-4a48-9faf-8edd173ac368","system_id":"levelo_inurba_marseille","lat":43.31195,"lon":5.38716,"is_reserved":false,"is_disabled":true,"rental_uris":{"android":"levelo://app?vid=daf88a4a-38c1-4a48-9faf-8edd173ac368","ios":"levelo://app?vid=daf88a4a-38c1-4a48-9faf-8edd173ac368"},"vehicle_type_id":"4","last_reported":1770975204,"current_range_meters":34000,"station_id":"ce4bgv12rcd13ifvqcp0","pricing_plan_id":"cebpf4jnsgd1na2vs0mg"},{"bike_id":"be9d6f9d-5149-4bd1-87cf-a95250dc04d9","system_id":"levelo_inurba_marseille","lat":43.26732,"lon":5.38236,"is_reserved":false,"is_disabled":false,"rental_uris":{"android":"levelo://app?vid=be9d6f9d-5149-4bd1-87cf-a95250dc04d9","ios":"levelo://app?vid=be9d6f9d-5149-4bd1-87cf-a95250dc04d9"},"vehicle_type_id":"4","last_reported":1770975204,"current_range_meters":11600,"station_id":"","pricing_plan_id":"cebpf4jnsgd1na2vs0mg"},{"bike_id":"25d5ddac-9d67-4912-84af-cbc6937df522","system_id":"levelo_inurba_marseille","lat":43.2828,"lon":5.35062,"is_reserved":false,"is_disabled":false,"rental_uris":{"android":"levelo://app?vid=25d5ddac-9d67-4912-84af-cbc6937df522","ios":"levelo://app?vid=25d5ddac-9d67-4912-84af-cbc6937df522"},"vehicle_type_id":"4","last_reported":1770975204,"current_range_meters":28800,"station_id":"ce4bhbp2rcd13ifvqerg","pricing_plan_id":"cebpf4jnsgd1na2vs0mg"},{"bike_id":"d71db69c-c1ed-4115-9a4f-32aa86e9209d","system_id":"levelo_inurba_marseille","lat":43.249992,"lon":5.389458,"is_reserved":false,"is_disabled":false,"rental_uris":{"android":"levelo://app?vid=d71db69c-c1ed-4115-9a4f-32aa86e9209d","ios":"levelo://app?vid=d71db69c-c1ed-4115-9a4f-32aa86e9209d"},"vehicle_type_id":"4","last_reported":1770975204,"current_range_meters":32400,"station_id":"ce4bhgp2rcd13ifvqfd0","pricing_plan_id":"cebpf4jnsgd1na2vs0mg"},{"bike_id":"d2229b13-3c01-426f-a1c3-3c9e5d3accfe","system_id":"levelo_inurba_marseille","lat":43.233712,"lon":5.412493,"is_reserved":false,"is_disabled":false,"rental_uris":{"android":"levelo://app?vid=d2229b13-3c01-426f-a1c3-3c9e5d3accfe","ios":"levelo://app?vid=d2229b13-3c01-426f-a1c3-3c9e5d3accfe"},"vehicle_type_id":"4","last_reported":1770975204,"current_range_meters":12400,"station_id":"","pricing_plan_id":"cebpf4jnsgd1na2vs0mg"},{"bike_id":"4a7b9e9e-22d6-4139-a2e8-5ec340feaaff","system_id":"levelo_inurba_marseille","lat":43.2409,"lon":5.37764,"is_reserved":false,"is_disabled":false,"rental_uris":{"android":"levelo://app?vid=4a7b9e9e-22d6-4139-a2e8-5ec340feaaff","ios":"levelo://app?vid=4a7b9e9e-22d6-4139-a2e8-5ec340feaaff"},"vehicle_type_id":"4","last_reported":1770975204,"current_range_meters":16400,"station_id":"ce4bhnp2rcd13ifvqgvg","pricing_plan_id":"cebpf4jnsgd1na2vs0mg"},{"bike_id":"cdccc970-cbe1-4ac7-a06c-cb1c89852be2","system_id":"levelo_inurba_marseille","lat":43.26488,"lon":5.39565,"is_reserved":false,"is_disabled":false,"rental_uris":{"android":"levelo://app?vid=cdccc970-cbe1-4ac7-a06c-cb1c89852be2","ios":"levelo://app?vid=cdccc970-cbe1-4ac7-a06c-cb1c89852be2"},"vehicle_type_id":"4","last_reported":1770975204,"current_range_meters":38800,"station_id":"ce4bhi12rcd13ifvqfq0","pricing_plan_id":"cebpf4jnsgd1na2vs0mg"},{"bike_id":"fc8059da-1d56-4002-800e-29988a285b45","system_id":"levelo_inurba_marseille","lat":43.26929,"lon":5.40242,"is_reserved":false,"is_disabled":false,"rental_uris":{"android":"levelo://app?vid=fc8059da-1d56-4002-800e-29988a285b45","ios":"levelo://app?vid=fc8059da-1d56-4002-800e-29988a285b45"},"vehicle_type_id":"4","last_reported":1770975204,"current_range_meters":38800,"station_id":"cjm6bp8fraef2m0cb0m0","pricing_plan_id":"cebpf4jnsgd1na2vs0mg"},{"bike_id":"85ca329a-9c55-4be1-b2da-c3d917ed6363","system_id":"levelo_inurba_marseille","lat":43.24551,"lon":5.39524,"is_reserved":false,"is_disabled":false,"rental_uris":{"android":"levelo://app?vid=85ca329a-9c55-4be1-b2da-c3d917ed6363","ios":"levelo://app?vid=85ca329a-9c55-4be1-b2da-c3d917ed6363"},"vehicle_type_id":"4","last_reported":1770975204,"current_range_meters":4400,"station_id":"ce4bhlp2rcd13ifvqgjg","pricing_plan_id":"cebpf4jnsgd1na2vs0mg"},{"bike_id":"e2ae36e2-7f95-4984-96f8-6f34e5ef1346","system_id":"levelo_inurba_marseille","lat":43.29799,"lon":5.44081,"is_reserved":false,"is_disabled":false,"rental_uris":{"android":"levelo://app?vid=e2ae36e2-7f95-4984-96f8-6f34e5ef1346","ios":"levelo://app?vid=e2ae36e2-7f95-4984-96f8-6f34e5ef1346"},"vehicle_type_id":"4","last_reported":1770975204,"current_range_meters":26800,"station_id":"st_d3jp68qikq2c7381ktn0","pricing_plan_id":"cebpf4jnsgd1na2vs0mg"},{"bike_id":"4056625b-2400-4fff-b4fa-a9bf8cbf48ff","system_id":"levelo_inurba_marseille","lat":43.24963,"lon":5.40551,"is_reserved":false,"is_disabled":false,"rental_uris":{"android":"levelo://app?vid=4056625b-2400-4fff-b4fa-a9bf8cbf48ff","ios":"levelo://app?vid=4056625b-2400-4fff-b4fa-a9bf8cbf48ff"},"vehicle_type_id":"4","last_reported":1770975204,"current_range_meters":30000,"station_id":"","pricing_plan_id":"cebpf4jnsgd1na2vs0mg"},{"bike_id":"f7205f6b-7f50-4d6b-a045-7cc944b5b3fc","system_id":"levelo_inurba_marseille","lat":43.29597,"lon":5.37159,"is_reserved":false,"is_disabled":false,"rental_uris":{"android":"levelo://app?vid=f7205f6b-7f50-4d6b-a045-7cc944b5b3fc","ios":"levelo://app?vid=f7205f6b-7f50-4d6b-a045-7cc944b5b3fc"},"vehicle_type_id":"4","last_reported":1770975204,"current_range_meters":38400,"station_id":"ce4bgnh2rcd13ifvqc0g","pricing_plan_id":"cebpf4jnsgd1na2vs0mg"},{"bike_id":"93493205-597a-4b89-a416-2329047210d2","system_id":"levelo_inurba_marseille","lat":43.30303,"lon":5.369,"is_reserved":false,"is_disabled":false,"rental_uris":{"android":"levelo://app?vid=93493205-597a-4b89-a416-2329047210d2","ios":"levelo://app?vid=93493205-597a-4b89-a416-2329047210d2"},"vehicle_type_id":"4","last_reported":1770975204,"current_range_meters":30400,"station_id":"ce4bgqh2rcd13ifvqc5g","pricing_plan_id":"cebpf4jnsgd1na2vs0mg"},{"bike_id":"ff03b929-3e6a-4733-baf8-421993637919","system_id":"levelo_inurba_marseille","lat":43.265873,"lon":5.390737,"is_reserved":false,"is_disabled":true,"rental_uris":{"android":"levelo://app?vid=ff03b929-3e6a-4733-baf8-421993637919","ios":"levelo://app?vid=ff03b929-3e6a-4733-baf8-421993637919"},"vehicle_type_id":"4","last_reported":1770975204,"current_range_meters":5600,"station_id":"ce4bhe12rcd13ifvqf30","pricing_plan_id":"cebpf4jnsgd1na2vs0mg"},{"bike_id":"fbdd5e41-1f30-48e4-80b8-3ede5cb5c638","system_id":"levelo_inurba_marseille","lat":43.25862,"lon":5.39914,"is_reserved":false,"is_disabled":false,"rental_uris":{"android":"levelo://app?vid=fbdd5e41-1f30-48e4-80b8-3ede5cb5c638","ios":"levelo://app?vid=fbdd5e41-1f30-48e4-80b8-3ede5cb5c638"},"vehicle_type_id":"4","last_reported":1770975204,"current_range_meters":17200,"station_id":"ce4bhl92rcd13ifvqghg","pricing_plan_id":"cebpf4jnsgd1na2vs0mg"},{"bike_id":"c827f785-6516-4690-a790-85d042f7f3d1","system_id":"levelo_inurba_marseille","lat":43.30864,"lon":5.3955,"is_reserved":false,"is_disabled":true,"rental_uris":{"android":"levelo://app?vid=c827f785-6516-4690-a790-85d042f7f3d1","ios":"levelo://app?vid=c827f785-6516-4690-a790-85d042f7f3d1"},"vehicle_type_id":"4","last_reported":1770975204,"current_range_meters":1200,"station_id":"ce4bh012rcd13ifvqcv0","pricing_plan_id":"cebpf4jnsgd1na2vs0mg"},{"bike_id":"574acae1-b906-4c62-8339-74b2de78f9ba","system_id":"levelo_inurba_marseille","lat":43.30797,"lon":5.37651,"is_reserved":false,"is_disabled":false,"rental_uris":{"android":"levelo://app?vid=574acae1-b906-4c62-8339-74b2de78f9ba","ios":"levelo://app?vid=574acae1-b906-4c62-8339-74b2de78f9ba"},"vehicle_type_id":"4","last_reported":1770975204,"current_range_meters":38000,"station_id":"ce4bgv92rcd13ifvqcq0","pricing_plan_id":"cebpf4jnsgd1na2vs0mg"},{"bike_id":"11ea1d6c-2779-4e07-8b09-bfd7e2d84893","system_id":"levelo_inurba_marseille","lat":43.29037,"lon":5.37565,"is_reserved":false,"is_disabled":false,"rental_uris":{"android":"levelo://app?vid=11ea1d6c-2779-4e07-8b09-bfd7e2d84893","ios":"levelo://app?vid=11ea1d6c-2779-4e07-8b09-bfd7e2d84893"},"vehicle_type_id":"4","last_reported":1770975204,"current_range_meters":26000,"station_id":"ce4bh692rcd13ifvqe90","pricing_plan_id":"cebpf4jnsgd1na2vs0mg"},{"bike_id":"5f6ae4c8-a7cd-4f3b-9adf-671bbd618c70","system_id":"levelo_inurba_marseille","lat":43.25579,"lon":5.38236,"is_reserved":false,"is_disabled":false,"rental_uris":{"android":"levelo://app?vid=5f6ae4c8-a7cd-4f3b-9adf-671bbd618c70","ios":"levelo://app?vid=5f6ae4c8-a7cd-4f3b-9adf-671bbd618c70"},"vehicle_type_id":"4","last_reported":1770975204,"current_range_meters":2800,"station_id":"ce4bhih2rcd13ifvqfs0","pricing_plan_id":"cebpf4jnsgd1na2vs0mg"},{"bike_id":"6c4d9d77-008f-47a1-ad59-9ec9203c5a27","system_id":"levelo_inurba_marseille","lat":43.30922,"lon":5.36934,"is_reserved":false,"is_disabled":false,"rental_uris":{"android":"levelo://app?vid=6c4d9d77-008f-47a1-ad59-9ec9203c5a27","ios":"levelo://app?vid=6c4d9d77-008f-47a1-ad59-9ec9203c5a27"},"vehicle_type_id":"4","last_reported":1770975204,"current_range_meters":40000,"station_id":"ce4bgn92rcd13ifvqbvg","pricing_plan_id":"cebpf4jnsgd1na2vs0mg"},{"bike_id":"3155b4a6-3228-438c-8e29-b6bbe5f07177","system_id":"levelo_inurba_marseille","lat":43.29502,"lon":5.39399,"is_reserved":false,"is_disabled":false,"rental_uris":{"android":"levelo://app?vid=3155b4a6-3228-438c-8e29-b6bbe5f07177","ios":"levelo://app?vid=3155b4a6-3228-438c-8e29-b6bbe5f07177"},"vehicle_type_id":"4","last_reported":1770975204,"current_range_meters":30800,"station_id":"ce4bh292rcd13ifvqdf0","pricing_plan_id":"cebpf4jnsgd1na2vs0mg"},{"bike_id":"952883eb-24fb-4e6a-a897-eacad2d94a67","system_id":"levelo_inurba_marseille","lat":43.29381,"lon":5.37849,"is_reserved":false,"is_disabled":false,"rental_uris":{"android":"levelo://app?vid=952883eb-24fb-4e6a-a897-eacad2d94a67","ios":"levelo://app?vid=952883eb-24fb-4e6a-a897-eacad2d94a67"},