{"last_updated":1721074113,"ttl":30,"version":"2.2","data":{"bikes":[{"bike_id":"912a5de1-a764-4648-bd9e-90c586af7ed9","system_id":"levelo_inurba_marseille","lat":43.31481,"lon":5.36874,"is_reserved":false,"is_disabled":false,"rental_uris":{"android":"levelo://app?vid=912a5de1-a764-4648-bd9e-90c586af7ed9","ios":"levelo://app?vid=912a5de1-a764-4648-bd9e-90c586af7ed9"},"vehicle_type_id":"4","last_reported":1721074113,"current_range_meters":0,"station_id":"","pricing_plan_id":"cebpf4jnsgd1na2vs0mg"},{"bike_id":"3fd95bc8-c89d-4c03-8484-b5fec65893fe","system_id":"levelo_inurba_marseille","lat":43.309034,"lon":5.371783,"is_reserved":false,"is_disabled":false,"rental_uris":{"android":"levelo://app?vid=3fd95bc8-c89d-4c03-8484-b5fec65893fe","ios":"levelo://app?vid=3fd95bc8-c89d-4c03-8484-b5fec65893fe"},"vehicle_type_id":"4","last_reported":1721074113,"current_range_meters":16800,"station_id":"ce4bguh2rcd13ifvqckg","pricing_plan_id":"cebpf4jnsgd1na2vs0mg"},{"bike_id":"81ab0ae1-196e-41cf-9dff-79e7c9b0478c","system_id":"levelo_inurba_marseille","lat":43.30537,"lon":5.367345,"is_reserved":false,"is_disabled":false,"rental_uris":{"android":"levelo://app?vid=81ab0ae1-196e-41cf-9dff-79e7c9b0478c","ios":"levelo://app?vid=81ab0ae1-196e-41cf-9dff-79e7c9b0478c"},"vehicle_type_id":"4","last_reported":1721074113,"current_range_meters":6000,"station_id":"ce4bgrp2rcd13ifvqc9g","pricing_plan_id":"cebpf4jnsgd1na2vs0mg"},{"bike_id":"23d49517-8c33-4883-a7b8-93f1fc1ca403","system_id":"levelo_inurba_marseille","lat":43.305368,"lon":5.367343,"is_reserved":false,"is_disabled":false,"rental_uris":{"android":"levelo://app?vid=23d49517-8c33-4883-a7b8-93f1fc1ca403","ios":"levelo://app?vid=23d49517-8c33-4883-a7b8-93f1fc1ca403"},"vehicle_type_id":"4","last_reported":1721074113,"current_range_meters":1200,"station_id":"ce4bgrp2rcd13ifvqc9g","pricing_plan_id":"cebpf4jnsgd1na2vs0mg"},{"bike_id":"b5dad237-c82c-44ad-9896-7416ec24a5c0","system_id":"levelo_inurba_marseille","lat":43.30531,"lon":5.36548,"is_reserved":false,"is_disabled":false,"rental_uris":{"android":"levelo://app?vid=b5dad237-c82c-44ad-9896-7416ec24a5c0","ios":"levelo://app?vid=b5dad237-c82c-44ad-9896-7416ec24a5c0"},"vehicle_type_id":"4","last_reported":1721074113,"current_range_meters":0,"station_id":"","pricing_plan_id":"cebpf4jnsgd1na2vs0mg"},{"bike_id":"ca0eed92-de2a-4d59-9749-4151cfcdad83","system_id":"levelo_inurba_marseille","lat":43.30599,"lon":5.37217,"is_reserved":false,"is_disabled":false,"rental_uris":{"android":"levelo://app?vid=ca0eed92-de2a-4d59-9749-4151cfcdad83","ios":"levelo://app?vid=ca0eed92-de2a-4d59-9749-4151cfcdad83"},"vehicle_type_id":"4","last_reported":1721074113,"current_range_meters":23200,"station_id":"ce4bgqh2rcd13ifvqc4g","pricing_plan_id":"cebpf4jnsgd1na2vs0mg"},{"bike_id":"cc30e6df-d25e-4a3f-8c09-536be91101d9","system_id":"levelo_inurba_marseille","lat":43.305989,"lon":5.37225,"is_reserved":false,"is_disabled":false,"rental_uris":{"android":"levelo://app?vid=cc30e6df-d25e-4a3f-8c09-536be91101d9","ios":"levelo://app?vid=cc30e6df-d25e-4a3f-8c09-536be91101d9"},"vehicle_type_id":"4","last_reported":1721074113,"current_range_meters":12000,"station_id":"ce4bgqh2rcd13ifvqc4g","pricing_plan_id":"cebpf4jnsgd1na2vs0mg"},{"bike_id":"2e655a8b-b43d-4ce9-86c0-8f6329026ba6","system_id":"levelo_inurba_marseille","lat":43.31109,"lon":5.377555,"is_reserved":false,"is_disabled":false,"rental_uris":{"android":"levelo://app?vid=2e655a8b-b43d-4ce9-86c0-8f6329026ba6","ios":"levelo://app?vid=2e655a8b-b43d-4ce9-86c0-8f6329026ba6"},"vehicle_type_id":"4","last_reported":1721074113,"current_range_meters":30400,"station_id":"ce4bgt92rcd13ifvqcg0","pricing_plan_id":"cebpf4jnsgd1na2vs0mg"},{"bike_id":"f89478e4-d4df-49f9-8119-0db8ca40a56b","system_id":"levelo_inurba_marseille","lat":43.311125,"lon":5.377624,"is_reserved":false,"is_disabled":false,"rental_uris":{"android":"levelo://app?vid=f89478e4-d4df-49f9-8119-0db8ca40a56b","ios":"levelo://app?vid=f89478e4-d4df-49f9-8119-0db8ca40a56b"},"vehicle_type_id":"4","last_reported":1721074113,"current_range_meters":30400,"station_id":"ce4bgt92rcd13ifvqcg0","pricing_plan_id":"cebpf4jnsgd1na2vs0mg"},{"bike_id":"53692a49-96d2-463c-96ac-8f9c2dbaf818","system_id":"levelo_inurba_marseille","lat":43.311125,"lon":5.377624,"is_reserved":false,"is_disabled":false,"rental_uris":{"android":"levelo://app?vid=53692a49-96d2-463c-96ac-8f9c2dbaf818","ios":"levelo://app?vid=53692a49-96d2-463c-96ac-8f9c2dbaf818"},"vehicle_type_id":"4","last_reported":1721074113,"current_range_meters":10400,"station_id":"ce4bgt92rcd13ifvqcg0","pricing_plan_id":"cebpf4jnsgd1na2vs0mg"},{"bike_id":"9968a0e6-61ab-448b-a57c-22afdc42f44e","system_id":"levelo_inurba_marseille","lat":43.311125,"lon":5.377624,"is_reserved":false,"is_disabled":false,"rental_uris":{"android":"levelo://app?vid=9968a0e6-61ab-448b-a57c-22afdc42f44e","ios":"levelo://app?vid=9968a0e6-61ab-448b-a57c-22afdc42f44e"},"vehicle_type_id":"4","last_reported":1721074113,"current_range_meters":14800,"station_id":"ce4bgt92rcd13ifvqcg0","pricing_plan_id":"cebpf4jnsgd1na2vs0mg"},{"bike_id":"6a1479b7-9b65-4689-94dc-7ccad924ca8c","system_id":"levelo_inurba_marseille","lat":43.307945,"lon":5.376487,"is_reserved":false,"is_disabled":false,"rental_uris":{"android":"levelo://app?vid=6a1479b7-9b65-4689-94dc-7ccad924ca8c","ios":"levelo://app?vid=6a1479b7-9b65-4689-94dc-7ccad924ca8c"},"vehicle_type_id":"4","last_reported":1721074113,"current_range_meters":14400,"station_id":"ce4bgv92rcd13ifvqcq0","pricing_plan_id":"cebpf4jnsgd1na2vs0mg"},{"bike_id":"82f127cf-4634-4bb2-a04a-a6c01bc969b1","system_id":"levelo_inurba_marseille","lat":43.307945,"lon":5.376487,"is_reserved":false,"is_disabled":false,"rental_uris":{"android":"levelo://app?vid=82f127cf-4634-4bb2-a04a-a6c01bc969b1","ios":"levelo://app?vid=82f127cf-4634-4bb2-a04a-a6c01bc969b1"},"vehicle_type_id":"4","last_reported":1721074113,"current_range_meters":1200,"station_id":"ce4bgv92rcd13ifvqcq0","pricing_plan_id":"cebpf4jnsgd1na2vs0mg"},{"bike_id":"d9cf28cf-e51a-41df-8e1c-3e4b3fdbc366","system_id":"levelo_inurba_marseille","lat":43.307945,"lon":5.376487,"is_reserved":false,"is_disabled":false,"rental_uris":{"android":"levelo://app?vid=d9cf28cf-e51a-41df-8e1c-3e4b3fdbc366","ios":"levelo://app?vid=d9cf28cf-e51a-41df-8e1c-3e4b3fdbc366"},"vehicle_type_id":"4","last_reported":1721074113,"current_range_meters":7200,"station_id":"ce4bgv92rcd13ifvqcq0","pricing_plan_id":"cebpf4jnsgd1na2vs0mg"},{"bike_id":"0f1e76c4-642e-472e-8add-9fbbf4faf823","system_id":"levelo_inurba_marseille","lat":43.307945,"lon":5.376487,"is_reserved":false,"is_disabled":false,"rental_uris":{"android":"levelo://app?vid=0f1e76c4-642e-472e-8add-9fbbf4faf823","ios":"levelo://app?vid=0f1e76c4-642e-472e-8add-9fbbf4faf823"},"vehicle_type_id":"4","last_reported":1721074113,"current_range_meters":15200,"station_id":"ce4bgv92rcd13ifvqcq0","pricing_plan_id":"cebpf4jnsgd1na2vs0mg"},{"bike_id":"7025c5ff-af0c-4f71-bd6f-75efcd8dcbce","system_id":"levelo_inurba_marseille","lat":43.307945,"lon":5.376487,"is_reserved":false,"is_disabled":false,"rental_uris":{"android":"levelo://app?vid=7025c5ff-af0c-4f71-bd6f-75efcd8dcbce","ios":"levelo://app?vid=7025c5ff-af0c-4f71-bd6f-75efcd8dcbce"},"vehicle_type_id":"4","last_reported":1721074113,"current_range_meters":3200,"station_id":"ce4bgv92rcd13ifvqcq0","pricing_plan_id":"cebpf4jnsgd1na2vs0mg"},{"bike_id":"4f0cc7c3-16d0-49b6-a64e-9500e778c881","system_id":"levelo_inurba_marseille","lat":43.317075,"lon":5.377367,"is_reserved":false,"is_disabled":false,"rental_uris":{"android":"levelo://app?vid=4f0cc7c3-16d0-49b6-a64e-9500e778c881","ios":"levelo://app?vid=4f0cc7c3-16d0-49b6-a64e-9500e778c881"},"vehicle_type_id":"4","last_reported":1721074113,"current_range_meters":14000,"station_id":"ce4bgth2rcd13ifvqch0","pricing_plan_id":"cebpf4jnsgd1na2vs0mg"},{"bike_id":"6bdb53c8-e94c-43d8-a135-ae62ec296e92","system_id":"levelo_inurba_marseille","lat":43.315289,"lon":5.380349,"is_reserved":false,"is_disabled":false,"rental_uris":{"android":"levelo://app?vid=6bdb53c8-e94c-43d8-a135-ae62ec296e92","ios":"levelo://app?vid=6bdb53c8-e94c-43d8-a135-ae62ec296e92"},"vehicle_type_id":"4","last_reported":1721074113,"current_range_meters":0,"station_id":"ce4bhsp2rcd13ifvqi50","pricing_plan_id":"cebpf4jnsgd1na2vs0mg"},{"bike_id":"4cf66bbe-286e-4b6a-ab1d-990eac9587f7","system_id":"levelo_inurba_marseille","lat":43.315289,"lon":5.380349,"is_reserved":false,"is_disabled":false,"rental_uris":{"android":"levelo://app?vid=4cf66bbe-286e-4b6a-ab1d-990eac9587f7","ios":"levelo://app?vid=4cf66bbe-286e-4b6a-ab1d-990eac9587f7"},"vehicle_type_id":"4","last_reported":1721074113,"current_range_meters":8000,"station_id":"ce4bhsp2rcd13ifvqi50","pricing_plan_id":"cebpf4jnsgd1na2vs0mg"},{"bike_id":"418e82b2-b3b4-4a92-a087-b0ed70ccd482","system_id":"levelo_inurba_marseille","lat":43.315289,"lon":5.380349,"is_reserved":false,"is_disabled":false,"rental_uris":{"android":"levelo://app?vid=418e82b2-b3b4-4a92-a087-b0ed70ccd482","ios":"levelo://app?vid=418e82b2-b3b4-4a92-a087-b0ed70ccd482"},"vehicle_type_id":"4","last_reported":1721074113,"current_range_meters":18000,"station_id":"ce4bhsp2rcd13ifvqi50","pricing_plan_id":"cebpf4jnsgd1na2vs0mg"},{"bike_id":"8d545796-bfd1-4c71-b82b-41fd732c732d","system_id":"levelo_inurba_marseille","lat":43.30142,"lon":5.37,"is_reserved":false,"is_disabled":false,"rental_uris":{"android":"levelo://app?vid=8d545796-bfd1-4c71-b82b-41fd732c732d","ios":"levelo://app?vid=8d545796-bfd1-4c71-b82b-41fd732c732d"},"vehicle_type_id":"4","last_reported":1721074113,"current_range_meters":14000,"station_id":"","pricing_plan_id":"cebpf4jnsgd1na2vs0mg"},{"bike_id":"b4b2583b-fe96-4992-b151-9c65df8a0f22","system_id":"levelo_inurba_marseille","lat":43.308005,"lon":5.38147,"is_reserved":false,"is_disabled":false,"rental_uris":{"android":"levelo://app?vid=b4b2583b-fe96-4992-b151-9c65df8a0f22","ios":"levelo://app?vid=b4b2583b-fe96-4992-b151-9c65df8a0f22"},"vehicle_type_id":"4","last_reported":1721074113,"current_range_meters":0,"station_id":"ce4bgt12rcd13ifvqce0","pricing_plan_id":"cebpf4jnsgd1na2vs0mg"},{"bike_id":"78763668-9861-4f99-90da-c985e69c86e5","system_id":"levelo_inurba_marseille","lat":43.308012,"lon":5.381511,"is_reserved":false,"is_disabled":false,"rental_uris":{"android":"levelo://app?vid=78763668-9861-4f99-90da-c985e69c86e5","ios":"levelo://app?vid=78763668-9861-4f99-90da-c985e69c86e5"},"vehicle_type_id":"4","last_reported":1721074113,"current_range_meters":18800,"station_id":"ce4bgt12rcd13ifvqce0","pricing_plan_id":"cebpf4jnsgd1na2vs0mg"},{"bike_id":"34819007-a870-4a20-8602-aba156d1770b","system_id":"levelo_inurba_marseille","lat":43.30799,"lon":5.381563,"is_reserved":false,"is_disabled":false,"rental_uris":{"android":"levelo://app?vid=34819007-a870-4a20-8602-aba156d1770b","ios":"levelo://app?vid=34819007-a870-4a20-8602-aba156d1770b"},"vehicle_type_id":"4","last_reported":1721074113,"current_range_meters":3600,"station_id":"ce4bgt12rcd13ifvqce0","pricing_plan_id":"cebpf4jnsgd1na2vs0mg"},{"bike_id":"0c231e2e-81c6-4321-bb14-12915551a1c3","system_id":"levelo_inurba_marseille","lat":43.30796,"lon":5.38162,"is_reserved":false,"is_disabled":false,"rental_uris":{"android":"levelo://app?vid=0c231e2e-81c6-4321-bb14-12915551a1c3","ios":"levelo://app?vid=0c231e2e-81c6-4321-bb14-12915551a1c3"},"vehicle_type_id":"4","last_reported":1721074113,"current_range_meters":22000,"station_id":"ce4bgt12rcd13ifvqce0","pricing_plan_id":"cebpf4jnsgd1na2vs0mg"},{"bike_id":"0fb55c87-a611-498c-932e-970595db1bf8","system_id":"levelo_inurba_marseille","lat":43.304606,"lon":5.379026,"is_reserved":false,"is_disabled":false,"rental_uris":{"android":"levelo://app?vid=0fb55c87-a611-498c-932e-970595db1bf8","ios":"levelo://app?vid=0fb55c87-a611-498c-932e-970595db1bf8"},"vehicle_type_id":"4","last_reported":1721074113,"current_range_meters":3600,"station_id":"ce4bgup2rcd13ifvqcn0","pricing_plan_id":"cebpf4jnsgd1na2vs0mg"},{"bike_id":"169202bf-4c73-4abb-a475-f3bbe90509d5","system_id":"levelo_inurba_marseille","lat":43.304606,"lon":5.379026,"is_reserved":false,"is_disabled":false,"rental_uris":{"android":"levelo://app?vid=169202bf-4c73-4abb-a475-f3bbe90509d5","ios":"levelo://app?vid=169202bf-4c73-4abb-a475-f3bbe90509d5"},"vehicle_type_id":"4","last_reported":1721074113,"current_range_meters":0,"station_id":"ce4bgup2rcd13ifvqcn0","pricing_plan_id":"cebpf4jnsgd1na2vs0mg"},{"bike_id":"e2058668-a64a-403d-b979-6ad67ca02719","system_id":"levelo_inurba_marseille","lat":43.304606,"lon":5.379026,"is_reserved":false,"is_disabled":false,"rental_uris":{"android":"levelo://app?vid=e2058668-a64a-403d-b979-6ad67ca02719","ios":"levelo://app?vid=e2058668-a64a-403d-b979-6ad67ca02719"},"vehicle_type_id":"4","last_reported":1721074113,"current_range_meters":5600,"station_id":"ce4bgup2rcd13ifvqcn0","pricing_plan_id":"cebpf4jnsgd1na2vs0mg"},{"bike_id":"54bb3e1a-bf0f-42db-8d8c-e31200f8540a","system_id":"levelo_inurba_marseille","lat":43.32485,"lon":5.36561,"is_reserved":false,"is_disabled":false,"rental_uris":{"android":"levelo://app?vid=54bb3e1a-bf0f-42db-8d8c-e31200f8540a","ios":"levelo://app?vid=54bb3e1a-bf0f-42db-8d8c-e31200f8540a"},"vehicle_type_id":"4","last_reported":1721074113,"current_range_meters":0,"station_id":"ce4bhs12rcd13ifvqhvg","pricing_plan_id":"cebpf4jnsgd1na2vs0mg"},{"bike_id":"d37cb66b-b895-4d60-9cc4-fe368c6c2cb9","system_id":"levelo_inurba_marseille","lat":43.310804,"lon":5.38359,"is_reserved":false,"is_disabled":false,"rental_uris":{"android":"levelo://app?vid=d37cb66b-b895-4d60-9cc4-fe368c6c2cb9","ios":"levelo://app?vid=d37cb66b-b895-4d60-9cc4-fe368c6c2cb9"},"vehicle_type_id":"4","last_reported":1721074113,"current_range_meters":0,"station_id":"ce4bgv92rcd13ifvqcr0","pricing_plan_id":"cebpf4jnsgd1na2vs0mg"},{"bike_id":"066072d8-c265-493a-b2b9-f6a37a41967e","system_id":"levelo_inurba_marseille","lat":43.304606,"lon":5.379026,"is_reserved":false,"is_disabled":false,"rental_uris":{"android":"levelo://app?vid=066072d8-c265-493a-b2b9-f6a37a41967e","ios":"levelo://app?vid=066072d8-c265-493a-b2b9-f6a37a41967e"},"vehicle_type_id":"4","last_reported":1721074113,"current_range_meters":16800,"station_id":"ce4bgup2rcd13ifvqcn0","pricing_plan_id":"cebpf4jnsgd1na2vs0mg"},{"bike_id":"f98eb7d8-a23a-4e59-b231-336dddc9f814","system_id":"levelo_inurba_marseille","lat":43.30143,"lon":5.37413,"is_reserved":false,"is_disabled":false,"rental_uris":{"android":"levelo://app?vid=f98eb7d8-a23a-4e59-b231-336dddc9f814","ios":"levelo://app?vid=f98eb7d8-a23a-4e59-b231-336dddc9f814"},"vehicle_type_id":"4","last_reported":1721074113,"current_range_meters":28000,"station_id":"ce4bgs92rcd13ifvqcc0","pricing_plan_id":"cebpf4jnsgd1na2vs0mg"},{"bike_id":"c064cd0b-ff1c-40de-8b9d-eefd3435dcf1","system_id":"levelo_inurba_marseille","lat":43.305937,"lon":5.381817,"is_reserved":false,"is_disabled":false,"rental_uris":{"android":"levelo://app?vid=c064cd0b-ff1c-40de-8b9d-eefd3435dcf1","ios":"levelo://app?vid=c064cd0b-ff1c-40de-8b9d-eefd3435dcf1"},"vehicle_type_id":"4","last_reported":1721074113,"current_range_meters":18800,"station_id":"","pricing_plan_id":"cebpf4jnsgd1na2vs0mg"},{"bike_id":"891a3d81-9ca9-4fc9-9cfd-ba133cf5bd8c","system_id":"levelo_inurba_marseille","lat":43.3136,"lon":5.38488,"is_reserved":false,"is_disabled":false,"rental_uris":{"android":"levelo://app?vid=891a3d81-9ca9-4fc9-9cfd-ba133cf5bd8c","ios":"levelo://app?vid=891a3d81-9ca9-4fc9-9cfd-ba133cf5bd8c"},"vehicle_type_id":"4","last_reported":1721074113,"current_range_meters":6400,"station_id":"ce4bgt92rcd13ifvqcf0","pricing_plan_id":"cebpf4jnsgd1na2vs0mg"},{"bike_id":"4db63350-4e4b-413d-9a50-5fc3a0f837bb","system_id":"levelo_inurba_marseille","lat":43.31352,"lon":5.38489,"is_reserved":false,"is_disabled":false,"rental_uris":{"android":"levelo://app?vid=4db63350-4e4b-413d-9a50-5fc3a0f837bb","ios":"levelo://app?vid=4db63350-4e4b-413d-9a50-5fc3a0f837bb"},"vehicle_type_id":"4","last_reported":1721074113,"current_range_meters":31200,"station_id":"ce4bgt92rcd13ifvqcf0","pricing_plan_id":"cebpf4jnsgd1na2vs0mg"},{"bike_id":"7d711246-a3af-4bd2-a7b6-66029da08fbc","system_id":"levelo_inurba_marseille","lat":43.313571,"lon":5.384829,"is_reserved":false,"is_disabled":false,"rental_uris":{"android":"levelo://app?vid=7d711246-a3af-4bd2-a7b6-66029da08fbc","ios":"levelo://app?vid=7d711246-a3af-4bd2-a7b6-66029da08fbc"},"vehicle_type_id":"4","last_reported":1721074113,"current_range_meters":23600,"station_id":"ce4bgt92rcd13ifvqcf0","pricing_plan_id":"cebpf4jnsgd1na2vs0mg"},{"bike_id":"4f0a0056-bd49-420a-b9df-f419d93a1707","system_id":"levelo_inurba_marseille","lat":43.313694,"lon":5.38503,"is_reserved":false,"is_disabled":false,"rental_uris":{"android":"levelo://app?vid=4f0a0056-bd49-420a-b9df-f419d93a1707","ios":"levelo://app?vid=4f0a0056-bd49-420a-b9df-f419d93a1707"},"vehicle_type_id":"4","last_reported":1721074113,"current_range_meters":31200,"station_id":"ce4bgt92rcd13ifvqcf0","pricing_plan_id":"cebpf4jnsgd1na2vs0mg"},{"bike_id":"1eda03ed-4682-4183-9f37-395aa1c467db","system_id":"levelo_inurba_marseille","lat":43.299222,"lon":5.365554,"is_reserved":false,"is_disabled":false,"rental_uris":{"android":"levelo://app?vid=1eda03ed-4682-4183-9f37-395aa1c467db","ios":"levelo://app?vid=1eda03ed-4682-4183-9f37-395aa1c467db"},"vehicle_type_id":"4","last_reported":1721074113,"current_range_meters":18000,"station_id":"ce4bgm92rcd13ifvqbr0","pricing_plan_id":"cebpf4jnsgd1na2vs0mg"},{"bike_id":"08c099cd-caa3-4737-9b35-37f671d8ab04","system_id":"levelo_inurba_marseille","lat":43.299724,"lon":5.371829,"is_reserved":false,"is_disabled":false,"rental_uris":{"android":"levelo://app?vid=08c099cd-caa3-4737-9b35-37f671d8ab04","ios":"levelo://app?vid=08c099cd-caa3-4737-9b35-37f671d8ab04"},"vehicle_type_id":"4","last_reported":1721074113,"current_range_meters":22000,"station_id":"ce4bgr92rcd13ifvqc7g","pricing_plan_id":"cebpf4jnsgd1na2vs0mg"},{"bike_id":"119ad5a0-dd77-4614-bf87-b822434f7cc7","system_id":"levelo_inurba_marseille","lat":43.299724,"lon":5.371829,"is_reserved":false,"is_disabled":false,"rental_uris":{"android":"levelo://app?vid=119ad5a0-dd77-4614-bf87-b822434f7cc7","ios":"levelo://app?vid=119ad5a0-dd77-4614-bf87-b822434f7cc7"},"vehicle_type_id":"4","last_reported":1721074113,"current_range_meters":30000,"station_id":"ce4bgr92rcd13ifvqc7g","pricing_plan_id":"cebpf4jnsgd1na2vs0mg"},{"bike_id":"6406aef9-7288-4574-9d82-7d114f46cacb","system_id":"levelo_inurba_marseille","lat":43.299243,"lon":5.37481,"is_reserved":false,"is_disabled":false,"rental_uris":{"android":"levelo://app?vid=6406aef9-7288-4574-9d82-7d114f46cacb","ios":"levelo://app?vid=6406aef9-7288-4574-9d82-7d114f46cacb"},"vehicle_type_id":"4","last_reported":1721074113,"current_range_meters":24000,"station_id":"ce4bgjh2rcd13ifvqbg0","pricing_plan_id":"cebpf4jnsgd1na2vs0mg"},{"bike_id":"ffe6d1ff-3219-4681-a542-cb5531d8fd59","system_id":"levelo_inurba_marseille","lat":43.299243,"lon":5.374807,"is_reserved":false,"is_disabled":false,"rental_uris":{"android":"levelo://app?vid=ffe6d1ff-3219-4681-a542-cb5531d8fd59","ios":"levelo://app?vid=ffe6d1ff-3219-4681-a542-cb5531d8fd59"},"vehicle_type_id":"4","last_reported":1721074113,"current_range_meters":16000,"station_id":"ce4bgjh2rcd13ifvqbg0","pricing_plan_id":"cebpf4jnsgd1na2vs0mg"},{"bike_id":"2c6b86dc-3d5e-4d6d-ab69-81e10606daeb","system_id":"levelo_inurba_marseille","lat":43.311722,"lon":5.387247,"is_reserved":false,"is_disabled":false,"rental_uris":{"android":"levelo://app?vid=2c6b86dc-3d5e-4d6d-ab69-81e10606daeb","ios":"levelo://app?vid=2c6b86dc-3d5e-4d6d-ab69-81e10606daeb"},"vehicle_type_id":"4","last_reported":1721074113,"current_range_meters":3600,"station_id":"ce4bgv12rcd13ifvqcp0","pricing_plan_id":"cebpf4jnsgd1na2vs0mg"},{"bike_id":"d270f9a5-07f1-4b2c-baf6-6fb04a081afc","system_id":"levelo_inurba_marseille","lat":43.322872,"lon":5.382756,"is_reserved":false,"is_disabled":false,"rental_uris":{"android":"levelo://app?vid=d270f9a5-07f1-4b2c-baf6-6fb04a081afc","ios":"levelo://app?vid=d270f9a5-07f1-4b2c-baf6-6fb04a081afc"},"vehicle_type_id":"4","last_reported":1721074113,"current_range_meters":28800,"station_id":"ce4bhr12rcd13ifvqhqg","pricing_plan_id":"cebpf4jnsgd1na2vs0mg"},{"bike_id":"5fe18430-f94a-4d0a-8899-cd884db5c80f","system_id":"levelo_inurba_marseille","lat":43.322872,"lon":5.382756,"is_reserved":false,"is_disabled":false,"rental_uris":{"android":"levelo://app?vid=5fe18430-f94a-4d0a-8899-cd884db5c80f","ios":"levelo://app?vid=5fe18430-f94a-4d0a-8899-cd884db5c80f"},"vehicle_type_id":"4","last_reported":1721074113,"current_range_meters":6400,"station_id":"ce4bhr12rcd13ifvqhqg","pricing_plan_id":"cebpf4jnsgd1na2vs0mg"},{"bike_id":"67c87576-e6bc-4e4c-a81f-7061db72f55f","system_id":"levelo_inurba_marseille","lat":43.297163,"lon":5.365866,"is_reserved":false,"is_disabled":false,"rental_uris":{"android":"levelo://app?vid=67c87576-e6bc-4e4c-a81f-7061db72f55f","ios":"levelo://app?vid=67c87576-e6bc-4e4c-a81f-7061db72f55f"},"vehicle_type_id":"4","last_reported":1721074113,"current_range_meters":25600,"station_id":"ce4bgn12rcd13ifvqbt0","pricing_plan_id":"cebpf4jnsgd1na2vs0mg"},{"bike_id":"0c04fadc-737c-40fe-b8dd-55e5cdf5660b","system_id":"levelo_inurba_marseille","lat":43.297163,"lon":5.365866,"is_reserved":false,"is_disabled":false,"rental_uris":{"android":"levelo://app?vid=0c04fadc-737c-40fe-b8dd-55e5cdf5660b","ios":"levelo://app?vid=0c04fadc-737c-40fe-b8dd-55e5cdf5660b"},"vehicle_type_id":"4","last_reported":1721074113,"current_range_meters":7600,"station_id":"ce4bgn12rcd13ifvqbt0","pricing_plan_id":"cebpf4jnsgd1na2vs0mg"},{"bike_id":"4e9d4b74-7eee-4b97-bbd6-464ddfae64c8","system_id":"levelo_inurba_marseille","lat":43.2968,"lon":5.37291,"is_reserved":false,"is_disabled":false,"rental_uris":{"android":"levelo://app?vid=4e9d4b74-7eee-4b97-bbd6-464ddfae64c8","ios":"levelo://app?vid=4e9d4b74-7eee-4b97-bbd6-464ddfae64c8"},"vehicle_type_id":"4","last_reported":1721074113,"current_range_meters":0,"station_id":"ce4bgk12rcd13ifvqbj0","pricing_plan_id":"cebpf4jnsgd1na2vs0mg"},{"bike_id":"0ba5a4c8-83b9-4d9a-a9b9-0e03418ccd85","system_id":"levelo_inurba_marseille","lat":43.296921,"lon":5.376579,"is_reserved":false,"is_disabled":false,"rental_uris":{"android":"levelo://app?vid=0ba5a4c8-83b9-4d9a-a9b9-0e03418ccd85","ios":"levelo://app?vid=0ba5a4c8-83b9-4d9a-a9b9-0e03418ccd85"},"vehicle_type_id":"4","last_reported":1721074113,"current_range_meters":3200,"station_id":"ce4bgkh2rcd13ifvqbl0","pricing_plan_id":"cebpf4jnsgd1na2vs0mg"},{"bike_id":"b7019d88-1c52-4c2d-bf10-bfcdc44e671e","system_id":"levelo_inurba_marseille","lat":43.299028,"lon":5.381509,"is_reserved":false,"is_disabled":false,"rental_uris":{"android":"levelo://app?vid=b7019d88-1c52-4c2d-bf10-bfcdc44e671e","ios":"levelo://app?vid=b7019d88-1c52-4c2d-bf10-bfcdc44e671e"},"vehicle_type_id":"4","last_reported":1721074113,"current_range_meters":1200,"station_id":"ce4bgj12rcd13ifvqbc0","pricing_plan_id":"cebpf4jnsgd1na2vs0mg"},{"bike_id":"ead08d91-b1de-47ca-85ea-841b0b3072e3","system_id":"levelo_inurba_marseille","lat":43.309589,"lon":5.390258,"is_reserved":false,"is_disabled":false,"rental_uris":{"android":"levelo://app?vid=ead08d91-b1de-47ca-85ea-841b0b3072e3","ios":"levelo://app?vid=ead08d91-b1de-47ca-85ea-841b0b3072e3"},"vehicle_type_id":"4","last_reported":1721074113,"current_range_meters":0,"station_id":"ce4bgup2rcd13ifvqco0","pricing_plan_id":"cebpf4jnsgd1na2vs0mg"},{"bike_id":"bd32439b-67ac-4ae1-85b0-aea9810e9318","system_id":"levelo_inurba_marseille","lat":43.32339,"lon":5.38581,"is_reserved":false,"is_disabled":false,"rental_uris":{"android":"levelo://app?vid=bd32439b-67ac-4ae1-85b0-aea9810e9318","ios":"levelo://app?vid=bd32439b-67ac-4ae1-85b0-aea9810e9318"},"vehicle_type_id":"4","last_reported":1721074113,"current_range_meters":29200,"station_id":"","pricing_plan_id":"cebpf4jnsgd1na2vs0mg"},{"bike_id":"3829e722-981d-4be5-9eba-ad76adb6eca0","system_id":"levelo_inurba_marseille","lat":43.317557,"lon":5.390173,"is_reserved":false,"is_disabled":false,"rental_uris":{"android":"levelo://app?vid=3829e722-981d-4be5-9eba-ad76adb6eca0","ios":"levelo://app?vid=3829e722-981d-4be5-9eba-ad76adb6eca0"},"vehicle_type_id":"4","last_reported":1721074113,"current_range_meters":18000,"station_id":"ce4bhqp2rcd13ifvqhng","pricing_plan_id":"cebpf4jnsgd1na2vs0mg"},{"bike_id":"96d79d7e-5e49-4d37-ae40-f709fe980f53","system_id":"levelo_inurba_marseille","lat":43.317578,"lon":5.390142,"is_reserved":false,"is_disabled":false,"rental_uris":{"android":"levelo://app?vid=96d79d7e-5e49-4d37-ae40-f709fe980f53","ios":"levelo://app?vid=96d79d7e-5e49-4d37-ae40-f709fe980f53"},"vehicle_type_id":"4","last_reported":1721074113,"current_range_meters":31200,"station_id":"","pricing_plan_id":"cebpf4jnsgd1na2vs0mg"},{"bike_id":"4663f8c1-5898-4a2e-a0e4-ab131bcc2440","system_id":"levelo_inurba_marseille","lat":43.31753,"lon":5.39024,"is_reserved":false,"is_disabled":false,"rental_uris":{"android":"levelo://app?vid=4663f8c1-5898-4a2e-a0e4-ab131bcc2440","ios":"levelo://app?vid=4663f8c1-5898-4a2e-a0e4-ab131bcc2440"},"vehicle_type_id":"4","last_reported":1721074113,"current_range_meters":31200,"station_id":"ce4bhqp2rcd13ifvqhng","pricing_plan_id":"cebpf4jnsgd1na2vs0mg"},{"bike_id":"8d958db8-172e-4471-b04b-74cd121b2b4d","system_id":"levelo_inurba_marseille","lat":43.304274,"lon":5.388873,"is_reserved":false,"is_disabled":false,"rental_uris":{"android":"levelo://app?vid=8d958db8-172e-4471-b04b-74cd121b2b4d","ios":"levelo://app?vid=8d958db8-172e-4471-b04b-74cd121b2b4d"},"vehicle_type_id":"4","last_reported":1721074113,"current_range_meters":4000,"station_id":"ce4bgk12rcd13ifvqbi0","pricing_plan_id":"cebpf4jnsgd1na2vs0mg"},{"bike_id":"61165eb7-e6a1-49e8-8238-85691aa3b791","system_id":"levelo_inurba_marseille","lat":43.30085,"lon":5.390856,"is_reserved":false,"is_disabled":false,"rental_uris":{"android":"levelo://app?vid=61165eb7-e6a1-49e8-8238-85691aa3b791","ios":"levelo://app?vid=61165eb7-e6a1-49e8-8238-85691aa3b791"},"vehicle_type_id":"4","last_reported":1721074113,"current_range_meters":14400,"station_id":"ce4bh192rcd13ifvqdb0","pricing_plan_id":"cebpf4jnsgd1na2vs0mg"},{"bike_id":"a866acee-f6c9-4f1f-9f60-60c79f69cb84","system_id":"levelo_inurba_marseille","lat":43.304274,"lon":5.388873,"is_reserved":false,"is_disabled":false,"rental_uris":{"android":"levelo://app?vid=a866acee-f6c9-4f1f-9f60-60c79f69cb84","ios":"levelo://app?vid=a866acee-f6c9-4f1f-9f60-60c79f69cb84"},"vehicle_type_id":"4","last_reported":1721074113,"current_range_meters":24400,"station_id":"ce4bgk12rcd13ifvqbi0","pricing_plan_id":"cebpf4jnsgd1na2vs0mg"},{"bike_id":"abfb4a8c-0b16-4a70-ac9b-b9d34753447c","system_id":"levelo_inurba_marseille","lat":43.29783,"lon":5.38103,"is_reserved":false,"is_disabled":false,"rental_uris":{"android":"levelo://app?vid=abfb4a8c-0b16-4a70-ac9b-b9d34753447c","ios":"levelo://app?vid=abfb4a8c-0b16-4a70-ac9b-b9d34753447c"},"vehicle_type_id":"4","last_reported":1721074113,"current_range_meters":30400,"station_id":"ce4bgip2rcd13ifvqbb0","pricing_plan_id":"cebpf4jnsgd1na2vs0mg"},{"bike_id":"30fdf526-1f4d-44eb-b64c-71777e871b99","system_id":"levelo_inurba_marseille","lat":43.304278,"lon":5.388868,"is_reserved":false,"is_disabled":false,"rental_uris":{"android":"levelo://app?vid=30fdf526-1f4d-44eb-b64c-71777e871b99","ios":"levelo://app?vid=30fdf526-1f4d-44eb-b64c-71777e871b99"},"vehicle_type_id":"4","last_reported":1721074113,"current_range_meters":4400,"station_id":"ce4bgk12rcd13ifvqbi0","pricing_plan_id":"cebpf4jnsgd1na2vs0mg"},{"bike_id":"cc856544-63d2-456d-8d04-7216effc2ce8","system_id":"levelo_inurba_marseille","lat":43.304278,"lon":5.388868,"is_reserved":false,"is_disabled":false,"rental_uris":{"android":"levelo://app?vid=cc856544-63d2-456d-8d04-7216effc2ce8","ios":"levelo://app?vid=cc856544-63d2-456d-8d04-7216effc2ce8"},"vehicle_type_id":"4","last_reported":1721074113,"current_range_meters":7600,"station_id":"ce4bgk12rcd13ifvqbi0","pricing_plan_id":"cebpf4jnsgd1na2vs0mg"},{"bike_id":"0c1d6f9c-cd03-4aed-a225-01442d54c2cc","system_id":"levelo_inurba_marseille","lat":43.29783,"lon":5.38116,"is_reserved":false,"is_disabled":false,"rental_uris":{"android":"levelo://app?vid=0c1d6f9c-cd03-4aed-a225-01442d54c2cc","ios":"levelo://app?vid=0c1d6f9c-cd03-4aed-a225-01442d54c2cc"},"vehicle_type_id":"4","last_reported":1721074113,"current_range_meters":18400,"station_id":"ce4bgip2rcd13ifvqbb0","pricing_plan_id":"cebpf4jnsgd1na2vs0mg"},{"bike_id":"5eae7cfe-fddd-435a-a27d-371dc4894243","system_id":"levelo_inurba_marseille","lat":43.29776,"lon":5.38108,"is_reserved":false,"is_disabled":false,"rental_uris":{"android":"levelo://app?vid=5eae7cfe-fddd-435a-a27d-371dc4894243","ios":"levelo://app?vid=5eae7cfe-fddd-435a-a27d-371dc4894243"},"vehicle_type_id":"4","last_reported":1721074113,"current_range_meters":31200,"station_id":"ce4bgip2rcd13ifvqbb0","pricing_plan_id":"cebpf4jnsgd1na2vs0mg"},{"bike_id":"f964abaa-2d02-4aa3-a486-def732b79d4d","system_id":"levelo_inurba_marseille","lat":43.299724,"lon":5.384848,"is_reserved":false,"is_disabled":false,"rental_uris":{"android":"levelo://app?vid=f964abaa-2d02-4aa3-a486-def732b79d4d","ios":"levelo://app?vid=f964abaa-2d02-4aa3-a486-def732b79d4d"},"vehicle_type_id":"4","last_reported":1721074113,"current_range_meters":5200,"station_id":"ce4bgj92rcd13ifvqbd0","pricing_plan_id":"cebpf4jnsgd1na2vs0mg"},{"bike_id":"230a70be-b802-4bcd-9db2-e66e0f280fc2","system_id":"levelo_inurba_marseille","lat":43.299707,"lon":5.384859,"is_reserved":false,"is_disabled":false,"rental_uris":{"android":"levelo://app?vid=230a70be-b802-4bcd-9db2-e66e0f280fc2","ios":"levelo://app?vid=230a70be-b802-4bcd-9db2-e66e0f280fc2"},"vehicle_type_id":"4","last_reported":1721074113,"current_range_meters":22800,"station_id":"ce4bgj92rcd13ifvqbd0","pricing_plan_id":"cebpf4jnsgd1na2vs0mg"},{"bike_id":"2f653058-2a2b-4002-8df7-c60174c5f8bd","system_id":"levelo_inurba_marseille","lat":43.299707,"lon":5.384859,"is_reserved":false,"is_disabled":false,"rental_uris":{"android":"levelo://app?vid=2f653058-2a2b-4002-8df7-c60174c5f8bd","ios":"levelo://app?vid=2f653058-2a2b-4002-8df7-c60174c5f8bd"},"vehicle_type_id":"4","last_reported":1721074113,"current_range_meters":24000,"station_id":"ce4bgj92rcd13ifvqbd0","pricing_plan_id":"cebpf4jnsgd1na2vs0mg"},{"bike_id":"239e0100-b84f-4d5b-85c7-945abfb4d8fa","system_id":"levelo_inurba_marseille","lat":43.29553,"lon":5.37723,"is_reserved":false,"is_disabled":false,"rental_uris":{"android":"levelo://app?vid=239e0100-b84f-4d5b-85c7-945abfb4d8fa","ios":"levelo://app?vid=239e0100-b84f-4d5b-85c7-945abfb4d8fa"},"vehicle_type_id":"4","last_reported":1721074113,"current_range_meters":9200,"station_id":"","pricing_plan_id":"cebpf4jnsgd1na2vs0mg"},{"bike_id":"029479a2-28a6-4196-9f4a-a27ec0084406","system_id":"levelo_inurba_marseille","lat":43.30147,"lon":5.38772,"is_reserved":false,"is_disabled":false,"rental_uris":{"android":"levelo://app?vid=029479a2-28a6-4196-9f4a-a27ec0084406","ios":"levelo://app?vid=029479a2-28a6-4196-9f4a-a27ec0084406"},"vehicle_type_id":"4","last_reported":1721074113,"current_range_meters":1600,"station_id":"ce4bghh2rcd13ifvqb60","pricing_plan_id":"cebpf4jnsgd1na2vs0mg"},{"bike_id":"80ba26cf-91f2-464f-bef1-d86f6701ed70","system_id":"levelo_inurba_marseille","lat":43.30129,"lon":5.387577,"is_reserved":false,"is_disabled":false,"rental_uris":{"android":"levelo://app?vid=80ba26cf-91f2-464f-bef1-d86f6701ed70","ios":"levelo://app?vid=80ba26cf-91f2-464f-bef1-d86f6701ed70"},"vehicle_type_id":"4","last_reported":1721074113,"current_range_meters":6000,"station_id":"ce4bghh2rcd13ifvqb60","pricing_plan_id":"cebpf4jnsgd1na2vs0mg"},{"bike_id":"a764d75b-df36-4516-8469-72101a7fa54f","system_id":"levelo_inurba_marseille","lat":43.301396,"lon":5.387812,"is_reserved":false,"is_disabled":false,"rental_uris":{"android":"levelo://app?vid=a764d75b-df36-4516-8469-72101a7fa54f","ios":"levelo://app?vid=a764d75b-df36-4516-8469-72101a7fa54f"},"vehicle_type_id":"4","last_reported":1721074113,"current_range_meters":12800,"station_id":"ce4bghh2rcd13ifvqb60","pricing_plan_id":"cebpf4jnsgd1na2vs0mg"},{"bike_id":"4b467aa0-f889-4f79-8d4c-c8ba12af7445","system_id":"levelo_inurba_marseille","lat":43.301396,"lon":5.387812,"is_reserved":false,"is_disabled":false,"rental_uris":{"android":"levelo://app?vid=4b467aa0-f889-4f79-8d4c-c8ba12af7445","ios":"levelo://app?vid=4b467aa0-f889-4f79-8d4c-c8ba12af7445"},"vehicle_type_id":"4","last_reported":1721074113,"current_range_meters":12400,"station_id":"ce4bghh2rcd13ifvqb60","pricing_plan_id":"cebpf4jnsgd1na2vs0mg"},{"bike_id":"ab3cf203-eb7b-48c3-b075-c0bc13884b8d","system_id":"levelo_inurba_marseille","lat":43.32367,"lon":5.388836,"is_reserved":false,"is_disabled":false,"rental_uris":{"android":"levelo://app?vid=ab3cf203-eb7b-48c3-b075-c0bc13884b8d","ios":"levelo://app?vid=ab3cf203-eb7b-48c3-b075-c0bc13884b8d"},"vehicle_type_id":"4","last_reported":1721074113,"current_range_meters":0,"station_id":"ce4bhqp2rcd13ifvqhog","pricing_plan_id":"cebpf4jnsgd1na2vs0mg"},{"bike_id":"e8821af3-2a8a-4cb4-9023-d8b1baec4205","system_id":"levelo_inurba_marseille","lat":43.32367,"lon":5.388836,"is_reserved":false,"is_disabled":false,"rental_uris":{"android":"levelo://app?vid=e8821af3-2a8a-4cb4-9023-d8b1baec4205","ios":"levelo://app?vid=e8821af3-2a8a-4cb4-9023-d8b1baec4205"},"vehicle_type_id":"4","last_reported":1721074113,"current_range_meters":16400,"station_id":"ce4bhqp2rcd13ifvqhog","pricing_plan_id":"cebpf4jnsgd1na2vs0mg"},{"bike_id":"5c9b01f0-c1b8-4b27-80b8-458985651a8e","system_id":"levelo_inurba_marseille","lat":43.29602,"lon":5.381084,"is_reserved":false,"is_disabled":false,"rental_uris":{"android":"levelo://app?vid=5c9b01f0-c1b8-4b27-80b8-458985651a8e","ios":"levelo://app?vid=5c9b01f0-c1b8-4b27-80b8-458985651a8e"},"vehicle_type_id":"4","last_reported":1721074113,"current_range_meters":17600,"station_id":"ce4bgl12rcd13ifvqbo0","pricing_plan_id":"cebpf4jnsgd1na2vs0mg"},{"bike_id":"f37bb57c-419b-4fcc-b942-ce79d94ea092","system_id":"levelo_inurba_marseille","lat":43.29601,"lon":5.381084,"is_reserved":false,"is_disabled":false,"rental_uris":{"android":"levelo://app?vid=f37bb57c-419b-4fcc-b942-ce79d94ea092","ios":"levelo://app?vid=f37bb57c-419b-4fcc-b942-ce79d94ea092"},"vehicle_type_id":"4","last_reported":1721074113,"current_range_meters":28000,"station_id":"ce4bgl12rcd13ifvqbo0","pricing_plan_id":"cebpf4jnsgd1na2vs0mg"},{"bike_id":"76fd6694-5f9b-4a06-a9db-6ad2092cd4d4","system_id":"levelo_inurba_marseille","lat":43.29596,"lon":5.38093,"is_reserved":false,"is_disabled":false,"rental_uris":{"android":"levelo://app?vid=76fd6694-5f9b-4a06-a9db-6ad2092cd4d4","ios":"levelo://app?vid=76fd6694-5f9b-4a06-a9db-6ad2092cd4d4"},"vehicle_type_id":"4","last_reported":1721074113,"current_range_meters":25600,"station_id":"ce4bgl12rcd13ifvqbo0","pricing_plan_id":"cebpf4jnsgd1na2vs0mg"},{"bike_id":"3cd6e2ab-e2de-4a02-a7b7-2897e7811270","system_id":"levelo_inurba_marseille","lat":43.29597,"lon":5.38097,"is_reserved":false,"is_disabled":false,"rental_uris":{"android":"levelo://app?vid=3cd6e2ab-e2de-4a02-a7b7-2897e7811270","ios":"levelo://app?vid=3cd6e2ab-e2de-4a02-a7b7-2897e7811270"},"vehicle_type_id":"4","last_reported":1721074113,"current_range_meters":18400,"station_id":"ce4bgl12rcd13ifvqbo0","pricing_plan_id":"cebpf4jnsgd1na2vs0mg"},{"bike_id":"c7784db3-0fee-4cb4-b070-c63474e8990c","system_id":"levelo_inurba_marseille","lat":43.29601,"lon":5.381084,"is_reserved":false,"is_disabled":false,"rental_uris":{"android":"levelo://app?vid=c7784db3-0fee-4cb4-b070-c63474e8990c","ios":"levelo://app?vid=c7784db3-0fee-4cb4-b070-c63474e8990c"},"vehicle_type_id":"4","last_reported":1721074113,"current_range_meters":14400,"station_id":"ce4bgl12rcd13ifvqbo0","pricing_plan_id":"cebpf4jnsgd1na2vs0mg"},{"bike_id":"32e81398-02fb-452e-818f-e67eb3911d03","system_id":"levelo_inurba_marseille","lat":43.29309,"lon":5.37163,"is_reserved":false,"is_disabled":false,"rental_uris":{"android":"levelo://app?vid=32e81398-02fb-452e-818f-e67eb3911d03","ios":"levelo://app?vid=32e81398-02fb-452e-818f-e67eb3911d03"},"vehicle_type_id":"4","last_reported":1721074113,"current_range_meters":30800,"station_id":"ce4bgh92rcd13ifvqb40","pricing_plan_id":"cebpf4jnsgd1na2vs0mg"},{"bike_id":"d9780313-0bfd-4cd2-a89b-60dd0b331737","system_id":"levelo_inurba_marseille","lat":43.29305,"lon":5.371733,"is_reserved":false,"is_disabled":false,"rental_uris":{"android":"levelo://app?vid=d9780313-0bfd-4cd2-a89b-60dd0b331737","ios":"levelo://app?vid=d9780313-0bfd-4cd2-a89b-60dd0b331737"},"vehicle_type_id":"4","last_reported":1721074113,"current_range_meters":6000,"station_id":"ce4bgh92rcd13ifvqb40","pricing_plan_id":"cebpf4jnsgd1na2vs0mg"},{"bike_id":"5b92a6e5-996d-462b-af6c-e258051b837a","system_id":"levelo_inurba_marseille","lat":43.29303,"lon":5.371705,"is_reserved":false,"is_disabled":false,"rental_uris":{"android":"levelo://app?vid=5b92a6e5-996d-462b-af6c-e258051b837a","ios":"levelo://app?vid=5b92a6e5-996d-462b-af6c-e258051b837a"},"vehicle_type_id":"4","last_reported":1721074113,"current_range_meters":30800,"station_id":"ce4bgh92rcd13ifvqb40","pricing_plan_id":"cebpf4jnsgd1na2vs0mg"},{"bike_id":"130d2ac2-c5c0-411d-82de-975fac595298","system_id":"levelo_inurba_marseille","lat":43.293249,"lon":5.371578,"is_reserved":false,"is_disabled":false,"rental_uris":{"android":"levelo://app?vid=130d2ac2-c5c0-411d-82de-975fac595298","ios":"levelo://app?vid=130d2ac2-c5c0-411d-82de-975fac595298"},"vehicle_type_id":"4","last_reported":1721074113,"current_range_meters":11600,"station_id":"ce4bgh92rcd13ifvqb40","pricing_plan_id":"cebpf4jnsgd1na2vs0mg"},{"bike_id":"30b09c92-b2a4-4da2-b078-5a2f73b2fa3e","system_id":"levelo_inurba_marseille","lat":43.292749,"lon":5.368398,"is_reserved":false,"is_disabled":false,"rental_uris":{"android":"levelo://app?vid=30b09c92-b2a4-4da2-b078-5a2f73b2fa3e","ios":"levelo://app?vid=30b09c92-b2a4-4da2-b078-5a2f73b2fa3e"},"vehicle_type_id":"4","last_reported":1721074113,"current_range_meters":31200,"station_id":"ce4bhbp2rcd13ifvqesg","pricing_plan_id":"cebpf4jnsgd1na2vs0mg"},{"bike_id":"d451669e-8cf6-410f-9b4a-1ac8ac4abc04","system_id":"levelo_inurba_marseille","lat":43.29267,"lon":5.36849,"is_reserved":false,"is_disabled":false,"rental_uris":{"android":"levelo://app?vid=d451669e-8cf6-410f-9b4a-1ac8ac4abc04","ios":"levelo://app?vid=d451669e-8cf6-410f-9b4a-1ac8ac4abc04"},"vehicle_type_id":"4","last_reported":1721074113,"current_range_meters":0,"station_id":"ce4bhbp2rcd13ifvqesg","pricing_plan_id":"cebpf4jnsgd1na2vs0mg"},{"bike_id":"e0cab2a2-3219-4679-a98c-69bf962c7061","system_id":"levelo_inurba_marseille","lat":43.29304,"lon":5.3745,"is_reserved":false,"is_disabled":false,"rental_uris":{"android":"levelo://app?vid=e0cab2a2-3219-4679-a98c-69bf962c7061","ios":"levelo://app?vid=e0cab2a2-3219-4679-a98c-69bf962c7061"},"vehicle_type_id":"4","last_reported":1721074113,"current_range_meters":31200,"station_id":"ce4bgi12rcd13ifvqb70","pricing_plan_id":"cebpf4jnsgd1na2vs0mg"},{"bike_id":"17f9aa60-e7b9-4fd2-9fc1-560b524f76c8","system_id":"levelo_inurba_marseille","lat":43.293009,"lon":5.374584,"is_reserved":false,"is_disabled":false,"rental_uris":{"android":"levelo://app?vid=17f9aa60-e7b9-4fd2-9fc1-560b524f76c8","ios":"levelo://app?vid=17f9aa60-e7b9-4fd2-9fc1-560b524f76c8"},"vehicle_type_id":"4","last_reported":1721074113,"current_range_meters":13600,"station_id":"ce4bgi12rcd13ifvqb70","pricing_plan_id":"cebpf4jnsgd1na2vs0mg"},{"bike_id":"d28b1918-e34b-4ff9-bae8-77ffd4af424d","system_id":"levelo_inurba_marseille","lat":43.305994,"lon":5.393687,"is_reserved":false,"is_disabled":false,"rental_uris":{"android":"levelo://app?vid=d28b1918-e34b-4ff9-bae8-77ffd4af424d","ios":"levelo://app?vid=d28b1918-e34b-4ff9-bae8-77ffd4af424d"},"vehicle_type_id":"4","last_reported":1721074113,"current_range_meters":12000,"station_id":"ce4bh0p2rcd13ifvqd80","pricing_plan_id":"cebpf4jnsgd1na2vs0mg"},{"bike_id":"faaeaa3d-03e2-4561-9bc6-e538bdb4e9b9","system_id":"levelo_inurba_marseille","lat":43.29295,"lon":5.37445,"is_reserved":false,"is_disabled":false,"rental_uris":{"android":"levelo://app?vid=faaeaa3d-03e2-4561-9bc6-e538bdb4e9b9","ios":"levelo://app?vid=faaeaa3d-03e2-4561-9bc6-e538bdb4e9b9"},"vehicle_type_id":"4","last_reported":1721074113,"current_range_meters":0,"station_id":"ce4bgi12rcd13ifvqb70","pricing_plan_id":"cebpf4jnsgd1na2vs0mg"},{"bike_id":"8264099d-ebb6-49e9-a3dc-960c6c0bf0fe","system_id":"levelo_inurba_marseille","lat":43.30585,"lon":5.39352,"is_reserved":false,"is_disabled":false,"rental_uris":{"android":"levelo://app?vid=8264099d-ebb6-49e9-a3dc-960c6c0bf0fe","ios":"levelo://app?vid=8264099d-ebb6-49e9-a3dc-960c6c0bf0fe"},"vehicle_type_id":"4","last_reported":1721074113,"current_range_meters":0,"station_id":"ce4bh0p2rcd13ifvqd80","pricing_plan_id":"cebpf4jnsgd1na2vs0mg"},{"bike_id":"90f13771-412d-4b94-aa55-3facf0fb1fd0","system_id":"levelo_inurba_marseille","lat":43.293009,"lon":5.374584,"is_reserved":false,"is_disabled":false,"rental_uris":{"android":"levelo://app?vid=90f13771-412d-4b94-aa55-3facf0fb1fd0","ios":"levelo://app?vid=90f13771-412d-4b94-aa55-3facf0fb1fd0"},"vehicle_type_id":"4","last_reported":1721074113,"current_range_meters":16000,"station_id":"ce4bgi12rcd13ifvqb70","pricing_plan_id":"cebpf4jnsgd1na2vs0mg"},{"bike_id":"403f123f-060f-4544-ae91-2661da307c0c","system_id":"levelo_inurba_marseille","lat":43.293783,"lon":5.378677,"is_reserved":false,"is_disabled":false,"rental_uris":{"android":"levelo://app?vid=403f123f-060f-4544-ae91-2661da307c0c","ios":"levelo://app?vid=403f123f-060f-4544-ae91-2661da307c0c"},"vehicle_type_id":"4","last_reported":1721074113,"current_range_meters":0,"station_id":"ce4bgjh2rcd13ifvqbf0","pricing_plan_id":"cebpf4jnsgd1na2vs0mg"},{"bike_id":"9f99eb6f-2ef9-4a58-b21a-cc13f62c9125","system_id":"levelo_inurba_marseille","lat":43.2936,"lon":5.37835,"is_reserved":false,"is_disabled":false,"rental_uris":{"android":"levelo://app?vid=9f99eb6f-2ef9-4a58-b21a-cc13f62c9125","ios":"levelo://app?vid=9f99eb6f-2ef9-4a58-b21a-cc13f62c9125"},"vehicle_type_id":"4","last_reported":1721074113,"current_range_meters":1200,"station_id":"ce4bgjh2rcd13ifvqbf0","pricing_plan_id":"cebpf4jnsgd1na2vs0mg"},{"bike_id":"1f580630-281f-4934-88e6-2a0d48fa364f","system_id":"levelo_inurba_marseille","lat":43.30085,"lon":5.390856,"is_reserved":false,"is_disabled":false,"rental_uris":{"android":"levelo://app?vid=1f580630-281f-4934-88e6-2a0d48fa364f","ios":"levelo://app?vid=1f580630-281f-4934-88e6-2a0d48fa364f"},"vehicle_type_id":"4","last_reported":1721074113,"current_range_meters":12400,"station_id":"ce4bh192rcd13ifvqdb0","pricing_plan_id":"cebpf4jnsgd1na2vs0mg"},{"bike_id":"085f9c36-1ac9-4a06-affb-d65bc38a8659","system_id":"levelo_inurba_marseille","lat":43.30085,"lon":5.390856,"is_reserved":false,"is_disabled":false,"rental_uris":{"android":"levelo://app?vid=085f9c36-1ac9-4a06-affb-d65bc38a8659","ios":"levelo://app?vid=085f9c36-1ac9-4a06-affb-d65bc38a8659"},"vehicle_type_id":"4","last_reported":1721074113,"current_range_meters":0,"station_id":"ce4bh192rcd13ifvqdb0","pricing_plan_id":"cebpf4jnsgd1na2vs0mg"},{"bike_id":"51a82716-5dcb-4c8b-92e4-5b2b6e57ab10","system_id":"levelo_inurba_marseille","lat":43.30085,"lon":5.390856,"is_reserved":false,"is_disabled":false,"rental_uris":{"android":"levelo://app?vid=51a82716-5dcb-4c8b-92e4-5b2b6e57ab10","ios":"levelo://app?vid=51a82716-5dcb-4c8b-92e4-5b2b6e57ab10"},"vehicle_type_id":"4","last_reported":1721074113,"current_range_meters":20800,"station_id":"ce4bh192rcd13ifvqdb0","pricing_plan_id":"cebpf4jnsgd1na2vs0mg"},{"bike_id":"4ee40e9b-da08-42cd-a0c6-83c44f786af0","system_id":"levelo_inurba_marseille","lat":43.29883,"lon":5.38905,"is_reserved":false,"is_disabled":false,"rental_uris":{"android":"levelo://app?vid=4ee40e9b-da08-42cd-a0c6-83c44f786af0","ios":"levelo://app?vid=4ee40e9b-da08-42cd-a0c6-83c44f786af0"},"vehicle_type_id":"4","last_reported":1721074113,"current_range_meters":19600,"station_id":"ce4bh392rcd13ifvqdl0","pricing_plan_id":"cebpf4jnsgd1na2vs0mg"},{"bike_id":"82ea9f53-f26a-454f-b3ce-17de07e73321","system_id":"levelo_inurba_marseille","lat":43.298764,"lon":5.388973,"is_reserved":false,"is_disabled":false,"rental_uris":{"android":"levelo://app?vid=82ea9f53-f26a-454f-b3ce-17de07e73321","ios":"levelo://app?vid=82ea9f53-f26a-454f-b3ce-17de07e73321"},"vehicle_type_id":"4","last_reported":1721074113,"current_range_meters":24400,"station_id":"ce4bh392rcd13ifvqdl0","pricing_plan_id":"cebpf4jnsgd1na2vs0mg"},{"bike_id":"76ea6fa6-fb7c-49f0-8b4a-78cbf519ffa5","system_id":"levelo_inurba_marseille","lat":43.298764,"lon":5.388973,"is_reserved":false,"is_disabled":false,"rental_uris":{"android":"levelo://app?vid=76ea6fa6-fb7c-49f0-8b4a-78cbf519ffa5","ios":"levelo://app?vid=76ea6fa6-fb7c-49f0-8b4a-78cbf519ffa5"},"vehicle_type_id":"4","last_reported":1721074113,"current_range_meters":20400,"station_id":"ce4bh392rcd13ifvqdl0","pricing_plan_id":"cebpf4jnsgd1na2vs0mg"},{"bike_id":"ee80424d-b40c-41ee-a8f5-f1ffdcdc04ae","system_id":"levelo_inurba_marseille","lat":43.298764,"lon":5.388973,"is_reserved":false,"is_disabled":false,"rental_uris":{"android":"levelo://app?vid=ee80424d-b40c-41ee-a8f5-f1ffdcdc04ae","ios":"levelo://app?vid=ee80424d-b40c-41ee-a8f5-f1ffdcdc04ae"},"vehicle_type_id":"4","last_reported":1721074113,"current_range_meters":31200,"station_id":"ce4bh392rcd13ifvqdl0","pricing_plan_id":"cebpf4jnsgd1na2vs0mg"},{"bike_id":"a0b488c2-f971-4005-a530-89995babc176","system_id":"levelo_inurba_marseille","lat":43.298764,"lon":5.388973,"is_reserved":false,"is_disabled":false,"rental_uris":{"android":"levelo://app?vid=a0b488c2-f971-4005-a530-89995babc176","ios":"levelo://app?vid=a0b488c2-f971-4005-a530-89995babc176"},"vehicle_type_id":"4","last_reported":1721074113,"current_range_meters":16400,"station_id":"ce4bh392rcd13ifvqdl0","pricing_plan_id":"cebpf4jnsgd1na2vs0mg"},{"bike_id":"46c519c9-2059-40c6-a6ad-183b0ab60fba","system_id":"levelo_inurba_marseille","lat":43.298764,"lon":5.388973,"is_reserved":false,"is_disabled":false,"rental_uris":{"android":"levelo://app?vid=46c519c9-2059-40c6-a6ad-183b0ab60fba","ios":"levelo://app?vid=46c519c9-2059-40c6-a6ad-183b0ab60fba"},"vehicle_type_id":"4","last_reported":1721074113,"current_range_meters":27200,"station_id":"ce4bh392rcd13ifvqdl0","pricing_plan_id":"cebpf4jnsgd1na2vs0mg"},{"bike_id":"6a43d500-5805-4c4d-a71a-aba69d423610","system_id":"levelo_inurba_marseille","lat":43.29875,"lon":5.38932,"is_reserved":false,"is_disabled":false,"rental_uris":{"android":"levelo://app?vid=6a43d500-5805-4c4d-a71a-aba69d423610","ios":"levelo://app?vid=6a43d500-5805-4c4d-a71a-aba69d423610"},"vehicle_type_id":"4","last_reported":1721074113,"current_range_meters":29600,"station_id":"ce4bh392rcd13ifvqdl0","pricing_plan_id":"cebpf4jnsgd1na2vs0mg"},{"bike_id":"a3a47243-4ef4-46b0-8921-95997402e462","system_id":"levelo_inurba_marseille","lat":43.292034,"lon":5.358147,"is_reserved":false,"is_disabled":false,"rental_uris":{"android":"levelo://app?vid=a3a47243-4ef4-46b0-8921-95997402e462","ios":"levelo://app?vid=a3a47243-4ef4-46b0-8921-95997402e462"},"vehicle_type_id":"4","last_reported":1721074113,"current_range_meters":0,"station_id":"","pricing_plan_id":"cebpf4jnsgd1na2vs0mg"},{"bike_id":"6af4ba2e-26aa-4e2c-93e0-1d6c5e19fe75","system_id":"levelo_inurba_marseille","lat":43.292005,"lon":5.357875,"is_reserved":false,"is_disabled":false,"rental_uris":{"android":"levelo://app?vid=6af4ba2e-26aa-4e2c-93e0-1d6c5e19fe75","ios":"levelo://app?vid=6af4ba2e-26aa-4e2c-93e0-1d6c5e19fe75"},"vehicle_type_id":"4","last_reported":1721074113,"current_range_meters":0,"station_id":"ce4bhb12rcd13ifvqel0","pricing_plan_id":"cebpf4jnsgd1na2vs0mg"},{"bike_id":"3ef0969b-cd86-4b96-b3c5-4eb5976fb878","system_id":"levelo_inurba_marseille","lat":43.313291,"lon":5.396838,"is_reserved":false,"is_disabled":false,"rental_uris":{"android":"levelo://app?vid=3ef0969b-cd86-4b96-b3c5-4eb5976fb878","ios":"levelo://app?vid=3ef0969b-cd86-4b96-b3c5-4eb5976fb878"},"vehicle_type_id":"4","last_reported":1721074113,"current_range_meters":18000,"station_id":"ce4bgvp2rcd13ifvqcu0","pricing_plan_id":"cebpf4jnsgd1na2vs0mg"},{"bike_id":"97608309-b225-4239-b711-401e3304d8d3","system_id":"levelo_inurba_marseille","lat":43.313291,"lon":5.396838,"is_reserved":false,"is_disabled":false,"rental_uris":{"android":"levelo://app?vid=97608309-b225-4239-b711-401e3304d8d3","ios":"levelo://app?vid=97608309-b225-4239-b711-401e3304d8d3"},"vehicle_type_id":"4","last_reported":1721074113,"current_range_meters":18800,"station_id":"ce4bgvp2rcd13ifvqcu0","pricing_plan_id":"cebpf4jnsgd1na2vs0mg"},{"bike_id":"57b7f5e7-7c2d-40ba-a688-4624d77c7bed","system_id":"levelo_inurba_marseille","lat":43.313291,"lon":5.396838,"is_reserved":false,"is_disabled":false,"rental_uris":{"android":"levelo://app?vid=57b7f5e7-7c2d-40ba-a688-4624d77c7bed","ios":"levelo://app?vid=57b7f5e7-7c2d-40ba-a688-4624d77c7bed"},"vehicle_type_id":"4","last_reported":1721074113,"current_range_meters":0,"station_id":"ce4bgvp2rcd13ifvqcu0","pricing_plan_id":"cebpf4jnsgd1na2vs0mg"},{"bike_id":"1b991b1a-888c-4fcf-bb18-ddca30d642e7","system_id":"levelo_inurba_marseille","lat":43.313291,"lon":5.396838,"is_reserved":false,"is_disabled":false,"rental_uris":{"android":"levelo://app?vid=1b991b1a-888c-4fcf-bb18-ddca30d642e7","ios":"levelo://app?vid=1b991b1a-888c-4fcf-bb18-ddca30d642e7"},"vehicle_type_id":"4","last_reported":1721074113,"current_range_meters":3200,"station_id":"ce4bgvp2rcd13ifvqcu0","pricing_plan_id":"cebpf4jnsgd1na2vs0mg"},{"bike_id":"33855639-b5be-4d71-b9d0-9fad2b51f405","system_id":"levelo_inurba_marseille","lat":43.313291,"lon":5.396838,"is_reserved":false,"is_disabled":false,"rental_uris":{"android":"levelo://app?vid=33855639-b5be-4d71-b9d0-9fad2b51f405","ios":"levelo://app?vid=33855639-b5be-4d71-b9d0-9fad2b51f405"},"vehicle_type_id":"4","last_reported":1721074113,"current_range_meters":18400,"station_id":"ce4bgvp2rcd13ifvqcu0","pricing_plan_id":"cebpf4jnsgd1na2vs0mg"},{"bike_id":"f4cb58ef-b92c-4b77-9265-d854d1ac1c15","system_id":"levelo_inurba_marseille","lat":43.309047,"lon":5.396551,"is_reserved":false,"is_disabled":false,"rental_uris":{"android":"levelo://app?vid=f4cb58ef-b92c-4b77-9265-d854d1ac1c15","ios":"levelo://app?vid=f4cb58ef-b92c-4b77-9265-d854d1ac1c15"},"vehicle_type_id":"4","last_reported":1721074113,"current_range_meters":30800,"station_id":"ce4bh012rcd13ifvqcv0","pricing_plan_id":"cebpf4jnsgd1na2vs0mg"},{"bike_id":"bfabd9d4-9dbf-49f1-b31d-143a21fd61d7","system_id":"levelo_inurba_marseille","lat":43.308894,"lon":5.396542,"is_reserved":false,"is_disabled":false,"rental_uris":{"android":"levelo://app?vid=bfabd9d4-9dbf-49f1-b31d-143a21fd61d7","ios":"levelo://app?vid=bfabd9d4-9dbf-49f1-b31d-143a21fd61d7"},"vehicle_type_id":"4","last_reported":1721074113,"current_range_meters":400,"station_id":"ce4bh012rcd13ifvqcv0","pricing_plan_id":"cebpf4jnsgd1na2vs0mg"},{"bike_id":"41b4acab-80cd-4dfb-92a9-5697cac792b4","system_id":"levelo_inurba_marseille","lat":43.29529,"lon":5.385581,"is_reserved":false,"is_disabled":false,"rental_uris":{"android":"levelo://app?vid=41b4acab-80cd-4dfb-92a9-5697cac792b4","ios":"levelo://app?vid=41b4acab-80cd-4dfb-92a9-5697cac792b4"},"vehicle_type_id":"4","last_reported":1721074113,"current_range_meters":8800,"station_id":"ce4bgih2rcd13ifvqba0","pricing_plan_id":"cebpf4jnsgd1na2vs0mg"},{"bike_id":"104a4ac4-6c08-4caf-816d-3c4e1693364b","system_id":"levelo_inurba_marseille","lat":43.309047,"lon":5.396551,"is_reserved":false,"is_disabled":false,"rental_uris":{"android":"levelo://app?vid=104a4ac4-6c08-4caf-816d-3c4e1693364b","ios":"levelo://app?vid=104a4ac4-6c08-4caf-816d-3c4e1693364b"},"vehicle_type_id":"4","last_reported":1721074113,"current_range_meters":3200,"station_id":"ce4bh012rcd13ifvqcv0","pricing_plan_id":"cebpf4jnsgd1na2vs0mg"},{"bike_id":"8817e3f3-13f0-4fbe-94bc-7802815fb25d","system_id":"levelo_inurba_marseille","lat":43.29529,"lon":5.385581,"is_reserved":false,"is_disabled":false,"rental_uris":{"android":"levelo://app?vid=8817e3f3-13f0-4fbe-94bc-7802815fb25d","ios":"levelo://app?vid=8817e3f3-13f0-4fbe-94bc-7802815fb25d"},"vehicle_type_id":"4","last_reported":1721074113,"current_range_meters":30400,"station_id":"ce4bgih2rcd13ifvqba0","pricing_plan_id":"cebpf4jnsgd1na2vs0mg"},{"bike_id":"e9503f6d-1037-4f2d-aef8-89c0a7b0866b","system_id":"levelo_inurba_marseille","lat":43.29529,"lon":5.385581,"is_reserved":false,"is_disabled":false,"rental_uris":{"android":"levelo://app?vid=e9503f6d-1037-4f2d-aef8-89c0a7b0866b","ios":"levelo://app?vid=e9503f6d-1037-4f2d-aef8-89c0a7b0866b"},"vehicle_type_id":"4","last_reported":1721074113,"current_range_meters":15600,"station_id":"ce4bgih2rcd13ifvqba0","pricing_plan_id":"cebpf4jnsgd1na2vs0mg"},{"bike_id":"315814a1-6bb2-494d-befe-814b9cd93406","system_id":"levelo_inurba_marseille","lat":43.29529,"lon":5.385581,"is_reserved":false,"is_disabled":false,"rental_uris":{"android":"levelo://app?vid=315814a1-6bb2-494d-befe-814b9cd93406","ios":"levelo://app?vid=315814a1-6bb2-494d-befe-814b9cd93406"},"vehicle_type_id":"4","last_reported":1721074113,"current_range_meters":22400,"station_id":"ce4bgih2rcd13ifvqba0","pricing_plan_id":"cebpf4jnsgd1na2vs0mg"},{"bike_id":"5bf12592-adba-4840-86cb-41205857a36e","system_id":"levelo_inurba_marseille","lat":43.29529,"lon":5.385581,"is_reserved":false,"is_disabled":false,"rental_uris":{"android":"levelo://app?vid=5bf12592-adba-4840-86cb-41205857a36e","ios":"levelo://app?vid=5bf12592-adba-4840-86cb-41205857a36e"},"vehicle_type_id":"4","last_reported":1721074113,"current_range_meters":15200,"station_id":"ce4bgih2rcd13ifvqba0","pricing_plan_id":"cebpf4jnsgd1na2vs0mg"},{"bike_id":"2eb75c92-c566-44d9-9416-08cc4779a2da","system_id":"levelo_inurba_marseille","lat":43.29529,"lon":5.385581,"is_reserved":false,"is_disabled":false,"rental_uris":{"android":"levelo://app?vid=2eb75c92-c566-44d9-9416-08cc4779a2da","ios":"levelo://app?vid=2eb75c92-c566-44d9-9416-08cc4779a2da"},"vehicle_type_id":"4","last_reported":1721074113,"current_range_meters":25600,"station_id":"ce4bgih2rcd13ifvqba0","pricing_plan_id":"cebpf4jnsgd1na2vs0mg"},{"bike_id":"148c33d6-3524-4bf4-a96f-d49bf84763cc","system_id":"levelo_inurba_marseille","lat":43.29529,"lon":5.385581,"is_reserved":false,"is_disabled":false,"rental_uris":{"android":"levelo://app?vid=148c33d6-3524-4bf4-a96f-d49bf84763cc","ios":"levelo://app?vid=148c33d6-3524-4bf4-a96f-d49bf84763cc"},"vehicle_type_id":"4","last_reported":1721074113,"current_range_meters":26000,"station_id":"ce4bgih2rcd13ifvqba0","pricing_plan_id":"cebpf4jnsgd1na2vs0mg"},{"bike_id":"192f1001-cab0-4e82-998e-bb85d687d03e","system_id":"levelo_inurba_marseille","lat":43.29529,"lon":5.385581,"is_reserved":false,"is_disabled":false,"rental_uris":{"android":"levelo://app?vid=192f1001-cab0-4e82-998e-bb85d687d03e","ios":"levelo://app?vid=192f1001-cab0-4e82-998e-bb85d687d03e"},"vehicle_type_id":"4","last_reported":1721074113,"current_range_meters":24400,"station_id":"ce4bgih2rcd13ifvqba0","pricing_plan_id":"cebpf4jnsgd1na2vs0mg"},{"bike_id":"f1bf2e2e-7a02-410d-bece-2c81f74959c6","system_id":"levelo_inurba_marseille","lat":43.29529,"lon":5.385581,"is_reserved":false,"is_disabled":false,"rental_uris":{"android":"levelo://app?vid=f1bf2e2e-7a02-410d-bece-2c81f74959c6","ios":"levelo://app?vid=f1bf2e2e-7a02-410d-bece-2c81f74959c6"},"vehicle_type_id":"4","last_reported":1721074113,"current_range_meters":31600,"station_id":"ce4bgih2rcd13ifvqba0","pricing_plan_id":"cebpf4jnsgd1na2vs0mg"},{"bike_id":"7fe6df6b-45c7-492d-a9ce-534a27c23c0f","system_id":"levelo_inurba_marseille","lat":43.29522,"lon":5.38533,"is_reserved":false,"is_disabled":false,"rental_uris":{"android":"levelo://app?vid=7fe6df6b-45c7-492d-a9ce-534a27c23c0f","ios":"levelo://app?vid=7fe6df6b-45c7-492d-a9ce-534a27c23c0f"},"vehicle_type_id":"4","last_reported":1721074113,"current_range_meters":24000,"station_id":"ce4bgih2rcd13ifvqba0","pricing_plan_id":"cebpf4jnsgd1na2vs0mg"},{"bike_id":"65d33814-3c2a-45fa-8dbc-7b1c4fd8f239","system_id":"levelo_inurba_marseille","lat":43.29529,"lon":5.385581,"is_reserved":false,"is_disabled":false,"rental_uris":{"android":"levelo://app?vid=65d33814-3c2a-45fa-8dbc-7b1c4fd8f239","ios":"levelo://app?vid=65d33814-3c2a-45fa-8dbc-7b1c4fd8f239"},"vehicle_type_id":"4","last_reported":1721074113,"current_range_meters":14800,"station_id":"ce4bgih2rcd13ifvqba0","pricing_plan_id":"cebpf4jnsgd1na2vs0mg"},{"bike_id":"e116751d-ea78-4d11-80b1-4af55842fe70","system_id":"levelo_inurba_marseille","lat":43.29529,"lon":5.385581,"is_reserved":false,"is_disabled":false,"rental_uris":{"android":"levelo://app?vid=e116751d-ea78-4d11-80b1-4af55842fe70","ios":"levelo://app?vid=e116751d-ea78-4d11-80b1-4af55842fe70"},"vehicle_type_id":"4","last_reported":1721074113,"current_range_meters":12000,"station_id":"ce4bgih2rcd13ifvqba0","pricing_plan_id":"cebpf4jnsgd1na2vs0mg"},{"bike_id":"feeed9a0-810e-4903-8537-c069eb064158","system_id":"levelo_inurba_marseille","lat":43.31677,"lon":5.39694,"is_reserved":false,"is_disabled":false,"rental_uris":{"android":"levelo://app?vid=feeed9a0-810e-4903-8537-c069eb064158","ios":"levelo://app?vid=feeed9a0-810e-4903-8537-c069eb064158"},"vehicle_type_id":"4","last_reported":1721074113,"current_range_meters":0,"station_id":"","pricing_plan_id":"cebpf4jnsgd1na2vs0mg"},{"bike_id":"32bdb6cb-bb18-44ac-8688-42f475042edf","system_id":"levelo_inurba_marseille","lat":43.290779,"lon":5.371482,"is_reserved":false,"is_disabled":false,"rental_uris":{"android":"levelo://app?vid=32bdb6cb-bb18-44ac-8688-42f475042edf","ios":"levelo://app?vid=32bdb6cb-bb18-44ac-8688-42f475042edf"},"vehicle_type_id":"4","last_reported":1721074113,"current_range_meters":26000,"station_id":"ce4bh5p2rcd13ifvqe4g","pricing_plan_id":"cebpf4jnsgd1na2vs0mg"},{"bike_id":"dd9585df-a533-4457-9c30-46954e2ab6a1","system_id":"levelo_inurba_marseille","lat":43.29062,"lon":5.37159,"is_reserved":false,"is_disabled":false,"rental_uris":{"android":"levelo://app?vid=dd9585df-a533-4457-9c30-46954e2ab6a1","ios":"levelo://app?vid=dd9585df-a533-4457-9c30-46954e2ab6a1"},"vehicle_type_id":"4","last_reported":1721074113,"current_range_meters":0,"station_id":"ce4bh5p2rcd13ifvqe4g","pricing_plan_id":"cebpf4jnsgd1na2vs0mg"},{"bike_id":"858f51fb-7b45-4442-b20d-74613212bc2f","system_id":"levelo_inurba_marseille","lat":43.294153,"lon":5.386305,"is_reserved":false,"is_disabled":false,"rental_uris":{"android":"levelo://app?vid=858f51fb-7b45-4442-b20d-74613212bc2f","ios":"levelo://app?vid=858f51fb-7b45-4442-b20d-74613212bc2f"},"vehicle_type_id":"4","last_reported":1721074113,"current_range_meters":4000,"station_id":"ce4bh2h2rcd13ifvqdh0","pricing_plan_id":"cebpf4jnsgd1na2vs0mg"},{"bike_id":"4a552d50-a543-42ca-9c0b-776ebb1b5d4c","system_id":"levelo_inurba_marseille","lat":43.302008,"lon":5.394694,"is_reserved":false,"is_disabled":false,"rental_uris":{"android":"levelo://app?vid=4a552d50-a543-42ca-9c0b-776ebb1b5d4c","ios":"levelo://app?vid=4a552d50-a543-42ca-9c0b-776ebb1b5d4c"},"vehicle_type_id":"4","last_reported":1721074113,"current_range_meters":7600,"station_id":"ce4bh0p2rcd13ifvqd70","pricing_plan_id":"cebpf4jnsgd1na2vs0mg"},{"bike_id":"66462007-a92a-4488-ad89-82d751d333eb","system_id":"levelo_inurba_marseille","lat":43.302008,"lon":5.394694,"is_reserved":false,"is_disabled":false,"rental_uris":{"android":"levelo://app?vid=66462007-a92a-4488-ad89-82d751d333eb","ios":"levelo://app?vid=66462007-a92a-4488-ad89-82d751d333eb"},"vehicle_type_id":"4","last_reported":1721074113,"current_range_meters":27200,"station_id":"ce4bh0p2rcd13ifvqd70","pricing_plan_id":"cebpf4jnsgd1na2vs0mg"},{"bike_id":"d1834e08-a01a-404e-8d3a-05f5c48c1598","system_id":"levelo_inurba_marseille","lat":43.309038,"lon":5.396546,"is_reserved":false,"is_disabled":false,"rental_uris":{"android":"levelo://app?vid=d1834e08-a01a-404e-8d3a-05f5c48c1598","ios":"levelo://app?vid=d1834e08-a01a-404e-8d3a-05f5c48c1598"},"vehicle_type_id":"4","last_reported":1721074113,"current_range_meters":2800,"station_id":"ce4bh012rcd13ifvqcv0","pricing_plan_id":"cebpf4jnsgd1na2vs0mg"},{"bike_id":"1e172c8a-6c2c-4cd0-9dbd-42fa4e45be33","system_id":"levelo_inurba_marseille","lat":43.302008,"lon":5.394694,"is_reserved":false,"is_disabled":false,"rental_uris":{"android":"levelo://app?vid=1e172c8a-6c2c-4cd0-9dbd-42fa4e45be33","ios":"levelo://app?vid=1e172c8a-6c2c-4cd0-9dbd-42fa4e45be33"},"vehicle_type_id":"4","last_reported":1721074113,"current_range_meters":8000,"station_id":"ce4bh0p2rcd13ifvqd70","pricing_plan_id":"cebpf4jnsgd1na2vs0mg"},{"bike_id":"ca63e9fc-ed7b-4f36-9ef6-20c18fcef669","system_id":"levelo_inurba_marseille","lat":43.290407,"lon":5.35912,"is_reserved":false,"is_disabled":false,"rental_uris":{"android":"levelo://app?vid=ca63e9fc-ed7b-4f36-9ef6-20c18fcef669","ios":"levelo://app?vid=ca63e9fc-ed7b-4f36-9ef6-20c18fcef669"},"vehicle_type_id":"4","last_reported":1721074113,"current_range_meters":0,"station_id":"ce4bha92rcd13ifvqeg0","pricing_plan_id":"cebpf4jnsgd1na2vs0mg"},{"bike_id":"b96c0846-13f8-447c-8daa-da0fe1f32ef4","system_id":"levelo_inurba_marseille","lat":43.294153,"lon":5.386305,"is_reserved":false,"is_disabled":false,"rental_uris":{"android":"levelo://app?vid=b96c0846-13f8-447c-8daa-da0fe1f32ef4","ios":"levelo://app?vid=b96c0846-13f8-447c-8daa-da0fe1f32ef4"},"vehicle_type_id":"4","last_reported":1721074113,"current_range_meters":6000,"station_id":"ce4bh2h2rcd13ifvqdh0","pricing_plan_id":"cebpf4jnsgd1na2vs0mg"},{"bike_id":"225d43dc-a740-4a83-9468-48aa32eabfb0","system_id":"levelo_inurba_marseille","lat":43.294162,"lon":5.386292,"is_reserved":false,"is_disabled":false,"rental_uris":{"android":"levelo://app?vid=225d43dc-a740-4a83-9468-48aa32eabfb0","ios":"levelo://app?vid=225d43dc-a740-4a83-9468-48aa32eabfb0"},"vehicle_type_id":"4","last_reported":1721074113,"current_range_meters":1200,"station_id":"ce4bh2h2rcd13ifvqdh0","pricing_plan_id":"cebpf4jnsgd1na2vs0mg"},{"bike_id":"3a7daf3e-55c4-408e-bef2-f24bf6e1679c","system_id":"levelo_inurba_marseille","lat":43.2942,"lon":5.38627,"is_reserved":false,"is_disabled":false,"rental_uris":{"android":"levelo://app?vid=3a7daf3e-55c4-408e-bef2-f24bf6e1679c","ios":"levelo://app?vid=3a7daf3e-55c4-408e-bef2-f24bf6e1679c"},"vehicle_type_id":"4","last_reported":1721074113,"current_range_meters":24400,"station_id":"ce4bh2h2rcd13ifvqdh0","pricing_plan_id":"cebpf4jnsgd1na2vs0mg"},{"bike_id":"89a77794-5826-492c-ac6d-ab7bf78abf84","system_id":"levelo_inurba_marseille","lat":43.294153,"lon":5.386305,"is_reserved":false,"is_disabled":false,"rental_uris":{"android":"levelo://app?vid=89a77794-5826-492c-ac6d-ab7bf78abf84","ios":"levelo://app?vid=89a77794-5826-492c-ac6d-ab7bf78abf84"},"vehicle_type_id":"4","last_reported":1721074113,"current_range_meters":17200,"station_id":"ce4bh2h2rcd13ifvqdh0","pricing_plan_id":"cebpf4jnsgd1na2vs0mg"},{"bike_id":"6d81243a-d667-4bcc-8b02-aed90bee92d4","system_id":"levelo_inurba_marseille","lat":43.294162,"lon":5.386292,"is_reserved":false,"is_disabled":false,"rental_uris":{"android":"levelo://app?vid=6d81243a-d667-4bcc-8b02-aed90bee92d4","ios":"levelo://app?vid=6d81243a-d667-4bcc-8b02-aed90bee92d4"},"vehicle_type_id":"4","last_reported":1721074113,"current_range_meters":4400,"station_id":"ce4bh2h2rcd13ifvqdh0","pricing_plan_id":"cebpf4jnsgd1na2vs0mg"},{"bike_id":"e08b99e8-72b0-404c-8991-b8600c665aee","system_id":"levelo_inurba_marseille","lat":43.294162,"lon":5.386292,"is_reserved":false,"is_disabled":false,"rental_uris":{"android":"levelo://app?vid=e08b99e8-72b0-404c-8991-b8600c665aee","ios":"levelo://app?vid=e08b99e8-72b0-404c-8991-b8600c665aee"},"vehicle_type_id":"4","last_reported":1721074113,"current_range_meters":14000,"station_id":"ce4bh2h2rcd13ifvqdh0","pricing_plan_id":"cebpf4jnsgd1na2vs0mg"},{"bike_id":"787d103a-ac2d-41f5-b92b-7996e1fd3cf0","system_id":"levelo_inurba_marseille","lat":43.294162,"lon":5.386292,"is_reserved":false,"is_disabled":false,"rental_uris":{"android":"levelo://app?vid=787d103a-ac2d-41f5-b92b-7996e1fd3cf0","ios":"levelo://app?vid=787d103a-ac2d-41f5-b92b-7996e1fd3cf0"},"vehicle_type_id":"4","last_reported":1721074113,"current_range_meters":3200,"station_id":"ce4bh2h2rcd13ifvqdh0","pricing_plan_id":"cebpf4jnsgd1na2vs0mg"},{"bike_id":"58ea41af-4106-45f7-8d00-f9cccd4f2be6","system_id":"levelo_inurba_marseille","lat":43.294153,"lon":5.386305,"is_reserved":false,"is_disabled":false,"rental_uris":{"android":"levelo://app?vid=58ea41af-4106-45f7-8d00-f9cccd4f2be6","ios":"levelo://app?vid=58ea41af-4106-45f7-8d00-f9cccd4f2be6"},"vehicle_type_id":"4","last_reported":1721074113,"current_range_meters":11200,"station_id":"ce4bh2h2rcd13ifvqdh0","pricing_plan_id":"cebpf4jnsgd1na2vs0mg"},{"bike_id":"e52b70f7-aec2-4044-bdfa-4ceb6a66b96a","system_id":"levelo_inurba_marseille","lat":43.294162,"lon":5.386292,"is_reserved":false,"is_disabled":false,"rental_uris":{"android":"levelo://app?vid=e52b70f7-aec2-4044-bdfa-4ceb6a66b96a","ios":"levelo://app?vid=e52b70f7-aec2-4044-bdfa-4ceb6a66b96a"},"vehicle_type_id":"4","last_reported":1721074113,"current_range_meters":11200,"station_id":"ce4bh2h2rcd13ifvqdh0","pricing_plan_id":"cebpf4jnsgd1na2vs0mg"},{"bike_id":"03e0faa7-4f35-4abd-978b-5917242638a7","system_id":"levelo_inurba_marseille","lat":43.294162,"lon":5.386292,"is_reserved":false,"is_disabled":false,"rental_uris":{"android":"levelo://app?vid=03e0faa7-4f35-4abd-978b-5917242638a7","ios":"levelo://app?vid=03e0faa7-4f35-4abd-978b-5917242638a7"},"vehicle_type_id":"4","last_reported":1721074113,"current_range_meters":3600,"station_id":"ce4bh2h2rcd13ifvqdh0","pricing_plan_id":"cebpf4jnsgd1na2vs0mg"},{"bike_id":"e7170a40-ff69-4fac-be60-f407749d9165","system_id":"levelo_inurba_marseille","lat":43.294162,"lon":5.386292,"is_reserved":false,"is_disabled":false,"rental_uris":{"android":"levelo://app?vid=e7170a40-ff69-4fac-be60-f407749d9165","ios":"levelo://app?vid=e7170a40-ff69-4fac-be60-f407749d9165"},"vehicle_type_id":"4","last_reported":1721074113,"current_range_meters":6800,"station_id":"ce4bh2h2rcd13ifvqdh0","pricing_plan_id":"cebpf4jnsgd1na2vs0mg"},{"bike_id":"cceb5e1e-d5ad-4d27-8862-f52962bbbdab","system_id":"levelo_inurba_marseille","lat":43.294162,"lon":5.386292,"is_reserved":false,"is_disabled":false,"rental_uris":{"android":"levelo://app?vid=cceb5e1e-d5ad-4d27-8862-f52962bbbdab","ios":"levelo://app?vid=cceb5e1e-d5ad-4d27-8862-f52962bbbdab"},"vehicle_type_id":"4","last_reported":1721074113,"current_range_meters":14400,"station_id":"ce4bh2h2rcd13ifvqdh0","pricing_plan_id":"cebpf4jnsgd1na2vs0mg"},{"bike_id":"c53bafd8-489c-4eb7-bebc-704f5efb2e48","system_id":"levelo_inurba_marseille","lat":43.294162,"lon":5.386292,"is_reserved":false,"is_disabled":false,"rental_uris":{"android":"levelo://app?vid=c53bafd8-489c-4eb7-bebc-704f5efb2e48","ios":"levelo://app?vid=c53bafd8-489c-4eb7-bebc-704f5efb2e48"},"vehicle_type_id":"4","last_reported":1721074113,"current_range_meters":10800,"station_id":"ce4bh2h2rcd13ifvqdh0","pricing_plan_id":"cebpf4jnsgd1na2vs0mg"},{"bike_id":"160e58f7-8518-4bf7-aec2-fd4993234a4a","system_id":"levelo_inurba_marseille","lat":43.289184,"lon":5.366408,"is_reserved":false,"is_disabled":false,"rental_uris":{"android":"levelo://app?vid=160e58f7-8518-4bf7-aec2-fd4993234a4a","ios":"levelo://app?vid=160e58f7-8518-4bf7-aec2-fd4993234a4a"},"vehicle_type_id":"4","last_reported":1721074113,"current_range_meters":0,"station_id":"ce4bhap2rcd13ifvqek0","pricing_plan_id":"cebpf4jnsgd1na2vs0mg"},{"bike_id":"8f3eb3ef-1066-4afb-a600-f2857cf45452","system_id":"levelo_inurba_marseille","lat":43.289184,"lon":5.366408,"is_reserved":false,"is_disabled":false,"rental_uris":{"android":"levelo://app?vid=8f3eb3ef-1066-4afb-a600-f2857cf45452","ios":"levelo://app?vid=8f3eb3ef-1066-4afb-a600-f2857cf45452"},"vehicle_type_id":"4","last_reported":1721074113,"current_range_meters":5200,"station_id":"ce4bhap2rcd13ifvqek0","pricing_plan_id":"cebpf4jnsgd1na2vs0mg"},{"bike_id":"424b3acc-da18-44ee-9c18-66f7a025d8db","system_id":"levelo_inurba_marseille","lat":43.289184,"lon":5.366408,"is_reserved":false,"is_disabled":false,"rental_uris":{"android":"levelo://app?vid=424b3acc-da18-44ee-9c18-66f7a025d8db","ios":"levelo://app?vid=424b3acc-da18-44ee-9c18-66f7a025d8db"},"vehicle_type_id":"4","last_reported":1721074113,"current_range_meters":21200,"station_id":"ce4bhap2rcd13ifvqek0","pricing_plan_id":"cebpf4jnsgd1na2vs0mg"},{"bike_id":"8b4770b7-d05f-47e0-a738-229847dbd22d","system_id":"levelo_inurba_marseille","lat":43.304274,"lon":5.397513,"is_reserved":false,"is_disabled":false,"rental_uris":{"android":"levelo://app?vid=8b4770b7-d05f-47e0-a738-229847dbd22d","ios":"levelo://app?vid=8b4770b7-d05f-47e0-a738-229847dbd22d"},"vehicle_type_id":"4","last_reported":1721074113,"current_range_meters":28000,"station_id":"ce4bh092rcd13ifvqd20","pricing_plan_id":"cebpf4jnsgd1na2vs0mg"},{"bike_id":"df900cae-5033-4dd6-90cd-1914658ee34e","system_id":"levelo_inurba_marseille","lat":43.292644,"lon":5.384257,"is_reserved":false,"is_disabled":false,"rental_uris":{"android":"levelo://app?vid=df900cae-5033-4dd6-90cd-1914658ee34e","ios":"levelo://app?vid=df900cae-5033-4dd6-90cd-1914658ee34e"},"vehicle_type_id":"4","last_reported":1721074113,"current_range_meters":0,"station_id":"ce4bh692rcd13ifvqea0","pricing_plan_id":"cebpf4jnsgd1na2vs0mg"},{"bike_id":"af97d958-0e9e-4bdc-8631-9fd7380e1123","system_id":"levelo_inurba_marseille","lat":43.29261,"lon":5.38444,"is_reserved":false,"is_disabled":false,"rental_uris":{"android":"levelo://app?vid=af97d958-0e9e-4bdc-8631-9fd7380e1123","ios":"levelo://app?vid=af97d958-0e9e-4bdc-8631-9fd7380e1123"},"vehicle_type_id":"4","last_reported":1721074113,"current_range_meters":28800,"station_id":"ce4bh692rcd13ifvqea0","pricing_plan_id":"cebpf4jnsgd1na2vs0mg"},{"bike_id":"a1f0b456-a71f-497d-8654-c84298ff2f52","system_id":"levelo_inurba_marseille","lat":43.292644,"lon":5.384257,"is_reserved":false,"is_disabled":false,"rental_uris":{"android":"levelo://app?vid=a1f0b456-a71f-497d-8654-c84298ff2f52","ios":"levelo://app?vid=a1f0b456-a71f-497d-8654-c84298ff2f52"},"vehicle_type_id":"4","last_reported":1721074113,"current_range_meters":30400,"station_id":"ce4bh692rcd13ifvqea0","pricing_plan_id":"cebpf4jnsgd1na2vs0mg"},{"bike_id":"3c6e3b64-0052-416f-8b2a-698ac0ebb04e","system_id":"levelo_inurba_marseille","lat":43.29258,"lon":5.38445,"is_reserved":false,"is_disabled":false,"rental_uris":{"android":"levelo://app?vid=3c6e3b64-0052-416f-8b2a-698ac0ebb04e","ios":"levelo://app?vid=3c6e3b64-0052-416f-8b2a-698ac0ebb04e"},"vehicle_type_id":"4","last_reported":1721074113,"current_range_meters":11600,"station_id":"ce4bh692rcd13ifvqea0","pricing_plan_id":"cebpf4jnsgd1na2vs0mg"},{"bike_id":"ac5dca3b-9b66-4205-be1d-df893111e3cf","system_id":"levelo_inurba_marseille","lat":43.294153,"lon":5.386305,"is_reserved":false,"is_disabled":false,"rental_uris":{"android":"levelo://app?vid=ac5dca3b-9b66-4205-be1d-df893111e3cf","ios":"levelo://app?vid=ac5dca3b-9b66-4205-be1d-df893111e3cf"},"vehicle_type_id":"4","last_reported":1721074113,"current_range_meters":0,"station_id":"ce4bh2h2rcd13ifvqdh0","pricing_plan_id":"cebpf4jnsgd1na2vs0mg"},{"bike_id":"0278b4a3-34ce-4168-98ef-7884125fe4a5","system_id":"levelo_inurba_marseille","lat":43.290104,"lon":5.356111,"is_reserved":false,"is_disabled":false,"rental_uris":{"android":"levelo://app?vid=0278b4a3-34ce-4168-98ef-7884125fe4a5","ios":"levelo://app?vid=0278b4a3-34ce-4168-98ef-7884125fe4a5"},"vehicle_type_id":"4","last_reported":1721074113,"current_range_meters":0,"station_id":"ce4bhb92rcd13ifvqen0","pricing_plan_id":"cebpf4jnsgd1na2vs0mg"},{"bike_id":"ccdf1162-c19c-474a-98a2-05bbc5980572","system_id":"levelo_inurba_marseille","lat":43.28998,"lon":5.35612,"is_reserved":false,"is_disabled":false,"rental_uris":{"android":"levelo://app?vid=ccdf1162-c19c-474a-98a2-05bbc5980572","ios":"levelo://app?vid=ccdf1162-c19c-474a-98a2-05bbc5980572"},"vehicle_type_id":"4","last_reported":1721074113,"current_range_meters":0,"station_id":"ce4bhb92rcd13ifvqen0","pricing_plan_id":"cebpf4jnsgd1na2vs0mg"},{"bike_id":"6e644ebe-a593-4fa9-aa32-ad05970d520b","system_id":"levelo_inurba_marseille","lat":43.290995,"lon":5.381361,"is_reserved":false,"is_disabled":false,"rental_uris":{"android":"levelo://app?vid=6e644ebe-a593-4fa9-aa32-ad05970d520b","ios":"levelo://app?vid=6e644ebe-a593-4fa9-aa32-ad05970d520b"},"vehicle_type_id":"4","last_reported":1721074113,"current_range_meters":27200,"station_id":"ce4bh512rcd13ifvqe2g","pricing_plan_id":"cebpf4jnsgd1na2vs0mg"},{"bike_id":"e7fef1e7-2bfc-454a-b00d-88199670dcf5","system_id":"levelo_inurba_marseille","lat":43.290995,"lon":5.381361,"is_reserved":false,"is_disabled":false,"rental_uris":{"android":"levelo://app?vid=e7fef1e7-2bfc-454a-b00d-88199670dcf5","ios":"levelo://app?vid=e7fef1e7-2bfc-454a-b00d-88199670dcf5"},"vehicle_type_id":"4","last_reported":1721074113,"current_range_meters":2800,"station_id":"ce4bh512rcd13ifvqe2g","pricing_plan_id":"cebpf4jnsgd1na2vs0mg"},{"bike_id":"20f49cb5-d29e-45d1-b1d5-892d7c461379","system_id":"levelo_inurba_marseille","lat":43.330442,"lon":5.389148,"is_reserved":false,"is_disabled":false,"rental_uris":{"android":"levelo://app?vid=20f49cb5-d29e-45d1-b1d5-892d7c461379","ios":"levelo://app?vid=20f49cb5-d29e-45d1-b1d5-892d7c461379"},"vehicle_type_id":"4","last_reported":1721074113,"current_range_meters":3200,"station_id":"ce4bhr92rcd13ifvqhrg","pricing_plan_id":"cebpf4jnsgd1na2vs0mg"},{"bike_id":"f5d32696-034c-48f1-b64a-4d96d2992822","system_id":"levelo_inurba_marseille","lat":43.330442,"lon":5.389148,"is_reserved":false,"is_disabled":false,"rental_uris":{"android":"levelo://app?vid=f5d32696-034c-48f1-b64a-4d96d2992822","ios":"levelo://app?vid=f5d32696-034c-48f1-b64a-4d96d2992822"},"vehicle_type_id":"4","last_reported":1721074113,"current_range_meters":14400,"station_id":"ce4bhr92rcd13ifvqhrg","pricing_plan_id":"cebpf4jnsgd1na2vs0mg"},{"bike_id":"8cc560fa-9017-4f2b-9cff-f8ef80b0174d","system_id":"levelo_inurba_marseille","lat":43.295169,"lon":5.390426,"is_reserved":false,"is_disabled":false,"rental_uris":{"android":"levelo://app?vid=8cc560fa-9017-4f2b-9cff-f8ef80b0174d","ios":"levelo://app?vid=8cc560fa-9017-4f2b-9cff-f8ef80b0174d"},"vehicle_type_id":"4","last_reported":1721074113,"current_range_meters":8400,"station_id":"ce4bh3p2rcd13ifvqdp0","pricing_plan_id":"cebpf4jnsgd1na2vs0mg"},{"bike_id":"bcb352fa-9409-4a46-959d-88a86b55ae74","system_id":"levelo_inurba_marseille","lat":43.297815,"lon":5.393548,"is_reserved":false,"is_disabled":false,"rental_uris":{"android":"levelo://app?vid=bcb352fa-9409-4a46-959d-88a86b55ae74","ios":"levelo://app?vid=bcb352fa-9409-4a46-959d-88a86b55ae74"},"vehicle_type_id":"4","last_reported":1721074113,"current_range_meters":5600,"station_id":"chh1huq6cuj3fo74tm60","pricing_plan_id":"cebpf4jnsgd1na2vs0mg"},{"bike_id":"21130598-87a4-41e1-aed4-deeb6f4f8ac0","system_id":"levelo_inurba_marseille","lat":43.28972,"lon":5.35486,"is_reserved":false,"is_disabled":false,"rental_uris":{"android":"levelo://app?vid=21130598-87a4-41e1-aed4-deeb6f4f8ac0","ios":"levelo://app?vid=21130598-87a4-41e1-aed4-deeb6f4f8ac0"},"vehicle_type_id":"4","last_reported":1721074113,"current_range_meters":4800,"station_id":"","pricing_plan_id":"cebpf4jnsgd1na2vs0mg"},{"bike_id":"3317ff75-fc15-4d22-98b9-0cb0b752d799","system_id":"levelo_inurba_marseille","lat":43.290336,"lon":5.386425,"is_reserved":false,"is_disabled":false,"rental_uris":{"android":"levelo://app?vid=3317ff75-fc15-4d22-98b9-0cb0b752d799","ios":"levelo://app?vid=3317ff75-fc15-4d22-98b9-0cb0b752d799"},"vehicle_type_id":"4","last_reported":1721074113,"current_range_meters":0,"station_id":"ce4bh4p2rcd13ifvqe0g","pricing_plan_id":"cebpf4jnsgd1na2vs0mg"},{"bike_id":"7678b28b-e3d6-4690-907a-4b5c17ac54b5","system_id":"levelo_inurba_marseille","lat":43.290094,"lon":5.381264,"is_reserved":false,"is_disabled":false,"rental_uris":{"android":"levelo://app?vid=7678b28b-e3d6-4690-907a-4b5c17ac54b5","ios":"levelo://app?vid=7678b28b-e3d6-4690-907a-4b5c17ac54b5"},"vehicle_type_id":"4","last_reported":1721074113,"current_range_meters":22800,"station_id":"ce4bh4p2rcd13ifvqe1g","pricing_plan_id":"cebpf4jnsgd1na2vs0mg"},{"bike_id":"e5f9b488-7ae3-4362-9941-63ecfec68cf1","system_id":"levelo_inurba_marseille","lat":43.289503,"lon":5.354842,"is_reserved":false,"is_disabled":false,"rental_uris":{"android":"levelo://app?vid=e5f9b488-7ae3-4362-9941-63ecfec68cf1","ios":"levelo://app?vid=e5f9b488-7ae3-4362-9941-63ecfec68cf1"},"vehicle_type_id":"4","last_reported":1721074113,"current_range_meters":1200,"station_id":"","pricing_plan_id":"cebpf4jnsgd1na2vs0mg"},{"bike_id":"58f2a1e1-9cf0-4f18-8781-74acea0445fa","system_id":"levelo_inurba_marseille","lat":43.290094,"lon":5.381264,"is_reserved":false,"is_disabled":false,"rental_uris":{"android":"levelo://app?vid=58f2a1e1-9cf0-4f18-8781-74acea0445fa","ios":"levelo://app?vid=58f2a1e1-9cf0-4f18-8781-74acea0445fa"},"vehicle_type_id":"4","last_reported":1721074113,"current_range_meters":13600,"station_id":"ce4bh4p2rcd13ifvqe1g","pricing_plan_id":"cebpf4jnsgd1na2vs0mg"},{"bike_id":"35e88524-89b7-4bf9-8e8c-c713ab400d19","system_id":"levelo_inurba_marseille","lat":43.288514,"lon":5.358983,"is_reserved":false,"is_disabled":false,"rental_uris":{"android":"levelo://app?vid=35e88524-89b7-4bf9-8e8c-c713ab400d19","ios":"levelo://app?vid=35e88524-89b7-4bf9-8e8c-c713ab400d19"},"vehicle_type_id":"4","last_reported":1721074113,"current_range_meters":0,"station_id":"","pricing_plan_id":"cebpf4jnsgd1na2vs0mg"},{"bike_id":"3284757a-bcb5-422a-8d8d-0b3d9e3ff058","system_id":"levelo_inurba_marseille","lat":43.28856,"lon":5.358371,"is_reserved":false,"is_disabled":false,"rental_uris":{"android":"levelo://app?vid=3284757a-bcb5-422a-8d8d-0b3d9e3ff058","ios":"levelo://app?vid=3284757a-bcb5-422a-8d8d-0b3d9e3ff058"},"vehicle_type_id":"4","last_reported":1721074113,"current_range_meters":12400,"station_id":"ce4bhb12rcd13ifvqem0","pricing_plan_id":"cebpf4jnsgd1na2vs0mg"},{"bike_id":"370c5d4f-4515-4751-be82-c944823fcea2","system_id":"levelo_inurba_marseille","lat":43.290094,"lon":5.381264,"is_reserved":false,"is_disabled":false,"rental_uris":{"android":"levelo://app?vid=370c5d4f-4515-4751-be82-c944823fcea2","ios":"levelo://app?vid=370c5d4f-4515-4751-be82-c944823fcea2"},"vehicle_type_id":"4","last_reported":1721074113,"current_range_meters":20000,"station_id":"ce4bh4p2rcd13ifvqe1g","pricing_plan_id":"cebpf4jnsgd1na2vs0mg"},{"bike_id":"9914eef7-07c1-4a97-8970-42425e588ffe","system_id":"levelo_inurba_marseille","lat":43.28856,"lon":5.358371,"is_reserved":false,"is_disabled":false,"rental_uris":{"android":"levelo://app?vid=9914eef7-07c1-4a97-8970-42425e588ffe","ios":"levelo://app?vid=9914eef7-07c1-4a97-8970-42425e588ffe"},"vehicle_type_id":"4","last_reported":1721074113,"current_range_meters":7600,"station_id":"ce4bhb12rcd13ifvqem0","pricing_plan_id":"cebpf4jnsgd1na2vs0mg"},{"bike_id":"2e9ee7e6-6318-4dfa-aacc-e91e1069fea7","system_id":"levelo_inurba_marseille","lat":43.309371,"lon":5.401449,"is_reserved":false,"is_disabled":false,"rental_uris":{"android":"levelo://app?vid=2e9ee7e6-6318-4dfa-aacc-e91e1069fea7","ios":"levelo://app?vid=2e9ee7e6-6318-4dfa-aacc-e91e1069fea7"},"vehicle_type_id":"4","last_reported":1721074113,"current_range_meters":6800,"station_id":"ce4bgvp2rcd13ifvqct0","pricing_plan_id":"cebpf4jnsgd1na2vs0mg"},{"bike_id":"cfe61a43-0df1-4431-aada-8ff434225586","system_id":"levelo_inurba_marseille","lat":43.312763,"lon":5.40161,"is_reserved":false,"is_disabled":false,"rental_uris":{"android":"levelo://app?vid=cfe61a43-0df1-4431-aada-8ff434225586","ios":"levelo://app?vid=cfe61a43-0df1-4431-aada-8ff434225586"},"vehicle_type_id":"4","last_reported":1721074113,"current_range_meters":6800,"station_id":"ce4bh092rcd13ifvqd30","pricing_plan_id":"cebpf4jnsgd1na2vs0mg"},{"bike_id":"14a2ccd3-51a3-44d4-8a38-da66449fe25f","system_id":"levelo_inurba_marseille","lat":43.287887,"lon":5.373733,"is_reserved":false,"is_disabled":false,"rental_uris":{"android":"levelo://app?vid=14a2ccd3-51a3-44d4-8a38-da66449fe25f","ios":"levelo://app?vid=14a2ccd3-51a3-44d4-8a38-da66449fe25f"},"vehicle_type_id":"4","last_reported":1721074113,"current_range_meters":24400,"station_id":"","pricing_plan_id":"cebpf4jnsgd1na2vs0mg"},{"bike_id":"2a308531-1388-41b0-85b9-f47f24abc394","system_id":"levelo_inurba_marseille","lat":43.309371,"lon":5.401449,"is_reserved":false,"is_disabled":false,"rental_uris":{"android":"levelo://app?vid=2a308531-1388-41b0-85b9-f47f24abc394","ios":"levelo://app?vid=2a308531-1388-41b0-85b9-f47f24abc394"},"vehicle_type_id":"4","last_reported":1721074113,"current_range_meters":0,"station_id":"ce4bgvp2rcd13ifvqct0","pricing_plan_id":"cebpf4jnsgd1na2vs0mg"},{"bike_id":"11e2a0c5-dab4-4134-ad65-c03b9bccd0e0","system_id":"levelo_inurba_marseille","lat":43.33749,"lon":5.37445,"is_reserved":false,"is_disabled":false,"rental_uris":{"android":"levelo://app?vid=11e2a0c5-dab4-4134-ad65-c03b9bccd0e0","ios":"levelo://app?vid=11e2a0c5-dab4-4134-ad65-c03b9bccd0e0"},"vehicle_type_id":"4","last_reported":1721074113,"current_range_meters":28000,"station_id":"","pricing_plan_id":"cebpf4jnsgd1na2vs0mg"},{"bike_id":"27e4e0ab-14eb-4133-a4f5-1192980fa738","system_id":"levelo_inurba_marseille","lat":43.306412,"lon":5.401035,"is_reserved":false,"is_disabled":false,"rental_uris":{"android":"levelo://app?vid=27e4e0ab-14eb-4133-a4f5-1192980fa738","ios":"levelo://app?vid=27e4e0ab-14eb-4133-a4f5-1192980fa738"},"vehicle_type_id":"4","last_reported":1721074113,"current_range_meters":400,"station_id":"ce4bh112rcd13ifvqda0","pricing_plan_id":"cebpf4jnsgd1na2vs0mg"},{"bike_id":"0a2824c8-ac13-4faa-8ef2-841deca62325","system_id":"levelo_inurba_marseille","lat":43.312609,"lon":5.401662,"is_reserved":false,"is_disabled":false,"rental_uris":{"android":"levelo://app?vid=0a2824c8-ac13-4faa-8ef2-841deca62325","ios":"levelo://app?vid=0a2824c8-ac13-4faa-8ef2-841deca62325"},"vehicle_type_id":"4","last_reported":1721074113,"current_range_meters":3600,"station_id":"ce4bh092rcd13ifvqd30","pricing_plan_id":"cebpf4jnsgd1na2vs0mg"},{"bike_id":"b8e3a504-91d6-4ecb-9dd7-42e03ebcc6c0","system_id":"levelo_inurba_marseille","lat":43.309371,"lon":5.401449,"is_reserved":false,"is_disabled":false,"rental_uris":{"android":"levelo://app?vid=b8e3a504-91d6-4ecb-9dd7-42e03ebcc6c0","ios":"levelo://app?vid=b8e3a504-91d6-4ecb-9dd7-42e03ebcc6c0"},"vehicle_type_id":"4","last_reported":1721074113,"current_range_meters":800,"station_id":"ce4bgvp2rcd13ifvqct0","pricing_plan_id":"cebpf4jnsgd1na2vs0mg"},{"bike_id":"f5d8e6ac-f588-4466-8c03-aafc9116d5fd","system_id":"levelo_inurba_marseille","lat":43.309371,"lon":5.401449,"is_reserved":false,"is_disabled":false,"rental_uris":{"android":"levelo://app?vid=f5d8e6ac-f588-4466-8c03-aafc9116d5fd","ios":"levelo://app?vid=f5d8e6ac-f588-4466-8c03-aafc9116d5fd"},"vehicle_type_id":"4","last_reported":1721074113,"current_range_meters":4800,"station_id":"ce4bgvp2rcd13ifvqct0","pricing_plan_id":"cebpf4jnsgd1na2vs0mg"},{"bike_id":"5e29faa5-737f-4677-875d-f28ec400b2e0","system_id":"levelo_inurba_marseille","lat":43.337481,"lon":5.37466,"is_reserved":false,"is_disabled":false,"rental_uris":{"android":"levelo://app?vid=5e29faa5-737f-4677-875d-f28ec400b2e0","ios":"levelo://app?vid=5e29faa5-737f-4677-875d-f28ec400b2e0"},"vehicle_type_id":"4","last_reported":1721074113,"current_range_meters":18400,"station_id":"","pricing_plan_id":"cebpf4jnsgd1na2vs0mg"},{"bike_id":"6c77b165-1ba8-4998-ac16-3bc7825d3340","system_id":"levelo_inurba_marseille","lat":43.309051,"lon":5.401462,"is_reserved":false,"is_disabled":false,"rental_uris":{"android":"levelo://app?vid=6c77b165-1ba8-4998-ac16-3bc7825d3340","ios":"levelo://app?vid=6c77b165-1ba8-4998-ac16-3bc7825d3340"},"vehicle_type_id":"4","last_reported":1721074113,"current_range_meters":23600,"station_id":"ce4bgvp2rcd13ifvqct0","pricing_plan_id":"cebpf4jnsgd1na2vs0mg"},{"bike_id":"bc181a61-1a7b-4496-ba49-e2799bac86fb","system_id":"levelo_inurba_marseille","lat":43.337657,"lon":5.374818,"is_reserved":false,"is_disabled":false,"rental_uris":{"android":"levelo://app?vid=bc181a61-1a7b-4496-ba49-e2799bac86fb","ios":"levelo://app?vid=bc181a61-1a7b-4496-ba49-e2799bac86fb"},"vehicle_type_id":"4","last_reported":1721074113,"current_range_meters":17200,"station_id":"","pricing_plan_id":"cebpf4jnsgd1na2vs0mg"},{"bike_id":"29f3be72-4b71-44e7-955f-08218a11160b","system_id":"levelo_inurba_marseille","lat":43.306412,"lon":5.401035,"is_reserved":false,"is_disabled":false,"rental_uris":{"android":"levelo://app?vid=29f3be72-4b71-44e7-955f-08218a11160b","ios":"levelo://app?vid=29f3be72-4b71-44e7-955f-08218a11160b"},"vehicle_type_id":"4","last_reported":1721074113,"current_range_meters":4800,"station_id":"ce4bh112rcd13ifvqda0","pricing_plan_id":"cebpf4jnsgd1na2vs0mg"},{"bike_id":"e4b8fc63-88a0-4c33-bb6d-47905c111da3","system_id":"levelo_inurba_marseille","lat":43.301117,"lon":5.398795,"is_reserved":false,"is_disabled":false,"rental_uris":{"android":"levelo://app?vid=e4b8fc63-88a0-4c33-bb6d-47905c111da3","ios":"levelo://app?vid=e4b8fc63-88a0-4c33-bb6d-47905c111da3"},"vehicle_type_id":"4","last_reported":1721074113,"current_range_meters":28000,"station_id":"ce4bh0h2rcd13ifvqd40","pricing_plan_id":"cebpf4jnsgd1na2vs0mg"},{"bike_id":"e71005c4-b193-4c68-a08a-43391ded7766","system_id":"levelo_inurba_marseille","lat":43.301341,"lon":5.398672,"is_reserved":false,"is_disabled":false,"rental_uris":{"android":"levelo://app?vid=e71005c4-b193-4c68-a08a-43391ded7766","ios":"levelo://app?vid=e71005c4-b193-4c68-a08a-43391ded7766"},"vehicle_type_id":"4","last_reported":1721074113,"current_range_meters":0,"station_id":"ce4bh0h2rcd13ifvqd40","pricing_plan_id":"cebpf4jnsgd1na2vs0mg"},{"bike_id":"b3ec606b-14b9-48b2-9cb8-23bf25e8344d","system_id":"levelo_inurba_marseille","lat":43.301117,"lon":5.398795,"is_reserved":false,"is_disabled":false,"rental_uris":{"android":"levelo://app?vid=b3ec606b-14b9-48b2-9cb8-23bf25e8344d","ios":"levelo://app?vid=b3ec606b-14b9-48b2-9cb8-23bf25e8344d"},"vehicle_type_id":"4","last_reported":1721074113,"current_range_meters":8800,"station_id":"ce4bh0h2rcd13ifvqd40","pricing_plan_id":"cebpf4jnsgd1na2vs0mg"},{"bike_id":"7a7f92c9-9d0a-4b34-8c02-cb04e0ea2d7f","system_id":"levelo_inurba_marseille","lat":43.28727,"lon":5.36078,"is_reserved":false,"is_disabled":false,"rental_uris":{"android":"levelo://app?vid=7a7f92c9-9d0a-4b34-8c02-cb04e0ea2d7f","ios":"levelo://app?vid=7a7f92c9-9d0a-4b34-8c02-cb04e0ea2d7f"},"vehicle_type_id":"4","last_reported":1721074113,"current_range_meters":4400,"station_id":"cki0cbj6b192h4jlfktg","pricing_plan_id":"cebpf4jnsgd1na2vs0mg"},{"bike_id":"848d4244-9224-4ae4-ac93-1f29d2d73cdb","system_id":"levelo_inurba_marseille","lat":43.286961,"lon":5.373785,"is_reserved":false,"is_disabled":false,"rental_uris":{"android":"levelo://app?vid=848d4244-9224-4ae4-ac93-1f29d2d73cdb","ios":"levelo://app?vid=848d4244-9224-4ae4-ac93-1f29d2d73cdb"},"vehicle_type_id":"4","last_reported":1721074113,"current_range_meters":8800,"station_id":"ce4bh3p2rcd13ifvqdq0","pricing_plan_id":"cebpf4jnsgd1na2vs0mg"},{"bike_id":"b7ab4045-6aab-4371-82f6-38388950d5a6","system_id":"levelo_inurba_marseille","lat":43.286961,"lon":5.373785,"is_reserved":false,"is_disabled":false,"rental_uris":{"android":"levelo://app?vid=b7ab4045-6aab-4371-82f6-38388950d5a6","ios":"levelo://app?vid=b7ab4045-6aab-4371-82f6-38388950d5a6"},"vehicle_type_id":"4","last_reported":1721074113,"current_range_meters":9200,"station_id":"ce4bh3p2rcd13ifvqdq0","pricing_plan_id":"cebpf4jnsgd1na2vs0mg"},{"bike_id":"d60c7ad8-801d-469b-8d2e-f013230bb958","system_id":"levelo_inurba_marseille","lat":43.28703,"lon":5.37382,"is_reserved":false,"is_disabled":false,"rental_uris":{"android":"levelo://app?vid=d60c7ad8-801d-469b-8d2e-f013230bb958","ios":"levelo://app?vid=d60c7ad8-801d-469b-8d2e-f013230bb958"},"vehicle_type_id":"4","last_reported":1721074113,"current_range_meters":12400,"station_id":"ce4bh3p2rcd13ifvqdq0","pricing_plan_id":"cebpf4jnsgd1na2vs0mg"},{"bike_id":"fc9e50e9-7207-4071-a467-94f18badf9fd","system_id":"levelo_inurba_marseille","lat":43.286961,"lon":5.373785,"is_reserved":false,"is_disabled":false,"rental_uris":{"android":"levelo://app?vid=fc9e50e9-7207-4071-a467-94f18badf9fd","ios":"levelo://app?vid=fc9e50e9-7207-4071-a467-94f18badf9fd"},"vehicle_type_id":"4","last_reported":1721074113,"current_range_meters":18400,"station_id":"ce4bh3p2rcd13ifvqdq0","pricing_plan_id":"cebpf4jnsgd1na2vs0mg"},{"bike_id":"1330440f-453d-4df4-9c7b-6b37e8069a67","system_id":"levelo_inurba_marseille","lat":43.289307,"lon":5.38406,"is_reserved":false,"is_disabled":false,"rental_uris":{"android":"levelo://app?vid=1330440f-453d-4df4-9c7b-6b37e8069a67","ios":"levelo://app?vid=1330440f-453d-4df4-9c7b-6b37e8069a67"},"vehicle_type_id":"4","last_reported":1721074113,"current_range_meters":5600,"station_id":"ce4bh612rcd13ifvqe6g","pricing_plan_id":"cebpf4jnsgd1na2vs0mg"},{"bike_id":"584fbf1d-5889-4e15-859c-842ae583f319","system_id":"levelo_inurba_marseille","lat":43.302477,"lon":5.40057,"is_reserved":false,"is_disabled":false,"rental_uris":{"android":"levelo://app?vid=584fbf1d-5889-4e15-859c-842ae583f319","ios":"levelo://app?vid=584fbf1d-5889-4e15-859c-842ae583f319"},"vehicle_type_id":"4","last_reported":1721074113,"current_range_meters":0,"station_id":"ce4bgvh2rcd13ifvqcs0","pricing_plan_id":"cebpf4jnsgd1na2vs0mg"},{"bike_id":"e8571763-4600-42d6-b3b2-5140cfcc27e9","system_id":"levelo_inurba_marseille","lat":43.289307,"lon":5.38406,"is_reserved":false,"is_disabled":false,"rental_uris":{"android":"levelo://app?vid=e8571763-4600-42d6-b3b2-5140cfcc27e9","ios":"levelo://app?vid=e8571763-4600-42d6-b3b2-5140cfcc27e9"},"vehicle_type_id":"4","last_reported":1721074113,"current_range_meters":11600,"station_id":"ce4bh612rcd13ifvqe6g","pricing_plan_id":"cebpf4jnsgd1na2vs0mg"},{"bike_id":"2535e72e-c38b-4b2b-95d9-5a59335888ce","system_id":"levelo_inurba_marseille","lat":43.302759,"lon":5.400793,"is_reserved":false,"is_disabled":false,"rental_uris":{"android":"levelo://app?vid=2535e72e-c38b-4b2b-95d9-5a59335888ce","ios":"levelo://app?vid=2535e72e-c38b-4b2b-95d9-5a59335888ce"},"vehicle_type_id":"4","last_reported":1721074113,"current_range_meters":10000,"station_id":"ce4bgvh2rcd13ifvqcs0","pricing_plan_id":"cebpf4jnsgd1na2vs0mg"},{"bike_id":"4dffad0e-3ac3-41bc-9ec5-88791c7ee470","system_id":"levelo_inurba_marseille","lat":43.290336,"lon":5.386425,"is_reserved":false,"is_disabled":false,"rental_uris":{"android":"levelo://app?vid=4dffad0e-3ac3-41bc-9ec5-88791c7ee470","ios":"levelo://app?vid=4dffad0e-3ac3-41bc-9ec5-88791c7ee470"},"vehicle_type_id":"4","last_reported":1721074113,"current_range_meters":18000,"station_id":"ce4bh4p2rcd13ifvqe0g","pricing_plan_id":"cebpf4jnsgd1na2vs0mg"},{"bike_id":"189e8105-a6a2-4782-89f9-710f1de9057d","system_id":"levelo_inurba_marseille","lat":43.290336,"lon":5.386425,"is_reserved":false,"is_disabled":false,"rental_uris":{"android":"levelo://app?vid=189e8105-a6a2-4782-89f9-710f1de9057d","ios":"levelo://app?vid=189e8105-a6a2-4782-89f9-710f1de9057d"},"vehicle_type_id":"4","last_reported":1721074113,"current_range_meters":2000,"station_id":"ce4bh4p2rcd13ifvqe0g","pricing_plan_id":"cebpf4jnsgd1na2vs0mg"},{"bike_id":"fc38c888-debe-47a8-a785-01a2fff9d3cb","system_id":"levelo_inurba_marseille","lat":43.289307,"lon":5.38406,"is_reserved":false,"is_disabled":false,"rental_uris":{"android":"levelo://app?vid=fc38c888-debe-47a8-a785-01a2fff9d3cb","ios":"levelo://app?vid=fc38c888-debe-47a8-a785-01a2fff9d3cb"},"vehicle_type_id":"4","last_reported":1721074113,"current_range_meters":5600,"station_id":"ce4bh612rcd13ifvqe6g","pricing_plan_id":"cebpf4jnsgd1na2vs0mg"},{"bike_id":"c6f8e3e8-6507-46a5-93d4-f8ed2b7e218d","system_id":"levelo_inurba_marseille","lat":43.2892,"lon":5.38397,"is_reserved":false,"is_disabled":false,"rental_uris":{"android":"levelo://app?vid=c6f8e3e8-6507-46a5-93d4-f8ed2b7e218d","ios":"levelo://app?vid=c6f8e3e8-6507-46a5-93d4-f8ed2b7e218d"},"vehicle_type_id":"4","last_reported":1721074113,"current_range_meters":28400,"station_id":"ce4bh612rcd13ifvqe6g","pricing_plan_id":"cebpf4jnsgd1na2vs0mg"},{"bike_id":"5ab7e91a-f9fb-4374-a476-d2fa1e0401a2","system_id":"levelo_inurba_marseille","lat":43.289218,"lon":5.384031,"is_reserved":false,"is_disabled":false,"rental_uris":{"android":"levelo://app?vid=5ab7e91a-f9fb-4374-a476-d2fa1e0401a2","ios":"levelo://app?vid=5ab7e91a-f9fb-4374-a476-d2fa1e0401a2"},"vehicle_type_id":"4","last_reported":1721074113,"current_range_meters":800,"station_id":"ce4bh612rcd13ifvqe6g","pricing_plan_id":"cebpf4jnsgd1na2vs0mg"},{"bike_id":"4d8681b5-5462-4289-9a2e-b0d5decba8c4","system_id":"levelo_inurba_marseille","lat":43.290336,"lon":5.386425,"is_reserved":false,"is_disabled":false,"rental_uris":{"android":"levelo://app?vid=4d8681b5-5462-4289-9a2e-b0d5decba8c4","ios":"levelo://app?vid=4d8681b5-5462-4289-9a2e-b0d5decba8c4"},"vehicle_type_id":"4","last_reported":1721074113,"current_range_meters":2000,"station_id":"ce4bh4p2rcd13ifvqe0g","pricing_plan_id":"cebpf4jnsgd1na2vs0mg"},{"bike_id":"b66f4938-bdee-4f33-99d2-fa87ce7ed73d","system_id":"levelo_inurba_marseille","lat":43.302759,"lon":5.400793,"is_reserved":false,"is_disabled":false,"rental_uris":{"android":"levelo://app?vid=b66f4938-bdee-4f33-99d2-fa87ce7ed73d","ios":"levelo://app?vid=b66f4938-bdee-4f33-99d2-fa87ce7ed73d"},"vehicle_type_id":"4","last_reported":1721074113,"current_range_meters":14000,"station_id":"ce4bgvh2rcd13ifvqcs0","pricing_plan_id":"cebpf4jnsgd1na2vs0mg"},{"bike_id":"50b4e874-b40d-4b56-9968-10160d8b8ae2","system_id":"levelo_inurba_marseille","lat":43.287184,"lon":5.37937,"is_reserved":false,"is_disabled":false,"rental_uris":{"android":"levelo://app?vid=50b4e874-b40d-4b56-9968-10160d8b8ae2","ios":"levelo://app?vid=50b4e874-b40d-4b56-9968-10160d8b8ae2"},"vehicle_type_id":"4","last_reported":1721074113,"current_range_meters":0,"station_id":"ce4bh9p2rcd13ifvqec0","pricing_plan_id":"cebpf4jnsgd1na2vs0mg"},{"bike_id":"e2158d79-0465-49c1-a851-1d96ff64f5ba","system_id":"levelo_inurba_marseille","lat":43.287184,"lon":5.37937,"is_reserved":false,"is_disabled":false,"rental_uris":{"android":"levelo://app?vid=e2158d79-0465-49c1-a851-1d96ff64f5ba","ios":"levelo://app?vid=e2158d79-0465-49c1-a851-1d96ff64f5ba"},"vehicle_type_id":"4","last_reported":1721074113,"current_range_meters":0,"station_id":"ce4bh9p2rcd13ifvqec0","pricing_plan_id":"cebpf4jnsgd1na2vs0mg"},{"bike_id":"5a1f68e9-8963-4c6c-aba2-fb02b6bc2931","system_id":"levelo_inurba_marseille","lat":43.287184,"lon":5.37937,"is_reserved":false,"is_disabled":false,"rental_uris":{"android":"levelo://app?vid=5a1f68e9-8963-4c6c-aba2-fb02b6bc2931","ios":"levelo://app?vid=5a1f68e9-8963-4c6c-aba2-fb02b6bc2931"},"vehicle_type_id":"4","last_reported":1721074113,"current_range_meters":13200,"station_id":"ce4bh9p2rcd13ifvqec0","pricing_plan_id":"cebpf4jnsgd1na2vs0mg"},{"bike_id":"05caed85-3523-43f3-8742-8182199ee2f8","system_id":"levelo_inurba_marseille","lat":43.287758,"lon":5.38242,"is_reserved":false,"is_disabled":false,"rental_uris":{"android":"levelo://app?vid=05caed85-3523-43f3-8742-8182199ee2f8","ios":"levelo://app?vid=05caed85-3523-43f3-8742-8182199ee2f8"},"vehicle_type_id":"4","last_reported":1721074113,"current_range_meters":0,"station_id":"","pricing_plan_id":"cebpf4jnsgd1na2vs0mg"},{"bike_id":"f6a05e35-b189-4d8e-8560-78d94b2160be","system_id":"levelo_inurba_marseille","lat":43.291994,"lon":5.392907,"is_reserved":false,"is_disabled":false,"rental_uris":{"android":"levelo://app?vid=f6a05e35-b189-4d8e-8560-78d94b2160be","ios":"levelo://app?vid=f6a05e35-b189-4d8e-8560-78d94b2160be"},"vehicle_type_id":"4","last_reported":1721074113,"current_range_meters":19600,"station_id":"ce4bh192rcd13ifvqdd0","pricing_plan_id":"cebpf4jnsgd1na2vs0mg"},{"bike_id":"90ee17e3-125c-463a-a75d-c1f00b3f9f9b","system_id":"levelo_inurba_marseille","lat":43.2919,"lon":5.39316,"is_reserved":false,"is_disabled":false,"rental_uris":{"android":"levelo://app?vid=90ee17e3-125c-463a-a75d-c1f00b3f9f9b","ios":"levelo://app?vid=90ee17e3-125c-463a-a75d-c1f00b3f9f9b"},"vehicle_type_id":"4","last_reported":1721074113,"current_range_meters":14400,"station_id":"ce4bh192rcd13ifvqdd0","pricing_plan_id":"cebpf4jnsgd1na2vs0mg"},{"bike_id":"d17b7126-89b6-4732-a3bc-b802b888c295","system_id":"levelo_inurba_marseille","lat":43.29189,"lon":5.39332,"is_reserved":false,"is_disabled":false,"rental_uris":{"android":"levelo://app?vid=d17b7126-89b6-4732-a3bc-b802b888c295","ios":"levelo://app?vid=d17b7126-89b6-4732-a3bc-b802b888c295"},"vehicle_type_id":"4","last_reported":1721074113,"current_range_meters":0,"station_id":"ce4bh192rcd13ifvqdd0","pricing_plan_id":"cebpf4jnsgd1na2vs0mg"},{"bike_id":"96022f58-2bc0-42d8-9f5c-2c005e2e9331","system_id":"levelo_inurba_marseille","lat":43.316828,"lon":5.404723,"is_reserved":false,"is_disabled":false,"rental_uris":{"android":"levelo://app?vid=96022f58-2bc0-42d8-9f5c-2c005e2e9331","ios":"levelo://app?vid=96022f58-2bc0-42d8-9f5c-2c005e2e9331"},"vehicle_type_id":"4","last_reported":1721074113,"current_range_meters":9600,"station_id":"ce4bh012rcd13ifvqd00","pricing_plan_id":"cebpf4jnsgd1na2vs0mg"},{"bike_id":"89a6c5ed-ef0c-41dd-a2a1-aae432531b98","system_id":"levelo_inurba_marseille","lat":43.284538,"lon":5.358657,"is_reserved":false,"is_disabled":false,"rental_uris":{"android":"levelo://app?vid=89a6c5ed-ef0c-41dd-a2a1-aae432531b98","ios":"levelo://app?vid=89a6c5ed-ef0c-41dd-a2a1-aae432531b98"},"vehicle_type_id":"4","last_reported":1721074113,"current_range_meters":28800,"station_id":"ce4bhah2rcd13ifvqei0","pricing_plan_id":"cebpf4jnsgd1na2vs0mg"},{"bike_id":"fcf574c8-991f-4e86-aa46-bbd53ebaf336","system_id":"levelo_inurba_marseille","lat":43.284538,"lon":5.358657,"is_reserved":false,"is_disabled":false,"rental_uris":{"android":"levelo://app?vid=fcf574c8-991f-4e86-aa46-bbd53ebaf336","ios":"levelo://app?vid=fcf574c8-991f-4e86-aa46-bbd53ebaf336"},"vehicle_type_id":"4","last_reported":1721074113,"current_range_meters":21600,"station_id":"ce4bhah2rcd13ifvqei0","pricing_plan_id":"cebpf4jnsgd1na2vs0mg"},{"bike_id":"c3f743f5-ac0e-44d1-8fad-c38cfa2ca41d","system_id":"levelo_inurba_marseille","lat":43.294314,"lon":5.397498,"is_reserved":false,"is_disabled":false,"rental_uris":{"android":"levelo://app?vid=c3f743f5-ac0e-44d1-8fad-c38cfa2ca41d","ios":"levelo://app?vid=c3f743f5-ac0e-44d1-8fad-c38cfa2ca41d"},"vehicle_type_id":"4","last_reported":1721074113,"current_range_meters":3600,"station_id":"ce4bh3h2rcd13ifvqdo0","pricing_plan_id":"cebpf4jnsgd1na2vs0mg"},{"bike_id":"58c34d9c-11a2-436f-9eec-346dbb32e576","system_id":"levelo_inurba_marseille","lat":43.284538,"lon":5.358657,"is_reserved":false,"is_disabled":false,"rental_uris":{"android":"levelo://app?vid=58c34d9c-11a2-436f-9eec-346dbb32e576","ios":"levelo://app?vid=58c34d9c-11a2-436f-9eec-346dbb32e576"},"vehicle_type_id":"4","last_reported":1721074113,"current_range_meters":1600,"station_id":"ce4bhah2rcd13ifvqei0","pricing_plan_id":"cebpf4jnsgd1na2vs0mg"},{"bike_id":"a7390627-8b6c-4149-9d20-d0ff687565c1","system_id":"levelo_inurba_marseille","lat":43.294406,"lon":5.397446,"is_reserved":false,"is_disabled":false,"rental_uris":{"android":"levelo://app?vid=a7390627-8b6c-4149-9d20-d0ff687565c1","ios":"levelo://app?vid=a7390627-8b6c-4149-9d20-d0ff687565c1"},"vehicle_type_id":"4","last_reported":1721074113,"current_range_meters":0,"station_id":"ce4bh3h2rcd13ifvqdo0","pricing_plan_id":"cebpf4jnsgd1na2vs0mg"},{"bike_id":"16d241df-9f19-4a4f-a3be-02dd68d7ffe5","system_id":"levelo_inurba_marseille","lat":43.294314,"lon":5.397498,"is_reserved":false,"is_disabled":false,"rental_uris":{"android":"levelo://app?vid=16d241df-9f19-4a4f-a3be-02dd68d7ffe5","ios":"levelo://app?vid=16d241df-9f19-4a4f-a3be-02dd68d7ffe5"},"vehicle_type_id":"4","last_reported":1721074113,"current_range_meters":14000,"station_id":"ce4bh3h2rcd13ifvqdo0","pricing_plan_id":"cebpf4jnsgd1na2vs0mg"},{"bike_id":"3f389465-1816-45c1-99b4-6ea112fd32ae","system_id":"levelo_inurba_marseille","lat":43.294314,"lon":5.397498,"is_reserved":false,"is_disabled":false,"rental_uris":{"android":"levelo://app?vid=3f389465-1816-45c1-99b4-6ea112fd32ae","ios":"levelo://app?vid=3f389465-1816-45c1-99b4-6ea112fd32ae"},"vehicle_type_id":"4","last_reported":1721074113,"current_range_meters":27600,"station_id":"ce4bh3h2rcd13ifvqdo0","pricing_plan_id":"cebpf4jnsgd1na2vs0mg"},