{"last_updated":1738145352,"ttl":60,"version":"2.2","data":{"bikes":[{"bike_id":"f80f68fe-d05c-47e9-8931-ac3ef28d2b2e","system_id":"levelo_inurba_marseille","lat":43.3017,"lon":5.36639,"is_reserved":false,"is_disabled":false,"rental_uris":{"android":"levelo://app?vid=f80f68fe-d05c-47e9-8931-ac3ef28d2b2e","ios":"levelo://app?vid=f80f68fe-d05c-47e9-8931-ac3ef28d2b2e"},"vehicle_type_id":"4","last_reported":1738145352,"current_range_meters":35200,"station_id":"ce4bgrh2rcd13ifvqc8g","pricing_plan_id":"cebpf4jnsgd1na2vs0mg"},{"bike_id":"5e218873-4a4f-4479-a2ad-9d7a2fd33018","system_id":"levelo_inurba_marseille","lat":43.28934,"lon":5.3962,"is_reserved":false,"is_disabled":false,"rental_uris":{"android":"levelo://app?vid=5e218873-4a4f-4479-a2ad-9d7a2fd33018","ios":"levelo://app?vid=5e218873-4a4f-4479-a2ad-9d7a2fd33018"},"vehicle_type_id":"4","last_reported":1738145352,"current_range_meters":14400,"station_id":"ce4bh3h2rcd13ifvqdn0","pricing_plan_id":"cebpf4jnsgd1na2vs0mg"},{"bike_id":"3cb0fac2-5ab3-4435-9fe9-af517f0263ee","system_id":"levelo_inurba_marseille","lat":43.28935,"lon":5.39628,"is_reserved":false,"is_disabled":false,"rental_uris":{"android":"levelo://app?vid=3cb0fac2-5ab3-4435-9fe9-af517f0263ee","ios":"levelo://app?vid=3cb0fac2-5ab3-4435-9fe9-af517f0263ee"},"vehicle_type_id":"4","last_reported":1738145352,"current_range_meters":35600,"station_id":"ce4bh3h2rcd13ifvqdn0","pricing_plan_id":"cebpf4jnsgd1na2vs0mg"},{"bike_id":"77a227d4-24f8-4b28-a9f7-850a3a5a6295","system_id":"levelo_inurba_marseille","lat":43.2499,"lon":5.38917,"is_reserved":false,"is_disabled":false,"rental_uris":{"android":"levelo://app?vid=77a227d4-24f8-4b28-a9f7-850a3a5a6295","ios":"levelo://app?vid=77a227d4-24f8-4b28-a9f7-850a3a5a6295"},"vehicle_type_id":"4","last_reported":1738145352,"current_range_meters":32400,"station_id":"ce4bhgp2rcd13ifvqfd0","pricing_plan_id":"cebpf4jnsgd1na2vs0mg"},{"bike_id":"622c1a8b-2e66-4868-a420-8490bfe0957b","system_id":"levelo_inurba_marseille","lat":43.296,"lon":5.37733,"is_reserved":false,"is_disabled":false,"rental_uris":{"android":"levelo://app?vid=622c1a8b-2e66-4868-a420-8490bfe0957b","ios":"levelo://app?vid=622c1a8b-2e66-4868-a420-8490bfe0957b"},"vehicle_type_id":"4","last_reported":1738145352,"current_range_meters":32000,"station_id":"ce4bgi92rcd13ifvqb90","pricing_plan_id":"cebpf4jnsgd1na2vs0mg"},{"bike_id":"fe3ebb9b-08b6-493c-9a93-713d6a609bdf","system_id":"levelo_inurba_marseille","lat":43.29213,"lon":5.36098,"is_reserved":false,"is_disabled":false,"rental_uris":{"android":"levelo://app?vid=fe3ebb9b-08b6-493c-9a93-713d6a609bdf","ios":"levelo://app?vid=fe3ebb9b-08b6-493c-9a93-713d6a609bdf"},"vehicle_type_id":"4","last_reported":1738145352,"current_range_meters":38800,"station_id":"ce4bhbh2rcd13ifvqeqg","pricing_plan_id":"cebpf4jnsgd1na2vs0mg"},{"bike_id":"56f49f8b-4bf2-4d84-97ce-54c8a66ab5f7","system_id":"levelo_inurba_marseille","lat":43.29976,"lon":5.37187,"is_reserved":false,"is_disabled":false,"rental_uris":{"android":"levelo://app?vid=56f49f8b-4bf2-4d84-97ce-54c8a66ab5f7","ios":"levelo://app?vid=56f49f8b-4bf2-4d84-97ce-54c8a66ab5f7"},"vehicle_type_id":"4","last_reported":1738145352,"current_range_meters":38800,"station_id":"ce4bgr92rcd13ifvqc7g","pricing_plan_id":"cebpf4jnsgd1na2vs0mg"},{"bike_id":"e6310977-c603-4a2a-94c1-0bef12b48698","system_id":"levelo_inurba_marseille","lat":43.24063,"lon":5.37753,"is_reserved":false,"is_disabled":false,"rental_uris":{"android":"levelo://app?vid=e6310977-c603-4a2a-94c1-0bef12b48698","ios":"levelo://app?vid=e6310977-c603-4a2a-94c1-0bef12b48698"},"vehicle_type_id":"4","last_reported":1738145352,"current_range_meters":38800,"station_id":"ce4bhnp2rcd13ifvqgvg","pricing_plan_id":"cebpf4jnsgd1na2vs0mg"},{"bike_id":"f7f8117f-03ef-415e-85c6-2eeaf165e4f2","system_id":"levelo_inurba_marseille","lat":43.26197,"lon":5.40452,"is_reserved":false,"is_disabled":true,"rental_uris":{"android":"levelo://app?vid=f7f8117f-03ef-415e-85c6-2eeaf165e4f2","ios":"levelo://app?vid=f7f8117f-03ef-415e-85c6-2eeaf165e4f2"},"vehicle_type_id":"4","last_reported":1738145352,"current_range_meters":29600,"station_id":"ce4bhmh2rcd13ifvqgmg","pricing_plan_id":"cebpf4jnsgd1na2vs0mg"},{"bike_id":"6b12d118-a2a9-457d-9a89-6f136fa295af","system_id":"levelo_inurba_marseille","lat":43.2987,"lon":5.39732,"is_reserved":false,"is_disabled":false,"rental_uris":{"android":"levelo://app?vid=6b12d118-a2a9-457d-9a89-6f136fa295af","ios":"levelo://app?vid=6b12d118-a2a9-457d-9a89-6f136fa295af"},"vehicle_type_id":"4","last_reported":1738145352,"current_range_meters":19200,"station_id":"ce4bh0h2rcd13ifvqd50","pricing_plan_id":"cebpf4jnsgd1na2vs0mg"},{"bike_id":"60b94ec1-a2e5-42fc-ad7c-d66b2ada9c44","system_id":"levelo_inurba_marseille","lat":43.239579,"lon":5.366412,"is_reserved":false,"is_disabled":false,"rental_uris":{"android":"levelo://app?vid=60b94ec1-a2e5-42fc-ad7c-d66b2ada9c44","ios":"levelo://app?vid=60b94ec1-a2e5-42fc-ad7c-d66b2ada9c44"},"vehicle_type_id":"4","last_reported":1738145352,"current_range_meters":4800,"station_id":"ce4bhi12rcd13ifvqfp0","pricing_plan_id":"cebpf4jnsgd1na2vs0mg"},{"bike_id":"1c691f34-b581-43fa-9960-cfc896fbdb5c","system_id":"levelo_inurba_marseille","lat":43.30469,"lon":5.36565,"is_reserved":false,"is_disabled":false,"rental_uris":{"android":"levelo://app?vid=1c691f34-b581-43fa-9960-cfc896fbdb5c","ios":"levelo://app?vid=1c691f34-b581-43fa-9960-cfc896fbdb5c"},"vehicle_type_id":"4","last_reported":1738145352,"current_range_meters":38800,"station_id":"ce4bgs12rcd13ifvqcag","pricing_plan_id":"cebpf4jnsgd1na2vs0mg"},{"bike_id":"d77faba5-2b0c-430f-ad22-bcf40b90e74c","system_id":"levelo_inurba_marseille","lat":43.27706,"lon":5.40881,"is_reserved":false,"is_disabled":true,"rental_uris":{"android":"levelo://app?vid=d77faba5-2b0c-430f-ad22-bcf40b90e74c","ios":"levelo://app?vid=d77faba5-2b0c-430f-ad22-bcf40b90e74c"},"vehicle_type_id":"4","last_reported":1738145352,"current_range_meters":36000,"station_id":"","pricing_plan_id":"cebpf4jnsgd1na2vs0mg"},{"bike_id":"d64fe0b3-0658-4486-802d-44aa5d4a3168","system_id":"levelo_inurba_marseille","lat":43.24975,"lon":5.38933,"is_reserved":false,"is_disabled":false,"rental_uris":{"android":"levelo://app?vid=d64fe0b3-0658-4486-802d-44aa5d4a3168","ios":"levelo://app?vid=d64fe0b3-0658-4486-802d-44aa5d4a3168"},"vehicle_type_id":"4","last_reported":1738145352,"current_range_meters":36800,"station_id":"ce4bhgp2rcd13ifvqfd0","pricing_plan_id":"cebpf4jnsgd1na2vs0mg"},{"bike_id":"f93041b9-b8e0-42d2-8838-ad70483b616d","system_id":"levelo_inurba_marseille","lat":43.26773,"lon":5.39427,"is_reserved":false,"is_disabled":false,"rental_uris":{"android":"levelo://app?vid=f93041b9-b8e0-42d2-8838-ad70483b616d","ios":"levelo://app?vid=f93041b9-b8e0-42d2-8838-ad70483b616d"},"vehicle_type_id":"4","last_reported":1738145352,"current_range_meters":18000,"station_id":"ce4bhh12rcd13ifvqfg0","pricing_plan_id":"cebpf4jnsgd1na2vs0mg"},{"bike_id":"6c9d6cba-6a72-4555-9701-b5ddad762d33","system_id":"levelo_inurba_marseille","lat":43.28483,"lon":5.38417,"is_reserved":false,"is_disabled":false,"rental_uris":{"android":"levelo://app?vid=6c9d6cba-6a72-4555-9701-b5ddad762d33","ios":"levelo://app?vid=6c9d6cba-6a72-4555-9701-b5ddad762d33"},"vehicle_type_id":"4","last_reported":1738145352,"current_range_meters":35600,"station_id":"ce4bh512rcd13ifvqe3g","pricing_plan_id":"cebpf4jnsgd1na2vs0mg"},{"bike_id":"df517269-7978-40e7-92b9-aba0b6440d0d","system_id":"levelo_inurba_marseille","lat":43.2737,"lon":5.36251,"is_reserved":false,"is_disabled":false,"rental_uris":{"android":"levelo://app?vid=df517269-7978-40e7-92b9-aba0b6440d0d","ios":"levelo://app?vid=df517269-7978-40e7-92b9-aba0b6440d0d"},"vehicle_type_id":"4","last_reported":1738145352,"current_range_meters":30800,"station_id":"ce4bhbh2rcd13ifvqeo0","pricing_plan_id":"cebpf4jnsgd1na2vs0mg"},{"bike_id":"3eba5a68-5e57-47a8-ad81-08fa2bc500be","system_id":"levelo_inurba_marseille","lat":43.3375,"lon":5.3749,"is_reserved":false,"is_disabled":true,"rental_uris":{"android":"levelo://app?vid=3eba5a68-5e57-47a8-ad81-08fa2bc500be","ios":"levelo://app?vid=3eba5a68-5e57-47a8-ad81-08fa2bc500be"},"vehicle_type_id":"4","last_reported":1738145352,"current_range_meters":16000,"station_id":"","pricing_plan_id":"cebpf4jnsgd1na2vs0mg"},{"bike_id":"96c6d005-88bb-4fd6-98f4-0a014c553eb8","system_id":"levelo_inurba_marseille","lat":43.33059,"lon":5.39,"is_reserved":false,"is_disabled":false,"rental_uris":{"android":"levelo://app?vid=96c6d005-88bb-4fd6-98f4-0a014c553eb8","ios":"levelo://app?vid=96c6d005-88bb-4fd6-98f4-0a014c553eb8"},"vehicle_type_id":"4","last_reported":1738145352,"current_range_meters":38800,"station_id":"ce4bhr92rcd13ifvqhrg","pricing_plan_id":"cebpf4jnsgd1na2vs0mg"},{"bike_id":"431fcadf-3903-4ee1-a30c-4f91781eb5a1","system_id":"levelo_inurba_marseille","lat":43.3252,"lon":5.4143,"is_reserved":false,"is_disabled":false,"rental_uris":{"android":"levelo://app?vid=431fcadf-3903-4ee1-a30c-4f91781eb5a1","ios":"levelo://app?vid=431fcadf-3903-4ee1-a30c-4f91781eb5a1"},"vehicle_type_id":"4","last_reported":1738145352,"current_range_meters":33200,"station_id":"ce4bhq12rcd13ifvqhhg","pricing_plan_id":"cebpf4jnsgd1na2vs0mg"},{"bike_id":"b40c35fe-c470-42e7-a7a1-f4c3e646ecc8","system_id":"levelo_inurba_marseille","lat":43.31082,"lon":5.42441,"is_reserved":false,"is_disabled":false,"rental_uris":{"android":"levelo://app?vid=b40c35fe-c470-42e7-a7a1-f4c3e646ecc8","ios":"levelo://app?vid=b40c35fe-c470-42e7-a7a1-f4c3e646ecc8"},"vehicle_type_id":"4","last_reported":1738145352,"current_range_meters":13600,"station_id":"ce4bhp92rcd13ifvqhag","pricing_plan_id":"cebpf4jnsgd1na2vs0mg"},{"bike_id":"4b6b4c56-65a7-445b-8d0c-db83362287b8","system_id":"levelo_inurba_marseille","lat":43.274987,"lon":5.424447,"is_reserved":false,"is_disabled":false,"rental_uris":{"android":"levelo://app?vid=4b6b4c56-65a7-445b-8d0c-db83362287b8","ios":"levelo://app?vid=4b6b4c56-65a7-445b-8d0c-db83362287b8"},"vehicle_type_id":"4","last_reported":1738145352,"current_range_meters":8800,"station_id":"ce4bhn92rcd13ifvqgrg","pricing_plan_id":"cebpf4jnsgd1na2vs0mg"},{"bike_id":"e05d3339-457c-46fa-9827-97d4d0e79dfd","system_id":"levelo_inurba_marseille","lat":43.25857,"lon":5.39924,"is_reserved":false,"is_disabled":false,"rental_uris":{"android":"levelo://app?vid=e05d3339-457c-46fa-9827-97d4d0e79dfd","ios":"levelo://app?vid=e05d3339-457c-46fa-9827-97d4d0e79dfd"},"vehicle_type_id":"4","last_reported":1738145352,"current_range_meters":38800,"station_id":"ce4bhl92rcd13ifvqghg","pricing_plan_id":"cebpf4jnsgd1na2vs0mg"},{"bike_id":"48ea5572-e35e-42ff-8e53-c6621c21dc57","system_id":"levelo_inurba_marseille","lat":43.27493,"lon":5.42452,"is_reserved":false,"is_disabled":false,"rental_uris":{"android":"levelo://app?vid=48ea5572-e35e-42ff-8e53-c6621c21dc57","ios":"levelo://app?vid=48ea5572-e35e-42ff-8e53-c6621c21dc57"},"vehicle_type_id":"4","last_reported":1738145352,"current_range_meters":12800,"station_id":"ce4bhn92rcd13ifvqgrg","pricing_plan_id":"cebpf4jnsgd1na2vs0mg"},{"bike_id":"7dd6c993-b878-4097-bf21-43aba62e680a","system_id":"levelo_inurba_marseille","lat":43.30873,"lon":5.36881,"is_reserved":false,"is_disabled":false,"rental_uris":{"android":"levelo://app?vid=7dd6c993-b878-4097-bf21-43aba62e680a","ios":"levelo://app?vid=7dd6c993-b878-4097-bf21-43aba62e680a"},"vehicle_type_id":"4","last_reported":1738145352,"current_range_meters":24000,"station_id":"ce4bgn92rcd13ifvqbvg","pricing_plan_id":"cebpf4jnsgd1na2vs0mg"},{"bike_id":"7b755feb-61ac-402f-b96a-d28fa888de91","system_id":"levelo_inurba_marseille","lat":43.30175,"lon":5.36631,"is_reserved":false,"is_disabled":false,"rental_uris":{"android":"levelo://app?vid=7b755feb-61ac-402f-b96a-d28fa888de91","ios":"levelo://app?vid=7b755feb-61ac-402f-b96a-d28fa888de91"},"vehicle_type_id":"4","last_reported":1738145352,"current_range_meters":28800,"station_id":"ce4bgrh2rcd13ifvqc8g","pricing_plan_id":"cebpf4jnsgd1na2vs0mg"},{"bike_id":"0a35e13e-7ac4-41c5-852f-a143f236e88c","system_id":"levelo_inurba_marseille","lat":43.30081,"lon":5.39095,"is_reserved":false,"is_disabled":false,"rental_uris":{"android":"levelo://app?vid=0a35e13e-7ac4-41c5-852f-a143f236e88c","ios":"levelo://app?vid=0a35e13e-7ac4-41c5-852f-a143f236e88c"},"vehicle_type_id":"4","last_reported":1738145352,"current_range_meters":20000,"station_id":"ce4bh192rcd13ifvqdb0","pricing_plan_id":"cebpf4jnsgd1na2vs0mg"},{"bike_id":"62fdd3d8-969e-43e3-8a49-e36e0271c5f1","system_id":"levelo_inurba_marseille","lat":43.25584,"lon":5.38202,"is_reserved":false,"is_disabled":false,"rental_uris":{"android":"levelo://app?vid=62fdd3d8-969e-43e3-8a49-e36e0271c5f1","ios":"levelo://app?vid=62fdd3d8-969e-43e3-8a49-e36e0271c5f1"},"vehicle_type_id":"4","last_reported":1738145352,"current_range_meters":19600,"station_id":"ce4bhih2rcd13ifvqfs0","pricing_plan_id":"cebpf4jnsgd1na2vs0mg"},{"bike_id":"ff76dca8-f551-47fa-b9e9-6464a1a4a294","system_id":"levelo_inurba_marseille","lat":43.24654,"lon":5.38157,"is_reserved":false,"is_disabled":false,"rental_uris":{"android":"levelo://app?vid=ff76dca8-f551-47fa-b9e9-6464a1a4a294","ios":"levelo://app?vid=ff76dca8-f551-47fa-b9e9-6464a1a4a294"},"vehicle_type_id":"4","last_reported":1738145352,"current_range_meters":38800,"station_id":"ce4bhih2rcd13ifvqfr0","pricing_plan_id":"cebpf4jnsgd1na2vs0mg"},{"bike_id":"66f0aaa2-f217-4f4c-a368-e2be003d722d","system_id":"levelo_inurba_marseille","lat":43.23148,"lon":5.43722,"is_reserved":false,"is_disabled":false,"rental_uris":{"android":"levelo://app?vid=66f0aaa2-f217-4f4c-a368-e2be003d722d","ios":"levelo://app?vid=66f0aaa2-f217-4f4c-a368-e2be003d722d"},"vehicle_type_id":"4","last_reported":1738145352,"current_range_meters":6000,"station_id":"ce4bhmp2rcd13ifvqgog","pricing_plan_id":"cebpf4jnsgd1na2vs0mg"},{"bike_id":"1c63fa7b-8bb3-4da5-8267-9c40ab75cc0b","system_id":"levelo_inurba_marseille","lat":43.33752,"lon":5.39181,"is_reserved":false,"is_disabled":false,"rental_uris":{"android":"levelo://app?vid=1c63fa7b-8bb3-4da5-8267-9c40ab75cc0b","ios":"levelo://app?vid=1c63fa7b-8bb3-4da5-8267-9c40ab75cc0b"},"vehicle_type_id":"4","last_reported":1738145352,"current_range_meters":18800,"station_id":"ce4bhr92rcd13ifvqhsg","pricing_plan_id":"cebpf4jnsgd1na2vs0mg"},{"bike_id":"cca1a460-386b-4c26-a848-10ea11937197","system_id":"levelo_inurba_marseille","lat":43.28955,"lon":5.37855,"is_reserved":false,"is_disabled":false,"rental_uris":{"android":"levelo://app?vid=cca1a460-386b-4c26-a848-10ea11937197","ios":"levelo://app?vid=cca1a460-386b-4c26-a848-10ea11937197"},"vehicle_type_id":"4","last_reported":1738145352,"current_range_meters":28000,"station_id":"ce4bh9p2rcd13ifvqed0","pricing_plan_id":"cebpf4jnsgd1na2vs0mg"},{"bike_id":"b33ff862-b404-4434-a3e7-c73e43df9fda","system_id":"levelo_inurba_marseille","lat":43.31358,"lon":5.38498,"is_reserved":false,"is_disabled":false,"rental_uris":{"android":"levelo://app?vid=b33ff862-b404-4434-a3e7-c73e43df9fda","ios":"levelo://app?vid=b33ff862-b404-4434-a3e7-c73e43df9fda"},"vehicle_type_id":"4","last_reported":1738145352,"current_range_meters":37600,"station_id":"ce4bgt92rcd13ifvqcf0","pricing_plan_id":"cebpf4jnsgd1na2vs0mg"},{"bike_id":"5d4915e0-4a9f-4c36-821a-8bde58abc3cd","system_id":"levelo_inurba_marseille","lat":43.25115,"lon":5.40325,"is_reserved":false,"is_disabled":true,"rental_uris":{"android":"levelo://app?vid=5d4915e0-4a9f-4c36-821a-8bde58abc3cd","ios":"levelo://app?vid=5d4915e0-4a9f-4c36-821a-8bde58abc3cd"},"vehicle_type_id":"4","last_reported":1738145352,"current_range_meters":10000,"station_id":"ce4bhlh2rcd13ifvqgig","pricing_plan_id":"cebpf4jnsgd1na2vs0mg"},{"bike_id":"b6ffbcad-9371-46a8-899d-8ed92473acd5","system_id":"levelo_inurba_marseille","lat":43.32449,"lon":5.36584,"is_reserved":false,"is_disabled":false,"rental_uris":{"android":"levelo://app?vid=b6ffbcad-9371-46a8-899d-8ed92473acd5","ios":"levelo://app?vid=b6ffbcad-9371-46a8-899d-8ed92473acd5"},"vehicle_type_id":"4","last_reported":1738145352,"current_range_meters":24000,"station_id":"ce4bhs12rcd13ifvqhvg","pricing_plan_id":"cebpf4jnsgd1na2vs0mg"},{"bike_id":"75f78423-7bb1-46bc-9291-8f61438106b2","system_id":"levelo_inurba_marseille","lat":43.33007,"lon":5.39045,"is_reserved":false,"is_disabled":false,"rental_uris":{"android":"levelo://app?vid=75f78423-7bb1-46bc-9291-8f61438106b2","ios":"levelo://app?vid=75f78423-7bb1-46bc-9291-8f61438106b2"},"vehicle_type_id":"4","last_reported":1738145352,"current_range_meters":26800,"station_id":"ce4bhr92rcd13ifvqhrg","pricing_plan_id":"cebpf4jnsgd1na2vs0mg"},{"bike_id":"148d85a2-d701-448b-9576-351bed3ebe96","system_id":"levelo_inurba_marseille","lat":43.25909,"lon":5.40906,"is_reserved":false,"is_disabled":false,"rental_uris":{"android":"levelo://app?vid=148d85a2-d701-448b-9576-351bed3ebe96","ios":"levelo://app?vid=148d85a2-d701-448b-9576-351bed3ebe96"},"vehicle_type_id":"4","last_reported":1738145352,"current_range_meters":31200,"station_id":"ce4bhm92rcd13ifvqglg","pricing_plan_id":"cebpf4jnsgd1na2vs0mg"},{"bike_id":"896cd925-72cf-4706-97b0-d25c4ad56ffa","system_id":"levelo_inurba_marseille","lat":43.30969,"lon":5.3681,"is_reserved":false,"is_disabled":false,"rental_uris":{"android":"levelo://app?vid=896cd925-72cf-4706-97b0-d25c4ad56ffa","ios":"levelo://app?vid=896cd925-72cf-4706-97b0-d25c4ad56ffa"},"vehicle_type_id":"4","last_reported":1738145352,"current_range_meters":37600,"station_id":"","pricing_plan_id":"cebpf4jnsgd1na2vs0mg"},{"bike_id":"418f5259-428b-449c-ae69-fb2255b8fabd","system_id":"levelo_inurba_marseille","lat":43.27298,"lon":5.39101,"is_reserved":false,"is_disabled":false,"rental_uris":{"android":"levelo://app?vid=418f5259-428b-449c-ae69-fb2255b8fabd","ios":"levelo://app?vid=418f5259-428b-449c-ae69-fb2255b8fabd"},"vehicle_type_id":"4","last_reported":1738145352,"current_range_meters":35200,"station_id":"ce4bhgp2rcd13ifvqfe0","pricing_plan_id":"cebpf4jnsgd1na2vs0mg"},{"bike_id":"249b743f-3a42-463b-85da-6cd9cb5fe3bc","system_id":"levelo_inurba_marseille","lat":43.29234,"lon":5.38471,"is_reserved":false,"is_disabled":false,"rental_uris":{"android":"levelo://app?vid=249b743f-3a42-463b-85da-6cd9cb5fe3bc","ios":"levelo://app?vid=249b743f-3a42-463b-85da-6cd9cb5fe3bc"},"vehicle_type_id":"4","last_reported":1738145352,"current_range_meters":18800,"station_id":"ce4bh692rcd13ifvqea0","pricing_plan_id":"cebpf4jnsgd1na2vs0mg"},{"bike_id":"486b9f90-9691-4895-97e0-10f65ebe45a0","system_id":"levelo_inurba_marseille","lat":43.28695,"lon":5.3739,"is_reserved":false,"is_disabled":false,"rental_uris":{"android":"levelo://app?vid=486b9f90-9691-4895-97e0-10f65ebe45a0","ios":"levelo://app?vid=486b9f90-9691-4895-97e0-10f65ebe45a0"},"vehicle_type_id":"4","last_reported":1738145352,"current_range_meters":30800,"station_id":"ce4bh3p2rcd13ifvqdq0","pricing_plan_id":"cebpf4jnsgd1na2vs0mg"},{"bike_id":"d6af585f-c468-474f-9bf8-9417f47a5f4b","system_id":"levelo_inurba_marseille","lat":43.31352,"lon":5.3675,"is_reserved":false,"is_disabled":false,"rental_uris":{"android":"levelo://app?vid=d6af585f-c468-474f-9bf8-9417f47a5f4b","ios":"levelo://app?vid=d6af585f-c468-474f-9bf8-9417f47a5f4b"},"vehicle_type_id":"4","last_reported":1738145352,"current_range_meters":38400,"station_id":"ce4bgr92rcd13ifvqc6g","pricing_plan_id":"cebpf4jnsgd1na2vs0mg"},{"bike_id":"ce4ce052-86c8-446e-8eb4-59cc9a697e38","system_id":"levelo_inurba_marseille","lat":43.31361,"lon":5.3674,"is_reserved":false,"is_disabled":false,"rental_uris":{"android":"levelo://app?vid=ce4ce052-86c8-446e-8eb4-59cc9a697e38","ios":"levelo://app?vid=ce4ce052-86c8-446e-8eb4-59cc9a697e38"},"vehicle_type_id":"4","last_reported":1738145352,"current_range_meters":25600,"station_id":"ce4bgr92rcd13ifvqc6g","pricing_plan_id":"cebpf4jnsgd1na2vs0mg"},{"bike_id":"3c6336fe-eb72-435e-95d3-a1bde11ea3e3","system_id":"levelo_inurba_marseille","lat":43.30355,"lon":5.41885,"is_reserved":false,"is_disabled":true,"rental_uris":{"android":"levelo://app?vid=3c6336fe-eb72-435e-95d3-a1bde11ea3e3","ios":"levelo://app?vid=3c6336fe-eb72-435e-95d3-a1bde11ea3e3"},"vehicle_type_id":"4","last_reported":1738145352,"current_range_meters":0,"station_id":"ce4bhop2rcd13ifvqh7g","pricing_plan_id":"cebpf4jnsgd1na2vs0mg"},{"bike_id":"cdaf732f-9180-4276-893c-6a3e1c36505d","system_id":"levelo_inurba_marseille","lat":43.30531,"lon":5.3655,"is_reserved":false,"is_disabled":false,"rental_uris":{"android":"levelo://app?vid=cdaf732f-9180-4276-893c-6a3e1c36505d","ios":"levelo://app?vid=cdaf732f-9180-4276-893c-6a3e1c36505d"},"vehicle_type_id":"4","last_reported":1738145352,"current_range_meters":38800,"station_id":"ce4bgs12rcd13ifvqcag","pricing_plan_id":"cebpf4jnsgd1na2vs0mg"},{"bike_id":"efed7597-62fb-419f-8ed4-4975314f708d","system_id":"levelo_inurba_marseille","lat":43.31902,"lon":5.40724,"is_reserved":false,"is_disabled":false,"rental_uris":{"android":"levelo://app?vid=efed7597-62fb-419f-8ed4-4975314f708d","ios":"levelo://app?vid=efed7597-62fb-419f-8ed4-4975314f708d"},"vehicle_type_id":"4","last_reported":1738145352,"current_range_meters":37600,"station_id":"ce4bhq12rcd13ifvqhig","pricing_plan_id":"cebpf4jnsgd1na2vs0mg"},{"bike_id":"1d3d6cfb-1973-4ef0-b19e-3b4fa3b6b11c","system_id":"levelo_inurba_marseille","lat":43.239593,"lon":5.366441,"is_reserved":false,"is_disabled":false,"rental_uris":{"android":"levelo://app?vid=1d3d6cfb-1973-4ef0-b19e-3b4fa3b6b11c","ios":"levelo://app?vid=1d3d6cfb-1973-4ef0-b19e-3b4fa3b6b11c"},"vehicle_type_id":"4","last_reported":1738145352,"current_range_meters":7200,"station_id":"ce4bhi12rcd13ifvqfp0","pricing_plan_id":"cebpf4jnsgd1na2vs0mg"},{"bike_id":"ea28d915-aa85-43de-939e-07c581db3611","system_id":"levelo_inurba_marseille","lat":43.27031,"lon":5.42284,"is_reserved":false,"is_disabled":false,"rental_uris":{"android":"levelo://app?vid=ea28d915-aa85-43de-939e-07c581db3611","ios":"levelo://app?vid=ea28d915-aa85-43de-939e-07c581db3611"},"vehicle_type_id":"4","last_reported":1738145352,"current_range_meters":38000,"station_id":"ce4bhk92rcd13ifvqgb0","pricing_plan_id":"cebpf4jnsgd1na2vs0mg"},{"bike_id":"0ffd64a2-a304-418a-8f80-9559a19bd293","system_id":"levelo_inurba_marseille","lat":43.27209,"lon":5.39218,"is_reserved":false,"is_disabled":false,"rental_uris":{"android":"levelo://app?vid=0ffd64a2-a304-418a-8f80-9559a19bd293","ios":"levelo://app?vid=0ffd64a2-a304-418a-8f80-9559a19bd293"},"vehicle_type_id":"4","last_reported":1738145352,"current_range_meters":26000,"station_id":"ce4bhhp2rcd13ifvqfm0","pricing_plan_id":"cebpf4jnsgd1na2vs0mg"},{"bike_id":"0d8ed079-b90b-46da-b651-8cf4a9537986","system_id":"levelo_inurba_marseille","lat":43.23175,"lon":5.39989,"is_reserved":false,"is_disabled":false,"rental_uris":{"android":"levelo://app?vid=0d8ed079-b90b-46da-b651-8cf4a9537986","ios":"levelo://app?vid=0d8ed079-b90b-46da-b651-8cf4a9537986"},"vehicle_type_id":"4","last_reported":1738145352,"current_range_meters":28400,"station_id":"ce4bhn12rcd13ifvqgqg","pricing_plan_id":"cebpf4jnsgd1na2vs0mg"},{"bike_id":"e7d740ac-9619-48a0-bfae-c7173efbfb72","system_id":"levelo_inurba_marseille","lat":43.27066,"lon":5.42275,"is_reserved":false,"is_disabled":false,"rental_uris":{"android":"levelo://app?vid=e7d740ac-9619-48a0-bfae-c7173efbfb72","ios":"levelo://app?vid=e7d740ac-9619-48a0-bfae-c7173efbfb72"},"vehicle_type_id":"4","last_reported":1738145352,"current_range_meters":33600,"station_id":"ce4bhk92rcd13ifvqgb0","pricing_plan_id":"cebpf4jnsgd1na2vs0mg"},{"bike_id":"2726ab7d-4283-49db-be89-c5e6b97f39e0","system_id":"levelo_inurba_marseille","lat":43.29716,"lon":5.37687,"is_reserved":false,"is_disabled":false,"rental_uris":{"android":"levelo://app?vid=2726ab7d-4283-49db-be89-c5e6b97f39e0","ios":"levelo://app?vid=2726ab7d-4283-49db-be89-c5e6b97f39e0"},"vehicle_type_id":"4","last_reported":1738145352,"current_range_meters":32000,"station_id":"ce4bgkh2rcd13ifvqbl0","pricing_plan_id":"cebpf4jnsgd1na2vs0mg"},{"bike_id":"e835236d-8c05-4699-a23f-d68da3e42016","system_id":"levelo_inurba_marseille","lat":43.2559,"lon":5.38227,"is_reserved":false,"is_disabled":false,"rental_uris":{"android":"levelo://app?vid=e835236d-8c05-4699-a23f-d68da3e42016","ios":"levelo://app?vid=e835236d-8c05-4699-a23f-d68da3e42016"},"vehicle_type_id":"4","last_reported":1738145352,"current_range_meters":29600,"station_id":"","pricing_plan_id":"cebpf4jnsgd1na2vs0mg"},{"bike_id":"c8a3a0ed-dff2-4f3c-87dc-2e6b47b1ad28","system_id":"levelo_inurba_marseille","lat":43.337444,"lon":5.374475,"is_reserved":false,"is_disabled":true,"rental_uris":{"android":"levelo://app?vid=c8a3a0ed-dff2-4f3c-87dc-2e6b47b1ad28","ios":"levelo://app?vid=c8a3a0ed-dff2-4f3c-87dc-2e6b47b1ad28"},"vehicle_type_id":"4","last_reported":1738145352,"current_range_meters":1200,"station_id":"","pricing_plan_id":"cebpf4jnsgd1na2vs0mg"},{"bike_id":"061a807c-1db8-46c7-beec-da6308b151ea","system_id":"levelo_inurba_marseille","lat":43.29578,"lon":5.38093,"is_reserved":false,"is_disabled":true,"rental_uris":{"android":"levelo://app?vid=061a807c-1db8-46c7-beec-da6308b151ea","ios":"levelo://app?vid=061a807c-1db8-46c7-beec-da6308b151ea"},"vehicle_type_id":"4","last_reported":1738145352,"current_range_meters":28800,"station_id":"ce4bgl12rcd13ifvqbo0","pricing_plan_id":"cebpf4jnsgd1na2vs0mg"},{"bike_id":"d323c514-0964-4830-ab1c-7976c00b8559","system_id":"levelo_inurba_marseille","lat":43.23147,"lon":5.43747,"is_reserved":false,"is_disabled":false,"rental_uris":{"android":"levelo://app?vid=d323c514-0964-4830-ab1c-7976c00b8559","ios":"levelo://app?vid=d323c514-0964-4830-ab1c-7976c00b8559"},"vehicle_type_id":"4","last_reported":1738145352,"current_range_meters":38800,"station_id":"ce4bhmp2rcd13ifvqgog","pricing_plan_id":"cebpf4jnsgd1na2vs0mg"},{"bike_id":"8e24a888-1670-4531-897e-d6ae0c5a8eba","system_id":"levelo_inurba_marseille","lat":43.30244,"lon":5.4007,"is_reserved":false,"is_disabled":false,"rental_uris":{"android":"levelo://app?vid=8e24a888-1670-4531-897e-d6ae0c5a8eba","ios":"levelo://app?vid=8e24a888-1670-4531-897e-d6ae0c5a8eba"},"vehicle_type_id":"4","last_reported":1738145352,"current_range_meters":24800,"station_id":"ce4bgvh2rcd13ifvqcs0","pricing_plan_id":"cebpf4jnsgd1na2vs0mg"},{"bike_id":"e708a6c7-7a9d-4297-99fa-8ff59eaff6b4","system_id":"levelo_inurba_marseille","lat":43.33012,"lon":5.39039,"is_reserved":false,"is_disabled":false,"rental_uris":{"android":"levelo://app?vid=e708a6c7-7a9d-4297-99fa-8ff59eaff6b4","ios":"levelo://app?vid=e708a6c7-7a9d-4297-99fa-8ff59eaff6b4"},"vehicle_type_id":"4","last_reported":1738145352,"current_range_meters":36400,"station_id":"ce4bhr92rcd13ifvqhrg","pricing_plan_id":"cebpf4jnsgd1na2vs0mg"},{"bike_id":"aad06d88-b0e8-46f2-bae1-fd514dd621a4","system_id":"levelo_inurba_marseille","lat":43.26788,"lon":5.39421,"is_reserved":false,"is_disabled":false,"rental_uris":{"android":"levelo://app?vid=aad06d88-b0e8-46f2-bae1-fd514dd621a4","ios":"levelo://app?vid=aad06d88-b0e8-46f2-bae1-fd514dd621a4"},"vehicle_type_id":"4","last_reported":1738145352,"current_range_meters":28800,"station_id":"ce4bhh12rcd13ifvqfg0","pricing_plan_id":"cebpf4jnsgd1na2vs0mg"},{"bike_id":"e055110e-8e50-4402-9b32-8745c1542d21","system_id":"levelo_inurba_marseille","lat":43.23954,"lon":5.36644,"is_reserved":false,"is_disabled":false,"rental_uris":{"android":"levelo://app?vid=e055110e-8e50-4402-9b32-8745c1542d21","ios":"levelo://app?vid=e055110e-8e50-4402-9b32-8745c1542d21"},"vehicle_type_id":"4","last_reported":1738145352,"current_range_meters":37600,"station_id":"ce4bhi12rcd13ifvqfp0","pricing_plan_id":"cebpf4jnsgd1na2vs0mg"},{"bike_id":"4af47e37-e152-4ab1-a20e-15b113150682","system_id":"levelo_inurba_marseille","lat":43.30508,"lon":5.36738,"is_reserved":false,"is_disabled":false,"rental_uris":{"android":"levelo://app?vid=4af47e37-e152-4ab1-a20e-15b113150682","ios":"levelo://app?vid=4af47e37-e152-4ab1-a20e-15b113150682"},"vehicle_type_id":"4","last_reported":1738145352,"current_range_meters":38800,"station_id":"ce4bgrp2rcd13ifvqc9g","pricing_plan_id":"cebpf4jnsgd1na2vs0mg"},{"bike_id":"18cebd9a-6e7e-4db1-8404-7b1a1d6b3eaa","system_id":"levelo_inurba_marseille","lat":43.2928,"lon":5.37168,"is_reserved":false,"is_disabled":false,"rental_uris":{"android":"levelo://app?vid=18cebd9a-6e7e-4db1-8404-7b1a1d6b3eaa","ios":"levelo://app?vid=18cebd9a-6e7e-4db1-8404-7b1a1d6b3eaa"},"vehicle_type_id":"4","last_reported":1738145352,"current_range_meters":28400,"station_id":"ce4bgh92rcd13ifvqb40","pricing_plan_id":"cebpf4jnsgd1na2vs0mg"},{"bike_id":"b55d6d5e-174b-4a91-aae1-fb6de283d1df","system_id":"levelo_inurba_marseille","lat":43.32537,"lon":5.41429,"is_reserved":false,"is_disabled":false,"rental_uris":{"android":"levelo://app?vid=b55d6d5e-174b-4a91-aae1-fb6de283d1df","ios":"levelo://app?vid=b55d6d5e-174b-4a91-aae1-fb6de283d1df"},"vehicle_type_id":"4","last_reported":1738145352,"current_range_meters":38800,"station_id":"ce4bhq12rcd13ifvqhhg","pricing_plan_id":"cebpf4jnsgd1na2vs0mg"},{"bike_id":"a99754b0-533c-4b68-ad89-42118685fbc7","system_id":"levelo_inurba_marseille","lat":43.27967,"lon":5.41677,"is_reserved":false,"is_disabled":true,"rental_uris":{"android":"levelo://app?vid=a99754b0-533c-4b68-ad89-42118685fbc7","ios":"levelo://app?vid=a99754b0-533c-4b68-ad89-42118685fbc7"},"vehicle_type_id":"4","last_reported":1738145352,"current_range_meters":0,"station_id":"ce4bho12rcd13ifvqh1g","pricing_plan_id":"cebpf4jnsgd1na2vs0mg"},{"bike_id":"ef6456ab-a20a-4498-b8b0-de627bc5d3cd","system_id":"levelo_inurba_marseille","lat":43.29297,"lon":5.3718,"is_reserved":false,"is_disabled":false,"rental_uris":{"android":"levelo://app?vid=ef6456ab-a20a-4498-b8b0-de627bc5d3cd","ios":"levelo://app?vid=ef6456ab-a20a-4498-b8b0-de627bc5d3cd"},"vehicle_type_id":"4","last_reported":1738145352,"current_range_meters":31200,"station_id":"ce4bgh92rcd13ifvqb40","pricing_plan_id":"cebpf4jnsgd1na2vs0mg"},{"bike_id":"a217eca2-76bf-464c-aef5-0f63397f1780","system_id":"levelo_inurba_marseille","lat":43.29885,"lon":5.43661,"is_reserved":false,"is_disabled":false,"rental_uris":{"android":"levelo://app?vid=a217eca2-76bf-464c-aef5-0f63397f1780","ios":"levelo://app?vid=a217eca2-76bf-464c-aef5-0f63397f1780"},"vehicle_type_id":"4","last_reported":1738145352,"current_range_meters":16000,"station_id":"ce4bhpp2rcd13ifvqhfg","pricing_plan_id":"cebpf4jnsgd1na2vs0mg"},{"bike_id":"6087eac1-5596-4bac-81f3-6e4270a420d5","system_id":"levelo_inurba_marseille","lat":43.29777,"lon":5.37283,"is_reserved":false,"is_disabled":false,"rental_uris":{"android":"levelo://app?vid=6087eac1-5596-4bac-81f3-6e4270a420d5","ios":"levelo://app?vid=6087eac1-5596-4bac-81f3-6e4270a420d5"},"vehicle_type_id":"4","last_reported":1738145352,"current_range_meters":5600,"station_id":"","pricing_plan_id":"cebpf4jnsgd1na2vs0mg"},{"bike_id":"6ad3b689-1a49-44c6-929e-e13fe8f7daa5","system_id":"levelo_inurba_marseille","lat":43.2396,"lon":5.36638,"is_reserved":false,"is_disabled":false,"rental_uris":{"android":"levelo://app?vid=6ad3b689-1a49-44c6-929e-e13fe8f7daa5","ios":"levelo://app?vid=6ad3b689-1a49-44c6-929e-e13fe8f7daa5"},"vehicle_type_id":"4","last_reported":1738145352,"current_range_meters":16000,"station_id":"ce4bhi12rcd13ifvqfp0","pricing_plan_id":"cebpf4jnsgd1na2vs0mg"},{"bike_id":"9838cc78-2b53-49d3-ae13-82df62c4fd64","system_id":"levelo_inurba_marseille","lat":43.28412,"lon":5.40934,"is_reserved":false,"is_disabled":true,"rental_uris":{"android":"levelo://app?vid=9838cc78-2b53-49d3-ae13-82df62c4fd64","ios":"levelo://app?vid=9838cc78-2b53-49d3-ae13-82df62c4fd64"},"vehicle_type_id":"4","last_reported":1738145352,"current_range_meters":0,"station_id":"","pricing_plan_id":"cebpf4jnsgd1na2vs0mg"},{"bike_id":"36b1b887-95ca-4f5b-9bce-ab9a935af47a","system_id":"levelo_inurba_marseille","lat":43.23153,"lon":5.4372,"is_reserved":false,"is_disabled":false,"rental_uris":{"android":"levelo://app?vid=36b1b887-95ca-4f5b-9bce-ab9a935af47a","ios":"levelo://app?vid=36b1b887-95ca-4f5b-9bce-ab9a935af47a"},"vehicle_type_id":"4","last_reported":1738145352,"current_range_meters":21600,"station_id":"ce4bhmp2rcd13ifvqgog","pricing_plan_id":"cebpf4jnsgd1na2vs0mg"},{"bike_id":"eaf5695d-50f5-4494-98d2-8735be503b80","system_id":"levelo_inurba_marseille","lat":43.31495,"lon":5.37309,"is_reserved":false,"is_disabled":true,"rental_uris":{"android":"levelo://app?vid=eaf5695d-50f5-4494-98d2-8735be503b80","ios":"levelo://app?vid=eaf5695d-50f5-4494-98d2-8735be503b80"},"vehicle_type_id":"4","last_reported":1738145352,"current_range_meters":2000,"station_id":"ce4bgt12rcd13ifvqcd0","pricing_plan_id":"cebpf4jnsgd1na2vs0mg"},{"bike_id":"44d70056-f722-4d8f-80f9-afd89c389591","system_id":"levelo_inurba_marseille","lat":43.33011,"lon":5.3905,"is_reserved":false,"is_disabled":false,"rental_uris":{"android":"levelo://app?vid=44d70056-f722-4d8f-80f9-afd89c389591","ios":"levelo://app?vid=44d70056-f722-4d8f-80f9-afd89c389591"},"vehicle_type_id":"4","last_reported":1738145352,"current_range_meters":17200,"station_id":"ce4bhr92rcd13ifvqhrg","pricing_plan_id":"cebpf4jnsgd1na2vs0mg"},{"bike_id":"cb4b9878-96ef-4892-8d93-336dc7a1cc89","system_id":"levelo_inurba_marseille","lat":43.340323,"lon":5.353861,"is_reserved":false,"is_disabled":false,"rental_uris":{"android":"levelo://app?vid=cb4b9878-96ef-4892-8d93-336dc7a1cc89","ios":"levelo://app?vid=cb4b9878-96ef-4892-8d93-336dc7a1cc89"},"vehicle_type_id":"4","last_reported":1738145352,"current_range_meters":32400,"station_id":"","pricing_plan_id":"cebpf4jnsgd1na2vs0mg"},{"bike_id":"8ec13af6-5026-4ebc-b641-8436ed8dde5c","system_id":"levelo_inurba_marseille","lat":43.25923,"lon":5.40905,"is_reserved":false,"is_disabled":false,"rental_uris":{"android":"levelo://app?vid=8ec13af6-5026-4ebc-b641-8436ed8dde5c","ios":"levelo://app?vid=8ec13af6-5026-4ebc-b641-8436ed8dde5c"},"vehicle_type_id":"4","last_reported":1738145352,"current_range_meters":16000,"station_id":"ce4bhm92rcd13ifvqglg","pricing_plan_id":"cebpf4jnsgd1na2vs0mg"},{"bike_id":"cebc1cc3-2475-48cb-aa41-05d47858d44e","system_id":"levelo_inurba_marseille","lat":43.29905,"lon":5.4366,"is_reserved":false,"is_disabled":false,"rental_uris":{"android":"levelo://app?vid=cebc1cc3-2475-48cb-aa41-05d47858d44e","ios":"levelo://app?vid=cebc1cc3-2475-48cb-aa41-05d47858d44e"},"vehicle_type_id":"4","last_reported":1738145352,"current_range_meters":27600,"station_id":"ce4bhpp2rcd13ifvqhfg","pricing_plan_id":"cebpf4jnsgd1na2vs0mg"},{"bike_id":"d09fbc8b-1664-4bee-b0d4-ddf0f6322931","system_id":"levelo_inurba_marseille","lat":43.3054,"lon":5.36545,"is_reserved":false,"is_disabled":false,"rental_uris":{"android":"levelo://app?vid=d09fbc8b-1664-4bee-b0d4-ddf0f6322931","ios":"levelo://app?vid=d09fbc8b-1664-4bee-b0d4-ddf0f6322931"},"vehicle_type_id":"4","last_reported":1738145352,"current_range_meters":30000,"station_id":"ce4bgs12rcd13ifvqcag","pricing_plan_id":"cebpf4jnsgd1na2vs0mg"},{"bike_id":"5f4419c4-2604-4153-a71a-fae1b13a820c","system_id":"levelo_inurba_marseille","lat":43.27319,"lon":5.39112,"is_reserved":false,"is_disabled":false,"rental_uris":{"android":"levelo://app?vid=5f4419c4-2604-4153-a71a-fae1b13a820c","ios":"levelo://app?vid=5f4419c4-2604-4153-a71a-fae1b13a820c"},"vehicle_type_id":"4","last_reported":1738145352,"current_range_meters":38800,"station_id":"ce4bhgp2rcd13ifvqfe0","pricing_plan_id":"cebpf4jnsgd1na2vs0mg"},{"bike_id":"07556ea4-01ed-4d53-81d9-893d9b6d23fa","system_id":"levelo_inurba_marseille","lat":43.23151,"lon":5.4372,"is_reserved":false,"is_disabled":false,"rental_uris":{"android":"levelo://app?vid=07556ea4-01ed-4d53-81d9-893d9b6d23fa","ios":"levelo://app?vid=07556ea4-01ed-4d53-81d9-893d9b6d23fa"},"vehicle_type_id":"4","last_reported":1738145352,"current_range_meters":12400,"station_id":"ce4bhmp2rcd13ifvqgog","pricing_plan_id":"cebpf4jnsgd1na2vs0mg"},{"bike_id":"542c2176-6593-4f82-a71f-f1de3a92562f","system_id":"levelo_inurba_marseille","lat":43.2292,"lon":5.35387,"is_reserved":false,"is_disabled":false,"rental_uris":{"android":"levelo://app?vid=542c2176-6593-4f82-a71f-f1de3a92562f","ios":"levelo://app?vid=542c2176-6593-4f82-a71f-f1de3a92562f"},"vehicle_type_id":"4","last_reported":1738145352,"current_range_meters":38000,"station_id":"cpo3532slgdg3j2ikp40","pricing_plan_id":"cebpf4jnsgd1na2vs0mg"},{"bike_id":"6077467c-7074-4f45-87db-adb3cf561683","system_id":"levelo_inurba_marseille","lat":43.29414,"lon":5.38617,"is_reserved":false,"is_disabled":true,"rental_uris":{"android":"levelo://app?vid=6077467c-7074-4f45-87db-adb3cf561683","ios":"levelo://app?vid=6077467c-7074-4f45-87db-adb3cf561683"},"vehicle_type_id":"4","last_reported":1738145352,"current_range_meters":19200,"station_id":"ce4bh2h2rcd13ifvqdh0","pricing_plan_id":"cebpf4jnsgd1na2vs0mg"},{"bike_id":"2e0a8b86-b457-48a0-8577-213b01080398","system_id":"levelo_inurba_marseille","lat":43.231946,"lon":5.35549,"is_reserved":false,"is_disabled":false,"rental_uris":{"android":"levelo://app?vid=2e0a8b86-b457-48a0-8577-213b01080398","ios":"levelo://app?vid=2e0a8b86-b457-48a0-8577-213b01080398"},"vehicle_type_id":"4","last_reported":1738145352,"current_range_meters":38800,"station_id":"ce4bhu92rcd13ifvqi70","pricing_plan_id":"cebpf4jnsgd1na2vs0mg"},{"bike_id":"b3f1797d-01be-4a68-adfb-c13de74e21a5","system_id":"levelo_inurba_marseille","lat":43.29935,"lon":5.3653,"is_reserved":false,"is_disabled":false,"rental_uris":{"android":"levelo://app?vid=b3f1797d-01be-4a68-adfb-c13de74e21a5","ios":"levelo://app?vid=b3f1797d-01be-4a68-adfb-c13de74e21a5"},"vehicle_type_id":"4","last_reported":1738145352,"current_range_meters":28000,"station_id":"ce4bgm92rcd13ifvqbr0","pricing_plan_id":"cebpf4jnsgd1na2vs0mg"},{"bike_id":"d979d8d2-ec65-47af-9229-e4270aab279a","system_id":"levelo_inurba_marseille","lat":43.23056,"lon":5.35488,"is_reserved":false,"is_disabled":false,"rental_uris":{"android":"levelo://app?vid=d979d8d2-ec65-47af-9229-e4270aab279a","ios":"levelo://app?vid=d979d8d2-ec65-47af-9229-e4270aab279a"},"vehicle_type_id":"4","last_reported":1738145352,"current_range_meters":19600,"station_id":"cpo3342slgdg3j2ifvpg","pricing_plan_id":"cebpf4jnsgd1na2vs0mg"},{"bike_id":"beec82ff-6bac-4064-befa-4bdf4421761b","system_id":"levelo_inurba_marseille","lat":43.31723,"lon":5.42416,"is_reserved":false,"is_disabled":false,"rental_uris":{"android":"levelo://app?vid=beec82ff-6bac-4064-befa-4bdf4421761b","ios":"levelo://app?vid=beec82ff-6bac-4064-befa-4bdf4421761b"},"vehicle_type_id":"4","last_reported":1738145352,"current_range_meters":36400,"station_id":"ce4bhp92rcd13ifvqhbg","pricing_plan_id":"cebpf4jnsgd1na2vs0mg"},{"bike_id":"be2dd1aa-606f-4d53-b515-925f744ba08e","system_id":"levelo_inurba_marseille","lat":43.26788,"lon":5.39416,"is_reserved":false,"is_disabled":false,"rental_uris":{"android":"levelo://app?vid=be2dd1aa-606f-4d53-b515-925f744ba08e","ios":"levelo://app?vid=be2dd1aa-606f-4d53-b515-925f744ba08e"},"vehicle_type_id":"4","last_reported":1738145352,"current_range_meters":24000,"station_id":"ce4bhh12rcd13ifvqfg0","pricing_plan_id":"cebpf4jnsgd1na2vs0mg"},{"bike_id":"64be77f4-07a5-4d4b-b2d0-0608076ab689","system_id":"levelo_inurba_marseille","lat":43.30268,"lon":5.37717,"is_reserved":false,"is_disabled":false,"rental_uris":{"android":"levelo://app?vid=64be77f4-07a5-4d4b-b2d0-0608076ab689","ios":"levelo://app?vid=64be77f4-07a5-4d4b-b2d0-0608076ab689"},"vehicle_type_id":"4","last_reported":1738145352,"current_range_meters":24800,"station_id":"ce4bguh2rcd13ifvqcj0","pricing_plan_id":"cebpf4jnsgd1na2vs0mg"},{"bike_id":"8400d4d1-f3a9-4908-b181-0eb6fc5d39c8","system_id":"levelo_inurba_marseille","lat":43.30532,"lon":5.36729,"is_reserved":false,"is_disabled":false,"rental_uris":{"android":"levelo://app?vid=8400d4d1-f3a9-4908-b181-0eb6fc5d39c8","ios":"levelo://app?vid=8400d4d1-f3a9-4908-b181-0eb6fc5d39c8"},"vehicle_type_id":"4","last_reported":1738145352,"current_range_meters":26800,"station_id":"ce4bgrp2rcd13ifvqc9g","pricing_plan_id":"cebpf4jnsgd1na2vs0mg"},{"bike_id":"c92f3ed1-1832-45b1-95ae-e066a3c304bb","system_id":"levelo_inurba_marseille","lat":43.33028,"lon":5.39064,"is_reserved":false,"is_disabled":false,"rental_uris":{"android":"levelo://app?vid=c92f3ed1-1832-45b1-95ae-e066a3c304bb","ios":"levelo://app?vid=c92f3ed1-1832-45b1-95ae-e066a3c304bb"},"vehicle_type_id":"4","last_reported":1738145352,"current_range_meters":36400,"station_id":"ce4bhr92rcd13ifvqhrg","pricing_plan_id":"cebpf4jnsgd1na2vs0mg"},{"bike_id":"1e86e161-8dbf-4321-92e1-b9beb9a2d46b","system_id":"levelo_inurba_marseille","lat":43.31378,"lon":5.36686,"is_reserved":false,"is_disabled":false,"rental_uris":{"android":"levelo://app?vid=1e86e161-8dbf-4321-92e1-b9beb9a2d46b","ios":"levelo://app?vid=1e86e161-8dbf-4321-92e1-b9beb9a2d46b"},"vehicle_type_id":"4","last_reported":1738145352,"current_range_meters":36000,"station_id":"ce4bgr92rcd13ifvqc6g","pricing_plan_id":"cebpf4jnsgd1na2vs0mg"},{"bike_id":"e159c371-532a-4365-b2d5-c1222e0189e5","system_id":"levelo_inurba_marseille","lat":43.293707,"lon":5.37851,"is_reserved":false,"is_disabled":false,"rental_uris":{"android":"levelo://app?vid=e159c371-532a-4365-b2d5-c1222e0189e5","ios":"levelo://app?vid=e159c371-532a-4365-b2d5-c1222e0189e5"},"vehicle_type_id":"4","last_reported":1738145352,"current_range_meters":11200,"station_id":"ce4bgjh2rcd13ifvqbf0","pricing_plan_id":"cebpf4jnsgd1na2vs0mg"},{"bike_id":"815df10a-417d-4ac6-a444-446308a0c916","system_id":"levelo_inurba_marseille","lat":43.27371,"lon":5.36259,"is_reserved":false,"is_disabled":true,"rental_uris":{"android":"levelo://app?vid=815df10a-417d-4ac6-a444-446308a0c916","ios":"levelo://app?vid=815df10a-417d-4ac6-a444-446308a0c916"},"vehicle_type_id":"4","last_reported":1738145352,"current_range_meters":0,"station_id":"ce4bhbh2rcd13ifvqeo0","pricing_plan_id":"cebpf4jnsgd1na2vs0mg"},{"bike_id":"b16829f3-dc38-4a8c-9bf1-f26d827f5228","system_id":"levelo_inurba_marseille","lat":43.30274,"lon":5.37722,"is_reserved":false,"is_disabled":false,"rental_uris":{"android":"levelo://app?vid=b16829f3-dc38-4a8c-9bf1-f26d827f5228","ios":"levelo://app?vid=b16829f3-dc38-4a8c-9bf1-f26d827f5228"},"vehicle_type_id":"4","last_reported":1738145352,"current_range_meters":38400,"station_id":"ce4bguh2rcd13ifvqcj0","pricing_plan_id":"cebpf4jnsgd1na2vs0mg"},{"bike_id":"66e69199-96a9-4a16-9f1b-6109e5c14768","system_id":"levelo_inurba_marseille","lat":43.28702,"lon":5.37937,"is_reserved":false,"is_disabled":false,"rental_uris":{"android":"levelo://app?vid=66e69199-96a9-4a16-9f1b-6109e5c14768","ios":"levelo://app?vid=66e69199-96a9-4a16-9f1b-6109e5c14768"},"vehicle_type_id":"4","last_reported":1738145352,"current_range_meters":32800,"station_id":"ce4bh9p2rcd13ifvqec0","pricing_plan_id":"cebpf4jnsgd1na2vs0mg"},{"bike_id":"d8b1c3f9-ff6e-4179-8423-4ba0d2a2af0e","system_id":"levelo_inurba_marseille","lat":43.33744,"lon":5.3917,"is_reserved":false,"is_disabled":false,"rental_uris":{"android":"levelo://app?vid=d8b1c3f9-ff6e-4179-8423-4ba0d2a2af0e","ios":"levelo://app?vid=d8b1c3f9-ff6e-4179-8423-4ba0d2a2af0e"},"vehicle_type_id":"4","last_reported":1738145352,"current_range_meters":38800,"station_id":"ce4bhr92rcd13ifvqhsg","pricing_plan_id":"cebpf4jnsgd1na2vs0mg"},{"bike_id":"0520144e-bf2b-4b58-84b0-019fdf524ecd","system_id":"levelo_inurba_marseille","lat":43.2558,"lon":5.38246,"is_reserved":false,"is_disabled":false,"rental_uris":{"android":"levelo://app?vid=0520144e-bf2b-4b58-84b0-019fdf524ecd","ios":"levelo://app?vid=0520144e-bf2b-4b58-84b0-019fdf524ecd"},"vehicle_type_id":"4","last_reported":1738145352,"current_range_meters":28000,"station_id":"ce4bhih2rcd13ifvqfs0","pricing_plan_id":"cebpf4jnsgd1na2vs0mg"},{"bike_id":"ffa99bc8-be11-4af6-8115-5e881fa4d214","system_id":"levelo_inurba_marseille","lat":43.24685,"lon":5.38124,"is_reserved":false,"is_disabled":false,"rental_uris":{"android":"levelo://app?vid=ffa99bc8-be11-4af6-8115-5e881fa4d214","ios":"levelo://app?vid=ffa99bc8-be11-4af6-8115-5e881fa4d214"},"vehicle_type_id":"4","last_reported":1738145352,"current_range_meters":8400,"station_id":"ce4bhih2rcd13ifvqfr0","pricing_plan_id":"cebpf4jnsgd1na2vs0mg"},{"bike_id":"ddeeb021-3aa5-4692-ac65-d696b9db8d28","system_id":"levelo_inurba_marseille","lat":43.3301,"lon":5.39035,"is_reserved":false,"is_disabled":false,"rental_uris":{"android":"levelo://app?vid=ddeeb021-3aa5-4692-ac65-d696b9db8d28","ios":"levelo://app?vid=ddeeb021-3aa5-4692-ac65-d696b9db8d28"},"vehicle_type_id":"4","last_reported":1738145352,"current_range_meters":36800,"station_id":"ce4bhr92rcd13ifvqhrg","pricing_plan_id":"cebpf4jnsgd1na2vs0mg"},{"bike_id":"91394c05-5d2c-4802-8f5f-6f60929bbe7d","system_id":"levelo_inurba_marseille","lat":43.26825,"lon":5.39394,"is_reserved":false,"is_disabled":false,"rental_uris":{"android":"levelo://app?vid=91394c05-5d2c-4802-8f5f-6f60929bbe7d","ios":"levelo://app?vid=91394c05-5d2c-4802-8f5f-6f60929bbe7d"},"vehicle_type_id":"4","last_reported":1738145352,"current_range_meters":37600,"station_id":"ce4bhh12rcd13ifvqfg0","pricing_plan_id":"cebpf4jnsgd1na2vs0mg"},{"bike_id":"a30e66db-ca6e-4769-8c50-b29766a8c503","system_id":"levelo_inurba_marseille","lat":43.31343,"lon":5.3673,"is_reserved":false,"is_disabled":false,"rental_uris":{"android":"levelo://app?vid=a30e66db-ca6e-4769-8c50-b29766a8c503","ios":"levelo://app?vid=a30e66db-ca6e-4769-8c50-b29766a8c503"},"vehicle_type_id":"4","last_reported":1738145352,"current_range_meters":25200,"station_id":"ce4bgr92rcd13ifvqc6g","pricing_plan_id":"cebpf4jnsgd1na2vs0mg"},{"bike_id":"d656e198-de3b-4c19-bbf7-7cae59395c36","system_id":"levelo_inurba_marseille","lat":43.29225,"lon":5.36066,"is_reserved":false,"is_disabled":true,"rental_uris":{"android":"levelo://app?vid=d656e198-de3b-4c19-bbf7-7cae59395c36","ios":"levelo://app?vid=d656e198-de3b-4c19-bbf7-7cae59395c36"},"vehicle_type_id":"4","last_reported":1738145352,"current_range_meters":800,"station_id":"ce4bhbh2rcd13ifvqeqg","pricing_plan_id":"cebpf4jnsgd1na2vs0mg"},{"bike_id":"f4dd74a9-a4e1-4171-8564-2f3d5f39ace6","system_id":"levelo_inurba_marseille","lat":43.27827,"lon":5.40676,"is_reserved":false,"is_disabled":false,"rental_uris":{"android":"levelo://app?vid=f4dd74a9-a4e1-4171-8564-2f3d5f39ace6","ios":"levelo://app?vid=f4dd74a9-a4e1-4171-8564-2f3d5f39ace6"},"vehicle_type_id":"4","last_reported":1738145352,"current_range_meters":35200,"station_id":"ce4bhnh2rcd13ifvqgtg","pricing_plan_id":"cebpf4jnsgd1na2vs0mg"},{"bike_id":"222bee95-cf24-41bb-973f-e90eb444e827","system_id":"levelo_inurba_marseille","lat":43.27794,"lon":5.40741,"is_reserved":false,"is_disabled":false,"rental_uris":{"android":"levelo://app?vid=222bee95-cf24-41bb-973f-e90eb444e827","ios":"levelo://app?vid=222bee95-cf24-41bb-973f-e90eb444e827"},"vehicle_type_id":"4","last_reported":1738145352,"current_range_meters":36800,"station_id":"ce4bhnh2rcd13ifvqgtg","pricing_plan_id":"cebpf4jnsgd1na2vs0mg"},{"bike_id":"3c9c9088-9c27-4609-bc62-8218c0dc2be8","system_id":"levelo_inurba_marseille","lat":43.23189,"lon":5.35577,"is_reserved":false,"is_disabled":false,"rental_uris":{"android":"levelo://app?vid=3c9c9088-9c27-4609-bc62-8218c0dc2be8","ios":"levelo://app?vid=3c9c9088-9c27-4609-bc62-8218c0dc2be8"},"vehicle_type_id":"4","last_reported":1738145352,"current_range_meters":29600,"station_id":"ce4bhu92rcd13ifvqi70","pricing_plan_id":"cebpf4jnsgd1na2vs0mg"},{"bike_id":"bf0ac894-f542-4558-a0e8-5256c08bdaf0","system_id":"levelo_inurba_marseille","lat":43.3136,"lon":5.38487,"is_reserved":false,"is_disabled":false,"rental_uris":{"android":"levelo://app?vid=bf0ac894-f542-4558-a0e8-5256c08bdaf0","ios":"levelo://app?vid=bf0ac894-f542-4558-a0e8-5256c08bdaf0"},"vehicle_type_id":"4","last_reported":1738145352,"current_range_meters":33600,"station_id":"ce4bgt92rcd13ifvqcf0","pricing_plan_id":"cebpf4jnsgd1na2vs0mg"},{"bike_id":"528413ce-196d-4d7b-bc40-26631d1ef854","system_id":"levelo_inurba_marseille","lat":43.29518,"lon":5.40027,"is_reserved":false,"is_disabled":true,"rental_uris":{"android":"levelo://app?vid=528413ce-196d-4d7b-bc40-26631d1ef854","ios":"levelo://app?vid=528413ce-196d-4d7b-bc40-26631d1ef854"},"vehicle_type_id":"4","last_reported":1738145352,"current_range_meters":0,"station_id":"","pricing_plan_id":"cebpf4jnsgd1na2vs0mg"},{"bike_id":"cd0f46c4-e05f-4a8b-8cac-6491de2ffe72","system_id":"levelo_inurba_marseille","lat":43.26947,"lon":5.38904,"is_reserved":false,"is_disabled":false,"rental_uris":{"android":"levelo://app?vid=cd0f46c4-e05f-4a8b-8cac-6491de2ffe72","ios":"levelo://app?vid=cd0f46c4-e05f-4a8b-8cac-6491de2ffe72"},"vehicle_type_id":"4","last_reported":1738145352,"current_range_meters":38000,"station_id":"ce4bhhh2rcd13ifvqfl0","pricing_plan_id":"cebpf4jnsgd1na2vs0mg"},{"bike_id":"3a93e63e-0a7f-4739-b480-af363fed9289","system_id":"levelo_inurba_marseille","lat":43.26028,"lon":5.37547,"is_reserved":false,"is_disabled":false,"rental_uris":{"android":"levelo://app?vid=3a93e63e-0a7f-4739-b480-af363fed9289","ios":"levelo://app?vid=3a93e63e-0a7f-4739-b480-af363fed9289"},"vehicle_type_id":"4","last_reported":1738145352,"current_range_meters":27200,"station_id":"ce4bhgh2rcd13ifvqfa0","pricing_plan_id":"cebpf4jnsgd1na2vs0mg"},{"bike_id":"4411ff6a-64c2-4799-a3f2-7b1c9e2faadd","system_id":"levelo_inurba_marseille","lat":43.27923,"lon":5.39589,"is_reserved":false,"is_disabled":false,"rental_uris":{"android":"levelo://app?vid=4411ff6a-64c2-4799-a3f2-7b1c9e2faadd","ios":"levelo://app?vid=4411ff6a-64c2-4799-a3f2-7b1c9e2faadd"},"vehicle_type_id":"4","last_reported":1738145352,"current_range_meters":38800,"station_id":"ce4bhf92rcd13ifvqf40","pricing_plan_id":"cebpf4jnsgd1na2vs0mg"},{"bike_id":"15af56a0-50cc-4287-938a-57061c15f0c6","system_id":"levelo_inurba_marseille","lat":43.33061,"lon":5.39031,"is_reserved":false,"is_disabled":false,"rental_uris":{"android":"levelo://app?vid=15af56a0-50cc-4287-938a-57061c15f0c6","ios":"levelo://app?vid=15af56a0-50cc-4287-938a-57061c15f0c6"},"vehicle_type_id":"4","last_reported":1738145352,"current_range_meters":32000,"station_id":"ce4bhr92rcd13ifvqhrg","pricing_plan_id":"cebpf4jnsgd1na2vs0mg"},{"bike_id":"8a60bb4b-25bf-4124-9f01-27d1a641f4ba","system_id":"levelo_inurba_marseille","lat":43.30118,"lon":5.39854,"is_reserved":false,"is_disabled":false,"rental_uris":{"android":"levelo://app?vid=8a60bb4b-25bf-4124-9f01-27d1a641f4ba","ios":"levelo://app?vid=8a60bb4b-25bf-4124-9f01-27d1a641f4ba"},"vehicle_type_id":"4","last_reported":1738145352,"current_range_meters":38800,"station_id":"ce4bh0h2rcd13ifvqd40","pricing_plan_id":"cebpf4jnsgd1na2vs0mg"},{"bike_id":"a847ab9e-553b-47fa-9589-9ee8c06523da","system_id":"levelo_inurba_marseille","lat":43.28343,"lon":5.38108,"is_reserved":false,"is_disabled":false,"rental_uris":{"android":"levelo://app?vid=a847ab9e-553b-47fa-9589-9ee8c06523da","ios":"levelo://app?vid=a847ab9e-553b-47fa-9589-9ee8c06523da"},"vehicle_type_id":"4","last_reported":1738145352,"current_range_meters":25200,"station_id":"ce4bh412rcd13ifvqdr0","pricing_plan_id":"cebpf4jnsgd1na2vs0mg"},{"bike_id":"7427c665-2cc8-4882-8959-647a0d86024a","system_id":"levelo_inurba_marseille","lat":43.30352,"lon":5.41893,"is_reserved":false,"is_disabled":false,"rental_uris":{"android":"levelo://app?vid=7427c665-2cc8-4882-8959-647a0d86024a","ios":"levelo://app?vid=7427c665-2cc8-4882-8959-647a0d86024a"},"vehicle_type_id":"4","last_reported":1738145352,"current_range_meters":38800,"station_id":"ce4bhop2rcd13ifvqh7g","pricing_plan_id":"cebpf4jnsgd1na2vs0mg"},{"bike_id":"e4101bb6-9e3f-4fa6-a23d-cf92d11609b5","system_id":"levelo_inurba_marseille","lat":43.2767,"lon":5.3889,"is_reserved":false,"is_disabled":false,"rental_uris":{"android":"levelo://app?vid=e4101bb6-9e3f-4fa6-a23d-cf92d11609b5","ios":"levelo://app?vid=e4101bb6-9e3f-4fa6-a23d-cf92d11609b5"},"vehicle_type_id":"4","last_reported":1738145352,"current_range_meters":38400,"station_id":"ce4bhi12rcd13ifvqfo0","pricing_plan_id":"cebpf4jnsgd1na2vs0mg"},{"bike_id":"53d46465-1c69-4274-9bb5-d6a4feb5e603","system_id":"levelo_inurba_marseille","lat":43.31343,"lon":5.36708,"is_reserved":false,"is_disabled":false,"rental_uris":{"android":"levelo://app?vid=53d46465-1c69-4274-9bb5-d6a4feb5e603","ios":"levelo://app?vid=53d46465-1c69-4274-9bb5-d6a4feb5e603"},"vehicle_type_id":"4","last_reported":1738145352,"current_range_meters":38800,"station_id":"ce4bgr92rcd13ifvqc6g","pricing_plan_id":"cebpf4jnsgd1na2vs0mg"},{"bike_id":"0e286095-0818-4ab7-a2d5-e0c249a69d01","system_id":"levelo_inurba_marseille","lat":43.30293,"lon":5.3689,"is_reserved":false,"is_disabled":false,"rental_uris":{"android":"levelo://app?vid=0e286095-0818-4ab7-a2d5-e0c249a69d01","ios":"levelo://app?vid=0e286095-0818-4ab7-a2d5-e0c249a69d01"},"vehicle_type_id":"4","last_reported":1738145352,"current_range_meters":10800,"station_id":"ce4bgqh2rcd13ifvqc5g","pricing_plan_id":"cebpf4jnsgd1na2vs0mg"},{"bike_id":"062acaa4-8533-423f-9d09-91cd05437850","system_id":"levelo_inurba_marseille","lat":43.33025,"lon":5.39088,"is_reserved":false,"is_disabled":true,"rental_uris":{"android":"levelo://app?vid=062acaa4-8533-423f-9d09-91cd05437850","ios":"levelo://app?vid=062acaa4-8533-423f-9d09-91cd05437850"},"vehicle_type_id":"4","last_reported":1738145352,"current_range_meters":6800,"station_id":"ce4bhr92rcd13ifvqhrg","pricing_plan_id":"cebpf4jnsgd1na2vs0mg"},{"bike_id":"ec2373b7-83ac-4a62-b65d-1d6b6b9cfea9","system_id":"levelo_inurba_marseille","lat":43.27561,"lon":5.38419,"is_reserved":false,"is_disabled":false,"rental_uris":{"android":"levelo://app?vid=ec2373b7-83ac-4a62-b65d-1d6b6b9cfea9","ios":"levelo://app?vid=ec2373b7-83ac-4a62-b65d-1d6b6b9cfea9"},"vehicle_type_id":"4","last_reported":1738145352,"current_range_meters":16400,"station_id":"ce4bhh92rcd13ifvqfi0","pricing_plan_id":"cebpf4jnsgd1na2vs0mg"},{"bike_id":"2480575a-89e6-465a-940e-0d106ae4d9ba","system_id":"levelo_inurba_marseille","lat":43.296,"lon":5.38113,"is_reserved":false,"is_disabled":false,"rental_uris":{"android":"levelo://app?vid=2480575a-89e6-465a-940e-0d106ae4d9ba","ios":"levelo://app?vid=2480575a-89e6-465a-940e-0d106ae4d9ba"},"vehicle_type_id":"4","last_reported":1738145352,"current_range_meters":38800,"station_id":"ce4bgl12rcd13ifvqbo0","pricing_plan_id":"cebpf4jnsgd1na2vs0mg"},{"bike_id":"05b11dd3-6a9c-4f38-8b8d-f8ec90669833","system_id":"levelo_inurba_marseille","lat":43.3359,"lon":5.41002,"is_reserved":false,"is_disabled":false,"rental_uris":{"android":"levelo://app?vid=05b11dd3-6a9c-4f38-8b8d-f8ec90669833","ios":"levelo://app?vid=05b11dd3-6a9c-4f38-8b8d-f8ec90669833"},"vehicle_type_id":"4","last_reported":1738145352,"current_range_meters":39200,"station_id":"ce4bhqh2rcd13ifvqhmg","pricing_plan_id":"cebpf4jnsgd1na2vs0mg"},{"bike_id":"77d8fb63-eb70-4f2f-b3ba-1fc45096fba2","system_id":"levelo_inurba_marseille","lat":43.28721,"lon":5.36078,"is_reserved":false,"is_disabled":false,"rental_uris":{"android":"levelo://app?vid=77d8fb63-eb70-4f2f-b3ba-1fc45096fba2","ios":"levelo://app?vid=77d8fb63-eb70-4f2f-b3ba-1fc45096fba2"},"vehicle_type_id":"4","last_reported":1738145352,"current_range_meters":38400,"station_id":"cki0cbj6b192h4jlfktg","pricing_plan_id":"cebpf4jnsgd1na2vs0mg"},{"bike_id":"ee023983-6269-448d-911c-640eec274fc8","system_id":"levelo_inurba_marseille","lat":43.29527,"lon":5.393996,"is_reserved":false,"is_disabled":false,"rental_uris":{"android":"levelo://app?vid=ee023983-6269-448d-911c-640eec274fc8","ios":"levelo://app?vid=ee023983-6269-448d-911c-640eec274fc8"},"vehicle_type_id":"4","last_reported":1738145352,"current_range_meters":20800,"station_id":"ce4bhbh2rcd13ifvqeo0","pricing_plan_id":"cebpf4jnsgd1na2vs0mg"},{"bike_id":"ab2c796a-c23b-4a3a-9534-777b873d6a05","system_id":"levelo_inurba_marseille","lat":43.24161,"lon":5.36416,"is_reserved":false,"is_disabled":false,"rental_uris":{"android":"levelo://app?vid=ab2c796a-c23b-4a3a-9534-777b873d6a05","ios":"levelo://app?vid=ab2c796a-c23b-4a3a-9534-777b873d6a05"},"vehicle_type_id":"4","last_reported":1738145352,"current_range_meters":16800,"station_id":"cpo36qri1sfpv3e86is0","pricing_plan_id":"cebpf4jnsgd1na2vs0mg"},{"bike_id":"eae93a2e-3d54-4c14-b5bd-7b0326eb0d03","system_id":"levelo_inurba_marseille","lat":43.2935,"lon":5.37851,"is_reserved":false,"is_disabled":true,"rental_uris":{"android":"levelo://app?vid=eae93a2e-3d54-4c14-b5bd-7b0326eb0d03","ios":"levelo://app?vid=eae93a2e-3d54-4c14-b5bd-7b0326eb0d03"},"vehicle_type_id":"4","last_reported":1738145352,"current_range_meters":12000,"station_id":"ce4bgjh2rcd13ifvqbf0","pricing_plan_id":"cebpf4jnsgd1na2vs0mg"},{"bike_id":"8dc2acd3-1b02-4448-b157-b06fe514afd9","system_id":"levelo_inurba_marseille","lat":43.2467,"lon":5.38144,"is_reserved":false,"is_disabled":false,"rental_uris":{"android":"levelo://app?vid=8dc2acd3-1b02-4448-b157-b06fe514afd9","ios":"levelo://app?vid=8dc2acd3-1b02-4448-b157-b06fe514afd9"},"vehicle_type_id":"4","last_reported":1738145352,"current_range_meters":37600,"station_id":"ce4bhih2rcd13ifvqfr0","pricing_plan_id":"cebpf4jnsgd1na2vs0mg"},{"bike_id":"4ed27757-783d-49c2-9640-6ee12b611a74","system_id":"levelo_inurba_marseille","lat":43.26676,"lon":5.38284,"is_reserved":false,"is_disabled":false,"rental_uris":{"android":"levelo://app?vid=4ed27757-783d-49c2-9640-6ee12b611a74","ios":"levelo://app?vid=4ed27757-783d-49c2-9640-6ee12b611a74"},"vehicle_type_id":"4","last_reported":1738145352,"current_range_meters":16400,"station_id":"ce4bhg92rcd13ifvqf90","pricing_plan_id":"cebpf4jnsgd1na2vs0mg"},{"bike_id":"f541526e-fd2d-466f-9e28-b55c9e2f299c","system_id":"levelo_inurba_marseille","lat":43.337444,"lon":5.374475,"is_reserved":false,"is_disabled":false,"rental_uris":{"android":"levelo://app?vid=f541526e-fd2d-466f-9e28-b55c9e2f299c","ios":"levelo://app?vid=f541526e-fd2d-466f-9e28-b55c9e2f299c"},"vehicle_type_id":"4","last_reported":1738145352,"current_range_meters":2800,"station_id":"","pricing_plan_id":"cebpf4jnsgd1na2vs0mg"},{"bike_id":"7023018f-a9cc-4d01-b59d-de75cc5a9d8d","system_id":"levelo_inurba_marseille","lat":43.30159,"lon":5.38096,"is_reserved":false,"is_disabled":false,"rental_uris":{"android":"levelo://app?vid=7023018f-a9cc-4d01-b59d-de75cc5a9d8d","ios":"levelo://app?vid=7023018f-a9cc-4d01-b59d-de75cc5a9d8d"},"vehicle_type_id":"4","last_reported":1738145352,"current_range_meters":34800,"station_id":"ce4bgjp2rcd13ifvqbh0","pricing_plan_id":"cebpf4jnsgd1na2vs0mg"},{"bike_id":"24d4f5ef-361b-4b35-a071-0fe3b8f26f07","system_id":"levelo_inurba_marseille","lat":43.27489,"lon":5.42462,"is_reserved":false,"is_disabled":false,"rental_uris":{"android":"levelo://app?vid=24d4f5ef-361b-4b35-a071-0fe3b8f26f07","ios":"levelo://app?vid=24d4f5ef-361b-4b35-a071-0fe3b8f26f07"},"vehicle_type_id":"4","last_reported":1738145352,"current_range_meters":38800,"station_id":"ce4bhn92rcd13ifvqgrg","pricing_plan_id":"cebpf4jnsgd1na2vs0mg"},{"bike_id":"fe1cc2f0-0a29-47aa-bb62-60adbf31ee09","system_id":"levelo_inurba_marseille","lat":43.27488,"lon":5.42472,"is_reserved":false,"is_disabled":false,"rental_uris":{"android":"levelo://app?vid=fe1cc2f0-0a29-47aa-bb62-60adbf31ee09","ios":"levelo://app?vid=fe1cc2f0-0a29-47aa-bb62-60adbf31ee09"},"vehicle_type_id":"4","last_reported":1738145352,"current_range_meters":20800,"station_id":"ce4bhn92rcd13ifvqgrg","pricing_plan_id":"cebpf4jnsgd1na2vs0mg"},{"bike_id":"d9ef2b50-8677-48e8-9305-30387e08f9f2","system_id":"levelo_inurba_marseille","lat":43.3019,"lon":5.36601,"is_reserved":false,"is_disabled":false,"rental_uris":{"android":"levelo://app?vid=d9ef2b50-8677-48e8-9305-30387e08f9f2","ios":"levelo://app?vid=d9ef2b50-8677-48e8-9305-30387e08f9f2"},"vehicle_type_id":"4","last_reported":1738145352,"current_range_meters":38000,"station_id":"ce4bgrh2rcd13ifvqc8g","pricing_plan_id":"cebpf4jnsgd1na2vs0mg"},{"bike_id":"f0f07e84-01c4-443b-852b-4e00b882c1d8","system_id":"levelo_inurba_marseille","lat":43.30793,"lon":5.43544,"is_reserved":false,"is_disabled":false,"rental_uris":{"android":"levelo://app?vid=f0f07e84-01c4-443b-852b-4e00b882c1d8","ios":"levelo://app?vid=f0f07e84-01c4-443b-852b-4e00b882c1d8"},"vehicle_type_id":"4","last_reported":1738145352,"current_range_meters":39200,"station_id":"ce4bhph2rcd13ifvqheg","pricing_plan_id":"cebpf4jnsgd1na2vs0mg"},{"bike_id":"07d3ef5b-81f6-45ec-91d1-c42d4e295b17","system_id":"levelo_inurba_marseille","lat":43.24636,"lon":5.3889,"is_reserved":false,"is_disabled":false,"rental_uris":{"android":"levelo://app?vid=07d3ef5b-81f6-45ec-91d1-c42d4e295b17","ios":"levelo://app?vid=07d3ef5b-81f6-45ec-91d1-c42d4e295b17"},"vehicle_type_id":"4","last_reported":1738145352,"current_range_meters":26000,"station_id":"ce4bhg12rcd13ifvqf60","pricing_plan_id":"cebpf4jnsgd1na2vs0mg"},{"bike_id":"8378b129-9c0d-44b5-9c61-be207ba082f3","system_id":"levelo_inurba_marseille","lat":43.24046,"lon":5.37757,"is_reserved":false,"is_disabled":false,"rental_uris":{"android":"levelo://app?vid=8378b129-9c0d-44b5-9c61-be207ba082f3","ios":"levelo://app?vid=8378b129-9c0d-44b5-9c61-be207ba082f3"},"vehicle_type_id":"4","last_reported":1738145352,"current_range_meters":16000,"station_id":"ce4bhnp2rcd13ifvqgvg","pricing_plan_id":"cebpf4jnsgd1na2vs0mg"},{"bike_id":"3afe2907-14fe-40b0-8ce8-247215ed16c8","system_id":"levelo_inurba_marseille","lat":43.26934,"lon":5.38947,"is_reserved":false,"is_disabled":true,"rental_uris":{"android":"levelo://app?vid=3afe2907-14fe-40b0-8ce8-247215ed16c8","ios":"levelo://app?vid=3afe2907-14fe-40b0-8ce8-247215ed16c8"},"vehicle_type_id":"4","last_reported":1738145352,"current_range_meters":5600,"station_id":"ce4bhhh2rcd13ifvqfl0","pricing_plan_id":"cebpf4jnsgd1na2vs0mg"},{"bike_id":"e8e1f7c6-d773-4c38-bfcc-4a6d773355ce","system_id":"levelo_inurba_marseille","lat":43.22931,"lon":5.35391,"is_reserved":false,"is_disabled":false,"rental_uris":{"android":"levelo://app?vid=e8e1f7c6-d773-4c38-bfcc-4a6d773355ce","ios":"levelo://app?vid=e8e1f7c6-d773-4c38-bfcc-4a6d773355ce"},"vehicle_type_id":"4","last_reported":1738145352,"current_range_meters":38800,"station_id":"cpo3532slgdg3j2ikp40","pricing_plan_id":"cebpf4jnsgd1na2vs0mg"},{"bike_id":"65a4fd37-d87a-41db-b970-5d3a9a8b7aa1","system_id":"levelo_inurba_marseille","lat":43.23186,"lon":5.35565,"is_reserved":false,"is_disabled":false,"rental_uris":{"android":"levelo://app?vid=65a4fd37-d87a-41db-b970-5d3a9a8b7aa1","ios":"levelo://app?vid=65a4fd37-d87a-41db-b970-5d3a9a8b7aa1"},"vehicle_type_id":"4","last_reported":1738145352,"current_range_meters":10800,"station_id":"ce4bhu92rcd13ifvqi70","pricing_plan_id":"cebpf4jnsgd1na2vs0mg"},{"bike_id":"3db96b0b-b0cf-4283-a863-386edecd0027","system_id":"levelo_inurba_marseille","lat":43.23126,"lon":5.43751,"is_reserved":false,"is_disabled":false,"rental_uris":{"android":"levelo://app?vid=3db96b0b-b0cf-4283-a863-386edecd0027","ios":"levelo://app?vid=3db96b0b-b0cf-4283-a863-386edecd0027"},"vehicle_type_id":"4","last_reported":1738145352,"current_range_meters":19600,"station_id":"","pricing_plan_id":"cebpf4jnsgd1na2vs0mg"},{"bike_id":"8f75a48c-28a2-411d-88e8-f02b7a2cf9a6","system_id":"levelo_inurba_marseille","lat":43.30242,"lon":5.4007,"is_reserved":false,"is_disabled":false,"rental_uris":{"android":"levelo://app?vid=8f75a48c-28a2-411d-88e8-f02b7a2cf9a6","ios":"levelo://app?vid=8f75a48c-28a2-411d-88e8-f02b7a2cf9a6"},"vehicle_type_id":"4","last_reported":1738145352,"current_range_meters":8000,"station_id":"ce4bgvh2rcd13ifvqcs0","pricing_plan_id":"cebpf4jnsgd1na2vs0mg"},{"bike_id":"cc26c524-9981-41d6-9e25-17cb40d9e550","system_id":"levelo_inurba_marseille","lat":43.24828,"lon":5.37471,"is_reserved":false,"is_disabled":false,"rental_uris":{"android":"levelo://app?vid=cc26c524-9981-41d6-9e25-17cb40d9e550","ios":"levelo://app?vid=cc26c524-9981-41d6-9e25-17cb40d9e550"},"vehicle_type_id":"4","last_reported":1738145352,"current_range_meters":24400,"station_id":"ce4bhgh2rcd13ifvqfb0","pricing_plan_id":"cebpf4jnsgd1na2vs0mg"},{"bike_id":"8b6a2e22-7314-494c-be31-0722e29d3f36","system_id":"levelo_inurba_marseille","lat":43.27984,"lon":5.4003,"is_reserved":false,"is_disabled":false,"rental_uris":{"android":"levelo://app?vid=8b6a2e22-7314-494c-be31-0722e29d3f36","ios":"levelo://app?vid=8b6a2e22-7314-494c-be31-0722e29d3f36"},"vehicle_type_id":"4","last_reported":1738145352,"current_range_meters":3600,"station_id":"ce4bho92rcd13ifvqh4g","pricing_plan_id":"cebpf4jnsgd1na2vs0mg"},{"bike_id":"919aa8ae-fd71-4d52-b48e-95a190a0964b","system_id":"levelo_inurba_marseille","lat":43.31361,"lon":5.36713,"is_reserved":false,"is_disabled":false,"rental_uris":{"android":"levelo://app?vid=919aa8ae-fd71-4d52-b48e-95a190a0964b","ios":"levelo://app?vid=919aa8ae-fd71-4d52-b48e-95a190a0964b"},"vehicle_type_id":"4","last_reported":1738145352,"current_range_meters":18000,"station_id":"ce4bgr92rcd13ifvqc6g","pricing_plan_id":"cebpf4jnsgd1na2vs0mg"},{"bike_id":"d2ba8cbd-e107-41fa-882b-d50eeee6fed0","system_id":"levelo_inurba_marseille","lat":43.29529,"lon":5.3855,"is_reserved":false,"is_disabled":false,"rental_uris":{"android":"levelo://app?vid=d2ba8cbd-e107-41fa-882b-d50eeee6fed0","ios":"levelo://app?vid=d2ba8cbd-e107-41fa-882b-d50eeee6fed0"},"vehicle_type_id":"4","last_reported":1738145352,"current_range_meters":33200,"station_id":"ce4bgih2rcd13ifvqba0","pricing_plan_id":"cebpf4jnsgd1na2vs0mg"},{"bike_id":"dd195832-ff3f-4763-a260-74003ef7ff4c","system_id":"levelo_inurba_marseille","lat":43.29211,"lon":5.36061,"is_reserved":false,"is_disabled":false,"rental_uris":{"android":"levelo://app?vid=dd195832-ff3f-4763-a260-74003ef7ff4c","ios":"levelo://app?vid=dd195832-ff3f-4763-a260-74003ef7ff4c"},"vehicle_type_id":"4","last_reported":1738145352,"current_range_meters":34800,"station_id":"ce4bhbh2rcd13ifvqeqg","pricing_plan_id":"cebpf4jnsgd1na2vs0mg"},{"bike_id":"33ed577c-1002-458d-9695-2bc3fedeceaf","system_id":"levelo_inurba_marseille","lat":43.30138,"lon":5.39862,"is_reserved":false,"is_disabled":false,"rental_uris":{"android":"levelo://app?vid=33ed577c-1002-458d-9695-2bc3fedeceaf","ios":"levelo://app?vid=33ed577c-1002-458d-9695-2bc3fedeceaf"},"vehicle_type_id":"4","last_reported":1738145352,"current_range_meters":30800,"station_id":"ce4bh0h2rcd13ifvqd40","pricing_plan_id":"cebpf4jnsgd1na2vs0mg"},{"bike_id":"504dea5b-3c2a-489e-8275-d8db04b04cbd","system_id":"levelo_inurba_marseille","lat":43.2873,"lon":5.38402,"is_reserved":false,"is_disabled":false,"rental_uris":{"android":"levelo://app?vid=504dea5b-3c2a-489e-8275-d8db04b04cbd","ios":"levelo://app?vid=504dea5b-3c2a-489e-8275-d8db04b04cbd"},"vehicle_type_id":"4","last_reported":1738145352,"current_range_meters":34800,"station_id":"","pricing_plan_id":"cebpf4jnsgd1na2vs0mg"},{"bike_id":"24808ffd-a683-445e-8577-a20ef0674bec","system_id":"levelo_inurba_marseille","lat":43.30278,"lon":5.37708,"is_reserved":false,"is_disabled":false,"rental_uris":{"android":"levelo://app?vid=24808ffd-a683-445e-8577-a20ef0674bec","ios":"levelo://app?vid=24808ffd-a683-445e-8577-a20ef0674bec"},"vehicle_type_id":"4","last_reported":1738145352,"current_range_meters":36000,"station_id":"ce4bguh2rcd13ifvqcj0","pricing_plan_id":"cebpf4jnsgd1na2vs0mg"},{"bike_id":"3bee4485-5796-46ad-a9f6-fae4ffbd959c","system_id":"levelo_inurba_marseille","lat":43.2749,"lon":5.42462,"is_reserved":false,"is_disabled":false,"rental_uris":{"android":"levelo://app?vid=3bee4485-5796-46ad-a9f6-fae4ffbd959c","ios":"levelo://app?vid=3bee4485-5796-46ad-a9f6-fae4ffbd959c"},"vehicle_type_id":"4","last_reported":1738145352,"current_range_meters":28000,"station_id":"ce4bhn92rcd13ifvqgrg","pricing_plan_id":"cebpf4jnsgd1na2vs0mg"},{"bike_id":"8a75c218-745e-4d5a-8531-47bf77bd2d40","system_id":"levelo_inurba_marseille","lat":43.24638,"lon":5.38932,"is_reserved":false,"is_disabled":false,"rental_uris":{"android":"levelo://app?vid=8a75c218-745e-4d5a-8531-47bf77bd2d40","ios":"levelo://app?vid=8a75c218-745e-4d5a-8531-47bf77bd2d40"},"vehicle_type_id":"4","last_reported":1738145352,"current_range_meters":27200,"station_id":"ce4bhg12rcd13ifvqf60","pricing_plan_id":"cebpf4jnsgd1na2vs0mg"},{"bike_id":"71f34f72-d3b7-46a5-9bd4-1fe057b3152f","system_id":"levelo_inurba_marseille","lat":43.22927,"lon":5.35429,"is_reserved":false,"is_disabled":false,"rental_uris":{"android":"levelo://app?vid=71f34f72-d3b7-46a5-9bd4-1fe057b3152f","ios":"levelo://app?vid=71f34f72-d3b7-46a5-9bd4-1fe057b3152f"},"vehicle_type_id":"4","last_reported":1738145352,"current_range_meters":38800,"station_id":"cpo3532slgdg3j2ikp40","pricing_plan_id":"cebpf4jnsgd1na2vs0mg"},{"bike_id":"0fbebbde-03bb-4c3d-98b5-24503025a17d","system_id":"levelo_inurba_marseille","lat":43.29679,"lon":5.37702,"is_reserved":false,"is_disabled":false,"rental_uris":{"android":"levelo://app?vid=0fbebbde-03bb-4c3d-98b5-24503025a17d","ios":"levelo://app?vid=0fbebbde-03bb-4c3d-98b5-24503025a17d"},"vehicle_type_id":"4","last_reported":1738145352,"current_range_meters":3200,"station_id":"ce4bgkh2rcd13ifvqbl0","pricing_plan_id":"cebpf4jnsgd1na2vs0mg"},{"bike_id":"20029bdd-9f9c-4ff9-86e4-5ba6ed30f46a","system_id":"levelo_inurba_marseille","lat":43.23133,"lon":5.43729,"is_reserved":false,"is_disabled":true,"rental_uris":{"android":"levelo://app?vid=20029bdd-9f9c-4ff9-86e4-5ba6ed30f46a","ios":"levelo://app?vid=20029bdd-9f9c-4ff9-86e4-5ba6ed30f46a"},"vehicle_type_id":"4","last_reported":1738145352,"current_range_meters":0,"station_id":"ce4bhmp2rcd13ifvqgog","pricing_plan_id":"cebpf4jnsgd1na2vs0mg"},{"bike_id":"3e9807cc-deb4-4a9a-bbea-c5ca08903cd0","system_id":"levelo_inurba_marseille","lat":43.31079,"lon":5.42437,"is_reserved":false,"is_disabled":false,"rental_uris":{"android":"levelo://app?vid=3e9807cc-deb4-4a9a-bbea-c5ca08903cd0","ios":"levelo://app?vid=3e9807cc-deb4-4a9a-bbea-c5ca08903cd0"},"vehicle_type_id":"4","last_reported":1738145352,"current_range_meters":18000,"station_id":"ce4bhp92rcd13ifvqhag","pricing_plan_id":"cebpf4jnsgd1na2vs0mg"},{"bike_id":"f04dd4b1-659a-4eea-9dba-7b4b581c744c","system_id":"levelo_inurba_marseille","lat":43.27421,"lon":5.39418,"is_reserved":false,"is_disabled":false,"rental_uris":{"android":"levelo://app?vid=f04dd4b1-659a-4eea-9dba-7b4b581c744c","ios":"levelo://app?vid=f04dd4b1-659a-4eea-9dba-7b4b581c744c"},"vehicle_type_id":"4","last_reported":1738145352,"current_range_meters":24400,"station_id":"ce4bhdp2rcd13ifvqf20","pricing_plan_id":"cebpf4jnsgd1na2vs0mg"},{"bike_id":"9ce9f170-7e02-4119-935d-0f998ccda282","system_id":"levelo_inurba_marseille","lat":43.27307,"lon":5.3908,"is_reserved":false,"is_disabled":false,"rental_uris":{"android":"levelo://app?vid=9ce9f170-7e02-4119-935d-0f998ccda282","ios":"levelo://app?vid=9ce9f170-7e02-4119-935d-0f998ccda282"},"vehicle_type_id":"4","last_reported":1738145352,"current_range_meters":12000,"station_id":"ce4bhgp2rcd13ifvqfe0","pricing_plan_id":"cebpf4jnsgd1na2vs0mg"},{"bike_id":"1365346e-17eb-40ca-9b86-13a72a1f2daf","system_id":"levelo_inurba_marseille","lat":43.31354,"lon":5.38498,"is_reserved":false,"is_disabled":false,"rental_uris":{"android":"levelo://app?vid=1365346e-17eb-40ca-9b86-13a72a1f2daf","ios":"levelo://app?vid=1365346e-17eb-40ca-9b86-13a72a1f2daf"},"vehicle_type_id":"4","last_reported":1738145352,"current_range_meters":32400,"station_id":"ce4bgt92rcd13ifvqcf0","pricing_plan_id":"cebpf4jnsgd1na2vs0mg"},{"bike_id":"92d77aac-c1cf-42fc-be7e-7fb6243deed4","system_id":"levelo_inurba_marseille","lat":43.30096,"lon":5.39089,"is_reserved":false,"is_disabled":false,"rental_uris":{"android":"levelo://app?vid=92d77aac-c1cf-42fc-be7e-7fb6243deed4","ios":"levelo://app?vid=92d77aac-c1cf-42fc-be7e-7fb6243deed4"},"vehicle_type_id":"4","last_reported":1738145352,"current_range_meters":22000,"station_id":"ce4bh192rcd13ifvqdb0","pricing_plan_id":"cebpf4jnsgd1na2vs0mg"},{"bike_id":"f9333660-e73f-4a24-b180-85b08b58f319","system_id":"levelo_inurba_marseille","lat":43.27661,"lon":5.38924,"is_reserved":false,"is_disabled":false,"rental_uris":{"android":"levelo://app?vid=f9333660-e73f-4a24-b180-85b08b58f319","ios":"levelo://app?vid=f9333660-e73f-4a24-b180-85b08b58f319"},"vehicle_type_id":"4","last_reported":1738145352,"current_range_meters":18000,"station_id":"ce4bhi12rcd13ifvqfo0","pricing_plan_id":"cebpf4jnsgd1na2vs0mg"},{"bike_id":"3fb74e29-7f1d-4c67-8af5-0bb8332df870","system_id":"levelo_inurba_marseille","lat":43.24395,"lon":5.37094,"is_reserved":false,"is_disabled":false,"rental_uris":{"android":"levelo://app?vid=3fb74e29-7f1d-4c67-8af5-0bb8332df870","ios":"levelo://app?vid=3fb74e29-7f1d-4c67-8af5-0bb8332df870"},"vehicle_type_id":"4","last_reported":1738145352,"current_range_meters":29600,"station_id":"ce4bhhh2rcd13ifvqfk0","pricing_plan_id":"cebpf4jnsgd1na2vs0mg"},{"bike_id":"1efa37f5-f91d-4177-a8f3-aa1e86a5af85","system_id":"levelo_inurba_marseille","lat":43.33595,"lon":5.41006,"is_reserved":false,"is_disabled":false,"rental_uris":{"android":"levelo://app?vid=1efa37f5-f91d-4177-a8f3-aa1e86a5af85","ios":"levelo://app?vid=1efa37f5-f91d-4177-a8f3-aa1e86a5af85"},"vehicle_type_id":"4","last_reported":1738145352,"current_range_meters":10000,"station_id":"ce4bhqh2rcd13ifvqhmg","pricing_plan_id":"cebpf4jnsgd1na2vs0mg"},{"bike_id":"a1f25abd-5197-4524-ac53-ad8743bef105","system_id":"levelo_inurba_marseille","lat":43.29894,"lon":5.4366,"is_reserved":false,"is_disabled":true,"rental_uris":{"android":"levelo://app?vid=a1f25abd-5197-4524-ac53-ad8743bef105","ios":"levelo://app?vid=a1f25abd-5197-4524-ac53-ad8743bef105"},"vehicle_type_id":"4","last_reported":1738145352,"current_range_meters":34800,"station_id":"ce4bhpp2rcd13ifvqhfg","pricing_plan_id":"cebpf4jnsgd1na2vs0mg"},{"bike_id":"5b4f2f8c-2a9b-4cc2-b6cc-1ff207bf40f1","system_id":"levelo_inurba_marseille","lat":43.30271,"lon":5.37704,"is_reserved":false,"is_disabled":false,"rental_uris":{"android":"levelo://app?vid=5b4f2f8c-2a9b-4cc2-b6cc-1ff207bf40f1","ios":"levelo://app?vid=5b4f2f8c-2a9b-4cc2-b6cc-1ff207bf40f1"},"vehicle_type_id":"4","last_reported":1738145352,"current_range_meters":16000,"station_id":"ce4bguh2rcd13ifvqcj0","pricing_plan_id":"cebpf4jnsgd1na2vs0mg"},{"bike_id":"f758916d-7680-40a3-9582-cd262e26db01","system_id":"levelo_inurba_marseille","lat":43.32467,"lon":5.36603,"is_reserved":false,"is_disabled":false,"rental_uris":{"android":"levelo://app?vid=f758916d-7680-40a3-9582-cd262e26db01","ios":"levelo://app?vid=f758916d-7680-40a3-9582-cd262e26db01"},"vehicle_type_id":"4","last_reported":1738145352,"current_range_meters":39200,"station_id":"ce4bhs12rcd13ifvqhvg","pricing_plan_id":"cebpf4jnsgd1na2vs0mg"},{"bike_id":"bdddf215-203d-43c3-93dc-953ad8b0e105","system_id":"levelo_inurba_marseille","lat":43.23193,"lon":5.39981,"is_reserved":false,"is_disabled":false,"rental_uris":{"android":"levelo://app?vid=bdddf215-203d-43c3-93dc-953ad8b0e105","ios":"levelo://app?vid=bdddf215-203d-43c3-93dc-953ad8b0e105"},"vehicle_type_id":"4","last_reported":1738145352,"current_range_meters":30400,"station_id":"ce4bhn12rcd13ifvqgqg","pricing_plan_id":"cebpf4jnsgd1na2vs0mg"},{"bike_id":"ff68af14-5554-4f8d-a3de-4549d987f602","system_id":"levelo_inurba_marseille","lat":43.29896,"lon":5.43661,"is_reserved":false,"is_disabled":false,"rental_uris":{"android":"levelo://app?vid=ff68af14-5554-4f8d-a3de-4549d987f602","ios":"levelo://app?vid=ff68af14-5554-4f8d-a3de-4549d987f602"},"vehicle_type_id":"4","last_reported":1738145352,"current_range_meters":32000,"station_id":"ce4bhpp2rcd13ifvqhfg","pricing_plan_id":"cebpf4jnsgd1na2vs0mg"},{"bike_id":"296acca2-a355-4830-bc97-a6939a85f573","system_id":"levelo_inurba_marseille","lat":43.2556,"lon":5.38242,"is_reserved":false,"is_disabled":false,"rental_uris":{"android":"levelo://app?vid=296acca2-a355-4830-bc97-a6939a85f573","ios":"levelo://app?vid=296acca2-a355-4830-bc97-a6939a85f573"},"vehicle_type_id":"4","last_reported":1738145352,"current_range_meters":24400,"station_id":"ce4bhih2rcd13ifvqfs0","pricing_plan_id":"cebpf4jnsgd1na2vs0mg"},{"bike_id":"e2aa4144-f725-4497-81a8-6271243a9220","system_id":"levelo_inurba_marseille","lat":43.28272,"lon":5.40844,"is_reserved":false,"is_disabled":false,"rental_uris":{"android":"levelo://app?vid=e2aa4144-f725-4497-81a8-6271243a9220","ios":"levelo://app?vid=e2aa4144-f725-4497-81a8-6271243a9220"},"vehicle_type_id":"4","last_reported":1738145352,"current_range_meters":27200,"station_id":"","pricing_plan_id":"cebpf4jnsgd1na2vs0mg"},{"bike_id":"8381ecee-e398-4ae4-a060-80727e153d18","system_id":"levelo_inurba_marseille","lat":43.3054,"lon":5.36715,"is_reserved":false,"is_disabled":false,"rental_uris":{"android":"levelo://app?vid=8381ecee-e398-4ae4-a060-80727e153d18","ios":"levelo://app?vid=8381ecee-e398-4ae4-a060-80727e153d18"},"vehicle_type_id":"4","last_reported":1738145352,"current_range_meters":2800,"station_id":"ce4bgrp2rcd13ifvqc9g","pricing_plan_id":"cebpf4jnsgd1na2vs0mg"},{"bike_id":"0d9ca8bf-397b-46e6-ac85-58634ed7b8d5","system_id":"levelo_inurba_marseille","lat":43.27952,"lon":5.38748,"is_reserved":false,"is_disabled":false,"rental_uris":{"android":"levelo://app?vid=0d9ca8bf-397b-46e6-ac85-58634ed7b8d5","ios":"levelo://app?vid=0d9ca8bf-397b-46e6-ac85-58634ed7b8d5"},"vehicle_type_id":"4","last_reported":1738145352,"current_range_meters":38800,"station_id":"ce4bhg12rcd13ifvqf80","pricing_plan_id":"cebpf4jnsgd1na2vs0mg"},{"bike_id":"f6a37afb-46f4-467b-8e7a-93a51698bb2e","system_id":"levelo_inurba_marseille","lat":43.28842,"lon":5.35881,"is_reserved":false,"is_disabled":false,"rental_uris":{"android":"levelo://app?vid=f6a37afb-46f4-467b-8e7a-93a51698bb2e","ios":"levelo://app?vid=f6a37afb-46f4-467b-8e7a-93a51698bb2e"},"vehicle_type_id":"4","last_reported":1738145352,"current_range_meters":24800,"station_id":"ce4bhb12rcd13ifvqem0","pricing_plan_id":"cebpf4jnsgd1na2vs0mg"},{"bike_id":"3d95239f-7aae-4c5a-bf4d-ca1ab46f24f8","system_id":"levelo_inurba_marseille","lat":43.27808,"lon":5.40767,"is_reserved":false,"is_disabled":false,"rental_uris":{"android":"levelo://app?vid=3d95239f-7aae-4c5a-bf4d-ca1ab46f24f8","ios":"levelo://app?vid=3d95239f-7aae-4c5a-bf4d-ca1ab46f24f8"},"vehicle_type_id":"4","last_reported":1738145352,"current_range_meters":28000,"station_id":"ce4bhnh2rcd13ifvqgtg","pricing_plan_id":"cebpf4jnsgd1na2vs0mg"},{"bike_id":"60ce30e7-9301-4ca8-982f-21e0e801cbbe","system_id":"levelo_inurba_marseille","lat":43.29921,"lon":5.37486,"is_reserved":false,"is_disabled":false,"rental_uris":{"android":"levelo://app?vid=60ce30e7-9301-4ca8-982f-21e0e801cbbe","ios":"levelo://app?vid=60ce30e7-9301-4ca8-982f-21e0e801cbbe"},"vehicle_type_id":"4","last_reported":1738145352,"current_range_meters":38000,"station_id":"ce4bgjh2rcd13ifvqbg0","pricing_plan_id":"cebpf4jnsgd1na2vs0mg"},{"bike_id":"053833af-ba3d-4612-b908-e90298b33a73","system_id":"levelo_inurba_marseille","lat":43.30558,"lon":5.36552,"is_reserved":false,"is_disabled":false,"rental_uris":{"android":"levelo://app?vid=053833af-ba3d-4612-b908-e90298b33a73","ios":"levelo://app?vid=053833af-ba3d-4612-b908-e90298b33a73"},"vehicle_type_id":"4","last_reported":1738145352,"current_range_meters":20000,"station_id":"ce4bgs12rcd13ifvqcag","pricing_plan_id":"cebpf4jnsgd1na2vs0mg"},{"bike_id":"c25e5d10-1e73-4133-a1bc-3b0eebf03463","system_id":"levelo_inurba_marseille","lat":43.23957,"lon":5.36629,"is_reserved":false,"is_disabled":false,"rental_uris":{"android":"levelo://app?vid=c25e5d10-1e73-4133-a1bc-3b0eebf03463","ios":"levelo://app?vid=c25e5d10-1e73-4133-a1bc-3b0eebf03463"},"vehicle_type_id":"4","last_reported":1738145352,"current_range_meters":10000,"station_id":"ce4bhi12rcd13ifvqfp0","pricing_plan_id":"cebpf4jnsgd1na2vs0mg"},{"bike_id":"2ccb8303-d419-4828-aaee-4a8c4a5783d9","system_id":"levelo_inurba_marseille","lat":43.26786,"lon":5.3942,"is_reserved":false,"is_disabled":false,"rental_uris":{"android":"levelo://app?vid=2ccb8303-d419-4828-aaee-4a8c4a5783d9","ios":"levelo://app?vid=2ccb8303-d419-4828-aaee-4a8c4a5783d9"},"vehicle_type_id":"4","last_reported":1738145352,"current_range_meters":35600,"station_id":"ce4bhh12rcd13ifvqfg0","pricing_plan_id":"cebpf4jnsgd1na2vs0mg"},{"bike_id":"e3c5a10e-948d-477c-91ce-8c835a7fe362","system_id":"levelo_inurba_marseille","lat":43.28073,"lon":5.39658,"is_reserved":false,"is_disabled":true,"rental_uris":{"android":"levelo://app?vid=e3c5a10e-948d-477c-91ce-8c835a7fe362","ios":"levelo://app?vid=e3c5a10e-948d-477c-91ce-8c835a7fe362"},"vehicle_type_id":"4","last_reported":1738145352,"current_range_meters":0,"station_id":"ce4bho12rcd13ifvqh2g","pricing_plan_id":"cebpf4jnsgd1na2vs0mg"},{"bike_id":"80929be9-f3e9-4af2-a894-50d95fa73bcd","system_id":"levelo_inurba_marseille","lat":43.26793,"lon":5.3941,"is_reserved":false,"is_disabled":false,"rental_uris":{"android":"levelo://app?vid=80929be9-f3e9-4af2-a894-50d95fa73bcd","ios":"levelo://app?vid=80929be9-f3e9-4af2-a894-50d95fa73bcd"},"vehicle_type_id":"4","last_reported":1738145352,"current_range_meters":24000,"station_id":"ce4bhh12rcd13ifvqfg0","pricing_plan_id":"cebpf4jnsgd1na2vs0mg"},{"bike_id":"6eb9bdb3-3fb2-431d-a8c8-3274b927a749","system_id":"levelo_inurba_marseille","lat":43.31312,"lon":5.397,"is_reserved":false,"is_disabled":false,"rental_uris":{"android":"levelo://app?vid=6eb9bdb3-3fb2-431d-a8c8-3274b927a749","ios":"levelo://app?vid=6eb9bdb3-3fb2-431d-a8c8-3274b927a749"},"vehicle_type_id":"4","last_reported":1738145352,"current_range_meters":36800,"station_id":"ce4bgvp2rcd13ifvqcu0","pricing_plan_id":"cebpf4jnsgd1na2vs0mg"},{"bike_id":"7c2a1be0-d0fd-495c-a134-af6592031327","system_id":"levelo_inurba_marseille","lat":43.29353,"lon":5.37854,"is_reserved":false,"is_disabled":false,"rental_uris":{"android":"levelo://app?vid=7c2a1be0-d0fd-495c-a134-af6592031327","ios":"levelo://app?vid=7c2a1be0-d0fd-495c-a134-af6592031327"},"vehicle_type_id":"4","last_reported":1738145352,"current_range_meters":31200,"station_id":"ce4bgjh2rcd13ifvqbf0","pricing_plan_id":"cebpf4jnsgd1na2vs0mg"},{"bike_id":"1e7882da-a016-4654-9a16-4361fd531dc2","system_id":"levelo_inurba_marseille","lat":43.27173,"lon":5.4102,"is_reserved":false,"is_disabled":false,"rental_uris":{"android":"levelo://app?vid=1e7882da-a016-4654-9a16-4361fd531dc2","ios":"levelo://app?vid=1e7882da-a016-4654-9a16-4361fd531dc2"},"vehicle_type_id":"4","last_reported":1738145352,"current_range_meters":24800,"station_id":"ce4bhl12rcd13ifvqgf0","pricing_plan_id":"cebpf4jnsgd1na2vs0mg"},{"bike_id":"e98bcae3-a7e1-45c1-8127-fba6130bc1d6","system_id":"levelo_inurba_marseille","lat":43.2926,"lon":5.36852,"is_reserved":false,"is_disabled":false,"rental_uris":{"android":"levelo://app?vid=e98bcae3-a7e1-45c1-8127-fba6130bc1d6","ios":"levelo://app?vid=e98bcae3-a7e1-45c1-8127-fba6130bc1d6"},"vehicle_type_id":"4","last_reported":1738145352,"current_range_meters":34000,"station_id":"ce4bhbp2rcd13ifvqesg","pricing_plan_id":"cebpf4jnsgd1na2vs0mg"},{"bike_id":"fb92b986-a6e9-4a5f-b841-750c8cc56328","system_id":"levelo_inurba_marseille","lat":43.26485,"lon":5.39552,"is_reserved":false,"is_disabled":false,"rental_uris":{"android":"levelo://app?vid=fb92b986-a6e9-4a5f-b841-750c8cc56328","ios":"levelo://app?vid=fb92b986-a6e9-4a5f-b841-750c8cc56328"},"vehicle_type_id":"4","last_reported":1738145352,"current_range_meters":38800,"station_id":"ce4bhi12rcd13ifvqfq0","pricing_plan_id":"cebpf4jnsgd1na2vs0mg"},{"bike_id":"024e15d4-89b3-4a56-954c-194661c62ef0","system_id":"levelo_inurba_marseille","lat":43.30877,"lon":5.39631,"is_reserved":false,"is_disabled":false,"rental_uris":{"android":"levelo://app?vid=024e15d4-89b3-4a56-954c-194661c62ef0","ios":"levelo://app?vid=024e15d4-89b3-4a56-954c-194661c62ef0"},"vehicle_type_id":"4","last_reported":1738145352,"current_range_meters":37600,"station_id":"ce4bh012rcd13ifvqcv0","pricing_plan_id":"cebpf4jnsgd1na2vs0mg"},{"bike_id":"dc7c1c67-58fd-4b23-90e5-a1f21ef47cbc","system_id":"levelo_inurba_marseille","lat":43.29587,"lon":5.36734,"is_reserved":false,"is_disabled":false,"rental_uris":{"android":"levelo://app?vid=dc7c1c67-58fd-4b23-90e5-a1f21ef47cbc","ios":"levelo://app?vid=dc7c1c67-58fd-4b23-90e5-a1f21ef47cbc"},"vehicle_type_id":"4","last_reported":1738145352,"current_range_meters":38800,"station_id":"ce4bgph2rcd13ifvqc2g","pricing_plan_id":"cebpf4jnsgd1na2vs0mg"},{"bike_id":"477bbd5b-096a-4dce-b719-0fae268d6d85","system_id":"levelo_inurba_marseille","lat":43.3047,"lon":5.37912,"is_reserved":false,"is_disabled":false,"rental_uris":{"android":"levelo://app?vid=477bbd5b-096a-4dce-b719-0fae268d6d85","ios":"levelo://app?vid=477bbd5b-096a-4dce-b719-0fae268d6d85"},"vehicle_type_id":"4","last_reported":1738145352,"current_range_meters":38000,"station_id":"ce4bgup2rcd13ifvqcn0","pricing_plan_id":"cebpf4jnsgd1na2vs0mg"},{"bike_id":"17e47042-8c77-4541-a11d-5ae1a42c0ff2","system_id":"levelo_inurba_marseille","lat":43.2743,"lon":5.42472,"is_reserved":false,"is_disabled":true,"rental_uris":{"android":"levelo://app?vid=17e47042-8c77-4541-a11d-5ae1a42c0ff2","ios":"levelo://app?vid=17e47042-8c77-4541-a11d-5ae1a42c0ff2"},"vehicle_type_id":"4","last_reported":1738145352,"current_range_meters":0,"station_id":"","pricing_plan_id":"cebpf4jnsgd1na2vs0mg"},{"bike_id":"b891a845-22ae-4964-87fe-61c6bc3a8303","system_id":"levelo_inurba_marseille","lat":43.27833,"lon":5.40701,"is_reserved":false,"is_disabled":false,"rental_uris":{"android":"levelo://app?vid=b891a845-22ae-4964-87fe-61c6bc3a8303","ios":"levelo://app?vid=b891a845-22ae-4964-87fe-61c6bc3a8303"},"vehicle_type_id":"4","last_reported":1738145352,"current_range_meters":32800,"station_id":"ce4bhnh2rcd13ifvqgtg","pricing_plan_id":"cebpf4jnsgd1na2vs0mg"},{"bike_id":"1fc3490f-556b-4d1e-8a42-67c5d8dc0487","system_id":"levelo_inurba_marseille","lat":43.33735,"lon":5.37499,"is_reserved":false,"is_disabled":false,"rental_uris":{"android":"levelo://app?vid=1fc3490f-556b-4d1e-8a42-67c5d8dc0487","ios":"levelo://app?vid=1fc3490f-556b-4d1e-8a42-67c5d8dc0487"},"vehicle_type_id":"4","last_reported":1738145352,"current_range_meters":16000,"station_id":"","pricing_plan_id":"cebpf4jnsgd1na2vs0mg"},{"bike_id":"bc7816aa-0362-4d16-a4d8-13b5de9ded0f","system_id":"levelo_inurba_marseille","lat":43.27372,"lon":5.36256,"is_reserved":false,"is_disabled":false,"rental_uris":{"android":"levelo://app?vid=bc7816aa-0362-4d16-a4d8-13b5de9ded0f","ios":"levelo://app?vid=bc7816aa-0362-4d16-a4d8-13b5de9ded0f"},"vehicle_type_id":"4","last_reported":1738145352,"current_range_meters":33600,"station_id":"ce4bhbh2rcd13ifvqeo0","pricing_plan_id":"cebpf4jnsgd1na2vs0mg"},{"bike_id":"84e53b70-f8f3-491d-a490-f13cad8d073a","system_id":"levelo_inurba_marseille","lat":43.31386,"lon":5.36716,"is_reserved":false,"is_disabled":true,"rental_uris":{"android":"levelo://app?vid=84e53b70-f8f3-491d-a490-f13cad8d073a","ios":"levelo://app?vid=84e53b70-f8f3-491d-a490-f13cad8d073a"},"vehicle_type_id":"4","last_reported":1738145352,"current_range_meters":24400,"station_id":"","pricing_plan_id":"cebpf4jnsgd1na2vs0mg"},{"bike_id":"1932502a-a386-4bd4-8041-b68d3b661876","system_id":"levelo_inurba_marseille","lat":43.2319,"lon":5.35553,"is_reserved":false,"is_disabled":false,"rental_uris":{"android":"levelo://app?vid=1932502a-a386-4bd4-8041-b68d3b661876","ios":"levelo://app?vid=1932502a-a386-4bd4-8041-b68d3b661876"},"vehicle_type_id":"4","last_reported":1738145352,"current_range_meters":22400,"station_id":"ce4bhu92rcd13ifvqi70","pricing_plan_id":"cebpf4jnsgd1na2vs0mg"},{"bike_id":"3ad10b32-c1b1-4c7a-9f3c-30dcc350bc0c","system_id":"levelo_inurba_marseille","lat":43.27956,"lon":5.41067,"is_reserved":false,"is_disabled":false,"rental_uris":{"android":"levelo://app?vid=3ad10b32-c1b1-4c7a-9f3c-30dcc350bc0c","ios":"levelo://app?vid=3ad10b32-c1b1-4c7a-9f3c-30dcc350bc0c"},"vehicle_type_id":"4","last_reported":1738145352,"current_range_meters":12400,"station_id":"ce4bhnp2rcd13ifvqh0g","pricing_plan_id":"cebpf4jnsgd1na2vs0mg"},{"bike_id":"0f4b3813-faf4-4a38-a8d2-313659685248","system_id":"levelo_inurba_marseille","lat":43.30408,"lon":5.41316,"is_reserved":false,"is_disabled":false,"rental_uris":{"android":"levelo://app?vid=0f4b3813-faf4-4a38-a8d2-313659685248","ios":"levelo://app?vid=0f4b3813-faf4-4a38-a8d2-313659685248"},"vehicle_type_id":"4","last_reported":1738145352,"current_range_meters":36800,"station_id":"ce4bhop2rcd13ifvqh8g","pricing_plan_id":"cebpf4jnsgd1na2vs0mg"},{"bike_id":"34b4ae99-6814-4bf5-bae3-5796e36b1513","system_id":"levelo_inurba_marseille","lat":43.29261,"lon":5.40144,"is_reserved":false,"is_disabled":false,"rental_uris":{"android":"levelo://app?vid=34b4ae99-6814-4bf5-bae3-5796e36b1513","ios":"levelo://app?vid=34b4ae99-6814-4bf5-bae3-5796e36b1513"},"vehicle_type_id":"4","last_reported":1738145352,"current_range_meters":3200,"station_id":"ce4bh312rcd13ifvqdk0","pricing_plan_id":"cebpf4jnsgd1na2vs0mg"},{"bike_id":"b988a070-ec1d-4020-9bd5-d00746b70e50","system_id":"levelo_inurba_marseille","lat":43.26776,"lon":5.39422,"is_reserved":false,"is_disabled":false,"rental_uris":{"android":"levelo://app?vid=b988a070-ec1d-4020-9bd5-d00746b70e50","ios":"levelo://app?vid=b988a070-ec1d-4020-9bd5-d00746b70e50"},"vehicle_type_id":"4","last_reported":1738145352,"current_range_meters":38800,"station_id":"ce4bhh12rcd13ifvqfg0","pricing_plan_id":"cebpf4jnsgd1na2vs0mg"},{"bike_id":"f19c00b2-4831-4ead-a4a4-2906bfac98c3","system_id":"levelo_inurba_marseille","lat":43.30546,"lon":5.3655,"is_reserved":false,"is_disabled":false,"rental_uris":{"android":"levelo://app?vid=f19c00b2-4831-4ead-a4a4-2906bfac98c3","ios":"levelo://app?vid=f19c00b2-4831-4ead-a4a4-2906bfac98c3"},"vehicle_type_id":"4","last_reported":1738145352,"current_range_meters":12400,"station_id":"ce4bgs12rcd13ifvqcag","pricing_plan_id":"cebpf4jnsgd1na2vs0mg"},{"bike_id":"05aff781-9191-4632-ad87-76bf911c0c4e","system_id":"levelo_inurba_marseille","lat":43.27495,"lon":5.4248,"is_reserved":false,"is_disabled":false,"rental_uris":{"android":"levelo://app?vid=05aff781-9191-4632-ad87-76bf911c0c4e","ios":"levelo://app?vid=05aff781-9191-4632-ad87-76bf911c0c4e"},"vehicle_type_id":"4","last_reported":1738145352,"current_range_meters":30400,"station_id":"ce4bhn92rcd13ifvqgrg","pricing_plan_id":"cebpf4jnsgd1na2vs0mg"},{"bike_id":"32398ca9-ced5-40bf-b348-7c3659f21be0","system_id":"levelo_inurba_marseille","lat":43.23195,"lon":5.35548,"is_reserved":false,"is_disabled":false,"rental_uris":{"android":"levelo://app?vid=32398ca9-ced5-40bf-b348-7c3659f21be0","ios":"levelo://app?vid=32398ca9-ced5-40bf-b348-7c3659f21be0"},"vehicle_type_id":"4","last_reported":1738145352,"current_range_meters":21600,"station_id":"ce4bhu92rcd13ifvqi70","pricing_plan_id":"cebpf4jnsgd1na2vs0mg"},{"bike_id":"bee525ca-1448-447f-ac5f-23a60aa78ee7","system_id":"levelo_inurba_marseille","lat":43.31486,"lon":5.37315,"is_reserved":false,"is_disabled":false,"rental_uris":{"android":"levelo://app?vid=bee525ca-1448-447f-ac5f-23a60aa78ee7","ios":"levelo://app?vid=bee525ca-1448-447f-ac5f-23a60aa78ee7"},"vehicle_type_id":"4","last_reported":1738145352,"current_range_meters":12800,"station_id":"ce4bgt12rcd13ifvqcd0","pricing_plan_id":"cebpf4jnsgd1na2vs0mg"},{"bike_id":"b7b20454-2237-40c4-b8ed-89dbfbf9ec67","system_id":"levelo_inurba_marseille","lat":43.29558,"lon":5.39978,"is_reserved":false,"is_disabled":false,"rental_uris":{"android":"levelo://app?vid=b7b20454-2237-40c4-b8ed-89dbfbf9ec67","ios":"levelo://app?vid=b7b20454-2237-40c4-b8ed-89dbfbf9ec67"},"vehicle_type_id":"4","last_reported":1738145352,"current_range_meters":35600,"station_id":"ce4bh312rcd13ifvqdj0","pricing_plan_id":"cebpf4jnsgd1na2vs0mg"},{"bike_id":"e4d29031-01a5-4498-92a8-574e93e87c54","system_id":"levelo_inurba_marseille","lat":43.28262,"lon":5.35065,"is_reserved":false,"is_disabled":false,"rental_uris":{"android":"levelo://app?vid=e4d29031-01a5-4498-92a8-574e93e87c54","ios":"levelo://app?vid=e4d29031-01a5-4498-92a8-574e93e87c54"},"vehicle_type_id":"4","last_reported":1738145352,"current_range_meters":30400,"station_id":"ce4bhbp2rcd13ifvqerg","pricing_plan_id":"cebpf4jnsgd1na2vs0mg"},{"bike_id":"283c25d8-9fc5-495b-9825-5a72a68442bd","system_id":"levelo_inurba_marseille","lat":43.2925,"lon":5.40917,"is_reserved":false,"is_disabled":true,"rental_uris":{"android":"levelo://app?vid=283c25d8-9fc5-495b-9825-5a72a68442bd","ios":"levelo://app?vid=283c25d8-9fc5-495b-9825-5a72a68442bd"},"vehicle_type_id":"4","last_reported":1738145352,"current_range_meters":37600,"station_id":"","pricing_plan_id":"cebpf4jnsgd1na2vs0mg"},{"bike_id":"61bff1fb-024f-42b1-9dd1-e5a3bdf564db","system_id":"levelo_inurba_marseille","lat":43.26681,"lon":5.38266,"is_reserved":false,"is_disabled":false,"rental_uris":{"android":"levelo://app?vid=61bff1fb-024f-42b1-9dd1-e5a3bdf564db","ios":"levelo://app?vid=61bff1fb-024f-42b1-9dd1-e5a3bdf564db"},"vehicle_type_id":"4","last_reported":1738145352,"current_range_meters":38800,"station_id":"ce4bhg92rcd13ifvqf90","pricing_plan_id":"cebpf4jnsgd1na2vs0mg"},{"bike_id":"e3e26aee-15e1-425c-a48f-db58aa520742","system_id":"levelo_inurba_marseille","lat":43.23065,"lon":5.35502,"is_reserved":false,"is_disabled":false,"rental_uris":{"android":"levelo://app?vid=e3e26aee-15e1-425c-a48f-db58aa520742","ios":"levelo://app?vid=e3e26aee-15e1-425c-a48f-db58aa520742"},"vehicle_type_id":"4","last_reported":1738145352,"current_range_meters":34000,"station_id":"cpo3342slgdg3j2ifvpg","pricing_plan_id":"cebpf4jnsgd1na2vs0mg"},{"bike_id":"566e23ec-1d41-4cca-b6b1-4c286a9b4684","system_id":"levelo_inurba_marseille","lat":43.25746,"lon":5.41033,"is_reserved":false,"is_disabled":false,"rental_uris":{"android":"levelo://app?vid=566e23ec-1d41-4cca-b6b1-4c286a9b4684","ios":"levelo://app?vid=566e23ec-1d41-4cca-b6b1-4c286a9b4684"},"vehicle_type_id":"4","last_reported":1738145352,"current_range_meters":38800,"station_id":"","pricing_plan_id":"cebpf4jnsgd1na2vs0mg"},{"bike_id":"406f1379-7e5f-40c8-b8c8-3f0d17a7f0fa","system_id":"levelo_inurba_marseille","lat":43.27527,"lon":5.38456,"is_reserved":false,"is_disabled":true,"rental_uris":{"android":"levelo://app?vid=406f1379-7e5f-40c8-b8c8-3f0d17a7f0fa","ios":"levelo://app?vid=406f1379-7e5f-40c8-b8c8-3f0d17a7f0fa"},"vehicle_type_id":"4","last_reported":1738145352,"current_range_meters":37600,"station_id":"ce4bhh92rcd13ifvqfi0","pricing_plan_id":"cebpf4jnsgd1na2vs0mg"},{"bike_id":"008429e0-dc1c-4e59-aa4f-57f86b05eef6","system_id":"levelo_inurba_marseille","lat":43.24053,"lon":5.37781,"is_reserved":false,"is_disabled":false,"rental_uris":{"android":"levelo://app?vid=008429e0-dc1c-4e59-aa4f-57f86b05eef6","ios":"levelo://app?vid=008429e0-dc1c-4e59-aa4f-57f86b05eef6"},"vehicle_type_id":"4","last_reported":1738145352,"current_range_meters":36400,"station_id":"ce4bhnp2rcd13ifvqgvg","pricing_plan_id":"cebpf4jnsgd1na2vs0mg"},{"bike_id":"df2653fe-4fdf-43fd-a7c1-0f1c8d8556c5","system_id":"levelo_inurba_marseille","lat":43.330212,"lon":5.390447,"is_reserved":false,"is_disabled":false,"rental_uris":{"android":"levelo://app?vid=df2653fe-4fdf-43fd-a7c1-0f1c8d8556c5","ios":"levelo://app?vid=df2653fe-4fdf-43fd-a7c1-0f1c8d8556c5"},"vehicle_type_id":"4","last_reported":1738145352,"current_range_meters":36400,"station_id":"ce4bhr92rcd13ifvqhrg","pricing_plan_id":"cebpf4jnsgd1na2vs0mg"},{"bike_id":"7c78a755-c7f5-4f07-a96b-621451d47948","system_id":"levelo_inurba_marseille","lat":43.29895,"lon":5.43671,"is_reserved":false,"is_disabled":false,"rental_uris":{"android":"levelo://app?vid=7c78a755-c7f5-4f07-a96b-621451d47948","ios":"levelo://app?vid=7c78a755-c7f5-4f07-a96b-621451d47948"},"vehicle_type_id":"4","last_reported":1738145352,"current_range_meters":18800,"station_id":"ce4bhpp2rcd13ifvqhfg","pricing_plan_id":"cebpf4jnsgd1na2vs0mg"},{"bike_id":"6248db55-44b7-4226-9dc5-b71ffa352540","system_id":"levelo_inurba_marseille","lat":43.29629,"lon":5.40592,"is_reserved":false,"is_disabled":false,"rental_uris":{"android":"levelo://app?vid=6248db55-44b7-4226-9dc5-b71ffa352540","ios":"levelo://app?vid=6248db55-44b7-4226-9dc5-b71ffa352540"},"vehicle_type_id":"4","last_reported":1738145352,"current_range_meters":33600,"station_id":"ce4bh0h2rcd13ifvqd60","pricing_plan_id":"cebpf4jnsgd1na2vs0mg"},{"bike_id":"3d1fcd99-fa1f-402d-be1e-7639922ccd47","system_id":"levelo_inurba_marseille","lat":43.22916,"lon":5.35389,"is_reserved":false,"is_disabled":false,"rental_uris":{"android":"levelo://app?vid=3d1fcd99-fa1f-402d-be1e-7639922ccd47","ios":"levelo://app?vid=3d1fcd99-fa1f-402d-be1e-7639922ccd47"},"vehicle_type_id":"4","last_reported":1738145352,"current_range_meters":38800,"station_id":"cpo3532slgdg3j2ikp40","pricing_plan_id":"cebpf4jnsgd1na2vs0mg"},{"bike_id":"c00b60cf-28ff-4781-aac3-83a1e08f4e67","system_id":"levelo_inurba_marseille","lat":43.3009,"lon":5.39087,"is_reserved":false,"is_disabled":false,"rental_uris":{"android":"levelo://app?vid=c00b60cf-28ff-4781-aac3-83a1e08f4e67","ios":"levelo://app?vid=c00b60cf-28ff-4781-aac3-83a1e08f4e67"},"vehicle_type_id":"4","last_reported":1738145352,"current_range_meters":34800,"station_id":"ce4bh192rcd13ifvqdb0","pricing_plan_id":"cebpf4jnsgd1na2vs0mg"},{"bike_id":"2e37b0d2-8751-4445-aa1b-b3f8e099ffd5","system_id":"levelo_inurba_marseille","lat":43.27437,"lon":5.39414,"is_reserved":false,"is_disabled":false,"rental_uris":{"android":"levelo://app?vid=2e37b0d2-8751-4445-aa1b-b3f8e099ffd5","ios":"levelo://app?vid=2e37b0d2-8751-4445-aa1b-b3f8e099ffd5"},"vehicle_type_id":"4","last_reported":1738145352,"current_range_meters":39200,"station_id":"ce4bhdp2rcd13ifvqf20","pricing_plan_id":"cebpf4jnsgd1na2vs0mg"},{"bike_id":"803e03d8-7d2e-4feb-ac46-774902d16dee","system_id":"levelo_inurba_marseille","lat":43.33731,"lon":5.37442,"is_reserved":false,"is_disabled":true,"rental_uris":{"android":"levelo://app?vid=803e03d8-7d2e-4feb-ac46-774902d16dee","ios":"levelo://app?vid=803e03d8-7d2e-4feb-ac46-774902d16dee"},"vehicle_type_id":"4","last_reported":1738145352,"current_range_meters":34000,"station_id":"","pricing_plan_id":"cebpf4jnsgd1na2vs0mg"},{"bike_id":"9a71b288-309d-4f57-b5bb-981ea81914d0","system_id":"levelo_inurba_marseille","lat":43.30951,"lon":5.39038,"is_reserved":false,"is_disabled":false,"rental_uris":{"android":"levelo://app?vid=9a71b288-309d-4f57-b5bb-981ea81914d0","ios":"levelo://app?vid=9a71b288-309d-4f57-b5bb-981ea81914d0"},"vehicle_type_id":"4","last_reported":1738145352,"current_range_meters":38000,"station_id":"ce4bgup2rcd13ifvqco0","pricing_plan_id":"cebpf4jnsgd1na2vs0mg"},{"bike_id":"ff1e303e-f01b-45b4-953d-3439c6552787","system_id":"levelo_inurba_marseille","lat":43.269,"lon":5.40288,"is_reserved":false,"is_disabled":false,"rental_uris":{"android":"levelo://app?vid=ff1e303e-f01b-45b4-953d-3439c6552787","ios":"levelo://app?vid=ff1e303e-f01b-45b4-953d-3439c6552787"},"vehicle_type_id":"4","last_reported":1738145352,"current_range_meters":29600,"station_id":"","pricing_plan_id":"cebpf4jnsgd1na2vs0mg"},{"bike_id":"4767d537-8e72-48e6-8686-e14237e081b2","system_id":"levelo_inurba_marseille","lat":43.3052,"lon":5.3673,"is_reserved":false,"is_disabled":false,"rental_uris":{"android":"levelo://app?vid=4767d537-8e72-48e6-8686-e14237e081b2","ios":"levelo://app?vid=4767d537-8e72-48e6-8686-e14237e081b2"},"vehicle_type_id":"4","last_reported":1738145352,"current_range_meters":17200,"station_id":"ce4bgrp2rcd13ifvqc9g","pricing_plan_id":"cebpf4jnsgd1na2vs0mg"},{"bike_id":"6d1da78d-00cf-4bf6-8937-cad8764c7ccc","system_id":"levelo_inurba_marseille","lat":43.30311,"lon":5.36908,"is_reserved":false,"is_disabled":false,"rental_uris":{"android":"levelo://app?vid=6d1da78d-00cf-4bf6-8937-cad8764c7ccc","ios":"levelo://app?vid=6d1da78d-00cf-4bf6-8937-cad8764c7ccc"},"vehicle_type_id":"4","last_reported":1738145352,"current_range_meters":11200,"station_id":"ce4bgqh2rcd13ifvqc5g","pricing_plan_id":"cebpf4jnsgd1na2vs0mg"},{"bike_id":"3622e152-b5be-42cb-bc60-3cf0f1d519df","system_id":"levelo_inurba_marseille","lat":43.2668,"lon":5.38257,"is_reserved":false,"is_disabled":false,"rental_uris":{"android":"levelo://app?vid=3622e152-b5be-42cb-bc60-3cf0f1d519df","ios":"levelo://app?vid=3622e152-b5be-42cb-bc60-3cf0f1d519df"},"vehicle_type_id":"4","last_reported":1738145352,"current_range_meters":38800,"station_id":"ce4bhg92rcd13ifvqf90","pricing_plan_id":"cebpf4jnsgd1na2vs0mg"},{"bike_id":"707d2b5d-3ace-45cc-b2c5-34dc15973444","system_id":"levelo_inurba_marseille","lat":43.32538,"lon":5.41433,"is_reserved":false,"is_disabled":false,"rental_uris":{"android":"levelo://app?vid=707d2b5d-3ace-45cc-b2c5-34dc15973444","ios":"levelo://app?vid=707d2b5d-3ace-45cc-b2c5-34dc15973444"},"vehicle_type_id":"4","last_reported":1738145352,"current_range_meters":17200,"station_id":"ce4bhq12rcd13ifvqhhg","pricing_plan_id":"cebpf4jnsgd1na2vs0mg"},{"bike_id":"2b833396-ff25-4e46-9295-e03dc3a4726d","system_id":"levelo_inurba_marseille","lat":43.32459,"lon":5.36559,"is_reserved":false,"is_disabled":true,"rental_uris":{"android":"levelo://app?vid=2b833396-ff25-4e46-9295-e03dc3a4726d","ios":"levelo://app?vid=2b833396-ff25-4e46-9295-e03dc3a4726d"},