{"last_updated":1751454578,"ttl":60,"version":"2.2","data":{"bikes":[{"bike_id":"3da29fb8-fc97-44c6-b9ac-31dd456b2fd4","system_id":"levelo_inurba_marseille","lat":43.33771,"lon":5.37424,"is_reserved":false,"is_disabled":true,"rental_uris":{"android":"levelo://app?vid=3da29fb8-fc97-44c6-b9ac-31dd456b2fd4","ios":"levelo://app?vid=3da29fb8-fc97-44c6-b9ac-31dd456b2fd4"},"vehicle_type_id":"4","last_reported":1751454578,"current_range_meters":0,"station_id":"","pricing_plan_id":"cebpf4jnsgd1na2vs0mg"},{"bike_id":"01861ad8-a8d7-4be6-816e-651927c87584","system_id":"levelo_inurba_marseille","lat":43.33751,"lon":5.37456,"is_reserved":false,"is_disabled":true,"rental_uris":{"android":"levelo://app?vid=01861ad8-a8d7-4be6-816e-651927c87584","ios":"levelo://app?vid=01861ad8-a8d7-4be6-816e-651927c87584"},"vehicle_type_id":"4","last_reported":1751454578,"current_range_meters":0,"station_id":"","pricing_plan_id":"cebpf4jnsgd1na2vs0mg"},{"bike_id":"885a85b9-0bfa-4429-95cb-82e01e6f3536","system_id":"levelo_inurba_marseille","lat":43.29568,"lon":5.37531,"is_reserved":false,"is_disabled":true,"rental_uris":{"android":"levelo://app?vid=885a85b9-0bfa-4429-95cb-82e01e6f3536","ios":"levelo://app?vid=885a85b9-0bfa-4429-95cb-82e01e6f3536"},"vehicle_type_id":"4","last_reported":1751454578,"current_range_meters":0,"station_id":"ce4bgh92rcd13ifvqb50","pricing_plan_id":"cebpf4jnsgd1na2vs0mg"},{"bike_id":"67b24eb1-d898-402d-aeeb-6a48e7df7558","system_id":"levelo_inurba_marseille","lat":43.29006,"lon":5.35614,"is_reserved":false,"is_disabled":true,"rental_uris":{"android":"levelo://app?vid=67b24eb1-d898-402d-aeeb-6a48e7df7558","ios":"levelo://app?vid=67b24eb1-d898-402d-aeeb-6a48e7df7558"},"vehicle_type_id":"4","last_reported":1751454578,"current_range_meters":0,"station_id":"ce4bhb92rcd13ifvqen0","pricing_plan_id":"cebpf4jnsgd1na2vs0mg"},{"bike_id":"b55b8441-9382-47e0-99b6-b6b51bb90f4c","system_id":"levelo_inurba_marseille","lat":43.26562,"lon":5.37281,"is_reserved":false,"is_disabled":true,"rental_uris":{"android":"levelo://app?vid=b55b8441-9382-47e0-99b6-b6b51bb90f4c","ios":"levelo://app?vid=b55b8441-9382-47e0-99b6-b6b51bb90f4c"},"vehicle_type_id":"4","last_reported":1751454578,"current_range_meters":0,"station_id":"ce4bhg12rcd13ifvqf70","pricing_plan_id":"cebpf4jnsgd1na2vs0mg"},{"bike_id":"b3c4aa83-7e85-4d1d-a74c-47b631b1aa16","system_id":"levelo_inurba_marseille","lat":43.25869,"lon":5.39897,"is_reserved":false,"is_disabled":true,"rental_uris":{"android":"levelo://app?vid=b3c4aa83-7e85-4d1d-a74c-47b631b1aa16","ios":"levelo://app?vid=b3c4aa83-7e85-4d1d-a74c-47b631b1aa16"},"vehicle_type_id":"4","last_reported":1751454578,"current_range_meters":0,"station_id":"ce4bhl92rcd13ifvqghg","pricing_plan_id":"cebpf4jnsgd1na2vs0mg"},{"bike_id":"d5b16757-b09e-4652-a1cd-cbe958a9740c","system_id":"levelo_inurba_marseille","lat":43.23154,"lon":5.43717,"is_reserved":false,"is_disabled":true,"rental_uris":{"android":"levelo://app?vid=d5b16757-b09e-4652-a1cd-cbe958a9740c","ios":"levelo://app?vid=d5b16757-b09e-4652-a1cd-cbe958a9740c"},"vehicle_type_id":"4","last_reported":1751454578,"current_range_meters":0,"station_id":"ce4bhmp2rcd13ifvqgog","pricing_plan_id":"cebpf4jnsgd1na2vs0mg"},{"bike_id":"dc24cb85-f64b-40c5-b603-dc729fbf2c9a","system_id":"levelo_inurba_marseille","lat":43.279563,"lon":5.41041,"is_reserved":false,"is_disabled":true,"rental_uris":{"android":"levelo://app?vid=dc24cb85-f64b-40c5-b603-dc729fbf2c9a","ios":"levelo://app?vid=dc24cb85-f64b-40c5-b603-dc729fbf2c9a"},"vehicle_type_id":"4","last_reported":1751454578,"current_range_meters":0,"station_id":"ce4bhnp2rcd13ifvqh0g","pricing_plan_id":"cebpf4jnsgd1na2vs0mg"},{"bike_id":"2b79eac2-8d7f-455a-ab7b-57d1965acf5f","system_id":"levelo_inurba_marseille","lat":43.32022,"lon":5.38125,"is_reserved":false,"is_disabled":true,"rental_uris":{"android":"levelo://app?vid=2b79eac2-8d7f-455a-ab7b-57d1965acf5f","ios":"levelo://app?vid=2b79eac2-8d7f-455a-ab7b-57d1965acf5f"},"vehicle_type_id":"4","last_reported":1751454578,"current_range_meters":0,"station_id":"ce4bhr12rcd13ifvqhpg","pricing_plan_id":"cebpf4jnsgd1na2vs0mg"},{"bike_id":"6e1d1308-6c37-4627-b50c-25afc73da718","system_id":"levelo_inurba_marseille","lat":43.284117,"lon":5.349832,"is_reserved":false,"is_disabled":true,"rental_uris":{"android":"levelo://app?vid=6e1d1308-6c37-4627-b50c-25afc73da718","ios":"levelo://app?vid=6e1d1308-6c37-4627-b50c-25afc73da718"},"vehicle_type_id":"4","last_reported":1751454578,"current_range_meters":400,"station_id":"ce4bhbh2rcd13ifvqepg","pricing_plan_id":"cebpf4jnsgd1na2vs0mg"},{"bike_id":"423886e9-2823-4aab-bf6d-71762ee5f958","system_id":"levelo_inurba_marseille","lat":43.30951,"lon":5.39043,"is_reserved":false,"is_disabled":true,"rental_uris":{"android":"levelo://app?vid=423886e9-2823-4aab-bf6d-71762ee5f958","ios":"levelo://app?vid=423886e9-2823-4aab-bf6d-71762ee5f958"},"vehicle_type_id":"4","last_reported":1751454578,"current_range_meters":800,"station_id":"ce4bgup2rcd13ifvqco0","pricing_plan_id":"cebpf4jnsgd1na2vs0mg"},{"bike_id":"d495ede5-718f-4563-9c52-91a50d437882","system_id":"levelo_inurba_marseille","lat":43.30424,"lon":5.41279,"is_reserved":false,"is_disabled":true,"rental_uris":{"android":"levelo://app?vid=d495ede5-718f-4563-9c52-91a50d437882","ios":"levelo://app?vid=d495ede5-718f-4563-9c52-91a50d437882"},"vehicle_type_id":"4","last_reported":1751454578,"current_range_meters":800,"station_id":"ce4bhop2rcd13ifvqh8g","pricing_plan_id":"cebpf4jnsgd1na2vs0mg"},{"bike_id":"162af4e6-d224-4240-aeac-6cb0ae06de53","system_id":"levelo_inurba_marseille","lat":43.29917,"lon":5.3786,"is_reserved":false,"is_disabled":true,"rental_uris":{"android":"levelo://app?vid=162af4e6-d224-4240-aeac-6cb0ae06de53","ios":"levelo://app?vid=162af4e6-d224-4240-aeac-6cb0ae06de53"},"vehicle_type_id":"4","last_reported":1751454578,"current_range_meters":1200,"station_id":"","pricing_plan_id":"cebpf4jnsgd1na2vs0mg"},{"bike_id":"0c81edf6-c1a1-46d8-8d83-6adc55c60988","system_id":"levelo_inurba_marseille","lat":43.29602,"lon":5.38105,"is_reserved":false,"is_disabled":true,"rental_uris":{"android":"levelo://app?vid=0c81edf6-c1a1-46d8-8d83-6adc55c60988","ios":"levelo://app?vid=0c81edf6-c1a1-46d8-8d83-6adc55c60988"},"vehicle_type_id":"4","last_reported":1751454578,"current_range_meters":1600,"station_id":"ce4bgl12rcd13ifvqbo0","pricing_plan_id":"cebpf4jnsgd1na2vs0mg"},{"bike_id":"2be26102-e0c2-407d-aa71-26f9f4a0a211","system_id":"levelo_inurba_marseille","lat":43.31157,"lon":5.3771,"is_reserved":false,"is_disabled":false,"rental_uris":{"android":"levelo://app?vid=2be26102-e0c2-407d-aa71-26f9f4a0a211","ios":"levelo://app?vid=2be26102-e0c2-407d-aa71-26f9f4a0a211"},"vehicle_type_id":"4","last_reported":1751454578,"current_range_meters":2800,"station_id":"","pricing_plan_id":"cebpf4jnsgd1na2vs0mg"},{"bike_id":"dd823a98-118a-470d-a67b-d89337829cc7","system_id":"levelo_inurba_marseille","lat":43.28275,"lon":5.35059,"is_reserved":false,"is_disabled":false,"rental_uris":{"android":"levelo://app?vid=dd823a98-118a-470d-a67b-d89337829cc7","ios":"levelo://app?vid=dd823a98-118a-470d-a67b-d89337829cc7"},"vehicle_type_id":"4","last_reported":1751454578,"current_range_meters":2800,"station_id":"ce4bhbp2rcd13ifvqerg","pricing_plan_id":"cebpf4jnsgd1na2vs0mg"},{"bike_id":"b24d87a1-2db9-4b35-be3e-4c7b61b14a20","system_id":"levelo_inurba_marseille","lat":43.29208,"lon":5.39325,"is_reserved":false,"is_disabled":false,"rental_uris":{"android":"levelo://app?vid=b24d87a1-2db9-4b35-be3e-4c7b61b14a20","ios":"levelo://app?vid=b24d87a1-2db9-4b35-be3e-4c7b61b14a20"},"vehicle_type_id":"4","last_reported":1751454578,"current_range_meters":3200,"station_id":"ce4bh192rcd13ifvqdd0","pricing_plan_id":"cebpf4jnsgd1na2vs0mg"},{"bike_id":"e8c643b3-cfb0-46d1-b3b9-3d80658751f5","system_id":"levelo_inurba_marseille","lat":43.29798,"lon":5.38098,"is_reserved":false,"is_disabled":false,"rental_uris":{"android":"levelo://app?vid=e8c643b3-cfb0-46d1-b3b9-3d80658751f5","ios":"levelo://app?vid=e8c643b3-cfb0-46d1-b3b9-3d80658751f5"},"vehicle_type_id":"4","last_reported":1751454578,"current_range_meters":4000,"station_id":"ce4bgip2rcd13ifvqbb0","pricing_plan_id":"cebpf4jnsgd1na2vs0mg"},{"bike_id":"d63ffcb4-ecf7-404f-98c5-dba7b07b7cba","system_id":"levelo_inurba_marseille","lat":43.3203,"lon":5.41559,"is_reserved":false,"is_disabled":false,"rental_uris":{"android":"levelo://app?vid=d63ffcb4-ecf7-404f-98c5-dba7b07b7cba","ios":"levelo://app?vid=d63ffcb4-ecf7-404f-98c5-dba7b07b7cba"},"vehicle_type_id":"4","last_reported":1751454578,"current_range_meters":4000,"station_id":"ce4bhq92rcd13ifvqhkg","pricing_plan_id":"cebpf4jnsgd1na2vs0mg"},{"bike_id":"917cb800-eec5-44fc-a392-44c14f74cab4","system_id":"levelo_inurba_marseille","lat":43.28422,"lon":5.35007,"is_reserved":false,"is_disabled":false,"rental_uris":{"android":"levelo://app?vid=917cb800-eec5-44fc-a392-44c14f74cab4","ios":"levelo://app?vid=917cb800-eec5-44fc-a392-44c14f74cab4"},"vehicle_type_id":"4","last_reported":1751454578,"current_range_meters":4400,"station_id":"ce4bhbh2rcd13ifvqepg","pricing_plan_id":"cebpf4jnsgd1na2vs0mg"},{"bike_id":"95b8949d-e00e-4b72-a9cc-ce9f7c150489","system_id":"levelo_inurba_marseille","lat":43.2842,"lon":5.34981,"is_reserved":false,"is_disabled":false,"rental_uris":{"android":"levelo://app?vid=95b8949d-e00e-4b72-a9cc-ce9f7c150489","ios":"levelo://app?vid=95b8949d-e00e-4b72-a9cc-ce9f7c150489"},"vehicle_type_id":"4","last_reported":1751454578,"current_range_meters":4400,"station_id":"ce4bhbh2rcd13ifvqepg","pricing_plan_id":"cebpf4jnsgd1na2vs0mg"},{"bike_id":"e9497a27-6e1d-4fe1-b21d-2c97e21c8559","system_id":"levelo_inurba_marseille","lat":43.32066,"lon":5.41578,"is_reserved":false,"is_disabled":false,"rental_uris":{"android":"levelo://app?vid=e9497a27-6e1d-4fe1-b21d-2c97e21c8559","ios":"levelo://app?vid=e9497a27-6e1d-4fe1-b21d-2c97e21c8559"},"vehicle_type_id":"4","last_reported":1751454578,"current_range_meters":4400,"station_id":"ce4bhq92rcd13ifvqhkg","pricing_plan_id":"cebpf4jnsgd1na2vs0mg"},{"bike_id":"e6b39716-4cb9-4ccc-8b0b-fd664a5dbf93","system_id":"levelo_inurba_marseille","lat":43.22931,"lon":5.35379,"is_reserved":false,"is_disabled":false,"rental_uris":{"android":"levelo://app?vid=e6b39716-4cb9-4ccc-8b0b-fd664a5dbf93","ios":"levelo://app?vid=e6b39716-4cb9-4ccc-8b0b-fd664a5dbf93"},"vehicle_type_id":"4","last_reported":1751454578,"current_range_meters":4400,"station_id":"cpo3532slgdg3j2ikp40","pricing_plan_id":"cebpf4jnsgd1na2vs0mg"},{"bike_id":"97c763ff-e11f-4967-afef-85f0d93ae042","system_id":"levelo_inurba_marseille","lat":43.26054,"lon":5.39381,"is_reserved":false,"is_disabled":false,"rental_uris":{"android":"levelo://app?vid=97c763ff-e11f-4967-afef-85f0d93ae042","ios":"levelo://app?vid=97c763ff-e11f-4967-afef-85f0d93ae042"},"vehicle_type_id":"4","last_reported":1751454578,"current_range_meters":4800,"station_id":"ce4bhh92rcd13ifvqfj0","pricing_plan_id":"cebpf4jnsgd1na2vs0mg"},{"bike_id":"5b355b33-c850-4a90-bc64-88323e45adfc","system_id":"levelo_inurba_marseille","lat":43.27177,"lon":5.40994,"is_reserved":false,"is_disabled":false,"rental_uris":{"android":"levelo://app?vid=5b355b33-c850-4a90-bc64-88323e45adfc","ios":"levelo://app?vid=5b355b33-c850-4a90-bc64-88323e45adfc"},"vehicle_type_id":"4","last_reported":1751454578,"current_range_meters":4800,"station_id":"ce4bhl12rcd13ifvqgf0","pricing_plan_id":"cebpf4jnsgd1na2vs0mg"},{"bike_id":"f714e4a5-04cd-46a7-a63b-473e9a872239","system_id":"levelo_inurba_marseille","lat":43.30596,"lon":5.39356,"is_reserved":false,"is_disabled":false,"rental_uris":{"android":"levelo://app?vid=f714e4a5-04cd-46a7-a63b-473e9a872239","ios":"levelo://app?vid=f714e4a5-04cd-46a7-a63b-473e9a872239"},"vehicle_type_id":"4","last_reported":1751454578,"current_range_meters":5600,"station_id":"ce4bh0p2rcd13ifvqd80","pricing_plan_id":"cebpf4jnsgd1na2vs0mg"},{"bike_id":"42ee3801-409f-480f-91a0-e1825ec246d8","system_id":"levelo_inurba_marseille","lat":43.29078,"lon":5.37176,"is_reserved":false,"is_disabled":false,"rental_uris":{"android":"levelo://app?vid=42ee3801-409f-480f-91a0-e1825ec246d8","ios":"levelo://app?vid=42ee3801-409f-480f-91a0-e1825ec246d8"},"vehicle_type_id":"4","last_reported":1751454578,"current_range_meters":5600,"station_id":"ce4bh5p2rcd13ifvqe4g","pricing_plan_id":"cebpf4jnsgd1na2vs0mg"},{"bike_id":"8252b44a-d048-4379-9209-2efa2e627825","system_id":"levelo_inurba_marseille","lat":43.29223,"lon":5.40587,"is_reserved":false,"is_disabled":false,"rental_uris":{"android":"levelo://app?vid=8252b44a-d048-4379-9209-2efa2e627825","ios":"levelo://app?vid=8252b44a-d048-4379-9209-2efa2e627825"},"vehicle_type_id":"4","last_reported":1751454578,"current_range_meters":6000,"station_id":"","pricing_plan_id":"cebpf4jnsgd1na2vs0mg"},{"bike_id":"f11f19ab-d27b-4bbd-9d48-1aacee11d8ac","system_id":"levelo_inurba_marseille","lat":43.2784,"lon":5.39207,"is_reserved":false,"is_disabled":false,"rental_uris":{"android":"levelo://app?vid=f11f19ab-d27b-4bbd-9d48-1aacee11d8ac","ios":"levelo://app?vid=f11f19ab-d27b-4bbd-9d48-1aacee11d8ac"},"vehicle_type_id":"4","last_reported":1751454578,"current_range_meters":6000,"station_id":"ce4bhjp2rcd13ifvqga0","pricing_plan_id":"cebpf4jnsgd1na2vs0mg"},{"bike_id":"e10f8c65-dc6d-4061-b24e-b72ace6ed43b","system_id":"levelo_inurba_marseille","lat":43.31697,"lon":5.43706,"is_reserved":false,"is_disabled":false,"rental_uris":{"android":"levelo://app?vid=e10f8c65-dc6d-4061-b24e-b72ace6ed43b","ios":"levelo://app?vid=e10f8c65-dc6d-4061-b24e-b72ace6ed43b"},"vehicle_type_id":"4","last_reported":1751454578,"current_range_meters":6000,"station_id":"ce4bhp92rcd13ifvqhcg","pricing_plan_id":"cebpf4jnsgd1na2vs0mg"},{"bike_id":"407cceac-8601-4c0f-a74f-b973cc68e820","system_id":"levelo_inurba_marseille","lat":43.30144,"lon":5.374,"is_reserved":false,"is_disabled":false,"rental_uris":{"android":"levelo://app?vid=407cceac-8601-4c0f-a74f-b973cc68e820","ios":"levelo://app?vid=407cceac-8601-4c0f-a74f-b973cc68e820"},"vehicle_type_id":"4","last_reported":1751454578,"current_range_meters":6400,"station_id":"ce4bgs92rcd13ifvqcc0","pricing_plan_id":"cebpf4jnsgd1na2vs0mg"},{"bike_id":"ca50da2f-e8aa-4a38-83a3-bb7bdae4059a","system_id":"levelo_inurba_marseille","lat":43.31759,"lon":5.39013,"is_reserved":false,"is_disabled":false,"rental_uris":{"android":"levelo://app?vid=ca50da2f-e8aa-4a38-83a3-bb7bdae4059a","ios":"levelo://app?vid=ca50da2f-e8aa-4a38-83a3-bb7bdae4059a"},"vehicle_type_id":"4","last_reported":1751454578,"current_range_meters":6800,"station_id":"ce4bhqp2rcd13ifvqhng","pricing_plan_id":"cebpf4jnsgd1na2vs0mg"},{"bike_id":"0a30623b-211c-4872-bd68-e94d16da900f","system_id":"levelo_inurba_marseille","lat":43.29621,"lon":5.37776,"is_reserved":false,"is_disabled":false,"rental_uris":{"android":"levelo://app?vid=0a30623b-211c-4872-bd68-e94d16da900f","ios":"levelo://app?vid=0a30623b-211c-4872-bd68-e94d16da900f"},"vehicle_type_id":"4","last_reported":1751454578,"current_range_meters":7200,"station_id":"","pricing_plan_id":"cebpf4jnsgd1na2vs0mg"},{"bike_id":"b9eac662-875e-4c89-b2d9-cb21b0ec9181","system_id":"levelo_inurba_marseille","lat":43.29621,"lon":5.37716,"is_reserved":false,"is_disabled":false,"rental_uris":{"android":"levelo://app?vid=b9eac662-875e-4c89-b2d9-cb21b0ec9181","ios":"levelo://app?vid=b9eac662-875e-4c89-b2d9-cb21b0ec9181"},"vehicle_type_id":"4","last_reported":1751454578,"current_range_meters":7200,"station_id":"ce4bgi92rcd13ifvqb90","pricing_plan_id":"cebpf4jnsgd1na2vs0mg"},{"bike_id":"f666ad11-b2df-4c6d-8ba4-943f0fd1a905","system_id":"levelo_inurba_marseille","lat":43.30093,"lon":5.39082,"is_reserved":false,"is_disabled":false,"rental_uris":{"android":"levelo://app?vid=f666ad11-b2df-4c6d-8ba4-943f0fd1a905","ios":"levelo://app?vid=f666ad11-b2df-4c6d-8ba4-943f0fd1a905"},"vehicle_type_id":"4","last_reported":1751454578,"current_range_meters":7200,"station_id":"ce4bh192rcd13ifvqdb0","pricing_plan_id":"cebpf4jnsgd1na2vs0mg"},{"bike_id":"0f999600-cfdc-4580-9d79-44c9103ac249","system_id":"levelo_inurba_marseille","lat":43.26214,"lon":5.37443,"is_reserved":false,"is_disabled":false,"rental_uris":{"android":"levelo://app?vid=0f999600-cfdc-4580-9d79-44c9103ac249","ios":"levelo://app?vid=0f999600-cfdc-4580-9d79-44c9103ac249"},"vehicle_type_id":"4","last_reported":1751454578,"current_range_meters":8000,"station_id":"ce4bhgp2rcd13ifvqfc0","pricing_plan_id":"cebpf4jnsgd1na2vs0mg"},{"bike_id":"2726f14f-8d32-4e17-9b3e-62cc809675e1","system_id":"levelo_inurba_marseille","lat":43.32123,"lon":5.36844,"is_reserved":false,"is_disabled":false,"rental_uris":{"android":"levelo://app?vid=2726f14f-8d32-4e17-9b3e-62cc809675e1","ios":"levelo://app?vid=2726f14f-8d32-4e17-9b3e-62cc809675e1"},"vehicle_type_id":"4","last_reported":1751454578,"current_range_meters":8000,"station_id":"ce4bhrh2rcd13ifvqhug","pricing_plan_id":"cebpf4jnsgd1na2vs0mg"},{"bike_id":"b2ec7371-4e1a-4f7b-ae6c-60c5a54c237b","system_id":"levelo_inurba_marseille","lat":43.21199,"lon":5.35092,"is_reserved":false,"is_disabled":false,"rental_uris":{"android":"levelo://app?vid=b2ec7371-4e1a-4f7b-ae6c-60c5a54c237b","ios":"levelo://app?vid=b2ec7371-4e1a-4f7b-ae6c-60c5a54c237b"},"vehicle_type_id":"4","last_reported":1751454578,"current_range_meters":8000,"station_id":"st_cvj6sg6p6f1abm77japg","pricing_plan_id":"cebpf4jnsgd1na2vs0mg"},{"bike_id":"ed048cf1-cfd7-4818-8008-6865636a0e42","system_id":"levelo_inurba_marseille","lat":43.30426,"lon":5.38889,"is_reserved":false,"is_disabled":false,"rental_uris":{"android":"levelo://app?vid=ed048cf1-cfd7-4818-8008-6865636a0e42","ios":"levelo://app?vid=ed048cf1-cfd7-4818-8008-6865636a0e42"},"vehicle_type_id":"4","last_reported":1751454578,"current_range_meters":8400,"station_id":"ce4bgk12rcd13ifvqbi0","pricing_plan_id":"cebpf4jnsgd1na2vs0mg"},{"bike_id":"c2b72fe0-bae6-4c7b-ad48-9e771b203dc8","system_id":"levelo_inurba_marseille","lat":43.313604,"lon":5.3845,"is_reserved":false,"is_disabled":false,"rental_uris":{"android":"levelo://app?vid=c2b72fe0-bae6-4c7b-ad48-9e771b203dc8","ios":"levelo://app?vid=c2b72fe0-bae6-4c7b-ad48-9e771b203dc8"},"vehicle_type_id":"4","last_reported":1751454578,"current_range_meters":8800,"station_id":"ce4bgt92rcd13ifvqcf0","pricing_plan_id":"cebpf4jnsgd1na2vs0mg"},{"bike_id":"436f9256-4b18-4651-9d95-9872284ccade","system_id":"levelo_inurba_marseille","lat":43.28675,"lon":5.3867,"is_reserved":false,"is_disabled":false,"rental_uris":{"android":"levelo://app?vid=436f9256-4b18-4651-9d95-9872284ccade","ios":"levelo://app?vid=436f9256-4b18-4651-9d95-9872284ccade"},"vehicle_type_id":"4","last_reported":1751454578,"current_range_meters":8800,"station_id":"ce4bh492rcd13ifvqdug","pricing_plan_id":"cebpf4jnsgd1na2vs0mg"},{"bike_id":"0125968d-70a3-4ff8-82bd-e8f13f78b2f1","system_id":"levelo_inurba_marseille","lat":43.25499,"lon":5.37648,"is_reserved":false,"is_disabled":false,"rental_uris":{"android":"levelo://app?vid=0125968d-70a3-4ff8-82bd-e8f13f78b2f1","ios":"levelo://app?vid=0125968d-70a3-4ff8-82bd-e8f13f78b2f1"},"vehicle_type_id":"4","last_reported":1751454578,"current_range_meters":8800,"station_id":"ce4bhh12rcd13ifvqff0","pricing_plan_id":"cebpf4jnsgd1na2vs0mg"},{"bike_id":"133c7e9e-2dbe-461c-9439-4600d9978826","system_id":"levelo_inurba_marseille","lat":43.30911,"lon":5.36858,"is_reserved":false,"is_disabled":false,"rental_uris":{"android":"levelo://app?vid=133c7e9e-2dbe-461c-9439-4600d9978826","ios":"levelo://app?vid=133c7e9e-2dbe-461c-9439-4600d9978826"},"vehicle_type_id":"4","last_reported":1751454578,"current_range_meters":9200,"station_id":"ce4bgn92rcd13ifvqbvg","pricing_plan_id":"cebpf4jnsgd1na2vs0mg"},{"bike_id":"3461a366-7d4d-4837-a420-188f24203e24","system_id":"levelo_inurba_marseille","lat":43.30422,"lon":5.41276,"is_reserved":false,"is_disabled":false,"rental_uris":{"android":"levelo://app?vid=3461a366-7d4d-4837-a420-188f24203e24","ios":"levelo://app?vid=3461a366-7d4d-4837-a420-188f24203e24"},"vehicle_type_id":"4","last_reported":1751454578,"current_range_meters":9200,"station_id":"ce4bhop2rcd13ifvqh8g","pricing_plan_id":"cebpf4jnsgd1na2vs0mg"},{"bike_id":"b17fc6fb-d31b-4c72-91dd-f8e10ff9036a","system_id":"levelo_inurba_marseille","lat":43.32492,"lon":5.36563,"is_reserved":false,"is_disabled":false,"rental_uris":{"android":"levelo://app?vid=b17fc6fb-d31b-4c72-91dd-f8e10ff9036a","ios":"levelo://app?vid=b17fc6fb-d31b-4c72-91dd-f8e10ff9036a"},"vehicle_type_id":"4","last_reported":1751454578,"current_range_meters":9200,"station_id":"ce4bhs12rcd13ifvqhvg","pricing_plan_id":"cebpf4jnsgd1na2vs0mg"},{"bike_id":"e68f149c-fca1-4547-bb40-f5389f2c2750","system_id":"levelo_inurba_marseille","lat":43.30952,"lon":5.39032,"is_reserved":false,"is_disabled":false,"rental_uris":{"android":"levelo://app?vid=e68f149c-fca1-4547-bb40-f5389f2c2750","ios":"levelo://app?vid=e68f149c-fca1-4547-bb40-f5389f2c2750"},"vehicle_type_id":"4","last_reported":1751454578,"current_range_meters":9600,"station_id":"ce4bgup2rcd13ifvqco0","pricing_plan_id":"cebpf4jnsgd1na2vs0mg"},{"bike_id":"c60f5e9d-2bb7-4b07-bd18-bd400d9e6468","system_id":"levelo_inurba_marseille","lat":43.29851,"lon":5.36279,"is_reserved":false,"is_disabled":false,"rental_uris":{"android":"levelo://app?vid=c60f5e9d-2bb7-4b07-bd18-bd400d9e6468","ios":"levelo://app?vid=c60f5e9d-2bb7-4b07-bd18-bd400d9e6468"},"vehicle_type_id":"4","last_reported":1751454578,"current_range_meters":10000,"station_id":"ce4bgpp2rcd13ifvqc3g","pricing_plan_id":"cebpf4jnsgd1na2vs0mg"},{"bike_id":"c61036a9-1a66-4480-8bd4-cd2fb585b287","system_id":"levelo_inurba_marseille","lat":43.2699,"lon":5.40575,"is_reserved":false,"is_disabled":false,"rental_uris":{"android":"levelo://app?vid=c61036a9-1a66-4480-8bd4-cd2fb585b287","ios":"levelo://app?vid=c61036a9-1a66-4480-8bd4-cd2fb585b287"},"vehicle_type_id":"4","last_reported":1751454578,"current_range_meters":10800,"station_id":"","pricing_plan_id":"cebpf4jnsgd1na2vs0mg"},{"bike_id":"50b9a33a-0684-4e27-b567-49b8eeb15376","system_id":"levelo_inurba_marseille","lat":43.30305,"lon":5.39215,"is_reserved":false,"is_disabled":false,"rental_uris":{"android":"levelo://app?vid=50b9a33a-0684-4e27-b567-49b8eeb15376","ios":"levelo://app?vid=50b9a33a-0684-4e27-b567-49b8eeb15376"},"vehicle_type_id":"4","last_reported":1751454578,"current_range_meters":10800,"station_id":"ce4bgkh2rcd13ifvqbk0","pricing_plan_id":"cebpf4jnsgd1na2vs0mg"},{"bike_id":"488db086-c5c2-4199-a73c-464c85e5be2a","system_id":"levelo_inurba_marseille","lat":43.27382,"lon":5.36251,"is_reserved":false,"is_disabled":false,"rental_uris":{"android":"levelo://app?vid=488db086-c5c2-4199-a73c-464c85e5be2a","ios":"levelo://app?vid=488db086-c5c2-4199-a73c-464c85e5be2a"},"vehicle_type_id":"4","last_reported":1751454578,"current_range_meters":10800,"station_id":"ce4bhbh2rcd13ifvqeo0","pricing_plan_id":"cebpf4jnsgd1na2vs0mg"},{"bike_id":"fb2be3f1-c1b9-42fc-9d11-a0163ee2dce6","system_id":"levelo_inurba_marseille","lat":43.25007,"lon":5.38921,"is_reserved":false,"is_disabled":false,"rental_uris":{"android":"levelo://app?vid=fb2be3f1-c1b9-42fc-9d11-a0163ee2dce6","ios":"levelo://app?vid=fb2be3f1-c1b9-42fc-9d11-a0163ee2dce6"},"vehicle_type_id":"4","last_reported":1751454578,"current_range_meters":10800,"station_id":"ce4bhgp2rcd13ifvqfd0","pricing_plan_id":"cebpf4jnsgd1na2vs0mg"},{"bike_id":"3b086ff7-7b39-42eb-b376-e6a88f374acd","system_id":"levelo_inurba_marseille","lat":43.245632,"lon":5.395011,"is_reserved":false,"is_disabled":false,"rental_uris":{"android":"levelo://app?vid=3b086ff7-7b39-42eb-b376-e6a88f374acd","ios":"levelo://app?vid=3b086ff7-7b39-42eb-b376-e6a88f374acd"},"vehicle_type_id":"4","last_reported":1751454578,"current_range_meters":10800,"station_id":"ce4bhlp2rcd13ifvqgjg","pricing_plan_id":"cebpf4jnsgd1na2vs0mg"},{"bike_id":"a26bf6f0-a2fd-4aef-882a-3557118b6128","system_id":"levelo_inurba_marseille","lat":43.28729,"lon":5.36089,"is_reserved":false,"is_disabled":false,"rental_uris":{"android":"levelo://app?vid=a26bf6f0-a2fd-4aef-882a-3557118b6128","ios":"levelo://app?vid=a26bf6f0-a2fd-4aef-882a-3557118b6128"},"vehicle_type_id":"4","last_reported":1751454578,"current_range_meters":10800,"station_id":"cki0cbj6b192h4jlfktg","pricing_plan_id":"cebpf4jnsgd1na2vs0mg"},{"bike_id":"7fe4de49-0fed-4c3e-b77c-3305ebed1a68","system_id":"levelo_inurba_marseille","lat":43.31681,"lon":5.40489,"is_reserved":false,"is_disabled":false,"rental_uris":{"android":"levelo://app?vid=7fe4de49-0fed-4c3e-b77c-3305ebed1a68","ios":"levelo://app?vid=7fe4de49-0fed-4c3e-b77c-3305ebed1a68"},"vehicle_type_id":"4","last_reported":1751454578,"current_range_meters":11200,"station_id":"ce4bh012rcd13ifvqd00","pricing_plan_id":"cebpf4jnsgd1na2vs0mg"},{"bike_id":"6a53d032-1792-4903-8503-69804d852b25","system_id":"levelo_inurba_marseille","lat":43.28678,"lon":5.38652,"is_reserved":false,"is_disabled":false,"rental_uris":{"android":"levelo://app?vid=6a53d032-1792-4903-8503-69804d852b25","ios":"levelo://app?vid=6a53d032-1792-4903-8503-69804d852b25"},"vehicle_type_id":"4","last_reported":1751454578,"current_range_meters":11200,"station_id":"ce4bh492rcd13ifvqdug","pricing_plan_id":"cebpf4jnsgd1na2vs0mg"},{"bike_id":"229d3dee-b30f-428d-947a-6060bc21e197","system_id":"levelo_inurba_marseille","lat":43.28727,"lon":5.37945,"is_reserved":false,"is_disabled":false,"rental_uris":{"android":"levelo://app?vid=229d3dee-b30f-428d-947a-6060bc21e197","ios":"levelo://app?vid=229d3dee-b30f-428d-947a-6060bc21e197"},"vehicle_type_id":"4","last_reported":1751454578,"current_range_meters":11200,"station_id":"ce4bh9p2rcd13ifvqec0","pricing_plan_id":"cebpf4jnsgd1na2vs0mg"},{"bike_id":"7240ec2e-578a-4730-99ce-9f906d19e054","system_id":"levelo_inurba_marseille","lat":43.33019,"lon":5.39043,"is_reserved":false,"is_disabled":false,"rental_uris":{"android":"levelo://app?vid=7240ec2e-578a-4730-99ce-9f906d19e054","ios":"levelo://app?vid=7240ec2e-578a-4730-99ce-9f906d19e054"},"vehicle_type_id":"4","last_reported":1751454578,"current_range_meters":11200,"station_id":"ce4bhr92rcd13ifvqhrg","pricing_plan_id":"cebpf4jnsgd1na2vs0mg"},{"bike_id":"5ea1dd93-3c49-4f8f-bb7f-00d3c982b0ae","system_id":"levelo_inurba_marseille","lat":43.22941,"lon":5.35414,"is_reserved":false,"is_disabled":false,"rental_uris":{"android":"levelo://app?vid=5ea1dd93-3c49-4f8f-bb7f-00d3c982b0ae","ios":"levelo://app?vid=5ea1dd93-3c49-4f8f-bb7f-00d3c982b0ae"},"vehicle_type_id":"4","last_reported":1751454578,"current_range_meters":11600,"station_id":"cpo3532slgdg3j2ikp40","pricing_plan_id":"cebpf4jnsgd1na2vs0mg"},{"bike_id":"bf9a42f0-3236-41b2-aead-463e94f79ff6","system_id":"levelo_inurba_marseille","lat":43.23288,"lon":5.354023,"is_reserved":false,"is_disabled":false,"rental_uris":{"android":"levelo://app?vid=bf9a42f0-3236-41b2-aead-463e94f79ff6","ios":"levelo://app?vid=bf9a42f0-3236-41b2-aead-463e94f79ff6"},"vehicle_type_id":"4","last_reported":1751454578,"current_range_meters":12000,"station_id":"","pricing_plan_id":"cebpf4jnsgd1na2vs0mg"},{"bike_id":"13ecf872-a7dd-4417-b162-5d61dcc1c069","system_id":"levelo_inurba_marseille","lat":43.29368,"lon":5.37844,"is_reserved":false,"is_disabled":false,"rental_uris":{"android":"levelo://app?vid=13ecf872-a7dd-4417-b162-5d61dcc1c069","ios":"levelo://app?vid=13ecf872-a7dd-4417-b162-5d61dcc1c069"},"vehicle_type_id":"4","last_reported":1751454578,"current_range_meters":12000,"station_id":"ce4bgjh2rcd13ifvqbf0","pricing_plan_id":"cebpf4jnsgd1na2vs0mg"},{"bike_id":"720d387f-4122-4d40-ab3d-55b0b0230d4d","system_id":"levelo_inurba_marseille","lat":43.30145,"lon":5.3807,"is_reserved":false,"is_disabled":false,"rental_uris":{"android":"levelo://app?vid=720d387f-4122-4d40-ab3d-55b0b0230d4d","ios":"levelo://app?vid=720d387f-4122-4d40-ab3d-55b0b0230d4d"},"vehicle_type_id":"4","last_reported":1751454578,"current_range_meters":12000,"station_id":"ce4bgjp2rcd13ifvqbh0","pricing_plan_id":"cebpf4jnsgd1na2vs0mg"},{"bike_id":"35010700-abbd-43e7-a664-63c877444f43","system_id":"levelo_inurba_marseille","lat":43.28863,"lon":5.39306,"is_reserved":false,"is_disabled":false,"rental_uris":{"android":"levelo://app?vid=35010700-abbd-43e7-a664-63c877444f43","ios":"levelo://app?vid=35010700-abbd-43e7-a664-63c877444f43"},"vehicle_type_id":"4","last_reported":1751454578,"current_range_meters":12000,"station_id":"ce4bh2p2rcd13ifvqdi0","pricing_plan_id":"cebpf4jnsgd1na2vs0mg"},{"bike_id":"588113ff-3f98-440d-8605-821604889f88","system_id":"levelo_inurba_marseille","lat":43.29193,"lon":5.35814,"is_reserved":false,"is_disabled":false,"rental_uris":{"android":"levelo://app?vid=588113ff-3f98-440d-8605-821604889f88","ios":"levelo://app?vid=588113ff-3f98-440d-8605-821604889f88"},"vehicle_type_id":"4","last_reported":1751454578,"current_range_meters":12000,"station_id":"ce4bhb12rcd13ifvqel0","pricing_plan_id":"cebpf4jnsgd1na2vs0mg"},{"bike_id":"866060ef-85cb-4809-9ff5-4426ac515ff0","system_id":"levelo_inurba_marseille","lat":43.28418,"lon":5.34977,"is_reserved":false,"is_disabled":false,"rental_uris":{"android":"levelo://app?vid=866060ef-85cb-4809-9ff5-4426ac515ff0","ios":"levelo://app?vid=866060ef-85cb-4809-9ff5-4426ac515ff0"},"vehicle_type_id":"4","last_reported":1751454578,"current_range_meters":12000,"station_id":"ce4bhbh2rcd13ifvqepg","pricing_plan_id":"cebpf4jnsgd1na2vs0mg"},{"bike_id":"06ba61ed-7e85-452f-a5a6-9de1a75f3e06","system_id":"levelo_inurba_marseille","lat":43.27915,"lon":5.38011,"is_reserved":false,"is_disabled":false,"rental_uris":{"android":"levelo://app?vid=06ba61ed-7e85-452f-a5a6-9de1a75f3e06","ios":"levelo://app?vid=06ba61ed-7e85-452f-a5a6-9de1a75f3e06"},"vehicle_type_id":"4","last_reported":1751454578,"current_range_meters":12400,"station_id":"ce4bhf92rcd13ifvqf50","pricing_plan_id":"cebpf4jnsgd1na2vs0mg"},{"bike_id":"4810f33f-d5e0-4478-89ab-5e50f6676b57","system_id":"levelo_inurba_marseille","lat":43.25726,"lon":5.41111,"is_reserved":false,"is_disabled":false,"rental_uris":{"android":"levelo://app?vid=4810f33f-d5e0-4478-89ab-5e50f6676b57","ios":"levelo://app?vid=4810f33f-d5e0-4478-89ab-5e50f6676b57"},"vehicle_type_id":"4","last_reported":1751454578,"current_range_meters":12400,"station_id":"ce4bhkp2rcd13ifvqgd0","pricing_plan_id":"cebpf4jnsgd1na2vs0mg"},{"bike_id":"0b808bd3-f289-417f-b95f-861d116676d1","system_id":"levelo_inurba_marseille","lat":43.29378,"lon":5.37847,"is_reserved":false,"is_disabled":false,"rental_uris":{"android":"levelo://app?vid=0b808bd3-f289-417f-b95f-861d116676d1","ios":"levelo://app?vid=0b808bd3-f289-417f-b95f-861d116676d1"},"vehicle_type_id":"4","last_reported":1751454578,"current_range_meters":12800,"station_id":"ce4bgjh2rcd13ifvqbf0","pricing_plan_id":"cebpf4jnsgd1na2vs0mg"},{"bike_id":"acf140b3-edd9-4bd1-9f1d-99757cb24dce","system_id":"levelo_inurba_marseille","lat":43.31328,"lon":5.39689,"is_reserved":false,"is_disabled":false,"rental_uris":{"android":"levelo://app?vid=acf140b3-edd9-4bd1-9f1d-99757cb24dce","ios":"levelo://app?vid=acf140b3-edd9-4bd1-9f1d-99757cb24dce"},"vehicle_type_id":"4","last_reported":1751454578,"current_range_meters":12800,"station_id":"ce4bgvp2rcd13ifvqcu0","pricing_plan_id":"cebpf4jnsgd1na2vs0mg"},{"bike_id":"77e652d2-27e3-4b7e-8763-af4a4bbd0999","system_id":"levelo_inurba_marseille","lat":43.26236,"lon":5.37425,"is_reserved":false,"is_disabled":false,"rental_uris":{"android":"levelo://app?vid=77e652d2-27e3-4b7e-8763-af4a4bbd0999","ios":"levelo://app?vid=77e652d2-27e3-4b7e-8763-af4a4bbd0999"},"vehicle_type_id":"4","last_reported":1751454578,"current_range_meters":13600,"station_id":"","pricing_plan_id":"cebpf4jnsgd1na2vs0mg"},{"bike_id":"6e647d29-f69c-458b-8e86-b138f65309f6","system_id":"levelo_inurba_marseille","lat":43.29033,"lon":5.38683,"is_reserved":false,"is_disabled":false,"rental_uris":{"android":"levelo://app?vid=6e647d29-f69c-458b-8e86-b138f65309f6","ios":"levelo://app?vid=6e647d29-f69c-458b-8e86-b138f65309f6"},"vehicle_type_id":"4","last_reported":1751454578,"current_range_meters":13600,"station_id":"ce4bh4p2rcd13ifvqe0g","pricing_plan_id":"cebpf4jnsgd1na2vs0mg"},{"bike_id":"c2cc3873-3136-4ba7-984d-6514f2a6bcc2","system_id":"levelo_inurba_marseille","lat":43.26692,"lon":5.3827,"is_reserved":false,"is_disabled":false,"rental_uris":{"android":"levelo://app?vid=c2cc3873-3136-4ba7-984d-6514f2a6bcc2","ios":"levelo://app?vid=c2cc3873-3136-4ba7-984d-6514f2a6bcc2"},"vehicle_type_id":"4","last_reported":1751454578,"current_range_meters":13600,"station_id":"ce4bhg92rcd13ifvqf90","pricing_plan_id":"cebpf4jnsgd1na2vs0mg"},{"bike_id":"64ba98f3-6c38-4f8d-8066-be947e94c6d6","system_id":"levelo_inurba_marseille","lat":43.32049,"lon":5.41558,"is_reserved":false,"is_disabled":false,"rental_uris":{"android":"levelo://app?vid=64ba98f3-6c38-4f8d-8066-be947e94c6d6","ios":"levelo://app?vid=64ba98f3-6c38-4f8d-8066-be947e94c6d6"},"vehicle_type_id":"4","last_reported":1751454578,"current_range_meters":13600,"station_id":"ce4bhq92rcd13ifvqhkg","pricing_plan_id":"cebpf4jnsgd1na2vs0mg"},{"bike_id":"c899bdeb-e8c8-487d-a5a5-00dc09ddabfe","system_id":"levelo_inurba_marseille","lat":43.34141,"lon":5.40911,"is_reserved":false,"is_disabled":false,"rental_uris":{"android":"levelo://app?vid=c899bdeb-e8c8-487d-a5a5-00dc09ddabfe","ios":"levelo://app?vid=c899bdeb-e8c8-487d-a5a5-00dc09ddabfe"},"vehicle_type_id":"4","last_reported":1751454578,"current_range_meters":13600,"station_id":"ce4bhqh2rcd13ifvqhlg","pricing_plan_id":"cebpf4jnsgd1na2vs0mg"},{"bike_id":"ee0317a9-0b3d-4631-9294-b4dddc155611","system_id":"levelo_inurba_marseille","lat":43.323595,"lon":5.367548,"is_reserved":false,"is_disabled":false,"rental_uris":{"android":"levelo://app?vid=ee0317a9-0b3d-4631-9294-b4dddc155611","ios":"levelo://app?vid=ee0317a9-0b3d-4631-9294-b4dddc155611"},"vehicle_type_id":"4","last_reported":1751454578,"current_range_meters":13600,"station_id":"ce4bhsh2rcd13ifvqi2g","pricing_plan_id":"cebpf4jnsgd1na2vs0mg"},{"bike_id":"d16b9dec-c438-4000-91c8-6cda5b0545dc","system_id":"levelo_inurba_marseille","lat":43.249,"lon":5.37512,"is_reserved":false,"is_disabled":false,"rental_uris":{"android":"levelo://app?vid=d16b9dec-c438-4000-91c8-6cda5b0545dc","ios":"levelo://app?vid=d16b9dec-c438-4000-91c8-6cda5b0545dc"},"vehicle_type_id":"4","last_reported":1751454578,"current_range_meters":14000,"station_id":"","pricing_plan_id":"cebpf4jnsgd1na2vs0mg"},{"bike_id":"a752ffd2-8b9d-43bb-bf7b-131920b62873","system_id":"levelo_inurba_marseille","lat":43.33025,"lon":5.39056,"is_reserved":false,"is_disabled":false,"rental_uris":{"android":"levelo://app?vid=a752ffd2-8b9d-43bb-bf7b-131920b62873","ios":"levelo://app?vid=a752ffd2-8b9d-43bb-bf7b-131920b62873"},"vehicle_type_id":"4","last_reported":1751454578,"current_range_meters":14000,"station_id":"","pricing_plan_id":"cebpf4jnsgd1na2vs0mg"},{"bike_id":"fc150a42-00a5-4a0a-95de-08b03122b3a8","system_id":"levelo_inurba_marseille","lat":43.30459,"lon":5.37911,"is_reserved":false,"is_disabled":false,"rental_uris":{"android":"levelo://app?vid=fc150a42-00a5-4a0a-95de-08b03122b3a8","ios":"levelo://app?vid=fc150a42-00a5-4a0a-95de-08b03122b3a8"},"vehicle_type_id":"4","last_reported":1751454578,"current_range_meters":14000,"station_id":"ce4bgup2rcd13ifvqcn0","pricing_plan_id":"cebpf4jnsgd1na2vs0mg"},{"bike_id":"f7bca835-571f-436c-8748-fc71c8ce969f","system_id":"levelo_inurba_marseille","lat":43.28702,"lon":5.37377,"is_reserved":false,"is_disabled":false,"rental_uris":{"android":"levelo://app?vid=f7bca835-571f-436c-8748-fc71c8ce969f","ios":"levelo://app?vid=f7bca835-571f-436c-8748-fc71c8ce969f"},"vehicle_type_id":"4","last_reported":1751454578,"current_range_meters":14000,"station_id":"ce4bh3p2rcd13ifvqdq0","pricing_plan_id":"cebpf4jnsgd1na2vs0mg"},{"bike_id":"4c90777f-cefa-4c94-b7ca-b4c7ecead949","system_id":"levelo_inurba_marseille","lat":43.2872,"lon":5.379265,"is_reserved":false,"is_disabled":false,"rental_uris":{"android":"levelo://app?vid=4c90777f-cefa-4c94-b7ca-b4c7ecead949","ios":"levelo://app?vid=4c90777f-cefa-4c94-b7ca-b4c7ecead949"},"vehicle_type_id":"4","last_reported":1751454578,"current_range_meters":14000,"station_id":"ce4bh9p2rcd13ifvqec0","pricing_plan_id":"cebpf4jnsgd1na2vs0mg"},{"bike_id":"331745a6-416e-4697-a3b9-8b6ec98fb01a","system_id":"levelo_inurba_marseille","lat":43.28412,"lon":5.34978,"is_reserved":false,"is_disabled":false,"rental_uris":{"android":"levelo://app?vid=331745a6-416e-4697-a3b9-8b6ec98fb01a","ios":"levelo://app?vid=331745a6-416e-4697-a3b9-8b6ec98fb01a"},"vehicle_type_id":"4","last_reported":1751454578,"current_range_meters":14000,"station_id":"ce4bhbh2rcd13ifvqepg","pricing_plan_id":"cebpf4jnsgd1na2vs0mg"},{"bike_id":"1536b02b-5cf8-49fc-bc17-a23969e55e7b","system_id":"levelo_inurba_marseille","lat":43.2792,"lon":5.39582,"is_reserved":false,"is_disabled":false,"rental_uris":{"android":"levelo://app?vid=1536b02b-5cf8-49fc-bc17-a23969e55e7b","ios":"levelo://app?vid=1536b02b-5cf8-49fc-bc17-a23969e55e7b"},"vehicle_type_id":"4","last_reported":1751454578,"current_range_meters":14000,"station_id":"ce4bhf92rcd13ifvqf40","pricing_plan_id":"cebpf4jnsgd1na2vs0mg"},{"bike_id":"1e704a77-dd6f-489f-9ebc-e266d650fb0b","system_id":"levelo_inurba_marseille","lat":43.25722,"lon":5.41112,"is_reserved":false,"is_disabled":false,"rental_uris":{"android":"levelo://app?vid=1e704a77-dd6f-489f-9ebc-e266d650fb0b","ios":"levelo://app?vid=1e704a77-dd6f-489f-9ebc-e266d650fb0b"},"vehicle_type_id":"4","last_reported":1751454578,"current_range_meters":14000,"station_id":"ce4bhkp2rcd13ifvqgd0","pricing_plan_id":"cebpf4jnsgd1na2vs0mg"},{"bike_id":"d9a5ff44-c38a-44a8-9927-ddd00d1c8517","system_id":"levelo_inurba_marseille","lat":43.2511,"lon":5.40326,"is_reserved":false,"is_disabled":false,"rental_uris":{"android":"levelo://app?vid=d9a5ff44-c38a-44a8-9927-ddd00d1c8517","ios":"levelo://app?vid=d9a5ff44-c38a-44a8-9927-ddd00d1c8517"},"vehicle_type_id":"4","last_reported":1751454578,"current_range_meters":14000,"station_id":"ce4bhlh2rcd13ifvqgig","pricing_plan_id":"cebpf4jnsgd1na2vs0mg"},{"bike_id":"f00e3044-9bd1-48b5-b342-151af21b34fa","system_id":"levelo_inurba_marseille","lat":43.29978,"lon":5.37425,"is_reserved":false,"is_disabled":false,"rental_uris":{"android":"levelo://app?vid=f00e3044-9bd1-48b5-b342-151af21b34fa","ios":"levelo://app?vid=f00e3044-9bd1-48b5-b342-151af21b34fa"},"vehicle_type_id":"4","last_reported":1751454578,"current_range_meters":14400,"station_id":"","pricing_plan_id":"cebpf4jnsgd1na2vs0mg"},{"bike_id":"5f0aa697-f237-431c-ac43-8fe80befae56","system_id":"levelo_inurba_marseille","lat":43.30996,"lon":5.39076,"is_reserved":false,"is_disabled":false,"rental_uris":{"android":"levelo://app?vid=5f0aa697-f237-431c-ac43-8fe80befae56","ios":"levelo://app?vid=5f0aa697-f237-431c-ac43-8fe80befae56"},"vehicle_type_id":"4","last_reported":1751454578,"current_range_meters":14400,"station_id":"ce4bgup2rcd13ifvqco0","pricing_plan_id":"cebpf4jnsgd1na2vs0mg"},{"bike_id":"f6054310-f1c5-45e0-b1e4-c5d17d4d04dc","system_id":"levelo_inurba_marseille","lat":43.31884,"lon":5.40727,"is_reserved":false,"is_disabled":false,"rental_uris":{"android":"levelo://app?vid=f6054310-f1c5-45e0-b1e4-c5d17d4d04dc","ios":"levelo://app?vid=f6054310-f1c5-45e0-b1e4-c5d17d4d04dc"},"vehicle_type_id":"4","last_reported":1751454578,"current_range_meters":14400,"station_id":"ce4bhq12rcd13ifvqhig","pricing_plan_id":"cebpf4jnsgd1na2vs0mg"},{"bike_id":"2c19dc23-f918-4cac-a45c-745d448e2e89","system_id":"levelo_inurba_marseille","lat":43.29712,"lon":5.36609,"is_reserved":false,"is_disabled":false,"rental_uris":{"android":"levelo://app?vid=2c19dc23-f918-4cac-a45c-745d448e2e89","ios":"levelo://app?vid=2c19dc23-f918-4cac-a45c-745d448e2e89"},"vehicle_type_id":"4","last_reported":1751454578,"current_range_meters":14800,"station_id":"ce4bgn12rcd13ifvqbt0","pricing_plan_id":"cebpf4jnsgd1na2vs0mg"},{"bike_id":"c9fc0aa6-f736-4b69-b8e3-6fe60921455e","system_id":"levelo_inurba_marseille","lat":43.30562,"lon":5.3656,"is_reserved":false,"is_disabled":false,"rental_uris":{"android":"levelo://app?vid=c9fc0aa6-f736-4b69-b8e3-6fe60921455e","ios":"levelo://app?vid=c9fc0aa6-f736-4b69-b8e3-6fe60921455e"},"vehicle_type_id":"4","last_reported":1751454578,"current_range_meters":14800,"station_id":"ce4bgs12rcd13ifvqcag","pricing_plan_id":"cebpf4jnsgd1na2vs0mg"},{"bike_id":"bb05b3e1-fbbf-4f07-a3b9-29a4e30957a9","system_id":"levelo_inurba_marseille","lat":43.25004,"lon":5.38922,"is_reserved":false,"is_disabled":false,"rental_uris":{"android":"levelo://app?vid=bb05b3e1-fbbf-4f07-a3b9-29a4e30957a9","ios":"levelo://app?vid=bb05b3e1-fbbf-4f07-a3b9-29a4e30957a9"},"vehicle_type_id":"4","last_reported":1751454578,"current_range_meters":14800,"station_id":"ce4bhgp2rcd13ifvqfd0","pricing_plan_id":"cebpf4jnsgd1na2vs0mg"},{"bike_id":"9526ac88-b6fe-4770-90cc-daed562b3acd","system_id":"levelo_inurba_marseille","lat":43.24587,"lon":5.39248,"is_reserved":false,"is_disabled":false,"rental_uris":{"android":"levelo://app?vid=9526ac88-b6fe-4770-90cc-daed562b3acd","ios":"levelo://app?vid=9526ac88-b6fe-4770-90cc-daed562b3acd"},"vehicle_type_id":"4","last_reported":1751454578,"current_range_meters":14800,"station_id":"ce4bhlp2rcd13ifvqgjg","pricing_plan_id":"cebpf4jnsgd1na2vs0mg"},{"bike_id":"dbe6a7d8-6edc-4015-8658-f68eeb46a661","system_id":"levelo_inurba_marseille","lat":43.335783,"lon":5.398699,"is_reserved":false,"is_disabled":false,"rental_uris":{"android":"levelo://app?vid=dbe6a7d8-6edc-4015-8658-f68eeb46a661","ios":"levelo://app?vid=dbe6a7d8-6edc-4015-8658-f68eeb46a661"},"vehicle_type_id":"4","last_reported":1751454578,"current_range_meters":15200,"station_id":"","pricing_plan_id":"cebpf4jnsgd1na2vs0mg"},{"bike_id":"b28aa0a0-791c-4a08-9a16-c7bf6ea0ed5a","system_id":"levelo_inurba_marseille","lat":43.22506,"lon":5.34784,"is_reserved":false,"is_disabled":false,"rental_uris":{"android":"levelo://app?vid=b28aa0a0-791c-4a08-9a16-c7bf6ea0ed5a","ios":"levelo://app?vid=b28aa0a0-791c-4a08-9a16-c7bf6ea0ed5a"},"vehicle_type_id":"4","last_reported":1751454578,"current_range_meters":15200,"station_id":"","pricing_plan_id":"cebpf4jnsgd1na2vs0mg"},{"bike_id":"573b4afe-623e-4fbd-ba56-b8ae8b6fa112","system_id":"levelo_inurba_marseille","lat":43.29618,"lon":5.37726,"is_reserved":false,"is_disabled":false,"rental_uris":{"android":"levelo://app?vid=573b4afe-623e-4fbd-ba56-b8ae8b6fa112","ios":"levelo://app?vid=573b4afe-623e-4fbd-ba56-b8ae8b6fa112"},"vehicle_type_id":"4","last_reported":1751454578,"current_range_meters":15200,"station_id":"ce4bgi92rcd13ifvqb90","pricing_plan_id":"cebpf4jnsgd1na2vs0mg"},{"bike_id":"2576e1ec-ea8a-4ffa-a906-bdbce08a62a2","system_id":"levelo_inurba_marseille","lat":43.28952,"lon":5.36387,"is_reserved":false,"is_disabled":false,"rental_uris":{"android":"levelo://app?vid=2576e1ec-ea8a-4ffa-a906-bdbce08a62a2","ios":"levelo://app?vid=2576e1ec-ea8a-4ffa-a906-bdbce08a62a2"},"vehicle_type_id":"4","last_reported":1751454578,"current_range_meters":15200,"station_id":"ce4bhc92rcd13ifvqetg","pricing_plan_id":"cebpf4jnsgd1na2vs0mg"},{"bike_id":"cdc38397-36f1-4ceb-89b2-7ef75755fc16","system_id":"levelo_inurba_marseille","lat":43.32358,"lon":5.36761,"is_reserved":false,"is_disabled":false,"rental_uris":{"android":"levelo://app?vid=cdc38397-36f1-4ceb-89b2-7ef75755fc16","ios":"levelo://app?vid=cdc38397-36f1-4ceb-89b2-7ef75755fc16"},"vehicle_type_id":"4","last_reported":1751454578,"current_range_meters":15200,"station_id":"ce4bhsh2rcd13ifvqi2g","pricing_plan_id":"cebpf4jnsgd1na2vs0mg"},{"bike_id":"7e62b058-a7ed-4634-80f1-04d3de596de7","system_id":"levelo_inurba_marseille","lat":43.29853,"lon":5.3683,"is_reserved":false,"is_disabled":false,"rental_uris":{"android":"levelo://app?vid=7e62b058-a7ed-4634-80f1-04d3de596de7","ios":"levelo://app?vid=7e62b058-a7ed-4634-80f1-04d3de596de7"},"vehicle_type_id":"4","last_reported":1751454578,"current_range_meters":16000,"station_id":"","pricing_plan_id":"cebpf4jnsgd1na2vs0mg"},{"bike_id":"a39f2ef0-0146-4526-b5e8-e7fa31916131","system_id":"levelo_inurba_marseille","lat":43.30537,"lon":5.36541,"is_reserved":false,"is_disabled":false,"rental_uris":{"android":"levelo://app?vid=a39f2ef0-0146-4526-b5e8-e7fa31916131","ios":"levelo://app?vid=a39f2ef0-0146-4526-b5e8-e7fa31916131"},"vehicle_type_id":"4","last_reported":1751454578,"current_range_meters":16000,"station_id":"ce4bgs12rcd13ifvqcag","pricing_plan_id":"cebpf4jnsgd1na2vs0mg"},{"bike_id":"f5a55502-77ee-4308-a3b6-9dce98086fd1","system_id":"levelo_inurba_marseille","lat":43.30941,"lon":5.39036,"is_reserved":false,"is_disabled":false,"rental_uris":{"android":"levelo://app?vid=f5a55502-77ee-4308-a3b6-9dce98086fd1","ios":"levelo://app?vid=f5a55502-77ee-4308-a3b6-9dce98086fd1"},"vehicle_type_id":"4","last_reported":1751454578,"current_range_meters":16000,"station_id":"ce4bgup2rcd13ifvqco0","pricing_plan_id":"cebpf4jnsgd1na2vs0mg"},{"bike_id":"7d1bbfbb-c70e-48d3-8f4b-baf5b1ca8b77","system_id":"levelo_inurba_marseille","lat":43.28427,"lon":5.34986,"is_reserved":false,"is_disabled":false,"rental_uris":{"android":"levelo://app?vid=7d1bbfbb-c70e-48d3-8f4b-baf5b1ca8b77","ios":"levelo://app?vid=7d1bbfbb-c70e-48d3-8f4b-baf5b1ca8b77"},"vehicle_type_id":"4","last_reported":1751454578,"current_range_meters":16000,"station_id":"ce4bhbh2rcd13ifvqepg","pricing_plan_id":"cebpf4jnsgd1na2vs0mg"},{"bike_id":"17ad145c-f881-4017-969d-c8638a36a818","system_id":"levelo_inurba_marseille","lat":43.26548,"lon":5.38994,"is_reserved":false,"is_disabled":false,"rental_uris":{"android":"levelo://app?vid=17ad145c-f881-4017-969d-c8638a36a818","ios":"levelo://app?vid=17ad145c-f881-4017-969d-c8638a36a818"},"vehicle_type_id":"4","last_reported":1751454578,"current_range_meters":16000,"station_id":"ce4bhe12rcd13ifvqf30","pricing_plan_id":"cebpf4jnsgd1na2vs0mg"},{"bike_id":"b6db9e3f-26b1-4030-aaa1-6ee95deb3e82","system_id":"levelo_inurba_marseille","lat":43.25011,"lon":5.38928,"is_reserved":false,"is_disabled":false,"rental_uris":{"android":"levelo://app?vid=b6db9e3f-26b1-4030-aaa1-6ee95deb3e82","ios":"levelo://app?vid=b6db9e3f-26b1-4030-aaa1-6ee95deb3e82"},"vehicle_type_id":"4","last_reported":1751454578,"current_range_meters":16000,"station_id":"ce4bhgp2rcd13ifvqfd0","pricing_plan_id":"cebpf4jnsgd1na2vs0mg"},{"bike_id":"a6413d69-72b2-4506-ab68-ce224060e43a","system_id":"levelo_inurba_marseille","lat":43.25709,"lon":5.41129,"is_reserved":false,"is_disabled":false,"rental_uris":{"android":"levelo://app?vid=a6413d69-72b2-4506-ab68-ce224060e43a","ios":"levelo://app?vid=a6413d69-72b2-4506-ab68-ce224060e43a"},"vehicle_type_id":"4","last_reported":1751454578,"current_range_meters":16000,"station_id":"ce4bhkp2rcd13ifvqgd0","pricing_plan_id":"cebpf4jnsgd1na2vs0mg"},{"bike_id":"0e715623-9b33-4331-aebb-9181303ac7e7","system_id":"levelo_inurba_marseille","lat":43.31369,"lon":5.38486,"is_reserved":false,"is_disabled":false,"rental_uris":{"android":"levelo://app?vid=0e715623-9b33-4331-aebb-9181303ac7e7","ios":"levelo://app?vid=0e715623-9b33-4331-aebb-9181303ac7e7"},"vehicle_type_id":"4","last_reported":1751454578,"current_range_meters":16400,"station_id":"ce4bgt92rcd13ifvqcf0","pricing_plan_id":"cebpf4jnsgd1na2vs0mg"},{"bike_id":"7440a83d-d2eb-4aec-843d-e9a2bc12e9e7","system_id":"levelo_inurba_marseille","lat":43.24186,"lon":5.39742,"is_reserved":false,"is_disabled":false,"rental_uris":{"android":"levelo://app?vid=7440a83d-d2eb-4aec-843d-e9a2bc12e9e7","ios":"levelo://app?vid=7440a83d-d2eb-4aec-843d-e9a2bc12e9e7"},"vehicle_type_id":"4","last_reported":1751454578,"current_range_meters":16400,"station_id":"ce4bhn12rcd13ifvqgpg","pricing_plan_id":"cebpf4jnsgd1na2vs0mg"},{"bike_id":"56eb3fdf-ea87-4fcf-85df-3680fa66363e","system_id":"levelo_inurba_marseille","lat":43.22499,"lon":5.3479,"is_reserved":false,"is_disabled":false,"rental_uris":{"android":"levelo://app?vid=56eb3fdf-ea87-4fcf-85df-3680fa66363e","ios":"levelo://app?vid=56eb3fdf-ea87-4fcf-85df-3680fa66363e"},"vehicle_type_id":"4","last_reported":1751454578,"current_range_meters":16400,"station_id":"st_cvj5dfep6f1abm77gieg","pricing_plan_id":"cebpf4jnsgd1na2vs0mg"},{"bike_id":"16a8afe6-e43e-4d1b-a7bd-ed83d113735a","system_id":"levelo_inurba_marseille","lat":43.32436,"lon":5.41185,"is_reserved":false,"is_disabled":false,"rental_uris":{"android":"levelo://app?vid=16a8afe6-e43e-4d1b-a7bd-ed83d113735a","ios":"levelo://app?vid=16a8afe6-e43e-4d1b-a7bd-ed83d113735a"},"vehicle_type_id":"4","last_reported":1751454578,"current_range_meters":16800,"station_id":"","pricing_plan_id":"cebpf4jnsgd1na2vs0mg"},{"bike_id":"e355a6bb-c145-4aef-8f9c-4660fd88e2c6","system_id":"levelo_inurba_marseille","lat":43.29537,"lon":5.385433,"is_reserved":false,"is_disabled":false,"rental_uris":{"android":"levelo://app?vid=e355a6bb-c145-4aef-8f9c-4660fd88e2c6","ios":"levelo://app?vid=e355a6bb-c145-4aef-8f9c-4660fd88e2c6"},"vehicle_type_id":"4","last_reported":1751454578,"current_range_meters":16800,"station_id":"ce4bgih2rcd13ifvqba0","pricing_plan_id":"cebpf4jnsgd1na2vs0mg"},{"bike_id":"6aa32a9f-2e18-40da-9256-f975b6e0302d","system_id":"levelo_inurba_marseille","lat":43.28268,"lon":5.35063,"is_reserved":false,"is_disabled":false,"rental_uris":{"android":"levelo://app?vid=6aa32a9f-2e18-40da-9256-f975b6e0302d","ios":"levelo://app?vid=6aa32a9f-2e18-40da-9256-f975b6e0302d"},"vehicle_type_id":"4","last_reported":1751454578,"current_range_meters":16800,"station_id":"ce4bhbp2rcd13ifvqerg","pricing_plan_id":"cebpf4jnsgd1na2vs0mg"},{"bike_id":"f19ff11d-a4a8-4526-ab49-000e3cd64e1b","system_id":"levelo_inurba_marseille","lat":43.260288,"lon":5.375415,"is_reserved":false,"is_disabled":false,"rental_uris":{"android":"levelo://app?vid=f19ff11d-a4a8-4526-ab49-000e3cd64e1b","ios":"levelo://app?vid=f19ff11d-a4a8-4526-ab49-000e3cd64e1b"},"vehicle_type_id":"4","last_reported":1751454578,"current_range_meters":16800,"station_id":"ce4bhgh2rcd13ifvqfa0","pricing_plan_id":"cebpf4jnsgd1na2vs0mg"},{"bike_id":"81e2e9f6-94c9-4950-b972-4da699d83f19","system_id":"levelo_inurba_marseille","lat":43.25498,"lon":5.37648,"is_reserved":false,"is_disabled":false,"rental_uris":{"android":"levelo://app?vid=81e2e9f6-94c9-4950-b972-4da699d83f19","ios":"levelo://app?vid=81e2e9f6-94c9-4950-b972-4da699d83f19"},"vehicle_type_id":"4","last_reported":1751454578,"current_range_meters":16800,"station_id":"ce4bhh12rcd13ifvqff0","pricing_plan_id":"cebpf4jnsgd1na2vs0mg"},{"bike_id":"110be0f7-19b6-4419-935c-8afdb1f29359","system_id":"levelo_inurba_marseille","lat":43.21192,"lon":5.35114,"is_reserved":false,"is_disabled":false,"rental_uris":{"android":"levelo://app?vid=110be0f7-19b6-4419-935c-8afdb1f29359","ios":"levelo://app?vid=110be0f7-19b6-4419-935c-8afdb1f29359"},"vehicle_type_id":"4","last_reported":1751454578,"current_range_meters":16800,"station_id":"st_cvj6sg6p6f1abm77japg","pricing_plan_id":"cebpf4jnsgd1na2vs0mg"},{"bike_id":"bcfd0eda-b9ab-4bec-9ca3-3f2b86617415","system_id":"levelo_inurba_marseille","lat":43.211905,"lon":5.350715,"is_reserved":false,"is_disabled":false,"rental_uris":{"android":"levelo://app?vid=bcfd0eda-b9ab-4bec-9ca3-3f2b86617415","ios":"levelo://app?vid=bcfd0eda-b9ab-4bec-9ca3-3f2b86617415"},"vehicle_type_id":"4","last_reported":1751454578,"current_range_meters":16800,"station_id":"st_cvj6sg6p6f1abm77japg","pricing_plan_id":"cebpf4jnsgd1na2vs0mg"},{"bike_id":"959e6f20-8ed0-4d36-bc1d-3efb82d6190b","system_id":"levelo_inurba_marseille","lat":43.21182,"lon":5.35095,"is_reserved":false,"is_disabled":false,"rental_uris":{"android":"levelo://app?vid=959e6f20-8ed0-4d36-bc1d-3efb82d6190b","ios":"levelo://app?vid=959e6f20-8ed0-4d36-bc1d-3efb82d6190b"},"vehicle_type_id":"4","last_reported":1751454578,"current_range_meters":16800,"station_id":"st_cvj6sg6p6f1abm77japg","pricing_plan_id":"cebpf4jnsgd1na2vs0mg"},{"bike_id":"a0cef316-ad95-4855-8f78-a31341a2b90e","system_id":"levelo_inurba_marseille","lat":43.31282,"lon":5.37766,"is_reserved":false,"is_disabled":false,"rental_uris":{"android":"levelo://app?vid=a0cef316-ad95-4855-8f78-a31341a2b90e","ios":"levelo://app?vid=a0cef316-ad95-4855-8f78-a31341a2b90e"},"vehicle_type_id":"4","last_reported":1751454578,"current_range_meters":17200,"station_id":"","pricing_plan_id":"cebpf4jnsgd1na2vs0mg"},{"bike_id":"5543184e-341f-410b-b74f-4a4554e0fca3","system_id":"levelo_inurba_marseille","lat":43.29702,"lon":5.37299,"is_reserved":false,"is_disabled":false,"rental_uris":{"android":"levelo://app?vid=5543184e-341f-410b-b74f-4a4554e0fca3","ios":"levelo://app?vid=5543184e-341f-410b-b74f-4a4554e0fca3"},"vehicle_type_id":"4","last_reported":1751454578,"current_range_meters":17200,"station_id":"ce4bgk12rcd13ifvqbj0","pricing_plan_id":"cebpf4jnsgd1na2vs0mg"},{"bike_id":"0e030323-4386-4e72-9a0d-0f6a2ff539de","system_id":"levelo_inurba_marseille","lat":43.29619,"lon":5.40558,"is_reserved":false,"is_disabled":false,"rental_uris":{"android":"levelo://app?vid=0e030323-4386-4e72-9a0d-0f6a2ff539de","ios":"levelo://app?vid=0e030323-4386-4e72-9a0d-0f6a2ff539de"},"vehicle_type_id":"4","last_reported":1751454578,"current_range_meters":17200,"station_id":"ce4bh0h2rcd13ifvqd60","pricing_plan_id":"cebpf4jnsgd1na2vs0mg"},{"bike_id":"805c2663-b256-4489-a4d2-7288af24d8d1","system_id":"levelo_inurba_marseille","lat":43.284812,"lon":5.384189,"is_reserved":false,"is_disabled":false,"rental_uris":{"android":"levelo://app?vid=805c2663-b256-4489-a4d2-7288af24d8d1","ios":"levelo://app?vid=805c2663-b256-4489-a4d2-7288af24d8d1"},"vehicle_type_id":"4","last_reported":1751454578,"current_range_meters":17200,"station_id":"ce4bh512rcd13ifvqe3g","pricing_plan_id":"cebpf4jnsgd1na2vs0mg"},{"bike_id":"023cda6a-ceef-4d2c-a1cb-2d206ee09b7d","system_id":"levelo_inurba_marseille","lat":43.33027,"lon":5.39044,"is_reserved":false,"is_disabled":false,"rental_uris":{"android":"levelo://app?vid=023cda6a-ceef-4d2c-a1cb-2d206ee09b7d","ios":"levelo://app?vid=023cda6a-ceef-4d2c-a1cb-2d206ee09b7d"},"vehicle_type_id":"4","last_reported":1751454578,"current_range_meters":17200,"station_id":"ce4bhr92rcd13ifvqhrg","pricing_plan_id":"cebpf4jnsgd1na2vs0mg"},{"bike_id":"09a94feb-8911-4d3d-9f22-a7f611710ea1","system_id":"levelo_inurba_marseille","lat":43.211931,"lon":5.350718,"is_reserved":false,"is_disabled":false,"rental_uris":{"android":"levelo://app?vid=09a94feb-8911-4d3d-9f22-a7f611710ea1","ios":"levelo://app?vid=09a94feb-8911-4d3d-9f22-a7f611710ea1"},"vehicle_type_id":"4","last_reported":1751454578,"current_range_meters":17200,"station_id":"st_cvj6sg6p6f1abm77japg","pricing_plan_id":"cebpf4jnsgd1na2vs0mg"},{"bike_id":"c891a8a9-6cee-47e2-ba82-eb733400cd8c","system_id":"levelo_inurba_marseille","lat":43.30542,"lon":5.36714,"is_reserved":false,"is_disabled":false,"rental_uris":{"android":"levelo://app?vid=c891a8a9-6cee-47e2-ba82-eb733400cd8c","ios":"levelo://app?vid=c891a8a9-6cee-47e2-ba82-eb733400cd8c"},"vehicle_type_id":"4","last_reported":1751454578,"current_range_meters":17600,"station_id":"ce4bgrp2rcd13ifvqc9g","pricing_plan_id":"cebpf4jnsgd1na2vs0mg"},{"bike_id":"796bb010-cbac-407a-9424-10cd72c4422b","system_id":"levelo_inurba_marseille","lat":43.3027,"lon":5.40076,"is_reserved":false,"is_disabled":false,"rental_uris":{"android":"levelo://app?vid=796bb010-cbac-407a-9424-10cd72c4422b","ios":"levelo://app?vid=796bb010-cbac-407a-9424-10cd72c4422b"},"vehicle_type_id":"4","last_reported":1751454578,"current_range_meters":17600,"station_id":"ce4bgvh2rcd13ifvqcs0","pricing_plan_id":"cebpf4jnsgd1na2vs0mg"},{"bike_id":"ee286f28-f86e-4af6-96fc-b3febfb7ed08","system_id":"levelo_inurba_marseille","lat":43.28381,"lon":5.38633,"is_reserved":false,"is_disabled":false,"rental_uris":{"android":"levelo://app?vid=ee286f28-f86e-4af6-96fc-b3febfb7ed08","ios":"levelo://app?vid=ee286f28-f86e-4af6-96fc-b3febfb7ed08"},"vehicle_type_id":"4","last_reported":1751454578,"current_range_meters":17600,"station_id":"ce4bh492rcd13ifvqdvg","pricing_plan_id":"cebpf4jnsgd1na2vs0mg"},{"bike_id":"8bf0d992-d2a0-428e-940a-091ee9b7c2a4","system_id":"levelo_inurba_marseille","lat":43.21208,"lon":5.35111,"is_reserved":false,"is_disabled":false,"rental_uris":{"android":"levelo://app?vid=8bf0d992-d2a0-428e-940a-091ee9b7c2a4","ios":"levelo://app?vid=8bf0d992-d2a0-428e-940a-091ee9b7c2a4"},"vehicle_type_id":"4","last_reported":1751454578,"current_range_meters":17600,"station_id":"st_cvj6sg6p6f1abm77japg","pricing_plan_id":"cebpf4jnsgd1na2vs0mg"},{"bike_id":"1e262c0a-22c5-4c15-9968-e79ba68528c2","system_id":"levelo_inurba_marseille","lat":43.29583,"lon":5.36742,"is_reserved":false,"is_disabled":false,"rental_uris":{"android":"levelo://app?vid=1e262c0a-22c5-4c15-9968-e79ba68528c2","ios":"levelo://app?vid=1e262c0a-22c5-4c15-9968-e79ba68528c2"},"vehicle_type_id":"4","last_reported":1751454578,"current_range_meters":18000,"station_id":"ce4bgph2rcd13ifvqc2g","pricing_plan_id":"cebpf4jnsgd1na2vs0mg"},{"bike_id":"db60016a-241b-4cee-a3ed-d6d815287632","system_id":"levelo_inurba_marseille","lat":43.284058,"lon":5.375134,"is_reserved":false,"is_disabled":false,"rental_uris":{"android":"levelo://app?vid=db60016a-241b-4cee-a3ed-d6d815287632","ios":"levelo://app?vid=db60016a-241b-4cee-a3ed-d6d815287632"},"vehicle_type_id":"4","last_reported":1751454578,"current_range_meters":18000,"station_id":"ce4bh412rcd13ifvqds0","pricing_plan_id":"cebpf4jnsgd1na2vs0mg"},{"bike_id":"c1ab4e99-cfa1-44af-a5e4-281614c79582","system_id":"levelo_inurba_marseille","lat":43.2767,"lon":5.38891,"is_reserved":false,"is_disabled":false,"rental_uris":{"android":"levelo://app?vid=c1ab4e99-cfa1-44af-a5e4-281614c79582","ios":"levelo://app?vid=c1ab4e99-cfa1-44af-a5e4-281614c79582"},"vehicle_type_id":"4","last_reported":1751454578,"current_range_meters":18000,"station_id":"ce4bhi12rcd13ifvqfo0","pricing_plan_id":"cebpf4jnsgd1na2vs0mg"},{"bike_id":"c10a4283-320d-4e64-8d75-ff83e94026ba","system_id":"levelo_inurba_marseille","lat":43.211949,"lon":5.350726,"is_reserved":false,"is_disabled":false,"rental_uris":{"android":"levelo://app?vid=c10a4283-320d-4e64-8d75-ff83e94026ba","ios":"levelo://app?vid=c10a4283-320d-4e64-8d75-ff83e94026ba"},"vehicle_type_id":"4","last_reported":1751454578,"current_range_meters":18000,"station_id":"st_cvj6sg6p6f1abm77japg","pricing_plan_id":"cebpf4jnsgd1na2vs0mg"},{"bike_id":"8a74f5cd-9efa-4362-bea7-a32db4dcc85c","system_id":"levelo_inurba_marseille","lat":43.21195,"lon":5.35078,"is_reserved":false,"is_disabled":false,"rental_uris":{"android":"levelo://app?vid=8a74f5cd-9efa-4362-bea7-a32db4dcc85c","ios":"levelo://app?vid=8a74f5cd-9efa-4362-bea7-a32db4dcc85c"},"vehicle_type_id":"4","last_reported":1751454578,"current_range_meters":18000,"station_id":"st_cvj6sg6p6f1abm77japg","pricing_plan_id":"cebpf4jnsgd1na2vs0mg"},{"bike_id":"6d2da863-a742-45db-855b-55a94467cfa4","system_id":"levelo_inurba_marseille","lat":43.32595,"lon":5.42727,"is_reserved":false,"is_disabled":false,"rental_uris":{"android":"levelo://app?vid=6d2da863-a742-45db-855b-55a94467cfa4","ios":"levelo://app?vid=6d2da863-a742-45db-855b-55a94467cfa4"},"vehicle_type_id":"4","last_reported":1751454578,"current_range_meters":18800,"station_id":"","pricing_plan_id":"cebpf4jnsgd1na2vs0mg"},{"bike_id":"b0847cd6-3da2-4c96-b631-22dc7523d236","system_id":"levelo_inurba_marseille","lat":43.30557,"lon":5.36534,"is_reserved":false,"is_disabled":false,"rental_uris":{"android":"levelo://app?vid=b0847cd6-3da2-4c96-b631-22dc7523d236","ios":"levelo://app?vid=b0847cd6-3da2-4c96-b631-22dc7523d236"},"vehicle_type_id":"4","last_reported":1751454578,"current_range_meters":18800,"station_id":"ce4bgs12rcd13ifvqcag","pricing_plan_id":"cebpf4jnsgd1na2vs0mg"},{"bike_id":"0b52d53f-0bd6-47f1-b5e3-7fc98dc501bd","system_id":"levelo_inurba_marseille","lat":43.30545,"lon":5.36518,"is_reserved":false,"is_disabled":false,"rental_uris":{"android":"levelo://app?vid=0b52d53f-0bd6-47f1-b5e3-7fc98dc501bd","ios":"levelo://app?vid=0b52d53f-0bd6-47f1-b5e3-7fc98dc501bd"},"vehicle_type_id":"4","last_reported":1751454578,"current_range_meters":18800,"station_id":"ce4bgs12rcd13ifvqcag","pricing_plan_id":"cebpf4jnsgd1na2vs0mg"},{"bike_id":"add6aa1a-29cc-47a4-8df7-b795f89051c4","system_id":"levelo_inurba_marseille","lat":43.29036,"lon":5.38657,"is_reserved":false,"is_disabled":false,"rental_uris":{"android":"levelo://app?vid=add6aa1a-29cc-47a4-8df7-b795f89051c4","ios":"levelo://app?vid=add6aa1a-29cc-47a4-8df7-b795f89051c4"},"vehicle_type_id":"4","last_reported":1751454578,"current_range_meters":18800,"station_id":"ce4bh4p2rcd13ifvqe0g","pricing_plan_id":"cebpf4jnsgd1na2vs0mg"},{"bike_id":"b251054a-3db6-4192-ad91-19ee09944111","system_id":"levelo_inurba_marseille","lat":43.28444,"lon":5.39196,"is_reserved":false,"is_disabled":false,"rental_uris":{"android":"levelo://app?vid=b251054a-3db6-4192-ad91-19ee09944111","ios":"levelo://app?vid=b251054a-3db6-4192-ad91-19ee09944111"},"vehicle_type_id":"4","last_reported":1751454578,"current_range_meters":18800,"station_id":"ce4bhoh2rcd13ifvqh5g","pricing_plan_id":"cebpf4jnsgd1na2vs0mg"},{"bike_id":"d393009a-4549-46b8-9394-75871ff606d4","system_id":"levelo_inurba_marseille","lat":43.3238,"lon":5.36793,"is_reserved":false,"is_disabled":false,"rental_uris":{"android":"levelo://app?vid=d393009a-4549-46b8-9394-75871ff606d4","ios":"levelo://app?vid=d393009a-4549-46b8-9394-75871ff606d4"},"vehicle_type_id":"4","last_reported":1751454578,"current_range_meters":18800,"station_id":"ce4bhsh2rcd13ifvqi2g","pricing_plan_id":"cebpf4jnsgd1na2vs0mg"},{"bike_id":"145aa8bf-de65-4236-b017-63c83f1e3931","system_id":"levelo_inurba_marseille","lat":43.30959,"lon":5.39048,"is_reserved":false,"is_disabled":false,"rental_uris":{"android":"levelo://app?vid=145aa8bf-de65-4236-b017-63c83f1e3931","ios":"levelo://app?vid=145aa8bf-de65-4236-b017-63c83f1e3931"},"vehicle_type_id":"4","last_reported":1751454578,"current_range_meters":19200,"station_id":"ce4bgup2rcd13ifvqco0","pricing_plan_id":"cebpf4jnsgd1na2vs0mg"},{"bike_id":"be1339f6-f095-426e-b828-8a3814330462","system_id":"levelo_inurba_marseille","lat":43.298706,"lon":5.397226,"is_reserved":false,"is_disabled":false,"rental_uris":{"android":"levelo://app?vid=be1339f6-f095-426e-b828-8a3814330462","ios":"levelo://app?vid=be1339f6-f095-426e-b828-8a3814330462"},"vehicle_type_id":"4","last_reported":1751454578,"current_range_meters":19200,"station_id":"ce4bh0h2rcd13ifvqd50","pricing_plan_id":"cebpf4jnsgd1na2vs0mg"},{"bike_id":"a0b25009-9ff4-4b5f-bb64-1cad034eaa83","system_id":"levelo_inurba_marseille","lat":43.280927,"lon":5.378353,"is_reserved":false,"is_disabled":false,"rental_uris":{"android":"levelo://app?vid=a0b25009-9ff4-4b5f-bb64-1cad034eaa83","ios":"levelo://app?vid=a0b25009-9ff4-4b5f-bb64-1cad034eaa83"},"vehicle_type_id":"4","last_reported":1751454578,"current_range_meters":19200,"station_id":"ce4bha12rcd13ifvqee0","pricing_plan_id":"cebpf4jnsgd1na2vs0mg"},{"bike_id":"bfa88f67-5f5b-49db-81cc-e4921c6889b1","system_id":"levelo_inurba_marseille","lat":43.32087,"lon":5.36824,"is_reserved":false,"is_disabled":false,"rental_uris":{"android":"levelo://app?vid=bfa88f67-5f5b-49db-81cc-e4921c6889b1","ios":"levelo://app?vid=bfa88f67-5f5b-49db-81cc-e4921c6889b1"},"vehicle_type_id":"4","last_reported":1751454578,"current_range_meters":19200,"station_id":"ce4bhrh2rcd13ifvqhug","pricing_plan_id":"cebpf4jnsgd1na2vs0mg"},{"bike_id":"0f590c2a-c81e-469d-a7d1-2741de3642a2","system_id":"levelo_inurba_marseille","lat":43.21209,"lon":5.35042,"is_reserved":false,"is_disabled":false,"rental_uris":{"android":"levelo://app?vid=0f590c2a-c81e-469d-a7d1-2741de3642a2","ios":"levelo://app?vid=0f590c2a-c81e-469d-a7d1-2741de3642a2"},"vehicle_type_id":"4","last_reported":1751454578,"current_range_meters":19200,"station_id":"st_cvj6sg6p6f1abm77japg","pricing_plan_id":"cebpf4jnsgd1na2vs0mg"},{"bike_id":"fe84177e-dc24-423c-bc2b-77abf3163fe9","system_id":"levelo_inurba_marseille","lat":43.30206,"lon":5.38262,"is_reserved":false,"is_disabled":false,"rental_uris":{"android":"levelo://app?vid=fe84177e-dc24-423c-bc2b-77abf3163fe9","ios":"levelo://app?vid=fe84177e-dc24-423c-bc2b-77abf3163fe9"},"vehicle_type_id":"4","last_reported":1751454578,"current_range_meters":19600,"station_id":"","pricing_plan_id":"cebpf4jnsgd1na2vs0mg"},{"bike_id":"ffe2b3a0-3557-4d2e-8c03-7527f3f741f7","system_id":"levelo_inurba_marseille","lat":43.3137,"lon":5.38506,"is_reserved":false,"is_disabled":false,"rental_uris":{"android":"levelo://app?vid=ffe2b3a0-3557-4d2e-8c03-7527f3f741f7","ios":"levelo://app?vid=ffe2b3a0-3557-4d2e-8c03-7527f3f741f7"},"vehicle_type_id":"4","last_reported":1751454578,"current_range_meters":19600,"station_id":"ce4bgt92rcd13ifvqcf0","pricing_plan_id":"cebpf4jnsgd1na2vs0mg"},{"bike_id":"90deedad-5729-44ac-95e8-3f24aa141e8f","system_id":"levelo_inurba_marseille","lat":43.30957,"lon":5.39021,"is_reserved":false,"is_disabled":false,"rental_uris":{"android":"levelo://app?vid=90deedad-5729-44ac-95e8-3f24aa141e8f","ios":"levelo://app?vid=90deedad-5729-44ac-95e8-3f24aa141e8f"},"vehicle_type_id":"4","last_reported":1751454578,"current_range_meters":19600,"station_id":"ce4bgup2rcd13ifvqco0","pricing_plan_id":"cebpf4jnsgd1na2vs0mg"},{"bike_id":"93f8efbb-9527-4425-b7c6-c8092a855aa3","system_id":"levelo_inurba_marseille","lat":43.30884,"lon":5.39657,"is_reserved":false,"is_disabled":false,"rental_uris":{"android":"levelo://app?vid=93f8efbb-9527-4425-b7c6-c8092a855aa3","ios":"levelo://app?vid=93f8efbb-9527-4425-b7c6-c8092a855aa3"},"vehicle_type_id":"4","last_reported":1751454578,"current_range_meters":19600,"station_id":"ce4bh012rcd13ifvqcv0","pricing_plan_id":"cebpf4jnsgd1na2vs0mg"},{"bike_id":"36a2434a-b8f7-4263-9c0e-bbcbf2b47996","system_id":"levelo_inurba_marseille","lat":43.3169,"lon":5.4047,"is_reserved":false,"is_disabled":false,"rental_uris":{"android":"levelo://app?vid=36a2434a-b8f7-4263-9c0e-bbcbf2b47996","ios":"levelo://app?vid=36a2434a-b8f7-4263-9c0e-bbcbf2b47996"},"vehicle_type_id":"4","last_reported":1751454578,"current_range_meters":19600,"station_id":"ce4bh012rcd13ifvqd00","pricing_plan_id":"cebpf4jnsgd1na2vs0mg"},{"bike_id":"82e02c49-af02-4f92-a493-01833645e328","system_id":"levelo_inurba_marseille","lat":43.2952,"lon":5.39392,"is_reserved":false,"is_disabled":false,"rental_uris":{"android":"levelo://app?vid=82e02c49-af02-4f92-a493-01833645e328","ios":"levelo://app?vid=82e02c49-af02-4f92-a493-01833645e328"},"vehicle_type_id":"4","last_reported":1751454578,"current_range_meters":19600,"station_id":"ce4bh292rcd13ifvqdf0","pricing_plan_id":"cebpf4jnsgd1na2vs0mg"},{"bike_id":"ebceaf31-51b9-4502-92e9-09bf5c46df39","system_id":"levelo_inurba_marseille","lat":43.24831,"lon":5.37434,"is_reserved":false,"is_disabled":false,"rental_uris":{"android":"levelo://app?vid=ebceaf31-51b9-4502-92e9-09bf5c46df39","ios":"levelo://app?vid=ebceaf31-51b9-4502-92e9-09bf5c46df39"},"vehicle_type_id":"4","last_reported":1751454578,"current_range_meters":19600,"station_id":"ce4bhgh2rcd13ifvqfb0","pricing_plan_id":"cebpf4jnsgd1na2vs0mg"},{"bike_id":"a5dd1495-37bd-4d52-bdbd-ac33ef851954","system_id":"levelo_inurba_marseille","lat":43.23146,"lon":5.43722,"is_reserved":false,"is_disabled":false,"rental_uris":{"android":"levelo://app?vid=a5dd1495-37bd-4d52-bdbd-ac33ef851954","ios":"levelo://app?vid=a5dd1495-37bd-4d52-bdbd-ac33ef851954"},"vehicle_type_id":"4","last_reported":1751454578,"current_range_meters":19600,"station_id":"ce4bhmp2rcd13ifvqgog","pricing_plan_id":"cebpf4jnsgd1na2vs0mg"},{"bike_id":"b7c4f4e7-ddbb-4243-982d-1ca4f75e59a6","system_id":"levelo_inurba_marseille","lat":43.323613,"lon":5.367456,"is_reserved":false,"is_disabled":false,"rental_uris":{"android":"levelo://app?vid=b7c4f4e7-ddbb-4243-982d-1ca4f75e59a6","ios":"levelo://app?vid=b7c4f4e7-ddbb-4243-982d-1ca4f75e59a6"},"vehicle_type_id":"4","last_reported":1751454578,"current_range_meters":19600,"station_id":"ce4bhsh2rcd13ifvqi2g","pricing_plan_id":"cebpf4jnsgd1na2vs0mg"},{"bike_id":"10b0b860-bb51-4240-bd79-57112e19f6af","system_id":"levelo_inurba_marseille","lat":43.21757,"lon":5.34602,"is_reserved":false,"is_disabled":false,"rental_uris":{"android":"levelo://app?vid=10b0b860-bb51-4240-bd79-57112e19f6af","ios":"levelo://app?vid=10b0b860-bb51-4240-bd79-57112e19f6af"},"vehicle_type_id":"4","last_reported":1751454578,"current_range_meters":19600,"station_id":"st_cvj6r9ubvosntc0bgbag","pricing_plan_id":"cebpf4jnsgd1na2vs0mg"},{"bike_id":"79a3aeb2-a2b2-4cad-9b86-ba6ca4824427","system_id":"levelo_inurba_marseille","lat":43.30208,"lon":5.38063,"is_reserved":false,"is_disabled":false,"rental_uris":{"android":"levelo://app?vid=79a3aeb2-a2b2-4cad-9b86-ba6ca4824427","ios":"levelo://app?vid=79a3aeb2-a2b2-4cad-9b86-ba6ca4824427"},"vehicle_type_id":"4","last_reported":1751454578,"current_range_meters":20000,"station_id":"","pricing_plan_id":"cebpf4jnsgd1na2vs0mg"},{"bike_id":"b2325bea-9a74-459a-a713-509c2ba84f3e","system_id":"levelo_inurba_marseille","lat":43.28323,"lon":5.41328,"is_reserved":false,"is_disabled":false,"rental_uris":{"android":"levelo://app?vid=b2325bea-9a74-459a-a713-509c2ba84f3e","ios":"levelo://app?vid=b2325bea-9a74-459a-a713-509c2ba84f3e"},"vehicle_type_id":"4","last_reported":1751454578,"current_range_meters":20000,"station_id":"","pricing_plan_id":"cebpf4jnsgd1na2vs0mg"},{"bike_id":"19bff631-31d3-4738-b5de-8c3655155c50","system_id":"levelo_inurba_marseille","lat":43.29792,"lon":5.3811,"is_reserved":false,"is_disabled":false,"rental_uris":{"android":"levelo://app?vid=19bff631-31d3-4738-b5de-8c3655155c50","ios":"levelo://app?vid=19bff631-31d3-4738-b5de-8c3655155c50"},"vehicle_type_id":"4","last_reported":1751454578,"current_range_meters":20000,"station_id":"ce4bgip2rcd13ifvqbb0","pricing_plan_id":"cebpf4jnsgd1na2vs0mg"},{"bike_id":"86c8e1a5-b5c2-42b1-99f8-14e6e2096d9b","system_id":"levelo_inurba_marseille","lat":43.31338,"lon":5.36746,"is_reserved":false,"is_disabled":false,"rental_uris":{"android":"levelo://app?vid=86c8e1a5-b5c2-42b1-99f8-14e6e2096d9b","ios":"levelo://app?vid=86c8e1a5-b5c2-42b1-99f8-14e6e2096d9b"},"vehicle_type_id":"4","last_reported":1751454578,"current_range_meters":20000,"station_id":"ce4bgr92rcd13ifvqc6g","pricing_plan_id":"cebpf4jnsgd1na2vs0mg"},{"bike_id":"69afa8f8-2aef-4182-8ef1-fc155f211c1e","system_id":"levelo_inurba_marseille","lat":43.27374,"lon":5.36259,"is_reserved":false,"is_disabled":false,"rental_uris":{"android":"levelo://app?vid=69afa8f8-2aef-4182-8ef1-fc155f211c1e","ios":"levelo://app?vid=69afa8f8-2aef-4182-8ef1-fc155f211c1e"},"vehicle_type_id":"4","last_reported":1751454578,"current_range_meters":20000,"station_id":"ce4bhbh2rcd13ifvqeo0","pricing_plan_id":"cebpf4jnsgd1na2vs0mg"},{"bike_id":"395abfa9-e1c8-4ba0-ac67-403cada327de","system_id":"levelo_inurba_marseille","lat":43.26797,"lon":5.3941,"is_reserved":false,"is_disabled":false,"rental_uris":{"android":"levelo://app?vid=395abfa9-e1c8-4ba0-ac67-403cada327de","ios":"levelo://app?vid=395abfa9-e1c8-4ba0-ac67-403cada327de"},"vehicle_type_id":"4","last_reported":1751454578,"current_range_meters":20000,"station_id":"ce4bhh12rcd13ifvqfg0","pricing_plan_id":"cebpf4jnsgd1na2vs0mg"},{"bike_id":"48a8b866-9a64-4b58-8b3a-d988de0d4af0","system_id":"levelo_inurba_marseille","lat":43.24175,"lon":5.36393,"is_reserved":false,"is_disabled":false,"rental_uris":{"android":"levelo://app?vid=48a8b866-9a64-4b58-8b3a-d988de0d4af0","ios":"levelo://app?vid=48a8b866-9a64-4b58-8b3a-d988de0d4af0"},"vehicle_type_id":"4","last_reported":1751454578,"current_range_meters":20000,"station_id":"cpo36qri1sfpv3e86is0","pricing_plan_id":"cebpf4jnsgd1na2vs0mg"},{"bike_id":"37b84a38-055a-4a6e-a56a-8ff3d0c1b2ec","system_id":"levelo_inurba_marseille","lat":43.21188,"lon":5.35086,"is_reserved":false,"is_disabled":false,"rental_uris":{"android":"levelo://app?vid=37b84a38-055a-4a6e-a56a-8ff3d0c1b2ec","ios":"levelo://app?vid=37b84a38-055a-4a6e-a56a-8ff3d0c1b2ec"},"vehicle_type_id":"4","last_reported":1751454578,"current_range_meters":20000,"station_id":"st_cvj6sg6p6f1abm77japg","pricing_plan_id":"cebpf4jnsgd1na2vs0mg"},{"bike_id":"3be62267-12fe-43bf-bd19-64ff695cb725","system_id":"levelo_inurba_marseille","lat":43.30516,"lon":5.36567,"is_reserved":false,"is_disabled":false,"rental_uris":{"android":"levelo://app?vid=3be62267-12fe-43bf-bd19-64ff695cb725","ios":"levelo://app?vid=3be62267-12fe-43bf-bd19-64ff695cb725"},"vehicle_type_id":"4","last_reported":1751454578,"current_range_meters":20400,"station_id":"","pricing_plan_id":"cebpf4jnsgd1na2vs0mg"},{"bike_id":"e073fe96-43d2-4247-ba8c-f9c0e2c784ff","system_id":"levelo_inurba_marseille","lat":43.29852,"lon":5.36285,"is_reserved":false,"is_disabled":false,"rental_uris":{"android":"levelo://app?vid=e073fe96-43d2-4247-ba8c-f9c0e2c784ff","ios":"levelo://app?vid=e073fe96-43d2-4247-ba8c-f9c0e2c784ff"},"vehicle_type_id":"4","last_reported":1751454578,"current_range_meters":20400,"station_id":"ce4bgpp2rcd13ifvqc3g","pricing_plan_id":"cebpf4jnsgd1na2vs0mg"},{"bike_id":"b0496903-e4e2-480d-b2e6-4fcaae2cd474","system_id":"levelo_inurba_marseille","lat":43.31368,"lon":5.36675,"is_reserved":false,"is_disabled":false,"rental_uris":{"android":"levelo://app?vid=b0496903-e4e2-480d-b2e6-4fcaae2cd474","ios":"levelo://app?vid=b0496903-e4e2-480d-b2e6-4fcaae2cd474"},"vehicle_type_id":"4","last_reported":1751454578,"current_range_meters":20400,"station_id":"ce4bgr92rcd13ifvqc6g","pricing_plan_id":"cebpf4jnsgd1na2vs0mg"},{"bike_id":"b133cba7-eafe-4563-9b6f-fed407514ad9","system_id":"levelo_inurba_marseille","lat":43.29027,"lon":5.38135,"is_reserved":false,"is_disabled":false,"rental_uris":{"android":"levelo://app?vid=b133cba7-eafe-4563-9b6f-fed407514ad9","ios":"levelo://app?vid=b133cba7-eafe-4563-9b6f-fed407514ad9"},"vehicle_type_id":"4","last_reported":1751454578,"current_range_meters":20400,"station_id":"ce4bh4p2rcd13ifvqe1g","pricing_plan_id":"cebpf4jnsgd1na2vs0mg"},{"bike_id":"88da0a8a-c235-4518-8971-4d82c75fdca3","system_id":"levelo_inurba_marseille","lat":43.28431,"lon":5.35019,"is_reserved":false,"is_disabled":false,"rental_uris":{"android":"levelo://app?vid=88da0a8a-c235-4518-8971-4d82c75fdca3","ios":"levelo://app?vid=88da0a8a-c235-4518-8971-4d82c75fdca3"},"vehicle_type_id":"4","last_reported":1751454578,"current_range_meters":20400,"station_id":"ce4bhbh2rcd13ifvqepg","pricing_plan_id":"cebpf4jnsgd1na2vs0mg"},{"bike_id":"21e2c51d-4563-4efd-afbf-0ddeff93c862","system_id":"levelo_inurba_marseille","lat":43.21743,"lon":5.34602,"is_reserved":false,"is_disabled":false,"rental_uris":{"android":"levelo://app?vid=21e2c51d-4563-4efd-afbf-0ddeff93c862","ios":"levelo://app?vid=21e2c51d-4563-4efd-afbf-0ddeff93c862"},"vehicle_type_id":"4","last_reported":1751454578,"current_range_meters":20400,"station_id":"st_cvj6r9ubvosntc0bgbag","pricing_plan_id":"cebpf4jnsgd1na2vs0mg"},{"bike_id":"2d7ab8c9-ccb6-4168-91f8-ffbbd54cc09d","system_id":"levelo_inurba_marseille","lat":43.29708,"lon":5.37003,"is_reserved":false,"is_disabled":false,"rental_uris":{"android":"levelo://app?vid=2d7ab8c9-ccb6-4168-91f8-ffbbd54cc09d","ios":"levelo://app?vid=2d7ab8c9-ccb6-4168-91f8-ffbbd54cc09d"},"vehicle_type_id":"4","last_reported":1751454578,"current_range_meters":20800,"station_id":"","pricing_plan_id":"cebpf4jnsgd1na2vs0mg"},{"bike_id":"8e37baed-7f2c-4e9d-ad92-d667bd903e90","system_id":"levelo_inurba_marseille","lat":43.29366,"lon":5.37842,"is_reserved":false,"is_disabled":false,"rental_uris":{"android":"levelo://app?vid=8e37baed-7f2c-4e9d-ad92-d667bd903e90","ios":"levelo://app?vid=8e37baed-7f2c-4e9d-ad92-d667bd903e90"},"vehicle_type_id":"4","last_reported":1751454578,"current_range_meters":20800,"station_id":"ce4bgjh2rcd13ifvqbf0","pricing_plan_id":"cebpf4jnsgd1na2vs0mg"},{"bike_id":"aaae32df-99f5-43e3-813f-c870b5943dc8","system_id":"levelo_inurba_marseille","lat":43.3053,"lon":5.36565,"is_reserved":false,"is_disabled":false,"rental_uris":{"android":"levelo://app?vid=aaae32df-99f5-43e3-813f-c870b5943dc8","ios":"levelo://app?vid=aaae32df-99f5-43e3-813f-c870b5943dc8"},"vehicle_type_id":"4","last_reported":1751454578,"current_range_meters":20800,"station_id":"ce4bgs12rcd13ifvqcag","pricing_plan_id":"cebpf4jnsgd1na2vs0mg"},{"bike_id":"c5e45a7b-0153-471d-b7b9-0260edc3a915","system_id":"levelo_inurba_marseille","lat":43.30803,"lon":5.38166,"is_reserved":false,"is_disabled":false,"rental_uris":{"android":"levelo://app?vid=c5e45a7b-0153-471d-b7b9-0260edc3a915","ios":"levelo://app?vid=c5e45a7b-0153-471d-b7b9-0260edc3a915"},"vehicle_type_id":"4","last_reported":1751454578,"current_range_meters":20800,"station_id":"ce4bgt12rcd13ifvqce0","pricing_plan_id":"cebpf4jnsgd1na2vs0mg"},{"bike_id":"9504577e-fef8-4b78-bf89-f2015992a2d5","system_id":"levelo_inurba_marseille","lat":43.29012,"lon":5.35602,"is_reserved":false,"is_disabled":false,"rental_uris":{"android":"levelo://app?vid=9504577e-fef8-4b78-bf89-f2015992a2d5","ios":"levelo://app?vid=9504577e-fef8-4b78-bf89-f2015992a2d5"},"vehicle_type_id":"4","last_reported":1751454578,"current_range_meters":20800,"station_id":"ce4bhb92rcd13ifvqen0","pricing_plan_id":"cebpf4jnsgd1na2vs0mg"},{"bike_id":"05e97de2-78af-4175-bffe-646b782387c4","system_id":"levelo_inurba_marseille","lat":43.2481,"lon":5.37457,"is_reserved":false,"is_disabled":false,"rental_uris":{"android":"levelo://app?vid=05e97de2-78af-4175-bffe-646b782387c4","ios":"levelo://app?vid=05e97de2-78af-4175-bffe-646b782387c4"},"vehicle_type_id":"4","last_reported":1751454578,"current_range_meters":20800,"station_id":"ce4bhgh2rcd13ifvqfb0","pricing_plan_id":"cebpf4jnsgd1na2vs0mg"},{"bike_id":"42d74769-930b-4ce0-9e79-8def19270370","system_id":"levelo_inurba_marseille","lat":43.25499,"lon":5.37646,"is_reserved":false,"is_disabled":false,"rental_uris":{"android":"levelo://app?vid=42d74769-930b-4ce0-9e79-8def19270370","ios":"levelo://app?vid=42d74769-930b-4ce0-9e79-8def19270370"},"vehicle_type_id":"4","last_reported":1751454578,"current_range_meters":20800,"station_id":"ce4bhh12rcd13ifvqff0","pricing_plan_id":"cebpf4jnsgd1na2vs0mg"},{"bike_id":"9796a8d1-9d58-4fd8-8a18-676239ebd72b","system_id":"levelo_inurba_marseille","lat":43.2678,"lon":5.39426,"is_reserved":false,"is_disabled":false,"rental_uris":{"android":"levelo://app?vid=9796a8d1-9d58-4fd8-8a18-676239ebd72b","ios":"levelo://app?vid=9796a8d1-9d58-4fd8-8a18-676239ebd72b"},"vehicle_type_id":"4","last_reported":1751454578,"current_range_meters":20800,"station_id":"ce4bhh12rcd13ifvqfg0","pricing_plan_id":"cebpf4jnsgd1na2vs0mg"},{"bike_id":"4d4995e7-0bba-4ac2-a238-afd84a5e99b5","system_id":"levelo_inurba_marseille","lat":43.304848,"lon":5.398345,"is_reserved":false,"is_disabled":false,"rental_uris":{"android":"levelo://app?vid=4d4995e7-0bba-4ac2-a238-afd84a5e99b5","ios":"levelo://app?vid=4d4995e7-0bba-4ac2-a238-afd84a5e99b5"},"vehicle_type_id":"4","last_reported":1751454578,"current_range_meters":21600,"station_id":"","pricing_plan_id":"cebpf4jnsgd1na2vs0mg"},{"bike_id":"50bb0fdb-2cc1-4d8d-af26-b7febba54985","system_id":"levelo_inurba_marseille","lat":43.274139,"lon":5.39007,"is_reserved":false,"is_disabled":false,"rental_uris":{"android":"levelo://app?vid=50bb0fdb-2cc1-4d8d-af26-b7febba54985","ios":"levelo://app?vid=50bb0fdb-2cc1-4d8d-af26-b7febba54985"},"vehicle_type_id":"4","last_reported":1751454578,"current_range_meters":21600,"station_id":"","pricing_plan_id":"cebpf4jnsgd1na2vs0mg"},{"bike_id":"ef355420-5a20-4635-bce2-02e0fdd3ba3a","system_id":"levelo_inurba_marseille","lat":43.30543,"lon":5.36531,"is_reserved":false,"is_disabled":false,"rental_uris":{"android":"levelo://app?vid=ef355420-5a20-4635-bce2-02e0fdd3ba3a","ios":"levelo://app?vid=ef355420-5a20-4635-bce2-02e0fdd3ba3a"},"vehicle_type_id":"4","last_reported":1751454578,"current_range_meters":21600,"station_id":"ce4bgs12rcd13ifvqcag","pricing_plan_id":"cebpf4jnsgd1na2vs0mg"},{"bike_id":"839243a8-5fb6-47e4-8c26-82b271af883c","system_id":"levelo_inurba_marseille","lat":43.30543,"lon":5.36521,"is_reserved":false,"is_disabled":false,"rental_uris":{"android":"levelo://app?vid=839243a8-5fb6-47e4-8c26-82b271af883c","ios":"levelo://app?vid=839243a8-5fb6-47e4-8c26-82b271af883c"},"vehicle_type_id":"4","last_reported":1751454578,"current_range_meters":21600,"station_id":"ce4bgs12rcd13ifvqcag","pricing_plan_id":"cebpf4jnsgd1na2vs0mg"},{"bike_id":"fb225c20-0331-4fa5-9693-e8e2f53c9f73","system_id":"levelo_inurba_marseille","lat":43.29259,"lon":5.40909,"is_reserved":false,"is_disabled":false,"rental_uris":{"android":"levelo://app?vid=fb225c20-0331-4fa5-9693-e8e2f53c9f73","ios":"levelo://app?vid=fb225c20-0331-4fa5-9693-e8e2f53c9f73"},"vehicle_type_id":"4","last_reported":1751454578,"current_range_meters":21600,"station_id":"ce4bh192rcd13ifvqdc0","pricing_plan_id":"cebpf4jnsgd1na2vs0mg"},{"bike_id":"a6715104-7492-4ec6-a996-23050baf8551","system_id":"levelo_inurba_marseille","lat":43.22497,"lon":5.34772,"is_reserved":false,"is_disabled":false,"rental_uris":{"android":"levelo://app?vid=a6715104-7492-4ec6-a996-23050baf8551","ios":"levelo://app?vid=a6715104-7492-4ec6-a996-23050baf8551"},"vehicle_type_id":"4","last_reported":1751454578,"current_range_meters":21600,"station_id":"st_cvj5dfep6f1abm77gieg","pricing_plan_id":"cebpf4jnsgd1na2vs0mg"},{"bike_id":"276c4625-bd93-4dad-963b-51fd3d6a1619","system_id":"levelo_inurba_marseille","lat":43.30099,"lon":5.39094,"is_reserved":false,"is_disabled":false,"rental_uris":{"android":"levelo://app?vid=276c4625-bd93-4dad-963b-51fd3d6a1619","ios":"levelo://app?vid=276c4625-bd93-4dad-963b-51fd3d6a1619"},"vehicle_type_id":"4","last_reported":1751454578,"current_range_meters":22000,"station_id":"ce4bh192rcd13ifvqdb0","pricing_plan_id":"cebpf4jnsgd1na2vs0mg"},{"bike_id":"6364f64d-4741-4ebf-bead-f9bc641833ac","system_id":"levelo_inurba_marseille","lat":43.28972,"lon":5.37825,"is_reserved":false,"is_disabled":false,"rental_uris":{"android":"levelo://app?vid=6364f64d-4741-4ebf-bead-f9bc641833ac","ios":"levelo://app?vid=6364f64d-4741-4ebf-bead-f9bc641833ac"},"vehicle_type_id":"4","last_reported":1751454578,"current_range_meters":22000,"station_id":"ce4bh9p2rcd13ifvqed0","pricing_plan_id":"cebpf4jnsgd1na2vs0mg"},{"bike_id":"a2b9d801-43d3-4451-87c7-f45f50956663","system_id":"levelo_inurba_marseille","lat":43.28617,"lon":5.35104,"is_reserved":false,"is_disabled":false,"rental_uris":{"android":"levelo://app?vid=a2b9d801-43d3-4451-87c7-f45f50956663","ios":"levelo://app?vid=a2b9d801-43d3-4451-87c7-f45f50956663"},"vehicle_type_id":"4","last_reported":1751454578,"current_range_meters":22000,"station_id":"ce4bhch2rcd13ifvqeug","pricing_plan_id":"cebpf4jnsgd1na2vs0mg"},{"bike_id":"b5528c4c-9caf-454a-bb1f-20aaa8e69b42","system_id":"levelo_inurba_marseille","lat":43.26058,"lon":5.39399,"is_reserved":false,"is_disabled":false,"rental_uris":{"android":"levelo://app?vid=b5528c4c-9caf-454a-bb1f-20aaa8e69b42","ios":"levelo://app?vid=b5528c4c-9caf-454a-bb1f-20aaa8e69b42"},"vehicle_type_id":"4","last_reported":1751454578,"current_range_meters":22000,"station_id":"ce4bhh92rcd13ifvqfj0","pricing_plan_id":"cebpf4jnsgd1na2vs0mg"},{"bike_id":"295e24d6-0cf4-40e8-94ca-c831c6afcd19","system_id":"levelo_inurba_marseille","lat":43.272067,"lon":5.391804,"is_reserved":false,"is_disabled":false,"rental_uris":{"android":"levelo://app?vid=295e24d6-0cf4-40e8-94ca-c831c6afcd19","ios":"levelo://app?vid=295e24d6-0cf4-40e8-94ca-c831c6afcd19"},"vehicle_type_id":"4","last_reported":1751454578,"current_range_meters":22000,"station_id":"ce4bhhp2rcd13ifvqfm0","pricing_plan_id":"cebpf4jnsgd1na2vs0mg"},{"bike_id":"3ce71b5c-ba7c-4a77-b581-c0a79415587e","system_id":"levelo_inurba_marseille","lat":43.29804,"lon":5.38115,"is_reserved":false,"is_disabled":false,"rental_uris":{"android":"levelo://app?vid=3ce71b5c-ba7c-4a77-b581-c0a79415587e","ios":"levelo://app?vid=3ce71b5c-ba7c-4a77-b581-c0a79415587e"},"vehicle_type_id":"4","last_reported":1751454578,"current_range_meters":22400,"station_id":"ce4bgip2rcd13ifvqbb0","pricing_plan_id":"cebpf4jnsgd1na2vs0mg"},{"bike_id":"26e1cd53-ce80-4f26-8f93-18bdcecac2a5","system_id":"levelo_inurba_marseille","lat":43.30561,"lon":5.36534,"is_reserved":false,"is_disabled":false,"rental_uris":{"android":"levelo://app?vid=26e1cd53-ce80-4f26-8f93-18bdcecac2a5","ios":"levelo://app?vid=26e1cd53-ce80-4f26-8f93-18bdcecac2a5"},"vehicle_type_id":"4","last_reported":1751454578,"current_range_meters":22400,"station_id":"ce4bgs12rcd13ifvqcag","pricing_plan_id":"cebpf4jnsgd1na2vs0mg"},{"bike_id":"486c2cd8-c3f5-40de-8c91-373a0df6ef1e","system_id":"levelo_inurba_marseille","lat":43.30466,"lon":5.37911,"is_reserved":false,"is_disabled":false,"rental_uris":{"android":"levelo://app?vid=486c2cd8-c3f5-40de-8c91-373a0df6ef1e","ios":"levelo://app?vid=486c2cd8-c3f5-40de-8c91-373a0df6ef1e"},"vehicle_type_id":"4","last_reported":1751454578,"current_range_meters":22400,"station_id":"ce4bgup2rcd13ifvqcn0","pricing_plan_id":"cebpf4jnsgd1na2vs0mg"},{"bike_id":"594bcefe-8253-4030-8f20-cabd2d98c57e","system_id":"levelo_inurba_marseille","lat":43.30458,"lon":5.37909,"is_reserved":false,"is_disabled":false,"rental_uris":{"android":"levelo://app?vid=594bcefe-8253-4030-8f20-cabd2d98c57e","ios":"levelo://app?vid=594bcefe-8253-4030-8f20-cabd2d98c57e"},"vehicle_type_id":"4","last_reported":1751454578,"current_range_meters":22400,"station_id":"ce4bgup2rcd13ifvqcn0","pricing_plan_id":"cebpf4jnsgd1na2vs0mg"},{"bike_id":"773fda03-a46e-4196-93b1-bface2f74128","system_id":"levelo_inurba_marseille","lat":43.26066,"lon":5.39397,"is_reserved":false,"is_disabled":false,"rental_uris":{"android":"levelo://app?vid=773fda03-a46e-4196-93b1-bface2f74128","ios":"levelo://app?vid=773fda03-a46e-4196-93b1-bface2f74128"},"vehicle_type_id":"4","last_reported":1751454578,"current_range_meters":22400,"station_id":"ce4bhh92rcd13ifvqfj0","pricing_plan_id":"cebpf4jnsgd1na2vs0mg"},{"bike_id":"0cc130e8-cc2f-4dfa-9aa3-53395a4b63df","system_id":"levelo_inurba_marseille","lat":43.29624,"lon":5.37746,"is_reserved":false,"is_disabled":false,"rental_uris":{"android":"levelo://app?vid=0cc130e8-cc2f-4dfa-9aa3-53395a4b63df","ios":"levelo://app?vid=0cc130e8-cc2f-4dfa-9aa3-53395a4b63df"},"vehicle_type_id":"4","last_reported":1751454578,"current_range_meters":22800,"station_id":"ce4bgi92rcd13ifvqb90","pricing_plan_id":"cebpf4jnsgd1na2vs0mg"},{"bike_id":"fc25b7eb-3cd6-488d-a73d-7ecae41ffb23","system_id":"levelo_inurba_marseille","lat":43.23963,"lon":5.36637,"is_reserved":false,"is_disabled":false,"rental_uris":{"android":"levelo://app?vid=fc25b7eb-3cd6-488d-a73d-7ecae41ffb23","ios":"levelo://app?vid=fc25b7eb-3cd6-488d-a73d-7ecae41ffb23"},"vehicle_type_id":"4","last_reported":1751454578,"current_range_meters":22800,"station_id":"ce4bhi12rcd13ifvqfp0","pricing_plan_id":"cebpf4jnsgd1na2vs0mg"},{"bike_id":"bed3e8a6-b151-4512-8ecd-b49dd3969a2c","system_id":"levelo_inurba_marseille","lat":43.32121,"lon":5.3679,"is_reserved":false,"is_disabled":false,"rental_uris":{"android":"levelo://app?vid=bed3e8a6-b151-4512-8ecd-b49dd3969a2c","ios":"levelo://app?vid=bed3e8a6-b151-4512-8ecd-b49dd3969a2c"},"vehicle_type_id":"4","last_reported":1751454578,"current_range_meters":22800,"station_id":"ce4bhrh2rcd13ifvqhug","pricing_plan_id":"cebpf4jnsgd1na2vs0mg"},{"bike_id":"cc04118e-9312-4bf8-9106-d64e829afbaa","system_id":"levelo_inurba_marseille","lat":43.21192,"lon":5.35077,"is_reserved":false,"is_disabled":false,"rental_uris":{"android":"levelo://app?vid=cc04118e-9312-4bf8-9106-d64e829afbaa","ios":"levelo://app?vid=cc04118e-9312-4bf8-9106-d64e829afbaa"},"vehicle_type_id":"4","last_reported":1751454578,"current_range_meters":22800,"station_id":"st_cvj6sg6p6f1abm77japg","pricing_plan_id":"cebpf4jnsgd1na2vs0mg"},{"bike_id":"1c8ab180-05fd-405f-9922-b2b2c2d5142f","system_id":"levelo_inurba_marseille","lat":43.33801,"lon":5.38099,"is_reserved":false,"is_disabled":false,"rental_uris":{"android":"levelo://app?vid=1c8ab180-05fd-405f-9922-b2b2c2d5142f","ios":"levelo://app?vid=1c8ab180-05fd-405f-9922-b2b2c2d5142f"},"vehicle_type_id":"4","last_reported":1751454578,"current_range_meters":23200,"station_id":"","pricing_plan_id":"cebpf4jnsgd1na2vs0mg"},{"bike_id":"b6f9ad02-3b75-4d07-933c-e15f100ce606","system_id":"levelo_inurba_marseille","lat":43.29857,"lon":5.36285,"is_reserved":false,"is_disabled":false,"rental_uris":{"android":"levelo://app?vid=b6f9ad02-3b75-4d07-933c-e15f100ce606","ios":"levelo://app?vid=b6f9ad02-3b75-4d07-933c-e15f100ce606"},"vehicle_type_id":"4","last_reported":1751454578,"current_range_meters":23200,"station_id":"ce4bgpp2rcd13ifvqc3g","pricing_plan_id":"cebpf4jnsgd1na2vs0mg"},{"bike_id":"70adc367-4b10-4520-8c78-38d81b605e0b","system_id":"levelo_inurba_marseille","lat":43.28471,"lon":5.38402,"is_reserved":false,"is_disabled":false,"rental_uris":{"android":"levelo://app?vid=70adc367-4b10-4520-8c78-38d81b605e0b","ios":"levelo://app?vid=70adc367-4b10-4520-8c78-38d81b605e0b"},"vehicle_type_id":"4","last_reported":1751454578,"current_range_meters":23200,"station_id":"ce4bh512rcd13ifvqe3g","pricing_plan_id":"cebpf4jnsgd1na2vs0mg"},{"bike_id":"a615a8e5-a679-472f-a522-5ae71d0a509e","system_id":"levelo_inurba_marseille","lat":43.29032,"lon":5.37562,"is_reserved":false,"is_disabled":false,"rental_uris":{"android":"levelo://app?vid=a615a8e5-a679-472f-a522-5ae71d0a509e","ios":"levelo://app?vid=a615a8e5-a679-472f-a522-5ae71d0a509e"},"vehicle_type_id":"4","last_reported":1751454578,"current_range_meters":23200,"station_id":"ce4bh692rcd13ifvqe90","pricing_plan_id":"cebpf4jnsgd1na2vs0mg"},{"bike_id":"50606020-0079-4e81-9fd4-2920e381e32f","system_id":"levelo_inurba_marseille","lat":43.28618,"lon":5.35108,"is_reserved":false,"is_disabled":false,"rental_uris":{"android":"levelo://app?vid=50606020-0079-4e81-9fd4-2920e381e32f","ios":"levelo://app?vid=50606020-0079-4e81-9fd4-2920e381e32f"},"vehicle_type_id":"4","last_reported":1751454578,"current_range_meters":23200,"station_id":"ce4bhch2rcd13ifvqeug","pricing_plan_id":"cebpf4jnsgd1na2vs0mg"},{"bike_id":"82139cd5-3e7f-4f26-980c-e48db5c198a7","system_id":"levelo_inurba_marseille","lat":43.25504,"lon":5.37647,"is_reserved":false,"is_disabled":false,"rental_uris":{"android":"levelo://app?vid=82139cd5-3e7f-4f26-980c-e48db5c198a7","ios":"levelo://app?vid=82139cd5-3e7f-4f26-980c-e48db5c198a7"},"vehicle_type_id":"4","last_reported":1751454578,"current_range_meters":23200,"station_id":"ce4bhh12rcd13ifvqff0","pricing_plan_id":"cebpf4jnsgd1na2vs0mg"},{"bike_id":"a0480f1d-3573-45b7-8d76-2022e256c551","system_id":"levelo_inurba_marseille","lat":43.25933,"lon":5.40932,"is_reserved":false,"is_disabled":false,"rental_uris":{"android":"levelo://app?vid=a0480f1d-3573-45b7-8d76-2022e256c551","ios":"levelo://app?vid=a0480f1d-3573-45b7-8d76-2022e256c551"},"vehicle_type_id":"4","last_reported":1751454578,"current_range_meters":23200,"station_id":"ce4bhm92rcd13ifvqglg","pricing_plan_id":"cebpf4jnsgd1na2vs0mg"},{"bike_id":"2c8acc5e-860a-4ce2-8396-6df00b33d023","system_id":"levelo_inurba_marseille","lat":43.29968,"lon":5.38514,"is_reserved":false,"is_disabled":false,"rental_uris":{"android":"levelo://app?vid=2c8acc5e-860a-4ce2-8396-6df00b33d023","ios":"levelo://app?vid=2c8acc5e-860a-4ce2-8396-6df00b33d023"},"vehicle_type_id":"4","last_reported":1751454578,"current_range_meters":24000,"station_id":"ce4bgj92rcd13ifvqbd0","pricing_plan_id":"cebpf4jnsgd1na2vs0mg"},{"bike_id":"e58d5f8d-e622-4f85-aec9-14f4b5f7dbd6","system_id":"levelo_inurba_marseille","lat":43.28614,"lon":5.35104,"is_reserved":false,"is_disabled":false,"rental_uris":{"android":"levelo://app?vid=e58d5f8d-e622-4f85-aec9-14f4b5f7dbd6","ios":"levelo://app?vid=e58d5f8d-e622-4f85-aec9-14f4b5f7dbd6"},"vehicle_type_id":"4","last_reported":1751454578,"current_range_meters":24000,"station_id":"ce4bhch2rcd13ifvqeug","pricing_plan_id":"cebpf4jnsgd1na2vs0mg"},{"bike_id":"26ea36f0-4bc6-4834-ad15-df6df86c753d","system_id":"levelo_inurba_marseille","lat":43.26686,"lon":5.38283,"is_reserved":false,"is_disabled":false,"rental_uris":{"android":"levelo://app?vid=26ea36f0-4bc6-4834-ad15-df6df86c753d","ios":"levelo://app?vid=26ea36f0-4bc6-4834-ad15-df6df86c753d"},"vehicle_type_id":"4","last_reported":1751454578,"current_range_meters":24000,"station_id":"ce4bhg92rcd13ifvqf90","pricing_plan_id":"cebpf4jnsgd1na2vs0mg"},{"bike_id":"c0c5362b-a5c5-4fc7-9bbf-b99460b22a3d","system_id":"levelo_inurba_marseille","lat":43.24391,"lon":5.37055,"is_reserved":false,"is_disabled":false,"rental_uris":{"android":"levelo://app?vid=c0c5362b-a5c5-4fc7-9bbf-b99460b22a3d","ios":"levelo://app?vid=c0c5362b-a5c5-4fc7-9bbf-b99460b22a3d"},"vehicle_type_id":"4","last_reported":1751454578,"current_range_meters":24000,"station_id":"ce4bhhh2rcd13ifvqfk0","pricing_plan_id":"cebpf4jnsgd1na2vs0mg"},{"bike_id":"2079a3bc-2800-4acf-8843-fca1c0d8af56","system_id":"levelo_inurba_marseille","lat":43.23133,"lon":5.4372,"is_reserved":false,"is_disabled":false,"rental_uris":{"android":"levelo://app?vid=2079a3bc-2800-4acf-8843-fca1c0d8af56","ios":"levelo://app?vid=2079a3bc-2800-4acf-8843-fca1c0d8af56"},"vehicle_type_id":"4","last_reported":1751454578,"current_range_meters":24000,"station_id":"ce4bhmp2rcd13ifvqgog","pricing_plan_id":"cebpf4jnsgd1na2vs0mg"},{"bike_id":"5f1e5526-9ff8-4075-8194-48a897f058b4","system_id":"levelo_inurba_marseille","lat":43.211953,"lon":5.350673,"is_reserved":false,"is_disabled":false,"rental_uris":{"android":"levelo://app?vid=5f1e5526-9ff8-4075-8194-48a897f058b4","ios":"levelo://app?vid=5f1e5526-9ff8-4075-8194-48a897f058b4"},"vehicle_type_id":"4","last_reported":1751454578,"current_range_meters":24000,"station_id":"st_cvj6sg6p6f1abm77japg","pricing_plan_id":"cebpf4jnsgd1na2vs0mg"},{"bike_id":"95bf9ff8-1699-498e-b1d6-9883f6bef302","system_id":"levelo_inurba_marseille","lat":43.29302,"lon":5.37459,"is_reserved":false,"is_disabled":false,"rental_uris":{"android":"levelo://app?vid=95bf9ff8-1699-498e-b1d6-9883f6bef302","ios":"levelo://app?vid=95bf9ff8-1699-498e-b1d6-9883f6bef302"},"vehicle_type_id":"4","last_reported":1751454578,"current_range_meters":24400,"station_id":"ce4bgi12rcd13ifvqb70","pricing_plan_id":"cebpf4jnsgd1na2vs0mg"},{"bike_id":"d1f595bf-8645-479e-810d-45bd54c37d20","system_id":"levelo_inurba_marseille","lat":43.28488,"lon":5.38402,"is_reserved":false,"is_disabled":false,"rental_uris":{"android":"levelo://app?vid=d1f595bf-8645-479e-810d-45bd54c37d20","ios":"levelo://app?vid=d1f595bf-8645-479e-810d-45bd54c37d20"},"vehicle_type_id":"4","last_reported":1751454578,"current_range_meters":24400,"station_id":"ce4bh512rcd13ifvqe3g","pricing_plan_id":"cebpf4jnsgd1na2vs0mg"},{"bike_id":"6aaaa2c9-b2b8-4910-a4df-363890310f43","system_id":"levelo_inurba_marseille","lat":43.29011,"lon":5.35611,"is_reserved":false,"is_disabled":false,"rental_uris":{"android":"levelo://app?vid=6aaaa2c9-b2b8-4910-a4df-363890310f43","ios":"levelo://app?vid=6aaaa2c9-b2b8-4910-a4df-363890310f43"},"vehicle_type_id":"4","last_reported":1751454578,"current_range_meters":24400,"station_id":"ce4bhb92rcd13ifvqen0","pricing_plan_id":"cebpf4jnsgd1na2vs0mg"},{"bike_id":"e1e7c15b-5724-49e7-b0fb-d736d8c51249","system_id":"levelo_inurba_marseille","lat":43.24183,"lon":5.39796,"is_reserved":false,"is_disabled":false,"rental_uris":{"android":"levelo://app?vid=e1e7c15b-5724-49e7-b0fb-d736d8c51249","ios":"levelo://app?vid=e1e7c15b-5724-49e7-b0fb-d736d8c51249"},"vehicle_type_id":"4","last_reported":1751454578,"current_range_meters":24400,"station_id":"ce4bhn12rcd13ifvqgpg","pricing_plan_id":"cebpf4jnsgd1na2vs0mg"},{"bike_id":"47071393-6407-461a-bc57-7f776e86d630","system_id":"levelo_inurba_marseille","lat":43.286094,"lon":5.370646,"is_reserved":false,"is_disabled":false,"rental_uris":{"android":"levelo://app?vid=47071393-6407-461a-bc57-7f776e86d630","ios":"levelo://app?vid=47071393-6407-461a-bc57-7f776e86d630"},"vehicle_type_id":"4","last_reported":1751454578,"current_range_meters":24400,"station_id":"ce4bht12rcd13ifvqi60","pricing_plan_id":"cebpf4jnsgd1na2vs0mg"},{"bike_id":"3eabe1e2-f9f5-41cb-a4ed-73ca7f909c5c","system_id":"levelo_inurba_marseille","lat":43.21189,"lon":5.35097,"is_reserved":false,"is_disabled":false,"rental_uris":{"android":"levelo://app?vid=3eabe1e2-f9f5-41cb-a4ed-73ca7f909c5c","ios":"levelo://app?vid=3eabe1e2-f9f5-41cb-a4ed-73ca7f909c5c"},"vehicle_type_id":"4","last_reported":1751454578,"current_range_meters":24400,"station_id":"st_cvj6sg6p6f1abm77japg","pricing_plan_id":"cebpf4jnsgd1na2vs0mg"},{"bike_id":"b13877a6-4825-4d82-b46b-67fa8ad66c5d","system_id":"levelo_inurba_marseille","lat":43.21197,"lon":5.35092,"is_reserved":false,"is_disabled":false,"rental_uris":{"android":"levelo://app?vid=b13877a6-4825-4d82-b46b-67fa8ad66c5d","ios":"levelo://app?vid=b13877a6-4825-4d82-b46b-67fa8ad66c5d"},"vehicle_type_id":"4","last_reported":1751454578,"current_range_meters":24400,"station_id":"st_cvj6sg6p6f1abm77japg","pricing_plan_id":"cebpf4jnsgd1na2vs0mg"},{"bike_id":"7712491c-e18b-4b09-bb79-30880b357c07","system_id":"levelo_inurba_marseille","lat":43.21214,"lon":5.35066,"is_reserved":false,"is_disabled":false,"rental_uris":{"android":"levelo://app?vid=7712491c-e18b-4b09-bb79-30880b357c07","ios":"levelo://app?vid=7712491c-e18b-4b09-bb79-30880b357c07"},"vehicle_type_id":"4","last_reported":1751454578,"current_range_meters":24400,"station_id":"st_cvj6sg6p6f1abm77japg","pricing_plan_id":"cebpf4jnsgd1na2vs0mg"},{"bike_id":"2c110657-1937-41c5-9c9f-1f8d5ae34487","system_id":"levelo_inurba_marseille","lat":43.31345,"lon":5.3671,"is_reserved":false,"is_disabled":false,"rental_uris":{"android":"levelo://app?vid=2c110657-1937-41c5-9c9f-1f8d5ae34487","ios":"levelo://app?vid=2c110657-1937-41c5-9c9f-1f8d5ae34487"},"vehicle_type_id":"4","last_reported":1751454578,"current_range_meters":24800,"station_id":"ce4bgr92rcd13ifvqc6g","pricing_plan_id":"cebpf4jnsgd1na2vs0mg"},{"bike_id":"7af9f78b-8216-43ee-a369-4a24baea425e","system_id":"levelo_inurba_marseille","lat":43.31388,"lon":5.36728,"is_reserved":false,"is_disabled":false,"rental_uris":{"android":"levelo://app?vid=7af9f78b-8216-43ee-a369-4a24baea425e","ios":"levelo://app?vid=7af9f78b-8216-43ee-a369-4a24baea425e"},"vehicle_type_id":"4","last_reported":1751454578,"current_range_meters":24800,"station_id":"ce4bgr92rcd13ifvqc6g","pricing_plan_id":"cebpf4jnsgd1na2vs0mg"},{"bike_id":"a7707d86-1f95-4f7e-a5c0-979943fa2b71","system_id":"levelo_inurba_marseille","lat":43.31347,"lon":5.36723,"is_reserved":false,"is_disabled":false,"rental_uris":{"android":"levelo://app?vid=a7707d86-1f95-4f7e-a5c0-979943fa2b71","ios":"levelo://app?vid=a7707d86-1f95-4f7e-a5c0-979943fa2b71"},"vehicle_type_id":"4","last_reported":1751454578,"current_range_meters":24800,"station_id":"ce4bgr92rcd13ifvqc6g","pricing_plan_id":"cebpf4jnsgd1na2vs0mg"},{"bike_id":"0a3dfcb1-1042-49e8-989a-145199f2ad51","system_id":"levelo_inurba_marseille","lat":43.30559,"lon":5.36707,"is_reserved":false,"is_disabled":false,"rental_uris":{"android":"levelo://app?vid=0a3dfcb1-1042-49e8-989a-145199f2ad51","ios":"levelo://app?vid=0a3dfcb1-1042-49e8-989a-145199f2ad51"},"vehicle_type_id":"4","last_reported":1751454578,"current_range_meters":24800,"station_id":"ce4bgrp2rcd13ifvqc9g","pricing_plan_id":"cebpf4jnsgd1na2vs0mg"},{"bike_id":"aacf7b96-e165-4aa0-8578-8442fbe460a2","system_id":"levelo_inurba_marseille","lat":43.29276,"lon":5.40119,"is_reserved":false,"is_disabled":false,"rental_uris":{"android":"levelo://app?vid=aacf7b96-e165-4aa0-8578-8442fbe460a2","ios":"levelo://app?vid=aacf7b96-e165-4aa0-8578-8442fbe460a2"},"vehicle_type_id":"4","last_reported":1751454578,"current_range_meters":24800,"station_id":"ce4bh312rcd13ifvqdk0","pricing_plan_id":"cebpf4jnsgd1na2vs0mg"},{"bike_id":"d3111b85-79fc-4892-8897-ac67f6d04ea4","system_id":"levelo_inurba_marseille","lat":43.28483,"lon":5.38406,"is_reserved":false,"is_disabled":false,"rental_uris":{"android":"levelo://app?vid=d3111b85-79fc-4892-8897-ac67f6d04ea4","ios":"levelo://app?vid=d3111b85-79fc-4892-8897-ac67f6d04ea4"},"vehicle_type_id":"4","last_reported":1751454578,"current_range_meters":24800,"station_id":"ce4bh512rcd13ifvqe3g","pricing_plan_id":"cebpf4jnsgd1na2vs0mg"},{"bike_id":"acd67519-8dd5-422e-aa76-6ccaca12a88e","system_id":"levelo_inurba_marseille","lat":43.2862,"lon":5.351,"is_reserved":false,"is_disabled":false,"rental_uris":{"android":"levelo://app?vid=acd67519-8dd5-422e-aa76-6ccaca12a88e","ios":"levelo://app?vid=acd67519-8dd5-422e-aa76-6ccaca12a88e"},"vehicle_type_id":"4","last_reported":1751454578,"current_range_meters":24800,"station_id":"ce4bhch2rcd13ifvqeug","pricing_plan_id":"cebpf4jnsgd1na2vs0mg"},{"bike_id":"f89c4b4e-8496-4009-a879-494292d7747b","system_id":"levelo_inurba_marseille","lat":43.245743,"lon":5.394711,"is_reserved":false,"is_disabled":false,"rental_uris":{"android":"levelo://app?vid=f89c4b4e-8496-4009-a879-494292d7747b","ios":"levelo://app?vid=f89c4b4e-8496-4009-a879-494292d7747b"},