{"last_updated":1721923844,"ttl":30,"version":"2.2","data":{"bikes":[{"bike_id":"225f7201-c00a-48d8-8e66-9c61792f14c1","system_id":"levelo_inurba_marseille","lat":43.31243,"lon":5.36825,"is_reserved":false,"is_disabled":false,"rental_uris":{"android":"levelo://app?vid=225f7201-c00a-48d8-8e66-9c61792f14c1","ios":"levelo://app?vid=225f7201-c00a-48d8-8e66-9c61792f14c1"},"vehicle_type_id":"4","last_reported":1721923844,"current_range_meters":18000,"station_id":"ce4bgl92rcd13ifvqbq0","pricing_plan_id":"cebpf4jnsgd1na2vs0mg"},{"bike_id":"f4c6b7bc-9411-4437-b34a-2d9b67a25a91","system_id":"levelo_inurba_marseille","lat":43.31492,"lon":5.37305,"is_reserved":false,"is_disabled":false,"rental_uris":{"android":"levelo://app?vid=f4c6b7bc-9411-4437-b34a-2d9b67a25a91","ios":"levelo://app?vid=f4c6b7bc-9411-4437-b34a-2d9b67a25a91"},"vehicle_type_id":"4","last_reported":1721923844,"current_range_meters":0,"station_id":"ce4bgt12rcd13ifvqcd0","pricing_plan_id":"cebpf4jnsgd1na2vs0mg"},{"bike_id":"3d6ae030-27d9-4dbe-90de-756dfd7525ab","system_id":"levelo_inurba_marseille","lat":43.305706,"lon":5.365654,"is_reserved":false,"is_disabled":false,"rental_uris":{"android":"levelo://app?vid=3d6ae030-27d9-4dbe-90de-756dfd7525ab","ios":"levelo://app?vid=3d6ae030-27d9-4dbe-90de-756dfd7525ab"},"vehicle_type_id":"4","last_reported":1721923844,"current_range_meters":10800,"station_id":"ce4bgs12rcd13ifvqcag","pricing_plan_id":"cebpf4jnsgd1na2vs0mg"},{"bike_id":"7dbeead6-de9a-4825-9c9d-73eb078e9a10","system_id":"levelo_inurba_marseille","lat":43.30542,"lon":5.36541,"is_reserved":false,"is_disabled":false,"rental_uris":{"android":"levelo://app?vid=7dbeead6-de9a-4825-9c9d-73eb078e9a10","ios":"levelo://app?vid=7dbeead6-de9a-4825-9c9d-73eb078e9a10"},"vehicle_type_id":"4","last_reported":1721923844,"current_range_meters":0,"station_id":"ce4bgs12rcd13ifvqcag","pricing_plan_id":"cebpf4jnsgd1na2vs0mg"},{"bike_id":"a2e602f3-4611-4d4c-b144-c5b113dd817b","system_id":"levelo_inurba_marseille","lat":43.305368,"lon":5.367343,"is_reserved":false,"is_disabled":false,"rental_uris":{"android":"levelo://app?vid=a2e602f3-4611-4d4c-b144-c5b113dd817b","ios":"levelo://app?vid=a2e602f3-4611-4d4c-b144-c5b113dd817b"},"vehicle_type_id":"4","last_reported":1721923844,"current_range_meters":8000,"station_id":"ce4bgrp2rcd13ifvqc9g","pricing_plan_id":"cebpf4jnsgd1na2vs0mg"},{"bike_id":"a8adc22d-f15d-49ab-978c-6f1834bc9b0c","system_id":"levelo_inurba_marseille","lat":43.311125,"lon":5.377624,"is_reserved":false,"is_disabled":false,"rental_uris":{"android":"levelo://app?vid=a8adc22d-f15d-49ab-978c-6f1834bc9b0c","ios":"levelo://app?vid=a8adc22d-f15d-49ab-978c-6f1834bc9b0c"},"vehicle_type_id":"4","last_reported":1721923844,"current_range_meters":0,"station_id":"ce4bgt92rcd13ifvqcg0","pricing_plan_id":"cebpf4jnsgd1na2vs0mg"},{"bike_id":"b3f15acd-455c-4d3a-8945-c01004bf6a19","system_id":"levelo_inurba_marseille","lat":43.3046,"lon":5.3671,"is_reserved":false,"is_disabled":false,"rental_uris":{"android":"levelo://app?vid=b3f15acd-455c-4d3a-8945-c01004bf6a19","ios":"levelo://app?vid=b3f15acd-455c-4d3a-8945-c01004bf6a19"},"vehicle_type_id":"4","last_reported":1721923844,"current_range_meters":26800,"station_id":"","pricing_plan_id":"cebpf4jnsgd1na2vs0mg"},{"bike_id":"2d04a5f5-823a-463d-bd73-79a52bebf8d7","system_id":"levelo_inurba_marseille","lat":43.307945,"lon":5.376487,"is_reserved":false,"is_disabled":false,"rental_uris":{"android":"levelo://app?vid=2d04a5f5-823a-463d-bd73-79a52bebf8d7","ios":"levelo://app?vid=2d04a5f5-823a-463d-bd73-79a52bebf8d7"},"vehicle_type_id":"4","last_reported":1721923844,"current_range_meters":20400,"station_id":"ce4bgv92rcd13ifvqcq0","pricing_plan_id":"cebpf4jnsgd1na2vs0mg"},{"bike_id":"679c4fb3-9363-4157-8f52-33ca86a44812","system_id":"levelo_inurba_marseille","lat":43.307945,"lon":5.376487,"is_reserved":false,"is_disabled":false,"rental_uris":{"android":"levelo://app?vid=679c4fb3-9363-4157-8f52-33ca86a44812","ios":"levelo://app?vid=679c4fb3-9363-4157-8f52-33ca86a44812"},"vehicle_type_id":"4","last_reported":1721923844,"current_range_meters":19200,"station_id":"ce4bgv92rcd13ifvqcq0","pricing_plan_id":"cebpf4jnsgd1na2vs0mg"},{"bike_id":"7bdd0627-837b-478a-88e8-5bd1c183e75b","system_id":"levelo_inurba_marseille","lat":43.31701,"lon":5.37727,"is_reserved":false,"is_disabled":false,"rental_uris":{"android":"levelo://app?vid=7bdd0627-837b-478a-88e8-5bd1c183e75b","ios":"levelo://app?vid=7bdd0627-837b-478a-88e8-5bd1c183e75b"},"vehicle_type_id":"4","last_reported":1721923844,"current_range_meters":9600,"station_id":"ce4bgth2rcd13ifvqch0","pricing_plan_id":"cebpf4jnsgd1na2vs0mg"},{"bike_id":"5f0de27a-515e-4086-9cda-36aedc72c7ac","system_id":"levelo_inurba_marseille","lat":43.30304,"lon":5.368987,"is_reserved":false,"is_disabled":false,"rental_uris":{"android":"levelo://app?vid=5f0de27a-515e-4086-9cda-36aedc72c7ac","ios":"levelo://app?vid=5f0de27a-515e-4086-9cda-36aedc72c7ac"},"vehicle_type_id":"4","last_reported":1721923844,"current_range_meters":0,"station_id":"ce4bgqh2rcd13ifvqc5g","pricing_plan_id":"cebpf4jnsgd1na2vs0mg"},{"bike_id":"3e123668-5713-4d31-a93b-28ccd51f75f0","system_id":"levelo_inurba_marseille","lat":43.315289,"lon":5.380349,"is_reserved":false,"is_disabled":false,"rental_uris":{"android":"levelo://app?vid=3e123668-5713-4d31-a93b-28ccd51f75f0","ios":"levelo://app?vid=3e123668-5713-4d31-a93b-28ccd51f75f0"},"vehicle_type_id":"4","last_reported":1721923844,"current_range_meters":15200,"station_id":"ce4bhsp2rcd13ifvqi50","pricing_plan_id":"cebpf4jnsgd1na2vs0mg"},{"bike_id":"6a93083f-bc44-406b-bbf9-5bd0c9ad2860","system_id":"levelo_inurba_marseille","lat":43.308012,"lon":5.381511,"is_reserved":false,"is_disabled":false,"rental_uris":{"android":"levelo://app?vid=6a93083f-bc44-406b-bbf9-5bd0c9ad2860","ios":"levelo://app?vid=6a93083f-bc44-406b-bbf9-5bd0c9ad2860"},"vehicle_type_id":"4","last_reported":1721923844,"current_range_meters":28000,"station_id":"ce4bgt12rcd13ifvqce0","pricing_plan_id":"cebpf4jnsgd1na2vs0mg"},{"bike_id":"4004526c-caf3-4153-b040-78ad9f410484","system_id":"levelo_inurba_marseille","lat":43.308012,"lon":5.381511,"is_reserved":false,"is_disabled":false,"rental_uris":{"android":"levelo://app?vid=4004526c-caf3-4153-b040-78ad9f410484","ios":"levelo://app?vid=4004526c-caf3-4153-b040-78ad9f410484"},"vehicle_type_id":"4","last_reported":1721923844,"current_range_meters":4000,"station_id":"ce4bgt12rcd13ifvqce0","pricing_plan_id":"cebpf4jnsgd1na2vs0mg"},{"bike_id":"387dafde-1dd4-4497-b8fa-604bafb08d8c","system_id":"levelo_inurba_marseille","lat":43.324771,"lon":5.36557,"is_reserved":false,"is_disabled":false,"rental_uris":{"android":"levelo://app?vid=387dafde-1dd4-4497-b8fa-604bafb08d8c","ios":"levelo://app?vid=387dafde-1dd4-4497-b8fa-604bafb08d8c"},"vehicle_type_id":"4","last_reported":1721923844,"current_range_meters":19200,"station_id":"ce4bhs12rcd13ifvqhvg","pricing_plan_id":"cebpf4jnsgd1na2vs0mg"},{"bike_id":"a51928dc-c316-4dae-857c-57f1febe525e","system_id":"levelo_inurba_marseille","lat":43.304606,"lon":5.379026,"is_reserved":false,"is_disabled":false,"rental_uris":{"android":"levelo://app?vid=a51928dc-c316-4dae-857c-57f1febe525e","ios":"levelo://app?vid=a51928dc-c316-4dae-857c-57f1febe525e"},"vehicle_type_id":"4","last_reported":1721923844,"current_range_meters":0,"station_id":"ce4bgup2rcd13ifvqcn0","pricing_plan_id":"cebpf4jnsgd1na2vs0mg"},{"bike_id":"9f2e8ae4-419d-404c-9c40-8709e0ba3bea","system_id":"levelo_inurba_marseille","lat":43.300729,"lon":5.36577,"is_reserved":false,"is_disabled":false,"rental_uris":{"android":"levelo://app?vid=9f2e8ae4-419d-404c-9c40-8709e0ba3bea","ios":"levelo://app?vid=9f2e8ae4-419d-404c-9c40-8709e0ba3bea"},"vehicle_type_id":"4","last_reported":1721923844,"current_range_meters":25200,"station_id":"","pricing_plan_id":"cebpf4jnsgd1na2vs0mg"},{"bike_id":"f56606ce-9d2c-4bf4-8e2a-3e58256d3a9f","system_id":"levelo_inurba_marseille","lat":43.324771,"lon":5.36557,"is_reserved":false,"is_disabled":false,"rental_uris":{"android":"levelo://app?vid=f56606ce-9d2c-4bf4-8e2a-3e58256d3a9f","ios":"levelo://app?vid=f56606ce-9d2c-4bf4-8e2a-3e58256d3a9f"},"vehicle_type_id":"4","last_reported":1721923844,"current_range_meters":22400,"station_id":"ce4bhs12rcd13ifvqhvg","pricing_plan_id":"cebpf4jnsgd1na2vs0mg"},{"bike_id":"42846808-a0ef-43ec-bf78-ac87ae218a47","system_id":"levelo_inurba_marseille","lat":43.324771,"lon":5.36557,"is_reserved":false,"is_disabled":false,"rental_uris":{"android":"levelo://app?vid=42846808-a0ef-43ec-bf78-ac87ae218a47","ios":"levelo://app?vid=42846808-a0ef-43ec-bf78-ac87ae218a47"},"vehicle_type_id":"4","last_reported":1721923844,"current_range_meters":17200,"station_id":"ce4bhs12rcd13ifvqhvg","pricing_plan_id":"cebpf4jnsgd1na2vs0mg"},{"bike_id":"34530ffe-75a7-4474-b778-bf8da623f326","system_id":"levelo_inurba_marseille","lat":43.324771,"lon":5.36557,"is_reserved":false,"is_disabled":false,"rental_uris":{"android":"levelo://app?vid=34530ffe-75a7-4474-b778-bf8da623f326","ios":"levelo://app?vid=34530ffe-75a7-4474-b778-bf8da623f326"},"vehicle_type_id":"4","last_reported":1721923844,"current_range_meters":19600,"station_id":"ce4bhs12rcd13ifvqhvg","pricing_plan_id":"cebpf4jnsgd1na2vs0mg"},{"bike_id":"244e2f50-6807-47d5-bb23-59f79a5d8960","system_id":"levelo_inurba_marseille","lat":43.301429,"lon":5.37413,"is_reserved":false,"is_disabled":false,"rental_uris":{"android":"levelo://app?vid=244e2f50-6807-47d5-bb23-59f79a5d8960","ios":"levelo://app?vid=244e2f50-6807-47d5-bb23-59f79a5d8960"},"vehicle_type_id":"4","last_reported":1721923844,"current_range_meters":400,"station_id":"ce4bgs92rcd13ifvqcc0","pricing_plan_id":"cebpf4jnsgd1na2vs0mg"},{"bike_id":"be848a21-b745-4439-b709-0babad0cc56f","system_id":"levelo_inurba_marseille","lat":43.301429,"lon":5.37413,"is_reserved":false,"is_disabled":false,"rental_uris":{"android":"levelo://app?vid=be848a21-b745-4439-b709-0babad0cc56f","ios":"levelo://app?vid=be848a21-b745-4439-b709-0babad0cc56f"},"vehicle_type_id":"4","last_reported":1721923844,"current_range_meters":9200,"station_id":"ce4bgs92rcd13ifvqcc0","pricing_plan_id":"cebpf4jnsgd1na2vs0mg"},{"bike_id":"84985fc0-b11e-46a8-a8bd-6dd766fd1a3f","system_id":"levelo_inurba_marseille","lat":43.319935,"lon":5.381699,"is_reserved":false,"is_disabled":false,"rental_uris":{"android":"levelo://app?vid=84985fc0-b11e-46a8-a8bd-6dd766fd1a3f","ios":"levelo://app?vid=84985fc0-b11e-46a8-a8bd-6dd766fd1a3f"},"vehicle_type_id":"4","last_reported":1721923844,"current_range_meters":9200,"station_id":"ce4bhr12rcd13ifvqhpg","pricing_plan_id":"cebpf4jnsgd1na2vs0mg"},{"bike_id":"a9f052e7-39d0-4ccc-96e9-8f20b6f805e3","system_id":"levelo_inurba_marseille","lat":43.319935,"lon":5.381699,"is_reserved":false,"is_disabled":false,"rental_uris":{"android":"levelo://app?vid=a9f052e7-39d0-4ccc-96e9-8f20b6f805e3","ios":"levelo://app?vid=a9f052e7-39d0-4ccc-96e9-8f20b6f805e3"},"vehicle_type_id":"4","last_reported":1721923844,"current_range_meters":12400,"station_id":"ce4bhr12rcd13ifvqhpg","pricing_plan_id":"cebpf4jnsgd1na2vs0mg"},{"bike_id":"7b8a1d10-59a9-4104-8f4a-f6345ca05359","system_id":"levelo_inurba_marseille","lat":43.319935,"lon":5.381699,"is_reserved":false,"is_disabled":false,"rental_uris":{"android":"levelo://app?vid=7b8a1d10-59a9-4104-8f4a-f6345ca05359","ios":"levelo://app?vid=7b8a1d10-59a9-4104-8f4a-f6345ca05359"},"vehicle_type_id":"4","last_reported":1721923844,"current_range_meters":10000,"station_id":"ce4bhr12rcd13ifvqhpg","pricing_plan_id":"cebpf4jnsgd1na2vs0mg"},{"bike_id":"730f683c-5ab4-4897-9ca4-f287c26d70d2","system_id":"levelo_inurba_marseille","lat":43.319935,"lon":5.381699,"is_reserved":false,"is_disabled":false,"rental_uris":{"android":"levelo://app?vid=730f683c-5ab4-4897-9ca4-f287c26d70d2","ios":"levelo://app?vid=730f683c-5ab4-4897-9ca4-f287c26d70d2"},"vehicle_type_id":"4","last_reported":1721923844,"current_range_meters":0,"station_id":"ce4bhr12rcd13ifvqhpg","pricing_plan_id":"cebpf4jnsgd1na2vs0mg"},{"bike_id":"95253418-16a5-4933-a6a5-705e16560d1f","system_id":"levelo_inurba_marseille","lat":43.29992,"lon":5.37182,"is_reserved":false,"is_disabled":false,"rental_uris":{"android":"levelo://app?vid=95253418-16a5-4933-a6a5-705e16560d1f","ios":"levelo://app?vid=95253418-16a5-4933-a6a5-705e16560d1f"},"vehicle_type_id":"4","last_reported":1721923844,"current_range_meters":0,"station_id":"ce4bgr92rcd13ifvqc7g","pricing_plan_id":"cebpf4jnsgd1na2vs0mg"},{"bike_id":"a5f0c729-a5fc-4718-a7e5-c5d6f9878e0d","system_id":"levelo_inurba_marseille","lat":43.299222,"lon":5.365554,"is_reserved":false,"is_disabled":false,"rental_uris":{"android":"levelo://app?vid=a5f0c729-a5fc-4718-a7e5-c5d6f9878e0d","ios":"levelo://app?vid=a5f0c729-a5fc-4718-a7e5-c5d6f9878e0d"},"vehicle_type_id":"4","last_reported":1721923844,"current_range_meters":0,"station_id":"ce4bgm92rcd13ifvqbr0","pricing_plan_id":"cebpf4jnsgd1na2vs0mg"},{"bike_id":"8aac21c6-49a1-4e19-bbe0-02658d33142c","system_id":"levelo_inurba_marseille","lat":43.299222,"lon":5.365554,"is_reserved":false,"is_disabled":false,"rental_uris":{"android":"levelo://app?vid=8aac21c6-49a1-4e19-bbe0-02658d33142c","ios":"levelo://app?vid=8aac21c6-49a1-4e19-bbe0-02658d33142c"},"vehicle_type_id":"4","last_reported":1721923844,"current_range_meters":2800,"station_id":"ce4bgm92rcd13ifvqbr0","pricing_plan_id":"cebpf4jnsgd1na2vs0mg"},{"bike_id":"e7a1262d-a27a-4986-80b6-f265928eb9b6","system_id":"levelo_inurba_marseille","lat":43.30054,"lon":5.37516,"is_reserved":false,"is_disabled":false,"rental_uris":{"android":"levelo://app?vid=e7a1262d-a27a-4986-80b6-f265928eb9b6","ios":"levelo://app?vid=e7a1262d-a27a-4986-80b6-f265928eb9b6"},"vehicle_type_id":"4","last_reported":1721923844,"current_range_meters":5200,"station_id":"","pricing_plan_id":"cebpf4jnsgd1na2vs0mg"},{"bike_id":"29ca66c9-186f-490f-b47e-0b604d6bf078","system_id":"levelo_inurba_marseille","lat":43.311722,"lon":5.387247,"is_reserved":false,"is_disabled":false,"rental_uris":{"android":"levelo://app?vid=29ca66c9-186f-490f-b47e-0b604d6bf078","ios":"levelo://app?vid=29ca66c9-186f-490f-b47e-0b604d6bf078"},"vehicle_type_id":"4","last_reported":1721923844,"current_range_meters":26400,"station_id":"ce4bgv12rcd13ifvqcp0","pricing_plan_id":"cebpf4jnsgd1na2vs0mg"},{"bike_id":"807659cf-f083-43ef-a9fa-01324437f360","system_id":"levelo_inurba_marseille","lat":43.30147,"lon":5.3808,"is_reserved":false,"is_disabled":false,"rental_uris":{"android":"levelo://app?vid=807659cf-f083-43ef-a9fa-01324437f360","ios":"levelo://app?vid=807659cf-f083-43ef-a9fa-01324437f360"},"vehicle_type_id":"4","last_reported":1721923844,"current_range_meters":0,"station_id":"","pricing_plan_id":"cebpf4jnsgd1na2vs0mg"},{"bike_id":"e5e7a712-06cc-432e-8017-20cd8330c96b","system_id":"levelo_inurba_marseille","lat":43.30151,"lon":5.38089,"is_reserved":false,"is_disabled":false,"rental_uris":{"android":"levelo://app?vid=e5e7a712-06cc-432e-8017-20cd8330c96b","ios":"levelo://app?vid=e5e7a712-06cc-432e-8017-20cd8330c96b"},"vehicle_type_id":"4","last_reported":1721923844,"current_range_meters":0,"station_id":"","pricing_plan_id":"cebpf4jnsgd1na2vs0mg"},{"bike_id":"cdfb6b3f-d6fb-4d7e-9a55-66403d9de1cd","system_id":"levelo_inurba_marseille","lat":43.32287,"lon":5.38267,"is_reserved":false,"is_disabled":false,"rental_uris":{"android":"levelo://app?vid=cdfb6b3f-d6fb-4d7e-9a55-66403d9de1cd","ios":"levelo://app?vid=cdfb6b3f-d6fb-4d7e-9a55-66403d9de1cd"},"vehicle_type_id":"4","last_reported":1721923844,"current_range_meters":5600,"station_id":"ce4bhr12rcd13ifvqhqg","pricing_plan_id":"cebpf4jnsgd1na2vs0mg"},{"bike_id":"b7c473da-ed72-448f-ba2b-17a09e628aa2","system_id":"levelo_inurba_marseille","lat":43.322872,"lon":5.382756,"is_reserved":false,"is_disabled":false,"rental_uris":{"android":"levelo://app?vid=b7c473da-ed72-448f-ba2b-17a09e628aa2","ios":"levelo://app?vid=b7c473da-ed72-448f-ba2b-17a09e628aa2"},"vehicle_type_id":"4","last_reported":1721923844,"current_range_meters":26000,"station_id":"ce4bhr12rcd13ifvqhqg","pricing_plan_id":"cebpf4jnsgd1na2vs0mg"},{"bike_id":"940d8e6a-e9b9-4249-8528-aab7c4b04d78","system_id":"levelo_inurba_marseille","lat":43.297163,"lon":5.365866,"is_reserved":false,"is_disabled":false,"rental_uris":{"android":"levelo://app?vid=940d8e6a-e9b9-4249-8528-aab7c4b04d78","ios":"levelo://app?vid=940d8e6a-e9b9-4249-8528-aab7c4b04d78"},"vehicle_type_id":"4","last_reported":1721923844,"current_range_meters":24800,"station_id":"ce4bgn12rcd13ifvqbt0","pricing_plan_id":"cebpf4jnsgd1na2vs0mg"},{"bike_id":"b4d7ce97-ee7e-47a4-a139-61e3f99e1a8e","system_id":"levelo_inurba_marseille","lat":43.29678,"lon":5.37282,"is_reserved":false,"is_disabled":false,"rental_uris":{"android":"levelo://app?vid=b4d7ce97-ee7e-47a4-a139-61e3f99e1a8e","ios":"levelo://app?vid=b4d7ce97-ee7e-47a4-a139-61e3f99e1a8e"},"vehicle_type_id":"4","last_reported":1721923844,"current_range_meters":3600,"station_id":"ce4bgk12rcd13ifvqbj0","pricing_plan_id":"cebpf4jnsgd1na2vs0mg"},{"bike_id":"3d30f475-4368-4473-8d2f-448f1038352f","system_id":"levelo_inurba_marseille","lat":43.296129,"lon":5.370777,"is_reserved":false,"is_disabled":false,"rental_uris":{"android":"levelo://app?vid=3d30f475-4368-4473-8d2f-448f1038352f","ios":"levelo://app?vid=3d30f475-4368-4473-8d2f-448f1038352f"},"vehicle_type_id":"4","last_reported":1721923844,"current_range_meters":13600,"station_id":"ce4bgnh2rcd13ifvqc0g","pricing_plan_id":"cebpf4jnsgd1na2vs0mg"},{"bike_id":"ffd4426d-8770-44da-8ea4-46b18dfc33a4","system_id":"levelo_inurba_marseille","lat":43.29622,"lon":5.37154,"is_reserved":false,"is_disabled":false,"rental_uris":{"android":"levelo://app?vid=ffd4426d-8770-44da-8ea4-46b18dfc33a4","ios":"levelo://app?vid=ffd4426d-8770-44da-8ea4-46b18dfc33a4"},"vehicle_type_id":"4","last_reported":1721923844,"current_range_meters":0,"station_id":"ce4bgnh2rcd13ifvqc0g","pricing_plan_id":"cebpf4jnsgd1na2vs0mg"},{"bike_id":"ec7ad871-a7e8-4a74-9041-e5acb881c629","system_id":"levelo_inurba_marseille","lat":43.296129,"lon":5.370777,"is_reserved":false,"is_disabled":false,"rental_uris":{"android":"levelo://app?vid=ec7ad871-a7e8-4a74-9041-e5acb881c629","ios":"levelo://app?vid=ec7ad871-a7e8-4a74-9041-e5acb881c629"},"vehicle_type_id":"4","last_reported":1721923844,"current_range_meters":8400,"station_id":"ce4bgnh2rcd13ifvqc0g","pricing_plan_id":"cebpf4jnsgd1na2vs0mg"},{"bike_id":"294f8759-36fa-41c5-82e4-17b607cf9712","system_id":"levelo_inurba_marseille","lat":43.29616,"lon":5.37154,"is_reserved":false,"is_disabled":false,"rental_uris":{"android":"levelo://app?vid=294f8759-36fa-41c5-82e4-17b607cf9712","ios":"levelo://app?vid=294f8759-36fa-41c5-82e4-17b607cf9712"},"vehicle_type_id":"4","last_reported":1721923844,"current_range_meters":20800,"station_id":"ce4bgnh2rcd13ifvqc0g","pricing_plan_id":"cebpf4jnsgd1na2vs0mg"},{"bike_id":"2baff1d3-bf8c-4e74-9332-a8e5ea17de22","system_id":"levelo_inurba_marseille","lat":43.29573,"lon":5.367355,"is_reserved":false,"is_disabled":false,"rental_uris":{"android":"levelo://app?vid=2baff1d3-bf8c-4e74-9332-a8e5ea17de22","ios":"levelo://app?vid=2baff1d3-bf8c-4e74-9332-a8e5ea17de22"},"vehicle_type_id":"4","last_reported":1721923844,"current_range_meters":2400,"station_id":"ce4bgph2rcd13ifvqc2g","pricing_plan_id":"cebpf4jnsgd1na2vs0mg"},{"bike_id":"b8d107c5-17d1-4e4c-bf56-ce649302a225","system_id":"levelo_inurba_marseille","lat":43.29573,"lon":5.367355,"is_reserved":false,"is_disabled":false,"rental_uris":{"android":"levelo://app?vid=b8d107c5-17d1-4e4c-bf56-ce649302a225","ios":"levelo://app?vid=b8d107c5-17d1-4e4c-bf56-ce649302a225"},"vehicle_type_id":"4","last_reported":1721923844,"current_range_meters":24000,"station_id":"ce4bgph2rcd13ifvqc2g","pricing_plan_id":"cebpf4jnsgd1na2vs0mg"},{"bike_id":"1c474fb6-4a96-4cc0-8a34-4a67e68bc48b","system_id":"levelo_inurba_marseille","lat":43.299028,"lon":5.381509,"is_reserved":false,"is_disabled":false,"rental_uris":{"android":"levelo://app?vid=1c474fb6-4a96-4cc0-8a34-4a67e68bc48b","ios":"levelo://app?vid=1c474fb6-4a96-4cc0-8a34-4a67e68bc48b"},"vehicle_type_id":"4","last_reported":1721923844,"current_range_meters":3600,"station_id":"ce4bgj12rcd13ifvqbc0","pricing_plan_id":"cebpf4jnsgd1na2vs0mg"},{"bike_id":"139c2c7a-81a9-4718-af6a-9550c69487de","system_id":"levelo_inurba_marseille","lat":43.309589,"lon":5.390258,"is_reserved":false,"is_disabled":false,"rental_uris":{"android":"levelo://app?vid=139c2c7a-81a9-4718-af6a-9550c69487de","ios":"levelo://app?vid=139c2c7a-81a9-4718-af6a-9550c69487de"},"vehicle_type_id":"4","last_reported":1721923844,"current_range_meters":7600,"station_id":"ce4bgup2rcd13ifvqco0","pricing_plan_id":"cebpf4jnsgd1na2vs0mg"},{"bike_id":"823a1e42-c4bd-41f0-9ef2-7347087bd8a3","system_id":"levelo_inurba_marseille","lat":43.32139,"lon":5.38772,"is_reserved":false,"is_disabled":false,"rental_uris":{"android":"levelo://app?vid=823a1e42-c4bd-41f0-9ef2-7347087bd8a3","ios":"levelo://app?vid=823a1e42-c4bd-41f0-9ef2-7347087bd8a3"},"vehicle_type_id":"4","last_reported":1721923844,"current_range_meters":8000,"station_id":"","pricing_plan_id":"cebpf4jnsgd1na2vs0mg"},{"bike_id":"2345221b-3521-48a6-b035-f75ec2d22ef7","system_id":"levelo_inurba_marseille","lat":43.317557,"lon":5.390173,"is_reserved":false,"is_disabled":false,"rental_uris":{"android":"levelo://app?vid=2345221b-3521-48a6-b035-f75ec2d22ef7","ios":"levelo://app?vid=2345221b-3521-48a6-b035-f75ec2d22ef7"},"vehicle_type_id":"4","last_reported":1721923844,"current_range_meters":18000,"station_id":"ce4bhqp2rcd13ifvqhng","pricing_plan_id":"cebpf4jnsgd1na2vs0mg"},{"bike_id":"48503440-b6a6-4f59-a57d-7bd2698ce01a","system_id":"levelo_inurba_marseille","lat":43.317557,"lon":5.390173,"is_reserved":false,"is_disabled":false,"rental_uris":{"android":"levelo://app?vid=48503440-b6a6-4f59-a57d-7bd2698ce01a","ios":"levelo://app?vid=48503440-b6a6-4f59-a57d-7bd2698ce01a"},"vehicle_type_id":"4","last_reported":1721923844,"current_range_meters":10800,"station_id":"ce4bhqp2rcd13ifvqhng","pricing_plan_id":"cebpf4jnsgd1na2vs0mg"},{"bike_id":"beaa9362-4fe7-45eb-964f-3b8f79a0594d","system_id":"levelo_inurba_marseille","lat":43.295748,"lon":5.37522,"is_reserved":false,"is_disabled":false,"rental_uris":{"android":"levelo://app?vid=beaa9362-4fe7-45eb-964f-3b8f79a0594d","ios":"levelo://app?vid=beaa9362-4fe7-45eb-964f-3b8f79a0594d"},"vehicle_type_id":"4","last_reported":1721923844,"current_range_meters":31600,"station_id":"ce4bgh92rcd13ifvqb50","pricing_plan_id":"cebpf4jnsgd1na2vs0mg"},{"bike_id":"8b422acb-a08f-4f7b-bbb2-3d75267a83e1","system_id":"levelo_inurba_marseille","lat":43.298037,"lon":5.381066,"is_reserved":false,"is_disabled":false,"rental_uris":{"android":"levelo://app?vid=8b422acb-a08f-4f7b-bbb2-3d75267a83e1","ios":"levelo://app?vid=8b422acb-a08f-4f7b-bbb2-3d75267a83e1"},"vehicle_type_id":"4","last_reported":1721923844,"current_range_meters":0,"station_id":"ce4bgip2rcd13ifvqbb0","pricing_plan_id":"cebpf4jnsgd1na2vs0mg"},{"bike_id":"83b23949-7b5c-4d08-a752-22e36e2f0348","system_id":"levelo_inurba_marseille","lat":43.296277,"lon":5.377108,"is_reserved":false,"is_disabled":false,"rental_uris":{"android":"levelo://app?vid=83b23949-7b5c-4d08-a752-22e36e2f0348","ios":"levelo://app?vid=83b23949-7b5c-4d08-a752-22e36e2f0348"},"vehicle_type_id":"4","last_reported":1721923844,"current_range_meters":4800,"station_id":"ce4bgi92rcd13ifvqb90","pricing_plan_id":"cebpf4jnsgd1na2vs0mg"},{"bike_id":"8d81a44f-65dd-405e-b505-ba4aa81b9c19","system_id":"levelo_inurba_marseille","lat":43.298037,"lon":5.381066,"is_reserved":false,"is_disabled":false,"rental_uris":{"android":"levelo://app?vid=8d81a44f-65dd-405e-b505-ba4aa81b9c19","ios":"levelo://app?vid=8d81a44f-65dd-405e-b505-ba4aa81b9c19"},"vehicle_type_id":"4","last_reported":1721923844,"current_range_meters":0,"station_id":"ce4bgip2rcd13ifvqbb0","pricing_plan_id":"cebpf4jnsgd1na2vs0mg"},{"bike_id":"ab9e3e81-83bf-4aa5-8349-46428e16e707","system_id":"levelo_inurba_marseille","lat":43.299707,"lon":5.384859,"is_reserved":false,"is_disabled":false,"rental_uris":{"android":"levelo://app?vid=ab9e3e81-83bf-4aa5-8349-46428e16e707","ios":"levelo://app?vid=ab9e3e81-83bf-4aa5-8349-46428e16e707"},"vehicle_type_id":"4","last_reported":1721923844,"current_range_meters":9600,"station_id":"ce4bgj92rcd13ifvqbd0","pricing_plan_id":"cebpf4jnsgd1na2vs0mg"},{"bike_id":"707c2c29-24f3-46fa-b657-c70e07544945","system_id":"levelo_inurba_marseille","lat":43.295279,"lon":5.375048,"is_reserved":false,"is_disabled":false,"rental_uris":{"android":"levelo://app?vid=707c2c29-24f3-46fa-b657-c70e07544945","ios":"levelo://app?vid=707c2c29-24f3-46fa-b657-c70e07544945"},"vehicle_type_id":"4","last_reported":1721923844,"current_range_meters":400,"station_id":"ce4bgkp2rcd13ifvqbmg","pricing_plan_id":"cebpf4jnsgd1na2vs0mg"},{"bike_id":"92a0485b-b9bd-4abc-a3f2-01494818a1ae","system_id":"levelo_inurba_marseille","lat":43.299717,"lon":5.384845,"is_reserved":false,"is_disabled":false,"rental_uris":{"android":"levelo://app?vid=92a0485b-b9bd-4abc-a3f2-01494818a1ae","ios":"levelo://app?vid=92a0485b-b9bd-4abc-a3f2-01494818a1ae"},"vehicle_type_id":"4","last_reported":1721923844,"current_range_meters":3600,"station_id":"ce4bgj92rcd13ifvqbd0","pricing_plan_id":"cebpf4jnsgd1na2vs0mg"},{"bike_id":"09429bea-d4f8-4ffb-a41c-c8dad4330db0","system_id":"levelo_inurba_marseille","lat":43.301396,"lon":5.387812,"is_reserved":false,"is_disabled":false,"rental_uris":{"android":"levelo://app?vid=09429bea-d4f8-4ffb-a41c-c8dad4330db0","ios":"levelo://app?vid=09429bea-d4f8-4ffb-a41c-c8dad4330db0"},"vehicle_type_id":"4","last_reported":1721923844,"current_range_meters":4400,"station_id":"ce4bghh2rcd13ifvqb60","pricing_plan_id":"cebpf4jnsgd1na2vs0mg"},{"bike_id":"8436ee1a-0ae1-4425-ab19-da8fb556e9aa","system_id":"levelo_inurba_marseille","lat":43.301396,"lon":5.387812,"is_reserved":false,"is_disabled":false,"rental_uris":{"android":"levelo://app?vid=8436ee1a-0ae1-4425-ab19-da8fb556e9aa","ios":"levelo://app?vid=8436ee1a-0ae1-4425-ab19-da8fb556e9aa"},"vehicle_type_id":"4","last_reported":1721923844,"current_range_meters":2400,"station_id":"ce4bghh2rcd13ifvqb60","pricing_plan_id":"cebpf4jnsgd1na2vs0mg"},{"bike_id":"78a095a3-c31c-43b2-bd04-5e6f158214d6","system_id":"levelo_inurba_marseille","lat":43.32367,"lon":5.388836,"is_reserved":false,"is_disabled":false,"rental_uris":{"android":"levelo://app?vid=78a095a3-c31c-43b2-bd04-5e6f158214d6","ios":"levelo://app?vid=78a095a3-c31c-43b2-bd04-5e6f158214d6"},"vehicle_type_id":"4","last_reported":1721923844,"current_range_meters":31200,"station_id":"ce4bhqp2rcd13ifvqhog","pricing_plan_id":"cebpf4jnsgd1na2vs0mg"},{"bike_id":"9e0e2ce5-7870-4ffb-a3c0-017d0784cf21","system_id":"levelo_inurba_marseille","lat":43.32371,"lon":5.38885,"is_reserved":false,"is_disabled":false,"rental_uris":{"android":"levelo://app?vid=9e0e2ce5-7870-4ffb-a3c0-017d0784cf21","ios":"levelo://app?vid=9e0e2ce5-7870-4ffb-a3c0-017d0784cf21"},"vehicle_type_id":"4","last_reported":1721923844,"current_range_meters":23600,"station_id":"ce4bhqp2rcd13ifvqhog","pricing_plan_id":"cebpf4jnsgd1na2vs0mg"},{"bike_id":"f77cbfc7-b54f-4b00-a65f-7ca8982ab7d6","system_id":"levelo_inurba_marseille","lat":43.293009,"lon":5.374584,"is_reserved":false,"is_disabled":false,"rental_uris":{"android":"levelo://app?vid=f77cbfc7-b54f-4b00-a65f-7ca8982ab7d6","ios":"levelo://app?vid=f77cbfc7-b54f-4b00-a65f-7ca8982ab7d6"},"vehicle_type_id":"4","last_reported":1721923844,"current_range_meters":8400,"station_id":"ce4bgi12rcd13ifvqb70","pricing_plan_id":"cebpf4jnsgd1na2vs0mg"},{"bike_id":"c1ae2fbd-9d5d-4658-978d-909ad2394b68","system_id":"levelo_inurba_marseille","lat":43.293009,"lon":5.374584,"is_reserved":false,"is_disabled":false,"rental_uris":{"android":"levelo://app?vid=c1ae2fbd-9d5d-4658-978d-909ad2394b68","ios":"levelo://app?vid=c1ae2fbd-9d5d-4658-978d-909ad2394b68"},"vehicle_type_id":"4","last_reported":1721923844,"current_range_meters":21200,"station_id":"ce4bgi12rcd13ifvqb70","pricing_plan_id":"cebpf4jnsgd1na2vs0mg"},{"bike_id":"9dc8be5d-268d-4e8a-b37a-724dc827a90a","system_id":"levelo_inurba_marseille","lat":43.293009,"lon":5.374584,"is_reserved":false,"is_disabled":false,"rental_uris":{"android":"levelo://app?vid=9dc8be5d-268d-4e8a-b37a-724dc827a90a","ios":"levelo://app?vid=9dc8be5d-268d-4e8a-b37a-724dc827a90a"},"vehicle_type_id":"4","last_reported":1721923844,"current_range_meters":4800,"station_id":"ce4bgi12rcd13ifvqb70","pricing_plan_id":"cebpf4jnsgd1na2vs0mg"},{"bike_id":"240357b8-c737-4f2f-85ce-40dd53c6c401","system_id":"levelo_inurba_marseille","lat":43.2936,"lon":5.37835,"is_reserved":false,"is_disabled":false,"rental_uris":{"android":"levelo://app?vid=240357b8-c737-4f2f-85ce-40dd53c6c401","ios":"levelo://app?vid=240357b8-c737-4f2f-85ce-40dd53c6c401"},"vehicle_type_id":"4","last_reported":1721923844,"current_range_meters":0,"station_id":"ce4bgjh2rcd13ifvqbf0","pricing_plan_id":"cebpf4jnsgd1na2vs0mg"},{"bike_id":"0f184184-2be2-4d8b-8bf9-7437e96485a0","system_id":"levelo_inurba_marseille","lat":43.292311,"lon":5.360731,"is_reserved":false,"is_disabled":false,"rental_uris":{"android":"levelo://app?vid=0f184184-2be2-4d8b-8bf9-7437e96485a0","ios":"levelo://app?vid=0f184184-2be2-4d8b-8bf9-7437e96485a0"},"vehicle_type_id":"4","last_reported":1721923844,"current_range_meters":0,"station_id":"ce4bhbh2rcd13ifvqeqg","pricing_plan_id":"cebpf4jnsgd1na2vs0mg"},{"bike_id":"55de6ea2-a8e9-4312-86af-56ca1bd5d862","system_id":"levelo_inurba_marseille","lat":43.29225,"lon":5.36046,"is_reserved":false,"is_disabled":false,"rental_uris":{"android":"levelo://app?vid=55de6ea2-a8e9-4312-86af-56ca1bd5d862","ios":"levelo://app?vid=55de6ea2-a8e9-4312-86af-56ca1bd5d862"},"vehicle_type_id":"4","last_reported":1721923844,"current_range_meters":18000,"station_id":"ce4bhbh2rcd13ifvqeqg","pricing_plan_id":"cebpf4jnsgd1na2vs0mg"},{"bike_id":"bff308be-47c6-4d5b-96bc-4b11802aad7f","system_id":"levelo_inurba_marseille","lat":43.2922,"lon":5.36057,"is_reserved":false,"is_disabled":false,"rental_uris":{"android":"levelo://app?vid=bff308be-47c6-4d5b-96bc-4b11802aad7f","ios":"levelo://app?vid=bff308be-47c6-4d5b-96bc-4b11802aad7f"},"vehicle_type_id":"4","last_reported":1721923844,"current_range_meters":29200,"station_id":"ce4bhbh2rcd13ifvqeqg","pricing_plan_id":"cebpf4jnsgd1na2vs0mg"},{"bike_id":"fda878e8-7060-47bc-b25f-a3d18c8dffc5","system_id":"levelo_inurba_marseille","lat":43.30085,"lon":5.390856,"is_reserved":false,"is_disabled":false,"rental_uris":{"android":"levelo://app?vid=fda878e8-7060-47bc-b25f-a3d18c8dffc5","ios":"levelo://app?vid=fda878e8-7060-47bc-b25f-a3d18c8dffc5"},"vehicle_type_id":"4","last_reported":1721923844,"current_range_meters":400,"station_id":"ce4bh192rcd13ifvqdb0","pricing_plan_id":"cebpf4jnsgd1na2vs0mg"},{"bike_id":"c87f71f7-4dfb-45bd-8f9b-4ec940d18327","system_id":"levelo_inurba_marseille","lat":43.302992,"lon":5.392136,"is_reserved":false,"is_disabled":false,"rental_uris":{"android":"levelo://app?vid=c87f71f7-4dfb-45bd-8f9b-4ec940d18327","ios":"levelo://app?vid=c87f71f7-4dfb-45bd-8f9b-4ec940d18327"},"vehicle_type_id":"4","last_reported":1721923844,"current_range_meters":18800,"station_id":"ce4bgkh2rcd13ifvqbk0","pricing_plan_id":"cebpf4jnsgd1na2vs0mg"},{"bike_id":"16192f15-229c-4b7d-b600-7177cf488579","system_id":"levelo_inurba_marseille","lat":43.291675,"lon":5.371583,"is_reserved":false,"is_disabled":false,"rental_uris":{"android":"levelo://app?vid=16192f15-229c-4b7d-b600-7177cf488579","ios":"levelo://app?vid=16192f15-229c-4b7d-b600-7177cf488579"},"vehicle_type_id":"4","last_reported":1721923844,"current_range_meters":21200,"station_id":"ce4bha92rcd13ifvqeh0","pricing_plan_id":"cebpf4jnsgd1na2vs0mg"},{"bike_id":"ec4e8090-7661-4b04-96d8-7e760a32b881","system_id":"levelo_inurba_marseille","lat":43.291675,"lon":5.371583,"is_reserved":false,"is_disabled":false,"rental_uris":{"android":"levelo://app?vid=ec4e8090-7661-4b04-96d8-7e760a32b881","ios":"levelo://app?vid=ec4e8090-7661-4b04-96d8-7e760a32b881"},"vehicle_type_id":"4","last_reported":1721923844,"current_range_meters":0,"station_id":"ce4bha92rcd13ifvqeh0","pricing_plan_id":"cebpf4jnsgd1na2vs0mg"},{"bike_id":"0aea4c87-491a-483f-9887-58a70375b050","system_id":"levelo_inurba_marseille","lat":43.291671,"lon":5.371575,"is_reserved":false,"is_disabled":false,"rental_uris":{"android":"levelo://app?vid=0aea4c87-491a-483f-9887-58a70375b050","ios":"levelo://app?vid=0aea4c87-491a-483f-9887-58a70375b050"},"vehicle_type_id":"4","last_reported":1721923844,"current_range_meters":18800,"station_id":"ce4bha92rcd13ifvqeh0","pricing_plan_id":"cebpf4jnsgd1na2vs0mg"},{"bike_id":"9ecfa423-c98b-4f3e-9a72-1440bc1666f5","system_id":"levelo_inurba_marseille","lat":43.292005,"lon":5.357875,"is_reserved":false,"is_disabled":false,"rental_uris":{"android":"levelo://app?vid=9ecfa423-c98b-4f3e-9a72-1440bc1666f5","ios":"levelo://app?vid=9ecfa423-c98b-4f3e-9a72-1440bc1666f5"},"vehicle_type_id":"4","last_reported":1721923844,"current_range_meters":0,"station_id":"ce4bhb12rcd13ifvqel0","pricing_plan_id":"cebpf4jnsgd1na2vs0mg"},{"bike_id":"8bda2f2c-edad-4a6f-b7b2-b8cc4abc032a","system_id":"levelo_inurba_marseille","lat":43.292005,"lon":5.357875,"is_reserved":false,"is_disabled":false,"rental_uris":{"android":"levelo://app?vid=8bda2f2c-edad-4a6f-b7b2-b8cc4abc032a","ios":"levelo://app?vid=8bda2f2c-edad-4a6f-b7b2-b8cc4abc032a"},"vehicle_type_id":"4","last_reported":1721923844,"current_range_meters":3600,"station_id":"ce4bhb12rcd13ifvqel0","pricing_plan_id":"cebpf4jnsgd1na2vs0mg"},{"bike_id":"d45ffea5-12f8-422a-8b3b-6bad9f6169f8","system_id":"levelo_inurba_marseille","lat":43.313291,"lon":5.396838,"is_reserved":false,"is_disabled":false,"rental_uris":{"android":"levelo://app?vid=d45ffea5-12f8-422a-8b3b-6bad9f6169f8","ios":"levelo://app?vid=d45ffea5-12f8-422a-8b3b-6bad9f6169f8"},"vehicle_type_id":"4","last_reported":1721923844,"current_range_meters":3200,"station_id":"ce4bgvp2rcd13ifvqcu0","pricing_plan_id":"cebpf4jnsgd1na2vs0mg"},{"bike_id":"b8f4fd7b-251b-426b-9526-edbf18c305de","system_id":"levelo_inurba_marseille","lat":43.313291,"lon":5.396838,"is_reserved":false,"is_disabled":false,"rental_uris":{"android":"levelo://app?vid=b8f4fd7b-251b-426b-9526-edbf18c305de","ios":"levelo://app?vid=b8f4fd7b-251b-426b-9526-edbf18c305de"},"vehicle_type_id":"4","last_reported":1721923844,"current_range_meters":28800,"station_id":"ce4bgvp2rcd13ifvqcu0","pricing_plan_id":"cebpf4jnsgd1na2vs0mg"},{"bike_id":"2716be5b-7b8e-4e5d-9341-f2fb88888506","system_id":"levelo_inurba_marseille","lat":43.309038,"lon":5.396546,"is_reserved":false,"is_disabled":false,"rental_uris":{"android":"levelo://app?vid=2716be5b-7b8e-4e5d-9341-f2fb88888506","ios":"levelo://app?vid=2716be5b-7b8e-4e5d-9341-f2fb88888506"},"vehicle_type_id":"4","last_reported":1721923844,"current_range_meters":4800,"station_id":"ce4bh012rcd13ifvqcv0","pricing_plan_id":"cebpf4jnsgd1na2vs0mg"},{"bike_id":"dfdccaa6-9bb2-4cd1-9b64-482b35b72d33","system_id":"levelo_inurba_marseille","lat":43.29529,"lon":5.385581,"is_reserved":false,"is_disabled":false,"rental_uris":{"android":"levelo://app?vid=dfdccaa6-9bb2-4cd1-9b64-482b35b72d33","ios":"levelo://app?vid=dfdccaa6-9bb2-4cd1-9b64-482b35b72d33"},"vehicle_type_id":"4","last_reported":1721923844,"current_range_meters":2400,"station_id":"ce4bgih2rcd13ifvqba0","pricing_plan_id":"cebpf4jnsgd1na2vs0mg"},{"bike_id":"6c5b546f-9af9-4c50-b921-bebfa03c10b4","system_id":"levelo_inurba_marseille","lat":43.290463,"lon":5.370217,"is_reserved":false,"is_disabled":false,"rental_uris":{"android":"levelo://app?vid=6c5b546f-9af9-4c50-b921-bebfa03c10b4","ios":"levelo://app?vid=6c5b546f-9af9-4c50-b921-bebfa03c10b4"},"vehicle_type_id":"4","last_reported":1721923844,"current_range_meters":0,"station_id":"","pricing_plan_id":"cebpf4jnsgd1na2vs0mg"},{"bike_id":"8fee499b-919c-4b40-88b3-63a0fc775b16","system_id":"levelo_inurba_marseille","lat":43.290254,"lon":5.365659,"is_reserved":false,"is_disabled":false,"rental_uris":{"android":"levelo://app?vid=8fee499b-919c-4b40-88b3-63a0fc775b16","ios":"levelo://app?vid=8fee499b-919c-4b40-88b3-63a0fc775b16"},"vehicle_type_id":"4","last_reported":1721923844,"current_range_meters":21200,"station_id":"ce4bhap2rcd13ifvqek0","pricing_plan_id":"cebpf4jnsgd1na2vs0mg"},{"bike_id":"6a6f274c-d269-4ff6-ab68-75503ed14866","system_id":"levelo_inurba_marseille","lat":43.30209,"lon":5.39458,"is_reserved":false,"is_disabled":false,"rental_uris":{"android":"levelo://app?vid=6a6f274c-d269-4ff6-ab68-75503ed14866","ios":"levelo://app?vid=6a6f274c-d269-4ff6-ab68-75503ed14866"},"vehicle_type_id":"4","last_reported":1721923844,"current_range_meters":0,"station_id":"ce4bh0p2rcd13ifvqd70","pricing_plan_id":"cebpf4jnsgd1na2vs0mg"},{"bike_id":"c49c1d54-3494-4688-9a3d-a7facfed3b3b","system_id":"levelo_inurba_marseille","lat":43.290471,"lon":5.359122,"is_reserved":false,"is_disabled":false,"rental_uris":{"android":"levelo://app?vid=c49c1d54-3494-4688-9a3d-a7facfed3b3b","ios":"levelo://app?vid=c49c1d54-3494-4688-9a3d-a7facfed3b3b"},"vehicle_type_id":"4","last_reported":1721923844,"current_range_meters":18800,"station_id":"ce4bhbh2rcd13ifvqepg","pricing_plan_id":"cebpf4jnsgd1na2vs0mg"},{"bike_id":"1175a6a5-9e4d-42ce-b25b-5f8ea0a50af7","system_id":"levelo_inurba_marseille","lat":43.290624,"lon":5.359245,"is_reserved":false,"is_disabled":false,"rental_uris":{"android":"levelo://app?vid=1175a6a5-9e4d-42ce-b25b-5f8ea0a50af7","ios":"levelo://app?vid=1175a6a5-9e4d-42ce-b25b-5f8ea0a50af7"},"vehicle_type_id":"4","last_reported":1721923844,"current_range_meters":4400,"station_id":"ce4bha92rcd13ifvqeg0","pricing_plan_id":"cebpf4jnsgd1na2vs0mg"},{"bike_id":"4ba148fc-383f-473a-8719-a079b07dcf23","system_id":"levelo_inurba_marseille","lat":43.28948,"lon":5.36634,"is_reserved":false,"is_disabled":false,"rental_uris":{"android":"levelo://app?vid=4ba148fc-383f-473a-8719-a079b07dcf23","ios":"levelo://app?vid=4ba148fc-383f-473a-8719-a079b07dcf23"},"vehicle_type_id":"4","last_reported":1721923844,"current_range_meters":8800,"station_id":"ce4bhap2rcd13ifvqek0","pricing_plan_id":"cebpf4jnsgd1na2vs0mg"},{"bike_id":"7e0cdbee-edbf-49f9-bd4b-67ef35f6fb0b","system_id":"levelo_inurba_marseille","lat":43.2894,"lon":5.36639,"is_reserved":false,"is_disabled":false,"rental_uris":{"android":"levelo://app?vid=7e0cdbee-edbf-49f9-bd4b-67ef35f6fb0b","ios":"levelo://app?vid=7e0cdbee-edbf-49f9-bd4b-67ef35f6fb0b"},"vehicle_type_id":"4","last_reported":1721923844,"current_range_meters":0,"station_id":"ce4bhap2rcd13ifvqek0","pricing_plan_id":"cebpf4jnsgd1na2vs0mg"},{"bike_id":"97e109de-9e88-4bd9-8f6b-dea4df66ce90","system_id":"levelo_inurba_marseille","lat":43.28936,"lon":5.36643,"is_reserved":false,"is_disabled":false,"rental_uris":{"android":"levelo://app?vid=97e109de-9e88-4bd9-8f6b-dea4df66ce90","ios":"levelo://app?vid=97e109de-9e88-4bd9-8f6b-dea4df66ce90"},"vehicle_type_id":"4","last_reported":1721923844,"current_range_meters":5600,"station_id":"ce4bhap2rcd13ifvqek0","pricing_plan_id":"cebpf4jnsgd1na2vs0mg"},{"bike_id":"2da19de7-4c42-405e-bb64-60104052ae55","system_id":"levelo_inurba_marseille","lat":43.289184,"lon":5.366408,"is_reserved":false,"is_disabled":false,"rental_uris":{"android":"levelo://app?vid=2da19de7-4c42-405e-bb64-60104052ae55","ios":"levelo://app?vid=2da19de7-4c42-405e-bb64-60104052ae55"},"vehicle_type_id":"4","last_reported":1721923844,"current_range_meters":27600,"station_id":"ce4bhap2rcd13ifvqek0","pricing_plan_id":"cebpf4jnsgd1na2vs0mg"},{"bike_id":"6b59feb7-ddb8-4d60-9426-9e03dc208695","system_id":"levelo_inurba_marseille","lat":43.292642,"lon":5.384254,"is_reserved":false,"is_disabled":false,"rental_uris":{"android":"levelo://app?vid=6b59feb7-ddb8-4d60-9426-9e03dc208695","ios":"levelo://app?vid=6b59feb7-ddb8-4d60-9426-9e03dc208695"},"vehicle_type_id":"4","last_reported":1721923844,"current_range_meters":24000,"station_id":"ce4bh692rcd13ifvqea0","pricing_plan_id":"cebpf4jnsgd1na2vs0mg"},{"bike_id":"f0774c37-1483-4041-ba84-530a44840232","system_id":"levelo_inurba_marseille","lat":43.292642,"lon":5.384254,"is_reserved":false,"is_disabled":false,"rental_uris":{"android":"levelo://app?vid=f0774c37-1483-4041-ba84-530a44840232","ios":"levelo://app?vid=f0774c37-1483-4041-ba84-530a44840232"},"vehicle_type_id":"4","last_reported":1721923844,"current_range_meters":6000,"station_id":"ce4bh692rcd13ifvqea0","pricing_plan_id":"cebpf4jnsgd1na2vs0mg"},{"bike_id":"cc421b6e-e9a1-45f0-b93c-cbaf5133b79a","system_id":"levelo_inurba_marseille","lat":43.292642,"lon":5.384254,"is_reserved":false,"is_disabled":false,"rental_uris":{"android":"levelo://app?vid=cc421b6e-e9a1-45f0-b93c-cbaf5133b79a","ios":"levelo://app?vid=cc421b6e-e9a1-45f0-b93c-cbaf5133b79a"},"vehicle_type_id":"4","last_reported":1721923844,"current_range_meters":24800,"station_id":"ce4bh692rcd13ifvqea0","pricing_plan_id":"cebpf4jnsgd1na2vs0mg"},{"bike_id":"2fd970c1-61cf-4d68-a509-624837952e3c","system_id":"levelo_inurba_marseille","lat":43.292644,"lon":5.384257,"is_reserved":false,"is_disabled":false,"rental_uris":{"android":"levelo://app?vid=2fd970c1-61cf-4d68-a509-624837952e3c","ios":"levelo://app?vid=2fd970c1-61cf-4d68-a509-624837952e3c"},"vehicle_type_id":"4","last_reported":1721923844,"current_range_meters":4000,"station_id":"ce4bh692rcd13ifvqea0","pricing_plan_id":"cebpf4jnsgd1na2vs0mg"},{"bike_id":"95ed8535-2f21-4da8-a98c-91d647fdd0fb","system_id":"levelo_inurba_marseille","lat":43.292644,"lon":5.384257,"is_reserved":false,"is_disabled":false,"rental_uris":{"android":"levelo://app?vid=95ed8535-2f21-4da8-a98c-91d647fdd0fb","ios":"levelo://app?vid=95ed8535-2f21-4da8-a98c-91d647fdd0fb"},"vehicle_type_id":"4","last_reported":1721923844,"current_range_meters":5200,"station_id":"ce4bh692rcd13ifvqea0","pricing_plan_id":"cebpf4jnsgd1na2vs0mg"},{"bike_id":"e15b23db-04ca-4353-8a7e-62b34f7874d1","system_id":"levelo_inurba_marseille","lat":43.290104,"lon":5.356111,"is_reserved":false,"is_disabled":false,"rental_uris":{"android":"levelo://app?vid=e15b23db-04ca-4353-8a7e-62b34f7874d1","ios":"levelo://app?vid=e15b23db-04ca-4353-8a7e-62b34f7874d1"},"vehicle_type_id":"4","last_reported":1721923844,"current_range_meters":4800,"station_id":"ce4bhb92rcd13ifvqen0","pricing_plan_id":"cebpf4jnsgd1na2vs0mg"},{"bike_id":"6b65bb9c-264a-44d6-9aaa-761a9ad5b7e9","system_id":"levelo_inurba_marseille","lat":43.290995,"lon":5.381361,"is_reserved":false,"is_disabled":false,"rental_uris":{"android":"levelo://app?vid=6b65bb9c-264a-44d6-9aaa-761a9ad5b7e9","ios":"levelo://app?vid=6b65bb9c-264a-44d6-9aaa-761a9ad5b7e9"},"vehicle_type_id":"4","last_reported":1721923844,"current_range_meters":20000,"station_id":"ce4bh512rcd13ifvqe2g","pricing_plan_id":"cebpf4jnsgd1na2vs0mg"},{"bike_id":"9fc33617-1bba-4c4e-a96e-a90acf0e3c52","system_id":"levelo_inurba_marseille","lat":43.297807,"lon":5.393533,"is_reserved":false,"is_disabled":false,"rental_uris":{"android":"levelo://app?vid=9fc33617-1bba-4c4e-a96e-a90acf0e3c52","ios":"levelo://app?vid=9fc33617-1bba-4c4e-a96e-a90acf0e3c52"},"vehicle_type_id":"4","last_reported":1721923844,"current_range_meters":19600,"station_id":"chh1huq6cuj3fo74tm60","pricing_plan_id":"cebpf4jnsgd1na2vs0mg"},{"bike_id":"24a3c554-9273-411f-ab7d-ab4b2fc54523","system_id":"levelo_inurba_marseille","lat":43.297815,"lon":5.393548,"is_reserved":false,"is_disabled":false,"rental_uris":{"android":"levelo://app?vid=24a3c554-9273-411f-ab7d-ab4b2fc54523","ios":"levelo://app?vid=24a3c554-9273-411f-ab7d-ab4b2fc54523"},"vehicle_type_id":"4","last_reported":1721923844,"current_range_meters":0,"station_id":"chh1huq6cuj3fo74tm60","pricing_plan_id":"cebpf4jnsgd1na2vs0mg"},{"bike_id":"909822e5-e6ce-468b-bbc3-e345609ad7c5","system_id":"levelo_inurba_marseille","lat":43.289743,"lon":5.378304,"is_reserved":false,"is_disabled":false,"rental_uris":{"android":"levelo://app?vid=909822e5-e6ce-468b-bbc3-e345609ad7c5","ios":"levelo://app?vid=909822e5-e6ce-468b-bbc3-e345609ad7c5"},"vehicle_type_id":"4","last_reported":1721923844,"current_range_meters":0,"station_id":"ce4bh9p2rcd13ifvqed0","pricing_plan_id":"cebpf4jnsgd1na2vs0mg"},{"bike_id":"83d21c5c-a389-462c-a1ae-2e645036c436","system_id":"levelo_inurba_marseille","lat":43.330442,"lon":5.389148,"is_reserved":false,"is_disabled":false,"rental_uris":{"android":"levelo://app?vid=83d21c5c-a389-462c-a1ae-2e645036c436","ios":"levelo://app?vid=83d21c5c-a389-462c-a1ae-2e645036c436"},"vehicle_type_id":"4","last_reported":1721923844,"current_range_meters":5200,"station_id":"ce4bhr92rcd13ifvqhrg","pricing_plan_id":"cebpf4jnsgd1na2vs0mg"},{"bike_id":"5163cbf3-af48-4b0e-abe3-cb7b54c59191","system_id":"levelo_inurba_marseille","lat":43.330442,"lon":5.389148,"is_reserved":false,"is_disabled":false,"rental_uris":{"android":"levelo://app?vid=5163cbf3-af48-4b0e-abe3-cb7b54c59191","ios":"levelo://app?vid=5163cbf3-af48-4b0e-abe3-cb7b54c59191"},"vehicle_type_id":"4","last_reported":1721923844,"current_range_meters":31200,"station_id":"ce4bhr92rcd13ifvqhrg","pricing_plan_id":"cebpf4jnsgd1na2vs0mg"},{"bike_id":"fdd09dc8-595b-4466-b24e-f9c3c862cc83","system_id":"levelo_inurba_marseille","lat":43.289741,"lon":5.378306,"is_reserved":false,"is_disabled":false,"rental_uris":{"android":"levelo://app?vid=fdd09dc8-595b-4466-b24e-f9c3c862cc83","ios":"levelo://app?vid=fdd09dc8-595b-4466-b24e-f9c3c862cc83"},"vehicle_type_id":"4","last_reported":1721923844,"current_range_meters":2800,"station_id":"ce4bh9p2rcd13ifvqed0","pricing_plan_id":"cebpf4jnsgd1na2vs0mg"},{"bike_id":"53a9aacd-32c2-463c-ac5d-7d8c2d5eeced","system_id":"levelo_inurba_marseille","lat":43.289741,"lon":5.378306,"is_reserved":false,"is_disabled":false,"rental_uris":{"android":"levelo://app?vid=53a9aacd-32c2-463c-ac5d-7d8c2d5eeced","ios":"levelo://app?vid=53a9aacd-32c2-463c-ac5d-7d8c2d5eeced"},"vehicle_type_id":"4","last_reported":1721923844,"current_range_meters":17600,"station_id":"ce4bh9p2rcd13ifvqed0","pricing_plan_id":"cebpf4jnsgd1na2vs0mg"},{"bike_id":"ec393a94-61b7-4ec0-91a6-985c9bb79420","system_id":"levelo_inurba_marseille","lat":43.295169,"lon":5.390426,"is_reserved":false,"is_disabled":false,"rental_uris":{"android":"levelo://app?vid=ec393a94-61b7-4ec0-91a6-985c9bb79420","ios":"levelo://app?vid=ec393a94-61b7-4ec0-91a6-985c9bb79420"},"vehicle_type_id":"4","last_reported":1721923844,"current_range_meters":21200,"station_id":"ce4bh3p2rcd13ifvqdp0","pricing_plan_id":"cebpf4jnsgd1na2vs0mg"},{"bike_id":"ddcf22a3-f534-482f-a971-8f862565c476","system_id":"levelo_inurba_marseille","lat":43.330442,"lon":5.389148,"is_reserved":false,"is_disabled":false,"rental_uris":{"android":"levelo://app?vid=ddcf22a3-f534-482f-a971-8f862565c476","ios":"levelo://app?vid=ddcf22a3-f534-482f-a971-8f862565c476"},"vehicle_type_id":"4","last_reported":1721923844,"current_range_meters":31200,"station_id":"ce4bhr92rcd13ifvqhrg","pricing_plan_id":"cebpf4jnsgd1na2vs0mg"},{"bike_id":"6ac93a6f-06a4-492f-a978-114290ff6710","system_id":"levelo_inurba_marseille","lat":43.290094,"lon":5.381264,"is_reserved":false,"is_disabled":false,"rental_uris":{"android":"levelo://app?vid=6ac93a6f-06a4-492f-a978-114290ff6710","ios":"levelo://app?vid=6ac93a6f-06a4-492f-a978-114290ff6710"},"vehicle_type_id":"4","last_reported":1721923844,"current_range_meters":0,"station_id":"ce4bh4p2rcd13ifvqe1g","pricing_plan_id":"cebpf4jnsgd1na2vs0mg"},{"bike_id":"149ad317-2977-4c2d-b9af-065d2c29d5b4","system_id":"levelo_inurba_marseille","lat":43.309737,"lon":5.400651,"is_reserved":false,"is_disabled":false,"rental_uris":{"android":"levelo://app?vid=149ad317-2977-4c2d-b9af-065d2c29d5b4","ios":"levelo://app?vid=149ad317-2977-4c2d-b9af-065d2c29d5b4"},"vehicle_type_id":"4","last_reported":1721923844,"current_range_meters":12800,"station_id":"","pricing_plan_id":"cebpf4jnsgd1na2vs0mg"},{"bike_id":"908cadf6-aa9d-45f2-a114-b763fe546eb5","system_id":"levelo_inurba_marseille","lat":43.28856,"lon":5.358371,"is_reserved":false,"is_disabled":false,"rental_uris":{"android":"levelo://app?vid=908cadf6-aa9d-45f2-a114-b763fe546eb5","ios":"levelo://app?vid=908cadf6-aa9d-45f2-a114-b763fe546eb5"},"vehicle_type_id":"4","last_reported":1721923844,"current_range_meters":5200,"station_id":"ce4bhb12rcd13ifvqem0","pricing_plan_id":"cebpf4jnsgd1na2vs0mg"},{"bike_id":"970c3b18-fc10-4a10-bbbd-87f06385fd89","system_id":"levelo_inurba_marseille","lat":43.28856,"lon":5.358371,"is_reserved":false,"is_disabled":false,"rental_uris":{"android":"levelo://app?vid=970c3b18-fc10-4a10-bbbd-87f06385fd89","ios":"levelo://app?vid=970c3b18-fc10-4a10-bbbd-87f06385fd89"},"vehicle_type_id":"4","last_reported":1721923844,"current_range_meters":5600,"station_id":"ce4bhb12rcd13ifvqem0","pricing_plan_id":"cebpf4jnsgd1na2vs0mg"},{"bike_id":"f0cd49e5-3ec1-45e7-ba4f-e89314c9e1e2","system_id":"levelo_inurba_marseille","lat":43.28856,"lon":5.358371,"is_reserved":false,"is_disabled":false,"rental_uris":{"android":"levelo://app?vid=f0cd49e5-3ec1-45e7-ba4f-e89314c9e1e2","ios":"levelo://app?vid=f0cd49e5-3ec1-45e7-ba4f-e89314c9e1e2"},"vehicle_type_id":"4","last_reported":1721923844,"current_range_meters":20800,"station_id":"ce4bhb12rcd13ifvqem0","pricing_plan_id":"cebpf4jnsgd1na2vs0mg"},{"bike_id":"9929bbc2-5142-4ca0-a3ab-ac44465bc140","system_id":"levelo_inurba_marseille","lat":43.312609,"lon":5.401662,"is_reserved":false,"is_disabled":false,"rental_uris":{"android":"levelo://app?vid=9929bbc2-5142-4ca0-a3ab-ac44465bc140","ios":"levelo://app?vid=9929bbc2-5142-4ca0-a3ab-ac44465bc140"},"vehicle_type_id":"4","last_reported":1721923844,"current_range_meters":13200,"station_id":"ce4bh092rcd13ifvqd30","pricing_plan_id":"cebpf4jnsgd1na2vs0mg"},{"bike_id":"18b02d4b-bd76-40b8-a0f5-45c64d3582f0","system_id":"levelo_inurba_marseille","lat":43.3128,"lon":5.40163,"is_reserved":false,"is_disabled":false,"rental_uris":{"android":"levelo://app?vid=18b02d4b-bd76-40b8-a0f5-45c64d3582f0","ios":"levelo://app?vid=18b02d4b-bd76-40b8-a0f5-45c64d3582f0"},"vehicle_type_id":"4","last_reported":1721923844,"current_range_meters":22000,"station_id":"ce4bh092rcd13ifvqd30","pricing_plan_id":"cebpf4jnsgd1na2vs0mg"},{"bike_id":"9b5a77a6-5a61-4ec5-a7c6-f67bcb697fa9","system_id":"levelo_inurba_marseille","lat":43.312609,"lon":5.401662,"is_reserved":false,"is_disabled":false,"rental_uris":{"android":"levelo://app?vid=9b5a77a6-5a61-4ec5-a7c6-f67bcb697fa9","ios":"levelo://app?vid=9b5a77a6-5a61-4ec5-a7c6-f67bcb697fa9"},"vehicle_type_id":"4","last_reported":1721923844,"current_range_meters":8000,"station_id":"ce4bh092rcd13ifvqd30","pricing_plan_id":"cebpf4jnsgd1na2vs0mg"},{"bike_id":"5b0ee400-595d-408d-892b-92728990f582","system_id":"levelo_inurba_marseille","lat":43.312609,"lon":5.401662,"is_reserved":false,"is_disabled":false,"rental_uris":{"android":"levelo://app?vid=5b0ee400-595d-408d-892b-92728990f582","ios":"levelo://app?vid=5b0ee400-595d-408d-892b-92728990f582"},"vehicle_type_id":"4","last_reported":1721923844,"current_range_meters":18000,"station_id":"ce4bh092rcd13ifvqd30","pricing_plan_id":"cebpf4jnsgd1na2vs0mg"},{"bike_id":"1fca81f9-697b-4437-9155-59879bd561ec","system_id":"levelo_inurba_marseille","lat":43.31275,"lon":5.40174,"is_reserved":false,"is_disabled":false,"rental_uris":{"android":"levelo://app?vid=1fca81f9-697b-4437-9155-59879bd561ec","ios":"levelo://app?vid=1fca81f9-697b-4437-9155-59879bd561ec"},"vehicle_type_id":"4","last_reported":1721923844,"current_range_meters":6000,"station_id":"ce4bh092rcd13ifvqd30","pricing_plan_id":"cebpf4jnsgd1na2vs0mg"},{"bike_id":"2920e2c0-8244-4a87-822c-828f106b4631","system_id":"levelo_inurba_marseille","lat":43.31275,"lon":5.40179,"is_reserved":false,"is_disabled":false,"rental_uris":{"android":"levelo://app?vid=2920e2c0-8244-4a87-822c-828f106b4631","ios":"levelo://app?vid=2920e2c0-8244-4a87-822c-828f106b4631"},"vehicle_type_id":"4","last_reported":1721923844,"current_range_meters":24800,"station_id":"ce4bh092rcd13ifvqd30","pricing_plan_id":"cebpf4jnsgd1na2vs0mg"},{"bike_id":"9a4fc2cd-6e90-499f-b786-8a6cf682a52e","system_id":"levelo_inurba_marseille","lat":43.3376,"lon":5.37441,"is_reserved":false,"is_disabled":false,"rental_uris":{"android":"levelo://app?vid=9a4fc2cd-6e90-499f-b786-8a6cf682a52e","ios":"levelo://app?vid=9a4fc2cd-6e90-499f-b786-8a6cf682a52e"},"vehicle_type_id":"4","last_reported":1721923844,"current_range_meters":20400,"station_id":"","pricing_plan_id":"cebpf4jnsgd1na2vs0mg"},{"bike_id":"9abda3c9-e4ca-493b-986d-5c389e8ec673","system_id":"levelo_inurba_marseille","lat":43.30637,"lon":5.4009,"is_reserved":false,"is_disabled":false,"rental_uris":{"android":"levelo://app?vid=9abda3c9-e4ca-493b-986d-5c389e8ec673","ios":"levelo://app?vid=9abda3c9-e4ca-493b-986d-5c389e8ec673"},"vehicle_type_id":"4","last_reported":1721923844,"current_range_meters":13600,"station_id":"","pricing_plan_id":"cebpf4jnsgd1na2vs0mg"},{"bike_id":"3b0336c9-2e8e-43ea-a09a-ee7cef35d734","system_id":"levelo_inurba_marseille","lat":43.33775,"lon":5.37436,"is_reserved":false,"is_disabled":false,"rental_uris":{"android":"levelo://app?vid=3b0336c9-2e8e-43ea-a09a-ee7cef35d734","ios":"levelo://app?vid=3b0336c9-2e8e-43ea-a09a-ee7cef35d734"},"vehicle_type_id":"4","last_reported":1721923844,"current_range_meters":15200,"station_id":"","pricing_plan_id":"cebpf4jnsgd1na2vs0mg"},{"bike_id":"2683a0d9-0cf4-467d-ab04-4001d607282f","system_id":"levelo_inurba_marseille","lat":43.33777,"lon":5.37428,"is_reserved":false,"is_disabled":false,"rental_uris":{"android":"levelo://app?vid=2683a0d9-0cf4-467d-ab04-4001d607282f","ios":"levelo://app?vid=2683a0d9-0cf4-467d-ab04-4001d607282f"},"vehicle_type_id":"4","last_reported":1721923844,"current_range_meters":8000,"station_id":"","pricing_plan_id":"cebpf4jnsgd1na2vs0mg"},{"bike_id":"c43f4f49-f04d-4beb-a3f8-a2b73a3655ea","system_id":"levelo_inurba_marseille","lat":43.33777,"lon":5.37436,"is_reserved":false,"is_disabled":false,"rental_uris":{"android":"levelo://app?vid=c43f4f49-f04d-4beb-a3f8-a2b73a3655ea","ios":"levelo://app?vid=c43f4f49-f04d-4beb-a3f8-a2b73a3655ea"},"vehicle_type_id":"4","last_reported":1721923844,"current_range_meters":24400,"station_id":"","pricing_plan_id":"cebpf4jnsgd1na2vs0mg"},{"bike_id":"0753e7b2-e98f-4d3a-9110-01046f9e14a5","system_id":"levelo_inurba_marseille","lat":43.3378,"lon":5.37443,"is_reserved":false,"is_disabled":false,"rental_uris":{"android":"levelo://app?vid=0753e7b2-e98f-4d3a-9110-01046f9e14a5","ios":"levelo://app?vid=0753e7b2-e98f-4d3a-9110-01046f9e14a5"},"vehicle_type_id":"4","last_reported":1721923844,"current_range_meters":24000,"station_id":"","pricing_plan_id":"cebpf4jnsgd1na2vs0mg"},{"bike_id":"b9c5b753-cd4b-4a06-9a4c-8b5f78b0b965","system_id":"levelo_inurba_marseille","lat":43.301117,"lon":5.398795,"is_reserved":false,"is_disabled":false,"rental_uris":{"android":"levelo://app?vid=b9c5b753-cd4b-4a06-9a4c-8b5f78b0b965","ios":"levelo://app?vid=b9c5b753-cd4b-4a06-9a4c-8b5f78b0b965"},"vehicle_type_id":"4","last_reported":1721923844,"current_range_meters":24800,"station_id":"ce4bh0h2rcd13ifvqd40","pricing_plan_id":"cebpf4jnsgd1na2vs0mg"},{"bike_id":"93f69221-fda1-41af-91dc-b715d8d5e333","system_id":"levelo_inurba_marseille","lat":43.301117,"lon":5.398795,"is_reserved":false,"is_disabled":false,"rental_uris":{"android":"levelo://app?vid=93f69221-fda1-41af-91dc-b715d8d5e333","ios":"levelo://app?vid=93f69221-fda1-41af-91dc-b715d8d5e333"},"vehicle_type_id":"4","last_reported":1721923844,"current_range_meters":9200,"station_id":"ce4bh0h2rcd13ifvqd40","pricing_plan_id":"cebpf4jnsgd1na2vs0mg"},{"bike_id":"5ab5c25c-7d78-4414-8240-483f8943d5ea","system_id":"levelo_inurba_marseille","lat":43.301117,"lon":5.398795,"is_reserved":false,"is_disabled":false,"rental_uris":{"android":"levelo://app?vid=5ab5c25c-7d78-4414-8240-483f8943d5ea","ios":"levelo://app?vid=5ab5c25c-7d78-4414-8240-483f8943d5ea"},"vehicle_type_id":"4","last_reported":1721923844,"current_range_meters":0,"station_id":"ce4bh0h2rcd13ifvqd40","pricing_plan_id":"cebpf4jnsgd1na2vs0mg"},{"bike_id":"f5ee0a3a-b6ba-49ea-a042-b35ec822a6ab","system_id":"levelo_inurba_marseille","lat":43.301117,"lon":5.398795,"is_reserved":false,"is_disabled":false,"rental_uris":{"android":"levelo://app?vid=f5ee0a3a-b6ba-49ea-a042-b35ec822a6ab","ios":"levelo://app?vid=f5ee0a3a-b6ba-49ea-a042-b35ec822a6ab"},"vehicle_type_id":"4","last_reported":1721923844,"current_range_meters":3600,"station_id":"ce4bh0h2rcd13ifvqd40","pricing_plan_id":"cebpf4jnsgd1na2vs0mg"},{"bike_id":"9eb272b8-383c-4d6b-88d1-1881c334b5f1","system_id":"levelo_inurba_marseille","lat":43.301117,"lon":5.398795,"is_reserved":false,"is_disabled":false,"rental_uris":{"android":"levelo://app?vid=9eb272b8-383c-4d6b-88d1-1881c334b5f1","ios":"levelo://app?vid=9eb272b8-383c-4d6b-88d1-1881c334b5f1"},"vehicle_type_id":"4","last_reported":1721923844,"current_range_meters":27200,"station_id":"ce4bh0h2rcd13ifvqd40","pricing_plan_id":"cebpf4jnsgd1na2vs0mg"},{"bike_id":"2dac3164-8f90-4859-8a78-7d975a535493","system_id":"levelo_inurba_marseille","lat":43.286961,"lon":5.373785,"is_reserved":false,"is_disabled":false,"rental_uris":{"android":"levelo://app?vid=2dac3164-8f90-4859-8a78-7d975a535493","ios":"levelo://app?vid=2dac3164-8f90-4859-8a78-7d975a535493"},"vehicle_type_id":"4","last_reported":1721923844,"current_range_meters":0,"station_id":"ce4bh3p2rcd13ifvqdq0","pricing_plan_id":"cebpf4jnsgd1na2vs0mg"},{"bike_id":"fa20e679-261f-4fa8-9fc7-85b950c0d93d","system_id":"levelo_inurba_marseille","lat":43.298681,"lon":5.397225,"is_reserved":false,"is_disabled":false,"rental_uris":{"android":"levelo://app?vid=fa20e679-261f-4fa8-9fc7-85b950c0d93d","ios":"levelo://app?vid=fa20e679-261f-4fa8-9fc7-85b950c0d93d"},"vehicle_type_id":"4","last_reported":1721923844,"current_range_meters":22000,"station_id":"ce4bh0h2rcd13ifvqd50","pricing_plan_id":"cebpf4jnsgd1na2vs0mg"},{"bike_id":"d2f3eb8e-34e1-4f08-9bde-a90d544a06f9","system_id":"levelo_inurba_marseille","lat":43.286593,"lon":5.363346,"is_reserved":false,"is_disabled":false,"rental_uris":{"android":"levelo://app?vid=d2f3eb8e-34e1-4f08-9bde-a90d544a06f9","ios":"levelo://app?vid=d2f3eb8e-34e1-4f08-9bde-a90d544a06f9"},"vehicle_type_id":"4","last_reported":1721923844,"current_range_meters":28800,"station_id":"ce4bhah2rcd13ifvqej0","pricing_plan_id":"cebpf4jnsgd1na2vs0mg"},{"bike_id":"f2dd8fc2-5cb9-4bb3-9ef8-85846a3adec9","system_id":"levelo_inurba_marseille","lat":43.28656,"lon":5.36343,"is_reserved":false,"is_disabled":false,"rental_uris":{"android":"levelo://app?vid=f2dd8fc2-5cb9-4bb3-9ef8-85846a3adec9","ios":"levelo://app?vid=f2dd8fc2-5cb9-4bb3-9ef8-85846a3adec9"},"vehicle_type_id":"4","last_reported":1721923844,"current_range_meters":800,"station_id":"ce4bhah2rcd13ifvqej0","pricing_plan_id":"cebpf4jnsgd1na2vs0mg"},{"bike_id":"8248cc9c-370d-47c2-ba25-b7b0a58e8f50","system_id":"levelo_inurba_marseille","lat":43.28652,"lon":5.363567,"is_reserved":false,"is_disabled":false,"rental_uris":{"android":"levelo://app?vid=8248cc9c-370d-47c2-ba25-b7b0a58e8f50","ios":"levelo://app?vid=8248cc9c-370d-47c2-ba25-b7b0a58e8f50"},"vehicle_type_id":"4","last_reported":1721923844,"current_range_meters":3200,"station_id":"ce4bhah2rcd13ifvqej0","pricing_plan_id":"cebpf4jnsgd1na2vs0mg"},{"bike_id":"7ab7e4b7-c3f6-455e-aa30-7c8b75ba797e","system_id":"levelo_inurba_marseille","lat":43.302759,"lon":5.400793,"is_reserved":false,"is_disabled":false,"rental_uris":{"android":"levelo://app?vid=7ab7e4b7-c3f6-455e-aa30-7c8b75ba797e","ios":"levelo://app?vid=7ab7e4b7-c3f6-455e-aa30-7c8b75ba797e"},"vehicle_type_id":"4","last_reported":1721923844,"current_range_meters":5200,"station_id":"ce4bgvh2rcd13ifvqcs0","pricing_plan_id":"cebpf4jnsgd1na2vs0mg"},{"bike_id":"89d19b62-d2a4-496d-9dca-a21cb1fd3c2d","system_id":"levelo_inurba_marseille","lat":43.302759,"lon":5.400793,"is_reserved":false,"is_disabled":false,"rental_uris":{"android":"levelo://app?vid=89d19b62-d2a4-496d-9dca-a21cb1fd3c2d","ios":"levelo://app?vid=89d19b62-d2a4-496d-9dca-a21cb1fd3c2d"},"vehicle_type_id":"4","last_reported":1721923844,"current_range_meters":31200,"station_id":"ce4bgvh2rcd13ifvqcs0","pricing_plan_id":"cebpf4jnsgd1na2vs0mg"},{"bike_id":"be6981e1-708e-4e27-8d5d-d08c9e340714","system_id":"levelo_inurba_marseille","lat":43.29031,"lon":5.38642,"is_reserved":false,"is_disabled":false,"rental_uris":{"android":"levelo://app?vid=be6981e1-708e-4e27-8d5d-d08c9e340714","ios":"levelo://app?vid=be6981e1-708e-4e27-8d5d-d08c9e340714"},"vehicle_type_id":"4","last_reported":1721923844,"current_range_meters":0,"station_id":"ce4bh4p2rcd13ifvqe0g","pricing_plan_id":"cebpf4jnsgd1na2vs0mg"},{"bike_id":"8a77d235-f016-48ca-82cf-fd17605da34b","system_id":"levelo_inurba_marseille","lat":43.302759,"lon":5.400793,"is_reserved":false,"is_disabled":false,"rental_uris":{"android":"levelo://app?vid=8a77d235-f016-48ca-82cf-fd17605da34b","ios":"levelo://app?vid=8a77d235-f016-48ca-82cf-fd17605da34b"},"vehicle_type_id":"4","last_reported":1721923844,"current_range_meters":4000,"station_id":"ce4bgvh2rcd13ifvqcs0","pricing_plan_id":"cebpf4jnsgd1na2vs0mg"},{"bike_id":"17797f24-8b40-4597-92b9-d1e04f493365","system_id":"levelo_inurba_marseille","lat":43.302759,"lon":5.400793,"is_reserved":false,"is_disabled":false,"rental_uris":{"android":"levelo://app?vid=17797f24-8b40-4597-92b9-d1e04f493365","ios":"levelo://app?vid=17797f24-8b40-4597-92b9-d1e04f493365"},"vehicle_type_id":"4","last_reported":1721923844,"current_range_meters":8800,"station_id":"ce4bgvh2rcd13ifvqcs0","pricing_plan_id":"cebpf4jnsgd1na2vs0mg"},{"bike_id":"d8e91378-9cea-44f9-9b88-6be1c930a1ab","system_id":"levelo_inurba_marseille","lat":43.302759,"lon":5.400793,"is_reserved":false,"is_disabled":false,"rental_uris":{"android":"levelo://app?vid=d8e91378-9cea-44f9-9b88-6be1c930a1ab","ios":"levelo://app?vid=d8e91378-9cea-44f9-9b88-6be1c930a1ab"},"vehicle_type_id":"4","last_reported":1721923844,"current_range_meters":5200,"station_id":"ce4bgvh2rcd13ifvqcs0","pricing_plan_id":"cebpf4jnsgd1na2vs0mg"},{"bike_id":"d5fd8639-8838-4bd2-8d96-2b19b6e20be6","system_id":"levelo_inurba_marseille","lat":43.302759,"lon":5.400793,"is_reserved":false,"is_disabled":false,"rental_uris":{"android":"levelo://app?vid=d5fd8639-8838-4bd2-8d96-2b19b6e20be6","ios":"levelo://app?vid=d5fd8639-8838-4bd2-8d96-2b19b6e20be6"},"vehicle_type_id":"4","last_reported":1721923844,"current_range_meters":6400,"station_id":"ce4bgvh2rcd13ifvqcs0","pricing_plan_id":"cebpf4jnsgd1na2vs0mg"},{"bike_id":"7221a488-69ae-49b9-8319-b7f7a7610ab9","system_id":"levelo_inurba_marseille","lat":43.302759,"lon":5.400793,"is_reserved":false,"is_disabled":false,"rental_uris":{"android":"levelo://app?vid=7221a488-69ae-49b9-8319-b7f7a7610ab9","ios":"levelo://app?vid=7221a488-69ae-49b9-8319-b7f7a7610ab9"},"vehicle_type_id":"4","last_reported":1721923844,"current_range_meters":25600,"station_id":"ce4bgvh2rcd13ifvqcs0","pricing_plan_id":"cebpf4jnsgd1na2vs0mg"},{"bike_id":"596cca2e-2753-4f5b-9026-16f6151321aa","system_id":"levelo_inurba_marseille","lat":43.302759,"lon":5.400793,"is_reserved":false,"is_disabled":false,"rental_uris":{"android":"levelo://app?vid=596cca2e-2753-4f5b-9026-16f6151321aa","ios":"levelo://app?vid=596cca2e-2753-4f5b-9026-16f6151321aa"},"vehicle_type_id":"4","last_reported":1721923844,"current_range_meters":3600,"station_id":"ce4bgvh2rcd13ifvqcs0","pricing_plan_id":"cebpf4jnsgd1na2vs0mg"},{"bike_id":"c19425b4-3aa2-4080-bd52-9dbf3d50c462","system_id":"levelo_inurba_marseille","lat":43.302759,"lon":5.400793,"is_reserved":false,"is_disabled":false,"rental_uris":{"android":"levelo://app?vid=c19425b4-3aa2-4080-bd52-9dbf3d50c462","ios":"levelo://app?vid=c19425b4-3aa2-4080-bd52-9dbf3d50c462"},"vehicle_type_id":"4","last_reported":1721923844,"current_range_meters":20800,"station_id":"ce4bgvh2rcd13ifvqcs0","pricing_plan_id":"cebpf4jnsgd1na2vs0mg"},{"bike_id":"fb3cd4e6-34d8-4bc9-a91d-98ac742e35ab","system_id":"levelo_inurba_marseille","lat":43.287184,"lon":5.37937,"is_reserved":false,"is_disabled":false,"rental_uris":{"android":"levelo://app?vid=fb3cd4e6-34d8-4bc9-a91d-98ac742e35ab","ios":"levelo://app?vid=fb3cd4e6-34d8-4bc9-a91d-98ac742e35ab"},"vehicle_type_id":"4","last_reported":1721923844,"current_range_meters":5600,"station_id":"ce4bh9p2rcd13ifvqec0","pricing_plan_id":"cebpf4jnsgd1na2vs0mg"},{"bike_id":"d8ee999c-b719-48e4-bd82-21275d576493","system_id":"levelo_inurba_marseille","lat":43.316828,"lon":5.404723,"is_reserved":false,"is_disabled":false,"rental_uris":{"android":"levelo://app?vid=d8ee999c-b719-48e4-bd82-21275d576493","ios":"levelo://app?vid=d8ee999c-b719-48e4-bd82-21275d576493"},"vehicle_type_id":"4","last_reported":1721923844,"current_range_meters":0,"station_id":"ce4bh012rcd13ifvqd00","pricing_plan_id":"cebpf4jnsgd1na2vs0mg"},{"bike_id":"7b813650-f926-4650-b920-0de9de4085f4","system_id":"levelo_inurba_marseille","lat":43.284534,"lon":5.358662,"is_reserved":false,"is_disabled":false,"rental_uris":{"android":"levelo://app?vid=7b813650-f926-4650-b920-0de9de4085f4","ios":"levelo://app?vid=7b813650-f926-4650-b920-0de9de4085f4"},"vehicle_type_id":"4","last_reported":1721923844,"current_range_meters":10400,"station_id":"ce4bhah2rcd13ifvqei0","pricing_plan_id":"cebpf4jnsgd1na2vs0mg"},{"bike_id":"1c53d3af-3235-415e-8654-4718e36fef50","system_id":"levelo_inurba_marseille","lat":43.284538,"lon":5.358657,"is_reserved":false,"is_disabled":false,"rental_uris":{"android":"levelo://app?vid=1c53d3af-3235-415e-8654-4718e36fef50","ios":"levelo://app?vid=1c53d3af-3235-415e-8654-4718e36fef50"},"vehicle_type_id":"4","last_reported":1721923844,"current_range_meters":3600,"station_id":"ce4bhah2rcd13ifvqei0","pricing_plan_id":"cebpf4jnsgd1na2vs0mg"},{"bike_id":"922d43a5-ae9f-4cb8-806c-bf3579bbe4b6","system_id":"levelo_inurba_marseille","lat":43.284538,"lon":5.358657,"is_reserved":false,"is_disabled":false,"rental_uris":{"android":"levelo://app?vid=922d43a5-ae9f-4cb8-806c-bf3579bbe4b6","ios":"levelo://app?vid=922d43a5-ae9f-4cb8-806c-bf3579bbe4b6"},"vehicle_type_id":"4","last_reported":1721923844,"current_range_meters":22400,"station_id":"ce4bhah2rcd13ifvqei0","pricing_plan_id":"cebpf4jnsgd1na2vs0mg"},{"bike_id":"bfd2a053-ce0e-4d42-b27d-f5b7534d351e","system_id":"levelo_inurba_marseille","lat":43.294314,"lon":5.397498,"is_reserved":false,"is_disabled":false,"rental_uris":{"android":"levelo://app?vid=bfd2a053-ce0e-4d42-b27d-f5b7534d351e","ios":"levelo://app?vid=bfd2a053-ce0e-4d42-b27d-f5b7534d351e"},"vehicle_type_id":"4","last_reported":1721923844,"current_range_meters":11200,"station_id":"ce4bh3h2rcd13ifvqdo0","pricing_plan_id":"cebpf4jnsgd1na2vs0mg"},{"bike_id":"7fba14a9-8db8-44d5-85e6-3cf94b03f37f","system_id":"levelo_inurba_marseille","lat":43.294314,"lon":5.397498,"is_reserved":false,"is_disabled":false,"rental_uris":{"android":"levelo://app?vid=7fba14a9-8db8-44d5-85e6-3cf94b03f37f","ios":"levelo://app?vid=7fba14a9-8db8-44d5-85e6-3cf94b03f37f"},"vehicle_type_id":"4","last_reported":1721923844,"current_range_meters":6000,"station_id":"ce4bh3h2rcd13ifvqdo0","pricing_plan_id":"cebpf4jnsgd1na2vs0mg"},{"bike_id":"652622c9-67d1-444d-9ce3-525be8a367eb","system_id":"levelo_inurba_marseille","lat":43.294397,"lon":5.397403,"is_reserved":false,"is_disabled":false,"rental_uris":{"android":"levelo://app?vid=652622c9-67d1-444d-9ce3-525be8a367eb","ios":"levelo://app?vid=652622c9-67d1-444d-9ce3-525be8a367eb"},"vehicle_type_id":"4","last_reported":1721923844,"current_range_meters":19600,"station_id":"ce4bh3h2rcd13ifvqdo0","pricing_plan_id":"cebpf4jnsgd1na2vs0mg"},{"bike_id":"c4c678f5-d56b-4772-b89a-96d81419dd82","system_id":"levelo_inurba_marseille","lat":43.29442,"lon":5.39746,"is_reserved":false,"is_disabled":false,"rental_uris":{"android":"levelo://app?vid=c4c678f5-d56b-4772-b89a-96d81419dd82","ios":"levelo://app?vid=c4c678f5-d56b-4772-b89a-96d81419dd82"},"vehicle_type_id":"4","last_reported":1721923844,"current_range_meters":0,"station_id":"ce4bh3h2rcd13ifvqdo0","pricing_plan_id":"cebpf4jnsgd1na2vs0mg"},{"bike_id":"7f341628-5965-410b-b34e-11a7fb35ff8e","system_id":"levelo_inurba_marseille","lat":43.28624,"lon":5.35105,"is_reserved":false,"is_disabled":false,"rental_uris":{"android":"levelo://app?vid=7f341628-5965-410b-b34e-11a7fb35ff8e","ios":"levelo://app?vid=7f341628-5965-410b-b34e-11a7fb35ff8e"},"vehicle_type_id":"4","last_reported":1721923844,"current_range_meters":14800,"station_id":"ce4bhch2rcd13ifvqeug","pricing_plan_id":"cebpf4jnsgd1na2vs0mg"},{"bike_id":"baf27a1c-4257-4017-9a78-e03720d5e23c","system_id":"levelo_inurba_marseille","lat":43.28621,"lon":5.35109,"is_reserved":false,"is_disabled":false,"rental_uris":{"android":"levelo://app?vid=baf27a1c-4257-4017-9a78-e03720d5e23c","ios":"levelo://app?vid=baf27a1c-4257-4017-9a78-e03720d5e23c"},"vehicle_type_id":"4","last_reported":1721923844,"current_range_meters":31200,"station_id":"ce4bhch2rcd13ifvqeug","pricing_plan_id":"cebpf4jnsgd1na2vs0mg"},{"bike_id":"f43a0541-55ed-4a9a-a5e1-4a85494f017b","system_id":"levelo_inurba_marseille","lat":43.28621,"lon":5.35107,"is_reserved":false,"is_disabled":false,"rental_uris":{"android":"levelo://app?vid=f43a0541-55ed-4a9a-a5e1-4a85494f017b","ios":"levelo://app?vid=f43a0541-55ed-4a9a-a5e1-4a85494f017b"},"vehicle_type_id":"4","last_reported":1721923844,"current_range_meters":31200,"station_id":"ce4bhch2rcd13ifvqeug","pricing_plan_id":"cebpf4jnsgd1na2vs0mg"},{"bike_id":"cd50178f-74f5-4a5c-93cb-b3505937943b","system_id":"levelo_inurba_marseille","lat":43.2862,"lon":5.35109,"is_reserved":false,"is_disabled":false,"rental_uris":{"android":"levelo://app?vid=cd50178f-74f5-4a5c-93cb-b3505937943b","ios":"levelo://app?vid=cd50178f-74f5-4a5c-93cb-b3505937943b"},"vehicle_type_id":"4","last_reported":1721923844,"current_range_meters":8400,"station_id":"ce4bhch2rcd13ifvqeug","pricing_plan_id":"cebpf4jnsgd1na2vs0mg"},{"bike_id":"1c292994-818e-4238-ac2d-85afe6dfa2ca","system_id":"levelo_inurba_marseille","lat":43.2862,"lon":5.35107,"is_reserved":false,"is_disabled":false,"rental_uris":{"android":"levelo://app?vid=1c292994-818e-4238-ac2d-85afe6dfa2ca","ios":"levelo://app?vid=1c292994-818e-4238-ac2d-85afe6dfa2ca"},"vehicle_type_id":"4","last_reported":1721923844,"current_range_meters":10400,"station_id":"ce4bhch2rcd13ifvqeug","pricing_plan_id":"cebpf4jnsgd1na2vs0mg"},{"bike_id":"2331dd9b-a284-47a5-a6f6-5f8e8206c6c4","system_id":"levelo_inurba_marseille","lat":43.286205,"lon":5.351051,"is_reserved":false,"is_disabled":false,"rental_uris":{"android":"levelo://app?vid=2331dd9b-a284-47a5-a6f6-5f8e8206c6c4","ios":"levelo://app?vid=2331dd9b-a284-47a5-a6f6-5f8e8206c6c4"},"vehicle_type_id":"4","last_reported":1721923844,"current_range_meters":11600,"station_id":"","pricing_plan_id":"cebpf4jnsgd1na2vs0mg"},{"bike_id":"50cf9037-6707-4bab-8bb9-1eb7828dd18b","system_id":"levelo_inurba_marseille","lat":43.28618,"lon":5.35111,"is_reserved":false,"is_disabled":false,"rental_uris":{"android":"levelo://app?vid=50cf9037-6707-4bab-8bb9-1eb7828dd18b","ios":"levelo://app?vid=50cf9037-6707-4bab-8bb9-1eb7828dd18b"},"vehicle_type_id":"4","last_reported":1721923844,"current_range_meters":14800,"station_id":"ce4bhch2rcd13ifvqeug","pricing_plan_id":"cebpf4jnsgd1na2vs0mg"},{"bike_id":"782381f0-f3b4-469b-bd80-50005d81a7ea","system_id":"levelo_inurba_marseille","lat":43.28619,"lon":5.35107,"is_reserved":false,"is_disabled":false,"rental_uris":{"android":"levelo://app?vid=782381f0-f3b4-469b-bd80-50005d81a7ea","ios":"levelo://app?vid=782381f0-f3b4-469b-bd80-50005d81a7ea"},"vehicle_type_id":"4","last_reported":1721923844,"current_range_meters":22800,"station_id":"ce4bhch2rcd13ifvqeug","pricing_plan_id":"cebpf4jnsgd1na2vs0mg"},{"bike_id":"4f22c34d-ed34-458f-bd6d-906c53a6e928","system_id":"levelo_inurba_marseille","lat":43.28619,"lon":5.35107,"is_reserved":false,"is_disabled":false,"rental_uris":{"android":"levelo://app?vid=4f22c34d-ed34-458f-bd6d-906c53a6e928","ios":"levelo://app?vid=4f22c34d-ed34-458f-bd6d-906c53a6e928"},"vehicle_type_id":"4","last_reported":1721923844,"current_range_meters":12800,"station_id":"ce4bhch2rcd13ifvqeug","pricing_plan_id":"cebpf4jnsgd1na2vs0mg"},{"bike_id":"376507f8-e83b-496a-b3b4-45f769ff891b","system_id":"levelo_inurba_marseille","lat":43.28618,"lon":5.3511,"is_reserved":false,"is_disabled":false,"rental_uris":{"android":"levelo://app?vid=376507f8-e83b-496a-b3b4-45f769ff891b","ios":"levelo://app?vid=376507f8-e83b-496a-b3b4-45f769ff891b"},"vehicle_type_id":"4","last_reported":1721923844,"current_range_meters":9600,"station_id":"ce4bhch2rcd13ifvqeug","pricing_plan_id":"cebpf4jnsgd1na2vs0mg"},{"bike_id":"d5073623-00db-4f1a-8b76-28754798b75a","system_id":"levelo_inurba_marseille","lat":43.28619,"lon":5.35106,"is_reserved":false,"is_disabled":false,"rental_uris":{"android":"levelo://app?vid=d5073623-00db-4f1a-8b76-28754798b75a","ios":"levelo://app?vid=d5073623-00db-4f1a-8b76-28754798b75a"},"vehicle_type_id":"4","last_reported":1721923844,"current_range_meters":14000,"station_id":"ce4bhch2rcd13ifvqeug","pricing_plan_id":"cebpf4jnsgd1na2vs0mg"},{"bike_id":"bfb66df4-b0b7-43f5-9c78-b7941e1c6db1","system_id":"levelo_inurba_marseille","lat":43.285856,"lon":5.350771,"is_reserved":false,"is_disabled":false,"rental_uris":{"android":"levelo://app?vid=bfb66df4-b0b7-43f5-9c78-b7941e1c6db1","ios":"levelo://app?vid=bfb66df4-b0b7-43f5-9c78-b7941e1c6db1"},"vehicle_type_id":"4","last_reported":1721923844,"current_range_meters":24800,"station_id":"ce4bhch2rcd13ifvqeug","pricing_plan_id":"cebpf4jnsgd1na2vs0mg"},{"bike_id":"eff2c856-4449-4cb3-b2d8-cdd6113edd14","system_id":"levelo_inurba_marseille","lat":43.28619,"lon":5.35105,"is_reserved":false,"is_disabled":false,"rental_uris":{"android":"levelo://app?vid=eff2c856-4449-4cb3-b2d8-cdd6113edd14","ios":"levelo://app?vid=eff2c856-4449-4cb3-b2d8-cdd6113edd14"},"vehicle_type_id":"4","last_reported":1721923844,"current_range_meters":31200,"station_id":"ce4bhch2rcd13ifvqeug","pricing_plan_id":"cebpf4jnsgd1na2vs0mg"},{"bike_id":"8a5980af-04a0-426f-a8a3-aad7f501adcf","system_id":"levelo_inurba_marseille","lat":43.28618,"lon":5.35107,"is_reserved":false,"is_disabled":false,"rental_uris":{"android":"levelo://app?vid=8a5980af-04a0-426f-a8a3-aad7f501adcf","ios":"levelo://app?vid=8a5980af-04a0-426f-a8a3-aad7f501adcf"},"vehicle_type_id":"4","last_reported":1721923844,"current_range_meters":21200,"station_id":"ce4bhch2rcd13ifvqeug","pricing_plan_id":"cebpf4jnsgd1na2vs0mg"},{"bike_id":"0f3416c2-70f7-417a-97b1-d5c386595910","system_id":"levelo_inurba_marseille","lat":43.286176,"lon":5.351073,"is_reserved":false,"is_disabled":false,"rental_uris":{"android":"levelo://app?vid=0f3416c2-70f7-417a-97b1-d5c386595910","ios":"levelo://app?vid=0f3416c2-70f7-417a-97b1-d5c386595910"},"vehicle_type_id":"4","last_reported":1721923844,"current_range_meters":9600,"station_id":"ce4bhch2rcd13ifvqeug","pricing_plan_id":"cebpf4jnsgd1na2vs0mg"},{"bike_id":"fcb67040-4a1b-4e0c-bf1e-536e55106c7a","system_id":"levelo_inurba_marseille","lat":43.28619,"lon":5.35102,"is_reserved":false,"is_disabled":false,"rental_uris":{"android":"levelo://app?vid=fcb67040-4a1b-4e0c-bf1e-536e55106c7a","ios":"levelo://app?vid=fcb67040-4a1b-4e0c-bf1e-536e55106c7a"},"vehicle_type_id":"4","last_reported":1721923844,"current_range_meters":21600,"station_id":"ce4bhch2rcd13ifvqeug","pricing_plan_id":"cebpf4jnsgd1na2vs0mg"},{"bike_id":"525a6546-143c-48ce-9a95-7a8e039bec44","system_id":"levelo_inurba_marseille","lat":43.286181,"lon":5.351046,"is_reserved":false,"is_disabled":false,"rental_uris":{"android":"levelo://app?vid=525a6546-143c-48ce-9a95-7a8e039bec44","ios":"levelo://app?vid=525a6546-143c-48ce-9a95-7a8e039bec44"},"vehicle_type_id":"4","last_reported":1721923844,"current_range_meters":23200,"station_id":"ce4bhch2rcd13ifvqeug","pricing_plan_id":"cebpf4jnsgd1na2vs0mg"},{"bike_id":"d1e98d01-da24-4043-a5d1-242cd98ce063","system_id":"levelo_inurba_marseille","lat":43.28617,"lon":5.35106,"is_reserved":false,"is_disabled":false,"rental_uris":{"android":"levelo://app?vid=d1e98d01-da24-4043-a5d1-242cd98ce063","ios":"levelo://app?vid=d1e98d01-da24-4043-a5d1-242cd98ce063"},"vehicle_type_id":"4","last_reported":1721923844,"current_range_meters":7200,"station_id":"ce4bhch2rcd13ifvqeug","pricing_plan_id":"cebpf4jnsgd1na2vs0mg"},{"bike_id":"7e4d41cc-0bf8-4707-a0e9-dd866a3b248e","system_id":"levelo_inurba_marseille","lat":43.231923,"lon":5.355545,"is_reserved":false,"is_disabled":false,"rental_uris":{"android":"levelo://app?vid=7e4d41cc-0bf8-4707-a0e9-dd866a3b248e","ios":"levelo://app?vid=7e4d41cc-0bf8-4707-a0e9-dd866a3b248e"},"vehicle_type_id":"4","last_reported":1721923844,"current_range_meters":0,"station_id":"ce4bhu92rcd13ifvqi70","pricing_plan_id":"cebpf4jnsgd1na2vs0mg"},{"bike_id":"d088dc9b-508b-4c89-b69e-1e9e6bc75be5","system_id":"levelo_inurba_marseille","lat":43.28616,"lon":5.35108,"is_reserved":false,"is_disabled":false,"rental_uris":{"android":"levelo://app?vid=d088dc9b-508b-4c89-b69e-1e9e6bc75be5","ios":"levelo://app?vid=d088dc9b-508b-4c89-b69e-1e9e6bc75be5"},"vehicle_type_id":"4","last_reported":1721923844,"current_range_meters":9600,"station_id":"ce4bhch2rcd13ifvqeug","pricing_plan_id":"cebpf4jnsgd1na2vs0mg"},{"bike_id":"93f87298-51ff-4c54-a369-d38a5af36ed0","system_id":"levelo_inurba_marseille","lat":43.28618,"lon":5.35099,"is_reserved":false,"is_disabled":false,"rental_uris":{"android":"levelo://app?vid=93f87298-51ff-4c54-a369-d38a5af36ed0","ios":"levelo://app?vid=93f87298-51ff-4c54-a369-d38a5af36ed0"},"vehicle_type_id":"4","last_reported":1721923844,"current_range_meters":30800,"station_id":"ce4bhch2rcd13ifvqeug","pricing_plan_id":"cebpf4jnsgd1na2vs0mg"},{"bike_id":"078b6129-6728-4d1b-8093-5183b03b83a2","system_id":"levelo_inurba_marseille","lat":43.28615,"lon":5.35108,"is_reserved":false,"is_disabled":false,"rental_uris":{"android":"levelo://app?vid=078b6129-6728-4d1b-8093-5183b03b83a2","ios":"levelo://app?vid=078b6129-6728-4d1b-8093-5183b03b83a2"},"vehicle_type_id":"4","last_reported":1721923844,"current_range_meters":10800,"station_id":"ce4bhch2rcd13ifvqeug","pricing_plan_id":"cebpf4jnsgd1na2vs0mg"},{"bike_id":"ff16bd36-e2d7-46c5-9c49-8ac407c1f09f","system_id":"levelo_inurba_marseille","lat":43.28616,"lon":5.35103,"is_reserved":false,"is_disabled":false,"rental_uris":{"android":"levelo://app?vid=ff16bd36-e2d7-46c5-9c49-8ac407c1f09f","ios":"levelo://app?vid=ff16bd36-e2d7-46c5-9c49-8ac407c1f09f"},"vehicle_type_id":"4","last_reported":1721923844,"current_range_meters":20400,"station_id":"ce4bhch2rcd13ifvqeug","pricing_plan_id":"cebpf4jnsgd1na2vs0mg"},{"bike_id":"c3e8840f-e782-464a-8891-680136d38927","system_id":"levelo_inurba_marseille","lat":43.285848,"lon":5.350787,"is_reserved":false,"is_disabled":false,"rental_uris":{"android":"levelo://app?vid=c3e8840f-e782-464a-8891-680136d38927","ios":"levelo://app?vid=c3e8840f-e782-464a-8891-680136d38927"},"vehicle_type_id":"4","last_reported":1721923844,"current_range_meters":8400,"station_id":"ce4bhch2rcd13ifvqeug","pricing_plan_id":"cebpf4jnsgd1na2vs0mg"},{"bike_id":"ddeb590f-cf3d-4595-9db0-dd4f38b22533","system_id":"levelo_inurba_marseille","lat":43.28614,"lon":5.35109,"is_reserved":false,"is_disabled":false,"rental_uris":{"android":"levelo://app?vid=ddeb590f-cf3d-4595-9db0-dd4f38b22533","ios":"levelo://app?vid=ddeb590f-cf3d-4595-9db0-dd4f38b22533"},"vehicle_type_id":"4","last_reported":1721923844,"current_range_meters":22000,"station_id":"ce4bhch2rcd13ifvqeug","pricing_plan_id":"cebpf4jnsgd1na2vs0mg"},{"bike_id":"b1dedaba-8f3b-4d3e-96fe-75beb82d2dff","system_id":"levelo_inurba_marseille","lat":43.28614,"lon":5.35108,"is_reserved":false,"is_disabled":false,"rental_uris":{"android":"levelo://app?vid=b1dedaba-8f3b-4d3e-96fe-75beb82d2dff","ios":"levelo://app?vid=b1dedaba-8f3b-4d3e-96fe-75beb82d2dff"},"vehicle_type_id":"4","last_reported":1721923844,"current_range_meters":31200,"station_id":"ce4bhch2rcd13ifvqeug","pricing_plan_id":"cebpf4jnsgd1na2vs0mg"},{"bike_id":"09bf8fc1-a590-428f-85f7-423af9384306","system_id":"levelo_inurba_marseille","lat":43.286105,"lon":5.351136,"is_reserved":false,"is_disabled":false,"rental_uris":{"android":"levelo://app?vid=09bf8fc1-a590-428f-85f7-423af9384306","ios":"levelo://app?vid=09bf8fc1-a590-428f-85f7-423af9384306"},"vehicle_type_id":"4","last_reported":1721923844,"current_range_meters":0,"station_id":"ce4bhgp2rcd13ifvqfc0","pricing_plan_id":"cebpf4jnsgd1na2vs0mg"},{"bike_id":"d4370fa4-638e-4797-b72d-dd9b12e9ae37","system_id":"levelo_inurba_marseille","lat":43.286136,"lon":5.351028,"is_reserved":false,"is_disabled":false,"rental_uris":{"android":"levelo://app?vid=d4370fa4-638e-4797-b72d-dd9b12e9ae37","ios":"levelo://app?vid=d4370fa4-638e-4797-b72d-dd9b12e9ae37"},"vehicle_type_id":"4","last_reported":1721923844,"current_range_meters":11200,"station_id":"","pricing_plan_id":"cebpf4jnsgd1na2vs0mg"},{"bike_id":"ed8b6e34-13d0-4283-b2c2-e17e26b77529","system_id":"levelo_inurba_marseille","lat":43.28615,"lon":5.35097,"is_reserved":false,"is_disabled":false,"rental_uris":{"android":"levelo://app?vid=ed8b6e34-13d0-4283-b2c2-e17e26b77529","ios":"levelo://app?vid=ed8b6e34-13d0-4283-b2c2-e17e26b77529"},"vehicle_type_id":"4","last_reported":1721923844,"current_range_meters":29200,"station_id":"ce4bhch2rcd13ifvqeug","pricing_plan_id":"cebpf4jnsgd1na2vs0mg"},{"bike_id":"da6fd656-1d72-4a76-bcd0-2586dcf5b3c4","system_id":"levelo_inurba_marseille","lat":43.28613,"lon":5.35103,"is_reserved":false,"is_disabled":false,"rental_uris":{"android":"levelo://app?vid=da6fd656-1d72-4a76-bcd0-2586dcf5b3c4","ios":"levelo://app?vid=da6fd656-1d72-4a76-bcd0-2586dcf5b3c4"},"vehicle_type_id":"4","last_reported":1721923844,"current_range_meters":6000,"station_id":"ce4bhch2rcd13ifvqeug","pricing_plan_id":"cebpf4jnsgd1na2vs0mg"},{"bike_id":"d2ec098e-28b1-4b03-9df5-a775244fece2","system_id":"levelo_inurba_marseille","lat":43.28611,"lon":5.35108,"is_reserved":false,"is_disabled":false,"rental_uris":{"android":"levelo://app?vid=d2ec098e-28b1-4b03-9df5-a775244fece2","ios":"levelo://app?vid=d2ec098e-28b1-4b03-9df5-a775244fece2"},"vehicle_type_id":"4","last_reported":1721923844,"current_range_meters":3200,"station_id":"ce4bhch2rcd13ifvqeug","pricing_plan_id":"cebpf4jnsgd1na2vs0mg"},{"bike_id":"17b1ec3a-7059-481d-aacb-a3a1798d1ce7","system_id":"levelo_inurba_marseille","lat":43.28613,"lon":5.351,"is_reserved":false,"is_disabled":false,"rental_uris":{"android":"levelo://app?vid=17b1ec3a-7059-481d-aacb-a3a1798d1ce7","ios":"levelo://app?vid=17b1ec3a-7059-481d-aacb-a3a1798d1ce7"},"vehicle_type_id":"4","last_reported":1721923844,"current_range_meters":30000,"station_id":"ce4bhch2rcd13ifvqeug","pricing_plan_id":"cebpf4jnsgd1na2vs0mg"},{"bike_id":"15bb5bd6-a798-432e-9416-10d4dc55a522","system_id":"levelo_inurba_marseille","lat":43.28611,"lon":5.35105,"is_reserved":false,"is_disabled":false,"rental_uris":{"android":"levelo://app?vid=15bb5bd6-a798-432e-9416-10d4dc55a522","ios":"levelo://app?vid=15bb5bd6-a798-432e-9416-10d4dc55a522"},"vehicle_type_id":"4","last_reported":1721923844,"current_range_meters":16400,"station_id":"ce4bhch2rcd13ifvqeug","pricing_plan_id":"cebpf4jnsgd1na2vs0mg"},{"bike_id":"7418894c-92c7-48b6-b227-5be879d34ddf","system_id":"levelo_inurba_marseille","lat":43.285848,"lon":5.350787,"is_reserved":false,"is_disabled":false,"rental_uris":{"android":"levelo://app?vid=7418894c-92c7-48b6-b227-5be879d34ddf","ios":"levelo://app?vid=7418894c-92c7-48b6-b227-5be879d34ddf"},"vehicle_type_id":"4","last_reported":1721923844,"current_range_meters":9600,"station_id":"ce4bhch2rcd13ifvqeug","pricing_plan_id":"cebpf4jnsgd1na2vs0mg"},{"bike_id":"55c81271-98d5-42e8-8d61-10618c931c89","system_id":"levelo_inurba_marseille","lat":43.28607,"lon":5.35107,"is_reserved":false,"is_disabled":false,"rental_uris":{"android":"levelo://app?vid=55c81271-98d5-42e8-8d61-10618c931c89","ios":"levelo://app?vid=55c81271-98d5-42e8-8d61-10618c931c89"},"vehicle_type_id":"4","last_reported":1721923844,"current_range_meters":1200,"station_id":"ce4bhch2rcd13ifvqeug","pricing_plan_id":"cebpf4jnsgd1na2vs0mg"},{"bike_id":"abd00152-6e7c-4c7e-82b3-7b2c6104d1f3","system_id":"levelo_inurba_marseille","lat":43.283998,"lon":5.375062,"is_reserved":false,"is_disabled":false,"rental_uris":{"android":"levelo://app?vid=abd00152-6e7c-4c7e-82b3-7b2c6104d1f3","ios":"levelo://app?vid=abd00152-6e7c-4c7e-82b3-7b2c6104d1f3"},"vehicle_type_id":"4","last_reported":1721923844,"current_range_meters":0,"station_id":"ce4bh412rcd13ifvqds0","pricing_plan_id":"cebpf4jnsgd1na2vs0mg"},{"bike_id":"df123db8-84d6-463d-9ec8-eb78daa1e18e","system_id":"levelo_inurba_marseille","lat":43.285713,"lon":5.350829,"is_reserved":false,"is_disabled":false,"rental_uris":{"android":"levelo://app?vid=df123db8-84d6-463d-9ec8-eb78daa1e18e","ios":"levelo://app?vid=df123db8-84d6-463d-9ec8-eb78daa1e18e"},"vehicle_type_id":"4","last_reported":1721923844,"current_range_meters":400,"station_id":"","pricing_plan_id":"cebpf4jnsgd1na2vs0mg"},{"bike_id":"a710cc7e-3fa7-4c51-8f1d-920daed0d9e1","system_id":"levelo_inurba_marseille","lat":43.286595,"lon":5.386795,"is_reserved":false,"is_disabled":false,"rental_uris":{"android":"levelo://app?vid=a710cc7e-3fa7-4c51-8f1d-920daed0d9e1","ios":"levelo://app?vid=a710cc7e-3fa7-4c51-8f1d-920daed0d9e1"},"vehicle_type_id":"4","last_reported":1721923844,"current_range_meters":8000,"station_id":"ce4bh492rcd13ifvqdug","pricing_plan_id":"cebpf4jnsgd1na2vs0mg"},{"bike_id":"32dcc7d6-66c9-4b6f-af0a-35a376876df5","system_id":"levelo_inurba_marseille","lat":43.33717,"lon":5.391857,"is_reserved":false,"is_disabled":false,"rental_uris":{"android":"levelo://app?vid=32dcc7d6-66c9-4b6f-af0a-35a376876df5","ios":"levelo://app?vid=32dcc7d6-66c9-4b6f-af0a-35a376876df5"},"vehicle_type_id":"4","last_reported":1721923844,"current_range_meters":13200,"station_id":"ce4bhr92rcd13ifvqhsg","pricing_plan_id":"cebpf4jnsgd1na2vs0mg"},{"bike_id":"09c22142-5ac8-40e8-a4bf-c97f02441000","system_id":"levelo_inurba_marseille","lat":43.321747,"lon":5.40695,"is_reserved":false,"is_disabled":false,"rental_uris":{"android":"levelo://app?vid=09c22142-5ac8-40e8-a4bf-c97f02441000","ios":"levelo://app?vid=09c22142-5ac8-40e8-a4bf-c97f02441000"},"vehicle_type_id":"4","last_reported":1721923844,"current_range_meters":13200,"station_id":"","pricing_plan_id":"cebpf4jnsgd1na2vs0mg"},{"bike_id":"edb83e20-b0ec-4402-b1dc-b9d545e883cc","system_id":"levelo_inurba_marseille","lat":43.337253,"lon":5.391833,"is_reserved":false,"is_disabled":false,"rental_uris":{"android":"levelo://app?vid=edb83e20-b0ec-4402-b1dc-b9d545e883cc","ios":"levelo://app?vid=edb83e20-b0ec-4402-b1dc-b9d545e883cc"},"vehicle_type_id":"4","last_reported":1721923844,"current_range_meters":13600,"station_id":"ce4bhr92rcd13ifvqhsg","pricing_plan_id":"cebpf4jnsgd1na2vs0mg"},{"bike_id":"657f37ce-de74-479a-a45f-d1263a77f960","system_id":"levelo_inurba_marseille","lat":43.33717,"lon":5.391857,"is_reserved":false,"is_disabled":false,"rental_uris":{"android":"levelo://app?vid=657f37ce-de74-479a-a45f-d1263a77f960","ios":"levelo://app?vid=657f37ce-de74-479a-a45f-d1263a77f960"},"vehicle_type_id":"4","last_reported":1721923844,"current_range_meters":24400,"station_id":"ce4bhr92rcd13ifvqhsg","pricing_plan_id":"cebpf4jnsgd1na2vs0mg"},{"bike_id":"73bd4a1d-e3dc-439f-8ca8-5bee70aed885","system_id":"levelo_inurba_marseille","lat":43.33717,"lon":5.391857,"is_reserved":false,"is_disabled":false,"rental_uris":{"android":"levelo://app?vid=73bd4a1d-e3dc-439f-8ca8-5bee70aed885","ios":"levelo://app?vid=73bd4a1d-e3dc-439f-8ca8-5bee70aed885"},"vehicle_type_id":"4","last_reported":1721923844,"current_range_meters":24400,"station_id":"ce4bhr92rcd13ifvqhsg","pricing_plan_id":"cebpf4jnsgd1na2vs0mg"},{"bike_id":"341523a2-696b-4c8a-946a-471dd64fe4d9","system_id":"levelo_inurba_marseille","lat":43.337298,"lon":5.391838,"is_reserved":false,"is_disabled":false,"rental_uris":{"android":"levelo://app?vid=341523a2-696b-4c8a-946a-471dd64fe4d9","ios":"levelo://app?vid=341523a2-696b-4c8a-946a-471dd64fe4d9"},"vehicle_type_id":"4","last_reported":1721923844,"current_range_meters":23200,"station_id":"ce4bhr92rcd13ifvqhsg","pricing_plan_id":"cebpf4jnsgd1na2vs0mg"},{"bike_id":"b85078b3-aac7-47a5-aa98-054f30f6caae","system_id":"levelo_inurba_marseille","lat":43.284787,"lon":5.384116,"is_reserved":false,"is_disabled":false,"rental_uris":{"android":"levelo://app?vid=b85078b3-aac7-47a5-aa98-054f30f6caae","ios":"levelo://app?vid=b85078b3-aac7-47a5-aa98-054f30f6caae"},"vehicle_type_id":"4","last_reported":1721923844,"current_range_meters":25600,"station_id":"ce4bh512rcd13ifvqe3g","pricing_plan_id":"cebpf4jnsgd1na2vs0mg"},{"bike_id":"2bde6bea-b958-4dfb-8a46-76157faf9a6f","system_id":"levelo_inurba_marseille","lat":43.284793,"lon":5.384113,"is_reserved":false,"is_disabled":false,"rental_uris":{"android":"levelo://app?vid=2bde6bea-b958-4dfb-8a46-76157faf9a6f","ios":"levelo://app?vid=2bde6bea-b958-4dfb-8a46-76157faf9a6f"},"vehicle_type_id":"4","last_reported":1721923844,"current_range_meters":4400,"station_id":"ce4bh512rcd13ifvqe3g","pricing_plan_id":"cebpf4jnsgd1na2vs0mg"},{"bike_id":"b8e3fa05-594a-4d88-9e7a-6a058fc5bbdf","system_id":"levelo_inurba_marseille","lat":43.284793,"lon":5.384119,"is_reserved":false,"is_disabled":false,"rental_uris":{"android":"levelo://app?vid=b8e3fa05-594a-4d88-9e7a-6a058fc5bbdf","ios":"levelo://app?vid=b8e3fa05-594a-4d88-9e7a-6a058fc5bbdf"},"vehicle_type_id":"4","last_reported":1721923844,"current_range_meters":16000,"station_id":"ce4bh512rcd13ifvqe3g","pricing_plan_id":"cebpf4jnsgd1na2vs0mg"},{"bike_id":"bb6d9b99-a475-4f40-8c7e-3ba781bb7b61","system_id":"levelo_inurba_marseille","lat":43.284793,"lon":5.384113,"is_reserved":false,"is_disabled":false,"rental_uris":{"android":"levelo://app?vid=bb6d9b99-a475-4f40-8c7e-3ba781bb7b61","ios":"levelo://app?vid=bb6d9b99-a475-4f40-8c7e-3ba781bb7b61"},"vehicle_type_id":"4","last_reported":1721923844,"current_range_meters":0,"station_id":"ce4bh512rcd13ifvqe3g","pricing_plan_id":"cebpf4jnsgd1na2vs0mg"},{"bike_id":"247d9deb-2f98-44ac-8c1d-e3190c33819f","system_id":"levelo_inurba_marseille","lat":43.284793,"lon":5.384113,"is_reserved":false,"is_disabled":false,"rental_uris":{"android":"levelo://app?vid=247d9deb-2f98-44ac-8c1d-e3190c33819f","ios":"levelo://app?vid=247d9deb-2f98-44ac-8c1d-e3190c33819f"},"vehicle_type_id":"4","last_reported":1721923844,"current_range_meters":6400,"station_id":"ce4bh512rcd13ifvqe3g","pricing_plan_id":"cebpf4jnsgd1na2vs0mg"},{"bike_id":"cf627785-aa24-4d4c-94c9-321120b25338","system_id":"levelo_inurba_marseille","lat":43.294314,"lon":5.397498,"is_reserved":false,"is_disabled":false,"rental_uris":{"android":"levelo://app?vid=cf627785-aa24-4d4c-94c9-321120b25338","ios":"levelo://app?vid=cf627785-aa24-4d4c-94c9-321120b25338"},"vehicle_type_id":"4","last_reported":1721923844,"current_range_meters":18800,"station_id":"ce4bh3h2rcd13ifvqdo0","pricing_plan_id":"cebpf4jnsgd1na2vs0mg"},{"bike_id":"86338601-c426-43b5-81e1-1754ffb7ce6a","system_id":"levelo_inurba_marseille","lat":43.284787,"lon":5.384116,"is_reserved":false,"is_disabled":false,"rental_uris":{"android":"levelo://app?vid=86338601-c426-43b5-81e1-1754ffb7ce6a","ios":"levelo://app?vid=86338601-c426-43b5-81e1-1754ffb7ce6a"},"vehicle_type_id":"4","last_reported":1721923844,"current_range_meters":800,"station_id":"ce4bh512rcd13ifvqe3g","pricing_plan_id":"cebpf4jnsgd1na2vs0mg"},{"bike_id":"b395cf05-b370-4e80-b9af-79558c8d4fad","system_id":"levelo_inurba_marseille","lat":43.284787,"lon":5.384116,"is_reserved":false,"is_disabled":false,"rental_uris":{"android":"levelo://app?vid=b395cf05-b370-4e80-b9af-79558c8d4fad","ios":"levelo://app?vid=b395cf05-b370-4e80-b9af-79558c8d4fad"},"vehicle_type_id":"4","last_reported":1721923844,"current_range_meters":26800,"station_id":"ce4bh512rcd13ifvqe3g","pricing_plan_id":"cebpf4jnsgd1na2vs0mg"},{"bike_id":"cca32635-f63e-4d31-badf-fb65f222e452","system_id":"levelo_inurba_marseille","lat":43.288613,"lon":5.39318,"is_reserved":false,"is_disabled":false,"rental_uris":{"android":"levelo://app?vid=cca32635-f63e-4d31-badf-fb65f222e452","ios":"levelo://app?vid=cca32635-f63e-4d31-badf-fb65f222e452"},"vehicle_type_id":"4","last_reported":1721923844,"current_range_meters":0,"station_id":"ce4bh2p2rcd13ifvqdi0","pricing_plan_id":"cebpf4jnsgd1na2vs0mg"},{"bike_id":"c3b61838-a939-4528-a834-db566b58271a","system_id":"levelo_inurba_marseille","lat":43.284793,"lon":5.384119,"is_reserved":false,"is_disabled":false,"rental_uris":{"android":"levelo://app?vid=c3b61838-a939-4528-a834-db566b58271a","ios":"levelo://app?vid=c3b61838-a939-4528-a834-db566b58271a"},"vehicle_type_id":"4","last_reported":1721923844,"current_range_meters":16000,"station_id":"ce4bh512rcd13ifvqe3g","pricing_plan_id":"cebpf4jnsgd1na2vs0mg"},{"bike_id":"a85d421e-c28b-4873-9e02-b30b1d2be2f7","system_id":"levelo_inurba_marseille","lat":43.283494,"lon":5.380945,"is_reserved":false,"is_disabled":false,"rental_uris":{"android":"levelo://app?vid=a85d421e-c28b-4873-9e02-b30b1d2be2f7","ios":"levelo://app?vid=a85d421e-c28b-4873-9e02-b30b1d2be2f7"},"vehicle_type_id":"4","last_reported":1721923844,"current_range_meters":0,"station_id":"ce4bh412rcd13ifvqdr0","pricing_plan_id":"cebpf4jnsgd1na2vs0mg"},{"bike_id":"ff660166-48bf-43d8-b2f5-5cad946e53e3","system_id":"levelo_inurba_marseille","lat":43.284256,"lon":5.349956,"is_reserved":false,"is_disabled":false,"rental_uris":{"android":"levelo://app?vid=ff660166-48bf-43d8-b2f5-5cad946e53e3","ios":"levelo://app?vid=ff660166-48bf-43d8-b2f5-5cad946e53e3"},"vehicle_type_id":"4","last_reported":1721923844,"current_range_meters":13600,"station_id":"ce4bhbh2rcd13ifvqepg","pricing_plan_id":"cebpf4jnsgd1na2vs0mg"},{"bike_id":"d0b06101-bdfb-4409-aede-c6c70ccc8c46","system_id":"levelo_inurba_marseille","lat":43.28428,"lon":5.34987,"is_reserved":false,"is_disabled":false,"rental_uris":{"android":"levelo://app?vid=d0b06101-bdfb-4409-aede-c6c70ccc8c46","ios":"levelo://app?vid=d0b06101-bdfb-4409-aede-c6c70ccc8c46"},"vehicle_type_id":"4","last_reported":1721923844,"current_range_meters":28400,"station_id":"ce4bhbh2rcd13ifvqepg","pricing_plan_id":"cebpf4jnsgd1na2vs0mg"},{"bike_id":"e6f7a545-65f6-45e7-a842-5dc92ed42df2","system_id":"levelo_inurba_marseille","lat":43.28428,"lon":5.34987,"is_reserved":false,"is_disabled":false,"rental_uris":{"android":"levelo://app?vid=e6f7a545-65f6-45e7-a842-5dc92ed42df2","ios":"levelo://app?vid=e6f7a545-65f6-45e7-a842-5dc92ed42df2"},"vehicle_type_id":"4","last_reported":1721923844,"current_range_meters":24000,"station_id":"ce4bhbh2rcd13ifvqepg","pricing_plan_id":"cebpf4jnsgd1na2vs0mg"},{"bike_id":"237c1c62-72a8-415d-9475-9bf637d3cb1a","system_id":"levelo_inurba_marseille","lat":43.28424,"lon":5.34997,"is_reserved":false,"is_disabled":false,"rental_uris":{"android":"levelo://app?vid=237c1c62-72a8-415d-9475-9bf637d3cb1a","ios":"levelo://app?vid=237c1c62-72a8-415d-9475-9bf637d3cb1a"},"vehicle_type_id":"4","last_reported":1721923844,"current_range_meters":30800,"station_id":"ce4bhbh2rcd13ifvqepg","pricing_plan_id":"cebpf4jnsgd1na2vs0mg"},{"bike_id":"4de214ea-05c3-43c3-9e15-ee06efb25229","system_id":"levelo_inurba_marseille","lat":43.28428,"lon":5.34984,"is_reserved":false,"is_disabled":false,"rental_uris":{"android":"levelo://app?vid=4de214ea-05c3-43c3-9e15-ee06efb25229","ios":"levelo://app?vid=4de214ea-05c3-43c3-9e15-ee06efb25229"},"vehicle_type_id":"4","last_reported":1721923844,"current_range_meters":4800,"station_id":"ce4bhbh2rcd13ifvqepg","pricing_plan_id":"cebpf4jnsgd1na2vs0mg"},{"bike_id":"edab4ec2-0d96-41e5-87eb-feb81c416760","system_id":"levelo_inurba_marseille","lat":43.284252,"lon":5.349911,"is_reserved":false,"is_disabled":false,"rental_uris":{"android":"levelo://app?vid=edab4ec2-0d96-41e5-87eb-feb81c416760","ios":"levelo://app?vid=edab4ec2-0d96-41e5-87eb-feb81c416760"},"vehicle_type_id":"4","last_reported":1721923844,"current_range_meters":16400,"station_id":"ce4bhbh2rcd13ifvqepg","pricing_plan_id":"cebpf4jnsgd1na2vs0mg"},{"bike_id":"49b9d9c8-ecba-4867-a0bb-0ceb52979b81","system_id":"levelo_inurba_marseille","lat":43.284274,"lon":5.349831,"is_reserved":false,"is_disabled":false,"rental_uris":{"android":"levelo://app?vid=49b9d9c8-ecba-4867-a0bb-0ceb52979b81","ios":"levelo://app?vid=49b9d9c8-ecba-4867-a0bb-0ceb52979b81"},"vehicle_type_id":"4","last_reported":1721923844,"current_range_meters":29600,"station_id":"ce4bhbh2rcd13ifvqepg","pricing_plan_id":"cebpf4jnsgd1na2vs0mg"},{"bike_id":"e4c1928f-0fc2-4348-980c-346857767eaa","system_id":"levelo_inurba_marseille","lat":43.284237,"lon":5.349939,"is_reserved":false,"is_disabled":false,"rental_uris":{"android":"levelo://app?vid=e4c1928f-0fc2-4348-980c-346857767eaa","ios":"levelo://app?vid=e4c1928f-0fc2-4348-980c-346857767eaa"},"vehicle_type_id":"4","last_reported":1721923844,"current_range_meters":9200,"station_id":"ce4bhbh2rcd13ifvqepg","pricing_plan_id":"cebpf4jnsgd1na2vs0mg"},{"bike_id":"f2acc05c-47c1-4f33-a56c-ab6b230d528c","system_id":"levelo_inurba_marseille","lat":43.28425,"lon":5.34987,"is_reserved":false,"is_disabled":false,"rental_uris":{"android":"levelo://app?vid=f2acc05c-47c1-4f33-a56c-ab6b230d528c","ios":"levelo://app?vid=f2acc05c-47c1-4f33-a56c-ab6b230d528c"},"vehicle_type_id":"4","last_reported":1721923844,"current_range_meters":24000,"station_id":"ce4bhbh2rcd13ifvqepg","pricing_plan_id":"cebpf4jnsgd1na2vs0mg"},{"bike_id":"0877d024-474b-4ecb-98fa-4be4192e7ca0","system_id":"levelo_inurba_marseille","lat":43.284227,"lon":5.349933,"is_reserved":false,"is_disabled":false,"rental_uris":{"android":"levelo://app?vid=0877d024-474b-4ecb-98fa-4be4192e7ca0","ios":"levelo://app?vid=0877d024-474b-4ecb-98fa-4be4192e7ca0"},"vehicle_type_id":"4","last_reported":1721923844,"current_range_meters":17600,"station_id":"ce4bhbh2rcd13ifvqepg","pricing_plan_id":"cebpf4jnsgd1na2vs0mg"},{"bike_id":"afd6e85c-4581-40ef-a1b1-c71e8dd77474","system_id":"levelo_inurba_marseille","lat":43.28427,"lon":5.349746,"is_reserved":false,"is_disabled":false,"rental_uris":{"android":"levelo://app?vid=afd6e85c-4581-40ef-a1b1-c71e8dd77474","ios":"levelo://app?vid=afd6e85c-4581-40ef-a1b1-c71e8dd77474"},"vehicle_type_id":"4","last_reported":1721923844,"current_range_meters":10400,"station_id":"ce4bhbh2rcd13ifvqepg","pricing_plan_id":"cebpf4jnsgd1na2vs0mg"},{"bike_id":"183184dd-f4b1-4300-b5b1-251ed2a696ce","system_id":"levelo_inurba_marseille","lat":43.28424,"lon":5.34984,"is_reserved":false,"is_disabled":false,"rental_uris":{"android":"levelo://app?vid=183184dd-f4b1-4300-b5b1-251ed2a696ce","ios":"levelo://app?vid=183184dd-f4b1-4300-b5b1-251ed2a696ce"},"vehicle_type_id":"4","last_reported":1721923844,"current_range_meters":13200,"station_id":"ce4bhbh2rcd13ifvqepg","pricing_plan_id":"cebpf4jnsgd1na2vs0mg"},{"bike_id":"20f8e325-ba9e-47b2-b3dc-4a191a62de87","system_id":"levelo_inurba_marseille","lat":43.28421,"lon":5.349921,"is_reserved":false,"is_disabled":false,"rental_uris":{"android":"levelo://app?vid=20f8e325-ba9e-47b2-b3dc-4a191a62de87","ios":"levelo://app?vid=20f8e325-ba9e-47b2-b3dc-4a191a62de87"},"vehicle_type_id":"4","last_reported":1721923844,"current_range_meters":31200,"station_id":"ce4bhbh2rcd13ifvqepg","pricing_plan_id":"cebpf4jnsgd1na2vs0mg"},{"bike_id":"eba57366-90b3-42dc-9c60-24e38435d829","system_id":"levelo_inurba_marseille","lat":43.28424,"lon":5.34982,"is_reserved":false,"is_disabled":false,"rental_uris":{"android":"levelo://app?vid=eba57366-90b3-42dc-9c60-24e38435d829","ios":"levelo://app?vid=eba57366-90b3-42dc-9c60-24e38435d829"},"vehicle_type_id":"4","last_reported":1721923844,"current_range_meters":18800,"station_id":"ce4bhbh2rcd13ifvqepg","pricing_plan_id":"cebpf4jnsgd1na2vs0mg"},{"bike_id":"98e0d3de-0c1b-4872-8738-e575e902d36f","system_id":"levelo_inurba_marseille","lat":43.28421,"lon":5.34991,"is_reserved":false,"is_disabled":false,"rental_uris":{"android":"levelo://app?vid=98e0d3de-0c1b-4872-8738-e575e902d36f","ios":"levelo://app?vid=98e0d3de-0c1b-4872-8738-e575e902d36f"},"vehicle_type_id":"4","last_reported":1721923844,"current_range_meters":24800,"station_id":"ce4bhbh2rcd13ifvqepg","pricing_plan_id":"cebpf4jnsgd1na2vs0mg"},{"bike_id":"df94c49a-52b6-4960-9a39-2905646ed033","system_id":"levelo_inurba_marseille","lat":43.28421,"lon":5.3499,"is_reserved":false,"is_disabled":false,"rental_uris":{"android":"levelo://app?vid=df94c49a-52b6-4960-9a39-2905646ed033","ios":"levelo://app?vid=df94c49a-52b6-4960-9a39-2905646ed033"},"vehicle_type_id":"4","last_reported":1721923844,"current_range_meters":31200,"station_id":"ce4bhbh2rcd13ifvqepg","pricing_plan_id":"cebpf4jnsgd1na2vs0mg"},