{"last_updated":1741874972,"ttl":60,"version":"2.2","data":{"bikes":[{"bike_id":"28fa6aaa-a9eb-4507-8487-d2b8fb7f35dc","system_id":"levelo_inurba_marseille","lat":43.29266,"lon":5.38452,"is_reserved":false,"is_disabled":false,"rental_uris":{"android":"levelo://app?vid=28fa6aaa-a9eb-4507-8487-d2b8fb7f35dc","ios":"levelo://app?vid=28fa6aaa-a9eb-4507-8487-d2b8fb7f35dc"},"vehicle_type_id":"4","last_reported":1741874973,"current_range_meters":2800,"station_id":"ce4bh692rcd13ifvqea0","pricing_plan_id":"cebpf4jnsgd1na2vs0mg"},{"bike_id":"1d1290cf-da89-4e5e-9676-250f65cf5c33","system_id":"levelo_inurba_marseille","lat":43.29564,"lon":5.42299,"is_reserved":false,"is_disabled":false,"rental_uris":{"android":"levelo://app?vid=1d1290cf-da89-4e5e-9676-250f65cf5c33","ios":"levelo://app?vid=1d1290cf-da89-4e5e-9676-250f65cf5c33"},"vehicle_type_id":"4","last_reported":1741874973,"current_range_meters":2800,"station_id":"ce4bhph2rcd13ifvqhdg","pricing_plan_id":"cebpf4jnsgd1na2vs0mg"},{"bike_id":"6ca08143-9d43-4f95-bd08-77d3bf37c3fe","system_id":"levelo_inurba_marseille","lat":43.31336,"lon":5.36745,"is_reserved":false,"is_disabled":false,"rental_uris":{"android":"levelo://app?vid=6ca08143-9d43-4f95-bd08-77d3bf37c3fe","ios":"levelo://app?vid=6ca08143-9d43-4f95-bd08-77d3bf37c3fe"},"vehicle_type_id":"4","last_reported":1741874973,"current_range_meters":3200,"station_id":"ce4bgr92rcd13ifvqc6g","pricing_plan_id":"cebpf4jnsgd1na2vs0mg"},{"bike_id":"c29dc4a6-5df7-4d4e-879a-59bdb58cd207","system_id":"levelo_inurba_marseille","lat":43.33354,"lon":5.3966,"is_reserved":false,"is_disabled":false,"rental_uris":{"android":"levelo://app?vid=c29dc4a6-5df7-4d4e-879a-59bdb58cd207","ios":"levelo://app?vid=c29dc4a6-5df7-4d4e-879a-59bdb58cd207"},"vehicle_type_id":"4","last_reported":1741874973,"current_range_meters":3200,"station_id":"","pricing_plan_id":"cebpf4jnsgd1na2vs0mg"},{"bike_id":"d506a175-d16b-417e-8a3a-f2241e0e262e","system_id":"levelo_inurba_marseille","lat":43.30919,"lon":5.37872,"is_reserved":false,"is_disabled":false,"rental_uris":{"android":"levelo://app?vid=d506a175-d16b-417e-8a3a-f2241e0e262e","ios":"levelo://app?vid=d506a175-d16b-417e-8a3a-f2241e0e262e"},"vehicle_type_id":"4","last_reported":1741874973,"current_range_meters":3200,"station_id":"","pricing_plan_id":"cebpf4jnsgd1na2vs0mg"},{"bike_id":"02e8a486-0ac4-45a1-88cc-aa49434c47f4","system_id":"levelo_inurba_marseille","lat":43.29636,"lon":5.40602,"is_reserved":false,"is_disabled":false,"rental_uris":{"android":"levelo://app?vid=02e8a486-0ac4-45a1-88cc-aa49434c47f4","ios":"levelo://app?vid=02e8a486-0ac4-45a1-88cc-aa49434c47f4"},"vehicle_type_id":"4","last_reported":1741874973,"current_range_meters":1600,"station_id":"ce4bh0h2rcd13ifvqd60","pricing_plan_id":"cebpf4jnsgd1na2vs0mg"},{"bike_id":"6028c7b6-e1ed-4725-b610-2a9f5d1a9230","system_id":"levelo_inurba_marseille","lat":43.27913,"lon":5.39586,"is_reserved":false,"is_disabled":false,"rental_uris":{"android":"levelo://app?vid=6028c7b6-e1ed-4725-b610-2a9f5d1a9230","ios":"levelo://app?vid=6028c7b6-e1ed-4725-b610-2a9f5d1a9230"},"vehicle_type_id":"4","last_reported":1741874973,"current_range_meters":3200,"station_id":"ce4bhf92rcd13ifvqf40","pricing_plan_id":"cebpf4jnsgd1na2vs0mg"},{"bike_id":"9d87ad49-b8f9-4d84-b258-c7331abbbb40","system_id":"levelo_inurba_marseille","lat":43.32542,"lon":5.41443,"is_reserved":false,"is_disabled":false,"rental_uris":{"android":"levelo://app?vid=9d87ad49-b8f9-4d84-b258-c7331abbbb40","ios":"levelo://app?vid=9d87ad49-b8f9-4d84-b258-c7331abbbb40"},"vehicle_type_id":"4","last_reported":1741874973,"current_range_meters":3600,"station_id":"ce4bhq12rcd13ifvqhhg","pricing_plan_id":"cebpf4jnsgd1na2vs0mg"},{"bike_id":"7622b367-f382-4145-a9f9-5c90dbb70f82","system_id":"levelo_inurba_marseille","lat":43.279046,"lon":5.395646,"is_reserved":false,"is_disabled":false,"rental_uris":{"android":"levelo://app?vid=7622b367-f382-4145-a9f9-5c90dbb70f82","ios":"levelo://app?vid=7622b367-f382-4145-a9f9-5c90dbb70f82"},"vehicle_type_id":"4","last_reported":1741874973,"current_range_meters":3600,"station_id":"ce4bhf92rcd13ifvqf40","pricing_plan_id":"cebpf4jnsgd1na2vs0mg"},{"bike_id":"8cd4ff65-c530-42fa-b397-120901a040de","system_id":"levelo_inurba_marseille","lat":43.28852,"lon":5.39315,"is_reserved":false,"is_disabled":false,"rental_uris":{"android":"levelo://app?vid=8cd4ff65-c530-42fa-b397-120901a040de","ios":"levelo://app?vid=8cd4ff65-c530-42fa-b397-120901a040de"},"vehicle_type_id":"4","last_reported":1741874973,"current_range_meters":4000,"station_id":"ce4bh2p2rcd13ifvqdi0","pricing_plan_id":"cebpf4jnsgd1na2vs0mg"},{"bike_id":"b8f9d267-d48f-48cb-8919-9af992e0f1f5","system_id":"levelo_inurba_marseille","lat":43.33182,"lon":5.39457,"is_reserved":false,"is_disabled":false,"rental_uris":{"android":"levelo://app?vid=b8f9d267-d48f-48cb-8919-9af992e0f1f5","ios":"levelo://app?vid=b8f9d267-d48f-48cb-8919-9af992e0f1f5"},"vehicle_type_id":"4","last_reported":1741874973,"current_range_meters":4000,"station_id":"","pricing_plan_id":"cebpf4jnsgd1na2vs0mg"},{"bike_id":"cd18e0c0-304a-442d-9f39-9bcb1549b7a5","system_id":"levelo_inurba_marseille","lat":43.27944,"lon":5.41025,"is_reserved":false,"is_disabled":false,"rental_uris":{"android":"levelo://app?vid=cd18e0c0-304a-442d-9f39-9bcb1549b7a5","ios":"levelo://app?vid=cd18e0c0-304a-442d-9f39-9bcb1549b7a5"},"vehicle_type_id":"4","last_reported":1741874973,"current_range_meters":4400,"station_id":"ce4bhnp2rcd13ifvqh0g","pricing_plan_id":"cebpf4jnsgd1na2vs0mg"},{"bike_id":"2580e863-3d65-479d-8d4e-10a668f57287","system_id":"levelo_inurba_marseille","lat":43.290375,"lon":5.399633,"is_reserved":false,"is_disabled":false,"rental_uris":{"android":"levelo://app?vid=2580e863-3d65-479d-8d4e-10a668f57287","ios":"levelo://app?vid=2580e863-3d65-479d-8d4e-10a668f57287"},"vehicle_type_id":"4","last_reported":1741874973,"current_range_meters":4000,"station_id":"ce4bgvp2rcd13ifvqct0","pricing_plan_id":"cebpf4jnsgd1na2vs0mg"},{"bike_id":"6e3fe187-e764-4eae-9010-e17a2730acd6","system_id":"levelo_inurba_marseille","lat":43.31354,"lon":5.3671,"is_reserved":false,"is_disabled":false,"rental_uris":{"android":"levelo://app?vid=6e3fe187-e764-4eae-9010-e17a2730acd6","ios":"levelo://app?vid=6e3fe187-e764-4eae-9010-e17a2730acd6"},"vehicle_type_id":"4","last_reported":1741874973,"current_range_meters":4400,"station_id":"ce4bgr92rcd13ifvqc6g","pricing_plan_id":"cebpf4jnsgd1na2vs0mg"},{"bike_id":"b7750009-6836-4f4d-8e60-d86893e18e14","system_id":"levelo_inurba_marseille","lat":43.31049,"lon":5.3714,"is_reserved":false,"is_disabled":false,"rental_uris":{"android":"levelo://app?vid=b7750009-6836-4f4d-8e60-d86893e18e14","ios":"levelo://app?vid=b7750009-6836-4f4d-8e60-d86893e18e14"},"vehicle_type_id":"4","last_reported":1741874973,"current_range_meters":4400,"station_id":"","pricing_plan_id":"cebpf4jnsgd1na2vs0mg"},{"bike_id":"a664d1b4-63b5-4224-a83b-38effcbc9814","system_id":"levelo_inurba_marseille","lat":43.30886,"lon":5.39663,"is_reserved":false,"is_disabled":false,"rental_uris":{"android":"levelo://app?vid=a664d1b4-63b5-4224-a83b-38effcbc9814","ios":"levelo://app?vid=a664d1b4-63b5-4224-a83b-38effcbc9814"},"vehicle_type_id":"4","last_reported":1741874973,"current_range_meters":3200,"station_id":"ce4bh012rcd13ifvqcv0","pricing_plan_id":"cebpf4jnsgd1na2vs0mg"},{"bike_id":"db2bdd25-d774-4bf6-87f5-1c5357cf7d5a","system_id":"levelo_inurba_marseille","lat":43.28323,"lon":5.38111,"is_reserved":false,"is_disabled":false,"rental_uris":{"android":"levelo://app?vid=db2bdd25-d774-4bf6-87f5-1c5357cf7d5a","ios":"levelo://app?vid=db2bdd25-d774-4bf6-87f5-1c5357cf7d5a"},"vehicle_type_id":"4","last_reported":1741874973,"current_range_meters":4400,"station_id":"ce4bh412rcd13ifvqdr0","pricing_plan_id":"cebpf4jnsgd1na2vs0mg"},{"bike_id":"21920015-0bad-4e97-b142-67221b8ac566","system_id":"levelo_inurba_marseille","lat":43.26943,"lon":5.40254,"is_reserved":false,"is_disabled":false,"rental_uris":{"android":"levelo://app?vid=21920015-0bad-4e97-b142-67221b8ac566","ios":"levelo://app?vid=21920015-0bad-4e97-b142-67221b8ac566"},"vehicle_type_id":"4","last_reported":1741874973,"current_range_meters":4800,"station_id":"cjm6bp8fraef2m0cb0m0","pricing_plan_id":"cebpf4jnsgd1na2vs0mg"},{"bike_id":"cc8a2482-a3e5-474a-a273-2523eaeb753f","system_id":"levelo_inurba_marseille","lat":43.26782,"lon":5.39421,"is_reserved":false,"is_disabled":false,"rental_uris":{"android":"levelo://app?vid=cc8a2482-a3e5-474a-a273-2523eaeb753f","ios":"levelo://app?vid=cc8a2482-a3e5-474a-a273-2523eaeb753f"},"vehicle_type_id":"4","last_reported":1741874973,"current_range_meters":4800,"station_id":"ce4bhh12rcd13ifvqfg0","pricing_plan_id":"cebpf4jnsgd1na2vs0mg"},{"bike_id":"ee50a542-2bd9-4608-b916-1115a5e50110","system_id":"levelo_inurba_marseille","lat":43.3247,"lon":5.36566,"is_reserved":false,"is_disabled":false,"rental_uris":{"android":"levelo://app?vid=ee50a542-2bd9-4608-b916-1115a5e50110","ios":"levelo://app?vid=ee50a542-2bd9-4608-b916-1115a5e50110"},"vehicle_type_id":"4","last_reported":1741874973,"current_range_meters":4800,"station_id":"ce4bhs12rcd13ifvqhvg","pricing_plan_id":"cebpf4jnsgd1na2vs0mg"},{"bike_id":"58c5e8c6-6e3e-4bac-b702-9219905970c2","system_id":"levelo_inurba_marseille","lat":43.23192,"lon":5.35567,"is_reserved":false,"is_disabled":false,"rental_uris":{"android":"levelo://app?vid=58c5e8c6-6e3e-4bac-b702-9219905970c2","ios":"levelo://app?vid=58c5e8c6-6e3e-4bac-b702-9219905970c2"},"vehicle_type_id":"4","last_reported":1741874973,"current_range_meters":4800,"station_id":"ce4bhu92rcd13ifvqi70","pricing_plan_id":"cebpf4jnsgd1na2vs0mg"},{"bike_id":"23837a09-3e97-4c1a-9476-a9d6979146be","system_id":"levelo_inurba_marseille","lat":43.30258,"lon":5.40079,"is_reserved":false,"is_disabled":false,"rental_uris":{"android":"levelo://app?vid=23837a09-3e97-4c1a-9476-a9d6979146be","ios":"levelo://app?vid=23837a09-3e97-4c1a-9476-a9d6979146be"},"vehicle_type_id":"4","last_reported":1741874973,"current_range_meters":4800,"station_id":"ce4bgvh2rcd13ifvqcs0","pricing_plan_id":"cebpf4jnsgd1na2vs0mg"},{"bike_id":"e8f489b7-d4f0-43fb-8e13-066a797660fd","system_id":"levelo_inurba_marseille","lat":43.32369,"lon":5.36756,"is_reserved":false,"is_disabled":false,"rental_uris":{"android":"levelo://app?vid=e8f489b7-d4f0-43fb-8e13-066a797660fd","ios":"levelo://app?vid=e8f489b7-d4f0-43fb-8e13-066a797660fd"},"vehicle_type_id":"4","last_reported":1741874973,"current_range_meters":4800,"station_id":"ce4bhsh2rcd13ifvqi2g","pricing_plan_id":"cebpf4jnsgd1na2vs0mg"},{"bike_id":"91919df0-a609-4174-9c4e-96f0a7ea657d","system_id":"levelo_inurba_marseille","lat":43.26571,"lon":5.39019,"is_reserved":false,"is_disabled":false,"rental_uris":{"android":"levelo://app?vid=91919df0-a609-4174-9c4e-96f0a7ea657d","ios":"levelo://app?vid=91919df0-a609-4174-9c4e-96f0a7ea657d"},"vehicle_type_id":"4","last_reported":1741874973,"current_range_meters":5600,"station_id":"ce4bhe12rcd13ifvqf30","pricing_plan_id":"cebpf4jnsgd1na2vs0mg"},{"bike_id":"94034bc0-8063-4d44-87f5-4179a31cabe3","system_id":"levelo_inurba_marseille","lat":43.33616,"lon":5.40988,"is_reserved":false,"is_disabled":false,"rental_uris":{"android":"levelo://app?vid=94034bc0-8063-4d44-87f5-4179a31cabe3","ios":"levelo://app?vid=94034bc0-8063-4d44-87f5-4179a31cabe3"},"vehicle_type_id":"4","last_reported":1741874973,"current_range_meters":5600,"station_id":"ce4bhqh2rcd13ifvqhmg","pricing_plan_id":"cebpf4jnsgd1na2vs0mg"},{"bike_id":"08eb2274-c9b3-451a-8129-7f28b1fd0985","system_id":"levelo_inurba_marseille","lat":43.26685,"lon":5.38249,"is_reserved":false,"is_disabled":false,"rental_uris":{"android":"levelo://app?vid=08eb2274-c9b3-451a-8129-7f28b1fd0985","ios":"levelo://app?vid=08eb2274-c9b3-451a-8129-7f28b1fd0985"},"vehicle_type_id":"4","last_reported":1741874973,"current_range_meters":5600,"station_id":"ce4bhg92rcd13ifvqf90","pricing_plan_id":"cebpf4jnsgd1na2vs0mg"},{"bike_id":"bb6398ba-bcbe-42fa-8d1c-91c0d0ac3f0b","system_id":"levelo_inurba_marseille","lat":43.24664,"lon":5.38166,"is_reserved":false,"is_disabled":false,"rental_uris":{"android":"levelo://app?vid=bb6398ba-bcbe-42fa-8d1c-91c0d0ac3f0b","ios":"levelo://app?vid=bb6398ba-bcbe-42fa-8d1c-91c0d0ac3f0b"},"vehicle_type_id":"4","last_reported":1741874973,"current_range_meters":5600,"station_id":"ce4bhih2rcd13ifvqfr0","pricing_plan_id":"cebpf4jnsgd1na2vs0mg"},{"bike_id":"854e5b3c-1373-4bcb-8903-bfa4f8b4e34f","system_id":"levelo_inurba_marseille","lat":43.30963,"lon":5.39054,"is_reserved":false,"is_disabled":false,"rental_uris":{"android":"levelo://app?vid=854e5b3c-1373-4bcb-8903-bfa4f8b4e34f","ios":"levelo://app?vid=854e5b3c-1373-4bcb-8903-bfa4f8b4e34f"},"vehicle_type_id":"4","last_reported":1741874973,"current_range_meters":6000,"station_id":"ce4bgup2rcd13ifvqco0","pricing_plan_id":"cebpf4jnsgd1na2vs0mg"},{"bike_id":"dc804c71-a744-4844-af3b-67393c6a15ad","system_id":"levelo_inurba_marseille","lat":43.32365,"lon":5.36755,"is_reserved":false,"is_disabled":false,"rental_uris":{"android":"levelo://app?vid=dc804c71-a744-4844-af3b-67393c6a15ad","ios":"levelo://app?vid=dc804c71-a744-4844-af3b-67393c6a15ad"},"vehicle_type_id":"4","last_reported":1741874973,"current_range_meters":6000,"station_id":"ce4bhsh2rcd13ifvqi2g","pricing_plan_id":"cebpf4jnsgd1na2vs0mg"},{"bike_id":"9382d5d4-dc76-48b5-a95a-85637837b039","system_id":"levelo_inurba_marseille","lat":43.28501,"lon":5.3857,"is_reserved":false,"is_disabled":false,"rental_uris":{"android":"levelo://app?vid=9382d5d4-dc76-48b5-a95a-85637837b039","ios":"levelo://app?vid=9382d5d4-dc76-48b5-a95a-85637837b039"},"vehicle_type_id":"4","last_reported":1741874973,"current_range_meters":6000,"station_id":"ce4bh8p2rcd13ifvqeb0","pricing_plan_id":"cebpf4jnsgd1na2vs0mg"},{"bike_id":"e65f842e-69b2-436a-a201-83a06add3a55","system_id":"levelo_inurba_marseille","lat":43.250118,"lon":5.389174,"is_reserved":false,"is_disabled":false,"rental_uris":{"android":"levelo://app?vid=e65f842e-69b2-436a-a201-83a06add3a55","ios":"levelo://app?vid=e65f842e-69b2-436a-a201-83a06add3a55"},"vehicle_type_id":"4","last_reported":1741874973,"current_range_meters":6000,"station_id":"ce4bhgp2rcd13ifvqfd0","pricing_plan_id":"cebpf4jnsgd1na2vs0mg"},{"bike_id":"4f22fe17-a417-41ba-bcf4-f26309487b11","system_id":"levelo_inurba_marseille","lat":43.33415,"lon":5.4006,"is_reserved":false,"is_disabled":false,"rental_uris":{"android":"levelo://app?vid=4f22fe17-a417-41ba-bcf4-f26309487b11","ios":"levelo://app?vid=4f22fe17-a417-41ba-bcf4-f26309487b11"},"vehicle_type_id":"4","last_reported":1741874973,"current_range_meters":6000,"station_id":"","pricing_plan_id":"cebpf4jnsgd1na2vs0mg"},{"bike_id":"0e1454f0-c501-449b-b78c-ddfc8f4d9aab","system_id":"levelo_inurba_marseille","lat":43.33768,"lon":5.3749,"is_reserved":false,"is_disabled":false,"rental_uris":{"android":"levelo://app?vid=0e1454f0-c501-449b-b78c-ddfc8f4d9aab","ios":"levelo://app?vid=0e1454f0-c501-449b-b78c-ddfc8f4d9aab"},"vehicle_type_id":"4","last_reported":1741874973,"current_range_meters":6400,"station_id":"","pricing_plan_id":"cebpf4jnsgd1na2vs0mg"},{"bike_id":"2a69e639-a0be-4da5-b497-a75be2f56c13","system_id":"levelo_inurba_marseille","lat":43.25092,"lon":5.39528,"is_reserved":false,"is_disabled":false,"rental_uris":{"android":"levelo://app?vid=2a69e639-a0be-4da5-b497-a75be2f56c13","ios":"levelo://app?vid=2a69e639-a0be-4da5-b497-a75be2f56c13"},"vehicle_type_id":"4","last_reported":1741874973,"current_range_meters":6400,"station_id":"ce4bhm12rcd13ifvqgkg","pricing_plan_id":"cebpf4jnsgd1na2vs0mg"},{"bike_id":"f871e1ed-89aa-49e2-a608-241380b8bb49","system_id":"levelo_inurba_marseille","lat":43.24081,"lon":5.37752,"is_reserved":false,"is_disabled":false,"rental_uris":{"android":"levelo://app?vid=f871e1ed-89aa-49e2-a608-241380b8bb49","ios":"levelo://app?vid=f871e1ed-89aa-49e2-a608-241380b8bb49"},"vehicle_type_id":"4","last_reported":1741874973,"current_range_meters":6400,"station_id":"ce4bhnp2rcd13ifvqgvg","pricing_plan_id":"cebpf4jnsgd1na2vs0mg"},{"bike_id":"aeaa874f-419f-4778-8d6f-91d9043c7d57","system_id":"levelo_inurba_marseille","lat":43.3361,"lon":5.41022,"is_reserved":false,"is_disabled":false,"rental_uris":{"android":"levelo://app?vid=aeaa874f-419f-4778-8d6f-91d9043c7d57","ios":"levelo://app?vid=aeaa874f-419f-4778-8d6f-91d9043c7d57"},"vehicle_type_id":"4","last_reported":1741874973,"current_range_meters":6400,"station_id":"ce4bhqh2rcd13ifvqhmg","pricing_plan_id":"cebpf4jnsgd1na2vs0mg"},{"bike_id":"aceb9ecc-b91d-44a6-8001-ce55ecabad13","system_id":"levelo_inurba_marseille","lat":43.25726,"lon":5.41117,"is_reserved":false,"is_disabled":false,"rental_uris":{"android":"levelo://app?vid=aceb9ecc-b91d-44a6-8001-ce55ecabad13","ios":"levelo://app?vid=aceb9ecc-b91d-44a6-8001-ce55ecabad13"},"vehicle_type_id":"4","last_reported":1741874973,"current_range_meters":6800,"station_id":"ce4bhkp2rcd13ifvqgd0","pricing_plan_id":"cebpf4jnsgd1na2vs0mg"},{"bike_id":"8a5be889-430b-4f3c-ad97-bb7a2b97f12e","system_id":"levelo_inurba_marseille","lat":43.29548,"lon":5.42291,"is_reserved":false,"is_disabled":false,"rental_uris":{"android":"levelo://app?vid=8a5be889-430b-4f3c-ad97-bb7a2b97f12e","ios":"levelo://app?vid=8a5be889-430b-4f3c-ad97-bb7a2b97f12e"},"vehicle_type_id":"4","last_reported":1741874973,"current_range_meters":6800,"station_id":"ce4bhph2rcd13ifvqhdg","pricing_plan_id":"cebpf4jnsgd1na2vs0mg"},{"bike_id":"f1077625-0232-49a4-a55f-c012ff95a0be","system_id":"levelo_inurba_marseille","lat":43.2396,"lon":5.36644,"is_reserved":false,"is_disabled":false,"rental_uris":{"android":"levelo://app?vid=f1077625-0232-49a4-a55f-c012ff95a0be","ios":"levelo://app?vid=f1077625-0232-49a4-a55f-c012ff95a0be"},"vehicle_type_id":"4","last_reported":1741874973,"current_range_meters":6800,"station_id":"ce4bhi12rcd13ifvqfp0","pricing_plan_id":"cebpf4jnsgd1na2vs0mg"},{"bike_id":"616a435f-89dc-43cc-870e-cd4d9550de2e","system_id":"levelo_inurba_marseille","lat":43.31415,"lon":5.3763,"is_reserved":false,"is_disabled":false,"rental_uris":{"android":"levelo://app?vid=616a435f-89dc-43cc-870e-cd4d9550de2e","ios":"levelo://app?vid=616a435f-89dc-43cc-870e-cd4d9550de2e"},"vehicle_type_id":"4","last_reported":1741874973,"current_range_meters":6800,"station_id":"","pricing_plan_id":"cebpf4jnsgd1na2vs0mg"},{"bike_id":"bfefb81e-17b3-49a1-b01f-cb649b15903a","system_id":"levelo_inurba_marseille","lat":43.25493,"lon":5.37651,"is_reserved":false,"is_disabled":false,"rental_uris":{"android":"levelo://app?vid=bfefb81e-17b3-49a1-b01f-cb649b15903a","ios":"levelo://app?vid=bfefb81e-17b3-49a1-b01f-cb649b15903a"},"vehicle_type_id":"4","last_reported":1741874973,"current_range_meters":6800,"station_id":"ce4bhh12rcd13ifvqff0","pricing_plan_id":"cebpf4jnsgd1na2vs0mg"},{"bike_id":"99cd4659-bcc4-4174-a160-083ddf3d852d","system_id":"levelo_inurba_marseille","lat":43.27937,"lon":5.39563,"is_reserved":false,"is_disabled":false,"rental_uris":{"android":"levelo://app?vid=99cd4659-bcc4-4174-a160-083ddf3d852d","ios":"levelo://app?vid=99cd4659-bcc4-4174-a160-083ddf3d852d"},"vehicle_type_id":"4","last_reported":1741874973,"current_range_meters":6800,"station_id":"ce4bhf92rcd13ifvqf40","pricing_plan_id":"cebpf4jnsgd1na2vs0mg"},{"bike_id":"cb567277-cc92-473f-ba27-13f9d7cbb613","system_id":"levelo_inurba_marseille","lat":43.25016,"lon":5.38918,"is_reserved":false,"is_disabled":false,"rental_uris":{"android":"levelo://app?vid=cb567277-cc92-473f-ba27-13f9d7cbb613","ios":"levelo://app?vid=cb567277-cc92-473f-ba27-13f9d7cbb613"},"vehicle_type_id":"4","last_reported":1741874973,"current_range_meters":6800,"station_id":"ce4bhgp2rcd13ifvqfd0","pricing_plan_id":"cebpf4jnsgd1na2vs0mg"},{"bike_id":"2053d644-c7c1-4a84-85e5-e0d75fa3de3a","system_id":"levelo_inurba_marseille","lat":43.262253,"lon":5.404498,"is_reserved":false,"is_disabled":false,"rental_uris":{"android":"levelo://app?vid=2053d644-c7c1-4a84-85e5-e0d75fa3de3a","ios":"levelo://app?vid=2053d644-c7c1-4a84-85e5-e0d75fa3de3a"},"vehicle_type_id":"4","last_reported":1741874973,"current_range_meters":6800,"station_id":"ce4bhmh2rcd13ifvqgmg","pricing_plan_id":"cebpf4jnsgd1na2vs0mg"},{"bike_id":"e872f5ef-8b73-4001-8ad4-057654930544","system_id":"levelo_inurba_marseille","lat":43.30221,"lon":5.40035,"is_reserved":false,"is_disabled":true,"rental_uris":{"android":"levelo://app?vid=e872f5ef-8b73-4001-8ad4-057654930544","ios":"levelo://app?vid=e872f5ef-8b73-4001-8ad4-057654930544"},"vehicle_type_id":"4","last_reported":1741874973,"current_range_meters":7200,"station_id":"ce4bgvh2rcd13ifvqcs0","pricing_plan_id":"cebpf4jnsgd1na2vs0mg"},{"bike_id":"38294457-b8fd-4730-b5aa-3748c651b319","system_id":"levelo_inurba_marseille","lat":43.23154,"lon":5.43702,"is_reserved":false,"is_disabled":false,"rental_uris":{"android":"levelo://app?vid=38294457-b8fd-4730-b5aa-3748c651b319","ios":"levelo://app?vid=38294457-b8fd-4730-b5aa-3748c651b319"},"vehicle_type_id":"4","last_reported":1741874973,"current_range_meters":7200,"station_id":"ce4bhmp2rcd13ifvqgog","pricing_plan_id":"cebpf4jnsgd1na2vs0mg"},{"bike_id":"7f97dab3-6641-4c6a-9b12-3940cae11793","system_id":"levelo_inurba_marseille","lat":43.25007,"lon":5.38932,"is_reserved":false,"is_disabled":false,"rental_uris":{"android":"levelo://app?vid=7f97dab3-6641-4c6a-9b12-3940cae11793","ios":"levelo://app?vid=7f97dab3-6641-4c6a-9b12-3940cae11793"},"vehicle_type_id":"4","last_reported":1741874973,"current_range_meters":7200,"station_id":"ce4bhgp2rcd13ifvqfd0","pricing_plan_id":"cebpf4jnsgd1na2vs0mg"},{"bike_id":"32aebc3a-14c2-412a-9dd1-139c73270c7f","system_id":"levelo_inurba_marseille","lat":43.24997,"lon":5.38933,"is_reserved":false,"is_disabled":false,"rental_uris":{"android":"levelo://app?vid=32aebc3a-14c2-412a-9dd1-139c73270c7f","ios":"levelo://app?vid=32aebc3a-14c2-412a-9dd1-139c73270c7f"},"vehicle_type_id":"4","last_reported":1741874973,"current_range_meters":7200,"station_id":"ce4bhgp2rcd13ifvqfd0","pricing_plan_id":"cebpf4jnsgd1na2vs0mg"},{"bike_id":"57dd54e3-4a62-4d62-a03b-5320a176e579","system_id":"levelo_inurba_marseille","lat":43.2418,"lon":5.36391,"is_reserved":false,"is_disabled":false,"rental_uris":{"android":"levelo://app?vid=57dd54e3-4a62-4d62-a03b-5320a176e579","ios":"levelo://app?vid=57dd54e3-4a62-4d62-a03b-5320a176e579"},"vehicle_type_id":"4","last_reported":1741874973,"current_range_meters":7200,"station_id":"cpo36qri1sfpv3e86is0","pricing_plan_id":"cebpf4jnsgd1na2vs0mg"},{"bike_id":"2fe54254-5b11-4939-bb74-6fb31c1295ea","system_id":"levelo_inurba_marseille","lat":43.22937,"lon":5.35382,"is_reserved":false,"is_disabled":false,"rental_uris":{"android":"levelo://app?vid=2fe54254-5b11-4939-bb74-6fb31c1295ea","ios":"levelo://app?vid=2fe54254-5b11-4939-bb74-6fb31c1295ea"},"vehicle_type_id":"4","last_reported":1741874973,"current_range_meters":7200,"station_id":"cpo3532slgdg3j2ikp40","pricing_plan_id":"cebpf4jnsgd1na2vs0mg"},{"bike_id":"15818832-22a2-4c03-b56c-fcfd42f5fb3f","system_id":"levelo_inurba_marseille","lat":43.25126,"lon":5.40282,"is_reserved":false,"is_disabled":false,"rental_uris":{"android":"levelo://app?vid=15818832-22a2-4c03-b56c-fcfd42f5fb3f","ios":"levelo://app?vid=15818832-22a2-4c03-b56c-fcfd42f5fb3f"},"vehicle_type_id":"4","last_reported":1741874973,"current_range_meters":7200,"station_id":"ce4bhlh2rcd13ifvqgig","pricing_plan_id":"cebpf4jnsgd1na2vs0mg"},{"bike_id":"fb03e9b9-f1d4-4d2f-8575-deaaf2914ec9","system_id":"levelo_inurba_marseille","lat":43.24075,"lon":5.37755,"is_reserved":false,"is_disabled":false,"rental_uris":{"android":"levelo://app?vid=fb03e9b9-f1d4-4d2f-8575-deaaf2914ec9","ios":"levelo://app?vid=fb03e9b9-f1d4-4d2f-8575-deaaf2914ec9"},"vehicle_type_id":"4","last_reported":1741874973,"current_range_meters":7200,"station_id":"ce4bhnp2rcd13ifvqgvg","pricing_plan_id":"cebpf4jnsgd1na2vs0mg"},{"bike_id":"dd0f0821-af8f-4e70-b3c4-7a931fb1222e","system_id":"levelo_inurba_marseille","lat":43.29929,"lon":5.36543,"is_reserved":false,"is_disabled":false,"rental_uris":{"android":"levelo://app?vid=dd0f0821-af8f-4e70-b3c4-7a931fb1222e","ios":"levelo://app?vid=dd0f0821-af8f-4e70-b3c4-7a931fb1222e"},"vehicle_type_id":"4","last_reported":1741874973,"current_range_meters":7200,"station_id":"ce4bgm92rcd13ifvqbr0","pricing_plan_id":"cebpf4jnsgd1na2vs0mg"},{"bike_id":"76672f64-35e3-4d84-ac62-6af55c7d858a","system_id":"levelo_inurba_marseille","lat":43.30533,"lon":5.36715,"is_reserved":false,"is_disabled":false,"rental_uris":{"android":"levelo://app?vid=76672f64-35e3-4d84-ac62-6af55c7d858a","ios":"levelo://app?vid=76672f64-35e3-4d84-ac62-6af55c7d858a"},"vehicle_type_id":"4","last_reported":1741874973,"current_range_meters":7200,"station_id":"ce4bgrp2rcd13ifvqc9g","pricing_plan_id":"cebpf4jnsgd1na2vs0mg"},{"bike_id":"0ca83189-bbf3-4e7a-81ca-1951ad10b3db","system_id":"levelo_inurba_marseille","lat":43.29963,"lon":5.38489,"is_reserved":false,"is_disabled":false,"rental_uris":{"android":"levelo://app?vid=0ca83189-bbf3-4e7a-81ca-1951ad10b3db","ios":"levelo://app?vid=0ca83189-bbf3-4e7a-81ca-1951ad10b3db"},"vehicle_type_id":"4","last_reported":1741874973,"current_range_meters":6800,"station_id":"ce4bgj92rcd13ifvqbd0","pricing_plan_id":"cebpf4jnsgd1na2vs0mg"},{"bike_id":"d5ae4600-476e-4c8a-b248-76c73ec9f040","system_id":"levelo_inurba_marseille","lat":43.25005,"lon":5.38922,"is_reserved":false,"is_disabled":false,"rental_uris":{"android":"levelo://app?vid=d5ae4600-476e-4c8a-b248-76c73ec9f040","ios":"levelo://app?vid=d5ae4600-476e-4c8a-b248-76c73ec9f040"},"vehicle_type_id":"4","last_reported":1741874973,"current_range_meters":8000,"station_id":"ce4bhgp2rcd13ifvqfd0","pricing_plan_id":"cebpf4jnsgd1na2vs0mg"},{"bike_id":"3e3d34d9-876d-4323-baac-ee2822002982","system_id":"levelo_inurba_marseille","lat":43.28841,"lon":5.39315,"is_reserved":false,"is_disabled":false,"rental_uris":{"android":"levelo://app?vid=3e3d34d9-876d-4323-baac-ee2822002982","ios":"levelo://app?vid=3e3d34d9-876d-4323-baac-ee2822002982"},"vehicle_type_id":"4","last_reported":1741874973,"current_range_meters":8000,"station_id":"ce4bh2p2rcd13ifvqdi0","pricing_plan_id":"cebpf4jnsgd1na2vs0mg"},{"bike_id":"ce9250ff-4229-4ccb-a37a-4b380950241a","system_id":"levelo_inurba_marseille","lat":43.24712,"lon":5.38212,"is_reserved":false,"is_disabled":false,"rental_uris":{"android":"levelo://app?vid=ce9250ff-4229-4ccb-a37a-4b380950241a","ios":"levelo://app?vid=ce9250ff-4229-4ccb-a37a-4b380950241a"},"vehicle_type_id":"4","last_reported":1741874973,"current_range_meters":8000,"station_id":"","pricing_plan_id":"cebpf4jnsgd1na2vs0mg"},{"bike_id":"b69c4fa0-9500-4702-817a-97a29c545e2f","system_id":"levelo_inurba_marseille","lat":43.24386,"lon":5.37064,"is_reserved":false,"is_disabled":false,"rental_uris":{"android":"levelo://app?vid=b69c4fa0-9500-4702-817a-97a29c545e2f","ios":"levelo://app?vid=b69c4fa0-9500-4702-817a-97a29c545e2f"},"vehicle_type_id":"4","last_reported":1741874973,"current_range_meters":3600,"station_id":"ce4bhhh2rcd13ifvqfk0","pricing_plan_id":"cebpf4jnsgd1na2vs0mg"},{"bike_id":"d7d0cdbd-3f6b-4af6-9958-1322ed4e09c5","system_id":"levelo_inurba_marseille","lat":43.31031,"lon":5.37535,"is_reserved":false,"is_disabled":false,"rental_uris":{"android":"levelo://app?vid=d7d0cdbd-3f6b-4af6-9958-1322ed4e09c5","ios":"levelo://app?vid=d7d0cdbd-3f6b-4af6-9958-1322ed4e09c5"},"vehicle_type_id":"4","last_reported":1741874973,"current_range_meters":8000,"station_id":"","pricing_plan_id":"cebpf4jnsgd1na2vs0mg"},{"bike_id":"6edb934c-f9d5-43ae-8b43-f27b70dab8d2","system_id":"levelo_inurba_marseille","lat":43.29261,"lon":5.37625,"is_reserved":false,"is_disabled":true,"rental_uris":{"android":"levelo://app?vid=6edb934c-f9d5-43ae-8b43-f27b70dab8d2","ios":"levelo://app?vid=6edb934c-f9d5-43ae-8b43-f27b70dab8d2"},"vehicle_type_id":"4","last_reported":1741874973,"current_range_meters":8000,"station_id":"ce4bgi12rcd13ifvqb80","pricing_plan_id":"cebpf4jnsgd1na2vs0mg"},{"bike_id":"b945d8d0-7f7e-44e7-a580-44ad2dfbe250","system_id":"levelo_inurba_marseille","lat":43.259268,"lon":5.409142,"is_reserved":false,"is_disabled":false,"rental_uris":{"android":"levelo://app?vid=b945d8d0-7f7e-44e7-a580-44ad2dfbe250","ios":"levelo://app?vid=b945d8d0-7f7e-44e7-a580-44ad2dfbe250"},"vehicle_type_id":"4","last_reported":1741874973,"current_range_meters":8000,"station_id":"ce4bhm92rcd13ifvqglg","pricing_plan_id":"cebpf4jnsgd1na2vs0mg"},{"bike_id":"13acb16b-eaf6-4f3a-a616-544b881a006c","system_id":"levelo_inurba_marseille","lat":43.30439,"lon":5.37891,"is_reserved":false,"is_disabled":false,"rental_uris":{"android":"levelo://app?vid=13acb16b-eaf6-4f3a-a616-544b881a006c","ios":"levelo://app?vid=13acb16b-eaf6-4f3a-a616-544b881a006c"},"vehicle_type_id":"4","last_reported":1741874973,"current_range_meters":8000,"station_id":"ce4bgup2rcd13ifvqcn0","pricing_plan_id":"cebpf4jnsgd1na2vs0mg"},{"bike_id":"5b7dcee6-e15c-472e-a498-5a10b2578633","system_id":"levelo_inurba_marseille","lat":43.30373,"lon":5.4249,"is_reserved":false,"is_disabled":false,"rental_uris":{"android":"levelo://app?vid=5b7dcee6-e15c-472e-a498-5a10b2578633","ios":"levelo://app?vid=5b7dcee6-e15c-472e-a498-5a10b2578633"},"vehicle_type_id":"4","last_reported":1741874973,"current_range_meters":8000,"station_id":"ce4bghh2rcd13ifvqb60","pricing_plan_id":"cebpf4jnsgd1na2vs0mg"},{"bike_id":"931a65f6-98be-4189-b167-a49aeaf4dc43","system_id":"levelo_inurba_marseille","lat":43.2502,"lon":5.38933,"is_reserved":false,"is_disabled":false,"rental_uris":{"android":"levelo://app?vid=931a65f6-98be-4189-b167-a49aeaf4dc43","ios":"levelo://app?vid=931a65f6-98be-4189-b167-a49aeaf4dc43"},"vehicle_type_id":"4","last_reported":1741874973,"current_range_meters":8000,"station_id":"ce4bhgp2rcd13ifvqfd0","pricing_plan_id":"cebpf4jnsgd1na2vs0mg"},{"bike_id":"65582641-f883-45d9-b85e-9a82842236b7","system_id":"levelo_inurba_marseille","lat":43.299652,"lon":5.384928,"is_reserved":false,"is_disabled":false,"rental_uris":{"android":"levelo://app?vid=65582641-f883-45d9-b85e-9a82842236b7","ios":"levelo://app?vid=65582641-f883-45d9-b85e-9a82842236b7"},"vehicle_type_id":"4","last_reported":1741874973,"current_range_meters":8000,"station_id":"ce4bgip2rcd13ifvqbb0","pricing_plan_id":"cebpf4jnsgd1na2vs0mg"},{"bike_id":"8a01a9ee-0b5d-4dcf-86c8-3a55476e2aa0","system_id":"levelo_inurba_marseille","lat":43.24082,"lon":5.37754,"is_reserved":false,"is_disabled":false,"rental_uris":{"android":"levelo://app?vid=8a01a9ee-0b5d-4dcf-86c8-3a55476e2aa0","ios":"levelo://app?vid=8a01a9ee-0b5d-4dcf-86c8-3a55476e2aa0"},"vehicle_type_id":"4","last_reported":1741874973,"current_range_meters":8000,"station_id":"ce4bhnp2rcd13ifvqgvg","pricing_plan_id":"cebpf4jnsgd1na2vs0mg"},{"bike_id":"9860d6c5-905a-44ee-8baf-e5ed916689aa","system_id":"levelo_inurba_marseille","lat":43.313444,"lon":5.367128,"is_reserved":false,"is_disabled":false,"rental_uris":{"android":"levelo://app?vid=9860d6c5-905a-44ee-8baf-e5ed916689aa","ios":"levelo://app?vid=9860d6c5-905a-44ee-8baf-e5ed916689aa"},"vehicle_type_id":"4","last_reported":1741874973,"current_range_meters":8400,"station_id":"ce4bgr92rcd13ifvqc6g","pricing_plan_id":"cebpf4jnsgd1na2vs0mg"},{"bike_id":"a1d5c912-c4fd-4f7b-831c-fa99a6489895","system_id":"levelo_inurba_marseille","lat":43.27359,"lon":5.3625,"is_reserved":false,"is_disabled":false,"rental_uris":{"android":"levelo://app?vid=a1d5c912-c4fd-4f7b-831c-fa99a6489895","ios":"levelo://app?vid=a1d5c912-c4fd-4f7b-831c-fa99a6489895"},"vehicle_type_id":"4","last_reported":1741874973,"current_range_meters":8400,"station_id":"ce4bhbh2rcd13ifvqeo0","pricing_plan_id":"cebpf4jnsgd1na2vs0mg"},{"bike_id":"d7cf3da4-03cf-4eae-b183-47670a6b872f","system_id":"levelo_inurba_marseille","lat":43.23192,"lon":5.35561,"is_reserved":false,"is_disabled":false,"rental_uris":{"android":"levelo://app?vid=d7cf3da4-03cf-4eae-b183-47670a6b872f","ios":"levelo://app?vid=d7cf3da4-03cf-4eae-b183-47670a6b872f"},"vehicle_type_id":"4","last_reported":1741874973,"current_range_meters":8400,"station_id":"ce4bhu92rcd13ifvqi70","pricing_plan_id":"cebpf4jnsgd1na2vs0mg"},{"bike_id":"dc88e7ee-3cdd-47d0-b60b-984766863b7e","system_id":"levelo_inurba_marseille","lat":43.305564,"lon":5.384281,"is_reserved":false,"is_disabled":false,"rental_uris":{"android":"levelo://app?vid=dc88e7ee-3cdd-47d0-b60b-984766863b7e","ios":"levelo://app?vid=dc88e7ee-3cdd-47d0-b60b-984766863b7e"},"vehicle_type_id":"4","last_reported":1741874973,"current_range_meters":8400,"station_id":"ce4bgg92rcd13ifvqb30","pricing_plan_id":"cebpf4jnsgd1na2vs0mg"},{"bike_id":"ccde3be1-4144-427e-acc2-fed605e4915f","system_id":"levelo_inurba_marseille","lat":43.28104,"lon":5.39859,"is_reserved":false,"is_disabled":false,"rental_uris":{"android":"levelo://app?vid=ccde3be1-4144-427e-acc2-fed605e4915f","ios":"levelo://app?vid=ccde3be1-4144-427e-acc2-fed605e4915f"},"vehicle_type_id":"4","last_reported":1741874973,"current_range_meters":8400,"station_id":"","pricing_plan_id":"cebpf4jnsgd1na2vs0mg"},{"bike_id":"1bcce178-7e11-4c71-8837-7b1748cf932f","system_id":"levelo_inurba_marseille","lat":43.30375,"lon":5.42489,"is_reserved":false,"is_disabled":false,"rental_uris":{"android":"levelo://app?vid=1bcce178-7e11-4c71-8837-7b1748cf932f","ios":"levelo://app?vid=1bcce178-7e11-4c71-8837-7b1748cf932f"},"vehicle_type_id":"4","last_reported":1741874973,"current_range_meters":8400,"station_id":"ce4bghh2rcd13ifvqb60","pricing_plan_id":"cebpf4jnsgd1na2vs0mg"},{"bike_id":"66dedbcd-86e4-4407-9834-f963fc926dd0","system_id":"levelo_inurba_marseille","lat":43.26573,"lon":5.37288,"is_reserved":false,"is_disabled":false,"rental_uris":{"android":"levelo://app?vid=66dedbcd-86e4-4407-9834-f963fc926dd0","ios":"levelo://app?vid=66dedbcd-86e4-4407-9834-f963fc926dd0"},"vehicle_type_id":"4","last_reported":1741874973,"current_range_meters":8400,"station_id":"ce4bhg12rcd13ifvqf70","pricing_plan_id":"cebpf4jnsgd1na2vs0mg"},{"bike_id":"7534fd57-2f73-402a-939e-490397703aff","system_id":"levelo_inurba_marseille","lat":43.27494,"lon":5.42464,"is_reserved":false,"is_disabled":false,"rental_uris":{"android":"levelo://app?vid=7534fd57-2f73-402a-939e-490397703aff","ios":"levelo://app?vid=7534fd57-2f73-402a-939e-490397703aff"},"vehicle_type_id":"4","last_reported":1741874973,"current_range_meters":8400,"station_id":"ce4bhn92rcd13ifvqgrg","pricing_plan_id":"cebpf4jnsgd1na2vs0mg"},{"bike_id":"d8fc8c4c-a5ae-4bfa-96a6-b3ee265fcb68","system_id":"levelo_inurba_marseille","lat":43.26957,"lon":5.38638,"is_reserved":false,"is_disabled":false,"rental_uris":{"android":"levelo://app?vid=d8fc8c4c-a5ae-4bfa-96a6-b3ee265fcb68","ios":"levelo://app?vid=d8fc8c4c-a5ae-4bfa-96a6-b3ee265fcb68"},"vehicle_type_id":"4","last_reported":1741874973,"current_range_meters":8400,"station_id":"ce4bhh92rcd13ifvqfh0","pricing_plan_id":"cebpf4jnsgd1na2vs0mg"},{"bike_id":"13f0a338-d2eb-4be6-b344-df5d9928dcde","system_id":"levelo_inurba_marseille","lat":43.30973,"lon":5.39051,"is_reserved":false,"is_disabled":false,"rental_uris":{"android":"levelo://app?vid=13f0a338-d2eb-4be6-b344-df5d9928dcde","ios":"levelo://app?vid=13f0a338-d2eb-4be6-b344-df5d9928dcde"},"vehicle_type_id":"4","last_reported":1741874973,"current_range_meters":8400,"station_id":"ce4bgup2rcd13ifvqco0","pricing_plan_id":"cebpf4jnsgd1na2vs0mg"},{"bike_id":"aeff4ce1-034b-4014-b913-fcaa42ffff4c","system_id":"levelo_inurba_marseille","lat":43.27079,"lon":5.423,"is_reserved":false,"is_disabled":false,"rental_uris":{"android":"levelo://app?vid=aeff4ce1-034b-4014-b913-fcaa42ffff4c","ios":"levelo://app?vid=aeff4ce1-034b-4014-b913-fcaa42ffff4c"},"vehicle_type_id":"4","last_reported":1741874973,"current_range_meters":8400,"station_id":"ce4bhk92rcd13ifvqgb0","pricing_plan_id":"cebpf4jnsgd1na2vs0mg"},{"bike_id":"4a9c9b97-dfdf-4679-85c2-aacc3c399c23","system_id":"levelo_inurba_marseille","lat":43.313435,"lon":5.367233,"is_reserved":false,"is_disabled":false,"rental_uris":{"android":"levelo://app?vid=4a9c9b97-dfdf-4679-85c2-aacc3c399c23","ios":"levelo://app?vid=4a9c9b97-dfdf-4679-85c2-aacc3c399c23"},"vehicle_type_id":"4","last_reported":1741874973,"current_range_meters":8800,"station_id":"ce4bgr92rcd13ifvqc6g","pricing_plan_id":"cebpf4jnsgd1na2vs0mg"},{"bike_id":"460e38a0-7962-4681-ad76-60ed09aa61ae","system_id":"levelo_inurba_marseille","lat":43.30154,"lon":5.38107,"is_reserved":false,"is_disabled":false,"rental_uris":{"android":"levelo://app?vid=460e38a0-7962-4681-ad76-60ed09aa61ae","ios":"levelo://app?vid=460e38a0-7962-4681-ad76-60ed09aa61ae"},"vehicle_type_id":"4","last_reported":1741874973,"current_range_meters":6000,"station_id":"ce4bgjp2rcd13ifvqbh0","pricing_plan_id":"cebpf4jnsgd1na2vs0mg"},{"bike_id":"fd69c38f-6d25-4b25-9419-be2bbdae9b9a","system_id":"levelo_inurba_marseille","lat":43.30552,"lon":5.3656,"is_reserved":false,"is_disabled":false,"rental_uris":{"android":"levelo://app?vid=fd69c38f-6d25-4b25-9419-be2bbdae9b9a","ios":"levelo://app?vid=fd69c38f-6d25-4b25-9419-be2bbdae9b9a"},"vehicle_type_id":"4","last_reported":1741874973,"current_range_meters":8800,"station_id":"ce4bho92rcd13ifvqh3g","pricing_plan_id":"cebpf4jnsgd1na2vs0mg"},{"bike_id":"f6f5ba21-d718-4c67-9381-1147138e897f","system_id":"levelo_inurba_marseille","lat":43.31078,"lon":5.38362,"is_reserved":false,"is_disabled":false,"rental_uris":{"android":"levelo://app?vid=f6f5ba21-d718-4c67-9381-1147138e897f","ios":"levelo://app?vid=f6f5ba21-d718-4c67-9381-1147138e897f"},"vehicle_type_id":"4","last_reported":1741874973,"current_range_meters":8800,"station_id":"ce4bgv92rcd13ifvqcr0","pricing_plan_id":"cebpf4jnsgd1na2vs0mg"},{"bike_id":"6c58e2e0-6c43-4bd8-b702-60260c436f60","system_id":"levelo_inurba_marseille","lat":43.28489,"lon":5.38558,"is_reserved":false,"is_disabled":false,"rental_uris":{"android":"levelo://app?vid=6c58e2e0-6c43-4bd8-b702-60260c436f60","ios":"levelo://app?vid=6c58e2e0-6c43-4bd8-b702-60260c436f60"},"vehicle_type_id":"4","last_reported":1741874973,"current_range_meters":8800,"station_id":"ce4bh8p2rcd13ifvqeb0","pricing_plan_id":"cebpf4jnsgd1na2vs0mg"},{"bike_id":"33cb47f5-53b1-4195-96d0-954fa22c5ba7","system_id":"levelo_inurba_marseille","lat":43.30163,"lon":5.38082,"is_reserved":false,"is_disabled":false,"rental_uris":{"android":"levelo://app?vid=33cb47f5-53b1-4195-96d0-954fa22c5ba7","ios":"levelo://app?vid=33cb47f5-53b1-4195-96d0-954fa22c5ba7"},"vehicle_type_id":"4","last_reported":1741874973,"current_range_meters":8800,"station_id":"ce4bgjp2rcd13ifvqbh0","pricing_plan_id":"cebpf4jnsgd1na2vs0mg"},{"bike_id":"e4f9cba8-8b7d-4660-84a7-86c182fc3582","system_id":"levelo_inurba_marseille","lat":43.309046,"lon":5.3684,"is_reserved":false,"is_disabled":false,"rental_uris":{"android":"levelo://app?vid=e4f9cba8-8b7d-4660-84a7-86c182fc3582","ios":"levelo://app?vid=e4f9cba8-8b7d-4660-84a7-86c182fc3582"},"vehicle_type_id":"4","last_reported":1741874973,"current_range_meters":8800,"station_id":"ce4bgn92rcd13ifvqbvg","pricing_plan_id":"cebpf4jnsgd1na2vs0mg"},{"bike_id":"da92525d-691b-4e51-989f-b5c466d8ec4c","system_id":"levelo_inurba_marseille","lat":43.22938,"lon":5.35394,"is_reserved":false,"is_disabled":false,"rental_uris":{"android":"levelo://app?vid=da92525d-691b-4e51-989f-b5c466d8ec4c","ios":"levelo://app?vid=da92525d-691b-4e51-989f-b5c466d8ec4c"},"vehicle_type_id":"4","last_reported":1741874973,"current_range_meters":8800,"station_id":"cpo3532slgdg3j2ikp40","pricing_plan_id":"cebpf4jnsgd1na2vs0mg"},{"bike_id":"5656266c-c1b7-4734-a6be-bf30d9daadce","system_id":"levelo_inurba_marseille","lat":43.30807,"lon":5.38142,"is_reserved":false,"is_disabled":false,"rental_uris":{"android":"levelo://app?vid=5656266c-c1b7-4734-a6be-bf30d9daadce","ios":"levelo://app?vid=5656266c-c1b7-4734-a6be-bf30d9daadce"},"vehicle_type_id":"4","last_reported":1741874973,"current_range_meters":8800,"station_id":"ce4bgt12rcd13ifvqce0","pricing_plan_id":"cebpf4jnsgd1na2vs0mg"},{"bike_id":"52d92dfb-25dd-4602-be58-36849cd50edc","system_id":"levelo_inurba_marseille","lat":43.2793,"lon":5.39591,"is_reserved":false,"is_disabled":false,"rental_uris":{"android":"levelo://app?vid=52d92dfb-25dd-4602-be58-36849cd50edc","ios":"levelo://app?vid=52d92dfb-25dd-4602-be58-36849cd50edc"},"vehicle_type_id":"4","last_reported":1741874973,"current_range_meters":8800,"station_id":"ce4bhf92rcd13ifvqf40","pricing_plan_id":"cebpf4jnsgd1na2vs0mg"},{"bike_id":"02856e9e-87a0-4db1-8d36-2f035a3cb82d","system_id":"levelo_inurba_marseille","lat":43.25938,"lon":5.40893,"is_reserved":false,"is_disabled":false,"rental_uris":{"android":"levelo://app?vid=02856e9e-87a0-4db1-8d36-2f035a3cb82d","ios":"levelo://app?vid=02856e9e-87a0-4db1-8d36-2f035a3cb82d"},"vehicle_type_id":"4","last_reported":1741874973,"current_range_meters":8800,"station_id":"ce4bhm92rcd13ifvqglg","pricing_plan_id":"cebpf4jnsgd1na2vs0mg"},{"bike_id":"097b290e-bbf9-4c4b-b3f2-542c2279cfde","system_id":"levelo_inurba_marseille","lat":43.30147,"lon":5.374137,"is_reserved":false,"is_disabled":false,"rental_uris":{"android":"levelo://app?vid=097b290e-bbf9-4c4b-b3f2-542c2279cfde","ios":"levelo://app?vid=097b290e-bbf9-4c4b-b3f2-542c2279cfde"},"vehicle_type_id":"4","last_reported":1741874973,"current_range_meters":9200,"station_id":"ce4bgs92rcd13ifvqcc0","pricing_plan_id":"cebpf4jnsgd1na2vs0mg"},{"bike_id":"441d2ddc-39dd-48e4-898d-eee7c497f120","system_id":"levelo_inurba_marseille","lat":43.30527,"lon":5.3652,"is_reserved":false,"is_disabled":false,"rental_uris":{"android":"levelo://app?vid=441d2ddc-39dd-48e4-898d-eee7c497f120","ios":"levelo://app?vid=441d2ddc-39dd-48e4-898d-eee7c497f120"},"vehicle_type_id":"4","last_reported":1741874973,"current_range_meters":9200,"station_id":"ce4bgs12rcd13ifvqcag","pricing_plan_id":"cebpf4jnsgd1na2vs0mg"},{"bike_id":"501acaad-6b9b-406b-892f-79366f5d338b","system_id":"levelo_inurba_marseille","lat":43.2407,"lon":5.37765,"is_reserved":false,"is_disabled":false,"rental_uris":{"android":"levelo://app?vid=501acaad-6b9b-406b-892f-79366f5d338b","ios":"levelo://app?vid=501acaad-6b9b-406b-892f-79366f5d338b"},"vehicle_type_id":"4","last_reported":1741874973,"current_range_meters":9200,"station_id":"ce4bhnp2rcd13ifvqgvg","pricing_plan_id":"cebpf4jnsgd1na2vs0mg"},{"bike_id":"ac063617-4f36-46ea-a7dd-463e05619db3","system_id":"levelo_inurba_marseille","lat":43.27211,"lon":5.39182,"is_reserved":false,"is_disabled":false,"rental_uris":{"android":"levelo://app?vid=ac063617-4f36-46ea-a7dd-463e05619db3","ios":"levelo://app?vid=ac063617-4f36-46ea-a7dd-463e05619db3"},"vehicle_type_id":"4","last_reported":1741874973,"current_range_meters":7200,"station_id":"ce4bhhp2rcd13ifvqfm0","pricing_plan_id":"cebpf4jnsgd1na2vs0mg"},{"bike_id":"97bfb8c0-4f7b-4ef4-ae46-bad7e53e4b0c","system_id":"levelo_inurba_marseille","lat":43.30795,"lon":5.3816,"is_reserved":false,"is_disabled":false,"rental_uris":{"android":"levelo://app?vid=97bfb8c0-4f7b-4ef4-ae46-bad7e53e4b0c","ios":"levelo://app?vid=97bfb8c0-4f7b-4ef4-ae46-bad7e53e4b0c"},"vehicle_type_id":"4","last_reported":1741874973,"current_range_meters":9200,"station_id":"ce4bgt12rcd13ifvqce0","pricing_plan_id":"cebpf4jnsgd1na2vs0mg"},{"bike_id":"fe2dbfad-2b3c-45be-b26a-7ab6c0dcbc97","system_id":"levelo_inurba_marseille","lat":43.30157,"lon":5.37697,"is_reserved":false,"is_disabled":false,"rental_uris":{"android":"levelo://app?vid=fe2dbfad-2b3c-45be-b26a-7ab6c0dcbc97","ios":"levelo://app?vid=fe2dbfad-2b3c-45be-b26a-7ab6c0dcbc97"},"vehicle_type_id":"4","last_reported":1741874973,"current_range_meters":9200,"station_id":"","pricing_plan_id":"cebpf4jnsgd1na2vs0mg"},{"bike_id":"97ba1768-fb66-4214-8ccc-a93a364823cb","system_id":"levelo_inurba_marseille","lat":43.24159,"lon":5.397223,"is_reserved":false,"is_disabled":false,"rental_uris":{"android":"levelo://app?vid=97ba1768-fb66-4214-8ccc-a93a364823cb","ios":"levelo://app?vid=97ba1768-fb66-4214-8ccc-a93a364823cb"},"vehicle_type_id":"4","last_reported":1741874973,"current_range_meters":9200,"station_id":"ce4bhn12rcd13ifvqgpg","pricing_plan_id":"cebpf4jnsgd1na2vs0mg"},{"bike_id":"b3fead73-4c4c-401e-81a0-a7fad437c748","system_id":"levelo_inurba_marseille","lat":43.25011,"lon":5.38922,"is_reserved":false,"is_disabled":false,"rental_uris":{"android":"levelo://app?vid=b3fead73-4c4c-401e-81a0-a7fad437c748","ios":"levelo://app?vid=b3fead73-4c4c-401e-81a0-a7fad437c748"},"vehicle_type_id":"4","last_reported":1741874973,"current_range_meters":9200,"station_id":"ce4bhgp2rcd13ifvqfd0","pricing_plan_id":"cebpf4jnsgd1na2vs0mg"},{"bike_id":"ab73057a-abc1-457e-948b-9f097eb10b97","system_id":"levelo_inurba_marseille","lat":43.29625,"lon":5.37165,"is_reserved":false,"is_disabled":false,"rental_uris":{"android":"levelo://app?vid=ab73057a-abc1-457e-948b-9f097eb10b97","ios":"levelo://app?vid=ab73057a-abc1-457e-948b-9f097eb10b97"},"vehicle_type_id":"4","last_reported":1741874973,"current_range_meters":9200,"station_id":"ce4bgnh2rcd13ifvqc0g","pricing_plan_id":"cebpf4jnsgd1na2vs0mg"},{"bike_id":"da2755da-e147-4ac1-a3a7-f5a31cd36490","system_id":"levelo_inurba_marseille","lat":43.23158,"lon":5.43708,"is_reserved":false,"is_disabled":false,"rental_uris":{"android":"levelo://app?vid=da2755da-e147-4ac1-a3a7-f5a31cd36490","ios":"levelo://app?vid=da2755da-e147-4ac1-a3a7-f5a31cd36490"},"vehicle_type_id":"4","last_reported":1741874973,"current_range_meters":9600,"station_id":"ce4bhmp2rcd13ifvqgog","pricing_plan_id":"cebpf4jnsgd1na2vs0mg"},{"bike_id":"987dc339-bae3-4e86-97d3-4816065b1a6a","system_id":"levelo_inurba_marseille","lat":43.265679,"lon":5.390141,"is_reserved":false,"is_disabled":false,"rental_uris":{"android":"levelo://app?vid=987dc339-bae3-4e86-97d3-4816065b1a6a","ios":"levelo://app?vid=987dc339-bae3-4e86-97d3-4816065b1a6a"},"vehicle_type_id":"4","last_reported":1741874973,"current_range_meters":9600,"station_id":"ce4bhe12rcd13ifvqf30","pricing_plan_id":"cebpf4jnsgd1na2vs0mg"},{"bike_id":"b6d8ba2a-aca4-4c1c-a0ae-1b9b91f76e1f","system_id":"levelo_inurba_marseille","lat":43.2655,"lon":5.37301,"is_reserved":false,"is_disabled":false,"rental_uris":{"android":"levelo://app?vid=b6d8ba2a-aca4-4c1c-a0ae-1b9b91f76e1f","ios":"levelo://app?vid=b6d8ba2a-aca4-4c1c-a0ae-1b9b91f76e1f"},"vehicle_type_id":"4","last_reported":1741874973,"current_range_meters":9600,"station_id":"ce4bhg12rcd13ifvqf70","pricing_plan_id":"cebpf4jnsgd1na2vs0mg"},{"bike_id":"b58c8907-99d2-493e-a9cb-37d0a6855ab5","system_id":"levelo_inurba_marseille","lat":43.28621,"lon":5.35106,"is_reserved":false,"is_disabled":false,"rental_uris":{"android":"levelo://app?vid=b58c8907-99d2-493e-a9cb-37d0a6855ab5","ios":"levelo://app?vid=b58c8907-99d2-493e-a9cb-37d0a6855ab5"},"vehicle_type_id":"4","last_reported":1741874973,"current_range_meters":9600,"station_id":"ce4bhch2rcd13ifvqeug","pricing_plan_id":"cebpf4jnsgd1na2vs0mg"},{"bike_id":"eff09b91-9566-4440-a010-d19c4008f7f2","system_id":"levelo_inurba_marseille","lat":43.2848,"lon":5.3843,"is_reserved":false,"is_disabled":false,"rental_uris":{"android":"levelo://app?vid=eff09b91-9566-4440-a010-d19c4008f7f2","ios":"levelo://app?vid=eff09b91-9566-4440-a010-d19c4008f7f2"},"vehicle_type_id":"4","last_reported":1741874973,"current_range_meters":9600,"station_id":"ce4bh512rcd13ifvqe3g","pricing_plan_id":"cebpf4jnsgd1na2vs0mg"},{"bike_id":"38c88b08-41ba-4381-9de5-3b8ecb213ecf","system_id":"levelo_inurba_marseille","lat":43.2993,"lon":5.36539,"is_reserved":false,"is_disabled":false,"rental_uris":{"android":"levelo://app?vid=38c88b08-41ba-4381-9de5-3b8ecb213ecf","ios":"levelo://app?vid=38c88b08-41ba-4381-9de5-3b8ecb213ecf"},"vehicle_type_id":"4","last_reported":1741874973,"current_range_meters":10000,"station_id":"ce4bgm92rcd13ifvqbr0","pricing_plan_id":"cebpf4jnsgd1na2vs0mg"},{"bike_id":"b3f2feba-3094-4859-afc5-532ddc2fc5f7","system_id":"levelo_inurba_marseille","lat":43.26955,"lon":5.386317,"is_reserved":false,"is_disabled":false,"rental_uris":{"android":"levelo://app?vid=b3f2feba-3094-4859-afc5-532ddc2fc5f7","ios":"levelo://app?vid=b3f2feba-3094-4859-afc5-532ddc2fc5f7"},"vehicle_type_id":"4","last_reported":1741874973,"current_range_meters":10000,"station_id":"ce4bhh92rcd13ifvqfh0","pricing_plan_id":"cebpf4jnsgd1na2vs0mg"},{"bike_id":"ccbf9314-2e01-4157-b305-00182a64533f","system_id":"levelo_inurba_marseille","lat":43.29557,"lon":5.4226,"is_reserved":false,"is_disabled":false,"rental_uris":{"android":"levelo://app?vid=ccbf9314-2e01-4157-b305-00182a64533f","ios":"levelo://app?vid=ccbf9314-2e01-4157-b305-00182a64533f"},"vehicle_type_id":"4","last_reported":1741874973,"current_range_meters":10000,"station_id":"ce4bhph2rcd13ifvqhdg","pricing_plan_id":"cebpf4jnsgd1na2vs0mg"},{"bike_id":"7ec2477b-a3d5-4b5f-9b86-6657eaa66da5","system_id":"levelo_inurba_marseille","lat":43.28114,"lon":5.37838,"is_reserved":false,"is_disabled":false,"rental_uris":{"android":"levelo://app?vid=7ec2477b-a3d5-4b5f-9b86-6657eaa66da5","ios":"levelo://app?vid=7ec2477b-a3d5-4b5f-9b86-6657eaa66da5"},"vehicle_type_id":"4","last_reported":1741874973,"current_range_meters":10000,"station_id":"ce4bha12rcd13ifvqee0","pricing_plan_id":"cebpf4jnsgd1na2vs0mg"},{"bike_id":"02e6ffe7-801a-4c7c-86fd-3d3f4a092e39","system_id":"levelo_inurba_marseille","lat":43.24072,"lon":5.37774,"is_reserved":false,"is_disabled":false,"rental_uris":{"android":"levelo://app?vid=02e6ffe7-801a-4c7c-86fd-3d3f4a092e39","ios":"levelo://app?vid=02e6ffe7-801a-4c7c-86fd-3d3f4a092e39"},"vehicle_type_id":"4","last_reported":1741874973,"current_range_meters":10000,"station_id":"ce4bhnp2rcd13ifvqgvg","pricing_plan_id":"cebpf4jnsgd1na2vs0mg"},{"bike_id":"a2700207-e47d-4273-8901-cf86d647c953","system_id":"levelo_inurba_marseille","lat":43.24123,"lon":5.37679,"is_reserved":false,"is_disabled":false,"rental_uris":{"android":"levelo://app?vid=a2700207-e47d-4273-8901-cf86d647c953","ios":"levelo://app?vid=a2700207-e47d-4273-8901-cf86d647c953"},"vehicle_type_id":"4","last_reported":1741874973,"current_range_meters":10000,"station_id":"","pricing_plan_id":"cebpf4jnsgd1na2vs0mg"},{"bike_id":"e48c9fb6-9d4d-44ac-817b-fc611c6ae38a","system_id":"levelo_inurba_marseille","lat":43.32542,"lon":5.41438,"is_reserved":false,"is_disabled":false,"rental_uris":{"android":"levelo://app?vid=e48c9fb6-9d4d-44ac-817b-fc611c6ae38a","ios":"levelo://app?vid=e48c9fb6-9d4d-44ac-817b-fc611c6ae38a"},"vehicle_type_id":"4","last_reported":1741874973,"current_range_meters":10000,"station_id":"ce4bhq12rcd13ifvqhhg","pricing_plan_id":"cebpf4jnsgd1na2vs0mg"},{"bike_id":"5ea665ea-9d42-49ad-8894-53fe95cae047","system_id":"levelo_inurba_marseille","lat":43.31221,"lon":5.36862,"is_reserved":false,"is_disabled":false,"rental_uris":{"android":"levelo://app?vid=5ea665ea-9d42-49ad-8894-53fe95cae047","ios":"levelo://app?vid=5ea665ea-9d42-49ad-8894-53fe95cae047"},"vehicle_type_id":"4","last_reported":1741874973,"current_range_meters":10000,"station_id":"ce4bgl92rcd13ifvqbq0","pricing_plan_id":"cebpf4jnsgd1na2vs0mg"},{"bike_id":"1cbeb49c-8d51-46f2-ad03-8af78ea79d9a","system_id":"levelo_inurba_marseille","lat":43.2417,"lon":5.397,"is_reserved":false,"is_disabled":false,"rental_uris":{"android":"levelo://app?vid=1cbeb49c-8d51-46f2-ad03-8af78ea79d9a","ios":"levelo://app?vid=1cbeb49c-8d51-46f2-ad03-8af78ea79d9a"},"vehicle_type_id":"4","last_reported":1741874973,"current_range_meters":10000,"station_id":"ce4bhn12rcd13ifvqgpg","pricing_plan_id":"cebpf4jnsgd1na2vs0mg"},{"bike_id":"d0be61ee-8c6c-4bf7-99b6-f099a281a656","system_id":"levelo_inurba_marseille","lat":43.25016,"lon":5.38916,"is_reserved":false,"is_disabled":false,"rental_uris":{"android":"levelo://app?vid=d0be61ee-8c6c-4bf7-99b6-f099a281a656","ios":"levelo://app?vid=d0be61ee-8c6c-4bf7-99b6-f099a281a656"},"vehicle_type_id":"4","last_reported":1741874973,"current_range_meters":10000,"station_id":"ce4bhgp2rcd13ifvqfd0","pricing_plan_id":"cebpf4jnsgd1na2vs0mg"},{"bike_id":"5a0002da-b687-4872-932d-20fcc86b0c9d","system_id":"levelo_inurba_marseille","lat":43.25021,"lon":5.38921,"is_reserved":false,"is_disabled":false,"rental_uris":{"android":"levelo://app?vid=5a0002da-b687-4872-932d-20fcc86b0c9d","ios":"levelo://app?vid=5a0002da-b687-4872-932d-20fcc86b0c9d"},"vehicle_type_id":"4","last_reported":1741874973,"current_range_meters":10800,"station_id":"ce4bhgp2rcd13ifvqfd0","pricing_plan_id":"cebpf4jnsgd1na2vs0mg"},{"bike_id":"d041a7b5-732c-474f-b556-c0142a8f7b8d","system_id":"levelo_inurba_marseille","lat":43.31251,"lon":5.36829,"is_reserved":false,"is_disabled":false,"rental_uris":{"android":"levelo://app?vid=d041a7b5-732c-474f-b556-c0142a8f7b8d","ios":"levelo://app?vid=d041a7b5-732c-474f-b556-c0142a8f7b8d"},"vehicle_type_id":"4","last_reported":1741874973,"current_range_meters":10800,"station_id":"ce4bgl92rcd13ifvqbq0","pricing_plan_id":"cebpf4jnsgd1na2vs0mg"},{"bike_id":"4be2cbb2-7c5e-4b7f-8401-6f1518bf2984","system_id":"levelo_inurba_marseille","lat":43.33201,"lon":5.39582,"is_reserved":false,"is_disabled":false,"rental_uris":{"android":"levelo://app?vid=4be2cbb2-7c5e-4b7f-8401-6f1518bf2984","ios":"levelo://app?vid=4be2cbb2-7c5e-4b7f-8401-6f1518bf2984"},"vehicle_type_id":"4","last_reported":1741874973,"current_range_meters":10800,"station_id":"","pricing_plan_id":"cebpf4jnsgd1na2vs0mg"},{"bike_id":"22972314-4a2b-4d4a-846e-6ea006363f50","system_id":"levelo_inurba_marseille","lat":43.29419,"lon":5.38629,"is_reserved":false,"is_disabled":false,"rental_uris":{"android":"levelo://app?vid=22972314-4a2b-4d4a-846e-6ea006363f50","ios":"levelo://app?vid=22972314-4a2b-4d4a-846e-6ea006363f50"},"vehicle_type_id":"4","last_reported":1741874973,"current_range_meters":10800,"station_id":"ce4bh2h2rcd13ifvqdh0","pricing_plan_id":"cebpf4jnsgd1na2vs0mg"},{"bike_id":"00b489e6-2d1b-4399-99f8-fb9c65f26ebb","system_id":"levelo_inurba_marseille","lat":43.24073,"lon":5.37768,"is_reserved":false,"is_disabled":false,"rental_uris":{"android":"levelo://app?vid=00b489e6-2d1b-4399-99f8-fb9c65f26ebb","ios":"levelo://app?vid=00b489e6-2d1b-4399-99f8-fb9c65f26ebb"},"vehicle_type_id":"4","last_reported":1741874973,"current_range_meters":10800,"station_id":"ce4bhnp2rcd13ifvqgvg","pricing_plan_id":"cebpf4jnsgd1na2vs0mg"},{"bike_id":"1179ea35-4831-4438-984a-d67269a5255b","system_id":"levelo_inurba_marseille","lat":43.23196,"lon":5.35559,"is_reserved":false,"is_disabled":false,"rental_uris":{"android":"levelo://app?vid=1179ea35-4831-4438-984a-d67269a5255b","ios":"levelo://app?vid=1179ea35-4831-4438-984a-d67269a5255b"},"vehicle_type_id":"4","last_reported":1741874973,"current_range_meters":10800,"station_id":"ce4bhu92rcd13ifvqi70","pricing_plan_id":"cebpf4jnsgd1na2vs0mg"},{"bike_id":"154d0f4a-7cf1-4b4a-8919-807104d462e1","system_id":"levelo_inurba_marseille","lat":43.2667,"lon":5.38622,"is_reserved":false,"is_disabled":false,"rental_uris":{"android":"levelo://app?vid=154d0f4a-7cf1-4b4a-8919-807104d462e1","ios":"levelo://app?vid=154d0f4a-7cf1-4b4a-8919-807104d462e1"},"vehicle_type_id":"4","last_reported":1741874973,"current_range_meters":10800,"station_id":"","pricing_plan_id":"cebpf4jnsgd1na2vs0mg"},{"bike_id":"079f3adc-4b20-4152-b0b0-dabdb04df937","system_id":"levelo_inurba_marseille","lat":43.298524,"lon":5.362647,"is_reserved":false,"is_disabled":false,"rental_uris":{"android":"levelo://app?vid=079f3adc-4b20-4152-b0b0-dabdb04df937","ios":"levelo://app?vid=079f3adc-4b20-4152-b0b0-dabdb04df937"},"vehicle_type_id":"4","last_reported":1741874973,"current_range_meters":10800,"station_id":"ce4bgpp2rcd13ifvqc3g","pricing_plan_id":"cebpf4jnsgd1na2vs0mg"},{"bike_id":"bd281108-88fe-41c2-9e30-8c87bd7ba00e","system_id":"levelo_inurba_marseille","lat":43.23151,"lon":5.43721,"is_reserved":false,"is_disabled":false,"rental_uris":{"android":"levelo://app?vid=bd281108-88fe-41c2-9e30-8c87bd7ba00e","ios":"levelo://app?vid=bd281108-88fe-41c2-9e30-8c87bd7ba00e"},"vehicle_type_id":"4","last_reported":1741874973,"current_range_meters":11200,"station_id":"ce4bhmp2rcd13ifvqgog","pricing_plan_id":"cebpf4jnsgd1na2vs0mg"},{"bike_id":"70d7825b-a30c-4b78-bae2-c7ac789d6f10","system_id":"levelo_inurba_marseille","lat":43.29862,"lon":5.36293,"is_reserved":false,"is_disabled":false,"rental_uris":{"android":"levelo://app?vid=70d7825b-a30c-4b78-bae2-c7ac789d6f10","ios":"levelo://app?vid=70d7825b-a30c-4b78-bae2-c7ac789d6f10"},"vehicle_type_id":"4","last_reported":1741874973,"current_range_meters":11200,"station_id":"ce4bgpp2rcd13ifvqc3g","pricing_plan_id":"cebpf4jnsgd1na2vs0mg"},{"bike_id":"dd11d9eb-8532-4d62-b8f7-a955051a92a0","system_id":"levelo_inurba_marseille","lat":43.30425,"lon":5.3976,"is_reserved":false,"is_disabled":false,"rental_uris":{"android":"levelo://app?vid=dd11d9eb-8532-4d62-b8f7-a955051a92a0","ios":"levelo://app?vid=dd11d9eb-8532-4d62-b8f7-a955051a92a0"},"vehicle_type_id":"4","last_reported":1741874973,"current_range_meters":11200,"station_id":"ce4bh092rcd13ifvqd20","pricing_plan_id":"cebpf4jnsgd1na2vs0mg"},{"bike_id":"2fe3a441-0068-4d00-803f-ebeefdd6be3d","system_id":"levelo_inurba_marseille","lat":43.29046,"lon":5.35909,"is_reserved":false,"is_disabled":false,"rental_uris":{"android":"levelo://app?vid=2fe3a441-0068-4d00-803f-ebeefdd6be3d","ios":"levelo://app?vid=2fe3a441-0068-4d00-803f-ebeefdd6be3d"},"vehicle_type_id":"4","last_reported":1741874973,"current_range_meters":11200,"station_id":"ce4bha92rcd13ifvqeg0","pricing_plan_id":"cebpf4jnsgd1na2vs0mg"},{"bike_id":"58fcbc8c-9a0f-47cf-bc32-b43f95505588","system_id":"levelo_inurba_marseille","lat":43.31173,"lon":5.38715,"is_reserved":false,"is_disabled":false,"rental_uris":{"android":"levelo://app?vid=58fcbc8c-9a0f-47cf-bc32-b43f95505588","ios":"levelo://app?vid=58fcbc8c-9a0f-47cf-bc32-b43f95505588"},"vehicle_type_id":"4","last_reported":1741874973,"current_range_meters":11200,"station_id":"ce4bgv12rcd13ifvqcp0","pricing_plan_id":"cebpf4jnsgd1na2vs0mg"},{"bike_id":"5233e443-1736-449b-bfef-634509c8ee4b","system_id":"levelo_inurba_marseille","lat":43.29492,"lon":5.38647,"is_reserved":false,"is_disabled":false,"rental_uris":{"android":"levelo://app?vid=5233e443-1736-449b-bfef-634509c8ee4b","ios":"levelo://app?vid=5233e443-1736-449b-bfef-634509c8ee4b"},"vehicle_type_id":"4","last_reported":1741874973,"current_range_meters":11200,"station_id":"","pricing_plan_id":"cebpf4jnsgd1na2vs0mg"},{"bike_id":"05e2d10a-3798-43f4-a501-7e81199cf6fa","system_id":"levelo_inurba_marseille","lat":43.25002,"lon":5.38924,"is_reserved":false,"is_disabled":false,"rental_uris":{"android":"levelo://app?vid=05e2d10a-3798-43f4-a501-7e81199cf6fa","ios":"levelo://app?vid=05e2d10a-3798-43f4-a501-7e81199cf6fa"},"vehicle_type_id":"4","last_reported":1741874973,"current_range_meters":8000,"station_id":"ce4bhgp2rcd13ifvqfd0","pricing_plan_id":"cebpf4jnsgd1na2vs0mg"},{"bike_id":"2a357399-1074-43a4-92c9-fe4475f3d914","system_id":"levelo_inurba_marseille","lat":43.27376,"lon":5.3626,"is_reserved":false,"is_disabled":false,"rental_uris":{"android":"levelo://app?vid=2a357399-1074-43a4-92c9-fe4475f3d914","ios":"levelo://app?vid=2a357399-1074-43a4-92c9-fe4475f3d914"},"vehicle_type_id":"4","last_reported":1741874973,"current_range_meters":11600,"station_id":"ce4bhbh2rcd13ifvqeo0","pricing_plan_id":"cebpf4jnsgd1na2vs0mg"},{"bike_id":"abb4d827-d99d-447a-b69c-566f9402f115","system_id":"levelo_inurba_marseille","lat":43.259277,"lon":5.409082,"is_reserved":false,"is_disabled":false,"rental_uris":{"android":"levelo://app?vid=abb4d827-d99d-447a-b69c-566f9402f115","ios":"levelo://app?vid=abb4d827-d99d-447a-b69c-566f9402f115"},"vehicle_type_id":"4","last_reported":1741874973,"current_range_meters":11600,"station_id":"ce4bhm92rcd13ifvqglg","pricing_plan_id":"cebpf4jnsgd1na2vs0mg"},{"bike_id":"4760c4a3-2ebc-4787-9bfd-517781e41b15","system_id":"levelo_inurba_marseille","lat":43.28609,"lon":5.37065,"is_reserved":false,"is_disabled":false,"rental_uris":{"android":"levelo://app?vid=4760c4a3-2ebc-4787-9bfd-517781e41b15","ios":"levelo://app?vid=4760c4a3-2ebc-4787-9bfd-517781e41b15"},"vehicle_type_id":"4","last_reported":1741874973,"current_range_meters":11600,"station_id":"ce4bht12rcd13ifvqi60","pricing_plan_id":"cebpf4jnsgd1na2vs0mg"},{"bike_id":"cd7d2f23-14c8-4b00-b3ea-b5313802c0fa","system_id":"levelo_inurba_marseille","lat":43.25864,"lon":5.3991,"is_reserved":false,"is_disabled":false,"rental_uris":{"android":"levelo://app?vid=cd7d2f23-14c8-4b00-b3ea-b5313802c0fa","ios":"levelo://app?vid=cd7d2f23-14c8-4b00-b3ea-b5313802c0fa"},"vehicle_type_id":"4","last_reported":1741874973,"current_range_meters":11600,"station_id":"ce4bhl92rcd13ifvqghg","pricing_plan_id":"cebpf4jnsgd1na2vs0mg"},{"bike_id":"3f571f4a-614e-4fa9-b3cf-730dbef9266a","system_id":"levelo_inurba_marseille","lat":43.29007,"lon":5.35612,"is_reserved":false,"is_disabled":false,"rental_uris":{"android":"levelo://app?vid=3f571f4a-614e-4fa9-b3cf-730dbef9266a","ios":"levelo://app?vid=3f571f4a-614e-4fa9-b3cf-730dbef9266a"},"vehicle_type_id":"4","last_reported":1741874973,"current_range_meters":15200,"station_id":"ce4bhb92rcd13ifvqen0","pricing_plan_id":"cebpf4jnsgd1na2vs0mg"},{"bike_id":"00e9cc9b-4e9f-4f02-aa23-0b824e0e7a79","system_id":"levelo_inurba_marseille","lat":43.2418,"lon":5.3972,"is_reserved":false,"is_disabled":false,"rental_uris":{"android":"levelo://app?vid=00e9cc9b-4e9f-4f02-aa23-0b824e0e7a79","ios":"levelo://app?vid=00e9cc9b-4e9f-4f02-aa23-0b824e0e7a79"},"vehicle_type_id":"4","last_reported":1741874973,"current_range_meters":11600,"station_id":"ce4bhn12rcd13ifvqgpg","pricing_plan_id":"cebpf4jnsgd1na2vs0mg"},{"bike_id":"5cce8c68-ab9c-4191-af50-cc1d03765c2b","system_id":"levelo_inurba_marseille","lat":43.25926,"lon":5.4089,"is_reserved":false,"is_disabled":false,"rental_uris":{"android":"levelo://app?vid=5cce8c68-ab9c-4191-af50-cc1d03765c2b","ios":"levelo://app?vid=5cce8c68-ab9c-4191-af50-cc1d03765c2b"},"vehicle_type_id":"4","last_reported":1741874973,"current_range_meters":12000,"station_id":"ce4bhm92rcd13ifvqglg","pricing_plan_id":"cebpf4jnsgd1na2vs0mg"},{"bike_id":"61b9ad25-9195-424f-875c-94c04a329ec9","system_id":"levelo_inurba_marseille","lat":43.33015,"lon":5.3906,"is_reserved":false,"is_disabled":false,"rental_uris":{"android":"levelo://app?vid=61b9ad25-9195-424f-875c-94c04a329ec9","ios":"levelo://app?vid=61b9ad25-9195-424f-875c-94c04a329ec9"},"vehicle_type_id":"4","last_reported":1741874973,"current_range_meters":12000,"station_id":"ce4bhr92rcd13ifvqhrg","pricing_plan_id":"cebpf4jnsgd1na2vs0mg"},{"bike_id":"c02c3606-60a7-4567-b993-d2a4c1c72170","system_id":"levelo_inurba_marseille","lat":43.30222,"lon":5.39506,"is_reserved":false,"is_disabled":false,"rental_uris":{"android":"levelo://app?vid=c02c3606-60a7-4567-b993-d2a4c1c72170","ios":"levelo://app?vid=c02c3606-60a7-4567-b993-d2a4c1c72170"},"vehicle_type_id":"4","last_reported":1741874973,"current_range_meters":11200,"station_id":"ce4bh0p2rcd13ifvqd70","pricing_plan_id":"cebpf4jnsgd1na2vs0mg"},{"bike_id":"a840c813-de68-43a4-881a-5419fa38c2c8","system_id":"levelo_inurba_marseille","lat":43.28965,"lon":5.36411,"is_reserved":false,"is_disabled":false,"rental_uris":{"android":"levelo://app?vid=a840c813-de68-43a4-881a-5419fa38c2c8","ios":"levelo://app?vid=a840c813-de68-43a4-881a-5419fa38c2c8"},"vehicle_type_id":"4","last_reported":1741874973,"current_range_meters":12000,"station_id":"ce4bhc92rcd13ifvqetg","pricing_plan_id":"cebpf4jnsgd1na2vs0mg"},{"bike_id":"9f9eebd4-e297-495b-bc21-82e9b70a33e4","system_id":"levelo_inurba_marseille","lat":43.29932,"lon":5.38157,"is_reserved":false,"is_disabled":false,"rental_uris":{"android":"levelo://app?vid=9f9eebd4-e297-495b-bc21-82e9b70a33e4","ios":"levelo://app?vid=9f9eebd4-e297-495b-bc21-82e9b70a33e4"},"vehicle_type_id":"4","last_reported":1741874973,"current_range_meters":12000,"station_id":"ce4bgj12rcd13ifvqbc0","pricing_plan_id":"cebpf4jnsgd1na2vs0mg"},{"bike_id":"50dac2c4-c3dc-477f-bc64-63962f0973bf","system_id":"levelo_inurba_marseille","lat":43.29263,"lon":5.37625,"is_reserved":false,"is_disabled":false,"rental_uris":{"android":"levelo://app?vid=50dac2c4-c3dc-477f-bc64-63962f0973bf","ios":"levelo://app?vid=50dac2c4-c3dc-477f-bc64-63962f0973bf"},"vehicle_type_id":"4","last_reported":1741874973,"current_range_meters":12000,"station_id":"ce4bgi12rcd13ifvqb80","pricing_plan_id":"cebpf4jnsgd1na2vs0mg"},{"bike_id":"6cc29379-148b-4075-a688-3f5b84405e75","system_id":"levelo_inurba_marseille","lat":43.25866,"lon":5.399,"is_reserved":false,"is_disabled":false,"rental_uris":{"android":"levelo://app?vid=6cc29379-148b-4075-a688-3f5b84405e75","ios":"levelo://app?vid=6cc29379-148b-4075-a688-3f5b84405e75"},"vehicle_type_id":"4","last_reported":1741874973,"current_range_meters":12000,"station_id":"ce4bhl92rcd13ifvqghg","pricing_plan_id":"cebpf4jnsgd1na2vs0mg"},{"bike_id":"cd14c275-037d-4165-a3b9-ec0dd6e80327","system_id":"levelo_inurba_marseille","lat":43.3015,"lon":5.38097,"is_reserved":false,"is_disabled":false,"rental_uris":{"android":"levelo://app?vid=cd14c275-037d-4165-a3b9-ec0dd6e80327","ios":"levelo://app?vid=cd14c275-037d-4165-a3b9-ec0dd6e80327"},"vehicle_type_id":"4","last_reported":1741874973,"current_range_meters":12000,"station_id":"ce4bgjp2rcd13ifvqbh0","pricing_plan_id":"cebpf4jnsgd1na2vs0mg"},{"bike_id":"6944bb06-8a8c-4cf4-86a1-ca9561cf4ee4","system_id":"levelo_inurba_marseille","lat":43.23061,"lon":5.35507,"is_reserved":false,"is_disabled":false,"rental_uris":{"android":"levelo://app?vid=6944bb06-8a8c-4cf4-86a1-ca9561cf4ee4","ios":"levelo://app?vid=6944bb06-8a8c-4cf4-86a1-ca9561cf4ee4"},"vehicle_type_id":"4","last_reported":1741874973,"current_range_meters":12000,"station_id":"cpo3342slgdg3j2ifvpg","pricing_plan_id":"cebpf4jnsgd1na2vs0mg"},{"bike_id":"414a87d8-0320-4da5-94cb-1c2e9eb2c2e2","system_id":"levelo_inurba_marseille","lat":43.25807,"lon":5.39421,"is_reserved":false,"is_disabled":false,"rental_uris":{"android":"levelo://app?vid=414a87d8-0320-4da5-94cb-1c2e9eb2c2e2","ios":"levelo://app?vid=414a87d8-0320-4da5-94cb-1c2e9eb2c2e2"},"vehicle_type_id":"4","last_reported":1741874973,"current_range_meters":12400,"station_id":"ce4bhip2rcd13ifvqft0","pricing_plan_id":"cebpf4jnsgd1na2vs0mg"},{"bike_id":"2ee09967-204b-4f56-99c7-f17a638b168d","system_id":"levelo_inurba_marseille","lat":43.27952,"lon":5.41041,"is_reserved":false,"is_disabled":false,"rental_uris":{"android":"levelo://app?vid=2ee09967-204b-4f56-99c7-f17a638b168d","ios":"levelo://app?vid=2ee09967-204b-4f56-99c7-f17a638b168d"},"vehicle_type_id":"4","last_reported":1741874973,"current_range_meters":12400,"station_id":"ce4bhnp2rcd13ifvqh0g","pricing_plan_id":"cebpf4jnsgd1na2vs0mg"},{"bike_id":"41404971-8a00-4e9f-960f-3da0974a46d4","system_id":"levelo_inurba_marseille","lat":43.25025,"lon":5.38937,"is_reserved":false,"is_disabled":false,"rental_uris":{"android":"levelo://app?vid=41404971-8a00-4e9f-960f-3da0974a46d4","ios":"levelo://app?vid=41404971-8a00-4e9f-960f-3da0974a46d4"},"vehicle_type_id":"4","last_reported":1741874973,"current_range_meters":12400,"station_id":"ce4bhgp2rcd13ifvqfd0","pricing_plan_id":"cebpf4jnsgd1na2vs0mg"},{"bike_id":"4e376f55-e98a-4bf1-8d5f-c79209c93ec1","system_id":"levelo_inurba_marseille","lat":43.30543,"lon":5.36566,"is_reserved":false,"is_disabled":false,"rental_uris":{"android":"levelo://app?vid=4e376f55-e98a-4bf1-8d5f-c79209c93ec1","ios":"levelo://app?vid=4e376f55-e98a-4bf1-8d5f-c79209c93ec1"},"vehicle_type_id":"4","last_reported":1741874973,"current_range_meters":12800,"station_id":"ce4bgs12rcd13ifvqcag","pricing_plan_id":"cebpf4jnsgd1na2vs0mg"},{"bike_id":"2189b7d1-7835-47c5-a635-4d29db82de0f","system_id":"levelo_inurba_marseille","lat":43.24076,"lon":5.37747,"is_reserved":false,"is_disabled":false,"rental_uris":{"android":"levelo://app?vid=2189b7d1-7835-47c5-a635-4d29db82de0f","ios":"levelo://app?vid=2189b7d1-7835-47c5-a635-4d29db82de0f"},"vehicle_type_id":"4","last_reported":1741874973,"current_range_meters":12800,"station_id":"ce4bhnp2rcd13ifvqgvg","pricing_plan_id":"cebpf4jnsgd1na2vs0mg"},{"bike_id":"9db5f361-402f-483a-bcdc-9e6d2c49648d","system_id":"levelo_inurba_marseille","lat":43.28108,"lon":5.37829,"is_reserved":false,"is_disabled":false,"rental_uris":{"android":"levelo://app?vid=9db5f361-402f-483a-bcdc-9e6d2c49648d","ios":"levelo://app?vid=9db5f361-402f-483a-bcdc-9e6d2c49648d"},"vehicle_type_id":"4","last_reported":1741874973,"current_range_meters":12800,"station_id":"ce4bha12rcd13ifvqee0","pricing_plan_id":"cebpf4jnsgd1na2vs0mg"},{"bike_id":"317454e4-dd48-4611-814d-533bcc596415","system_id":"levelo_inurba_marseille","lat":43.29029,"lon":5.37564,"is_reserved":false,"is_disabled":false,"rental_uris":{"android":"levelo://app?vid=317454e4-dd48-4611-814d-533bcc596415","ios":"levelo://app?vid=317454e4-dd48-4611-814d-533bcc596415"},"vehicle_type_id":"4","last_reported":1741874973,"current_range_meters":12800,"station_id":"ce4bh692rcd13ifvqe90","pricing_plan_id":"cebpf4jnsgd1na2vs0mg"},{"bike_id":"a9506dd6-2164-46b0-9578-9303d5dfb6f7","system_id":"levelo_inurba_marseille","lat":43.26557,"lon":5.37286,"is_reserved":false,"is_disabled":false,"rental_uris":{"android":"levelo://app?vid=a9506dd6-2164-46b0-9578-9303d5dfb6f7","ios":"levelo://app?vid=a9506dd6-2164-46b0-9578-9303d5dfb6f7"},"vehicle_type_id":"4","last_reported":1741874973,"current_range_meters":12800,"station_id":"ce4bhg12rcd13ifvqf70","pricing_plan_id":"cebpf4jnsgd1na2vs0mg"},{"bike_id":"36ec5a15-215b-4367-a3ca-336aadd9a251","system_id":"levelo_inurba_marseille","lat":43.33746,"lon":5.3745,"is_reserved":false,"is_disabled":false,"rental_uris":{"android":"levelo://app?vid=36ec5a15-215b-4367-a3ca-336aadd9a251","ios":"levelo://app?vid=36ec5a15-215b-4367-a3ca-336aadd9a251"},"vehicle_type_id":"4","last_reported":1741874973,"current_range_meters":12800,"station_id":"","pricing_plan_id":"cebpf4jnsgd1na2vs0mg"},{"bike_id":"8492cf29-0135-44fd-8919-2c4c92afc8fe","system_id":"levelo_inurba_marseille","lat":43.27811,"lon":5.40706,"is_reserved":false,"is_disabled":false,"rental_uris":{"android":"levelo://app?vid=8492cf29-0135-44fd-8919-2c4c92afc8fe","ios":"levelo://app?vid=8492cf29-0135-44fd-8919-2c4c92afc8fe"},"vehicle_type_id":"4","last_reported":1741874973,"current_range_meters":13600,"station_id":"ce4bhnh2rcd13ifvqgtg","pricing_plan_id":"cebpf4jnsgd1na2vs0mg"},{"bike_id":"7121d818-13e2-43ed-b445-7134fefdd64f","system_id":"levelo_inurba_marseille","lat":43.232035,"lon":5.355488,"is_reserved":false,"is_disabled":false,"rental_uris":{"android":"levelo://app?vid=7121d818-13e2-43ed-b445-7134fefdd64f","ios":"levelo://app?vid=7121d818-13e2-43ed-b445-7134fefdd64f"},"vehicle_type_id":"4","last_reported":1741874973,"current_range_meters":13600,"station_id":"ce4bhu92rcd13ifvqi70","pricing_plan_id":"cebpf4jnsgd1na2vs0mg"},{"bike_id":"9b750467-87e2-4fdb-93d7-edcb536818eb","system_id":"levelo_inurba_marseille","lat":43.305567,"lon":5.367069,"is_reserved":false,"is_disabled":false,"rental_uris":{"android":"levelo://app?vid=9b750467-87e2-4fdb-93d7-edcb536818eb","ios":"levelo://app?vid=9b750467-87e2-4fdb-93d7-edcb536818eb"},"vehicle_type_id":"4","last_reported":1741874973,"current_range_meters":13600,"station_id":"ce4bgrp2rcd13ifvqc9g","pricing_plan_id":"cebpf4jnsgd1na2vs0mg"},{"bike_id":"09aa4115-a3fe-44b0-be40-7d66cb7406de","system_id":"levelo_inurba_marseille","lat":43.28866,"lon":5.35866,"is_reserved":false,"is_disabled":false,"rental_uris":{"android":"levelo://app?vid=09aa4115-a3fe-44b0-be40-7d66cb7406de","ios":"levelo://app?vid=09aa4115-a3fe-44b0-be40-7d66cb7406de"},"vehicle_type_id":"4","last_reported":1741874973,"current_range_meters":13600,"station_id":"ce4bhb12rcd13ifvqem0","pricing_plan_id":"cebpf4jnsgd1na2vs0mg"},{"bike_id":"3363e5ed-aafd-4c83-9f97-12270e6ffcf4","system_id":"levelo_inurba_marseille","lat":43.24868,"lon":5.40654,"is_reserved":false,"is_disabled":false,"rental_uris":{"android":"levelo://app?vid=3363e5ed-aafd-4c83-9f97-12270e6ffcf4","ios":"levelo://app?vid=3363e5ed-aafd-4c83-9f97-12270e6ffcf4"},"vehicle_type_id":"4","last_reported":1741874973,"current_range_meters":13600,"station_id":"","pricing_plan_id":"cebpf4jnsgd1na2vs0mg"},{"bike_id":"2b1b509a-ae2c-4705-a5bd-2d2a5200b454","system_id":"levelo_inurba_marseille","lat":43.3054,"lon":5.36534,"is_reserved":false,"is_disabled":false,"rental_uris":{"android":"levelo://app?vid=2b1b509a-ae2c-4705-a5bd-2d2a5200b454","ios":"levelo://app?vid=2b1b509a-ae2c-4705-a5bd-2d2a5200b454"},"vehicle_type_id":"4","last_reported":1741874973,"current_range_meters":13600,"station_id":"ce4bgs12rcd13ifvqcag","pricing_plan_id":"cebpf4jnsgd1na2vs0mg"},{"bike_id":"45f5800a-99c6-4c7e-892e-8047007584fe","system_id":"levelo_inurba_marseille","lat":43.2986,"lon":5.36284,"is_reserved":false,"is_disabled":false,"rental_uris":{"android":"levelo://app?vid=45f5800a-99c6-4c7e-892e-8047007584fe","ios":"levelo://app?vid=45f5800a-99c6-4c7e-892e-8047007584fe"},"vehicle_type_id":"4","last_reported":1741874973,"current_range_meters":13600,"station_id":"ce4bgpp2rcd13ifvqc3g","pricing_plan_id":"cebpf4jnsgd1na2vs0mg"},{"bike_id":"c4e17f26-b51c-4d27-9aba-21a82338cf13","system_id":"levelo_inurba_marseille","lat":43.27058,"lon":5.4027,"is_reserved":false,"is_disabled":false,"rental_uris":{"android":"levelo://app?vid=c4e17f26-b51c-4d27-9aba-21a82338cf13","ios":"levelo://app?vid=c4e17f26-b51c-4d27-9aba-21a82338cf13"},"vehicle_type_id":"4","last_reported":1741874973,"current_range_meters":14000,"station_id":"ce4bhk92rcd13ifvqgc0","pricing_plan_id":"cebpf4jnsgd1na2vs0mg"},{"bike_id":"1caf58e1-6273-4273-9c58-263efa9d2e3f","system_id":"levelo_inurba_marseille","lat":43.26786,"lon":5.39413,"is_reserved":false,"is_disabled":false,"rental_uris":{"android":"levelo://app?vid=1caf58e1-6273-4273-9c58-263efa9d2e3f","ios":"levelo://app?vid=1caf58e1-6273-4273-9c58-263efa9d2e3f"},"vehicle_type_id":"4","last_reported":1741874973,"current_range_meters":14000,"station_id":"ce4bhh12rcd13ifvqfg0","pricing_plan_id":"cebpf4jnsgd1na2vs0mg"},{"bike_id":"c21d61f0-bcdb-4f5b-905a-e9e09c25ab8b","system_id":"levelo_inurba_marseille","lat":43.24048,"lon":5.37741,"is_reserved":false,"is_disabled":false,"rental_uris":{"android":"levelo://app?vid=c21d61f0-bcdb-4f5b-905a-e9e09c25ab8b","ios":"levelo://app?vid=c21d61f0-bcdb-4f5b-905a-e9e09c25ab8b"},"vehicle_type_id":"4","last_reported":1741874973,"current_range_meters":14000,"station_id":"ce4bhnp2rcd13ifvqgvg","pricing_plan_id":"cebpf4jnsgd1na2vs0mg"},{"bike_id":"b634fcd7-4303-4fed-a2f8-fcd04ed2a4dd","system_id":"levelo_inurba_marseille","lat":43.23049,"lon":5.35507,"is_reserved":false,"is_disabled":false,"rental_uris":{"android":"levelo://app?vid=b634fcd7-4303-4fed-a2f8-fcd04ed2a4dd","ios":"levelo://app?vid=b634fcd7-4303-4fed-a2f8-fcd04ed2a4dd"},"vehicle_type_id":"4","last_reported":1741874973,"current_range_meters":14000,"station_id":"cpo3342slgdg3j2ifvpg","pricing_plan_id":"cebpf4jnsgd1na2vs0mg"},{"bike_id":"d3dcf939-dc05-4a28-8f4c-4a2e5ab611d5","system_id":"levelo_inurba_marseille","lat":43.27313,"lon":5.39082,"is_reserved":false,"is_disabled":false,"rental_uris":{"android":"levelo://app?vid=d3dcf939-dc05-4a28-8f4c-4a2e5ab611d5","ios":"levelo://app?vid=d3dcf939-dc05-4a28-8f4c-4a2e5ab611d5"},"vehicle_type_id":"4","last_reported":1741874973,"current_range_meters":11200,"station_id":"ce4bhgp2rcd13ifvqfe0","pricing_plan_id":"cebpf4jnsgd1na2vs0mg"},{"bike_id":"436bf6fd-98f0-4c70-968c-7fcac8f398a5","system_id":"levelo_inurba_marseille","lat":43.25074,"lon":5.4105,"is_reserved":false,"is_disabled":false,"rental_uris":{"android":"levelo://app?vid=436bf6fd-98f0-4c70-968c-7fcac8f398a5","ios":"levelo://app?vid=436bf6fd-98f0-4c70-968c-7fcac8f398a5"},"vehicle_type_id":"4","last_reported":1741874973,"current_range_meters":14400,"station_id":"","pricing_plan_id":"cebpf4jnsgd1na2vs0mg"},{"bike_id":"af1bfcbf-6d70-4682-a895-c4ae6738b248","system_id":"levelo_inurba_marseille","lat":43.30145,"lon":5.3743,"is_reserved":false,"is_disabled":false,"rental_uris":{"android":"levelo://app?vid=af1bfcbf-6d70-4682-a895-c4ae6738b248","ios":"levelo://app?vid=af1bfcbf-6d70-4682-a895-c4ae6738b248"},"vehicle_type_id":"4","last_reported":1741874973,"current_range_meters":14400,"station_id":"ce4bgs92rcd13ifvqcc0","pricing_plan_id":"cebpf4jnsgd1na2vs0mg"},{"bike_id":"802ac9ca-e447-4026-9785-888ac37ac552","system_id":"levelo_inurba_marseille","lat":43.30215,"lon":5.39468,"is_reserved":false,"is_disabled":false,"rental_uris":{"android":"levelo://app?vid=802ac9ca-e447-4026-9785-888ac37ac552","ios":"levelo://app?vid=802ac9ca-e447-4026-9785-888ac37ac552"},"vehicle_type_id":"4","last_reported":1741874973,"current_range_meters":14400,"station_id":"ce4bh0p2rcd13ifvqd70","pricing_plan_id":"cebpf4jnsgd1na2vs0mg"},{"bike_id":"9a719051-5115-4a08-8e7b-ae42f9cbb7fe","system_id":"levelo_inurba_marseille","lat":43.31128,"lon":5.37772,"is_reserved":false,"is_disabled":false,"rental_uris":{"android":"levelo://app?vid=9a719051-5115-4a08-8e7b-ae42f9cbb7fe","ios":"levelo://app?vid=9a719051-5115-4a08-8e7b-ae42f9cbb7fe"},"vehicle_type_id":"4","last_reported":1741874973,"current_range_meters":14400,"station_id":"ce4bgt92rcd13ifvqcg0","pricing_plan_id":"cebpf4jnsgd1na2vs0mg"},{"bike_id":"e4f59c94-c98b-4350-9de1-3ea0397f9325","system_id":"levelo_inurba_marseille","lat":43.24074,"lon":5.37749,"is_reserved":false,"is_disabled":false,"rental_uris":{"android":"levelo://app?vid=e4f59c94-c98b-4350-9de1-3ea0397f9325","ios":"levelo://app?vid=e4f59c94-c98b-4350-9de1-3ea0397f9325"},"vehicle_type_id":"4","last_reported":1741874973,"current_range_meters":14400,"station_id":"ce4bhnp2rcd13ifvqgvg","pricing_plan_id":"cebpf4jnsgd1na2vs0mg"},{"bike_id":"6038b1d8-a770-4b8d-b581-5b052d4715b2","system_id":"levelo_inurba_marseille","lat":43.29737,"lon":5.37695,"is_reserved":false,"is_disabled":false,"rental_uris":{"android":"levelo://app?vid=6038b1d8-a770-4b8d-b581-5b052d4715b2","ios":"levelo://app?vid=6038b1d8-a770-4b8d-b581-5b052d4715b2"},"vehicle_type_id":"4","last_reported":1741874973,"current_range_meters":14400,"station_id":"ce4bgkh2rcd13ifvqbl0","pricing_plan_id":"cebpf4jnsgd1na2vs0mg"},{"bike_id":"5ecdb12c-36da-48a5-bb20-9b777db2eeab","system_id":"levelo_inurba_marseille","lat":43.31166,"lon":5.38716,"is_reserved":false,"is_disabled":false,"rental_uris":{"android":"levelo://app?vid=5ecdb12c-36da-48a5-bb20-9b777db2eeab","ios":"levelo://app?vid=5ecdb12c-36da-48a5-bb20-9b777db2eeab"},"vehicle_type_id":"4","last_reported":1741874973,"current_range_meters":14400,"station_id":"ce4bgv12rcd13ifvqcp0","pricing_plan_id":"cebpf4jnsgd1na2vs0mg"},{"bike_id":"7a2528c7-fc51-47b3-b130-bcfcd01c1079","system_id":"levelo_inurba_marseille","lat":43.25937,"lon":5.40949,"is_reserved":false,"is_disabled":false,"rental_uris":{"android":"levelo://app?vid=7a2528c7-fc51-47b3-b130-bcfcd01c1079","ios":"levelo://app?vid=7a2528c7-fc51-47b3-b130-bcfcd01c1079"},"vehicle_type_id":"4","last_reported":1741874973,"current_range_meters":14800,"station_id":"ce4bhm92rcd13ifvqglg","pricing_plan_id":"cebpf4jnsgd1na2vs0mg"},{"bike_id":"4d5abe29-9430-4786-a57f-c4d7ac5e065c","system_id":"levelo_inurba_marseille","lat":43.251251,"lon":5.394813,"is_reserved":false,"is_disabled":false,"rental_uris":{"android":"levelo://app?vid=4d5abe29-9430-4786-a57f-c4d7ac5e065c","ios":"levelo://app?vid=4d5abe29-9430-4786-a57f-c4d7ac5e065c"},"vehicle_type_id":"4","last_reported":1741874973,"current_range_meters":14800,"station_id":"","pricing_plan_id":"cebpf4jnsgd1na2vs0mg"},{"bike_id":"36fa1bfb-4451-41ac-ac56-73ee9f3feeab","system_id":"levelo_inurba_marseille","lat":43.31247,"lon":5.36897,"is_reserved":false,"is_disabled":false,"rental_uris":{"android":"levelo://app?vid=36fa1bfb-4451-41ac-ac56-73ee9f3feeab","ios":"levelo://app?vid=36fa1bfb-4451-41ac-ac56-73ee9f3feeab"},"vehicle_type_id":"4","last_reported":1741874973,"current_range_meters":14800,"station_id":"ce4bgl92rcd13ifvqbq0","pricing_plan_id":"cebpf4jnsgd1na2vs0mg"},{"bike_id":"bf702e5c-17d7-4b8b-9869-f878cb0ee2a1","system_id":"levelo_inurba_marseille","lat":43.30148,"lon":5.3743,"is_reserved":false,"is_disabled":false,"rental_uris":{"android":"levelo://app?vid=bf702e5c-17d7-4b8b-9869-f878cb0ee2a1","ios":"levelo://app?vid=bf702e5c-17d7-4b8b-9869-f878cb0ee2a1"},"vehicle_type_id":"4","last_reported":1741874973,"current_range_meters":14800,"station_id":"ce4bgs92rcd13ifvqcc0","pricing_plan_id":"cebpf4jnsgd1na2vs0mg"},{"bike_id":"cdeb9c28-eb04-456d-b1cb-c41bc809e03a","system_id":"levelo_inurba_marseille","lat":43.28617,"lon":5.35102,"is_reserved":false,"is_disabled":false,"rental_uris":{"android":"levelo://app?vid=cdeb9c28-eb04-456d-b1cb-c41bc809e03a","ios":"levelo://app?vid=cdeb9c28-eb04-456d-b1cb-c41bc809e03a"},"vehicle_type_id":"4","last_reported":1741874973,"current_range_meters":14800,"station_id":"ce4bhch2rcd13ifvqeug","pricing_plan_id":"cebpf4jnsgd1na2vs0mg"},{"bike_id":"77cbc960-d867-4b5b-9b37-36d75958c974","system_id":"levelo_inurba_marseille","lat":43.29935,"lon":5.36549,"is_reserved":false,"is_disabled":false,"rental_uris":{"android":"levelo://app?vid=77cbc960-d867-4b5b-9b37-36d75958c974","ios":"levelo://app?vid=77cbc960-d867-4b5b-9b37-36d75958c974"},"vehicle_type_id":"4","last_reported":1741874973,"current_range_meters":14800,"station_id":"ce4bgm92rcd13ifvqbr0","pricing_plan_id":"cebpf4jnsgd1na2vs0mg"},{"bike_id":"edeff993-7353-413f-b42c-b0f5072095e8","system_id":"levelo_inurba_marseille","lat":43.25925,"lon":5.40921,"is_reserved":false,"is_disabled":false,"rental_uris":{"android":"levelo://app?vid=edeff993-7353-413f-b42c-b0f5072095e8","ios":"levelo://app?vid=edeff993-7353-413f-b42c-b0f5072095e8"},"vehicle_type_id":"4","last_reported":1741874973,"current_range_meters":14800,"station_id":"ce4bhm92rcd13ifvqglg","pricing_plan_id":"cebpf4jnsgd1na2vs0mg"},{"bike_id":"e718363a-fbf8-4620-a4c3-acad23711b13","system_id":"levelo_inurba_marseille","lat":43.30422,"lon":5.39751,"is_reserved":false,"is_disabled":false,"rental_uris":{"android":"levelo://app?vid=e718363a-fbf8-4620-a4c3-acad23711b13","ios":"levelo://app?vid=e718363a-fbf8-4620-a4c3-acad23711b13"},"vehicle_type_id":"4","last_reported":1741874973,"current_range_meters":13600,"station_id":"ce4bh092rcd13ifvqd20","pricing_plan_id":"cebpf4jnsgd1na2vs0mg"},{"bike_id":"a5e71948-735a-4229-b2ca-74d55fc62066","system_id":"levelo_inurba_marseille","lat":43.28041,"lon":5.36945,"is_reserved":false,"is_disabled":false,"rental_uris":{"android":"levelo://app?vid=a5e71948-735a-4229-b2ca-74d55fc62066","ios":"levelo://app?vid=a5e71948-735a-4229-b2ca-74d55fc62066"},"vehicle_type_id":"4","last_reported":1741874973,"current_range_meters":15200,"station_id":"ce4bha12rcd13ifvqef0","pricing_plan_id":"cebpf4jnsgd1na2vs0mg"},{"bike_id":"b00ae630-b589-44fd-9ccf-d2b46c1ae822","system_id":"levelo_inurba_marseille","lat":43.30642,"lon":5.40088,"is_reserved":false,"is_disabled":false,"rental_uris":{"android":"levelo://app?vid=b00ae630-b589-44fd-9ccf-d2b46c1ae822","ios":"levelo://app?vid=b00ae630-b589-44fd-9ccf-d2b46c1ae822"},"vehicle_type_id":"4","last_reported":1741874973,"current_range_meters":15200,"station_id":"ce4bh112rcd13ifvqda0","pricing_plan_id":"cebpf4jnsgd1na2vs0mg"},{"bike_id":"a3512859-e395-437f-b299-2d45702f1f76","system_id":"levelo_inurba_marseille","lat":43.311657,"lon":5.38708,"is_reserved":false,"is_disabled":false,"rental_uris":{"android":"levelo://app?vid=a3512859-e395-437f-b299-2d45702f1f76","ios":"levelo://app?vid=a3512859-e395-437f-b299-2d45702f1f76"},"vehicle_type_id":"4","last_reported":1741874973,"current_range_meters":15200,"station_id":"ce4bgv12rcd13ifvqcp0","pricing_plan_id":"cebpf4jnsgd1na2vs0mg"},{"bike_id":"20cf9b1f-595a-46ff-b2c1-133275f66c95","system_id":"levelo_inurba_marseille","lat":43.2316,"lon":5.43724,"is_reserved":false,"is_disabled":false,"rental_uris":{"android":"levelo://app?vid=20cf9b1f-595a-46ff-b2c1-133275f66c95","ios":"levelo://app?vid=20cf9b1f-595a-46ff-b2c1-133275f66c95"},"vehicle_type_id":"4","last_reported":1741874973,"current_range_meters":16000,"station_id":"ce4bhmp2rcd13ifvqgog","pricing_plan_id":"cebpf4jnsgd1na2vs0mg"},{"bike_id":"aeec4843-e0cf-441f-b4d2-907b0f5fbe59","system_id":"levelo_inurba_marseille","lat":43.25825,"lon":5.39438,"is_reserved":false,"is_disabled":false,"rental_uris":{"android":"levelo://app?vid=aeec4843-e0cf-441f-b4d2-907b0f5fbe59","ios":"levelo://app?vid=aeec4843-e0cf-441f-b4d2-907b0f5fbe59"},"vehicle_type_id":"4","last_reported":1741874973,"current_range_meters":16000,"station_id":"ce4bhip2rcd13ifvqft0","pricing_plan_id":"cebpf4jnsgd1na2vs0mg"},{"bike_id":"8af0edff-6988-443e-bfbb-62952732ede6","system_id":"levelo_inurba_marseille","lat":43.30553,"lon":5.36535,"is_reserved":false,"is_disabled":false,"rental_uris":{"android":"levelo://app?vid=8af0edff-6988-443e-bfbb-62952732ede6","ios":"levelo://app?vid=8af0edff-6988-443e-bfbb-62952732ede6"},"vehicle_type_id":"4","last_reported":1741874973,"current_range_meters":16000,"station_id":"ce4bgs12rcd13ifvqcag","pricing_plan_id":"cebpf4jnsgd1na2vs0mg"},{"bike_id":"af36b948-217a-4522-a681-29e2eae63eaa","system_id":"levelo_inurba_marseille","lat":43.2558,"lon":5.38223,"is_reserved":false,"is_disabled":false,"rental_uris":{"android":"levelo://app?vid=af36b948-217a-4522-a681-29e2eae63eaa","ios":"levelo://app?vid=af36b948-217a-4522-a681-29e2eae63eaa"},"vehicle_type_id":"4","last_reported":1741874973,"current_range_meters":10800,"station_id":"ce4bhih2rcd13ifvqfs0","pricing_plan_id":"cebpf4jnsgd1na2vs0mg"},{"bike_id":"d9b67e63-1738-47a5-96ee-8badfa308a96","system_id":"levelo_inurba_marseille","lat":43.26684,"lon":5.38278,"is_reserved":false,"is_disabled":false,"rental_uris":{"android":"levelo://app?vid=d9b67e63-1738-47a5-96ee-8badfa308a96","ios":"levelo://app?vid=d9b67e63-1738-47a5-96ee-8badfa308a96"},"vehicle_type_id":"4","last_reported":1741874973,"current_range_meters":16000,"station_id":"ce4bhg92rcd13ifvqf90","pricing_plan_id":"cebpf4jnsgd1na2vs0mg"},{"bike_id":"c36d1500-f4d5-46bc-8fde-f914dc989473","system_id":"levelo_inurba_marseille","lat":43.29961,"lon":5.4132,"is_reserved":false,"is_disabled":false,"rental_uris":{"android":"levelo://app?vid=c36d1500-f4d5-46bc-8fde-f914dc989473","ios":"levelo://app?vid=c36d1500-f4d5-46bc-8fde-f914dc989473"},"vehicle_type_id":"4","last_reported":1741874973,"current_range_meters":16000,"station_id":"ce4bhp12rcd13ifvqh9g","pricing_plan_id":"cebpf4jnsgd1na2vs0mg"},{"bike_id":"afa276d3-20ee-44e6-aca5-ad3f1aa8146e","system_id":"levelo_inurba_marseille","lat":43.31271,"lon":5.40174,"is_reserved":false,"is_disabled":false,"rental_uris":{"android":"levelo://app?vid=afa276d3-20ee-44e6-aca5-ad3f1aa8146e","ios":"levelo://app?vid=afa276d3-20ee-44e6-aca5-ad3f1aa8146e"},"vehicle_type_id":"4","last_reported":1741874973,"current_range_meters":13600,"station_id":"ce4bh092rcd13ifvqd30","pricing_plan_id":"cebpf4jnsgd1na2vs0mg"},{"bike_id":"dc2dc920-7061-4611-9ad3-02d4898aaa15","system_id":"levelo_inurba_marseille","lat":43.23201,"lon":5.39988,"is_reserved":false,"is_disabled":false,"rental_uris":{"android":"levelo://app?vid=dc2dc920-7061-4611-9ad3-02d4898aaa15","ios":"levelo://app?vid=dc2dc920-7061-4611-9ad3-02d4898aaa15"},"vehicle_type_id":"4","last_reported":1741874973,"current_range_meters":16000,"station_id":"ce4bhn12rcd13ifvqgqg","pricing_plan_id":"cebpf4jnsgd1na2vs0mg"},{"bike_id":"e514d185-4131-49cd-8a7c-317241865033","system_id":"levelo_inurba_marseille","lat":43.31508,"lon":5.37307,"is_reserved":false,"is_disabled":false,"rental_uris":{"android":"levelo://app?vid=e514d185-4131-49cd-8a7c-317241865033","ios":"levelo://app?vid=e514d185-4131-49cd-8a7c-317241865033"},"vehicle_type_id":"4","last_reported":1741874973,"current_range_meters":16000,"station_id":"ce4bgt12rcd13ifvqcd0","pricing_plan_id":"cebpf4jnsgd1na2vs0mg"},{"bike_id":"8c790b53-916b-426e-bc14-5c33323208ff","system_id":"levelo_inurba_marseille","lat":43.30155,"lon":5.38104,"is_reserved":false,"is_disabled":false,"rental_uris":{"android":"levelo://app?vid=8c790b53-916b-426e-bc14-5c33323208ff","ios":"levelo://app?vid=8c790b53-916b-426e-bc14-5c33323208ff"},"vehicle_type_id":"4","last_reported":1741874973,"current_range_meters":14000,"station_id":"ce4bgjp2rcd13ifvqbh0","pricing_plan_id":"cebpf4jnsgd1na2vs0mg"},{"bike_id":"594a33ea-5c85-49b0-893b-48b1f5e1011a","system_id":"levelo_inurba_marseille","lat":43.30933,"lon":5.4015,"is_reserved":false,"is_disabled":true,"rental_uris":{"android":"levelo://app?vid=594a33ea-5c85-49b0-893b-48b1f5e1011a","ios":"levelo://app?vid=594a33ea-5c85-49b0-893b-48b1f5e1011a"},"vehicle_type_id":"4","last_reported":1741874973,"current_range_meters":16000,"station_id":"ce4bgvp2rcd13ifvqct0","pricing_plan_id":"cebpf4jnsgd1na2vs0mg"},{"bike_id":"2b92baed-08ce-4f80-aa18-03c2a52c6f8e","system_id":"levelo_inurba_marseille","lat":43.28487,"lon":5.38573,"is_reserved":false,"is_disabled":false,"rental_uris":{"android":"levelo://app?vid=2b92baed-08ce-4f80-aa18-03c2a52c6f8e","ios":"levelo://app?vid=2b92baed-08ce-4f80-aa18-03c2a52c6f8e"},"vehicle_type_id":"4","last_reported":1741874973,"current_range_meters":16000,"station_id":"ce4bh8p2rcd13ifvqeb0","pricing_plan_id":"cebpf4jnsgd1na2vs0mg"},{"bike_id":"92c7a07a-61be-4170-8fc7-b6f505b25671","system_id":"levelo_inurba_marseille","lat":43.29578,"lon":5.37506,"is_reserved":false,"is_disabled":false,"rental_uris":{"android":"levelo://app?vid=92c7a07a-61be-4170-8fc7-b6f505b25671","ios":"levelo://app?vid=92c7a07a-61be-4170-8fc7-b6f505b25671"},"vehicle_type_id":"4","last_reported":1741874973,"current_range_meters":16000,"station_id":"ce4bgh92rcd13ifvqb50","pricing_plan_id":"cebpf4jnsgd1na2vs0mg"},{"bike_id":"f42fb81b-20b4-490e-91af-424cf9f28529","system_id":"levelo_inurba_marseille","lat":43.29849,"lon":5.36274,"is_reserved":false,"is_disabled":false,"rental_uris":{"android":"levelo://app?vid=f42fb81b-20b4-490e-91af-424cf9f28529","ios":"levelo://app?vid=f42fb81b-20b4-490e-91af-424cf9f28529"},"vehicle_type_id":"4","last_reported":1741874973,"current_range_meters":16000,"station_id":"ce4bgpp2rcd13ifvqc3g","pricing_plan_id":"cebpf4jnsgd1na2vs0mg"},{"bike_id":"29832e81-b63f-44c3-a8ae-1ccbc505bd58","system_id":"levelo_inurba_marseille","lat":43.27819,"lon":5.40709,"is_reserved":false,"is_disabled":false,"rental_uris":{"android":"levelo://app?vid=29832e81-b63f-44c3-a8ae-1ccbc505bd58","ios":"levelo://app?vid=29832e81-b63f-44c3-a8ae-1ccbc505bd58"},"vehicle_type_id":"4","last_reported":1741874973,"current_range_meters":16400,"station_id":"ce4bhnh2rcd13ifvqgtg","pricing_plan_id":"cebpf4jnsgd1na2vs0mg"},{"bike_id":"796a9c3c-d006-4f72-92ae-af64cf7e484e","system_id":"levelo_inurba_marseille","lat":43.290833,"lon":5.356017,"is_reserved":false,"is_disabled":false,"rental_uris":{"android":"levelo://app?vid=796a9c3c-d006-4f72-92ae-af64cf7e484e","ios":"levelo://app?vid=796a9c3c-d006-4f72-92ae-af64cf7e484e"},"vehicle_type_id":"4","last_reported":1741874973,"current_range_meters":16400,"station_id":"ce4bhch2rcd13ifvqeug","pricing_plan_id":"cebpf4jnsgd1na2vs0mg"},{"bike_id":"852a5922-5a4d-4b72-b3ba-dd43f319d325","system_id":"levelo_inurba_marseille","lat":43.2857,"lon":5.39492,"is_reserved":false,"is_disabled":false,"rental_uris":{"android":"levelo://app?vid=852a5922-5a4d-4b72-b3ba-dd43f319d325","ios":"levelo://app?vid=852a5922-5a4d-4b72-b3ba-dd43f319d325"},"vehicle_type_id":"4","last_reported":1741874973,"current_range_meters":16000,"station_id":"ce4bh292rcd13ifvqdg0","pricing_plan_id":"cebpf4jnsgd1na2vs0mg"},{"bike_id":"0fe7f92d-4a50-4708-a240-af2187680432","system_id":"levelo_inurba_marseille","lat":43.32074,"lon":5.41544,"is_reserved":false,"is_disabled":false,"rental_uris":{"android":"levelo://app?vid=0fe7f92d-4a50-4708-a240-af2187680432","ios":"levelo://app?vid=0fe7f92d-4a50-4708-a240-af2187680432"},"vehicle_type_id":"4","last_reported":1741874973,"current_range_meters":15200,"station_id":"ce4bhq92rcd13ifvqhkg","pricing_plan_id":"cebpf4jnsgd1na2vs0mg"},{"bike_id":"77cc074f-a4fc-4efc-9943-a45c92a22bc2","system_id":"levelo_inurba_marseille","lat":43.312198,"lon":5.368934,"is_reserved":false,"is_disabled":false,"rental_uris":{"android":"levelo://app?vid=77cc074f-a4fc-4efc-9943-a45c92a22bc2","ios":"levelo://app?vid=77cc074f-a4fc-4efc-9943-a45c92a22bc2"},"vehicle_type_id":"4","last_reported":1741874973,"current_range_meters":16400,"station_id":"ce4bgl92rcd13ifvqbq0","pricing_plan_id":"cebpf4jnsgd1na2vs0mg"},{"bike_id":"ce6e0317-ba01-42a3-8b96-dd0fa3fa198d","system_id":"levelo_inurba_marseille","lat":43.26567,"lon":5.39012,"is_reserved":false,"is_disabled":false,"rental_uris":{"android":"levelo://app?vid=ce6e0317-ba01-42a3-8b96-dd0fa3fa198d","ios":"levelo://app?vid=ce6e0317-ba01-42a3-8b96-dd0fa3fa198d"},"vehicle_type_id":"4","last_reported":1741874973,"current_range_meters":16800,"station_id":"ce4bhe12rcd13ifvqf30","pricing_plan_id":"cebpf4jnsgd1na2vs0mg"},{"bike_id":"a1865482-901a-461f-bbbf-89cc5aaa4978","system_id":"levelo_inurba_marseille","lat":43.31275,"lon":5.37896,"is_reserved":false,"is_disabled":false,"rental_uris":{"android":"levelo://app?vid=a1865482-901a-461f-bbbf-89cc5aaa4978","ios":"levelo://app?vid=a1865482-901a-461f-bbbf-89cc5aaa4978"},"vehicle_type_id":"4","last_reported":1741874973,"current_range_meters":16800,"station_id":"ce4bgj92rcd13ifvqbd0","pricing_plan_id":"cebpf4jnsgd1na2vs0mg"},{"bike_id":"3a0ca2ac-ad4f-4f28-856e-a8dc668ca745","system_id":"levelo_inurba_marseille","lat":43.23962,"lon":5.36639,"is_reserved":false,"is_disabled":false,"rental_uris":{"android":"levelo://app?vid=3a0ca2ac-ad4f-4f28-856e-a8dc668ca745","ios":"levelo://app?vid=3a0ca2ac-ad4f-4f28-856e-a8dc668ca745"},"vehicle_type_id":"4","last_reported":1741874973,"current_range_meters":16800,"station_id":"ce4bhi12rcd13ifvqfp0","pricing_plan_id":"cebpf4jnsgd1na2vs0mg"},{"bike_id":"ba0ff314-18b8-4ef6-b3f3-756e797defc3","system_id":"levelo_inurba_marseille","lat":43.30789,"lon":5.37659,"is_reserved":false,"is_disabled":false,"rental_uris":{"android":"levelo://app?vid=ba0ff314-18b8-4ef6-b3f3-756e797defc3","ios":"levelo://app?vid=ba0ff314-18b8-4ef6-b3f3-756e797defc3"},"vehicle_type_id":"4","last_reported":1741874973,"current_range_meters":15200,"station_id":"ce4bgv92rcd13ifvqcq0","pricing_plan_id":"cebpf4jnsgd1na2vs0mg"},{"bike_id":"581bd16e-98d8-40cf-ab32-51a6728dc7bc","system_id":"levelo_inurba_marseille","lat":43.305439,"lon":5.367325,"is_reserved":false,"is_disabled":false,"rental_uris":{"android":"levelo://app?vid=581bd16e-98d8-40cf-ab32-51a6728dc7bc","ios":"levelo://app?vid=581bd16e-98d8-40cf-ab32-51a6728dc7bc"},"vehicle_type_id":"4","last_reported":1741874973,"current_range_meters":16800,"station_id":"ce4bgrp2rcd13ifvqc9g","pricing_plan_id":"cebpf4jnsgd1na2vs0mg"},{"bike_id":"b21aaa21-82e6-4bbf-ba40-161f0790e583","system_id":"levelo_inurba_marseille","lat":43.2963,"lon":5.37749,"is_reserved":false,"is_disabled":false,"rental_uris":{"android":"levelo://app?vid=b21aaa21-82e6-4bbf-ba40-161f0790e583","ios":"levelo://app?vid=b21aaa21-82e6-4bbf-ba40-161f0790e583"},"vehicle_type_id":"4","last_reported":1741874973,"current_range_meters":16800,"station_id":"ce4bgi92rcd13ifvqb90","pricing_plan_id":"cebpf4jnsgd1na2vs0mg"},{"bike_id":"eff977f0-75cf-4a36-afca-3848bedb88d2","system_id":"levelo_inurba_marseille","lat":43.25929,"lon":5.4088,"is_reserved":false,"is_disabled":false,"rental_uris":{"android":"levelo://app?vid=eff977f0-75cf-4a36-afca-3848bedb88d2","ios":"levelo://app?vid=eff977f0-75cf-4a36-afca-3848bedb88d2"},"vehicle_type_id":"4","last_reported":1741874973,"current_range_meters":16800,"station_id":"ce4bhm92rcd13ifvqglg","pricing_plan_id":"cebpf4jnsgd1na2vs0mg"},{"bike_id":"81a43aa3-60c9-43d2-8f38-0da45024c036","system_id":"levelo_inurba_marseille","lat":43.29303,"lon":5.37461,"is_reserved":false,"is_disabled":false,"rental_uris":{"android":"levelo://app?vid=81a43aa3-60c9-43d2-8f38-0da45024c036","ios":"levelo://app?vid=81a43aa3-60c9-43d2-8f38-0da45024c036"},"vehicle_type_id":"4","last_reported":1741874973,"current_range_meters":16800,"station_id":"ce4bgi12rcd13ifvqb70","pricing_plan_id":"cebpf4jnsgd1na2vs0mg"},{"bike_id":"d24de72f-b9da-4a22-a621-54a05289e487","system_id":"levelo_inurba_marseille","lat":43.292701,"lon":5.376319,"is_reserved":false,"is_disabled":false,"rental_uris":{"android":"levelo://app?vid=d24de72f-b9da-4a22-a621-54a05289e487","ios":"levelo://app?vid=d24de72f-b9da-4a22-a621-54a05289e487"},"vehicle_type_id":"4","last_reported":1741874973,"current_range_meters":17200,"station_id":"ce4bh0h2rcd13ifvqd60","pricing_plan_id":"cebpf4jnsgd1na2vs0mg"},{"bike_id":"5cf40f48-6301-4a5b-a04e-2faa1b84d77e","system_id":"levelo_inurba_marseille","lat":43.24172,"lon":5.39722,"is_reserved":false,"is_disabled":false,"rental_uris":{"android":"levelo://app?vid=5cf40f48-6301-4a5b-a04e-2faa1b84d77e","ios":"levelo://app?vid=5cf40f48-6301-4a5b-a04e-2faa1b84d77e"},"vehicle_type_id":"4","last_reported":1741874973,"current_range_meters":17200,"station_id":"ce4bhn12rcd13ifvqgpg","pricing_plan_id":"cebpf4jnsgd1na2vs0mg"},{"bike_id":"33d9c851-555c-4800-a2f7-288a9a1b52a2","system_id":"levelo_inurba_marseille","lat":43.2418,"lon":5.39727,"is_reserved":false,"is_disabled":false,"rental_uris":{"android":"levelo://app?vid=33d9c851-555c-4800-a2f7-288a9a1b52a2","ios":"levelo://app?vid=33d9c851-555c-4800-a2f7-288a9a1b52a2"},"vehicle_type_id":"4","last_reported":1741874973,"current_range_meters":17200,"station_id":"ce4bhn12rcd13ifvqgpg","pricing_plan_id":"cebpf4jnsgd1na2vs0mg"},{"bike_id":"677dce07-4303-4850-854c-cdd23e166970","system_id":"levelo_inurba_marseille","lat":43.28567,"lon":5.39508,"is_reserved":false,"is_disabled":false,"rental_uris":{"android":"levelo://app?vid=677dce07-4303-4850-854c-cdd23e166970","ios":"levelo://app?vid=677dce07-4303-4850-854c-cdd23e166970"},"vehicle_type_id":"4","last_reported":1741874973,"current_range_meters":16400,"station_id":"ce4bh292rcd13ifvqdg0","pricing_plan_id":"cebpf4jnsgd1na2vs0mg"},{"bike_id":"3b5238ed-e6ef-44c4-ac93-f8e070990b1c","system_id":"levelo_inurba_marseille","lat":43.2571,"lon":5.41125,"is_reserved":false,"is_disabled":false,"rental_uris":{"android":"levelo://app?vid=3b5238ed-e6ef-44c4-ac93-f8e070990b1c","ios":"levelo://app?vid=3b5238ed-e6ef-44c4-ac93-f8e070990b1c"},"vehicle_type_id":"4","last_reported":1741874973,"current_range_meters":17200,"station_id":"ce4bhkp2rcd13ifvqgd0","pricing_plan_id":"cebpf4jnsgd1na2vs0mg"},{"bike_id":"f4f43cc4-e9ab-4efe-be95-2506b772f69c","system_id":"levelo_inurba_marseille","lat":43.30793,"lon":5.38144,"is_reserved":false,"is_disabled":false,"rental_uris":{"android":"levelo://app?vid=f4f43cc4-e9ab-4efe-be95-2506b772f69c","ios":"levelo://app?vid=f4f43cc4-e9ab-4efe-be95-2506b772f69c"},"vehicle_type_id":"4","last_reported":1741874973,"current_range_meters":17200,"station_id":"ce4bgt12rcd13ifvqce0","pricing_plan_id":"cebpf4jnsgd1na2vs0mg"},{"bike_id":"31c8862d-1f7d-4f69-a37f-93c25c9ce4d5","system_id":"levelo_inurba_marseille","lat":43.250057,"lon":5.389342,"is_reserved":false,"is_disabled":false,"rental_uris":{"android":"levelo://app?vid=31c8862d-1f7d-4f69-a37f-93c25c9ce4d5","ios":"levelo://app?vid=31c8862d-1f7d-4f69-a37f-93c25c9ce4d5"},"vehicle_type_id":"4","last_reported":1741874973,"current_range_meters":17200,"station_id":"ce4bhgp2rcd13ifvqfd0","pricing_plan_id":"cebpf4jnsgd1na2vs0mg"},{"bike_id":"d98e5f37-4f71-4a36-9b3b-496f87de0d61","system_id":"levelo_inurba_marseille","lat":43.311,"lon":5.37585,"is_reserved":false,"is_disabled":false,"rental_uris":{"android":"levelo://app?vid=d98e5f37-4f71-4a36-9b3b-496f87de0d61","ios":"levelo://app?vid=d98e5f37-4f71-4a36-9b3b-496f87de0d61"},"vehicle_type_id":"4","last_reported":1741874973,"current_range_meters":17200,"station_id":"","pricing_plan_id":"cebpf4jnsgd1na2vs0mg"},{"bike_id":"bd7fb638-a561-41df-90ca-f32685780427","system_id":"levelo_inurba_marseille","lat":43.22925,"lon":5.35379,"is_reserved":false,"is_disabled":false,"rental_uris":{"android":"levelo://app?vid=bd7fb638-a561-41df-90ca-f32685780427","ios":"levelo://app?vid=bd7fb638-a561-41df-90ca-f32685780427"},"vehicle_type_id":"4","last_reported":1741874973,"current_range_meters":17200,"station_id":"cpo3532slgdg3j2ikp40","pricing_plan_id":"cebpf4jnsgd1na2vs0mg"},{"bike_id":"a095ab76-70b4-4b06-bf63-6dcce3e8cf39","system_id":"levelo_inurba_marseille","lat":43.305609,"lon":5.366921,"is_reserved":false,"is_disabled":false,"rental_uris":{"android":"levelo://app?vid=a095ab76-70b4-4b06-bf63-6dcce3e8cf39","ios":"levelo://app?vid=a095ab76-70b4-4b06-bf63-6dcce3e8cf39"},"vehicle_type_id":"4","last_reported":1741874973,"current_range_meters":17200,"station_id":"ce4bgrp2rcd13ifvqc9g","pricing_plan_id":"cebpf4jnsgd1na2vs0mg"},{"bike_id":"c39a048f-25b3-439e-a57e-9347a03d6796","system_id":"levelo_inurba_marseille","lat":43.30328,"lon":5.4043,"is_reserved":false,"is_disabled":false,"rental_uris":{"android":"levelo://app?vid=c39a048f-25b3-439e-a57e-9347a03d6796","ios":"levelo://app?vid=c39a048f-25b3-439e-a57e-9347a03d6796"},